"lineid","car","time","location","longitude","latitude","cityid","cityname"
"248005","653-BX","2018/04/09 07:19:23","新北市五股區明德路12巷6號","121.433381666667","25.0717966666667","6501500","五股區"
"232001","290-BY","2018/04/09 07:19:38","新北市坪林區桶盤嶼10-1號","121.706485","24.95824","6502000","坪林區"
"232012","291-BY","2018/04/09 07:19:31","新北市坪林區仁里13號","121.686653333333","24.9289383333333","6502000","坪林區"
"232010","375-UM","2018/04/09 07:19:26","新北市坪林區水聳淒坑6-2號","121.725373333333","24.92642","6502000","坪林區"
"232017","705-BZ","2018/04/09 07:19:39","新北市坪林區九芎坑2號","121.723268333333","24.9663366666667","6502000","坪林區"
"232005","758-BX","2018/04/09 07:19:34","新北市坪林區魚堀42號","121.701236666667","24.932405","6502000","坪林區"
"244001","248-BX","2018/04/09 07:19:26","新北市林口區頂福里71-62號","121.35391","25.08093","6501700","林口區"
"222005","289-BY","2018/04/09 07:19:31","新北市深坑區深坑街69號","121.614825","25.0012733333333","6501800","深坑區"
"235001","611-BX","2018/04/09 07:19:28","新北市中和區圓通路367巷4號","121.491378333333","24.9892233333333","6500300","中和區"
"226005","5620-A6","2018/04/09 07:15:56","新北市平溪區菁桐里二坑路1號","121.721186666667","25.0242816666667","6502400","平溪區"
"226001","7418-A5","2018/04/09 07:18:55","新北市平溪區望古里灰4-2號","121.763651666667","25.0286816666667","6502400","平溪區"
"226003","AGD-0702","2018/04/09 07:19:34","新北市平溪區嶺腳里嶺腳寮66號","121.747846666667","25.0314733333333","6502400","平溪區"
"223006","022-BY","2018/04/09 07:19:33","新北市石碇區碇坪路一段2號","121.651485","25.0063683333333","6501900","石碇區"
"223002","KEA-2673","2018/04/09 07:19:22","新北市石碇區碇格路二段31號","121.638848333333","24.9573966666667","6501900","石碇區"
"223001","205-TH","2018/04/09 07:19:38","新北市石碇區烏塗窟23號","121.657028333333","24.9751","6501900","石碇區"
"223008","406-TH","2018/04/09 07:19:21","新北市石碇區番子坑36號","121.677896666667","25.0095716666667","6501900","石碇區"
"223001","592-UM","2018/04/09 07:19:24","新北市石碇區烏塗窟3號","121.654833333333","24.976555","6501900","石碇區"
"223004","660-BX","2018/04/09 07:19:27","新北市石碇區新興坑5號","121.654263333333","25.0175416666667","6501900","石碇區"
"223007","661-BX","2018/04/09 07:19:34","新北市石碇區蚯蚓坑18號","121.691388333333","25.00461","6501900","石碇區"
"223005","677-TV","2018/04/09 07:19:31","新北市石碇區新興坑4-1號","121.653838333333","25.0166766666667","6501900","石碇區"
"227005","030-BX","2018/04/09 07:19:24","新北市雙溪區新基里自強路5號","121.866311666667","25.0390333333333","6502500","雙溪區"
"252006","073-UM","2018/04/09 07:19:29","新北市三芝區錫板里海尾25號","121.484303333333","25.2556066666667","6502100","三芝區"
"252002","178-VK","2018/04/09 07:19:33","新北市三芝區中山路二段50號","121.503256666667","25.254355","6502100","三芝區"
"252004","249-BX","2018/04/09 07:19:23","新北市三芝區福德里大湖10號","121.504591666667","25.2235483333333","6502100","三芝區"
"237001","159-UY","2018/04/09 07:19:23","新北市三峽區隆恩街245號","121.357708333333","24.9410083333333","6500900","三峽區"
"236007","165-UM","2018/04/09 07:19:19","新北市土城區中華路一段5號","121.447095","24.989655","6501300","土城區"
"236001","339-SR","2018/04/09 07:19:23","新北市土城區和平路99-2號","121.448696666667","24.9692533333333","6501300","土城區"
"242052","751-BX","2018/04/09 07:19:28","新北市新莊區新泰路255巷83號","121.442143333333","25.03905","6500500","新莊區"
"242026","615-BX","2018/04/09 07:19:35","新北市新莊區新泰路255巷83號","121.442206666667","25.0387983333333","6500500","新莊區"
"242022","362-BY","2018/04/09 07:19:27","新北市新莊區新泰路255巷83號","121.442241666667","25.0389533333333","6500500","新莊區"
"242038","133-UY","2018/04/09 07:19:36","新北市新莊區新泰路255巷83號","121.442096666667","25.0388333333333","6500500","新莊區"
"220077","282-UM","2018/04/09 07:19:24","新北市板橋區國光路31巷16號","121.457986666667","25.0180166666667","6500100","板橋區"
