"lineid","car","time","location","longitude","latitude","cityid","cityname"
"248005","653-BX","2018/03/13 08:31:36","新北市五股區明德路8號","121.433353333333","25.071715","6501500","五股區"
"244002","656-BX","2018/03/13 08:39:37","新北市林口區下福里87-12號","121.288501666667","25.11326","6501700","林口區"
"222004","289-BY","2018/03/13 08:39:56","新北市深坑區王軍寮2-3號","121.618255","24.9848","6501800","深坑區"
"231007","189-VK","2018/03/13 08:39:42","新北市新店區小坑二路19號","121.524285","24.91473","6500600","新店區"
"231009","192-VK","2018/03/13 08:39:45","新北市新店區新烏路三段304號","121.547883333333","24.8970516666667","6500600","新店區"
"235001","611-BX","2018/03/13 08:39:52","新北市中和區民安街53-12號","121.47968","24.9993483333333","6500300","中和區"
"226005","5620-A6","2018/03/13 08:39:43","新北市平溪區十分里十分街98號","121.777233333333","25.0424116666667","6502400","平溪區"
"226002","7418-A5","2018/03/13 08:31:51","新北市平溪區東勢里東勢格12號","121.7329","25.001385","6502400","平溪區"
"226003","AGD-0702","2018/03/13 08:39:46","新北市平溪區十分里十分街104號","121.777258333333","25.04256","6502400","平溪區"
"223006","022-BY","2018/03/13 08:39:53","新北市石碇區烏塗窟8號","121.655916666667","24.9750283333333","6501900","石碇區"
"223001","205-TH","2018/03/13 08:39:44","新北市石碇區北宜路六段柑腳巷2號","121.659525","24.93804","6501900","石碇區"
"223008","406-TH","2018/03/13 08:39:58","新北市石碇區光明路13號","121.67955","25.0326333333333","6501900","石碇區"
"223001","592-UM","2018/03/13 08:39:34","新北市石碇區北宜路六段柑腳巷1-1號","121.661638333333","24.939085","6501900","石碇區"
"223004","660-BX","2018/03/13 08:39:49","新北市石碇區崩山24-2號","121.678585","24.967875","6501900","石碇區"
"223007","661-BX","2018/03/13 08:39:40","新北市石碇區光明路15-1號","121.681646666667","25.03347","6501900","石碇區"
"223005","677-TV","2018/03/13 08:39:44","新北市石碇區崩山24-2號","121.678575","24.967845","6501900","石碇區"
"227006","282-VK","2018/03/13 08:39:43","新北市雙溪區上林里新寮子25號","121.830986666667","25.0267366666667","6502500","雙溪區"
"252004","249-BX","2018/03/13 08:39:41","新北市三芝區興華里田心子14號","121.492121666667","25.205115","6502100","三芝區"
"252007","AAC-283","2018/03/13 08:39:52","新北市三芝區後厝里番子崙6-1號","121.488706666667","25.2394283333333","6502100","三芝區"
"237001","159-UY","2018/03/13 08:39:53","新北市三峽區三樹路199號","121.378095","24.9421816666667","6500900","三峽區"
"236008","165-UM","2018/03/13 08:39:46","新北市土城區金城路一段66號","121.443023333333","24.97159","6501300","土城區"
"236002","339-SR","2018/03/13 08:39:50","新北市土城區中央路二段278巷2號","121.440751666667","24.9743633333333","6501300","土城區"
"236006","498-BY","2018/03/13 08:39:49","新北市土城區永和街46-1號","121.434448333333","24.9603933333333","6501300","土城區"
"220027","461-BY","2018/03/13 08:39:56","新北市八里區中山路三段409號","121.368558333333","25.1355933333333","6500100","板橋區"
