"lineid","car","time","location","longitude","latitude","cityid","cityname"
"248005","653-BX","2018/03/13 08:49:49","新北市五股區明德路10號","121.433398333333","25.071735","6501500","五股區"
"244002","656-BX","2018/03/13 08:49:37","新北市林口區下福90號","121.303093333333","25.122805","6501700","林口區"
"222004","289-BY","2018/03/13 08:49:56","新北市深坑區大崙尾1-1號","121.615796666667","24.9751616666667","6501800","深坑區"
"231007","189-VK","2018/03/13 08:49:42","新北市新店區小坑二路19號","121.524026666667","24.9144033333333","6500600","新店區"
"231009","192-VK","2018/03/13 08:45:25","新北市新店區松林路81號","121.550133333333","24.9074166666667","6500600","新店區"
"235001","611-BX","2018/03/13 08:49:52","新北市中和區莒光路84巷32號","121.4714","25.0025133333333","6500300","中和區"
"226005","5620-A6","2018/03/13 08:49:43","新北市平溪區靜安路三段86號","121.769456666667","25.0343716666667","6502400","平溪區"
"226002","7418-A5","2018/03/13 08:49:51","新北市平溪區東勢里芊蓁林59-1號","121.75203","25.00735","6502400","平溪區"
"226003","AGD-0702","2018/03/13 08:47:46","新北市平溪區望古里望古坑21-5號","121.760246666667","25.0336433333333","6502400","平溪區"
"223001","205-TH","2018/03/13 08:49:44","新北市石碇區北宜路六段水底寮巷1-1號","121.659811666667","24.9490383333333","6501900","石碇區"
"223008","406-TH","2018/03/13 08:49:58","新北市石碇區光明路27號","121.694911666667","25.0239116666667","6501900","石碇區"
"223001","592-UM","2018/03/13 08:49:55","新北市石碇區北宜路六段十三股巷1號","121.648266666667","24.9499716666667","6501900","石碇區"
"223004","660-BX","2018/03/13 08:49:49","新北市石碇區崩山53號","121.682391666667","24.968855","6501900","石碇區"
"223007","661-BX","2018/03/13 08:46:00","新北市石碇區光明路耳空龜巷12號","121.691571666667","25.0360566666667","6501900","石碇區"
"223005","677-TV","2018/03/13 08:49:44","新北市石碇區崩山43-2號","121.680488333333","24.9666866666667","6501900","石碇區"
"227006","282-VK","2018/03/13 08:49:43","新北市雙溪區上林里大瀨1號","121.83002","25.0252516666667","6502500","雙溪區"
"252004","249-BX","2018/03/13 08:49:41","新北市三芝區興華里田心子31號","121.488816666667","25.20047","6502100","三芝區"
"252007","AAC-283","2018/03/13 08:49:52","新北市三芝區錫板里番婆林44號","121.493456666667","25.2371083333333","6502100","三芝區"
"237001","159-UY","2018/03/13 08:49:53","新北市三峽區大觀路24號","121.375028333333","24.9447533333333","6500900","三峽區"
"236008","165-UM","2018/03/13 08:49:46","新北市土城區中山路55號","121.422966666667","24.96338","6501300","土城區"
"236002","339-SR","2018/03/13 08:49:50","新北市土城區中央路一段258號","121.444255","24.9843716666667","6501300","土城區"
"236006","498-BY","2018/03/13 08:49:49","新北市土城區承天路4巷10-9號","121.43763","24.9597083333333","6501300","土城區"
"220027","461-BY","2018/03/13 08:49:56","新北市林口區太平里180號","121.366981666667","25.1337083333333","6500100","板橋區"
