"lineid","car","time","location","longitude","latitude","cityid","cityname"
"231007","189-VK","2018/03/13 10:39:22","新北市新店區新潭路三段131號","121.511091666667","24.91121","6500600","新店區"
"231009","192-VK","2018/03/13 10:38:05","新北市新店區成功路265號","121.527578333333","24.88606","6500600","新店區"
"227006","282-VK","2018/03/13 10:39:23","新北市雙溪區新基里新基東街15-2號","121.87246","25.041985","6502500","雙溪區"
"227012","030-BX","2018/03/13 10:39:01","新北市坪林區豹子廚9-2號","121.784161666667","24.9737683333333","6502500","雙溪區"
"237001","159-UY","2018/03/13 10:38:39","新北市三峽區中山路459巷163-1號","121.349325","24.933415","6500900","三峽區"
"239006","661-UM","2018/03/13 10:34:11","新北市樹林區中山路三段210-2號","121.381408333333","24.9657416666667","6500800","鶯歌區"
