"lineid","car","time","location","longitude","latitude","cityid","cityname"
"244009","656-BX","2018/03/13 15:26:24","新北市林口區粉寮69號","121.405005","25.0909183333333","6501700","林口區"
"231002","002-UM","2018/03/13 15:29:33","新北市新店區環河路150-8號","121.53433","24.967925","6500600","新店區"
"231025","0293-UT","2018/03/13 15:29:20","新北市新店區薏仁坑路6號","121.500431666667","24.958005","6500600","新店區"
"231028","046-UY","2018/03/13 15:29:15","新北市新店區僑信路42號","121.499358333333","24.9508866666667","6500600","新店區"
"231030","047-UY","2018/03/13 15:29:33","新北市新店區新和街52號","121.519631666667","24.9852883333333","6500600","新店區"
"231029","106-UY","2018/03/13 15:29:28","新北市新店區安泰路60巷30號","121.482485","24.94685","6500600","新店區"
"231018","107-UY","2018/03/13 15:29:26","新北市新店區中央七街115號","121.525473333333","24.97778","6500600","新店區"
"231012","108-UY","2018/03/13 15:29:17","新北市新店區寶元路一段109號","121.545718333333","24.9831183333333","6500600","新店區"
"231020","187-VK","2018/03/13 15:29:22","新北市新店區新烏路一段159-1號","121.546888333333","24.9320983333333","6500600","新店區"
"231015","KEA-2219","2018/03/13 15:29:10","新北市新店區明山路45號","121.563765","24.95598","6500600","新店區"
"231026","256-BX","2018/03/13 15:29:21","新北市新店區三民路117巷5弄2號","121.534156666667","24.9711133333333","6500600","新店區"
"231023","AAD-862","2018/03/13 15:29:28","新北市新店區北新路一段96巷23號","121.542853333333","24.96884","6500600","新店區"
"231036","512-UM","2018/03/13 15:29:26","新北市新店區安祥路69巷41弄20號","121.482088333333","24.9605816666667","6500600","新店區"
"231035","515-UM","2018/03/13 15:29:31","新北市新店區安興路83-8號","121.515195","24.9756266666667","6500600","新店區"
"231003","641-BX","2018/03/13 15:29:20","新北市新店區寶高路120巷1號","121.554558333333","24.9760333333333","6500600","新店區"
"231034","645-TV","2018/03/13 15:29:15","新北市新店區富貴街9巷2號","121.494101666667","24.94908","6500600","新店區"
"231039","718-UY","2018/03/13 15:29:25","新北市新店區寶元路一段84巷2號","121.544416666667","24.9838866666667","6500600","新店區"
"231032","720-UM","2018/03/13 15:29:28","新北市新店區雙城路150號","121.493278333333","24.94579","6500600","新店區"
"231005","897-TW","2018/03/13 15:29:35","新北市新店區建國路276號","121.537145","24.9838566666667","6500600","新店區"
"231004","899-TW","2018/03/13 15:29:23","新北市新店區民族路108號","121.538175","24.9774783333333","6500600","新店區"
"231037","AKT-0513","2018/03/13 15:29:20","新北市新店區安興路105-1號","121.514626666667","24.9777316666667","6500600","新店區"
"241011","013-R5","2018/03/13 15:29:21","新北市三重區竹圍(仔)街17-5號","121.487231666667","25.04748","6500200","三重區"
"241017","063-VK","2018/03/13 15:29:35","新北市三重區新北大道一段7號","121.489701666667","25.0612683333333","6500200","三重區"
"241033","AAC-255","2018/03/13 15:29:29","新北市三重區成功路96號","121.487746666667","25.0515266666667","6500200","三重區"
"235016","031-BX","2018/03/13 15:29:20","新北市中和區中正路637巷60弄61號","121.48573","24.992885","6500300","中和區"
"235014","4979-A6","2018/03/13 15:29:32","新北市中和區景新街129號","121.505723333333","24.99727","6500300","中和區"
"235012","896-TW","2018/03/13 15:29:27","新北市中和區景新街368號","121.512175","24.9904083333333","6500300","中和區"
"235023","AAC-215","2018/03/13 15:29:26","新北市中和區員山路30-6號","121.48405","24.9878266666667","6500300","中和區"
"236065","105-UM","2018/03/13 15:29:18","新北市土城區水源街37號","121.440811666667","24.9756466666667","6501300","土城區"
"236041","107-UM","2018/03/13 15:29:31","新北市土城區學享街14號","121.451381666667","24.9873216666667","6501300","土城區"
"236075","166-UM","2018/03/13 15:29:30","新北市土城區龍泉路8號","121.40944","24.9499233333333","6501300","土城區"
"236029","253-BX","2018/03/13 15:29:22","新北市土城區日新街8巷7號","121.445393333333","24.9873266666667","6501300","土城區"
"236024","269-VK","2018/03/13 15:29:28","新北市土城區中央路一段269-3號","121.444885","24.985225","6501300","土城區"
"236013","270-VK","2018/03/13 15:29:22","新北市土城區德興街135號","121.455053333333","24.9917016666667","6501300","土城區"
"236034","271-VK","2018/03/13 15:29:19","新北市土城區延吉街353巷4號","121.464611666667","24.9837183333333","6501300","土城區"
"236017","401-BY","2018/03/13 15:29:26","新北市土城區峰廷街24-1號","121.469268333333","24.9868666666667","6501300","土城區"
"236061","752-BX","2018/03/13 15:29:28","新北市土城區金城路三段73巷9弄2號","121.466265","24.987735","6501300","土城區"
"236057","912-UM","2018/03/13 15:29:32","新北市土城區中央路二段34號","121.442725","24.97992","6501300","土城區"
"236045","913-UM","2018/03/13 15:29:31","新北市土城區青雲路145號","121.458751666667","24.984195","6501300","土城區"
"236054","AAC-216","2018/03/13 15:29:34","新北市土城區金城路三段185-1號","121.469763333333","24.9888883333333","6501300","土城區"
"220050","245-BX","2018/03/13 15:29:15","新北市板橋區漢生東路45號","121.465638333333","25.01664","6500100","板橋區"
"220001","285-VK","2018/03/13 15:29:25","新北市林口區太平里180號","121.367285","25.13374","6500100","板橋區"
"220038","487-VK","2018/03/13 15:29:33","新北市板橋區四維路347號","121.46235","25.0299483333333","6500100","板橋區"
"220052","561-BX","2018/03/13 15:29:30","新北市板橋區漢生東路73巷27號","121.467213333333","25.0170333333333","6500100","板橋區"
"220025","687-BX","2018/03/13 15:29:23","新北市板橋區華東街1-10號","121.448516666667","24.9950516666667","6500100","板橋區"
