"lineid","car","time","location","longitude","latitude","cityid","cityname"
"249005","172-UM","2018/03/13 17:28:56","新北市八里區荖阡坑路71號","121.406978333333","25.1262166666667","6502300","八里區"
"249001","173-UM","2018/03/13 17:29:20","新北市八里區中華路一段28號","121.422175","25.1581183333333","6502300","八里區"
"249004","303-UY","2018/03/13 17:29:18","新北市八里區埤頭一街150號","121.414316666667","25.158035","6502300","八里區"
"249002","305-UY","2018/03/13 17:29:15","新北市八里區龍米路二段48號","121.44819","25.1405883333333","6502300","八里區"
"249003","593-UM","2018/03/13 17:29:25","新北市八里區中山路二段289號","121.40155","25.148465","6502300","八里區"
"244013","069-UM","2018/03/13 17:29:22","新北市林口區粉寮路一段77-2號","121.397175","25.0796183333333","6501700","林口區"
"244007","080-UY","2018/03/13 17:29:19","新北市林口區湖子15-5號","121.386205","25.0907066666667","6501700","林口區"
"244019","402-UM","2018/03/13 17:29:15","新北市林口區公園路176號","121.372983333333","25.0724416666667","6501700","林口區"
"244025","742-UY","2018/03/13 17:29:23","新北市林口區南勢街120號","121.36303","25.0740816666667","6501700","林口區"
"244023","483-VK","2018/03/13 17:29:15","新北市林口區興林一街96巷22號","121.390916666667","25.0719716666667","6501700","林口區"
"244009","656-BX","2018/03/13 17:29:16","新北市林口區中華路225號","121.385238333333","25.0899133333333","6501700","林口區"
"244021","838-TS","2018/03/13 17:29:14","新北市林口區醒吾新村13號","121.396198333333","25.079235","6501700","林口區"
"231046","278-BY","2018/03/13 17:29:17","新北市新店區直潭路92號","121.53092","24.9376883333333","6500600","新店區"
"241011","013-R5","2018/03/13 17:29:21","新北市三重區龍濱路118-2號","121.50212","25.07056","6500200","三重區"
"241015","062-VK","2018/03/13 17:29:13","新北市三重區長元街65巷16弄15號","121.503496666667","25.0662083333333","6500200","三重區"
"241017","063-VK","2018/03/13 17:29:14","新北市三重區大同北路34巷52號","121.493615","25.0619466666667","6500200","三重區"
"241024","065-VK","2018/03/13 17:29:06","新北市三重區大勇街82巷15弄19號","121.480591666667","25.0719683333333","6500200","三重區"
"241019","090-VK","2018/03/13 17:29:06","新北市三重區自強路二段26巷24號","121.48878","25.0689233333333","6500200","三重區"
"241003","091-VK","2018/03/13 17:29:09","新北市三重區集賢路87-1號","121.49372","25.0869116666667","6500200","三重區"
"241005","262-UM","2018/03/13 17:29:14","新北市三重區碧華街55號","121.484708333333","25.081385","6500200","三重區"
"241016","265-UM","2018/03/13 17:29:23","新北市三重區信義西街148號","121.495371666667","25.06395","6500200","三重區"
"241022","267-UM","2018/03/13 17:29:19","新北市三重區新北大道一段7號","121.489623333333","25.0613","6500200","三重區"
"241018","268-UM","2018/03/13 17:29:11","新北市三重區新北大道一段2號","121.491483333333","25.0613966666667","6500200","三重區"
"241032","269-UM","2018/03/13 17:29:27","新北市三重區名源街44號","121.482408333333","25.0594683333333","6500200","三重區"
"241025","271-UM","2018/03/13 17:29:08","新北市三重區中正北路392-1號","121.475928333333","25.0702183333333","6500200","三重區"
"241007","398-BY","2018/03/13 17:29:24","新北市三重區慈愛街90號","121.4886","25.0800183333333","6500200","三重區"
"241020","413-TH","2018/03/13 17:29:24","新北市三重區忠孝路二段13號","121.486763333333","25.0714666666667","6500200","三重區"
"241030","480-VK","2018/03/13 17:29:17","新北市三重區新興路3號","121.49277","25.0530033333333","6500200","三重區"
"241014","543-UM","2018/03/13 17:29:25","新北市三重區安和路17號","121.50133","25.068475","6500200","三重區"
"241023","545-UM","2018/03/13 17:29:18","新北市三重區三民街146巷3弄2號","121.481646666667","25.06468","6500200","三重區"
"241012","941-UM","2018/03/13 17:29:22","新北市三重區仁興街39巷14-6號","121.499921666667","25.0760833333333","6500200","三重區"
"241033","AAC-255","2018/03/13 17:29:09","新北市三重區興德路133號","121.470193333333","25.0529866666667","6500200","三重區"
"247024","893-R6","2018/03/13 17:29:09","新北市蘆洲區長興路296-8號","121.460581666667","25.09013","6501400","蘆洲區"
"247014","546-UM","2018/03/13 17:29:19","新北市蘆洲區三民路33號","121.475415","25.0830183333333","6501400","蘆洲區"
"247022","500-BY","2018/03/13 17:29:24","新北市蘆洲區三民路456號","121.467296666667","25.0903016666667","6501400","蘆洲區"
"247010","341-TH","2018/03/13 17:29:16","新北市蘆洲區信義路118號","121.479818333333","25.0823833333333","6501400","蘆洲區"
"247012","339-TH","2018/03/13 17:29:13","新北市蘆洲區民族路64號","121.477236666667","25.084765","6501400","蘆洲區"
"247004","337-TH","2018/03/13 17:29:18","新北市蘆洲區永安南路二段298號","121.457241666667","25.0820716666667","6501400","蘆洲區"
"247006","336-TH","2018/03/13 17:29:16","新北市蘆洲區長安街22巷44號","121.465188333333","25.080365","6501400","蘆洲區"
"247018","057-VK","2018/03/13 17:29:07","新北市蘆洲區民權路156號","121.47248","25.0897133333333","6501400","蘆洲區"
"247008","056-VK","2018/03/13 17:29:27","新北市蘆洲區民生街42號","121.473978333333","25.078715","6501400","蘆洲區"
"247020","053-VK","2018/03/13 17:29:12","新北市蘆洲區水湳街389號","121.469761666667","25.0936533333333","6501400","蘆洲區"
"247016","007-UY","2018/03/13 17:29:11","新北市蘆洲區光華路22巷36號","121.468431666667","25.084655","6501400","蘆洲區"
"247002","002-UY","2018/03/13 17:29:13","新北市蘆洲區永樂街38巷40號","121.458605","25.0901616666667","6501400","蘆洲區"
"228001","212-TW","2018/03/13 17:29:18","新北市貢寮區仁理村仁愛路37號","121.92493","25.05331","6502600","貢寮區"
"228002","663-BX","2018/03/13 17:29:22","新北市貢寮區福隆里興隆街23號","121.943341666667","25.0165233333333","6502600","貢寮區"
"228003","828-UM","2018/03/13 17:29:11","新北市貢寮區仁理村研海街62-2號","121.925758333333","25.0439583333333","6502600","貢寮區"
"224010","AGQ-8101","2018/03/13 17:28:29","新北市瑞芳區逢甲路132號","121.808666666667","25.1091","6501200","瑞芳區"
"224006","676-BX","2018/03/13 17:29:16","新北市瑞芳區中山路373號","121.79613","25.11013","6501200","瑞芳區"
"224002","639-TC","2018/03/13 17:29:25","新北市瑞芳區明燈路二段48-1號","121.809726666667","25.10798","6501200","瑞芳區"
"224008","285-BY","2018/03/13 17:29:26","新北市瑞芳區九芎橋路55號","121.833425","25.0947083333333","6501200","瑞芳區"
"224009","273-VK","2018/03/13 17:29:22","新北市瑞芳區崙頂路3號","121.846558333333","25.1069066666667","6501200","瑞芳區"
"224005","271-BY","2018/03/13 17:29:18","新北市瑞芳區海濱路8-6號","121.831678333333","25.12616","6501200","瑞芳區"
"227008","642-TC","2018/03/13 17:29:27","新北市雙溪區三貂里十三層5號","121.850591666667","25.06496","6502500","雙溪區"
"227003","400-TW","2018/03/13 17:29:23","新北市雙溪區平林里梅竹蹊61號","121.84934","25.0317666666667","6502500","雙溪區"
"251004","009-UM","2018/03/13 17:29:21","新北市淡水區中正東路二段88巷15號","121.459053333333","25.1505733333333","6501000","淡水區"
"251002","012-UM","2018/03/13 17:29:26","新北市淡水區中正路一段21號","121.42642","25.176305","6501000","淡水區"
"251013","179-VK","2018/03/13 17:29:25","新北市淡水區大竹圍5號","121.466603333333","25.1952216666667","6501000","淡水區"
"251014","180-VK","2018/03/13 17:29:17","新北市淡水區公埔子20-6號","121.468856666667","25.22705","6501000","淡水區"
"251008","181-VK","2018/03/13 17:29:20","新北市淡水區大同路124巷14號","121.463563333333","25.1401383333333","6501000","淡水區"
"251015","182-VK","2018/03/13 17:29:12","新北市淡水區三空泉15號","121.472723333333","25.1633283333333","6501000","淡水區"
"251010","413-VK","2018/03/13 17:29:21","新北市淡水區中正路二段211號","121.426178333333","25.1891366666667","6501000","淡水區"
"251012","441-VK","2018/03/13 17:29:14","新北市淡水區北新路121號","121.448991666667","25.17872","6501000","淡水區"
"251016","442-VK","2018/03/13 17:29:21","新北市淡水區大竹圍10號","121.464595","25.1925983333333","6501000","淡水區"
"251005","443-VK","2018/03/13 17:29:10","新北市淡水區鄧公路31巷1號","121.451318333333","25.1708616666667","6501000","淡水區"
"251006","561-UM","2018/03/13 17:29:29","新北市淡水區大仁街66號","121.442888333333","25.1761316666667","6501000","淡水區"
"251009","575-R6","2018/03/13 17:29:23","新北市淡水區新生街90巷4號","121.439643333333","25.1743066666667","6501000","淡水區"
"251007","577-R6","2018/03/13 17:29:27","新北市淡水區民生路47-4號","121.462066666667","25.1380266666667","6501000","淡水區"
"251011","650-BX","2018/03/13 17:29:12","新北市淡水區坪頂路712號","121.482401666667","25.158555","6501000","淡水區"
"251003","673-BX","2018/03/13 17:29:26","新北市淡水區中山路159-1號","121.440775","25.17293","6501000","淡水區"
"207003","550-UM","2018/03/13 17:29:21","新北市萬里區龜吼里美崙路91號","121.685528333333","25.1850166666667","6502800","萬里區"
"207004","291-VK","2018/03/13 17:29:14","新北市萬里區萬里里景美路11-1號","121.685141666667","25.1732283333333","6502800","萬里區"
"252002","178-VK","2018/03/13 17:29:26","新北市三芝區忠孝街1-14號","121.505538333333","25.2539666666667","6502100","三芝區"
"252001","292-VK","2018/03/13 17:29:14","新北市三芝區長安街119號","121.498065","25.259695","6502100","三芝區"
"237011","KEA-2596","2018/03/13 17:29:24","新北市三峽區中山路459巷163-3號","121.348773333333","24.9331216666667","6500900","三峽區"
"237016","649-BX","2018/03/13 17:29:24","新北市三峽區中山路240號","121.362401666667","24.9374533333333","6500900","三峽區"
"236079","166-UM","2018/03/13 17:29:19","新北市土城區城林路6巷80號","121.438483333333","24.9796316666667","6501300","土城區"
"242034","AAC-296","2018/03/13 17:29:21","新北市新莊區新莊路453號","121.449668333333","25.0333733333333","6500500","新莊區"
"242058","986-R7","2018/03/13 17:29:14","新北市新莊區中正路498號","121.436018333333","25.0329216666667","6500500","新莊區"
"242054","751-BX","2018/03/13 17:29:24","新北市新莊區新樹路334號","121.433116666667","25.003795","6500500","新莊區"
"242025","705-TV","2018/03/13 17:29:27","新北市新莊區復興路二段66號","121.455266666667","25.044235","6500500","新莊區"
"242027","615-BX","2018/03/13 17:29:27","新北市新莊區思源路32號","121.460266666667","25.0404716666667","6500500","新莊區"
"242029","612-BX","2018/03/13 17:28:51","新北市新莊區復興路二段174號","121.458505","25.0442966666667","6500500","新莊區"
"242019","497-BY","2018/03/13 17:29:18","新北市新莊區中港路50號","121.455376666667","25.0384983333333","6500500","新莊區"
"242042","442-UM","2018/03/13 17:29:27","新北市新莊區新樹路115號","121.437368333333","25.0266366666667","6500500","新莊區"
"242051","441-UM","2018/03/13 17:29:15","新北市新莊區新樹路445號","121.432891666667","25.01358","6500500","新莊區"
"242056","440-UM","2018/03/13 17:28:31","新北市新莊區中正路31巷1-1號","121.46521","25.0365533333333","6500500","新莊區"
"242037","415-TV","2018/03/13 17:29:21","新北市新莊區建國二路1號","121.43487","25.0236966666667","6500500","新莊區"
"242007","413-TV","2018/03/13 17:29:27","新北市新莊區中華路二段2號","121.453125","25.044545","6500500","新莊區"
"242044","400-BY","2018/03/13 17:29:08","新北市新莊區裕民街1號","121.419526666667","25.0260733333333","6500500","新莊區"
"242023","362-BY","2018/03/13 17:29:20","新北市新莊區公園路150號","121.453161666667","25.040115","6500500","新莊區"
"242061","353-BY","2018/03/13 17:29:24","新北市新莊區瓊林南路12-2號","121.43631","25.0191033333333","6500500","新莊區"
"242009","132-UY","2018/03/13 17:29:16","新北市新莊區中原路185-1號","121.452941666667","25.0544","6500500","新莊區"
"242039","133-UY","2018/03/13 17:29:13","新北市新莊區民安路278號","121.427775","25.02146","6500500","新莊區"
"242032","135-UY","2018/03/13 17:29:25","新北市新莊區新泰路401巷28-1號","121.442415","25.0440866666667","6500500","新莊區"
"242048","172-VK","2018/03/13 17:29:22","新北市新莊區龍安路222號","121.420265","25.019875","6500500","新莊區"
"242017","175-VK","2018/03/13 17:29:20","新北市新莊區復興路一段187號","121.45165","25.043675","6500500","新莊區"
"242005","176-VK","2018/03/13 17:29:18","新北市新莊區中港路286號","121.452998333333","25.0442983333333","6500500","新莊區"
"242015","346-TH","2018/03/13 17:29:19","新北市新莊區新泰路185號","121.447355","25.03765","6500500","新莊區"
"242021","348-TH","2018/03/13 17:29:19","新北市新莊區中正路136號","121.452426666667","25.0361916666667","6500500","新莊區"
"242002","349-TH","2018/03/13 17:29:26","新北市新莊區新莊路150號","121.455276666667","25.0355433333333","6500500","新莊區"
"242013","351-TH","2018/03/13 17:29:16","新北市新莊區中誠街7號","121.451996666667","25.0480466666667","6500500","新莊區"
"238015","755-BX","2018/03/13 17:29:09","新北市樹林區大安路267號","121.418983333333","24.9937483333333","6500700","樹林區"
"238023","601-UM","2018/03/13 17:29:18","新北市樹林區中正路433-2號","121.41496","25.008305","6500700","樹林區"
"238019","599-UM","2018/03/13 17:29:11","新北市樹林區太平路45號","121.419168333333","24.982905","6500700","樹林區"
"238018","571-TV","2018/03/13 17:29:17","新北市樹林區鎮前街235號","121.420901666667","24.9864816666667","6500700","樹林區"
"238024","5061-A6","2018/03/13 17:29:18","新北市樹林區鎮前街86巷8號","121.42516","24.9921716666667","6500700","樹林區"
"238022","KEA-2213","2018/03/13 17:29:17","新北市樹林區仁愛街61號","121.422673333333","24.9822666666667","6500700","樹林區"
"238021","KEA-2539","2018/03/13 17:29:23","新北市樹林區民權街5巷21號","121.395685","24.9583416666667","6500700","樹林區"
"238025","303-VK","2018/03/13 17:29:21","新北市樹林區保安街一段193號","121.42112","24.9959083333333","6500700","樹林區"
"238017","283-BY","2018/03/13 17:29:09","新北市樹林區光武街42-1號","121.416671666667","25.0066366666667","6500700","樹林區"
"238014","282-BY","2018/03/13 17:29:23","新北市樹林區大安路208號","121.420221666667","24.99548","6500700","樹林區"
"238020","268-VK","2018/03/13 17:28:57","新北市樹林區俊英街162號","121.426871666667","25.0066116666667","6500700","樹林區"
"238026","172-UY","2018/03/13 17:29:18","新北市樹林區新興街3號","121.40023","24.9739266666667","6500700","樹林區"
"238016","169-UY","2018/03/13 17:29:22","新北市樹林區長壽街28巷4弄1-2號","121.423243333333","24.9944966666667","6500700","樹林區"
"239007","AAC-297","2018/03/13 17:29:10","新北市鶯歌區仁愛路1號","121.353556666667","24.9568866666667","6500800","鶯歌區"
"239006","891-R6","2018/03/13 17:29:07","新北市鶯歌區鶯桃路472巷26號","121.333325","24.9659733333333","6500800","鶯歌區"
"239008","527-UM","2018/03/13 17:29:12","新北市鶯歌區宏德司法新村37號","121.333526666667","24.979465","6500800","鶯歌區"
"239005","526-UM","2018/03/13 17:29:23","桃園市八德區仁安街59號","121.324246666667","24.9710233333333","6500800","鶯歌區"
"239001","417-VK","2018/03/13 17:29:25","新北市鶯歌區中正三路171號","121.336368333333","24.9399916666667","6500800","鶯歌區"
"239003","360-BY","2018/03/13 17:29:26","新北市鶯歌區鶯桃路189號","121.337601666667","24.95867","6500800","鶯歌區"
"239002","359-BY","2018/03/13 17:29:11","新北市鶯歌區國慶街75號","121.350028333333","24.9550666666667","6500800","鶯歌區"
"239004","193-VK","2018/03/13 17:29:15","新北市鶯歌區三鶯路29巷34號","121.353561666667","24.9392283333333","6500800","鶯歌區"
"221008","489-VK","2018/03/13 17:29:08","新北市汐止區康寧街901號","121.651295","25.0750683333333","6501100","汐止區"
"221033","297-VK","2018/03/13 17:29:08","新北市汐止區新江北路17號","121.652843333333","25.0704883333333","6501100","汐止區"
"242011","281-VK","2018/03/13 17:29:08","新北市新莊區中華路二段83號","121.452566666667","25.0479566666667","6500500","新莊區"
"242046","280-VK","2018/03/13 17:29:17","新北市新莊區新樹路49號","121.440161666667","25.0320333333333","6500500","新莊區"
