"lineid","car","time","location","longitude","latitude","cityid","cityname"
"234046","148-BY","2018/03/13 18:39:25","新北市永和區永元路68號","121.522518333333","25.0015666666667","6500400","永和區"
"234007","207-UY","2018/03/13 18:39:15","新北市永和區文化路194號","121.51076","25.01627","6500400","永和區"
"234081","298-R6","2018/03/13 18:39:25","新北市永和區林森路89號","121.523701666667","25.0037683333333","6500400","永和區"
"234038","336-UY","2018/03/13 18:39:13","新北市永和區福和路1號","121.526685","25.01019","6500400","永和區"
"234086","338-UY","2018/03/13 18:39:19","新北市中和區安平路102號","121.51157","24.9973016666667","6500400","永和區"
"234017","745-BX","2018/03/13 18:39:21","新北市永和區福和路1號","121.526288333333","25.0096016666667","6500400","永和區"
"234030","746-BX","2018/03/13 18:39:17","新北市永和區成功路一段74號","121.526831666667","25.0032016666667","6500400","永和區"
"234013","KEA-2591","2018/03/13 18:39:23","新北市永和區信義路71號","121.512566666667","25.012825","6500400","永和區"
"234042","862-TW","2018/03/13 18:39:26","新北市永和區永貞路298號","121.512323333333","25.0046083333333","6500400","永和區"
"234050","863-TW","2018/03/13 18:39:14","新北市永和區環河西路一段91-1號","121.51225","25.017725","6500400","永和區"
"234026","9371-KE","2018/03/13 18:39:19","新北市永和區中山路一段214號","121.508325","25.0084533333333","6500400","永和區"
"234011","9373-KE","2018/03/13 18:39:27","新北市永和區文化路9巷22弄1號","121.515241666667","25.0145033333333","6500400","永和區"
"249005","172-UM","2018/03/13 18:39:16","新北市八里區中華路三段232號","121.388315","25.12446","6502300","八里區"
"249001","173-UM","2018/03/13 18:39:17","新北市八里區龍米路一段352號","121.45155","25.1311866666667","6502300","八里區"
"249004","303-UY","2018/03/13 18:39:25","新北市八里區中山路一段268巷5弄3號","121.414483333333","25.16055","6502300","八里區"
"249002","305-UY","2018/03/13 18:39:15","新北市八里區頂寮二街138號","121.449251666667","25.1294116666667","6502300","八里區"
"248014","025-BX","2018/03/13 18:39:23","新北市五股區成泰路一段110-7號","121.435596666667","25.0724283333333","6501500","五股區"
"248016","026-BX","2018/03/13 18:39:26","新北市五股區凌雲路一段133巷27-3號","121.448701666667","25.1008866666667","6501500","五股區"
"248008","095-VK","2018/03/13 18:39:14","新北市五股區中興路一段150巷13-1號","121.464621666667","25.0746433333333","6501500","五股區"
"248020","225-UY","2018/03/13 18:37:06","新北市五股區孝義路102號","121.445318333333","25.1196466666667","6501500","五股區"
"248012","247-BX","2018/03/13 18:39:21","新北市五股區成泰路三段2巷1-20號","121.441223333333","25.0866683333333","6501500","五股區"
"248004","677-BX","2018/03/13 18:39:20","新北市五股區民義路一段185-1號","121.43105","25.0885833333333","6501500","五股區"
"248002","678-BX","2018/03/13 18:39:12","新北市五股區西雲路199號","121.448011666667","25.0961433333333","6501500","五股區"
"248010","682-TV","2018/03/13 18:39:27","新北市五股區水碓一路1號","121.432876666667","25.0726766666667","6501500","五股區"
"234023","9380-KE","2018/03/13 18:39:13","新北市永和區福和路76巷5弄14號","121.522341666667","25.0084216666667","6500400","永和區"
"234077","969-R7","2018/03/13 18:39:09","新北市永和區中正路446號","121.517453333333","25.0026816666667","6500400","永和區"
"234067","AAC-212","2018/03/13 18:39:22","新北市永和區福和路227號","121.518683333333","25.0075416666667","6500400","永和區"
"232011","375-UM","2018/03/13 18:14:14","新北市坪林區坪雙路一段43號","121.711691666667","24.9424516666667","6502000","坪林區"
"244013","069-UM","2018/03/13 18:39:22","新北市林口區中正路503號","121.383343333333","25.0776983333333","6501700","林口區"
"244007","080-UY","2018/03/13 18:39:19","新北市林口區林口路296號","121.385928333333","25.0855183333333","6501700","林口區"
"244019","402-UM","2018/03/13 18:39:15","新北市林口區忠孝路646巷28號","121.379071666667","25.0672366666667","6501700","林口區"
"244025","742-UY","2018/03/13 18:39:23","新北市林口區南勢六街248-1號","121.355955","25.074965","6501700","林口區"
"244023","483-VK","2018/03/13 18:39:14","新北市林口區民享路36號","121.38073","25.0807083333333","6501700","林口區"
"244017","485-VK","2018/03/13 18:39:24","新北市林口區文化二路一段166號","121.36872","25.07167","6501700","林口區"
"244009","656-BX","2018/03/13 18:39:16","新北市林口區寶林路269號","121.384551666667","25.084725","6501700","林口區"
"244021","838-TS","2018/03/13 18:39:14","新北市林口區工六路98號","121.401106666667","25.0766166666667","6501700","林口區"
"243012","AAD-798","2018/03/13 18:39:26","新北市泰山區泰林路二段196號","121.433408333333","25.0611566666667","6501600","泰山區"
"243013","646-TV","2018/03/13 18:30:53","新北市泰山區明志路三段206巷3號","121.42326","25.03793","6501600","泰山區"
"243016","680-BX","2018/03/13 18:39:13","新北市泰山區犁頭窠3-1號","121.422391666667","25.0606466666667","6501600","泰山區"
"222003","436-BY","2018/03/13 18:39:20","新北市深坑區翠谷街27號","121.626725","25.0089283333333","6501800","深坑區"
"222002","659-BX","2018/03/13 18:39:30","新北市深坑區雲鄉路3-1號","121.621076666667","25.0000816666667","6501800","深坑區"
"231041","002-UM","2018/03/13 18:39:23","新北市新店區安華路28-1號","121.519571666667","24.9609066666667","6500600","新店區"
"231059","046-UY","2018/03/13 18:39:10","新北市新店區安華路28-1號","121.519561666667","24.9608516666667","6500600","新店區"
"231061","047-UY","2018/03/13 18:39:14","新北市新店區安華路28-1號","121.519103333333","24.9609133333333","6500600","新店區"
"231060","106-UY","2018/03/13 18:39:27","新北市新店區安華路28-1號","121.519611666667","24.960865","6500600","新店區"
"231051","107-UY","2018/03/13 18:39:15","新北市新店區中央四街5-1號","121.530265","24.9737933333333","6500600","新店區"
"231048","108-UY","2018/03/13 18:39:09","新北市新店區環河路29巷1號","121.536788333333","24.9612733333333","6500600","新店區"
"231053","187-VK","2018/03/13 18:39:22","新北市新店區永興路9號","121.54446","24.9395183333333","6500600","新店區"
"231050","KEA-2219","2018/03/13 18:39:19","新北市新店區安華路28-1號","121.519903333333","24.96123","6500600","新店區"
"221015","KEA-2785","2018/03/13 18:39:27","新北市汐止區吉祥街12巷23號","121.668676666667","25.080665","6501100","汐止區"
"231057","256-BX","2018/03/13 18:39:24","新北市新店區新烏路一段201號","121.547786666667","24.9317766666667","6500600","新店區"
"231046","278-BY","2018/03/13 18:39:17","新北市新店區直潭二街1號","121.535528333333","24.9431933333333","6500600","新店區"
"231054","AAD-862","2018/03/13 18:39:22","新北市新店區安華路28-1號","121.519811666667","24.9609633333333","6500600","新店區"
"231040","355-BY","2018/03/13 18:39:14","新北市新店區安華路28-1號","121.519273333333","24.9609866666667","6500600","新店區"
"231058","3712-VJ","2018/03/13 18:39:27","新北市新店區新店路23號","121.540195","24.9528233333333","6500600","新店區"
"231056","3713-VJ","2018/03/13 18:39:19","新北市新店區自立街42號","121.538276666667","24.9787416666667","6500600","新店區"
"231055","4716-K9","2018/03/13 18:39:27","新北市新店區中央路185號","121.53682","24.9690266666667","6500600","新店區"
"231067","4772-VM","2018/03/13 18:39:26","新北市新店區安康路一段146號","121.526451666667","24.9629083333333","6500600","新店區"
"231065","512-UM","2018/03/13 18:39:14","新北市新店區安華路28-1號","121.519141666667","24.9613183333333","6500600","新店區"
"231064","515-UM","2018/03/13 18:39:18","新北市新店區安華路28-1號","121.519581666667","24.961145","6500600","新店區"
"231045","617-UM","2018/03/13 18:39:18","新北市新店區安華路28-1號","121.519495","24.960935","6500600","新店區"
"231042","641-BX","2018/03/13 18:39:14","新北市新店區安康路一段355號","121.519795","24.9630166666667","6500600","新店區"
"231063","645-TV","2018/03/13 18:39:30","新北市新店區安華路28-1號","121.51938","24.9606766666667","6500600","新店區"
"231049","719-UM","2018/03/13 18:39:12","新北市新店區安康路一段162號","121.526103333333","24.962995","6500600","新店區"
"231062","720-UM","2018/03/13 18:39:26","新北市新店區安華路28-1號","121.519408333333","24.9613216666667","6500600","新店區"
"231044","897-TW","2018/03/13 18:39:17","新北市新店區中正路111號","121.542491666667","24.9705583333333","6500600","新店區"
"231043","899-TW","2018/03/13 18:39:22","新北市新店區安華路28-1號","121.519141666667","24.9608716666667","6500600","新店區"
"231066","AKT-0513","2018/03/13 18:39:27","新北市新店區安華路16號","121.5175","24.958065","6500600","新店區"
"235066","003-UY","2018/03/13 18:39:16","新北市中和區水源路35號","121.504345","25.0035883333333","6500300","中和區"
"235064","005-UY","2018/03/13 18:39:22","新北市中和區連城路107號","121.496266666667","24.9994966666667","6500300","中和區"
"235063","006-UY","2018/03/13 18:39:11","新北市中和區連城路347巷4弄2號","121.488101666667","24.9956033333333","6500300","中和區"
"235052","031-BX","2018/03/13 18:39:25","新北市中和區興南路三段35號","121.496886666667","24.9784283333333","6500300","中和區"
"235056","096-UM","2018/03/13 18:39:26","新北市中和區員山路611巷1號","121.477933333333","25.0112633333333","6500300","中和區"
"235039","097-UM","2018/03/13 18:39:16","新北市永和區安樂路68號","121.514791666667","24.99827","6500300","中和區"
"235065","098-UM","2018/03/13 18:39:26","新北市中和區莊敬路33巷36弄10號","121.500461666667","25.006395","6500300","中和區"
"235040","150-BY","2018/03/13 18:39:14","新北市中和區保健路76巷4號","121.511425","24.996155","6500300","中和區"
"235058","151-BY","2018/03/13 18:39:10","新北市中和區員山路49號","121.481226666667","24.992825","6500300","中和區"
"235055","183-VK","2018/03/13 18:39:27","新北市中和區中山路三段229巷57-1號","121.469045","25.0052933333333","6500300","中和區"
"235038","185-VK","2018/03/13 18:39:19","新北市中和區自強路60號","121.520086666667","24.994415","6500300","中和區"
"235049","186-VK","2018/03/13 18:39:22","新北市中和區景平路480號","121.505031666667","24.9937183333333","6500300","中和區"
"235067","255-BX","2018/03/13 18:39:11","新北市中和區新生街2號","121.48313","25.0047366666667","6500300","中和區"
"235044","293-VK","2018/03/13 18:39:14","新北市中和區復興路280巷6號","121.502361666667","24.9909166666667","6500300","中和區"
"235072","301-VK","2018/03/13 18:39:24","新北市中和區中山路二段193號","121.499918333333","25.0027083333333","6500300","中和區"
"235043","352-BY","2018/03/13 18:39:17","新北市中和區景平路182號","121.516258333333","24.99209","6500300","中和區"
"235068","377-QA","2018/03/13 18:38:39","新北市中和區板南路187號","121.500066666667","24.9928316666667","6500300","中和區"
"235061","378-QA","2018/03/13 18:39:21","新北市中和區民享街92巷6號","121.47471","24.999995","6500300","中和區"
"235050","4979-A6","2018/03/13 18:39:26","新北市中和區忠孝街124巷10號","121.512803333333","24.9860266666667","6500300","中和區"
"235042","551-UM","2018/03/13 18:39:14","新北市中和區成功路97巷18弄3號","121.526853333333","24.9916616666667","6500300","中和區"
"235070","558-UM","2018/03/13 18:39:20","新北市中和區南華路48號","121.504078333333","24.9966983333333","6500300","中和區"
"235045","565-BX","2018/03/13 18:39:22","新北市中和區南山路236巷34號","121.504826666667","24.9883083333333","6500300","中和區"
"235054","640-BX","2018/03/13 18:39:19","新北市中和區民享街86巷30弄2號","121.473176666667","25.0008816666667","6500300","中和區"
"235060","647-TV","2018/03/13 18:39:17","新北市中和區台新街45號","121.479956666667","25.0049933333333","6500300","中和區"
"235047","732-UM","2018/03/13 18:39:25","新北市中和區南山路320巷1號","121.507708333333","24.9865866666667","6500300","中和區"
"235046","733-UM","2018/03/13 18:39:23","新北市中和區仁愛街89號","121.511786666667","24.98702","6500300","中和區"
"235062","800-TS","2018/03/13 18:39:21","新北市中和區中山路二段312巷21號","121.49565","25.003515","6500300","中和區"
"235057","801-TS","2018/03/13 18:39:16","新北市中和區員山路327巷72號","121.479723333333","25.0021383333333","6500300","中和區"
"235041","802-TS","2018/03/13 18:39:25","新北市中和區宜安路164號","121.509071666667","24.998925","6500300","中和區"
"235048","896-TW","2018/03/13 18:39:23","新北市中和區南山路365號","121.506046666667","24.9905766666667","6500300","中和區"
"235053","900-TW","2018/03/13 18:39:18","新北市中和區莒光路213號","121.46902","24.9945566666667","6500300","中和區"
"235051","157-BY","2018/03/13 18:39:23","新北市中和區興南路二段114巷6號","121.504096666667","24.9844166666667","6500300","中和區"
"235037","AAC-213","2018/03/13 18:39:10","新北市中和區景德街66號","121.517026666667","24.9915383333333","6500300","中和區"
"235059","AAC-215","2018/03/13 18:39:16","新北市中和區錦和路350-1號","121.490133333333","24.9935116666667","6500300","中和區"
"220068","013-TV","2018/03/13 18:39:17","新北市板橋區民生路二段120號","121.470453333333","25.0198283333333","6500100","板橋區"
"220065","072-UY","2018/03/13 18:39:25","新北市板橋區館前東路7號","121.459795","25.0071933333333","6500100","板橋區"
"220086","073-UY","2018/03/13 18:39:27","新北市板橋區大智街71巷42弄16號","121.45231","25.0147766666667","6500100","板橋區"
"220069","AAD-861","2018/03/13 18:39:09","新北市板橋區華東街1-10號","121.448358333333","24.99514","6500100","板橋區"
"226004","205-ST","2018/03/13 18:39:17","新北市平溪區平溪里三坑路35號","121.73501","25.0314333333333","6502400","平溪區"
"228001","212-TW","2018/03/13 18:39:18","新北市貢寮區仁理村研海街12-1號","121.923778333333","25.0516733333333","6502600","貢寮區"
"228002","663-BX","2018/03/13 18:39:22","新北市貢寮區福隆里桂安街17號","121.96745","25.02333","6502600","貢寮區"
"228003","828-UM","2018/03/13 18:39:31","新北市貢寮區和美里龍洞街5-1號","121.918415","25.1118133333333","6502600","貢寮區"
"224010","AGQ-8101","2018/03/13 18:36:09","新北市瑞芳區烏勢巷145號","121.847438333333","25.1086783333333","6501200","瑞芳區"
"224006","676-BX","2018/03/13 18:39:19","新北市瑞芳區明燈路三段132號","121.804325","25.1085683333333","6501200","瑞芳區"
"224002","639-TC","2018/03/13 18:39:08","新北市瑞芳區傑魚坑路307-2號","121.793946666667","25.1091716666667","6501200","瑞芳區"
"224008","285-BY","2018/03/13 18:39:12","新北市瑞芳區岳王路17號","121.807306666667","25.1109616666667","6501200","瑞芳區"
"224007","275-VK","2018/03/13 18:39:28","新北市瑞芳區大埔路115巷2號","121.76333","25.1010816666667","6501200","瑞芳區"
"224009","273-VK","2018/03/13 18:39:22","新北市瑞芳區祈堂路12號","121.858711666667","25.1140416666667","6501200","瑞芳區"
"224005","271-BY","2018/03/13 18:39:18","新北市瑞芳區瑞濱路7號","121.82704","25.121635","6501200","瑞芳區"
"227008","642-TC","2018/03/13 18:39:27","新北市雙溪區牡丹里下坑11號","121.851091666667","25.0561733333333","6502500","雙溪區"
"227003","400-TW","2018/03/13 18:39:10","新北市雙溪區魚行里坤溪5號","121.874198333333","25.02222","6502500","雙溪區"
"253005","032-BX","2018/03/13 18:39:24","新北市石門區中山路33號","121.567191666667","25.2909716666667","6502200","石門區"
"253006","295-VK","2018/03/13 18:39:22","新北市石門區楓林28-2號","121.542011666667","25.2892533333333","6502200","石門區"
"222001","KEA-2212","2018/03/13 18:39:15","新北市深坑區北深路一段80號","121.636385","25.0106533333333","6501800","深坑區"
"208002","KEA-2872","2018/03/13 18:39:16","新北市金山區環金路110號","121.638681666667","25.2174416666667","6502700","金山區"
"208003","665-BX","2018/03/13 18:39:17","新北市金山區中山路395號","121.633351666667","25.2252916666667","6502700","金山區"
"208001","761-BX","2018/03/13 18:39:26","新北市金山區文化三路7號","121.63508","25.2249616666667","6502700","金山區"
"251001","011-UM","2018/03/13 18:39:16","新北市淡水區自強路415巷2號","121.465516666667","25.1342383333333","6501000","淡水區"
"251002","012-UM","2018/03/13 18:39:26","新北市淡水區中正東路一段3巷14弄1號","121.450951666667","25.1642266666667","6501000","淡水區"
"251013","179-VK","2018/03/13 18:39:25","新北市淡水區雲廣坑5號","121.472936666667","25.212875","6501000","淡水區"
"251014","180-VK","2018/03/13 18:39:17","新北市淡水區崙頂12-8號","121.495565","25.2172266666667","6501000","淡水區"
"251008","181-VK","2018/03/13 18:39:20","新北市淡水區北投子62-13號","121.455781666667","25.180145","6501000","淡水區"
"251015","182-VK","2018/03/13 18:39:12","新北市淡水區樹林口62號","121.484578333333","25.1631816666667","6501000","淡水區"
"251010","413-VK","2018/03/13 18:39:21","新北市淡水區沙崙路120號","121.423335","25.1825983333333","6501000","淡水區"
"251012","441-VK","2018/03/13 18:39:13","新北市淡水區北新路117號","121.448865","25.178615","6501000","淡水區"
"251016","442-VK","2018/03/13 18:39:21","新北市淡水區下圭柔山76-12號","121.443291666667","25.2056233333333","6501000","淡水區"
"251006","561-UM","2018/03/13 18:39:09","新北市淡水區崁頂37-11號","121.438658333333","25.1942283333333","6501000","淡水區"
"251011","650-BX","2018/03/13 18:39:20","新北市淡水區鄧公路278巷1號","121.461011666667","25.1689266666667","6501000","淡水區"
"251003","673-BX","2018/03/13 18:39:26","新北市淡水區北新路69巷26號","121.446721666667","25.1801133333333","6501000","淡水區"
"207003","550-UM","2018/03/13 18:39:21","新北市萬里區野柳里港東路155號","121.689595","25.2051616666667","6502800","萬里區"
"207004","291-VK","2018/03/13 18:39:13","新北市萬里區萬里里獅頭路12-4號","121.69282","25.1793283333333","6502800","萬里區"
"252002","178-VK","2018/03/13 18:39:26","新北市三芝區民生街62號","121.50342","25.255655","6502100","三芝區"
"252003","249-BX","2018/03/13 18:39:11","新北市三芝區後厝里土地公坑57-1號","121.461506666667","25.2478916666667","6502100","三芝區"
"252001","292-VK","2018/03/13 18:39:14","新北市三芝區埔頭里埔頭14號","121.500766666667","25.2538966666667","6502100","三芝區"
"237004","KEA-2597","2018/03/13 18:39:27","新北市三峽區插角220-1號","121.415305","24.8671933333333","6500900","三峽區"
"237007","153-BY","2018/03/13 18:39:29","新北市三峽區中正路三段21號","121.349161666667","24.9028983333333","6500900","三峽區"
"237009","210-TH","2018/03/13 18:39:12","新北市三峽區大同路202-1號","121.367478333333","24.927865","6500900","三峽區"
"237013","252-BX","2018/03/13 18:39:12","新北市三峽區光明路69巷25號","121.376656666667","24.929275","6500900","三峽區"
"237012","275-BY","2018/03/13 18:39:09","新北市三峽區三樹路278號","121.380073333333","24.9435966666667","6500900","三峽區"
"237008","302-VK","2018/03/13 18:39:12","新北市三峽區白雞81-1號","121.402885","24.909615","6500900","三峽區"
"237014","433-BY","2018/03/13 18:39:12","新北市三峽區復興路480巷52-1號","121.361626666667","24.9408216666667","6500900","三峽區"
"237006","5529-G3","2018/03/13 18:39:28","新北市三峽區溪東路315巷84號","121.41205","24.9315466666667","6500900","三峽區"
"237011","KEA-2596","2018/03/13 18:39:24","新北市三峽區介壽路三段132號","121.40029","24.9427566666667","6500900","三峽區"
"237010","706-TV","2018/03/13 18:39:23","新北市三峽區復興路285號","121.36603","24.9389016666667","6500900","三峽區"
"237005","AKY-6261","2018/03/13 18:39:21","新北市三峽區新興街24號","121.372666666667","24.935485","6500900","三峽區"
"236070","105-UM","2018/03/13 18:39:12","新北市土城區永豐路157巷29弄6-1號","121.468383333333","24.98151","6501300","土城區"
"236043","107-UM","2018/03/13 18:39:21","新北市土城區學成路137巷18號","121.449273333333","24.9889983333333","6501300","土城區"
"236079","166-UM","2018/03/13 18:39:19","新北市土城區中央路四段52巷10號","121.420003333333","24.9608866666667","6501300","土城區"
"236031","253-BX","2018/03/13 18:39:24","新北市土城區福仁街64號","121.439425","24.9744216666667","6501300","土城區"
"236026","269-VK","2018/03/13 18:39:18","新北市土城區金城路一段36號","121.441676666667","24.96985","6501300","土城區"
"236015","270-VK","2018/03/13 18:39:29","新北市土城區清水路207巷8號","121.460046666667","24.98224","6501300","土城區"
"236038","271-VK","2018/03/13 18:39:15","新北市土城區明德路一段291巷11弄19號","121.460998333333","24.97607","6501300","土城區"
"236023","401-BY","2018/03/13 18:39:29","新北市土城區延吉街253巷2號","121.467513333333","24.9846666666667","6501300","土城區"
"236063","752-BX","2018/03/13 18:39:27","新北市土城區延壽路30號","121.471073333333","24.9911233333333","6501300","土城區"
"236059","912-UM","2018/03/13 18:39:11","新北市土城區中央路四段33號","121.423508333333","24.96213","6501300","土城區"
"236049","913-UM","2018/03/13 18:39:23","新北市土城區明德路一段71號","121.465508333333","24.983485","6501300","土城區"
"236055","AAC-216","2018/03/13 18:39:25","新北市土城區中華路一段37號","121.446101666667","24.9887616666667","6501300","土城區"
"238023","601-UM","2018/03/13 18:39:18","新北市樹林區三福街114號","121.406463333333","25.0163083333333","6500700","樹林區"
"238019","599-UM","2018/03/13 18:39:11","新北市樹林區中華路190-16號","121.411783333333","24.9806616666667","6500700","樹林區"
"238018","571-TV","2018/03/13 18:39:17","新北市樹林區樹新路169號","121.428905","24.99701","6500700","樹林區"
"238024","5061-A6","2018/03/13 18:39:18","新北市樹林區太順街49巷16號","121.418115","24.97883","6500700","樹林區"
"238025","303-VK","2018/03/13 18:39:21","新北市樹林區大安路576號","121.411753333333","24.9837866666667","6500700","樹林區"
"238017","283-BY","2018/03/13 18:39:09","新北市樹林區光興街50號","121.409868333333","25.00275","6500700","樹林區"
"238014","282-BY","2018/03/13 18:39:17","新北市樹林區大安路111巷11號","121.423093333333","24.9975866666667","6500700","樹林區"
"238020","268-VK","2018/03/13 18:38:17","新北市樹林區俊安街26號","121.419635","25.0139966666667","6500700","樹林區"
"238026","172-UY","2018/03/13 18:39:18","新北市樹林區信和街35號","121.389315","24.9732883333333","6500700","樹林區"
"238016","169-UY","2018/03/13 18:38:02","新北市樹林區日新街182號","121.41991","24.9875916666667","6500700","樹林區"
"239007","AAC-297","2018/03/13 18:39:30","新北市鶯歌區中正一路461-2號","121.363223333333","24.95673","6500800","鶯歌區"
"239006","891-R6","2018/03/13 18:39:27","新北市鶯歌區鶯桃路296巷84弄2號","121.336801666667","24.9617483333333","6500800","鶯歌區"
"239008","527-UM","2018/03/13 18:39:12","新北市鶯歌區朝陽街2號","121.336198333333","24.976585","6500800","鶯歌區"
"239005","526-UM","2018/03/13 18:39:20","新北市鶯歌區鳳吉一街56號","121.32642","24.9740333333333","6500800","鶯歌區"
"239001","417-VK","2018/03/13 18:39:25","新北市鶯歌區中正三路35號","121.339093333333","24.9420233333333","6500800","鶯歌區"
"239003","360-BY","2018/03/13 18:39:26","新北市鶯歌區永和街251-1號","121.335555","24.9712416666667","6500800","鶯歌區"
"239002","359-BY","2018/03/13 18:39:09","新北市鶯歌區中山路269號","121.345165","24.9569666666667","6500800","鶯歌區"
"239004","193-VK","2018/03/13 18:39:14","新北市鶯歌區中正三路176-1號","121.33323","24.9384133333333","6500800","鶯歌區"
"221008","489-VK","2018/03/13 18:39:28","新北市汐止區康寧街901號","121.651388333333","25.07504","6501100","汐止區"
"221036","130-UY","2018/03/13 18:39:24","新北市汐止區水碓街47號","121.665211666667","25.0694816666667","6501100","汐止區"
"221010","269-BY","2018/03/13 18:39:25","新北市汐止區夢湖路2巷5號","121.642336666667","25.1068016666667","6501100","汐止區"
"221012","278-VK","2018/03/13 18:39:28","新北市汐止區長江街244號","121.66323","25.0793533333333","6501100","汐止區"
"221023","279-VK","2018/03/13 18:39:23","新北市汐止區明峰街30號","121.63398","25.07143","6501100","汐止區"
"221032","280-BY","2018/03/13 18:39:12","新北市汐止區福山街56巷19號","121.617983333333","25.0456466666667","6501100","汐止區"
"221027","281-BY","2018/03/13 18:39:21","新北市汐止區汐萬路一段124號","121.653741666667","25.071235","6501100","汐止區"
"221033","297-VK","2018/03/13 18:39:28","新北市汐止區南勢街1巷1號","121.62704","25.0374366666667","6501100","汐止區"
"221029","298-VK","2018/03/13 18:39:23","新北市汐止區樟樹一路133巷1號","121.642213333333","25.065065","6501100","汐止區"
"221021","299-VK","2018/03/13 18:39:18","新北市汐止區復興路31號","121.65652","25.063365","6501100","汐止區"
"221031","353-TW","2018/03/13 18:39:20","新北市汐止區福德一路272巷1號","121.631986666667","25.06405","6501100","汐止區"
"221035","622-UM","2018/03/13 18:39:17","新北市汐止區大同路二段199號","121.652556666667","25.0644416666667","6501100","汐止區"
"221025","623-UM","2018/03/13 18:39:20","新北市汐止區仁愛路119巷10號","121.662355","25.0640566666667","6501100","汐止區"
"221038","646-BX","2018/03/13 18:39:25","新北市汐止區康寧街901號","121.651256666667","25.0750583333333","6501100","汐止區"
"221002","707-TV","2018/03/13 18:39:22","新北市汐止區中興路106號","121.633806666667","25.06314","6501100","汐止區"
"221018","753-BX","2018/03/13 18:39:11","新北市汐止區茄福街10號","121.672846666667","25.0674466666667","6501100","汐止區"
"220079","145-BY","2018/03/13 18:39:22","新北市板橋區館前西路162號","121.45269","25.0086083333333","6500100","板橋區"
"220080","200-UY","2018/03/13 18:39:15","新北市板橋區大觀路二段265巷76弄35號","121.441161666667","24.9967583333333","6500100","板橋區"
"220082","610-BX","2018/03/13 18:39:12","新北市板橋區大觀路三段5-4號","121.43274","24.995905","6500100","板橋區"
"220056","276-BY","2018/03/13 18:39:23","新北市板橋區四川路二段237號","121.450923333333","24.994005","6500100","板橋區"
"220072","277-BY","2018/03/13 18:39:17","新北市板橋區大觀路三段5-4號","121.4326","24.9958883333333","6500100","板橋區"
"220064","282-UM","2018/03/13 18:39:27","新北市板橋區縣民大道二段82號","121.465475","25.01431","6500100","板橋區"
"220094","283-UM","2018/03/13 18:39:30","新北市板橋區民生路二段156號","121.471618333333","25.01997","6500100","板橋區"
"220071","283-VK","2018/03/13 18:39:25","新北市板橋區四川路二段239號","121.450868333333","24.9938483333333","6500100","板橋區"
"220083","286-VK","2018/03/13 18:39:13","新北市板橋區大觀路二段153巷46弄1號","121.448553333333","24.9987116666667","6500100","板橋區"
"220081","287-VK","2018/03/13 18:39:18","新北市板橋區大觀路二段163巷32號","121.446706666667","24.99986","6500100","板橋區"
"220061","293-UM","2018/03/13 18:39:16","新北市板橋區民生路二段120號","121.470583333333","25.0196766666667","6500100","板橋區"
"220084","296-UM","2018/03/13 18:39:25","新北市板橋區大觀路二段153巷44弄25號","121.446048333333","24.9990816666667","6500100","板橋區"
"220075","303-R5","2018/03/13 18:39:20","新北市板橋區華東街308號","121.452725","25.0030533333333","6500100","板橋區"
"220104","560-BX","2018/03/13 18:39:11","新北市板橋區南雅西路二段145巷6號","121.451591666667","25.01174","6500100","板橋區"
"220063","609-BX","2018/03/13 18:38:50","新北市板橋區民生路二段161巷1號","121.470225","25.0200666666667","6500100","板橋區"
"220057","686-BX","2018/03/13 18:39:15","新北市板橋區華東街1-9號","121.448148333333","24.9948933333333","6500100","板橋區"
"220077","687-BX","2018/03/13 18:39:14","新北市板橋區大觀路二段174巷137號","121.441143333333","25.0020166666667","6500100","板橋區"
"220054","741-BX","2018/03/13 18:39:20","新北市板橋區華東街1-9號","121.448076666667","24.9949366666667","6500100","板橋區"
"220055","827-TW","2018/03/13 18:39:25","新北市板橋區華東街11號","121.450795","24.9978833333333","6500100","板橋區"
"220074","895-R6","2018/03/13 18:39:30","新北市板橋區南雅南路二段136號","121.451958333333","24.9965133333333","6500100","板橋區"
"220073","985-R7","2018/03/13 18:39:11","新北市板橋區貴興路76號","121.456421666667","25.0029066666667","6500100","板橋區"
"220070","AAC-253","2018/03/13 18:39:19","新北市板橋區華東街1-9號","121.44826","24.994895","6500100","板橋區"
