"lineid","car","time","location","longitude","latitude","cityid","cityname"
"234046","148-BY","2018/03/13 20:09:25","新北市永和區得和路326號","121.52328","24.99955","6500400","永和區"
"234007","207-UY","2018/03/13 20:09:15","新北市永和區保順路37巷14號","121.502963333333","25.0104233333333","6500400","永和區"
"234081","298-R6","2018/03/13 20:09:25","新北市永和區國中路109巷3弄2號","121.523791666667","25.0054466666667","6500400","永和區"
"234038","336-UY","2018/03/13 20:09:23","新北市永和區成功路一段47巷8號","121.527486666667","25.00404","6500400","永和區"
"234064","337-UY","2018/03/13 20:09:18","新北市永和區秀朗路二段43號","121.52158","25.0023866666667","6500400","永和區"
"234086","338-UY","2018/03/13 20:09:29","新北市永和區福和路247號","121.518096666667","25.0073866666667","6500400","永和區"
"234070","552-UM","2018/03/13 20:09:11","新北市永和區福和路217號","121.519136666667","25.0075483333333","6500400","永和區"
"234017","745-BX","2018/03/13 20:09:21","新北市永和區文化路86號","121.5139","25.0152033333333","6500400","永和區"
"234030","746-BX","2018/03/13 20:08:57","新北市永和區民權路49巷21號","121.521171666667","24.9974166666667","6500400","永和區"
"234054","KEA-2590","2018/03/13 20:09:28","新北市永和區博愛街19巷2號","121.51751","25.0158616666667","6500400","永和區"
"234013","KEA-2591","2018/03/13 20:09:03","新北市永和區永貞路415號","121.507371666667","25.009315","6500400","永和區"
"234061","AAD-866","2018/03/13 20:09:14","新北市永和區中正路283巷84號","121.515475","24.9988216666667","6500400","永和區"
"234042","862-TW","2018/03/13 20:09:25","新北市永和區雙和街64巷15號","121.509495","25.003375","6500400","永和區"
"234050","863-TW","2018/03/13 20:09:14","新北市永和區環河西路二段149號","121.505726666667","25.0140183333333","6500400","永和區"
"234026","9371-KE","2018/03/13 20:09:19","新北市永和區保生路55號","121.504548333333","25.0108666666667","6500400","永和區"
"249005","172-UM","2018/03/13 20:09:16","新北市八里區下罟子50號","121.382798333333","25.1389366666667","6502300","八里區"
"249001","173-UM","2018/03/13 20:09:17","新北市八里區中華路二段312號","121.403776666667","25.148355","6502300","八里區"
"249004","303-UY","2018/03/13 20:02:25","新北市八里區中山路一段157巷67號","121.412265","25.1577933333333","6502300","八里區"
"249002","305-UY","2018/03/13 20:09:15","新北市八里區龍米路一段19號","121.457311666667","25.1158983333333","6502300","八里區"
"249003","593-UM","2018/03/13 20:09:15","新北市八里區中山路二段540巷9弄27號","121.396465","25.1465366666667","6502300","八里區"
"248014","025-BX","2018/03/13 20:09:12","新北市五股區新城六路263號","121.448311666667","25.0926366666667","6501500","五股區"
"248016","026-BX","2018/03/13 20:09:23","新北市五股區天乙路67號","121.448116666667","25.1046666666667","6501500","五股區"
"248008","095-VK","2018/03/13 20:09:14","新北市三重區中正北路560巷37弄18號","121.46983","25.0705633333333","6501500","五股區"
"248020","225-UY","2018/03/13 20:09:21","新北市五股區凌雲路二段48號","121.43945","25.1028416666667","6501500","五股區"
"248012","247-BX","2018/03/13 20:09:21","新北市五股區六合街124號","121.430148333333","25.0907666666667","6501500","五股區"
"248004","677-BX","2018/03/13 20:09:20","新北市五股區成泰路一段88號","121.435816666667","25.07113","6501500","五股區"
"248002","678-BX","2018/03/13 20:09:32","新北市五股區成泰路三段277號","121.44717","25.0940366666667","6501500","五股區"
"248010","682-TV","2018/03/13 20:09:27","新北市五股區成泰路一段7巷13號","121.432875","25.0668866666667","6501500","五股區"
"234023","9380-KE","2018/03/13 20:09:13","新北市永和區中正路654巷16號","121.517358333333","25.0085383333333","6500400","永和區"
"234077","969-R7","2018/03/13 20:09:28","新北市永和區民享街23巷5弄8號","121.51612","24.9956583333333","6500400","永和區"
"234074","AAC-211","2018/03/13 20:09:29","新北市永和區豫溪街163號","121.521636666667","25.0103966666667","6500400","永和區"
"234067","AAC-212","2018/03/13 20:09:22","新北市永和區保平路214巷12弄2號","121.509043333333","25.0067466666667","6500400","永和區"
"234003","AAC-295","2018/03/13 20:09:15","新北市永和區中正路638號","121.5169","25.0081816666667","6500400","永和區"
"243012","AAD-798","2018/03/13 20:09:26","新北市泰山區楓江路48號","121.435173333333","25.0622983333333","6501600","泰山區"
"243011","297-R6","2018/03/13 20:09:14","新北市泰山區明志路三段235號","121.423611666667","25.0378383333333","6501600","泰山區"
"243014","421-VK","2018/03/13 20:09:31","新北市泰山區明志路一段24號","121.43362","25.0655033333333","6501600","泰山區"
"243015","539-UM","2018/03/13 20:09:12","新北市泰山區明志路一段493-1號","121.43065","25.054915","6501600","泰山區"
"243010","KEA-2215","2018/03/13 20:09:29","新北市泰山區明志路二段136巷16號","121.426685","25.0514733333333","6501600","泰山區"
"243009","KEA-2216","2018/03/13 20:09:27","新北市泰山區泰林路二段116巷3弄1號","121.435068333333","25.059535","6501600","泰山區"
"243013","646-TV","2018/03/13 20:09:27","新北市泰山區民國街31號","121.425896666667","25.043785","6501600","泰山區"
"243016","680-BX","2018/03/13 20:09:26","新北市泰山區明志路三段355號","121.421883333333","25.0350533333333","6501600","泰山區"
"222003","436-BY","2018/03/13 20:09:14","新北市深坑區埔新街62號","121.620121666667","25.0024433333333","6501800","深坑區"
"222002","659-BX","2018/03/13 20:09:31","新北市深坑區北深路三段154號","121.603096666667","25.0031233333333","6501800","深坑區"
"231041","002-UM","2018/03/13 20:09:23","新北市新店區中正路460號","121.534023333333","24.9793633333333","6500600","新店區"
"231059","046-UY","2018/03/13 20:09:33","新北市新店區安德街60巷27號","121.5111","24.9632216666667","6500600","新店區"
"231061","047-UY","2018/03/13 20:09:13","新北市新店區安興路32號","121.5157","24.970375","6500600","新店區"
"231060","106-UY","2018/03/13 20:09:27","新北市新店區安康路三段312號","121.48715","24.9518416666667","6500600","新店區"
"231051","107-UY","2018/03/13 20:09:15","新北市新店區中央二街5巷4號","121.528806666667","24.9728916666667","6500600","新店區"
"231048","108-UY","2018/03/13 20:09:30","新北市新店區永華街55號","121.544523333333","24.9757883333333","6500600","新店區"
"231053","187-VK","2018/03/13 20:09:26","新北市新店區新烏路三段寶島巷12號","121.552025","24.898725","6500600","新店區"
"231050","KEA-2219","2018/03/13 20:09:19","新北市新店區北新路一段337號","121.541871666667","24.968695","6500600","新店區"
"221015","KEA-2785","2018/03/13 20:09:26","新北市汐止區建成路13號","121.664548333333","25.0725866666667","6501100","汐止區"
"231057","256-BX","2018/03/13 20:09:22","新北市新店區花園一路一段2號","121.553185","24.9324266666667","6500600","新店區"
"231054","AAD-862","2018/03/13 20:09:15","新北市新店區檳榔路20號","121.541265","24.9642433333333","6500600","新店區"
"231040","355-BY","2018/03/13 20:09:14","新北市新店區中正路80號","121.543775","24.9703216666667","6500600","新店區"
"231056","3713-VJ","2018/03/13 20:09:19","新北市新店區北新路二段68號","121.542976666667","24.9724733333333","6500600","新店區"
"231055","4716-K9","2018/03/13 20:09:27","新北市新店區中華路48巷21號","121.54056","24.969045","6500600","新店區"
"231067","4772-VM","2018/03/13 20:09:26","新北市新店區溪洲路6巷5號","121.53393","24.9614266666667","6500600","新店區"
"231065","512-UM","2018/03/13 20:09:14","新北市新店區安祥路106巷282號","121.472815","24.9583766666667","6500600","新店區"
"231064","515-UM","2018/03/13 20:09:18","新北市新店區安光路13-1號","121.513338333333","24.9638116666667","6500600","新店區"
"231045","617-UM","2018/03/13 20:09:17","新北市新店區北宜路一段154號","121.540308333333","24.9537283333333","6500600","新店區"
"231042","641-BX","2018/03/13 20:09:14","新北市新店區中興路二段224號","121.548133333333","24.9751666666667","6500600","新店區"
"231063","645-TV","2018/03/13 20:09:10","新北市新店區黎明路53巷1號","121.502266666667","24.948765","6500600","新店區"
"231068","718-UY","2018/03/13 20:09:10","新北市新店區中興路二段121巷1號","121.547476666667","24.9719066666667","6500600","新店區"
"231049","719-UM","2018/03/13 20:09:29","新北市新店區北新路二段97巷12號","121.542128333333","24.9744666666667","6500600","新店區"
"231062","720-UM","2018/03/13 20:08:06","新北市新店區安光路2號","121.514221666667","24.9634716666667","6500600","新店區"
"231044","897-TW","2018/03/13 20:09:17","新北市新店區寶元路一段15巷11號","121.541981666667","24.98718","6500600","新店區"
"231043","899-TW","2018/03/13 20:09:22","新北市新店區民族路188號","121.536803333333","24.9760083333333","6500600","新店區"
"231066","AKT-0513","2018/03/13 20:09:27","新北市新店區安民街337號","121.51725","24.9749066666667","6500600","新店區"
"241011","013-R5","2018/03/13 20:09:21","新北市三重區三和路三段45號","121.495545","25.0715416666667","6500200","三重區"
"241028","022-UY","2018/03/13 20:09:11","新北市三重區仁化街147號","121.494683333333","25.057325","6500200","三重區"
"241008","059-VK","2018/03/13 20:09:22","新北市三重區永福街197巷15-1號","121.478941666667","25.074445","6500200","三重區"
"241009","060-VK","2018/03/13 20:09:31","新北市三重區三和路四段382巷96弄1號","121.47913","25.0780833333333","6500200","三重區"
"241015","062-VK","2018/03/13 20:09:27","新北市三重區福德北路43號","121.502296666667","25.06493","6500200","三重區"
"241017","063-VK","2018/03/13 20:09:14","新北市三重區大智街108-6號","121.49282","25.0666416666667","6500200","三重區"
"241024","065-VK","2018/03/13 20:09:26","新北市三重區中正北路284號","121.48049","25.068605","6500200","三重區"
"241026","066-VK","2018/03/13 20:09:14","新北市三重區福德南路61號","121.502536666667","25.06083","6500200","三重區"
"241019","090-VK","2018/03/13 20:09:14","新北市三重區自強路二段33巷44號","121.490538333333","25.0698283333333","6500200","三重區"
"241003","091-VK","2018/03/13 20:09:17","新北市三重區富華街18號","121.489555","25.0824833333333","6500200","三重區"
"241031","156-TC","2018/03/13 20:09:25","新北市三重區過圳街9-1號","121.488815","25.0600116666667","6500200","三重區"
"241005","262-UM","2018/03/13 20:09:13","新北市三重區碧華街294巷11號","121.489125","25.08411","6500200","三重區"
"241016","265-UM","2018/03/13 20:09:23","新北市三重區中正北路25巷25弄4號","121.493325","25.062705","6500200","三重區"
"241022","267-UM","2018/03/13 20:09:26","新北市三重區新北大道一段56號","121.487355","25.06148","6500200","三重區"
"241018","268-UM","2018/03/13 20:09:31","新北市三重區正義北路256巷128號","121.493208333333","25.0677683333333","6500200","三重區"
"241032","269-UM","2018/03/13 20:09:14","新北市三重區捷運路65號","121.483433333333","25.0555683333333","6500200","三重區"
"241013","270-UM","2018/03/13 20:09:13","新北市三重區三和路三段151巷41號","121.49382","25.074315","6500200","三重區"
"241025","271-UM","2018/03/13 20:09:23","新北市三重區中正北路237號","121.475598333333","25.070745","6500200","三重區"
"241007","398-BY","2018/03/13 20:09:24","新北市三重區三和路四段111-15號","121.486946666667","25.077735","6500200","三重區"
"241020","413-TH","2018/03/13 20:09:28","新北市三重區重陽路四段121號","121.493291666667","25.0720866666667","6500200","三重區"
"241004","475-VK","2018/03/13 20:09:18","新北市三重區自強路四段96號","121.491011666667","25.07941","6500200","三重區"
"241001","478-VK","2018/03/13 20:09:27","新北市三重區溪尾街20號","121.491236666667","25.07604","6500200","三重區"
"241030","480-VK","2018/03/13 20:09:17","新北市三重區成功路145巷33號","121.487693333333","25.0531366666667","6500200","三重區"
"241014","543-UM","2018/03/13 20:09:25","新北市三重區長樂街90號","121.501321666667","25.0695583333333","6500200","三重區"
"241023","545-UM","2018/03/13 20:09:10","新北市三重區頂崁街218號","121.47701","25.068015","6500200","三重區"
"241035","743-BX","2018/03/13 20:09:22","新北市三重區平安街42號","121.49805","25.0641416666667","6500200","三重區"
"241002","887-TS","2018/03/13 20:09:15","新北市三重區仁忠街23號","121.496615","25.08253","6500200","三重區"
"241012","941-UM","2018/03/13 20:09:21","新北市三重區仁愛街125巷32號","121.497833333333","25.0759783333333","6500200","三重區"
"241029","942-UM","2018/03/13 20:09:25","新北市三重區光明路32巷20號","121.491825","25.05876","6500200","三重區"
"241033","AAC-255","2018/03/13 20:09:30","新北市三重區光復路一段70號","121.47177","25.049335","6500200","三重區"
"235066","003-UY","2018/03/13 20:09:16","新北市中和區水源路154巷2號","121.508071666667","25.003265","6500300","中和區"
"235039","097-UM","2018/03/13 20:09:16","新北市中和區景平路278巷16弄10號","121.51432","24.993575","6500300","中和區"
"235065","098-UM","2018/03/13 20:09:26","新北市中和區永和路90巷2弄10號","121.497665","25.0055866666667","6500300","中和區"
"235040","150-BY","2018/03/13 20:09:26","新北市中和區保健路10巷21弄17號","121.508298333333","24.9975183333333","6500300","中和區"
"235038","185-VK","2018/03/13 20:09:19","新北市三重區光復路二段87巷63號","121.475546666667","25.0585616666667","6500300","中和區"
"235044","293-VK","2018/03/13 20:09:29","新北市中和區中正路63號","121.501335","24.9932366666667","6500300","中和區"
"235068","377-QA","2018/03/13 20:09:19","新北市中和區福祥路89號","121.499041666667","25.0059383333333","6500300","中和區"
"235050","4979-A6","2018/03/13 20:09:26","新北市中和區安樂路8-1號","121.511718333333","24.9917433333333","6500300","中和區"
"235070","558-UM","2018/03/13 20:09:20","新北市中和區中正路436號","121.491173333333","24.9942266666667","6500300","中和區"
"235046","733-UM","2018/03/13 20:09:23","新北市中和區忠孝街75號","121.5121","24.9850916666667","6500300","中和區"
"235051","157-BY","2018/03/13 20:09:23","新北市中和區景安路220巷1弄2號","121.503341666667","24.9909033333333","6500300","中和區"
"235037","AAC-213","2018/03/13 20:09:30","新北市中和區自強路60號","121.520133333333","24.9944983333333","6500300","中和區"
"235059","AAC-215","2018/03/13 20:09:19","新北市中和區圓通路335巷33弄33號","121.493568333333","24.9888216666667","6500300","中和區"
"220068","013-TV","2018/03/13 20:09:27","新北市板橋區中山路二段302號","121.479835","25.01899","6500100","板橋區"
"220069","AAD-861","2018/03/13 20:09:29","新北市板橋區大明街20巷19弄7號","121.458155","25.0032366666667","6500100","板橋區"
"247024","893-R6","2018/03/13 20:09:21","新北市蘆洲區光明路131號","121.463881666667","25.0884266666667","6501400","蘆洲區"
"247014","546-UM","2018/03/13 20:09:32","新北市蘆洲區中山二路261號","121.46992","25.0797933333333","6501400","蘆洲區"
"247022","500-BY","2018/03/13 20:09:22","新北市蘆洲區三民路175號","121.470936666667","25.0872933333333","6501400","蘆洲區"
"247010","341-TH","2018/03/13 20:09:15","新北市蘆洲區集賢路406號","121.48011","25.0818583333333","6501400","蘆洲區"
"247012","339-TH","2018/03/13 20:09:12","新北市蘆洲區民族路252號","121.479115","25.088725","6501400","蘆洲區"
"247004","337-TH","2018/03/13 20:09:18","新北市蘆洲區永安南路二段328巷15弄15號","121.45591","25.0835933333333","6501400","蘆洲區"
"247006","336-TH","2018/03/13 20:09:21","新北市蘆洲區永安南路二段18號","121.46768","25.077115","6501400","蘆洲區"
"247018","057-VK","2018/03/13 20:09:27","新北市蘆洲區民族路314巷11-1號","121.477843333333","25.09062","6501400","蘆洲區"
"247008","056-VK","2018/03/13 20:09:14","新北市蘆洲區中山一路163號","121.475486666667","25.08123","6501400","蘆洲區"
"247020","053-VK","2018/03/13 20:08:04","新北市蘆洲區民權路106巷5弄7號","121.474243333333","25.0891166666667","6501400","蘆洲區"
"247016","007-UY","2018/03/13 20:09:29","新北市蘆洲區光華路135號","121.466291666667","25.0823133333333","6501400","蘆洲區"
"247002","002-UY","2018/03/13 20:09:18","新北市蘆洲區永康街2巷6號","121.459291666667","25.0861183333333","6501400","蘆洲區"
"224010","AGQ-8101","2018/03/13 20:02:49","新北市瑞芳區烏勢巷145號","121.847465","25.1085133333333","6501200","瑞芳區"
"222001","KEA-2212","2018/03/13 20:09:14","新北市深坑區北深路三段187號","121.601263333333","25.0036983333333","6501800","深坑區"
"208002","KEA-2872","2018/03/13 20:09:16","新北市金山區環金路462號","121.630116666667","25.224645","6502700","金山區"
"208003","665-BX","2018/03/13 20:09:17","新北市金山區永興里忠義路1號","121.632965","25.258885","6502700","金山區"
"251004","009-UM","2018/03/13 20:09:22","新北市淡水區民族路29巷24-1號","121.461716666667","25.136675","6501000","淡水區"
"251002","012-UM","2018/03/13 20:09:26","新北市淡水區中正路288號","121.437698333333","25.1719183333333","6501000","淡水區"
"251013","179-VK","2018/03/13 20:09:25","新北市淡水區奎柔山路460號","121.463701666667","25.2046333333333","6501000","淡水區"
"251014","180-VK","2018/03/13 20:09:17","新北市淡水區石頭厝1號","121.4587","25.2355333333333","6501000","淡水區"
"251008","181-VK","2018/03/13 20:09:20","新北市淡水區淡海路72巷30弄17號","121.425043333333","25.1825466666667","6501000","淡水區"
"251015","182-VK","2018/03/13 20:09:12","新北市淡水區商工路145號","121.447286666667","25.18853","6501000","淡水區"
"251010","413-VK","2018/03/13 20:09:21","新北市淡水區崁頂五路303號","121.424065","25.1967766666667","6501000","淡水區"
"251012","441-VK","2018/03/13 20:09:13","新北市淡水區下圭柔山56-11號","121.447343333333","25.204605","6501000","淡水區"
"251016","442-VK","2018/03/13 20:09:20","新北市淡水區番子田18號","121.457188333333","25.2291933333333","6501000","淡水區"
"251006","561-UM","2018/03/13 20:09:29","新北市淡水區北新路141巷29號","121.448158333333","25.17964","6501000","淡水區"
"251009","575-R6","2018/03/13 20:09:23","新北市淡水區清水街9-8號","121.444715","25.170305","6501000","淡水區"
"251003","673-BX","2018/03/13 20:09:26","新北市淡水區中山北路二段189巷15弄31號","121.44345","25.1841366666667","6501000","淡水區"
"207003","550-UM","2018/03/13 20:09:21","新北市萬里區大鵬里萬里加投186號","121.642808333333","25.2156633333333","6502800","萬里區"
"207004","291-VK","2018/03/13 20:09:13","新北市萬里區北基里愛三街13號","121.681868333333","25.1766666666667","6502800","萬里區"
"252002","178-VK","2018/03/13 20:09:26","新北市三芝區中正路一段68號","121.50385","25.25766","6502100","三芝區"
"252001","292-VK","2018/03/13 20:09:14","新北市三芝區公正街9號","121.499765","25.2575216666667","6502100","三芝區"
"237004","KEA-2597","2018/03/13 20:09:26","新北市三峽區大同路194號","121.371341666667","24.92708","6500900","三峽區"
"237012","275-BY","2018/03/13 20:09:09","新北市三峽區中華路48巷16號","121.371105","24.930085","6500900","三峽區"
"237008","302-VK","2018/03/13 20:09:12","新北市三峽區中正路一段174巷16號","121.371828333333","24.9288833333333","6500900","三峽區"
"237006","5529-G3","2018/03/13 20:09:28","新北市三峽區中正路二段299巷37號","121.367141666667","24.9113166666667","6500900","三峽區"
"237005","AKY-6261","2018/03/13 20:09:21","新北市三峽區三樹路98巷74弄25號","121.385033333333","24.9384783333333","6500900","三峽區"
"236070","105-UM","2018/03/13 20:09:12","新北市土城區中央路三段147巷2弄16號","121.431966666667","24.9648866666667","6501300","土城區"
"236043","107-UM","2018/03/13 20:09:20","新北市土城區學享街72號","121.452621666667","24.9861766666667","6501300","土城區"
"236079","166-UM","2018/03/13 20:09:28","新北市土城區中山路47號","121.420565","24.96283","6501300","土城區"
"236031","253-BX","2018/03/13 20:09:30","新北市土城區中央路一段145號","121.446738333333","24.9879133333333","6501300","土城區"
"236026","269-VK","2018/03/13 20:09:20","新北市土城區裕生路83巷22號","121.44765","24.98398","6501300","土城區"
"236015","270-VK","2018/03/13 20:09:24","新北市土城區德興街133號","121.455056666667","24.99175","6501300","土城區"
"236038","271-VK","2018/03/13 20:09:15","新北市土城區延吉街294號","121.464588333333","24.9841066666667","6501300","土城區"
"236023","401-BY","2018/03/13 20:09:29","新北市土城區延吉街111巷12弄20號","121.471503333333","24.98545","6501300","土城區"
"236063","752-BX","2018/03/13 20:09:22","新北市土城區延和路12巷1號","121.464178333333","24.9877666666667","6501300","土城區"
"236059","912-UM","2018/03/13 20:09:31","新北市土城區中央路二段137號","121.442085","24.9770816666667","6501300","土城區"
"236049","913-UM","2018/03/13 20:09:27","新北市土城區清水路259號","121.463066666667","24.984465","6501300","土城區"
"236055","AAC-216","2018/03/13 20:09:24","新北市土城區中華路一段164號","121.44169","24.983545","6501300","土城區"
"242034","AAC-296","2018/03/13 20:09:25","新北市新莊區華興街17號","121.445895","25.0358116666667","6500500","新莊區"
"242058","986-R7","2018/03/13 20:09:14","新北市新莊區龍安路282號","121.422401666667","25.0191666666667","6500500","新莊區"
"242054","751-BX","2018/03/13 20:09:22","新北市新莊區西盛街387巷13號","121.4285","25.0129766666667","6500500","新莊區"
"242025","705-TV","2018/03/13 20:09:20","新北市新莊區五工路68巷31號","121.45899","25.06494","6500500","新莊區"
"242027","615-BX","2018/03/13 20:09:10","新北市新莊區中平路256-1號","121.444865","25.0496383333333","6500500","新莊區"
"242029","612-BX","2018/03/13 20:09:28","新北市新莊區中原路301號","121.447451666667","25.054465","6500500","新莊區"
"242019","497-BY","2018/03/13 20:09:09","新北市新莊區博愛路2巷2號","121.456538333333","25.0427583333333","6500500","新莊區"
"242042","442-UM","2018/03/13 20:09:27","新北市新莊區青山路一段177號","121.400541666667","25.0302166666667","6500500","新莊區"
"242051","441-UM","2018/03/13 20:09:14","新北市新莊區民安西路198號","121.425895","25.0153866666667","6500500","新莊區"
"242056","440-UM","2018/03/13 20:09:31","新北市新莊區新莊路649巷15弄13號","121.445541666667","25.0315883333333","6500500","新莊區"
"242037","415-TV","2018/03/13 20:09:21","新北市新莊區建安街28號","121.428245","25.02529","6500500","新莊區"
"242007","413-TV","2018/03/13 20:09:26","新北市新莊區思源路453巷1號","121.459241666667","25.05338","6500500","新莊區"
"242044","400-BY","2018/03/13 20:09:17","新北市新莊區中正路895-47號","121.41215","25.0215","6500500","新莊區"
"242023","362-BY","2018/03/13 20:09:19","新北市新莊區化成路560號","121.466215","25.053995","6500500","新莊區"
"242061","353-BY","2018/03/13 20:09:26","新北市新莊區瓊林路瓊英巷1弄1號","121.443886666667","25.027245","6500500","新莊區"
"242009","132-UY","2018/03/13 20:09:16","新北市新莊區昌盛街35巷4弄1號","121.454111666667","25.0506283333333","6500500","新莊區"
"242039","133-UY","2018/03/13 20:09:13","新北市新莊區民安西路105號","121.42691","25.018575","6500500","新莊區"
"242032","135-UY","2018/03/13 20:09:14","新北市新莊區中正路455-1號","121.442681666667","25.0340333333333","6500500","新莊區"
"242048","172-VK","2018/03/13 20:09:26","新北市新莊區四維路152巷33號","121.422056666667","25.022315","6500500","新莊區"
"242017","175-VK","2018/03/13 20:09:24","新北市新莊區中港路397號","121.451935","25.0469683333333","6500500","新莊區"
"242005","176-VK","2018/03/13 20:09:27","新北市新莊區頭興街7巷1號","121.462603333333","25.0535083333333","6500500","新莊區"
"242015","346-TH","2018/03/13 20:09:15","新北市新莊區中平路26巷37號","121.446673333333","25.043295","6500500","新莊區"
"242021","348-TH","2018/03/13 20:09:22","新北市新莊區中興街11號","121.449158333333","25.03611","6500500","新莊區"
"242002","349-TH","2018/03/13 20:09:25","新北市新莊區中正路121-1號","121.460045","25.0386","6500500","新莊區"
"242013","351-TH","2018/03/13 20:09:13","新北市新莊區幸福路710巷1弄12號","121.449125","25.0496583333333","6500500","新莊區"
"238021","KEA-2539","2018/03/13 20:09:19","新北市樹林區佳園路三段99巷19號","121.389303333333","24.9521583333333","6500700","樹林區"
"239004","193-VK","2018/03/13 19:51:14","新北市鶯歌區環河路177-1號","121.346031666667","24.9355683333333","6500800","鶯歌區"
"221008","489-VK","2018/03/13 20:09:28","台北市內湖區康樂街61巷100-1號","121.619285","25.0714066666667","6501100","汐止區"
"221036","130-UY","2018/03/13 20:09:23","新北市汐止區新台五路二段15號","121.662393333333","25.0661066666667","6501100","汐止區"
"221010","269-BY","2018/03/13 20:09:25","新北市汐止區八連路一段330-1號","121.64119","25.089635","6501100","汐止區"
"221012","278-VK","2018/03/13 20:09:28","新北市汐止區汐平路二段70號","121.698828333333","25.0608883333333","6501100","汐止區"
"221023","279-VK","2018/03/13 20:09:22","新北市汐止區明峰街298巷10弄1號","121.624978333333","25.068905","6501100","汐止區"
"221032","280-BY","2018/03/13 20:09:12","新北市汐止區弘道街10號","121.61695","25.048575","6501100","汐止區"
"221027","281-BY","2018/03/13 20:09:28","新北市汐止區民生街4巷2號","121.660198333333","25.068795","6501100","汐止區"
"221033","297-VK","2018/03/13 20:09:28","新北市汐止區東勢街201巷129弄2號","121.63347","25.0428283333333","6501100","汐止區"
"221029","298-VK","2018/03/13 20:09:22","新北市汐止區樟樹一路119巷10弄1號","121.641236666667","25.064555","6501100","汐止區"
"221021","299-VK","2018/03/13 20:09:22","新北市汐止區莊敬街121號","121.65496","25.0609533333333","6501100","汐止區"
"221031","353-TW","2018/03/13 20:09:20","新北市汐止區原興路76巷2號","121.63204","25.0663833333333","6501100","汐止區"
"221035","622-UM","2018/03/13 20:09:18","新北市汐止區長江街79巷19號","121.657738333333","25.0729333333333","6501100","汐止區"
"221025","623-UM","2018/03/13 20:09:20","新北市汐止區連興街150號","121.654113333333","25.0613383333333","6501100","汐止區"
"221038","646-BX","2018/03/13 20:09:25","新北市汐止區大同路三段61號","121.667176666667","25.0769233333333","6501100","汐止區"
"221002","707-TV","2018/03/13 20:09:22","新北市汐止區大同路一段219巷27號","121.63329","25.0583833333333","6501100","汐止區"
"221018","753-BX","2018/03/13 20:09:11","新北市汐止區茄興街12號","121.673491666667","25.06723","6501100","汐止區"
"220101","245-BX","2018/03/13 20:09:17","新北市板橋區莒光路167-8號","121.47447","25.0234883333333","6500100","板橋區"
"220098","257-TC","2018/03/13 20:09:27","新北市板橋區新海路72巷73號","121.461365","25.023315","6500100","板橋區"
"220071","283-VK","2018/03/13 20:09:25","新北市板橋區廣權路125號","121.465505","24.9931983333333","6500100","板橋區"
"220053","285-VK","2018/03/13 20:09:12","新北市板橋區中山路二段260號","121.47892","25.018415","6500100","板橋區"
"220083","286-VK","2018/03/13 20:09:13","新北市板橋區僑中二街88巷38號","121.444401666667","25.0096766666667","6500100","板橋區"
"220081","287-VK","2018/03/13 20:09:19","新北市板橋區僑中一街124巷18弄26-1號","121.44719","25.0136116666667","6500100","板橋區"
"220061","293-UM","2018/03/13 20:09:15","新北市板橋區中山路一段256號","121.471548333333","25.01468","6500100","板橋區"
"220062","295-UM","2018/03/13 20:09:13","新北市板橋區中山路二段416巷57弄2號","121.48297","25.0189416666667","6500100","板橋區"
"220084","296-UM","2018/03/13 20:09:25","新北市板橋區金門街119-3號","121.433023333333","24.9917416666667","6500100","板橋區"
"242011","281-VK","2018/03/13 20:09:27","新北市新莊區中和街204巷7號","121.44823","25.0503366666667","6500500","新莊區"
"220092","307-R5","2018/03/13 20:09:22","新北市板橋區文化路一段54-2號","121.4602","25.012625","6500100","板橋區"
"220089","487-VK","2018/03/13 20:09:12","新北市板橋區互助街88號","121.460395","25.026295","6500100","板橋區"
"242046","280-VK","2018/03/13 20:09:28","新北市新莊區裕民街103巷5號","121.418738333333","25.022985","6500500","新莊區"
"220088","491-VK","2018/03/13 20:09:17","新北市板橋區萬板路810-1號","121.482778333333","25.0273366666667","6500100","板橋區"
"220103","561-BX","2018/03/13 20:09:21","新北市板橋區英士路58巷9號","121.460633333333","25.02519","6500100","板橋區"
"220093","689-BX","2018/03/13 20:09:30","新北市板橋區長江路一段148號","121.460893333333","25.0301566666667","6500100","板橋區"
"220102","KEA-2699","2018/03/13 20:09:18","新北市板橋區民治街135號","121.477671666667","25.03078","6500100","板橋區"
"220055","827-TW","2018/03/13 20:09:24","新北市板橋區仁愛路75號","121.460908333333","24.9997016666667","6500100","板橋區"
"220067","830-TW","2018/03/13 20:09:11","新北市板橋區中山路一段206巷91號","121.47204","25.0132883333333","6500100","板橋區"
"220074","895-R6","2018/03/13 20:09:30","新北市板橋區館前西路68號","121.457605","25.007035","6500100","板橋區"
"220073","985-R7","2018/03/13 20:09:11","新北市新莊區中正路384號","121.442203333333","25.0349233333333","6500100","板橋區"
"220097","AAC-210","2018/03/13 20:09:17","新北市板橋區漢生西路35號","121.463056666667","25.0183966666667","6500100","板橋區"
"220070","AAC-253","2018/03/13 20:09:18","新北市板橋區四川路二段245巷3號","121.450565","24.9933566666667","6500100","板橋區"
