"lineid","car","time","location","longitude","latitude","cityid","cityname"
"234007","207-UY","2018/03/13 20:19:15","新北市永和區環河西路二段217巷1號","121.501448333333","25.0101783333333","6500400","永和區"
"234081","298-R6","2018/03/13 20:19:25","新北市永和區國中路132巷7號","121.523718333333","25.0073533333333","6500400","永和區"
"234038","336-UY","2018/03/13 20:19:13","新北市永和區成功路一段91號","121.527061666667","25.00274","6500400","永和區"
"234064","337-UY","2018/03/13 20:19:23","新北市永和區得和路124號","121.518736666667","25.0001433333333","6500400","永和區"
"234086","338-UY","2018/03/13 20:19:19","新北市永和區永和路二段50號","121.514818333333","25.0108333333333","6500400","永和區"
"234070","552-UM","2018/03/13 20:19:10","新北市永和區福和路263巷14號","121.517933333333","25.006795","6500400","永和區"
"234017","745-BX","2018/03/13 20:19:21","新北市永和區仁愛路35號","121.514171666667","25.01336","6500400","永和區"
"234030","746-BX","2018/03/13 20:19:17","新北市永和區民有街75巷10弄16號","121.518966666667","24.99611","6500400","永和區"
"234054","KEA-2590","2018/03/13 20:19:12","新北市永和區光復街2巷16弄24號","121.517608333333","25.0162733333333","6500400","永和區"
"234013","KEA-2591","2018/03/13 20:19:23","新北市永和區仁愛路266號","121.504196666667","25.0085933333333","6500400","永和區"
"234061","AAD-866","2018/03/13 20:19:16","新北市永和區安樂路100巷5號","121.514231666667","24.9993616666667","6500400","永和區"
"234042","862-TW","2018/03/13 20:19:25","新北市永和區中和路453號","121.509888333333","25.0015533333333","6500400","永和區"
"234050","863-TW","2018/03/13 20:19:25","新北市永和區文化路187號","121.509621666667","25.01705","6500400","永和區"
"249005","172-UM","2018/03/13 20:19:16","新北市八里區下罟子7號","121.385806666667","25.1407366666667","6502300","八里區"
"249001","173-UM","2018/03/13 20:19:17","新北市八里區中華路二段538-1號","121.399055","25.144995","6502300","八里區"
"249004","303-UY","2018/03/13 20:19:25","新北市八里區中山路一段129巷19-1號","121.41396","25.15857","6502300","八里區"
"249002","305-UY","2018/03/13 20:19:15","新北市八里區龍米路一段267號","121.44955","25.13782","6502300","八里區"
"249003","593-UM","2018/03/13 20:19:15","新北市八里區訊塘路23號","121.397578333333","25.1451683333333","6502300","八里區"
"248016","026-BX","2018/03/13 20:19:23","新北市五股區天乙路34號","121.448443333333","25.103485","6501500","五股區"
"248012","247-BX","2018/03/13 20:19:21","新北市五股區民義路一段212號","121.430606666667","25.0893433333333","6501500","五股區"
"248004","677-BX","2018/03/13 20:19:20","新北市五股區成泰路二段102號","121.437586666667","25.082905","6501500","五股區"
"248002","678-BX","2018/03/13 20:19:14","新北市五股區成泰路三段113號","121.444195","25.090525","6501500","五股區"
"234023","9380-KE","2018/03/13 20:19:13","新北市永和區永和路二段282號","121.515998333333","25.015415","6500400","永和區"
"234077","969-R7","2018/03/13 20:19:28","新北市永和區中正路98號","121.514311666667","24.9955416666667","6500400","永和區"
"234074","AAC-211","2018/03/13 20:19:29","新北市永和區豫溪街156號","121.523031666667","25.0098116666667","6500400","永和區"
"234067","AAC-212","2018/03/13 20:19:29","新北市永和區保平路266號","121.508613333333","25.0052516666667","6500400","永和區"
"234003","AAC-295","2018/03/13 20:19:15","新北市永和區自強街6巷1弄12號","121.514696666667","25.0079466666667","6500400","永和區"
"243012","AAD-798","2018/03/13 20:19:26","新北市泰山區楓江路148號","121.440208333333","25.065595","6501600","泰山區"
"243011","297-R6","2018/03/13 20:19:20","新北市泰山區壽山路160巷12號","121.417016666667","25.0311683333333","6501600","泰山區"
"243014","421-VK","2018/03/13 20:19:31","新北市泰山區泰林路二段355號","121.428205","25.0639316666667","6501600","泰山區"
"243015","539-UM","2018/03/13 20:19:32","新北市泰山區明志路一段250號","121.432291666667","25.0608166666667","6501600","泰山區"
"243010","KEA-2215","2018/03/13 20:19:29","新北市泰山區明志路二段254巷6號","121.426683333333","25.04763","6501600","泰山區"
"243009","KEA-2216","2018/03/13 20:19:27","新北市泰山區明志路一段210號","121.432646666667","25.0614916666667","6501600","泰山區"
"243013","646-TV","2018/03/13 20:19:17","新北市泰山區中央路5巷46號","121.428458333333","25.042585","6501600","泰山區"
"243016","680-BX","2018/03/13 20:19:13","新北市泰山區明志路二段384號","121.425385","25.04455","6501600","泰山區"
"222003","436-BY","2018/03/13 20:19:14","新北市深坑區文化街74號","121.618076666667","25.0018666666667","6501800","深坑區"
"222002","659-BX","2018/03/13 20:19:29","新北市深坑區萬福路75巷8-1號","121.600105","25.0095183333333","6501800","深坑區"
"231041","002-UM","2018/03/13 20:19:23","新北市新店區民權路46號","121.540135","24.9829933333333","6500600","新店區"
"231059","046-UY","2018/03/13 20:19:30","新北市新店區安德街171號","121.508636666667","24.959065","6500600","新店區"
"231061","047-UY","2018/03/13 20:19:13","新北市新店區安民街133巷26號","121.51531","24.9695783333333","6500600","新店區"
"231060","106-UY","2018/03/13 20:19:27","新北市新店區錦秀路11巷94弄2號","121.480176666667","24.942385","6500600","新店區"
"231051","107-UY","2018/03/13 20:19:15","新北市新店區中央五街3-2號","121.53032","24.9743566666667","6500600","新店區"
"231048","108-UY","2018/03/13 20:19:29","新北市新店區中興路三段221-1號","121.54342","24.9827583333333","6500600","新店區"
"231053","187-VK","2018/03/13 20:19:22","新北市新店區新烏路二段300號","121.547946666667","24.91269","6500600","新店區"
"231050","KEA-2219","2018/03/13 20:19:19","新北市新店區中正路191號","121.54052","24.9724133333333","6500600","新店區"
"221015","KEA-2785","2018/03/13 20:19:26","新北市汐止區建成路142巷19弄13號","121.661936666667","25.0738966666667","6501100","汐止區"
"231057","256-BX","2018/03/13 20:19:22","新北市新店區花園五路二段27號","121.554755","24.9346983333333","6500600","新店區"
"231054","AAD-862","2018/03/13 20:19:15","新北市新店區檳榔路105號","121.544615","24.961655","6500600","新店區"
"231040","355-BY","2018/03/13 20:19:14","新北市新店區中正路162號","121.541396666667","24.9718733333333","6500600","新店區"
"231058","3712-VJ","2018/03/13 20:19:27","新北市新店區中正路347號","121.535486666667","24.97579","6500600","新店區"
"231056","3713-VJ","2018/03/13 20:19:22","新北市新店區中正路330號","121.536981666667","24.9750466666667","6500600","新店區"
"231055","4716-K9","2018/03/13 20:19:27","新北市新店區北新路一段303號","121.541268333333","24.9675883333333","6500600","新店區"
"231067","4772-VM","2018/03/13 20:19:26","新北市新店區溪洲路101-1號","121.531891666667","24.9624016666667","6500600","新店區"
"231065","512-UM","2018/03/13 20:19:14","新北市新店區安祥路106巷26號","121.477693333333","24.96223","6500600","新店區"
"231064","515-UM","2018/03/13 20:19:18","新北市新店區安利街26號","121.519206666667","24.9745816666667","6500600","新店區"
"231045","617-UM","2018/03/13 20:19:17","新北市新店區新坡一街10號","121.548356666667","24.96188","6500600","新店區"
"231042","641-BX","2018/03/13 20:19:14","新北市新店區寶橋路202-1號","121.55081","24.9784633333333","6500600","新店區"
"231063","645-TV","2018/03/13 20:19:30","新北市新店區薏仁坑路23號","121.498128333333","24.9589316666667","6500600","新店區"
"231068","718-UY","2018/03/13 20:19:30","新北市新店區寶安街30號","121.542006666667","24.9824366666667","6500600","新店區"
"231049","719-UM","2018/03/13 20:19:12","新北市新店區北新路一段135號","121.539645","24.9631516666667","6500600","新店區"
"231062","720-UM","2018/03/13 20:19:26","新北市新店區安泰路7巷16號","121.485671666667","24.95096","6500600","新店區"
"231044","897-TW","2018/03/13 20:19:17","新北市新店區北新路三段196號","121.54154","24.983355","6500600","新店區"
"231043","899-TW","2018/03/13 20:19:22","新北市新店區建國路133號","121.539308333333","24.9782316666667","6500600","新店區"
"231066","AKT-0513","2018/03/13 20:19:27","新北市新店區安民街341-1號","121.516743333333","24.9748516666667","6500600","新店區"
"241011","013-R5","2018/03/13 20:19:21","新北市三重區龍門路242號","121.5008","25.0737333333333","6500200","三重區"
"241028","022-UY","2018/03/13 20:19:11","新北市三重區大同南路119號","121.496321666667","25.05826","6500200","三重區"
"241008","059-VK","2018/03/13 20:19:22","新北市三重區永福街144號","121.480135","25.0745233333333","6500200","三重區"
"241009","060-VK","2018/03/13 20:19:11","新北市三重區三和路四段384號","121.482461666667","25.07882","6500200","三重區"
"241015","062-VK","2018/03/13 20:19:07","新北市三重區重新路一段118號","121.500496666667","25.0629983333333","6500200","三重區"
"241017","063-VK","2018/03/13 20:19:14","新北市三重區自強路一段199號","121.491661666667","25.068335","6500200","三重區"
"241024","065-VK","2018/03/13 20:19:26","新北市三重區忠孝路三段15巷14號","121.480956666667","25.0675583333333","6500200","三重區"
"241026","066-VK","2018/03/13 20:19:15","新北市三重區福德南路23號","121.502706666667","25.0627683333333","6500200","三重區"
"241019","090-VK","2018/03/13 20:19:30","新北市三重區忠孝路一段68號","121.490185","25.071805","6500200","三重區"
"241003","091-VK","2018/03/13 20:19:17","新北市三重區五華街103號","121.491738333333","25.083925","6500200","三重區"
"241031","156-TC","2018/03/13 20:19:25","新北市三重區三寧街15號","121.489441666667","25.05975","6500200","三重區"
"241005","262-UM","2018/03/13 20:19:13","新北市三重區溪尾街267號","121.487705","25.0821733333333","6500200","三重區"
"241016","265-UM","2018/03/13 20:19:23","新北市三重區大同北路54巷1號","121.494315","25.0635483333333","6500200","三重區"
"241022","267-UM","2018/03/13 20:19:26","新北市三重區市前街14號","121.489121666667","25.0624216666667","6500200","三重區"
"241018","268-UM","2018/03/13 20:19:31","新北市三重區雙園街103號","121.493681666667","25.0673016666667","6500200","三重區"
"241032","269-UM","2018/03/13 20:19:14","新北市三重區捷運路19巷6弄20號","121.484388333333","25.0567916666667","6500200","三重區"
"241013","270-UM","2018/03/13 20:19:13","新北市三重區溪尾街1號","121.491896666667","25.0741083333333","6500200","三重區"
"241025","271-UM","2018/03/13 20:19:23","新北市三重區三民街260號","121.479331666667","25.06797","6500200","三重區"
"241007","398-BY","2018/03/13 20:19:24","新北市三重區溪尾街108巷63號","121.48737","25.0782216666667","6500200","三重區"
"241020","413-TH","2018/03/13 20:19:27","新北市三重區忠孝路一段21巷24號","121.491705","25.072475","6500200","三重區"
"241004","475-VK","2018/03/13 20:19:18","新北市三重區仁愛街390號","121.490841666667","25.0808266666667","6500200","三重區"
"241001","478-VK","2018/03/13 20:19:24","新北市三重區自強路四段3巷32號","121.489856666667","25.0765133333333","6500200","三重區"
"241030","480-VK","2018/03/13 20:19:17","新北市三重區環河南路254巷53號","121.48801","25.0522666666667","6500200","三重區"
"241014","543-UM","2018/03/13 20:19:25","新北市三重區介壽路39巷160號","121.50206","25.0707783333333","6500200","三重區"
"241023","545-UM","2018/03/13 20:19:10","新北市三重區忠孝路三段84巷1號","121.480136666667","25.0645033333333","6500200","三重區"
"241035","743-BX","2018/03/13 20:19:22","新北市三重區正義北路33巷30號","121.498443333333","25.06386","6500200","三重區"
"241002","887-TS","2018/03/13 20:19:15","新北市三重區五華街9-2號","121.495205","25.08","6500200","三重區"
"241012","941-UM","2018/03/13 20:19:21","新北市三重區河邊北街375號","121.501755","25.0763883333333","6500200","三重區"
"241029","942-UM","2018/03/13 20:19:25","新北市三重區光明路123號","121.492403333333","25.0565866666667","6500200","三重區"
"241033","AAC-255","2018/03/13 20:19:10","新北市三重區五谷王北街77號","121.47576","25.050125","6500200","三重區"
"235066","003-UY","2018/03/13 20:19:16","新北市中和區保平路326巷1號","121.50713","25.00429","6500300","中和區"
"235039","097-UM","2018/03/13 20:19:19","新北市中和區大勇街25巷6號","121.517003333333","24.9932833333333","6500300","中和區"
"235065","098-UM","2018/03/13 20:19:26","新北市中和區橋和路298號","121.496875","25.0068983333333","6500300","中和區"
"235038","185-VK","2018/03/13 20:19:19","新北市八里區荖阡坑路20-9號","121.398471666667","25.1368733333333","6500300","中和區"
"235050","4979-A6","2018/03/13 20:19:26","新北市中和區景安路177巷10號","121.50581","24.9939983333333","6500300","中和區"
"235059","AAC-215","2018/03/13 20:19:15","新北市中和區圓通路369巷2號","121.491253333333","24.9895716666667","6500300","中和區"
"247024","893-R6","2018/03/13 20:19:21","新北市蘆洲區光榮路120巷8弄39號","121.464573333333","25.0879383333333","6501400","蘆洲區"
"247014","546-UM","2018/03/13 20:19:32","新北市蘆洲區中山二路137巷29號","121.472456666667","25.080855","6501400","蘆洲區"
"247022","500-BY","2018/03/13 20:19:24","新北市蘆洲區民族路451號","121.46739","25.0887433333333","6501400","蘆洲區"
"247010","341-TH","2018/03/13 20:19:15","新北市蘆洲區信義路188巷25弄1號","121.480346666667","25.0846466666667","6501400","蘆洲區"
"247012","339-TH","2018/03/13 20:19:12","新北市蘆洲區中興街53號","121.481336666667","25.0872483333333","6501400","蘆洲區"
"247004","337-TH","2018/03/13 20:19:17","新北市蘆洲區永康街66號","121.458463333333","25.0854783333333","6501400","蘆洲區"
"247006","336-TH","2018/03/13 20:19:21","新北市蘆洲區九芎街140號","121.464915","25.07892","6501400","蘆洲區"
"247018","057-VK","2018/03/13 20:19:27","新北市蘆洲區民族路408巷4號","121.474711666667","25.09172","6501400","蘆洲區"
"247008","056-VK","2018/03/13 20:19:14","新北市蘆洲區集賢路300號","121.481528333333","25.0850683333333","6501400","蘆洲區"
"247016","007-UY","2018/03/13 20:19:29","新北市蘆洲區中正路185巷47號","121.46571","25.083945","6501400","蘆洲區"
"247002","002-UY","2018/03/13 20:19:18","新北市蘆洲區長安街331巷27號","121.455418333333","25.0864916666667","6501400","蘆洲區"
"222001","KEA-2212","2018/03/13 20:19:14","新北市深坑區北深路三段223號","121.600126666667","25.0040366666667","6501800","深坑區"
"208002","KEA-2872","2018/03/13 20:19:16","新北市金山區磺清路121號","121.639736666667","25.2277166666667","6502700","金山區"
"251004","009-UM","2018/03/13 20:19:21","新北市淡水區民權路41號","121.45982","25.1405183333333","6501000","淡水區"
"251002","012-UM","2018/03/13 20:19:26","新北市淡水區中正路49號","121.441953333333","25.1695133333333","6501000","淡水區"
"251013","179-VK","2018/03/13 20:19:24","新北市淡水區相公山1-1號","121.474491666667","25.2065683333333","6501000","淡水區"
"251014","180-VK","2018/03/13 20:19:17","新北市淡水區石頭厝1號","121.458715","25.2355316666667","6501000","淡水區"
"251008","181-VK","2018/03/13 20:19:20","新北市淡水區淡海路180巷31號","121.421906666667","25.18456","6501000","淡水區"
"251015","182-VK","2018/03/13 20:19:12","新北市淡水區淡金路三段446號","121.450671666667","25.2142366666667","6501000","淡水區"
"251010","413-VK","2018/03/13 20:19:21","新北市淡水區新民街一段134號","121.42753","25.1888466666667","6501000","淡水區"
"251012","441-VK","2018/03/13 20:19:13","新北市淡水區淡金路三段344號","121.449175","25.2087716666667","6501000","淡水區"
"251016","442-VK","2018/03/13 20:19:20","新北市淡水區淡金路四段507號","121.451251666667","25.228305","6501000","淡水區"
"251006","561-UM","2018/03/13 20:19:29","新北市淡水區淡金路一段571號","121.452706666667","25.1805483333333","6501000","淡水區"
"251003","673-BX","2018/03/13 20:19:26","新北市淡水區水碓街15-1號","121.443188333333","25.1772583333333","6501000","淡水區"
"207003","550-UM","2018/03/13 20:19:21","新北市萬里區大鵬里頂社2-1號","121.65816","25.2088033333333","6502800","萬里區"
"207004","291-VK","2018/03/13 20:19:13","新北市萬里區北基里仁二街2號","121.682611666667","25.1756116666667","6502800","萬里區"
"252002","178-VK","2018/03/13 20:19:26","新北市三芝區中正路一段21號","121.502936666667","25.2586033333333","6502100","三芝區"
"252001","292-VK","2018/03/13 20:19:14","新北市三芝區中山路一段14號","121.500668333333","25.258025","6502100","三芝區"
"237004","KEA-2597","2018/03/13 20:19:26","新北市三峽區中山路286號","121.360978333333","24.93822","6500900","三峽區"
"237006","5529-G3","2018/03/13 20:19:28","新北市三峽區中正路二段269號","121.366211666667","24.911625","6500900","三峽區"
"237016","649-BX","2018/03/13 20:17:03","新北市三峽區介壽路二段138巷1弄130-1號","121.399045","24.9309216666667","6500900","三峽區"
"236070","105-UM","2018/03/13 20:19:12","新北市土城區中山路49號","121.421601666667","24.9629866666667","6501300","土城區"
"236043","107-UM","2018/03/13 20:19:20","新北市土城區中華路一段301號","121.439786666667","24.9796933333333","6501300","土城區"
"236031","253-BX","2018/03/13 20:19:15","新北市土城區學成路128巷11號","121.449538333333","24.9900866666667","6501300","土城區"
"236026","269-VK","2018/03/13 20:19:18","新北市土城區裕生路82巷6號","121.447151666667","24.985795","6501300","土城區"
"236015","270-VK","2018/03/13 20:19:24","新北市土城區廣明街90巷21號","121.455378333333","24.9945683333333","6501300","土城區"
"236038","271-VK","2018/03/13 20:19:15","新北市土城區明德路一段305號","121.459753333333","24.97719","6501300","土城區"
"236023","401-BY","2018/03/13 20:19:29","新北市土城區延吉街55號","121.472303333333","24.9875","6501300","土城區"
"236059","912-UM","2018/03/13 20:19:31","新北市土城區大安路2號","121.432941666667","24.9655166666667","6501300","土城區"
"242034","AAC-296","2018/03/13 20:19:24","新北市新莊區公園一路146號","121.446626666667","25.0383666666667","6500500","新莊區"
"242058","986-R7","2018/03/13 20:19:14","新北市新莊區四維路193號","121.422015","25.0208366666667","6500500","新莊區"
"242054","751-BX","2018/03/13 20:19:31","新北市新莊區民安西路261巷5號","121.426436666667","25.0131733333333","6500500","新莊區"
"242025","705-TV","2018/03/13 20:19:20","新北市新莊區五工二路70巷28號","121.461103333333","25.0667","6500500","新莊區"
"242027","615-BX","2018/03/13 20:19:30","新北市新莊區幸福路582號","121.45389","25.0493466666667","6500500","新莊區"
"242029","612-BX","2018/03/13 20:19:28","新北市新莊區中華路二段201號","121.452273333333","25.0526416666667","6500500","新莊區"
"242019","497-BY","2018/03/13 20:19:29","新北市新莊區復興路二段196巷2弄4號","121.459215","25.0441633333333","6500500","新莊區"
"242042","442-UM","2018/03/13 20:19:27","新北市新莊區壽山路45號","121.41478","25.0310233333333","6500500","新莊區"
"242051","441-UM","2018/03/13 20:19:24","新北市新莊區民安西路239號","121.426096666667","25.0139116666667","6500500","新莊區"
"242056","440-UM","2018/03/13 20:19:31","新北市新莊區新莊路649巷24號","121.445016666667","25.0321366666667","6500500","新莊區"
"242037","415-TV","2018/03/13 20:19:24","新北市新莊區建安街85號","121.427191666667","25.024635","6500500","新莊區"
"242007","413-TV","2018/03/13 20:19:26","新北市新莊區福壽街124巷34弄2號","121.45927","25.051305","6500500","新莊區"
"242044","400-BY","2018/03/13 20:19:17","新北市新莊區中正路新建巷28弄20號","121.413608333333","25.0214133333333","6500500","新莊區"
"242023","362-BY","2018/03/13 20:19:19","新北市新莊區化成路405號","121.465176666667","25.058845","6500500","新莊區"
"242061","353-BY","2018/03/13 20:19:26","新北市新莊區新樹路172-13號","121.434586666667","25.0217583333333","6500500","新莊區"
"242009","132-UY","2018/03/13 20:19:16","新北市新莊區昌平街11號","121.454888333333","25.0517683333333","6500500","新莊區"
"242039","133-UY","2018/03/13 20:19:13","新北市新莊區龍安路437號","121.424106666667","25.01881","6500500","新莊區"
"242032","135-UY","2018/03/13 20:19:14","新北市新莊區三和路17-4號","121.438681666667","25.03785","6500500","新莊區"
"242048","172-VK","2018/03/13 20:19:29","新北市新莊區龍安路265號","121.420175","25.0200133333333","6500500","新莊區"
"242017","175-VK","2018/03/13 20:19:24","新北市新莊區中港一街95號","121.44922","25.0452466666667","6500500","新莊區"
"242005","176-VK","2018/03/13 20:19:27","新北市新莊區頭前路15巷9號","121.467831666667","25.051675","6500500","新莊區"
"242015","346-TH","2018/03/13 20:19:20","新北市新莊區永樂街239巷1號","121.446096666667","25.0443616666667","6500500","新莊區"
"242021","348-TH","2018/03/13 20:19:22","新北市新莊區和興街49號","121.44637","25.0405883333333","6500500","新莊區"
"242002","349-TH","2018/03/13 20:19:29","新北市新莊區化成路10號","121.464678333333","25.0423266666667","6500500","新莊區"
"242013","351-TH","2018/03/13 20:19:13","新北市新莊區中平路270巷7弄35號","121.446205","25.0509866666667","6500500","新莊區"
"221008","489-VK","2018/03/13 20:19:28","新北市汐止區康寧街389號","121.62927","25.06783","6501100","汐止區"
"221036","130-UY","2018/03/13 20:19:23","新北市汐止區福安街61巷18號","121.66509","25.063475","6501100","汐止區"
"221010","269-BY","2018/03/13 20:19:25","新北市汐止區八連路二段610巷4號","121.627706666667","25.1088433333333","6501100","汐止區"
"221012","278-VK","2018/03/13 20:19:28","新北市汐止區保新街149號","121.688205","25.06978","6501100","汐止區"
"221023","279-VK","2018/03/13 20:19:23","新北市汐止區湖東街8號","121.633456666667","25.0719816666667","6501100","汐止區"
"221032","280-BY","2018/03/13 20:19:26","新北市汐止區橫科路52巷9弄5號","121.619515","25.0501483333333","6501100","汐止區"
"221027","281-BY","2018/03/13 20:19:31","新北市汐止區大同路二段353號","121.656968333333","25.067205","6501100","汐止區"
"221033","297-VK","2018/03/13 20:19:28","新北市汐止區東勢街92號","121.633401666667","25.0411433333333","6501100","汐止區"
"221029","298-VK","2018/03/13 20:19:22","新北市汐止區工建路92號","121.639681666667","25.063495","6501100","汐止區"
"221021","299-VK","2018/03/13 20:19:18","新北市汐止區水源路一段284號","121.654213333333","25.05829","6501100","汐止區"
"221031","353-TW","2018/03/13 20:19:20","新北市汐止區中興路150巷8號","121.633055","25.0649333333333","6501100","汐止區"
"221035","622-UM","2018/03/13 20:19:18","新北市汐止區長江街101-5號","121.658668333333","25.073245","6501100","汐止區"
"221025","623-UM","2018/03/13 20:19:20","新北市汐止區水源路二段72巷9弄3號","121.655706666667","25.0556866666667","6501100","汐止區"
"221038","646-BX","2018/03/13 20:19:25","新北市汐止區忠孝東路446號","121.666161666667","25.072615","6501100","汐止區"
"221002","707-TV","2018/03/13 20:19:22","新北市汐止區福德三路69號","121.636761666667","25.0692516666667","6501100","汐止區"
"221018","753-BX","2018/03/13 20:19:31","新北市汐止區茄苳路239巷1號","121.67135","25.0685183333333","6501100","汐止區"
"220101","245-BX","2018/03/13 20:19:17","新北市板橋區莊敬路75巷2號","121.473171666667","25.0266983333333","6500100","板橋區"
"220083","286-VK","2018/03/13 20:19:33","新北市板橋區僑中二街102巷38號","121.444691666667","25.0086583333333","6500100","板橋區"
"220081","287-VK","2018/03/13 20:19:18","新北市板橋區僑中一街80巷1弄3號","121.447368333333","25.0118666666667","6500100","板橋區"
"220061","293-UM","2018/03/13 20:19:15","新北市板橋區四川路一段286巷26-1號","121.457833333333","25.001225","6500100","板橋區"
"242011","281-VK","2018/03/13 20:19:27","新北市新莊區中信街16號","121.450983333333","25.0508366666667","6500500","新莊區"
"220089","487-VK","2018/03/13 20:19:12","新北市板橋區四維路174-1號","121.464595","25.0263883333333","6500100","板橋區"
"242046","280-VK","2018/03/13 20:19:14","新北市新莊區中正路新生巷33號","121.417191666667","25.0234083333333","6500500","新莊區"
"220102","KEA-2699","2018/03/13 20:19:18","新北市板橋區縣民大道二段101號","121.466498333333","25.0157083333333","6500100","板橋區"
"220055","827-TW","2018/03/13 20:19:24","新北市板橋區仁愛路30號","121.458925","24.9993683333333","6500100","板橋區"
"220073","985-R7","2018/03/13 20:19:31","新北市五股區中直路1號","121.428336666667","25.109005","6500100","板橋區"
"220097","AAC-210","2018/03/13 20:19:17","新北市板橋區復興街134號","121.461211666667","25.0178483333333","6500100","板橋區"
"220070","AAC-253","2018/03/13 20:19:18","新北市板橋區大觀路一段28巷116-1號","121.450526666667","25.0130466666667","6500100","板橋區"
