"lineid","car","time","location","longitude","latitude","cityid","cityname"
"234081","298-R6","2018/03/13 21:09:25","新北市新店區安和路三段74巷26號","121.519228333333","24.9822366666667","6500400","永和區"
"234042","862-TW","2018/03/13 21:09:25","新北市新店區安和路三段40號","121.518875","24.9814783333333","6500400","永和區"
"249004","303-UY","2018/03/13 21:09:25","新北市八里區中山路三段409號","121.368691666667","25.1347383333333","6502300","八里區"
"234074","AAC-211","2018/03/13 21:09:29","新北市新店區薏仁坑路自強巷1號","121.497525","24.9577433333333","6500400","永和區"
"231028","046-UY","2018/03/13 21:09:10","新北市新店區僑義路19號","121.50035","24.9512666666667","6500600","新店區"
"231061","047-UY","2018/03/13 21:09:33","新北市新店區安和路三段35-1號","121.517143333333","24.98082","6500600","新店區"
"231060","106-UY","2018/03/13 21:09:27","新北市新店區安康路二段382號","121.500393333333","24.9569383333333","6500600","新店區"
"231051","107-UY","2018/03/13 21:09:15","新北市新店區中正路618巷7弄14號","121.534646666667","24.9894933333333","6500600","新店區"
"231048","108-UY","2018/03/13 21:09:29","新北市新店區寶強路1號","121.54271","24.9788783333333","6500600","新店區"
"231053","187-VK","2018/03/13 21:09:22","新北市新店區柴埕路59號","121.51371","24.9647116666667","6500600","新店區"
"231050","KEA-2219","2018/03/13 21:09:19","新北市新店區中華路83巷2弄2號","121.53916","24.9685966666667","6500600","新店區"
"231054","AAD-862","2018/03/13 21:09:16","新北市新店區大新街7巷10號","121.543656666667","24.968185","6500600","新店區"
"231040","355-BY","2018/03/13 21:09:34","新北市新店區北新路一段351號","121.541978333333","24.9694066666667","6500600","新店區"
"231067","4772-VM","2018/03/13 21:09:26","新北市新店區薏仁坑路自強巷6號","121.49677","24.958495","6500600","新店區"
"231065","512-UM","2018/03/13 21:09:14","新北市新店區安祥路69巷41弄84號","121.482503333333","24.9618366666667","6500600","新店區"
"231063","645-TV","2018/03/13 21:09:30","新北市新店區玫瑰路58巷1號","121.495468333333","24.9465916666667","6500600","新店區"
"241011","013-R5","2018/03/13 21:09:21","新北市三重區龍濱路170號","121.501305","25.0726783333333","6500200","三重區"
"241028","022-UY","2018/03/13 21:09:31","新北市三重區正義南路60-1號","121.49826","25.0605883333333","6500200","三重區"
"241008","059-VK","2018/03/13 21:09:22","新北市三重區自強路一段64號","121.497226666667","25.0667016666667","6500200","三重區"
"241009","060-VK","2018/03/13 21:09:31","新北市三重區忠孝路二段122號","121.483008333333","25.0687983333333","6500200","三重區"
"241015","062-VK","2018/03/13 21:09:27","新北市三重區福德北路87號","121.501866666667","25.065975","6500200","三重區"
"241017","063-VK","2018/03/13 21:09:14","新北市三重區國隆路30號","121.492251666667","25.0644333333333","6500200","三重區"
"241024","065-VK","2018/03/13 21:09:26","新北市三重區大勇街82巷15弄30號","121.481268333333","25.071945","6500200","三重區"
"241026","066-VK","2018/03/13 21:09:14","新北市三重區文化南路42號","121.500363333333","25.060195","6500200","三重區"
"241019","090-VK","2018/03/13 21:09:14","新北市三重區自強路二段74巷21號","121.487968333333","25.06988","6500200","三重區"
"241003","091-VK","2018/03/13 21:09:17","新北市三重區仁義街339號","121.494955","25.0848883333333","6500200","三重區"
"241031","156-TC","2018/03/13 21:09:25","新北市三重區重新路五段416號","121.47566","25.047495","6500200","三重區"
"241005","262-UM","2018/03/13 21:09:33","新北市三重區三信路182號","121.488046666667","25.0861416666667","6500200","三重區"
"241016","265-UM","2018/03/13 21:09:23","新北市三重區信義西街138號","121.495585","25.0642816666667","6500200","三重區"
"241022","267-UM","2018/03/13 21:09:26","新北市三重區中正北路64巷21號","121.486076666667","25.06378","6500200","三重區"
"241018","268-UM","2018/03/13 21:09:31","新北市三重區正義北路332-1號","121.494338333333","25.0704783333333","6500200","三重區"
"241032","269-UM","2018/03/13 21:09:14","新北市三重區光復路二段143巷8-3號","121.476286666667","25.0615566666667","6500200","三重區"
"241013","270-UM","2018/03/13 21:09:22","新北市三重區仁愛街139號","121.495098333333","25.0751016666667","6500200","三重區"
"241025","271-UM","2018/03/13 21:09:23","新北市三重區中正北路208巷8號","121.48226","25.0670133333333","6500200","三重區"
"241007","398-BY","2018/03/13 21:09:24","新北市三重區三和路四段145巷85號","121.486455","25.0787016666667","6500200","三重區"
"241020","413-TH","2018/03/13 21:09:27","新北市三重區忠孝路二段35號","121.485961666667","25.0710966666667","6500200","三重區"
"241004","475-VK","2018/03/13 21:09:18","新北市三重區仁愛街423-1號","121.490408333333","25.0814666666667","6500200","三重區"
"241001","478-VK","2018/03/13 21:09:25","新北市三重區仁政街116號","121.49188","25.0781283333333","6500200","三重區"
"241030","480-VK","2018/03/13 21:09:17","新北市三重區五谷王北街20巷15弄1號","121.475033333333","25.04847","6500200","三重區"
"241014","543-UM","2018/03/13 21:09:25","新北市三重區長安街69號","121.501348333333","25.0673833333333","6500200","三重區"
"241023","545-UM","2018/03/13 21:09:30","新北市三重區忠孝路三段50巷41弄64號","121.482386666667","25.0638","6500200","三重區"
"241006","AAD-863","2018/03/13 21:09:22","新北市三重區中正北路2號","121.489308333333","25.0632016666667","6500200","三重區"
"241002","887-TS","2018/03/13 21:09:14","新北市三重區五華街14號","121.494888333333","25.0802083333333","6500200","三重區"
"241012","941-UM","2018/03/13 21:09:21","新北市三重區河邊北街353號","121.502088333333","25.0756666666667","6500200","三重區"
"241029","942-UM","2018/03/13 21:09:25","新北市三重區正義南路107號","121.498208333333","25.05855","6500200","三重區"
"241033","AAC-255","2018/03/13 21:09:30","新北市三重區重光街120-1號","121.466323333333","25.064795","6500200","三重區"
"235038","185-VK","2018/03/13 21:09:19","新北市中和區員山路36巷13號","121.484401666667","24.99083","6500300","中和區"
"235071","269-TV","2018/03/13 20:53:49","新北市中和區員山路36巷16-3號","121.484755","24.99134","6500300","中和區"
"235026","800-TS","2018/03/13 20:40:57","新北市中和區員山路36巷16-3號","121.484885","24.9917466666667","6500300","中和區"
"247024","893-R6","2018/03/13 21:09:21","新北市蘆洲區長興路50巷1號","121.46381","25.08381","6501400","蘆洲區"
"247014","546-UM","2018/03/13 21:09:32","新北市蘆洲區中央路155號","121.472646666667","25.084695","6501400","蘆洲區"
"247022","500-BY","2018/03/13 21:09:26","新北市蘆洲區三民路251號","121.468288333333","25.0893733333333","6501400","蘆洲區"
"247010","341-TH","2018/03/13 21:09:15","新北市蘆洲區鷺江街38號","121.47727","25.0830233333333","6501400","蘆洲區"
"247012","339-TH","2018/03/13 21:09:32","新北市蘆洲區民族路3號","121.47555","25.08383","6501400","蘆洲區"
"247004","337-TH","2018/03/13 21:09:18","新北市蘆洲區永安南路二段278號","121.458043333333","25.080965","6501400","蘆洲區"
"247006","336-TH","2018/03/13 21:09:21","新北市蘆洲區永安南路二段16巷18號","121.467983333333","25.0777883333333","6501400","蘆洲區"
"247018","057-VK","2018/03/13 21:09:27","新北市蘆洲區民族路408巷3號","121.474756666667","25.0918283333333","6501400","蘆洲區"
"247008","056-VK","2018/03/13 21:09:23","新北市蘆洲區民生街119號","121.472973333333","25.0789216666667","6501400","蘆洲區"
"247020","053-VK","2018/03/13 21:09:24","新北市蘆洲區民族路436巷5號","121.472963333333","25.09281","6501400","蘆洲區"
"247016","007-UY","2018/03/13 21:09:29","新北市蘆洲區光華路186巷38號","121.464955","25.0833883333333","6501400","蘆洲區"
"247002","002-UY","2018/03/13 21:09:18","新北市蘆洲區永平街12號","121.45929","25.09051","6501400","蘆洲區"
"251004","009-UM","2018/03/13 21:09:29","新北市淡水區民生路154號","121.464945","25.1386983333333","6501000","淡水區"
"251002","012-UM","2018/03/13 21:09:14","新北市淡水區英專路151號","121.44833","25.1748433333333","6501000","淡水區"
"251013","179-VK","2018/03/13 21:09:24","新北市淡水區行忠路328號","121.460346666667","25.199675","6501000","淡水區"
"251014","180-VK","2018/03/13 21:09:17","新北市淡水區六塊厝1-3號","121.45117","25.24259","6501000","淡水區"
"251015","182-VK","2018/03/13 21:09:32","新北市淡水區淡金路四段542巷50號","121.454838333333","25.22689","6501000","淡水區"
"251010","413-VK","2018/03/13 21:09:21","新北市淡水區中正路一段63巷7弄2號","121.423098333333","25.1772966666667","6501000","淡水區"
"251012","441-VK","2018/03/13 21:09:13","新北市淡水區淡金路五段172號","121.45703","25.240025","6501000","淡水區"
"251016","442-VK","2018/03/13 21:09:20","新北市淡水區前洲子3-1號","121.443696666667","25.216255","6501000","淡水區"
"251005","443-VK","2018/03/13 21:09:29","新北市淡水區博愛街47-1號","121.446755","25.1689933333333","6501000","淡水區"
"251009","575-R6","2018/03/13 21:09:26","新北市淡水區民權路187巷74弄9號","121.462098333333","25.1344083333333","6501000","淡水區"
"251011","650-BX","2018/03/13 21:09:32","新北市淡水區新民街180巷33號","121.438071666667","25.1796366666667","6501000","淡水區"
"251003","673-BX","2018/03/13 21:09:26","新北市淡水區新春街125巷8號","121.441656666667","25.1820916666667","6501000","淡水區"
"220101","245-BX","2018/03/13 21:08:57","新北市林口區太平里180號","121.368111666667","25.134885","6500100","板橋區"
