"lineid","car","time","location","longitude","latitude","cityid","cityname"
"248005","653-BX","2018/06/01 07:59:37","新北市五股區明德路8號","121.433371666667","25.071705","6501500","五股區"
"244004","248-BX","2018/06/01 07:59:19","新北市林口區下福里147-20號","121.300063333333","25.11651","6501700","林口區"
"222005","289-BY","2018/06/01 07:59:37","新北市深坑區文化街45號","121.616941666667","25.0017216666667","6501800","深坑區"
"231009","192-VK","2018/06/01 07:59:34","新北市新店區安一路一段1-1號","121.51913","24.961275","6500600","新店區"
"235001","611-BX","2018/06/01 07:59:22","新北市中和區圓通路367巷6號","121.491486666667","24.9891833333333","6500300","中和區"
"226005","5620-A6","2018/06/01 07:59:31","新北市平溪區石底里公園街18-3號","121.733526666667","25.0256133333333","6502400","平溪區"
"226001","7418-A5","2018/06/01 07:59:23","新北市平溪區靜安路三段355號","121.779875","25.0450033333333","6502400","平溪區"
"226006","AGD-0702","2018/06/01 07:59:21","新北市平溪區十分里十分街54號","121.775261666667","25.0414283333333","6502400","平溪區"
"223006","022-BY","2018/06/01 07:59:34","新北市坪林區鶯子瀨12-1號","121.712733333333","24.9147533333333","6501900","石碇區"
"223002","KEA-2673","2018/06/01 07:54:06","新北市石碇區大格門3號","121.668131666667","24.9556","6501900","石碇區"
"223003","205-TH","2018/06/01 07:58:44","新北市石碇區崩山36-1號","121.671278333333","24.9581016666667","6501900","石碇區"
"223008","406-TH","2018/06/01 07:59:34","新北市石碇區靜安路一段267號","121.693985","25.006995","6501900","石碇區"
"223001","592-UM","2018/06/01 07:59:35","新北市石碇區樟空子1號","121.666741666667","24.959935","6501900","石碇區"
"223004","660-BX","2018/06/01 07:59:21","新北市石碇區外按8號","121.651111666667","24.99643","6501900","石碇區"
"223007","661-BX","2018/06/01 07:59:27","新北市石碇區靜安路一段269號","121.694096666667","25.0069816666667","6501900","石碇區"
"223005","677-TV","2018/06/01 07:59:30","新北市石碇區外按8號","121.651123333333","24.9964216666667","6501900","石碇區"
"227005","282-VK","2018/06/01 07:59:35","新北市雙溪區平林里梅竹蹊16號","121.86201","25.035985","6502500","雙溪區"
"252003","249-BX","2018/06/01 07:59:28","新北市三芝區中山路二段50號","121.503151666667","25.25435","6502100","三芝區"
"237001","159-UY","2018/06/01 07:59:29","新北市三峽區三樹路128-1號","121.378171666667","24.9395383333333","6500900","三峽區"
"236010","165-UM","2018/06/01 07:59:23","新北市土城區永豐路202號","121.466831666667","24.9832883333333","6501300","土城區"
"236004","339-SR","2018/06/01 07:59:34","新北市土城區龍泉路89-1號","121.446341666667","24.9422333333333","6501300","土城區"
