"lineid","car","time","location","longitude","latitude","cityid","cityname"
"248005","653-BX","2018/06/01 08:09:17","新北市五股區明德路12巷1號","121.433345","25.07175","6501500","五股區"
"244004","248-BX","2018/06/01 08:09:19","新北市林口區下福里14鄰90號","121.307066666667","25.1214083333333","6501700","林口區"
"222005","289-BY","2018/06/01 08:09:37","新北市深坑區北深路二段121號","121.616643333333","25.0030966666667","6501800","深坑區"
"231007","189-VK","2018/06/01 08:09:18","新北市新店區華城路11號","121.529665","24.9601983333333","6500600","新店區"
"231009","192-VK","2018/06/01 08:09:34","新北市新店區光明街185號","121.539741666667","24.9632733333333","6500600","新店區"
"235001","611-BX","2018/06/01 08:09:22","新北市中和區圓通路367巷33弄111號","121.495946666667","24.9840166666667","6500300","中和區"
"226005","5620-A6","2018/06/01 08:09:31","新北市平溪區靜安路二段561號","121.750705","25.0248283333333","6502400","平溪區"
"226001","7418-A5","2018/06/01 08:09:23","新北市平溪區望古里石灼坑6-2號","121.768061666667","25.0357466666667","6502400","平溪區"
"226006","AGD-0702","2018/06/01 08:09:21","新北市平溪區十分里十分街66巷20號","121.774846666667","25.0428166666667","6502400","平溪區"
"223006","022-BY","2018/06/01 08:08:53","新北市坪林區上坑子口21-1號","121.701978333333","24.949485","6501900","石碇區"
"223002","KEA-2673","2018/06/01 08:09:31","新北市石碇區崩山34號","121.674875","24.9595433333333","6501900","石碇區"
"223003","205-TH","2018/06/01 08:09:24","新北市石碇區小粗坑(格頭里)1號","121.655311666667","24.9543683333333","6501900","石碇區"
"223008","406-TH","2018/06/01 08:09:34","新北市石碇區石碇子埔31號","121.672305","25.00684","6501900","石碇區"
"223001","592-UM","2018/06/01 08:07:35","新北市石碇區月扇湖1號","121.657616666667","24.9552533333333","6501900","石碇區"
"223004","660-BX","2018/06/01 08:09:21","新北市石碇區外按16-1號","121.650805","24.9974733333333","6501900","石碇區"
"223007","661-BX","2018/06/01 08:09:27","新北市石碇區石碇子埔31號","121.672333333333","25.0069166666667","6501900","石碇區"
"223005","677-TV","2018/06/01 08:09:30","新北市石碇區外按16-1號","121.650713333333","24.9974733333333","6501900","石碇區"
"227005","282-VK","2018/06/01 08:09:35","新北市雙溪區上林里內平林120-10號","121.823851666667","25.025985","6502500","雙溪區"
"252003","249-BX","2018/06/01 08:09:28","新北市三芝區中山路二段50號","121.503128333333","25.2542783333333","6502100","三芝區"
"237001","159-UY","2018/06/01 08:09:29","新北市三峽區大學路6號","121.37692","24.9414783333333","6500900","三峽區"
"236010","165-UM","2018/06/01 08:09:23","新北市土城區青雲路322巷18號","121.457705","24.9764","6501300","土城區"
"236004","339-SR","2018/06/01 08:09:33","新北市土城區龍泉路79號","121.430833333333","24.9427416666667","6501300","土城區"
"236006","498-BY","2018/06/01 08:09:39","新北市土城區永平街51號","121.427775","24.9590616666667","6501300","土城區"
