"lineid","car","time","location","longitude","latitude","cityid","cityname"
"248005","653-BX","2018/06/01 09:39:37","新北市五股區成泰路一段7巷50號","121.432293333333","25.0672316666667","6501500","五股區"
"222005","289-BY","2018/06/01 09:39:33","新北市深坑區昇高坑路32號","121.627685","24.9998966666667","6501800","深坑區"
"231007","189-VK","2018/06/01 09:39:38","新北市新店區新潭路三段215巷25號","121.508113333333","24.904075","6500600","新店區"
"231009","192-VK","2018/06/01 09:31:14","新北市新店區平廣路一段256號","121.507751666667","24.88822","6500600","新店區"
"223003","205-TH","2018/06/01 09:39:24","新北市石碇區北宜路四段26號","121.623248333333","24.9578466666667","6501900","石碇區"
"223005","677-TV","2018/06/01 09:39:32","新北市石碇區靜安路一段60號","121.645201666667","25.0123633333333","6501900","石碇區"
"227005","282-VK","2018/06/01 09:30:55","新北市雙溪區泰平里溪尾寮7號","121.821213333333","24.9596633333333","6502500","雙溪區"
"236004","339-SR","2018/06/01 09:39:33","新北市土城區學府路一段24巷1號","121.458531666667","24.9884716666667","6501300","土城區"
"236006","498-BY","2018/06/01 09:39:19","新北市土城區忠義路45巷2號","121.441026666667","24.9695133333333","6501300","土城區"
