"lineid","car","time","location","longitude","latitude","cityid","cityname"
"234044","148-BY","2018/06/01 13:09:35","新北市永和區永元路18巷40弄2號","121.524176666667","25.0003166666667","6500400","永和區"
"234005","207-UY","2018/06/01 13:09:44","新北市永和區中山路一段195號","121.50912","25.0088033333333","6500400","永和區"
"234078","298-R6","2018/06/01 13:09:41","新北市永和區永貞路39巷4弄2號","121.521423333333","25.0065016666667","6500400","永和區"
"234036","336-UY","2018/06/01 13:09:32","新北市永和區民樂街69巷3號","121.527466666667","24.9978016666667","6500400","永和區"
"234062","337-UY","2018/06/01 13:09:25","新北市永和區秀朗路二段59號","121.52194","25.0021566666667","6500400","永和區"
"234084","338-UY","2018/06/01 13:09:22","新北市永和區永利路4巷27號","121.517676666667","25.0048683333333","6500400","永和區"
"234068","552-UM","2018/06/01 13:09:37","新北市永和區豫溪街137巷1弄22號","121.518475","25.010435","6500400","永和區"
"234015","745-BX","2018/06/01 13:09:39","新北市永和區文化路90巷34號","121.51353","25.0163616666667","6500400","永和區"
"234028","746-BX","2018/06/01 13:09:29","新北市永和區民生路21號","121.522846666667","24.9988816666667","6500400","永和區"
"234052","KEA-2590","2018/06/01 13:09:34","新北市永和區中興街145號","121.519041666667","25.012355","6500400","永和區"
"234012","KEA-2591","2018/06/01 13:09:36","新北市永和區保福路二段55號","121.510901666667","25.0121716666667","6500400","永和區"
"234060","AAD-866","2018/06/01 13:09:37","新北市永和區秀朗路一段81巷1號","121.515145","25.00655","6500400","永和區"
"234040","862-TW","2018/06/01 13:09:36","新北市永和區永貞路330號","121.51131","25.0055","6500400","永和區"
"234048","863-TW","2018/06/01 13:09:39","新北市永和區文化路135巷26弄2號","121.510451666667","25.0143983333333","6500400","永和區"
"234025","9371-KE","2018/06/01 13:09:31","新北市永和區自強街8巷5弄1號","121.514778333333","25.00772","6500400","永和區"
"234010","9373-KE","2018/06/01 13:09:39","新北市永和區文化路113巷27號","121.51309","25.0138166666667","6500400","永和區"
"248019","225-UY","2018/06/01 13:09:38","新北市五股區成泰路三段590-3號","121.452836666667","25.1056316666667","6501500","五股區"
"234022","9380-KE","2018/06/01 13:09:36","新北市永和區竹林路124巷40號","121.517783333333","25.01115","6500400","永和區"
"234076","969-R7","2018/06/01 13:09:29","新北市永和區民光街8號","121.515425","24.9961866666667","6500400","永和區"
"234072","AAC-211","2018/06/01 13:09:45","新北市永和區竹林路199-1號","121.520583333333","25.0091233333333","6500400","永和區"
"234066","AAC-212","2018/06/01 13:09:41","新北市永和區永和路一段93號","121.513348333333","25.0076566666667","6500400","永和區"
"234001","AAC-295","2018/06/01 13:09:39","新北市永和區永和路二段4號","121.514568333333","25.0099983333333","6500400","永和區"
"244004","248-BX","2018/06/01 13:09:36","新北市林口區頭湖74-10號","121.366033333333","25.088115","6501700","林口區"
"231002","002-UM","2018/06/01 13:09:34","新北市新店區安華路28-1號","121.51959","24.96096","6500600","新店區"
"231027","0291-UT","2018/06/01 13:09:37","新北市新店區安華路28-1號","121.519216666667","24.9606716666667","6500600","新店區"
"231028","046-UY","2018/06/01 13:09:38","新北市新店區安華路30巷1號","121.519481666667","24.9596433333333","6500600","新店區"
"231001","047-UY","2018/06/01 13:09:37","新北市新店區安華路28-1號","121.51915","24.9608666666667","6500600","新店區"
"231005","106-UY","2018/06/01 13:09:23","新北市新店區安華路28-1號","121.519593333333","24.960925","6500600","新店區"
"231022","108-UY","2018/06/01 13:09:43","新北市新店區安一路一段1-1號","121.51943","24.9612733333333","6500600","新店區"
"231012","187-VK","2018/06/01 13:09:28","新北市新店區安一路一段1-1號","121.519578333333","24.961165","6500600","新店區"
"231010","188-VK","2018/06/01 13:09:41","新北市新店區安一路一段1-1號","121.51941","24.9614216666667","6500600","新店區"
"231023","KEA-2219","2018/06/01 13:09:42","新北市新店區安一路一段1-1號","121.519856666667","24.9611433333333","6500600","新店區"
"231026","256-BX","2018/06/01 13:09:31","新北市新店區安一路一段1-1號","121.51977","24.9611116666667","6500600","新店區"
"231003","268-BY","2018/06/01 13:09:25","新北市新店區安華路28-1號","121.519426666667","24.96056","6500600","新店區"
"231018","278-BY","2018/06/01 13:07:53","新北市新店區安康路一段319號","121.52218","24.9637166666667","6500600","新店區"
"231016","AAD-862","2018/06/01 13:09:34","新北市新店區安一路一段1-1號","121.519778333333","24.9612416666667","6500600","新店區"
"231037","4716-K9","2018/06/01 13:09:19","新北市新店區安一路一段1-1號","121.51931","24.9612416666667","6500600","新店區"
"231025","4715-K9","2018/06/01 13:09:30","新北市新店區安華路28-1號","121.519468333333","24.960605","6500600","新店區"
"231036","512-UM","2018/06/01 13:09:25","新北市新店區安一路一段1-1號","121.51953","24.9613483333333","6500600","新店區"
"231013","513-UM","2018/06/01 13:09:35","新北市新店區安一路一段1-1號","121.519586666667","24.9611283333333","6500600","新店區"
"231006","617-UM","2018/06/01 13:09:27","新北市新店區安華路28-1號","121.519533333333","24.960955","6500600","新店區"
"231030","619-UM","2018/06/01 13:09:38","新北市新店區安華路28-1號","121.519565","24.9609666666667","6500600","新店區"
"231034","641-BX","2018/06/01 13:09:25","新北市新店區安華路28-1號","121.5196","24.9606266666667","6500600","新店區"
"231035","719-UY","2018/06/01 13:09:31","新北市新店區安華路1-1號","121.519541666667","24.9605033333333","6500600","新店區"
"231032","720-UM","2018/06/01 13:09:42","新北市新店區安一路一段1-1號","121.519698333333","24.961655","6500600","新店區"
"231029","897-TW","2018/06/01 13:09:24","新北市新店區安華路28-1號","121.51964","24.9608983333333","6500600","新店區"
"231004","899-TW","2018/06/01 13:09:39","新北市新店區安華路28-1號","121.519525","24.9609216666667","6500600","新店區"
"231024","AKT-0513","2018/06/01 13:09:26","新北市新店區安康路一段92-1號","121.527911666667","24.962025","6500600","新店區"
"235028","005-UY","2018/06/01 13:09:38","新北市中和區中正路277-6號","121.495111666667","24.9937633333333","6500300","中和區"
"235027","006-UY","2018/06/01 13:09:43","新北市中和區員山路36巷16-3號","121.485018333333","24.9913083333333","6500300","中和區"
"235003","097-UM","2018/06/01 13:09:26","新北市中和區和城路一段271巷1號","121.48568","24.9918816666667","6500300","中和區"
"235029","098-UM","2018/06/01 13:09:37","新北市中和區中山路二段64巷14弄2號","121.503473333333","25.0054883333333","6500300","中和區"
"235004","150-BY","2018/06/01 13:09:33","新北市中和區中正路637巷60弄61號","121.485486666667","24.9932966666667","6500300","中和區"
"235022","151-BY","2018/06/01 13:09:44","新北市中和區圓通路367巷33弄6-1號","121.49289","24.9857383333333","6500300","中和區"
"235002","185-VK","2018/06/01 13:09:33","新北市中和區大仁街120號","121.520811666667","24.9920033333333","6500300","中和區"
"235031","255-BX","2018/06/01 13:09:37","新北市中和區民樂路67號","121.484018333333","25.0013766666667","6500300","中和區"
"235036","301-VK","2018/06/01 13:09:32","新北市中和區員山路36巷13號","121.484006666667","24.991","6500300","中和區"
"235007","352-BY","2018/06/01 13:09:45","新北市中和區員山路36巷16-2號","121.485126666667","24.9917133333333","6500300","中和區"
"235018","269-TV","2018/06/01 13:09:28","新北市中和區莒光路213號","121.469028333333","24.9946","6500300","中和區"
"235006","551-UM","2018/06/01 13:09:31","新北市中和區中正路169號","121.498181666667","24.9937083333333","6500300","中和區"
"235034","558-UM","2018/06/01 13:09:36","新北市中和區中正路395號","121.48955","24.9935716666667","6500300","中和區"
"235009","565-BX","2018/06/01 13:09:40","新北市中和區員山路36巷13號","121.484318333333","24.991235","6500300","中和區"
"235001","611-BX","2018/06/01 13:09:38","新北市中和區中山路三段120-17號","121.474361666667","25.00851","6500300","中和區"
"235035","783-BX","2018/06/01 13:09:26","新北市中和區板南路520巷15號","121.483778333333","25.0088766666667","6500300","中和區"
"235026","800-TS","2018/06/01 13:09:40","新北市中和區中山路二段359號","121.48867","25.0042216666667","6500300","中和區"
"235021","801-TS","2018/06/01 13:09:32","新北市中和區員山路36巷13號","121.484055","24.990915","6500300","中和區"
"235005","802-TS","2018/06/01 13:09:32","新北市中和區中正路637巷60弄61號","121.485415","24.9931666666667","6500300","中和區"
"235016","805-TS","2018/06/01 13:09:35","新北市中和區中正路271號","121.495848333333","24.99363","6500300","中和區"
"235015","157-BY","2018/06/01 13:09:26","新北市中和區捷運路8-3號","121.509685","24.989705","6500300","中和區"
"235001","AAC-213","2018/06/01 13:09:30","新北市中和區景平路149號","121.513871666667","24.9921216666667","6500300","中和區"
"235023","AAC-215","2018/06/01 13:09:30","新北市中和區員山路36巷16-3號","121.484991666667","24.9912866666667","6500300","中和區"
"228002","663-BX","2018/06/01 13:09:26","基隆市七堵區實踐路259-1號","121.691328333333","25.0877733333333","6502600","貢寮區"
"207002","749-BX","2018/06/01 13:09:44","新北市萬里區雙興里大坪路11號","121.6384","25.1673416666667","6502800","萬里區"
"207001","662-BX","2018/06/01 13:09:38","新北市萬里區萬里里瑪鋉路85號","121.6886","25.1768816666667","6502800","萬里區"
"236006","498-BY","2018/06/01 13:09:26","新北市土城區亞洲路21號","121.434055","24.972005","6501300","土城區"
"221032","280-BY","2018/06/01 13:09:25","新北市汐止區大同路二段196號","121.653095","25.06419","6501100","汐止區"
"235032","KEA-2873","2018/06/01 13:09:22","新北市中和區員山路36巷16-3號","121.485151666667","24.99137","6500300","中和區"
"235025","KEA-2875","2018/06/01 13:09:18","新北市中和區連城路523巷13弄4號","121.481741666667","24.993645","6500300","中和區"
