"lineid","car","time","location","longitude","latitude","cityid","cityname"
"234044","148-BY","2018/06/01 13:29:33","新北市永和區成功路二段6號","121.52658","25.001025","6500400","永和區"
"234005","207-UY","2018/06/01 13:29:24","新北市永和區中山路一段186號","121.509131666667","25.0089483333333","6500400","永和區"
"234078","298-R6","2018/06/01 13:29:33","新北市永和區環河東路三段46號","121.526685","25.0064333333333","6500400","永和區"
"234036","336-UY","2018/06/01 13:29:39","新北市永和區民樂街31巷2號","121.527615","25.0014333333333","6500400","永和區"
"234062","337-UY","2018/06/01 13:29:42","新北市永和區中正路368巷1弄75號","121.520398333333","25.00082","6500400","永和區"
"234084","338-UY","2018/06/01 13:29:41","新北市永和區永亨路165巷10號","121.526251666667","25.0042266666667","6500400","永和區"
"234068","552-UM","2018/06/01 13:29:41","新北市永和區警光街2號","121.520181666667","25.009635","6500400","永和區"
"234015","745-BX","2018/06/01 13:29:41","新北市永和區永和路二段425巷12號","121.515015","25.0178116666667","6500400","永和區"
"234028","746-BX","2018/06/01 13:29:42","新北市永和區民生路61號","121.522648333333","24.9974616666667","6500400","永和區"
"234052","KEA-2590","2018/06/01 13:29:34","新北市永和區復興街21號","121.516143333333","25.0130366666667","6500400","永和區"
"234012","KEA-2591","2018/06/01 13:29:36","新北市永和區中山路一段184巷9弄1號","121.508518333333","25.009295","6500400","永和區"
"234060","AAD-866","2018/06/01 13:29:37","新北市永和區永貞路153號","121.51565","25.004025","6500400","永和區"
"234040","862-TW","2018/06/01 13:29:28","新北市永和區中和路519巷8號","121.510856666667","25.0030883333333","6500400","永和區"
"234048","863-TW","2018/06/01 13:29:39","新北市永和區信義路100號","121.512433333333","25.0139033333333","6500400","永和區"
"234025","9371-KE","2018/06/01 13:29:40","新北市永和區永和路一段157-1號","121.514321666667","25.009635","6500400","永和區"
"234010","9373-KE","2018/06/01 13:29:39","新北市永和區中山路一段72號","121.512485","25.0108066666667","6500400","永和區"
"248019","225-UY","2018/06/01 13:29:38","新北市五股區孝義路47巷26-1號","121.447245","25.110705","6501500","五股區"
"234022","9380-KE","2018/06/01 13:29:38","新北市永和區竹林路91巷70號","121.521811666667","25.0134966666667","6500400","永和區"
"234076","969-R7","2018/06/01 13:29:29","新北市永和區民治街87號","121.517405","24.9982783333333","6500400","永和區"
"234072","AAC-211","2018/06/01 13:29:35","新北市永和區永和路二段100號","121.515031666667","25.01186","6500400","永和區"
"234066","AAC-212","2018/06/01 13:29:35","新北市永和區保平路113號","121.510963333333","25.0066833333333","6500400","永和區"
"234001","AAC-295","2018/06/01 13:29:39","新北市永和區永和路一段93號","121.513313333333","25.00755","6500400","永和區"
"244004","248-BX","2018/06/01 13:29:36","新北市林口區頂福里85-1號","121.351163333333","25.0802","6501700","林口區"
"231002","002-UM","2018/06/01 13:29:34","新北市新店區環河路62號","121.537138333333","24.96269","6500600","新店區"
"231027","0291-UT","2018/06/01 13:29:37","新北市新店區光明街95號","121.538793333333","24.9611466666667","6500600","新店區"
"231028","046-UY","2018/06/01 13:29:38","新北市新店區安康路二段362號","121.501713333333","24.9575233333333","6500600","新店區"
"231001","047-UY","2018/06/01 13:29:37","新北市新店區中央路208號","121.530311666667","24.97389","6500600","新店區"
"231005","106-UY","2018/06/01 13:29:23","新北市新店區北新路二段2號","121.542563333333","24.97073","6500600","新店區"
"231022","108-UY","2018/06/01 13:29:23","新北市新店區永興路73號","121.544546666667","24.9358666666667","6500600","新店區"
"231012","187-VK","2018/06/01 13:29:28","新北市新店區北新路一段98號","121.542073333333","24.9692183333333","6500600","新店區"
"231010","188-VK","2018/06/01 13:29:41","新北市新店區中央路27號","121.53312","24.9779433333333","6500600","新店區"
"231023","KEA-2219","2018/06/01 13:29:42","新北市新店區新店路13號","121.540235","24.9528333333333","6500600","新店區"
"231026","256-BX","2018/06/01 13:29:31","新北市新店區光明街1-1號","121.537996666667","24.9590333333333","6500600","新店區"
"231003","268-BY","2018/06/01 13:29:25","新北市新店區北新路一段347號","121.541958333333","24.9690483333333","6500600","新店區"
"231018","278-BY","2018/06/01 13:29:30","新北市新店區中央路57號","121.532751666667","24.9773733333333","6500600","新店區"
"231016","AAD-862","2018/06/01 13:29:34","新北市新店區北宜路二段30巷5弄1號","121.548258333333","24.950765","6500600","新店區"
"231038","3712-VJ","2018/06/01 13:29:27","新北市新店區安華路28-1號","121.519343333333","24.9607083333333","6500600","新店區"
"231037","4716-K9","2018/06/01 13:29:39","新北市新店區安康路二段382號","121.500396666667","24.9572283333333","6500600","新店區"
"231025","4715-K9","2018/06/01 13:29:30","新北市新店區中央六街52號","121.528093333333","24.975685","6500600","新店區"
"231036","512-UM","2018/06/01 13:29:45","新北市新店區安祥路156巷39號","121.474845","24.9546533333333","6500600","新店區"
"231013","513-UM","2018/06/01 13:29:35","新北市新店區中央路177-3號","121.535453333333","24.9693233333333","6500600","新店區"
"231006","617-UM","2018/06/01 13:29:27","新北市新店區秀山路20號","121.532413333333","24.9604183333333","6500600","新店區"
"231030","619-UM","2018/06/01 13:29:37","新北市新店區安華路30巷1號","121.519575","24.9597816666667","6500600","新店區"
"231034","641-BX","2018/06/01 13:29:25","新北市新店區安華路28-1號","121.519515","24.9605533333333","6500600","新店區"
"231035","719-UY","2018/06/01 13:29:31","新北市新店區安華路28-1號","121.51969","24.96052","6500600","新店區"
"231032","720-UM","2018/06/01 13:29:42","新北市新店區安豐路57號","121.499061666667","24.9542783333333","6500600","新店區"
"231029","897-TW","2018/06/01 13:29:24","新北市新店區安華路16號","121.516466666667","24.9579833333333","6500600","新店區"
"231004","899-TW","2018/06/01 13:29:39","新北市新店區安康路一段124號","121.526903333333","24.96267","6500600","新店區"
"231024","AKT-0513","2018/06/01 13:29:26","新北市新店區三民路14號","121.53949","24.9721066666667","6500600","新店區"
"235028","005-UY","2018/06/01 13:29:38","新北市中和區圓通路141巷17號","121.498993333333","24.99524","6500300","中和區"
"235027","006-UY","2018/06/01 13:29:23","新北市中和區連城路347巷2號","121.488056666667","24.9959166666667","6500300","中和區"
"235020","096-UM","2018/06/01 13:29:40","新北市中和區新民街5號","121.482371666667","25.0056966666667","6500300","中和區"
"235003","097-UM","2018/06/01 13:29:42","新北市中和區大勇街25巷2號","121.51721","24.9933516666667","6500300","中和區"
"235029","098-UM","2018/06/01 13:29:37","新北市中和區中山路二段64巷22號","121.503013333333","25.0059416666667","6500300","中和區"
"235004","150-BY","2018/06/01 13:29:33","新北市中和區保健路50巷66號","121.509393333333","24.9951466666667","6500300","中和區"
"235022","151-BY","2018/06/01 13:29:44","新北市中和區圓通路369巷133號","121.490518333333","24.9822833333333","6500300","中和區"
"235019","183-VK","2018/06/01 13:29:36","新北市中和區莒光路207號","121.470108333333","24.9954616666667","6500300","中和區"
"235002","185-VK","2018/06/01 13:29:33","新北市中和區立人街14巷33號","121.51948","24.9954033333333","6500300","中和區"
"235031","255-BX","2018/06/01 13:29:37","新北市中和區新生街220巷4號","121.482903333333","24.9986266666667","6500300","中和區"
"235036","301-VK","2018/06/01 13:29:32","新北市中和區連城路263號","121.491796666667","24.9964916666667","6500300","中和區"
"235007","352-BY","2018/06/01 13:29:45","新北市中和區景平路299號","121.506766666667","24.9931733333333","6500300","中和區"
"235018","269-TV","2018/06/01 13:29:28","新北市中和區民享街82號","121.474261666667","25.0013166666667","6500300","中和區"
"235014","4979-A6","2018/06/01 13:29:33","新北市中和區景新街362巷3號","121.512026666667","24.99014","6500300","中和區"
"235033","4980-A6","2018/06/01 13:29:28","新北市中和區連城路127巷33號","121.497321666667","24.997305","6500300","中和區"
"235006","551-UM","2018/06/01 13:29:31","新北市中和區自立路56巷24號","121.522383333333","24.991615","6500300","中和區"
"235034","558-UM","2018/06/01 13:29:36","新北市中和區南華路39-2號","121.503358333333","24.9962866666667","6500300","中和區"
"235009","565-BX","2018/06/01 13:29:45","新北市中和區南山路236巷22弄14號","121.505261666667","24.9892316666667","6500300","中和區"
"235024","647-TV","2018/06/01 13:29:36","新北市中和區連城路518巷1號","121.476788333333","24.99181","6500300","中和區"
"235035","783-BX","2018/06/01 13:29:26","新北市中和區中板路60號","121.482225","25.0122666666667","6500300","中和區"
"235026","800-TS","2018/06/01 13:29:10","新北市中和區景平路716號","121.496803333333","25.00287","6500300","中和區"
"235021","801-TS","2018/06/01 13:29:32","新北市中和區民享街97巷19號","121.475331666667","24.9995616666667","6500300","中和區"
"235005","802-TS","2018/06/01 13:29:32","新北市中和區中和路324巷6弄2號","121.509706666667","25.0004533333333","6500300","中和區"
"235016","805-TS","2018/06/01 13:29:35","新北市中和區興南路二段96號","121.505123333333","24.984125","6500300","中和區"
"235017","900-TW","2018/06/01 13:29:35","新北市土城區金城路三段257號","121.471898333333","24.98998","6500300","中和區"
"235030","911-UM","2018/06/01 13:29:29","新北市中和區中山路二段120號","121.502695","25.0037366666667","6500300","中和區"
"235015","157-BY","2018/06/01 13:29:26","新北市中和區興南路二段142巷25弄34號","121.502583333333","24.9842933333333","6500300","中和區"
"235001","AAC-213","2018/06/01 13:29:29","新北市中和區景德街88號","121.516141666667","24.9915333333333","6500300","中和區"
"235023","AAC-215","2018/06/01 13:29:30","新北市中和區員山路36巷16-3號","121.484905","24.9913916666667","6500300","中和區"
"220013","072-UY","2018/06/01 13:29:38","新北市板橋區南雅南路二段78號","121.45372","25.001685","6500100","板橋區"
"220017","AAD-861","2018/06/01 13:29:37","新北市板橋區華東街1-10號","121.448688333333","24.995005","6500100","板橋區"
"247007","056-VK","2018/06/01 13:29:39","新北市五股區中興路三段198號","121.44115","25.0821216666667","6501400","蘆洲區"
"247019","001-UY","2018/06/01 13:29:43","新北市五股區中興路三段2巷10號","121.449126666667","25.0808333333333","6501400","蘆洲區"
"235011","251-BX","2018/06/01 13:29:37","新北市中和區南山路300號","121.507871666667","24.9871566666667","6500300","中和區"
"228002","663-BX","2018/06/01 13:29:26","基隆市七堵區俊賢路5號","121.707285","25.0946516666667","6502600","貢寮區"
"207002","749-BX","2018/06/01 13:29:28","新北市萬里區崁腳里崁腳路130號","121.646321666667","25.1571366666667","6502800","萬里區"
"207001","662-BX","2018/06/01 13:29:38","新北市萬里區野柳里八斗60號","121.66289","25.206145","6502800","萬里區"
"236006","498-BY","2018/06/01 13:29:26","新北市土城區慶祥街96巷1號","121.435585","24.9727533333333","6501300","土城區"
"221032","280-BY","2018/06/01 13:29:25","新北市汐止區水源路一段56號","121.6574","25.0655533333333","6501100","汐止區"
"220027","145-BY","2018/06/01 13:29:41","新北市板橋區南雅南路二段144巷60號","121.450068333333","24.9972466666667","6500100","板橋區"
"220028","200-UY","2018/06/01 13:29:32","新北市板橋區華東街1-9號","121.448151666667","24.9948566666667","6500100","板橋區"
"220030","610-BX","2018/06/01 13:29:34","新北市板橋區華東街1-9號","121.448238333333","24.99495","6500100","板橋區"
"220014","255-TC","2018/06/01 13:29:30","新北市板橋區國泰街39巷4弄31號","121.467756666667","25.005875","6500100","板橋區"
"220004","276-BY","2018/06/01 13:29:25","新北市板橋區華東街1-9號","121.448115","24.994945","6500100","板橋區"
"220043","285-UM","2018/06/01 13:29:34","新北市板橋區民生路二段161巷1號","121.47014","25.019885","6500100","板橋區"
"220031","286-VK","2018/06/01 13:29:25","新北市板橋區華東街1-10號","121.448351666667","24.99505","6500100","板橋區"
"220023","303-R5","2018/06/01 13:29:41","新北市板橋區華東街1-9號","121.448221666667","24.9949666666667","6500100","板橋區"
"220010","305-R5","2018/06/01 13:29:36","新北市板橋區民生路二段120號","121.470545","25.019875","6500100","板橋區"
"220012","486-VK","2018/06/01 13:29:40","新北市板橋區館前西路49號","121.45782","25.0066933333333","6500100","板橋區"
"220104","560-BX","2018/06/01 13:29:39","新北市板橋區南雅東路1號","121.455566666667","25.0055916666667","6500100","板橋區"
"220005","686-BX","2018/06/01 13:29:34","新北市板橋區華東街1-9號","121.448216666667","24.9949333333333","6500100","板橋區"
"220025","687-BX","2018/06/01 13:29:38","新北市板橋區大觀路二段265巷7-7號","121.444061666667","24.9946183333333","6500100","板橋區"
"220002","741-BX","2018/06/01 13:29:32","新北市板橋區華東街1-9號","121.448125","24.994915","6500100","板橋區"
"220022","895-R6","2018/06/01 13:29:25","新北市板橋區華東街1-9號","121.448181666667","24.994995","6500100","板橋區"
"220021","985-R7","2018/06/01 13:29:22","新北市板橋區華東街1-10號","121.448346666667","24.9950833333333","6500100","板橋區"
"220018","AAC-253","2018/06/01 13:29:32","新北市板橋區華東街1-10號","121.44833","24.9949183333333","6500100","板橋區"
"235032","KEA-2873","2018/06/01 13:29:22","新北市中和區圓通路283號","121.495365","24.9929233333333","6500300","中和區"
"235025","KEA-2875","2018/06/01 13:29:18","新北市中和區民享街97巷11號","121.475221666667","24.9995333333333","6500300","中和區"
