"lineid","car","time","location","longitude","latitude","cityid","cityname"
"234044","148-BY","2018/06/01 14:09:33","新北市永和區得和路275號","121.52217","24.99968","6500400","永和區"
"234005","207-UY","2018/06/01 14:09:44","新北市永和區保平路222號","121.509618333333","25.00572","6500400","永和區"
"234078","298-R6","2018/06/01 14:09:33","新北市永和區永亨路98號","121.523085","25.0048166666667","6500400","永和區"
"234036","336-UY","2018/06/01 14:09:32","新北市永和區成功路一段47巷19號","121.52773","25.0038433333333","6500400","永和區"
"234062","337-UY","2018/06/01 14:09:25","新北市永和區永利路152號","121.522508333333","25.0028166666667","6500400","永和區"
"234084","338-UY","2018/06/01 14:09:41","新北市永和區中正路553號","121.51682","25.00822","6500400","永和區"
"234068","552-UM","2018/06/01 14:09:36","新北市永和區福和路231號","121.518585","25.0075416666667","6500400","永和區"
"234015","745-BX","2018/06/01 14:09:39","新北市永和區仁愛路93號","121.512948333333","25.0131483333333","6500400","永和區"
"234028","746-BX","2018/06/01 14:09:29","新北市永和區民生路22巷33號","121.520986666667","24.9968216666667","6500400","永和區"
"234052","KEA-2590","2018/06/01 14:09:34","新北市永和區博愛街18巷1號","121.517686666667","25.015795","6500400","永和區"
"234012","KEA-2591","2018/06/01 14:09:36","新北市永和區保生路24號","121.506438333333","25.0075783333333","6500400","永和區"
"234060","AAD-866","2018/06/01 14:09:43","新北市中和區安平路222號","121.514058333333","25.0002266666667","6500400","永和區"
"234040","862-TW","2018/06/01 14:09:42","新北市永和區雙和街43號","121.508838333333","25.0027216666667","6500400","永和區"
"234048","863-TW","2018/06/01 14:09:46","新北市永和區環河西路二段75號","121.506851666667","25.015085","6500400","永和區"
"234025","9371-KE","2018/06/01 14:09:31","新北市永和區安樂路270號","121.514485","25.004075","6500400","永和區"
"234010","9373-KE","2018/06/01 14:09:39","新北市永和區仁愛路352巷124號","121.500196666667","25.0084883333333","6500400","永和區"
"248019","225-UY","2018/06/01 14:05:08","新北市五股區凌雲路三段59-6號","121.425011666667","25.1249966666667","6501500","五股區"
"234022","9380-KE","2018/06/01 14:09:36","新北市永和區復興街91號","121.517848333333","25.01415","6500400","永和區"
"234076","969-R7","2018/06/01 14:09:29","新北市永和區民族街67巷18號","121.519415","24.99708","6500400","永和區"
"234072","AAC-211","2018/06/01 14:09:35","新北市永和區豫溪街160巷4號","121.523258333333","25.0095333333333","6500400","永和區"
"234066","AAC-212","2018/06/01 14:09:40","新北市永和區保平路214巷1弄12號","121.50902","25.00589","6500400","永和區"
"234001","AAC-295","2018/06/01 14:09:39","新北市永和區中正路708號","121.516108333333","25.0099533333333","6500400","永和區"
"244004","248-BX","2018/06/01 14:02:08","新北市林口區竹林路266號","121.389691666667","25.0807516666667","6501700","林口區"
"231002","002-UM","2018/06/01 14:09:34","新北市新店區中正路485號","121.533818333333","24.982015","6500600","新店區"
"231027","0291-UT","2018/06/01 14:09:37","新北市新店區光明街138巷13弄9號","121.540201666667","24.9615466666667","6500600","新店區"
"231028","046-UY","2018/06/01 14:09:38","新北市新店區安和路三段35-1號","121.517091666667","24.9807466666667","6500600","新店區"
"231001","047-UY","2018/06/01 14:09:43","新北市新店區中華路14號","121.540558333333","24.967565","6500600","新店區"
"231005","106-UY","2018/06/01 14:09:43","新北市新店區中興路三段295號","121.542211666667","24.9849666666667","6500600","新店區"
"231022","108-UY","2018/06/01 14:09:43","新北市新店區桂山路35號","121.559225","24.902915","6500600","新店區"
"231012","187-VK","2018/06/01 14:09:28","新北市新店區中興路一段282-3號","121.546146666667","24.9682383333333","6500600","新店區"
"231010","188-VK","2018/06/01 14:09:41","新北市新店區安康路一段258號","121.520576666667","24.9639416666667","6500600","新店區"
"231023","KEA-2219","2018/06/01 14:09:42","新北市新店區文中路45號","121.539558333333","24.9566066666667","6500600","新店區"
"231003","268-BY","2018/06/01 14:09:45","新北市新店區北宜路一段3號","121.53838","24.9584316666667","6500600","新店區"
"231018","278-BY","2018/06/01 14:09:30","新北市新店區中央五街44號","121.52827","24.9751083333333","6500600","新店區"
"231016","AAD-862","2018/06/01 14:09:34","新北市新店區北宜路二段392巷4號","121.565496666667","24.9533283333333","6500600","新店區"
"231038","3712-VJ","2018/06/01 14:09:27","新北市新店區溪洲路8巷66號","121.533123333333","24.9624616666667","6500600","新店區"
"231037","4716-K9","2018/06/01 14:09:39","新北市新店區安康路二段341巷36號","121.49668","24.9544016666667","6500600","新店區"
"231025","4715-K9","2018/06/01 14:09:30","新北市新店區自立街45巷7號","121.53662","24.9795733333333","6500600","新店區"
"231036","512-UM","2018/06/01 14:09:25","新北市新店區安祥路109巷90弄68號","121.476198333333","24.958685","6500600","新店區"
"231013","513-UM","2018/06/01 14:09:35","新北市新店區北新路三段65巷34弄18號","121.540045","24.981655","6500600","新店區"
"231006","617-UM","2018/06/01 14:09:38","新北市新店區北宜路二段250號","121.560353333333","24.9543716666667","6500600","新店區"
"231030","619-UM","2018/06/01 14:09:39","新北市新店區安興路7號","121.514993333333","24.9682583333333","6500600","新店區"
"231034","641-BX","2018/06/01 14:09:45","新北市新店區車子路11號","121.502986666667","24.952025","6500600","新店區"
"231035","719-UY","2018/06/01 14:09:31","新北市新店區安和路一段52巷2-1號","121.517643333333","24.9662716666667","6500600","新店區"
"231032","720-UM","2018/06/01 14:09:42","新北市新店區永業路3號","121.533958333333","24.9560566666667","6500600","新店區"
"231029","897-TW","2018/06/01 14:09:24","新北市新店區安康路二段161號","121.510168333333","24.9592916666667","6500600","新店區"
"231004","899-TW","2018/06/01 14:09:39","新北市新店區北新路二段108號","121.543083333333","24.9742016666667","6500600","新店區"
"231024","AKT-0513","2018/06/01 14:09:45","新北市新店區中華路83巷67號","121.538328333333","24.967255","6500600","新店區"
"235028","005-UY","2018/06/01 14:09:38","新北市中和區泰和街38巷10號","121.499008333333","25.00056","6500300","中和區"
"235027","006-UY","2018/06/01 14:09:43","新北市中和區連城路249巷17弄1號","121.49381","24.996475","6500300","中和區"
"235020","096-UM","2018/06/01 14:09:40","新北市中和區中正路1171號","121.481228333333","25.0095033333333","6500300","中和區"
"235003","097-UM","2018/06/01 14:09:33","新北市中和區秀峰街52號","121.521175","24.990335","6500300","中和區"
"235029","098-UM","2018/06/01 14:09:37","新北市中和區中山路二段64巷12弄2號","121.503803333333","25.0050916666667","6500300","中和區"
"235004","150-BY","2018/06/01 14:09:36","新北市中和區保健路76巷3號","121.5115","24.9961583333333","6500300","中和區"
"235022","151-BY","2018/06/01 14:09:44","新北市中和區連城路477巷6弄26號","121.48239","24.9950716666667","6500300","中和區"
"235019","183-VK","2018/06/01 14:09:36","新北市中和區德光路30號","121.470625","25.0043333333333","6500300","中和區"
"235002","185-VK","2018/06/01 14:09:34","新北市中和區大仁街10巷42號","121.519086666667","24.9924933333333","6500300","中和區"
"235031","255-BX","2018/06/01 14:09:37","新北市中和區連城路280號","121.4845","24.99633","6500300","中和區"
"235008","293-VK","2018/06/01 14:09:39","新北市中和區中興街202巷2號","121.499361666667","24.9901216666667","6500300","中和區"
"235036","301-VK","2018/06/01 14:09:32","新北市中和區莊敬路33巷20號","121.50024","25.005445","6500300","中和區"
"235007","352-BY","2018/06/01 14:09:25","新北市中和區景平路92巷1-2號","121.52096","24.99109","6500300","中和區"
"235018","269-TV","2018/06/01 14:09:28","新北市中和區國光街107巷2弄32號","121.469285","24.9989883333333","6500300","中和區"
"235014","4979-A6","2018/06/01 14:09:13","新北市中和區復興路274巷20號","121.502761666667","24.991235","6500300","中和區"
"235033","4980-A6","2018/06/01 14:09:26","新北市中和區廣福路110號","121.50234","25.001225","6500300","中和區"
"235006","551-UM","2018/06/01 14:09:31","新北市中和區自立路99巷14號","121.522696666667","24.994615","6500300","中和區"
"235034","558-UM","2018/06/01 14:09:36","新北市中和區中和路76號","121.501046666667","25.0006883333333","6500300","中和區"
"235009","565-BX","2018/06/01 14:09:39","新北市中和區景新街467巷15弄12號","121.513871666667","24.9888066666667","6500300","中和區"
"235024","647-TV","2018/06/01 14:09:36","新北市中和區民治街21巷2號","121.475326666667","25.0023766666667","6500300","中和區"
"235010","733-UM","2018/06/01 14:09:36","新北市中和區忠孝街1巷1號","121.508828333333","24.9832733333333","6500300","中和區"
"235035","783-BX","2018/06/01 14:09:46","新北市中和區立德街98巷55號","121.48764","25.0090333333333","6500300","中和區"
"235026","800-TS","2018/06/01 14:09:38","新北市中和區橋和路117號","121.491326666667","25.0058066666667","6500300","中和區"
"235021","801-TS","2018/06/01 14:09:32","新北市中和區民利街50號","121.479301666667","24.9987866666667","6500300","中和區"
"235005","802-TS","2018/06/01 14:09:32","新北市中和區宜安路118巷14號","121.510716666667","24.998515","6500300","中和區"
"235016","805-TS","2018/06/01 14:09:35","新北市中和區興南路二段114巷2號","121.50431","24.9842","6500300","中和區"
"235012","896-TW","2018/06/01 14:09:44","新北市中和區華新街109巷32號","121.50878","24.9800416666667","6500300","中和區"
"235017","900-TW","2018/06/01 14:09:34","新北市中和區華福街57巷12號","121.466831666667","24.9971233333333","6500300","中和區"
"235030","911-UM","2018/06/01 14:09:29","新北市中和區廣福路63號","121.502551666667","25.0011","6500300","中和區"
"235015","157-BY","2018/06/01 14:09:46","新北市中和區和平街2巷4弄1號","121.510041666667","24.9906833333333","6500300","中和區"
"235001","AAC-213","2018/06/01 14:09:29","新北市中和區秀朗路三段50巷2弄2號","121.526141666667","24.9955233333333","6500300","中和區"
"235023","AAC-215","2018/06/01 14:09:30","新北市中和區圓通路294-4號","121.488721666667","24.9891383333333","6500300","中和區"
"220013","072-UY","2018/06/01 14:09:38","新北市板橋區民族路219巷25號","121.46937","25.0086766666667","6500100","板橋區"
"220034","073-UY","2018/06/01 14:09:34","新北市板橋區中正路216巷47號","121.457276666667","25.0188933333333","6500100","板橋區"
"220105","075-UY","2018/06/01 14:09:44","新北市板橋區雙十路三段9號","121.47166","25.03032","6500100","板橋區"
"220017","AAD-861","2018/06/01 14:09:36","新北市板橋區華興街1號","121.459436666667","25.0046383333333","6500100","板橋區"
"247023","893-R6","2018/06/01 14:09:28","新北市蘆洲區光榮路118-2號","121.46486","25.0892616666667","6501400","蘆洲區"
"247013","546-UM","2018/06/01 14:09:40","新北市蘆洲區三民路155號","121.471593333333","25.086855","6501400","蘆洲區"
"247021","500-BY","2018/06/01 14:09:43","新北市蘆洲區三民路165號","121.471386666667","25.0869716666667","6501400","蘆洲區"
"247009","341-TH","2018/06/01 14:09:29","新北市蘆洲區民族路31-12號","121.477905","25.0851216666667","6501400","蘆洲區"
"247011","339-TH","2018/06/01 14:09:32","新北市蘆洲區信義路325號","121.478266666667","25.0866283333333","6501400","蘆洲區"
"247003","337-TH","2018/06/01 14:09:43","新北市蘆洲區長安街102巷5弄12號","121.461593333333","25.0820133333333","6501400","蘆洲區"
"247005","336-TH","2018/06/01 14:09:38","新北市蘆洲區永安南路二段16巷18號","121.467966666667","25.07778","6501400","蘆洲區"
"247017","057-VK","2018/06/01 14:09:23","新北市蘆洲區復興路111-6號","121.476483333333","25.0883666666667","6501400","蘆洲區"
"247007","056-VK","2018/06/01 14:09:39","新北市蘆洲區中山一路300-1號","121.470165","25.0778283333333","6501400","蘆洲區"
"247015","007-UY","2018/06/01 14:09:37","新北市蘆洲區光華路46巷34號","121.467978333333","25.0841483333333","6501400","蘆洲區"
"247001","002-UY","2018/06/01 14:09:22","新北市蘆洲區永平街62號","121.457443333333","25.0915966666667","6501400","蘆洲區"
"247019","001-UY","2018/06/01 14:09:43","新北市蘆洲區民族路426巷19號","121.473081666667","25.0931616666667","6501400","蘆洲區"
"235011","251-BX","2018/06/01 14:09:37","新北市中和區興南路一段93巷2號","121.509565","24.9885933333333","6500300","中和區"
"228002","663-BX","2018/06/01 14:09:45","新北市瑞芳區哩咾路1號","121.876163333333","25.122965","6502600","貢寮區"
"207002","749-BX","2018/06/01 14:09:07","新北市萬里區溪底里瑞泉路21號","121.605376666667","25.1483766666667","6502800","萬里區"
"207001","662-BX","2018/06/01 14:09:38","新北市萬里區磺潭里清水18號","121.637701666667","25.19776","6502800","萬里區"
"236040","107-UM","2018/06/01 14:09:43","新北市土城區明德路二段108號","121.445153333333","24.9841483333333","6501300","土城區"
"236077","166-UM","2018/06/01 14:09:33","新北市土城區永和街5號","121.434586666667","24.9650666666667","6501300","土城區"
"236029","253-BX","2018/06/01 14:09:35","新北市土城區興城路79號","121.439916666667","24.9707516666667","6501300","土城區"
"236024","269-VK","2018/06/01 14:09:26","新北市土城區承天路18號","121.439395","24.963525","6501300","土城區"
"236013","270-VK","2018/06/01 14:09:31","新北市土城區學府路一段198號","121.452981666667","24.9858216666667","6501300","土城區"
"236032","271-VK","2018/06/01 14:09:29","新北市土城區明德路一段361-3號","121.456316666667","24.9777016666667","6501300","土城區"
"236067","KEA-2877","2018/06/01 14:09:35","新北市土城區明德路一段126號","121.463788333333","24.9790466666667","6501300","土城區"
"236016","401-BY","2018/06/01 14:09:30","新北市土城區城林路6巷80號","121.438695","24.9797883333333","6501300","土城區"
"236006","498-BY","2018/06/01 14:09:26","新北市土城區中華路一段10-1號","121.448043333333","24.9906566666667","6501300","土城區"
"236057","912-UM","2018/06/01 14:09:29","新北市土城區中央路四段132號","121.417726666667","24.9587366666667","6501300","土城區"
"236045","913-UM","2018/06/01 14:09:25","新北市土城區明德路一段365-1號","121.453546666667","24.9790483333333","6501300","土城區"
"236060","915-UM","2018/06/01 14:09:37","新北市土城區金城路二段266號","121.458343333333","24.9840816666667","6501300","土城區"
"236054","AAC-216","2018/06/01 14:09:27","新北市土城區城林路6巷80號","121.438148333333","24.97954","6501300","土城區"
"220027","145-BY","2018/06/01 14:09:43","新北市板橋區民權路260巷55號","121.45993","25.0151516666667","6500100","板橋區"
"220028","200-UY","2018/06/01 14:09:36","新北市板橋區大觀路二段3巷33號","121.448553333333","25.0036883333333","6500100","板橋區"
"220030","610-BX","2018/06/01 14:09:43","新北市板橋區溪崑二街138號","121.425955","24.9875816666667","6500100","板橋區"
"220050","245-BX","2018/06/01 14:09:31","新北市板橋區民生路二段161巷9號","121.470081666667","25.0195533333333","6500100","板橋區"
"220014","255-TC","2018/06/01 14:09:30","新北市板橋區板城路407號","121.447193333333","24.9948933333333","6500100","板橋區"
"220042","267-BY","2018/06/01 14:09:42","新北市板橋區民生路三段163號","121.465615","25.0268783333333","6500100","板橋區"
"220004","276-BY","2018/06/01 14:09:25","新北市板橋區信義路150巷16號","121.458208333333","24.99182","6500100","板橋區"
"220020","277-BY","2018/06/01 14:09:29","新北市板橋區金門街372巷25號","121.427008333333","24.98479","6500100","板橋區"
"220019","283-VK","2018/06/01 14:09:44","新北市板橋區大豐街27號","121.4621","25.0013433333333","6500100","板橋區"
"220043","285-UM","2018/06/01 14:09:34","新北市板橋區光武街138號","121.465361666667","25.0299466666667","6500100","板橋區"
"220001","285-VK","2018/06/01 14:09:36","新北市板橋區懷仁街34巷12號","121.476055","25.0192166666667","6500100","板橋區"
"220031","286-VK","2018/06/01 14:09:45","新北市板橋區大觀路二段174巷165弄2號","121.441743333333","25.00332","6500100","板橋區"
"220029","287-VK","2018/06/01 14:09:32","新北市板橋區南雅西路二段2-2號","121.453091666667","25.0090333333333","6500100","板橋區"
"220039","288-VK","2018/06/01 14:09:30","新北市板橋區裕民街45巷2號","121.461493333333","25.0284183333333","6500100","板橋區"
"220009","293-UM","2018/06/01 14:09:35","新北市板橋區三民路二段2號","121.479215","25.0182566666667","6500100","板橋區"
"220032","296-UM","2018/06/01 14:09:45","新北市板橋區溪崑二街22巷15號","121.428118333333","24.9916966666667","6500100","板橋區"
"220023","303-R5","2018/06/01 14:09:41","新北市板橋區中正路1巷28號","121.454756666667","25.0112783333333","6500100","板橋區"
"220010","305-R5","2018/06/01 14:09:36","新北市板橋區三民路二段居仁巷1弄49號","121.480835","25.0136916666667","6500100","板橋區"
"220041","307-R5","2018/06/01 14:09:31","新北市板橋區文化路二段225巷64號","121.469155","25.0284616666667","6500100","板橋區"
"220047","317-R6","2018/06/01 14:09:42","新北市板橋區自由路60-3號","121.465733333333","25.0236566666667","6500100","板橋區"
"220012","486-VK","2018/06/01 14:09:40","新北市板橋區板新路96號","121.472383333333","25.01469","6500100","板橋區"
"220037","491-VK","2018/06/01 14:09:33","新北市板橋區莊敬路40號","121.472848333333","25.026975","6500100","板橋區"
"220104","560-BX","2018/06/01 14:09:39","新北市板橋區瑞安街31巷12號","121.456055","25.0226116666667","6500100","板橋區"
"220052","561-BX","2018/06/01 14:09:27","新北市板橋區文化路一段188巷9弄120號","121.468895","25.01921","6500100","板橋區"
"220011","609-BX","2018/06/01 14:09:36","新北市板橋區三民路二段165號","121.479176666667","25.0146033333333","6500100","板橋區"
"220040","637-BX","2018/06/01 14:09:40","新北市板橋區縣民大道三段247巷6號","121.48168","25.02622","6500100","板橋區"
"220005","686-BX","2018/06/01 14:09:34","新北市板橋區重慶路366號","121.464271666667","24.99711","6500100","板橋區"
"220025","687-BX","2018/06/01 14:09:38","新北市板橋區龍興街33號","121.442956666667","25.0003016666667","6500100","板橋區"
"220002","741-BX","2018/06/01 14:09:32","新北市板橋區重慶路93巷4號","121.462411666667","25.0057783333333","6500100","板橋區"
"220051","KEA-2699","2018/06/01 14:09:35","新北市板橋區田單街49巷1弄3號","121.482793333333","25.028485","6500100","板橋區"
"220003","827-TW","2018/06/01 14:09:23","新北市板橋區新民街45號","121.463935","25.0108866666667","6500100","板橋區"
"220014","829-TW","2018/06/01 14:09:33","新北市板橋區三民路二段正隆巷44號","121.476955","25.0138183333333","6500100","板橋區"
"220016","830-TW","2018/06/01 14:09:45","新北市板橋區翠華街6巷51號","121.481341666667","25.0246783333333","6500100","板橋區"
"220045","831-TW","2018/06/01 14:09:40","新北市板橋區大同街2號","121.476788333333","25.0267466666667","6500100","板橋區"
"220038","833-TW","2018/06/01 14:09:37","新北市板橋區文化路二段389號","121.473561666667","25.0314866666667","6500100","板橋區"
"220022","895-R6","2018/06/01 14:09:25","新北市板橋區林園街59號","121.45366","25.0103533333333","6500100","板橋區"
"220021","985-R7","2018/06/01 14:09:42","新北市板橋區民權路257號","121.457136666667","25.016","6500100","板橋區"
"220046","AAC-210","2018/06/01 14:09:45","新北市板橋區新海路135巷33號","121.460063333333","25.02281","6500100","板橋區"
"220018","AAC-253","2018/06/01 14:09:32","新北市板橋區忠孝路40號","121.460363333333","25.0018883333333","6500100","板橋區"
"235032","KEA-2873","2018/06/01 14:09:22","新北市中和區圓通路158巷4號","121.497701666667","24.9961316666667","6500300","中和區"
"235025","KEA-2875","2018/06/01 14:09:17","新北市中和區員山路394巷12弄11號","121.481485","25.0039433333333","6500300","中和區"
