"lineid","car","time","location","longitude","latitude","cityid","cityname"
"234042","862-TW","2018/06/01 15:59:48","新北市永和區福和路1號","121.526401666667","25.0097266666667","6500400","永和區"
"231022","108-UY","2018/06/01 15:59:43","新北市新店區環河路18號","121.53688","24.9614333333333","6500600","新店區"
"231012","187-VK","2018/06/01 15:59:28","新北市新店區中正路366號","121.535296666667","24.9760616666667","6500600","新店區"
"231046","188-VK","2018/06/01 15:59:35","新北市新店區華潭街31號","121.52997","24.955195","6500600","新店區"
"231003","268-BY","2018/06/01 15:59:45","新北市新店區寶興路49-1號","121.549378333333","24.9730316666667","6500600","新店區"
"231018","278-BY","2018/06/01 15:59:30","新北市新店區中正路663巷1弄2號","121.532996666667","24.989995","6500600","新店區"
"231016","AAD-862","2018/06/01 15:59:34","新北市新店區中正路284巷2號","121.538438333333","24.9745866666667","6500600","新店區"
"231038","3712-VJ","2018/06/01 15:59:47","新北市新店區安康路二段360號","121.50192","24.9574366666667","6500600","新店區"
"231037","4716-K9","2018/06/01 15:59:39","新北市新店區安康路二段16巷48號","121.516855","24.96566","6500600","新店區"
"231030","619-UM","2018/06/01 15:59:37","新北市新店區永平街32號","121.516246666667","24.9839266666667","6500600","新店區"
"231034","641-BX","2018/06/01 15:59:45","新北市新店區如意街51號","121.493326666667","24.9472066666667","6500600","新店區"
"231035","719-UY","2018/06/01 15:59:31","新北市新店區安民街241-1號","121.517041666667","24.9723416666667","6500600","新店區"
"231032","720-UM","2018/06/01 15:59:42","新北市新店區安豐路68號","121.497715","24.95308","6500600","新店區"
"241011","013-R5","2018/06/01 15:59:37","新北市三重區文化北路224巷30-1號","121.4971","25.0686016666667","6500200","三重區"
"241028","022-UY","2018/06/01 15:59:38","新北市三重區大同南路119號","121.496266666667","25.05829","6500200","三重區"
"241008","059-VK","2018/06/01 15:59:44","新北市三重區重新路四段121號","121.484906666667","25.0519883333333","6500200","三重區"
"241031","061-VK","2018/06/01 15:59:48","新北市三重區重新路四段121號","121.484796666667","25.0520133333333","6500200","三重區"
"241015","062-VK","2018/06/01 15:59:41","新北市三重區重新路四段121號","121.485116666667","25.0520616666667","6500200","三重區"
"241017","063-VK","2018/06/01 15:59:34","新北市三重區大仁街48巷6號","121.491283333333","25.0645083333333","6500200","三重區"
"241024","065-VK","2018/06/01 15:59:46","新北市三重區中正北路145巷5弄5號","121.484558333333","25.0675216666667","6500200","三重區"
"241026","066-VK","2018/06/01 15:59:30","新北市三重區中正南路40號","121.49383","25.0601333333333","6500200","三重區"
"241002","090-VK","2018/06/01 15:59:27","新北市三重區仁義街91號","121.499721666667","25.0796583333333","6500200","三重區"
"241003","091-VK","2018/06/01 15:59:37","新北市三重區自強路五段100號","121.496731666667","25.0836316666667","6500200","三重區"
"241013","742-BX","2018/06/01 15:59:37","新北市三重區三和路三段10號","121.496823333333","25.069995","6500200","三重區"
"241005","262-UM","2018/06/01 15:59:44","新北市三重區五華街170號","121.489005","25.0862066666667","6500200","三重區"
"241016","266-UM","2018/06/01 15:59:47","新北市三重區重新路四段121號","121.48513","25.0520183333333","6500200","三重區"
"241022","267-UM","2018/06/01 15:59:48","新北市三重區忠孝路三段40巷22弄4號","121.482731666667","25.0660966666667","6500200","三重區"
"241018","268-UM","2018/06/01 15:59:30","新北市三重區大仁街22號","121.491531666667","25.06358","6500200","三重區"
"241007","398-BY","2018/06/01 15:59:36","新北市三重區慈愛街8號","121.484453333333","25.0783666666667","6500200","三重區"
"241025","413-TH","2018/06/01 15:59:36","新北市三重區三民街207號","121.481716666667","25.0659733333333","6500200","三重區"
"241004","475-VK","2018/06/01 15:59:30","新北市三重區環河南路261號","121.490286666667","25.0499616666667","6500200","三重區"
"241020","478-VK","2018/06/01 15:59:39","新北市三重區車路頭街4巷23號","121.483233333333","25.07019","6500200","三重區"
"241014","543-UM","2018/06/01 15:59:30","新北市三重區重新路四段121號","121.485061666667","25.0521283333333","6500200","三重區"
"241023","545-UM","2018/06/01 15:59:42","新北市三重區中正北路172-2號","121.483956666667","25.0664433333333","6500200","三重區"
"241019","KEA-2593","2018/06/01 15:59:33","新北市三重區重陽路二段58號","121.487336666667","25.0635866666667","6500200","三重區"
"241006","AAD-863","2018/06/01 15:59:47","新北市三重區重新路四段121號","121.4847","25.0521816666667","6500200","三重區"
"241002","887-TS","2018/06/01 15:59:32","新北市三重區三陽路100巷3弄13號","121.482983333333","25.0581066666667","6500200","三重區"
"241012","941-UM","2018/06/01 15:59:35","新北市三重區文化北路118巷46號","121.497558333333","25.0661416666667","6500200","三重區"
"241029","942-UM","2018/06/01 15:59:30","新北市三重區大同南路212巷41號","121.49785","25.0566733333333","6500200","三重區"
"241033","AAC-255","2018/06/01 15:59:28","新北市三重區重新路五段440號","121.474796666667","25.0473633333333","6500200","三重區"
"235046","733-UM","2018/06/01 15:32:29","新北市中和區員山路36巷13號","121.484171666667","24.9908383333333","6500300","中和區"
"235026","800-TS","2018/06/01 15:59:29","新北市中和區永和路206號","121.491938333333","25.00747","6500300","中和區"
"247006","336-TH","2018/06/01 15:35:56","新北市五股區中興路三段163號","121.449158333333","25.0807466666667","6501400","蘆洲區"
"224007","275-VK","2018/06/01 15:59:40","新北市瑞芳區楓子瀨路28號","121.773358333333","25.106755","6501200","瑞芳區"
"227003","642-TC","2018/06/01 15:59:45","新北市雙溪區平林里外平林71號","121.842018333333","25.034855","6502500","雙溪區"
"227011","400-TW","2018/06/01 15:59:28","新北市雙溪區三港里雙澳路40號","121.873558333333","25.05168","6502500","雙溪區"
"251008","180-VK","2018/06/01 15:59:35","新北市淡水區中正路二段31號","121.41968","25.1812266666667","6501000","淡水區"
"236057","912-UM","2018/06/01 15:59:49","新北市土城區中央路三段64號","121.436685","24.9673633333333","6501300","土城區"
