"lineid","car","time","location","longitude","latitude","cityid","cityname"
"249005","172-UM","2018/06/01 17:09:38","新北市八里區華富山3-1號","121.41673","25.1462633333333","6502300","八里區"
"249001","173-UM","2018/06/01 17:09:45","新北市八里區中華路二段205巷8-1號","121.405063333333","25.1492716666667","6502300","八里區"
"249004","303-UY","2018/06/01 17:09:36","新北市八里區忠孝路193號","121.422555","25.1608233333333","6502300","八里區"
"249002","305-UY","2018/06/01 17:09:44","新北市八里區龍米路二段153巷1號","121.440898333333","25.151645","6502300","八里區"
"249003","593-UM","2018/06/01 17:09:31","新北市八里區中山路二段548號","121.397308333333","25.1464783333333","6502300","八里區"
"244013","069-UM","2018/06/01 17:09:31","新北市林口區粉寮69號","121.404775","25.0908483333333","6501700","林口區"
"244019","403-UM","2018/06/01 17:09:34","新北市林口區公園路223巷1號","121.373931666667","25.07486","6501700","林口區"
"244017","485-VK","2018/06/01 17:09:36","新北市林口區粉寮69號","121.405005","25.0908933333333","6501700","林口區"
"244025","837-TS","2018/06/01 17:09:34","新北市林口區文化三路二段10號","121.37311","25.078555","6501700","林口區"
"244021","838-TS","2018/06/01 17:09:45","新北市林口區粉寮路二段66-1號","121.404091666667","25.08776","6501700","林口區"
"231046","188-VK","2018/06/01 17:09:35","新北市新店區直潭路92號","121.530913333333","24.9375883333333","6500600","新店區"
"241011","013-R5","2018/06/01 17:09:37","新北市三重區龍濱路257號","121.501573333333","25.072825","6500200","三重區"
"241028","022-UY","2018/06/01 17:09:38","新北市三重區重新路三段110號","121.492343333333","25.0603116666667","6500200","三重區"
"241008","059-VK","2018/06/01 17:09:44","新北市三重區力行路二段134號","121.48224","25.0756716666667","6500200","三重區"
"241015","062-VK","2018/06/01 17:09:41","新北市三重區長生街30號","121.499598333333","25.0664283333333","6500200","三重區"
"241017","063-VK","2018/06/01 17:09:34","新北市三重區中正北路25巷16號","121.493553333333","25.06292","6500200","三重區"
"241024","065-VK","2018/06/01 17:09:46","新北市三重區中正北路346號","121.477818333333","25.0693766666667","6500200","三重區"
"241026","066-VK","2018/06/01 17:09:30","新北市三重區福德南路26號","121.502766666667","25.0630966666667","6500200","三重區"
"241002","090-VK","2018/06/01 17:09:47","新北市三重區五華街60號","121.494118333333","25.0813083333333","6500200","三重區"
"241003","091-VK","2018/06/01 17:09:37","新北市三重區富福街110號","121.493411666667","25.0856333333333","6500200","三重區"
"241013","742-BX","2018/06/01 17:09:37","新北市三重區仁福街45號","121.496953333333","25.074605","6500200","三重區"
"241005","262-UM","2018/06/01 17:09:44","新北市三重區仁華街5號","121.483416666667","25.0813216666667","6500200","三重區"
"241009","265-UM","2018/06/01 17:09:46","新北市三重區仁愛街684號","121.481893333333","25.0801516666667","6500200","三重區"
"241016","266-UM","2018/06/01 17:09:47","新北市三重區中正北路25巷2號","121.49317","25.0626933333333","6500200","三重區"
"241022","267-UM","2018/06/01 17:09:48","新北市三重區中正北路118巷10-2號","121.485091666667","25.064305","6500200","三重區"
"241018","268-UM","2018/06/01 17:09:42","新北市三重區正義北路239號","121.495738333333","25.069295","6500200","三重區"
"241007","398-BY","2018/06/01 17:09:36","新北市三重區三和路四段163巷75號","121.48589","25.0793816666667","6500200","三重區"
"241025","413-TH","2018/06/01 17:09:38","新北市三重區中正北路560巷61-3號","121.470956666667","25.06914","6500200","三重區"
"241004","475-VK","2018/06/01 17:09:30","新北市三重區五華街124號","121.49181","25.0831816666667","6500200","三重區"
"241020","478-VK","2018/06/01 17:09:39","新北市三重區自強路三段16號","121.486838333333","25.0721083333333","6500200","三重區"
"241030","480-VK","2018/06/01 17:09:46","新北市三重區集成路13號","121.488741666667","25.052135","6500200","三重區"
"241014","543-UM","2018/06/01 17:09:30","新北市三重區龍濱路128號","121.501771666667","25.0715916666667","6500200","三重區"
"241023","545-UM","2018/06/01 17:09:42","新北市三重區忠孝路三段84巷5號","121.480171666667","25.0644216666667","6500200","三重區"
"241019","KEA-2593","2018/06/01 17:09:33","新北市三重區力行路一段153巷32號","121.486048333333","25.069085","6500200","三重區"
"241006","AAD-863","2018/06/01 17:09:47","新北市三重區三和路四段264巷2弄11號","121.485251666667","25.0768416666667","6500200","三重區"
"241002","887-TS","2018/06/01 17:09:47","新北市三重區三陽路2號","121.486093333333","25.05878","6500200","三重區"
"241012","941-UM","2018/06/01 17:09:35","新北市三重區仁壽街200號","121.501058333333","25.0748533333333","6500200","三重區"
"241029","942-UM","2018/06/01 17:09:50","新北市三重區重新路三段180號","121.490516666667","25.0590466666667","6500200","三重區"
"241033","AAC-255","2018/06/01 17:09:48","新北市三重區中興北街271號","121.46904","25.060675","6500200","三重區"
"235062","800-TS","2018/06/01 16:53:29","新北市中和區員山路36巷16-3號","121.484873333333","24.9918333333333","6500300","中和區"
"247024","893-R6","2018/06/01 17:09:28","新北市蘆洲區長興路25號","121.463648333333","25.0833116666667","6501400","蘆洲區"
"247014","546-UM","2018/06/01 17:09:46","新北市蘆洲區中央路32巷1號","121.473503333333","25.0830866666667","6501400","蘆洲區"
"247022","500-BY","2018/06/01 17:09:36","新北市蘆洲區三民路222號","121.468746666667","25.089225","6501400","蘆洲區"
"247010","341-TH","2018/06/01 17:09:45","新北市蘆洲區民族路42號","121.476698333333","25.08441","6501400","蘆洲區"
"247012","339-TH","2018/06/01 17:09:48","新北市蘆洲區信義路290號","121.477698333333","25.087445","6501400","蘆洲區"
"247004","337-TH","2018/06/01 17:09:30","新北市蘆洲區長安街140號","121.460106666667","25.0821416666667","6501400","蘆洲區"
"247006","336-TH","2018/06/01 17:09:51","新北市蘆洲區中華街6巷5號","121.462363333333","25.082505","6501400","蘆洲區"
"247018","057-VK","2018/06/01 17:09:37","新北市蘆洲區信義路365號","121.477386666667","25.0876733333333","6501400","蘆洲區"
"247008","056-VK","2018/06/01 17:09:35","新北市蘆洲區信義路30巷75號","121.474946666667","25.0776866666667","6501400","蘆洲區"
"247016","007-UY","2018/06/01 17:09:35","新北市蘆洲區光華路75號","121.467981666667","25.0826533333333","6501400","蘆洲區"
"247002","002-UY","2018/06/01 17:09:43","新北市蘆洲區永樂街61號","121.45648","25.0886066666667","6501400","蘆洲區"
"247020","001-UY","2018/06/01 17:09:29","新北市蘆洲區民族路422巷118號","121.47246","25.0943083333333","6501400","蘆洲區"
"228002","663-BX","2018/06/01 17:09:46","新北市平溪區平湖里坑頭2號","121.910406666667","25.0172016666667","6502600","貢寮區"
"228001","670-TC","2018/06/01 17:09:38","新北市貢寮區仁理村仁和路1號","121.924158333333","25.0478066666667","6502600","貢寮區"
"228003","828-UM","2018/06/01 17:09:42","新北市貢寮區福隆里東興街10-6號","121.951185","25.01961","6502600","貢寮區"
"224006","676-BX","2018/06/01 17:09:32","新北市瑞芳區大寮路114-1號","121.779996666667","25.09817","6501200","瑞芳區"
"224008","285-BY","2018/06/01 17:09:46","新北市瑞芳區侯硐路59號","121.829091666667","25.0886883333333","6501200","瑞芳區"
"224009","273-VK","2018/06/01 17:09:29","新北市瑞芳區豎崎路56號","121.843026666667","25.1102383333333","6501200","瑞芳區"
"224005","271-BY","2018/06/01 17:09:40","新北市瑞芳區鼻頭路227-1號","121.914628333333","25.1240416666667","6501200","瑞芳區"
"227003","642-TC","2018/06/01 17:09:45","新北市雙溪區外柑里外柑腳79號","121.806781666667","25.0171733333333","6502500","雙溪區"
"227011","400-TW","2018/06/01 17:09:28","新北市雙溪區三貂里子崙坑1-6號","121.84985","25.05758","6502500","雙溪區"
"251004","009-UM","2018/06/01 17:09:46","新北市淡水區中正東路36-1號","121.448811666667","25.1658566666667","6501000","淡水區"
"251005","010-UM","2018/06/01 17:09:40","新北市淡水區水源街一段139號","121.447133333333","25.1718833333333","6501000","淡水區"
"251008","180-VK","2018/06/01 17:09:41","新北市淡水區樹梅坑16號","121.471436666667","25.14322","6501000","淡水區"
"251010","413-VK","2018/06/01 17:09:34","新北市淡水區新市五路二段75號","121.431281666667","25.1982866666667","6501000","淡水區"
"251007","442-VK","2018/06/01 17:09:38","新北市淡水區民權路99-5號","121.460113333333","25.137715","6501000","淡水區"
"251012","443-VK","2018/06/01 17:09:43","新北市淡水區中山北路一段156號","121.444101666667","25.1778566666667","6501000","淡水區"
"251006","561-UM","2018/06/01 17:09:41","新北市淡水區中山路113號","121.441718333333","25.17089","6501000","淡水區"
"251009","575-R6","2018/06/01 17:09:37","新北市淡水區三民街22號","121.439038333333","25.1718033333333","6501000","淡水區"
"251011","650-BX","2018/06/01 17:09:33","新北市淡水區坪頂路50號","121.45796","25.16254","6501000","淡水區"
"252002","178-VK","2018/06/01 17:09:37","新北市三芝區埔坪里埔頭坑169-2號","121.506025","25.2529416666667","6502100","三芝區"
"252001","292-VK","2018/06/01 17:09:40","新北市三芝區淡金路一段4-5號","121.497998333333","25.2599683333333","6502100","三芝區"
"242054","751-BX","2018/06/01 17:09:50","新北市新莊區中環路一段299號","121.442095","25.032195","6500500","新莊區"
"242025","613-BX","2018/06/01 17:09:26","新北市新莊區新泰路255巷83號","121.442175","25.0391133333333","6500500","新莊區"
"242041","566-BX","2018/06/01 17:09:46","新北市新莊區新泰路255巷83號","121.442113333333","25.038965","6500500","新莊區"
"242046","497-BY","2018/06/01 17:09:28","新北市新莊區新泰路357巷3弄57號","121.442251666667","25.03945","6500500","新莊區"
"242055","440-UM","2018/06/01 17:09:32","新北市新莊區新泰路255巷83號","121.44232","25.0389716666667","6500500","新莊區"
"242037","415-TV","2018/06/01 17:09:49","新北市新莊區新泰路357巷3弄57號","121.442166666667","25.03922","6500500","新莊區"
"242044","400-BY","2018/06/01 17:09:47","新北市新莊區新泰路357巷3弄45號","121.442018333333","25.0401666666667","6500500","新莊區"
"242023","362-BY","2018/06/01 17:09:38","新北市新莊區三和路12-21號","121.442178333333","25.038515","6500500","新莊區"
"242060","353-BY","2018/06/01 17:09:29","新北市新莊區新泰路255巷83號","121.442198333333","25.0387633333333","6500500","新莊區"
"242009","132-UY","2018/06/01 17:09:39","新北市新莊區三和路12-21號","121.442005","25.03868","6500500","新莊區"
"242017","175-VK","2018/06/01 17:09:31","新北市新莊區三和路12-21號","121.442101666667","25.038675","6500500","新莊區"
"242005","176-VK","2018/06/01 17:09:44","新北市新莊區三和路12-21號","121.442071666667","25.03863","6500500","新莊區"
"242039","347-TH","2018/06/01 17:09:39","新北市新莊區新泰路357巷3弄49號","121.44198","25.040085","6500500","新莊區"
"242021","348-TH","2018/06/01 17:09:36","新北市新莊區新泰路357巷3弄57號","121.442173333333","25.03954","6500500","新莊區"
"242050","349-TH","2018/06/01 17:09:37","新北市新莊區三和路12-21號","121.442271666667","25.0380233333333","6500500","新莊區"
"242019","350-TH","2018/06/01 17:09:35","新北市新莊區三和路12-21號","121.442038333333","25.0387766666667","6500500","新莊區"
"242013","351-TH","2018/06/01 17:09:33","新北市新莊區新泰路357巷3弄57號","121.442078333333","25.0395466666667","6500500","新莊區"
"238019","599-UM","2018/06/01 17:09:47","新北市樹林區八德街263-1號","121.41909","24.97394","6500700","樹林區"
"238018","571-TV","2018/06/01 17:09:38","新北市樹林區水源街27號","121.425378333333","24.982435","6500700","樹林區"
"238024","5061-A6","2018/06/01 17:09:40","新北市樹林區水源街27號","121.425338333333","24.9825083333333","6500700","樹林區"
"238022","KEA-2213","2018/06/01 17:09:37","新北市樹林區國凱街112號","121.421953333333","24.9796766666667","6500700","樹林區"
"238017","283-BY","2018/06/01 17:09:47","新北市樹林區中山路二段125號","121.407801666667","24.9797366666667","6500700","樹林區"
"238014","282-BY","2018/06/01 17:09:49","新北市樹林區中山路二段125號","121.40767","24.9796683333333","6500700","樹林區"
"238020","268-VK","2018/06/01 17:09:34","新北市樹林區中山路二段209號","121.402936666667","24.978305","6500700","樹林區"
"238016","169-UY","2018/06/01 17:09:42","新北市樹林區中山路二段230號","121.408913333333","24.9801083333333","6500700","樹林區"
"239007","AAC-297","2018/06/01 17:09:48","新北市鶯歌區建國路108號","121.353456666667","24.954215","6500800","鶯歌區"
"239006","891-R6","2018/06/01 17:09:41","新北市鶯歌區八德路2巷20弄2號","121.336251666667","24.9466816666667","6500800","鶯歌區"
"239008","527-UM","2018/06/01 17:09:37","新北市鶯歌區文化路136巷29號","121.35131","24.9506983333333","6500800","鶯歌區"
"239005","526-UM","2018/06/01 17:09:48","新北市鶯歌區鶯桃路336號","121.333951666667","24.962185","6500800","鶯歌區"
"239001","417-VK","2018/06/01 17:09:32","新北市鶯歌區尖山路140巷33號","121.346205","24.949345","6500800","鶯歌區"
"239003","360-BY","2018/06/01 17:09:47","新北市鶯歌區八德路50號","121.330093333333","24.9557933333333","6500800","鶯歌區"
"239002","359-BY","2018/06/01 17:09:35","新北市鶯歌區建國路252號","121.347758333333","24.9534183333333","6500800","鶯歌區"
"239004","193-VK","2018/06/01 17:09:28","新北市鶯歌區文化路324巷1-35號","121.35222","24.9455883333333","6500800","鶯歌區"
"220014","255-TC","2018/06/01 16:51:45","新北市板橋區四川路二段橋頭1巷1號","121.447115","24.9945266666667","6500100","板橋區"
