"lineid","car","time","location","longitude","latitude","cityid","cityname"
"249005","172-UM","2018/06/01 17:19:38","新北市五股區民義路二段132號","121.410096666667","25.1210166666667","6502300","八里區"
"249001","173-UM","2018/06/01 17:19:45","新北市八里區中華路二段165巷3號","121.407663333333","25.1508666666667","6502300","八里區"
"249004","303-UY","2018/06/01 17:19:36","新北市八里區中山路一段45號","121.419113333333","25.1594166666667","6502300","八里區"
"249002","305-UY","2018/06/01 17:19:44","新北市八里區龍米路二段117巷33-2號","121.444868333333","25.1428216666667","6502300","八里區"
"249003","593-UM","2018/06/01 17:19:31","新北市八里區中山路二段369號","121.398816666667","25.147035","6502300","八里區"
"244013","069-UM","2018/06/01 17:19:51","新北市林口區粉寮路31-2號","121.403756666667","25.0873183333333","6501700","林口區"
"244007","080-UY","2018/06/01 17:19:39","新北市林口區菁埔10號","121.378546666667","25.0962416666667","6501700","林口區"
"244019","403-UM","2018/06/01 17:19:34","新北市林口區公園路168號","121.372218333333","25.0722183333333","6501700","林口區"
"244009","410-SL","2018/06/01 17:19:34","新北市林口區文化北路二段550巷29弄38號","121.379585","25.09262","6501700","林口區"
"244023","483-VK","2018/06/01 17:19:38","新北市林口區仁愛路一段384號","121.387773333333","25.07668","6501700","林口區"
"244017","485-VK","2018/06/01 17:19:36","新北市林口區粉寮69號","121.40498","25.09089","6501700","林口區"
"244025","837-TS","2018/06/01 17:19:34","新北市林口區民族路157號","121.36707","25.0764816666667","6501700","林口區"
"244021","838-TS","2018/06/01 17:19:45","新北市林口區粉寮路二段272-3號","121.405021666667","25.095075","6501700","林口區"
"231046","188-VK","2018/06/01 17:19:35","新北市新店區直潭路92號","121.530905","24.9375883333333","6500600","新店區"
"241011","013-R5","2018/06/01 17:19:37","新北市三重區長壽街120巷113號","121.501808333333","25.071445","6500200","三重區"
"241028","022-UY","2018/06/01 17:19:38","新北市三重區仁化商場15號","121.493743333333","25.059225","6500200","三重區"
"241008","059-VK","2018/06/01 17:19:44","新北市三重區永福街72巷37號","121.480218333333","25.0763316666667","6500200","三重區"
"241015","062-VK","2018/06/01 17:19:41","新北市三重區長元街82-1號","121.501893333333","25.066265","6500200","三重區"
"241017","063-VK","2018/06/01 17:19:34","新北市三重區大同北路52號","121.495051666667","25.0630316666667","6500200","三重區"
"241024","065-VK","2018/06/01 17:19:46","新北市三重區中正北路193巷21弄14號","121.477233333333","25.0706333333333","6500200","三重區"
"241026","066-VK","2018/06/01 17:19:49","新北市三重區文化南路42號","121.500428333333","25.0602733333333","6500200","三重區"
"241002","090-VK","2018/06/01 17:19:27","新北市三重區仁義街379號","121.494646666667","25.085165","6500200","三重區"
"241003","091-VK","2018/06/01 17:19:37","新北市三重區五華街148號","121.491051666667","25.0838866666667","6500200","三重區"
"241013","742-BX","2018/06/01 17:19:37","新北市三重區仁愛街82巷18號","121.494356666667","25.0732383333333","6500200","三重區"
"241005","262-UM","2018/06/01 17:19:44","新北市三重區永安北路二段25巷6號","121.482335","25.0818466666667","6500200","三重區"
"241009","265-UM","2018/06/01 17:19:46","新北市三重區仁美街87號","121.485983333333","25.0799116666667","6500200","三重區"
"241016","266-UM","2018/06/01 17:19:47","新北市三重區大同北路54巷1號","121.494123333333","25.0635733333333","6500200","三重區"
"241022","267-UM","2018/06/01 17:19:27","新北市三重區重陽路二段36號","121.48696","25.0631066666667","6500200","三重區"
"241018","268-UM","2018/06/01 17:19:30","新北市三重區大智街67號","121.492451666667","25.0681966666667","6500200","三重區"
"241007","398-BY","2018/06/01 17:19:36","新北市三重區慈愛街9號","121.485031666667","25.0786416666667","6500200","三重區"
"241025","413-TH","2018/06/01 17:19:36","新北市三重區中正北路357號","121.472865","25.071675","6500200","三重區"
"241020","478-VK","2018/06/01 17:19:39","新北市三重區自強路三段7巷36號","121.488198333333","25.072275","6500200","三重區"
"241030","480-VK","2018/06/01 17:19:34","新北市三重區成功路73巷18號","121.489435","25.0519616666667","6500200","三重區"
"241014","543-UM","2018/06/01 17:19:30","新北市三重區三和路二段83號","121.500031666667","25.068415","6500200","三重區"
"241023","545-UM","2018/06/01 17:19:42","新北市三重區三民街150號","121.482483333333","25.0653833333333","6500200","三重區"
"241019","KEA-2593","2018/06/01 17:19:33","新北市三重區忠孝路二段54號","121.484965","25.0704816666667","6500200","三重區"
"241006","AAD-863","2018/06/01 17:19:47","新北市三重區車路頭街139巷14號","121.484321666667","25.0761966666667","6500200","三重區"
"241002","887-TS","2018/06/01 17:19:47","新北市三重區中華路20巷2號","121.483146666667","25.060525","6500200","三重區"
"241012","941-UM","2018/06/01 17:19:44","新北市三重區仁興街31巷39號","121.500303333333","25.075465","6500200","三重區"
"241033","AAC-255","2018/06/01 17:19:28","新北市三重區中興北街182號","121.468956666667","25.057795","6500200","三重區"
"235062","800-TS","2018/06/01 16:53:29","新北市中和區員山路36巷16-3號","121.484873333333","24.9918333333333","6500300","中和區"
"247024","893-R6","2018/06/01 17:19:48","新北市蘆洲區長榮路282號","121.460128333333","25.0867566666667","6501400","蘆洲區"
"247014","546-UM","2018/06/01 17:19:26","新北市蘆洲區中正路94號","121.470273333333","25.0840033333333","6501400","蘆洲區"
"247022","500-BY","2018/06/01 17:19:36","新北市蘆洲區三民路128巷29-2號","121.470065","25.0894283333333","6501400","蘆洲區"
"247010","341-TH","2018/06/01 17:19:45","新北市蘆洲區三民路26巷12號","121.476891666667","25.0827816666667","6501400","蘆洲區"
"247012","339-TH","2018/06/01 17:19:48","新北市蘆洲區信義路319巷8號","121.477851666667","25.0862733333333","6501400","蘆洲區"
"247004","337-TH","2018/06/01 17:19:30","新北市蘆洲區中原路63-1號","121.458691666667","25.0820816666667","6501400","蘆洲區"
"247006","336-TH","2018/06/01 17:19:31","新北市蘆洲區永安南路二段150號","121.461948333333","25.07874","6501400","蘆洲區"
"247018","057-VK","2018/06/01 17:19:37","新北市蘆洲區民權路82巷2號","121.474831666667","25.0876516666667","6501400","蘆洲區"
"247008","056-VK","2018/06/01 17:19:35","新北市三重區永福街135巷32弄21號","121.476781666667","25.0766833333333","6501400","蘆洲區"
"247016","007-UY","2018/06/01 17:19:35","新北市蘆洲區正和街96巷27號","121.467501666667","25.0814416666667","6501400","蘆洲區"
"247002","002-UY","2018/06/01 17:19:43","新北市蘆洲區永樂街38巷33弄17號","121.457466666667","25.0896183333333","6501400","蘆洲區"
"247020","001-UY","2018/06/01 17:19:29","新北市蘆洲區民族路446-4號","121.472623333333","25.0920216666667","6501400","蘆洲區"
"228002","663-BX","2018/06/01 17:19:46","新北市貢寮區雙玉里田寮洋街38-1號","121.926833333333","25.0143583333333","6502600","貢寮區"
"228001","670-TC","2018/06/01 17:19:38","新北市貢寮區仁理村尖山腳街18-3號","121.925493333333","25.0483216666667","6502600","貢寮區"
"228003","828-UM","2018/06/01 17:19:42","新北市貢寮區福隆里虎子山街21號","121.939213333333","25.0184466666667","6502600","貢寮區"
"224006","676-BX","2018/06/01 17:19:32","新北市瑞芳區大寮路2-1號","121.785703333333","25.1012333333333","6501200","瑞芳區"
"224008","285-BY","2018/06/01 17:19:46","新北市瑞芳區侯硐路258號","121.83057","25.0890916666667","6501200","瑞芳區"
"224009","273-VK","2018/06/01 17:19:49","新北市瑞芳區汽車路9-13號","121.846101666667","25.11123","6501200","瑞芳區"
"224005","271-BY","2018/06/01 17:19:40","新北市瑞芳區鼻頭路247號","121.912641666667","25.1239333333333","6501200","瑞芳區"
"227003","642-TC","2018/06/01 17:19:45","新北市雙溪區上林里內平林90號","121.82755","25.0275033333333","6502500","雙溪區"
"251004","009-UM","2018/06/01 17:18:18","新北市淡水區中正東路二段88巷15號","121.459128333333","25.1505683333333","6501000","淡水區"
"251005","010-UM","2018/06/01 17:19:36","新北市淡水區鄧公路29巷2號","121.451643333333","25.1698733333333","6501000","淡水區"
"251002","012-UM","2018/06/01 17:19:41","新北市淡水區中正路二段31號","121.419371666667","25.18161","6501000","淡水區"
"251008","180-VK","2018/06/01 17:19:35","新北市淡水區大同路285號","121.46807","25.14247","6501000","淡水區"
"251010","413-VK","2018/06/01 17:19:34","新北市淡水區中正路二段211號","121.426165","25.1890533333333","6501000","淡水區"
"251007","442-VK","2018/06/01 17:19:38","新北市淡水區民生路60號","121.462105","25.1379516666667","6501000","淡水區"
"251012","443-VK","2018/06/01 17:19:43","新北市淡水區中山北路一段156號","121.444108333333","25.1779083333333","6501000","淡水區"
"251006","561-UM","2018/06/01 17:19:41","新北市淡水區中山路189號","121.441311666667","25.1744683333333","6501000","淡水區"
"251009","575-R6","2018/06/01 17:19:37","新北市淡水區三民街22號","121.439075","25.1718166666667","6501000","淡水區"
"251011","650-BX","2018/06/01 17:19:33","新北市淡水區坪頂路128號","121.465086666667","25.1611783333333","6501000","淡水區"
"251003","673-BX","2018/06/01 17:19:42","新北市淡水區中正路二段31號","121.419538333333","25.1815083333333","6501000","淡水區"
"207003","550-UM","2018/06/01 17:19:35","新北市萬里區龜吼里美崙路53-1號","121.687595","25.1833816666667","6502800","萬里區"
"252002","178-VK","2018/06/01 17:19:37","新北市三芝區忠孝街1-15號","121.50554","25.2539216666667","6502100","三芝區"
"252001","292-VK","2018/06/01 17:19:40","新北市三芝區淡金路一段4-5號","121.498081666667","25.2597016666667","6502100","三芝區"
"242058","986-R7","2018/06/01 17:19:34","新北市新莊區中正路400號","121.441646666667","25.0339283333333","6500500","新莊區"
"242054","751-BX","2018/06/01 17:19:30","新北市新莊區環河路636-7號","121.436708333333","25.0108483333333","6500500","新莊區"
"242027","615-BX","2018/06/01 17:19:46","新北市新莊區中港路266號","121.453205","25.0438566666667","6500500","新莊區"
"242025","613-BX","2018/06/01 17:19:46","新北市新莊區中港一街161號","121.447251666667","25.04491","6500500","新莊區"
"242029","612-BX","2018/06/01 17:19:43","新北市新莊區中和街174號","121.44752","25.0491733333333","6500500","新莊區"
"242041","566-BX","2018/06/01 17:19:46","新北市新莊區中正路471-1號","121.441688333333","25.0338433333333","6500500","新莊區"
"242046","497-BY","2018/06/01 17:19:48","新北市新莊區中正路483號","121.441168333333","25.0337483333333","6500500","新莊區"
"242056","440-UM","2018/06/01 17:19:32","新北市新莊區新莊路664-2號","121.4421","25.032935","6500500","新莊區"
"242037","415-TV","2018/06/01 17:19:29","新北市新莊區中正路475號","121.44159","25.0337783333333","6500500","新莊區"
"242007","413-TV","2018/06/01 17:19:44","新北市新莊區新泰路502巷4號","121.4427","25.04637","6500500","新莊區"
"242044","400-BY","2018/06/01 17:19:47","新北市新莊區民安路29號","121.423375","25.0275916666667","6500500","新莊區"
"242023","362-BY","2018/06/01 17:19:40","新北市新莊區新泰路498號","121.442613333333","25.046085","6500500","新莊區"
"242060","353-BY","2018/06/01 17:19:29","新北市泰山區磚雅厝3號","121.442013333333","25.04182","6500500","新莊區"
"242009","132-UY","2018/06/01 17:19:39","新北市新莊區中誠街181號","121.447561666667","25.047135","6500500","新莊區"
"242032","135-UY","2018/06/01 17:19:45","新北市新莊區三和路12-11號","121.442136666667","25.0369516666667","6500500","新莊區"
"242048","172-VK","2018/06/01 17:19:40","新北市新莊區富國路77巷7號","121.420388333333","25.0261433333333","6500500","新莊區"
"242017","175-VK","2018/06/01 17:19:31","新北市新莊區中平路82巷26號","121.445943333333","25.0448583333333","6500500","新莊區"
"242005","176-VK","2018/06/01 17:19:44","新北市新莊區中平路82巷32-1號","121.446208333333","25.0449033333333","6500500","新莊區"
"242015","346-TH","2018/06/01 17:19:43","新北市新莊區公園一路103-1號","121.444708333333","25.03798","6500500","新莊區"
"242039","347-TH","2018/06/01 17:19:39","新北市新莊區民安路316號","121.42858","25.0220366666667","6500500","新莊區"
"242021","348-TH","2018/06/01 17:19:36","新北市新莊區中平路82巷29號","121.44626","25.0450183333333","6500500","新莊區"
"242050","349-TH","2018/06/01 17:19:38","新北市新莊區瓊林路172-2號","121.440696666667","25.02271","6500500","新莊區"
"242019","350-TH","2018/06/01 17:19:35","新北市新莊區新泰路488號","121.442406666667","25.0458216666667","6500500","新莊區"
"242013","351-TH","2018/06/01 17:19:33","新北市新莊區三和路12-10號","121.442106666667","25.0367583333333","6500500","新莊區"
"238019","599-UM","2018/06/01 17:19:47","新北市樹林區八德街271號","121.42221","24.9784783333333","6500700","樹林區"
"238018","571-TV","2018/06/01 17:19:38","新北市樹林區樹中街57號","121.42117","24.98543","6500700","樹林區"
"238024","5061-A6","2018/06/01 17:19:40","新北市樹林區樹新路81號","121.427548333333","24.995435","6500700","樹林區"
"238022","KEA-2213","2018/06/01 17:19:37","新北市樹林區仁愛街73巷1號","121.423595","24.9827516666667","6500700","樹林區"
"238021","KEA-2539","2018/06/01 17:19:48","新北市樹林區西圳街一段156號","121.395175","24.96249","6500700","樹林區"
"238017","283-BY","2018/06/01 17:19:47","新北市樹林區大安路626號","121.411226666667","24.98268","6500700","樹林區"
"238014","282-BY","2018/06/01 17:19:49","新北市樹林區大安路616號","121.411443333333","24.9830166666667","6500700","樹林區"
"238020","268-VK","2018/06/01 17:19:34","新北市樹林區千歲街101-2號","121.428538333333","25.0008983333333","6500700","樹林區"
"238026","172-UY","2018/06/01 17:19:41","新北市樹林區味王街46巷8號","121.404098333333","24.9737416666667","6500700","樹林區"
"238016","169-UY","2018/06/01 17:19:42","新北市樹林區中山路二段10號","121.417635","24.9850733333333","6500700","樹林區"
"239007","AAC-297","2018/06/01 17:19:47","新北市鶯歌區光復街25號","121.351535","24.9555066666667","6500800","鶯歌區"
"239006","891-R6","2018/06/01 17:19:41","新北市鶯歌區鶯桃路301號","121.333548333333","24.9606533333333","6500800","鶯歌區"
"239008","527-UM","2018/06/01 17:19:37","新北市鶯歌區西湖街243巷27號","121.339323333333","24.96498","6500800","鶯歌區"
"239005","526-UM","2018/06/01 17:19:48","新北市鶯歌區福德二街24號","121.32954","24.9671283333333","6500800","鶯歌區"
"239001","417-VK","2018/06/01 17:19:32","新北市鶯歌區尖山路234號","121.343053333333","24.9467533333333","6500800","鶯歌區"
"239003","360-BY","2018/06/01 17:19:47","新北市鶯歌區德昌二街3巷1-1號","121.333208333333","24.9592266666667","6500800","鶯歌區"
"239002","359-BY","2018/06/01 17:19:35","新北市鶯歌區建國路162號","121.350363333333","24.953665","6500800","鶯歌區"
"239004","193-VK","2018/06/01 17:19:28","新北市鶯歌區文化路256巷15弄31號","121.352326666667","24.94684","6500800","鶯歌區"
"242002","KEA-2550","2018/06/01 17:19:42","新北市新莊區新泰路319號","121.4451","25.0414483333333","6500500","新莊區"
"220014","255-TC","2018/06/01 16:51:45","新北市板橋區四川路二段橋頭1巷1號","121.447115","24.9945266666667","6500100","板橋區"
"235061","KEA-2875","2018/06/01 17:19:34","新北市中和區員山路36巷16-3號","121.484956666667","24.9914533333333","6500300","中和區"
