"lineid","car","time","location","longitude","latitude","cityid","cityname"
"249005","172-UM","2018/06/01 17:29:38","新北市八里區荖阡坑路32-1號","121.404201666667","25.1278116666667","6502300","八里區"
"249001","173-UM","2018/06/01 17:29:45","新北市八里區大崁腳47-3號","121.424471666667","25.1589983333333","6502300","八里區"
"249004","303-UY","2018/06/01 17:29:36","新北市八里區賢三街162號","121.414711666667","25.1568233333333","6502300","八里區"
"249002","305-UY","2018/06/01 17:29:44","新北市八里區龍米路一段438號","121.450676666667","25.1339433333333","6502300","八里區"
"249003","593-UM","2018/06/01 17:29:31","新北市八里區中山路二段297號","121.401253333333","25.148135","6502300","八里區"
"232011","375-UM","2018/06/01 17:29:47","新北市坪林區北宜路八段558號","121.71816","24.9092533333333","6502000","坪林區"
"244013","069-UM","2018/06/01 17:29:31","新北市林口區文化一路二段40號","121.38059","25.0773066666667","6501700","林口區"
"244007","080-UY","2018/06/01 17:29:39","新北市林口區湖子15-5號","121.386208333333","25.0906966666667","6501700","林口區"
"244019","403-UM","2018/06/01 17:29:34","新北市林口區文化一路一段125-1號","121.37353","25.071465","6501700","林口區"
"244009","410-SL","2018/06/01 17:29:34","新北市林口區中北一街17巷13號","121.385016666667","25.0874516666667","6501700","林口區"
"244023","483-VK","2018/06/01 17:29:38","新北市林口區東明一街55巷2號","121.391631666667","25.07161","6501700","林口區"
"244017","485-VK","2018/06/01 17:29:36","新北市林口區文化一路一段201號","121.378071666667","25.0748216666667","6501700","林口區"
"244011","657-BX","2018/06/01 17:29:37","新北市林口區竹林路1-10號","121.386451666667","25.0768833333333","6501700","林口區"
"244025","837-TS","2018/06/01 17:29:34","新北市林口區忠孝路71號","121.36583","25.0751383333333","6501700","林口區"
"244021","838-TS","2018/06/01 17:29:45","新北市林口區粉寮路一段77-1號","121.396981666667","25.07906","6501700","林口區"
"231046","188-VK","2018/06/01 17:29:35","新北市新店區直潭路92號","121.530911666667","24.9375933333333","6500600","新店區"
"241011","013-R5","2018/06/01 17:29:37","新北市三重區河邊北街124巷9號","121.50337","25.0714433333333","6500200","三重區"
"241008","059-VK","2018/06/01 17:29:44","新北市三重區車路頭街135-1號","121.484231666667","25.0759916666667","6500200","三重區"
"241015","062-VK","2018/06/01 17:29:43","新北市三重區開元街30號","121.503626666667","25.0658316666667","6500200","三重區"
"241017","063-VK","2018/06/01 17:29:34","新北市三重區大同北路34巷50號","121.493625","25.0619883333333","6500200","三重區"
"241024","065-VK","2018/06/01 17:29:46","新北市三重區大勇街82巷15弄13號","121.480345","25.0718366666667","6500200","三重區"
"241013","742-BX","2018/06/01 17:29:37","新北市三重區仁福街64巷39號","121.497583333333","25.0759283333333","6500200","三重區"
"241005","262-UM","2018/06/01 17:29:44","新北市三重區永安北路二段33號","121.482326666667","25.0822416666667","6500200","三重區"
"241009","265-UM","2018/06/01 17:29:46","新北市三重區車路頭街139巷14號","121.484335","25.076175","6500200","三重區"
"241016","266-UM","2018/06/01 17:29:47","新北市三重區信義西街138號","121.495391666667","25.064255","6500200","三重區"
"241007","398-BY","2018/06/01 17:26:36","新北市三重區三和路四段145巷82號","121.486533333333","25.07891","6500200","三重區"
"241025","413-TH","2018/06/01 17:29:36","新北市三重區三民街327號","121.477018333333","25.068995","6500200","三重區"
"241020","478-VK","2018/06/01 17:29:39","新北市三重區忠孝路一段183號","121.487591666667","25.0715316666667","6500200","三重區"
"241030","480-VK","2018/06/01 17:29:34","新北市三重區新興路5號","121.492705","25.053085","6500200","三重區"
"241014","543-UM","2018/06/01 17:29:30","新北市三重區安和路15號","121.501238333333","25.0684016666667","6500200","三重區"
"241023","545-UM","2018/06/01 17:29:42","新北市三重區忠孝路三段84巷30號","121.481526666667","25.06416","6500200","三重區"
"241019","KEA-2593","2018/06/01 17:29:33","新北市三重區自強路二段26巷11號","121.489015","25.0691033333333","6500200","三重區"
"241002","887-TS","2018/06/01 17:29:47","新北市三重區名源街59號","121.482036666667","25.0593283333333","6500200","三重區"
"241012","941-UM","2018/06/01 17:29:35","新北市三重區仁興街24巷1號","121.499283333333","25.0752016666667","6500200","三重區"
"241033","AAC-255","2018/06/01 17:29:48","新北市三重區中興北街102號","121.468986666667","25.05438","6500200","三重區"
"247024","893-R6","2018/06/01 17:29:48","新北市蘆洲區長興路296-8號","121.46062","25.09024","6501400","蘆洲區"
"247014","546-UM","2018/06/01 17:29:46","新北市蘆洲區三民路33號","121.475425","25.0830066666667","6501400","蘆洲區"
"247022","500-BY","2018/06/01 17:29:36","新北市蘆洲區三民路260號","121.467516666667","25.0901316666667","6501400","蘆洲區"
"247010","341-TH","2018/06/01 17:29:45","新北市蘆洲區信義路163號","121.479663333333","25.0818966666667","6501400","蘆洲區"
"247012","339-TH","2018/06/01 17:29:48","新北市蘆洲區民族路42號","121.476656666667","25.08435","6501400","蘆洲區"
"247004","337-TH","2018/06/01 17:29:30","新北市蘆洲區長安街233巷28號","121.45826","25.0825333333333","6501400","蘆洲區"
"247006","336-TH","2018/06/01 17:29:31","新北市蘆洲區九芎街90巷27號","121.464471666667","25.0813583333333","6501400","蘆洲區"
"247018","057-VK","2018/06/01 17:29:37","新北市蘆洲區三民路110巷45號","121.472721666667","25.0879133333333","6501400","蘆洲區"
"247008","056-VK","2018/06/01 17:29:41","新北市蘆洲區民生街105號","121.473433333333","25.0785633333333","6501400","蘆洲區"
"247016","007-UY","2018/06/01 17:29:35","新北市蘆洲區光華路22巷57號","121.467923333333","25.08512","6501400","蘆洲區"
"247002","002-UY","2018/06/01 17:29:43","新北市蘆洲區永樂街38巷57弄1號","121.458401666667","25.0901416666667","6501400","蘆洲區"
"247020","001-UY","2018/06/01 17:29:29","新北市蘆洲區水湳街150號","121.470086666667","25.0937566666667","6501400","蘆洲區"
"228002","663-BX","2018/06/01 17:29:46","新北市貢寮區福隆里興隆街21-1號","121.943361666667","25.0165016666667","6502600","貢寮區"
"228001","670-TC","2018/06/01 17:29:38","新北市貢寮區仁理村仁愛路39號","121.925051666667","25.0532816666667","6502600","貢寮區"
"228003","828-UM","2018/06/01 17:29:42","新北市貢寮區仁理村仁和路2-1號","121.92308","25.04882","6502600","貢寮區"
"224010","AGQ-8101","2018/06/01 17:29:45","新北市瑞芳區逢甲路29號","121.809185","25.108845","6501200","瑞芳區"
"224006","676-BX","2018/06/01 17:29:32","新北市瑞芳區傑魚坑路93號","121.792526666667","25.11044","6501200","瑞芳區"
"224008","285-BY","2018/06/01 17:29:48","新北市瑞芳區九芎橋路48號","121.83288","25.092905","6501200","瑞芳區"
"224009","273-VK","2018/06/01 17:29:49","新北市瑞芳區山尖路174號","121.847791666667","25.1119","6501200","瑞芳區"
"224005","271-BY","2018/06/01 17:29:40","新北市瑞芳區明里路122號","121.86503","25.1221366666667","6501200","瑞芳區"
"227003","642-TC","2018/06/01 17:29:45","新北市雙溪區上林里新寮子1號","121.840905","25.0320483333333","6502500","雙溪區"
"251004","009-UM","2018/06/01 17:18:18","新北市淡水區中正東路二段88巷15號","121.459128333333","25.1505683333333","6501000","淡水區"
"251005","010-UM","2018/06/01 17:29:36","新北市淡水區鄧公路31巷13號","121.451805","25.1706616666667","6501000","淡水區"
"251002","012-UM","2018/06/01 17:29:41","新北市淡水區中正路261號","121.431526666667","25.174905","6501000","淡水區"
"251008","180-VK","2018/06/01 17:29:44","新北市淡水區大同路124巷1號","121.463446666667","25.1403716666667","6501000","淡水區"
"251010","413-VK","2018/06/01 17:29:34","新北市淡水區中正路二段211號","121.426168333333","25.1890816666667","6501000","淡水區"
"251007","442-VK","2018/06/01 17:29:38","新北市淡水區民生路54號","121.461983333333","25.1379066666667","6501000","淡水區"
"251012","443-VK","2018/06/01 17:29:43","新北市淡水區北新路111號","121.448166666667","25.1784016666667","6501000","淡水區"
"251006","561-UM","2018/06/01 17:29:41","新北市淡水區大仁街50號","121.442763333333","25.1757383333333","6501000","淡水區"
"251009","575-R6","2018/06/01 17:29:37","新北市淡水區重建街1巷6-1號","121.439708333333","25.173465","6501000","淡水區"
"251011","650-BX","2018/06/01 17:29:13","新北市淡水區坪頂路712號","121.482491666667","25.1585166666667","6501000","淡水區"
"251003","673-BX","2018/06/01 17:29:42","新北市淡水區中正路259號","121.432595","25.174635","6501000","淡水區"
"207003","550-UM","2018/06/01 17:29:44","新北市萬里區龜吼里亭路3號","121.68326","25.189585","6502800","萬里區"
"207004","225-TW","2018/06/01 17:29:49","新北市萬里區萬里里景美路11-2號","121.685391666667","25.173005","6502800","萬里區"
"252002","178-VK","2018/06/01 17:29:37","新北市三芝區忠孝街1-16號","121.505558333333","25.25388","6502100","三芝區"
"252001","292-VK","2018/06/01 17:29:40","新北市三芝區淡金路一段3號","121.498093333333","25.2596716666667","6502100","三芝區"
"237015","649-BX","2018/06/01 17:29:39","新北市三峽區中山路459巷58號","121.356025","24.9366366666667","6500900","三峽區"
"242034","AAC-296","2018/06/01 17:29:25","新北市新莊區新莊路364號","121.449511666667","25.0335666666667","6500500","新莊區"
"242058","986-R7","2018/06/01 17:29:45","新北市新莊區中正路619號","121.431916666667","25.0318416666667","6500500","新莊區"
"242054","751-BX","2018/06/01 17:29:30","新北市新莊區瓊林南路305巷2號","121.434228333333","25.0059433333333","6500500","新莊區"
"242027","615-BX","2018/06/01 17:29:46","新北市新莊區思源路103號","121.460201666667","25.0417433333333","6500500","新莊區"
"242025","613-BX","2018/06/01 17:29:46","新北市新莊區復興路二段31號","121.454388333333","25.0440716666667","6500500","新莊區"
"242029","612-BX","2018/06/01 17:29:43","新北市新莊區復興路二段174號","121.458598333333","25.0443716666667","6500500","新莊區"
"242041","566-BX","2018/06/01 17:29:46","新北市新莊區新樹路113巷17號","121.438925","25.0265333333333","6500500","新莊區"
"242046","497-BY","2018/06/01 17:29:48","新北市新莊區新樹路65-4號","121.439491666667","25.0309433333333","6500500","新莊區"
"242056","440-UM","2018/06/01 17:29:32","新北市新莊區新泰路47號","121.449528333333","25.033625","6500500","新莊區"
"242037","415-TV","2018/06/01 17:29:49","新北市新莊區建國一路288巷46號","121.434293333333","25.0257383333333","6500500","新莊區"
"242007","413-TV","2018/06/01 17:29:44","新北市新莊區自強街39號","121.45467","25.0466983333333","6500500","新莊區"
"242044","400-BY","2018/06/01 17:29:47","新北市新莊區富國路68號","121.419776666667","25.0259683333333","6500500","新莊區"
"242023","362-BY","2018/06/01 17:29:40","新北市新莊區公園路53號","121.453595","25.0401533333333","6500500","新莊區"
"242060","353-BY","2018/06/01 17:29:29","新北市新莊區瓊林路59-20號","121.440155","25.0217866666667","6500500","新莊區"
"242009","132-UY","2018/06/01 17:29:39","新北市新莊區中原路187-1號","121.452786666667","25.0543916666667","6500500","新莊區"
"242032","135-UY","2018/06/01 17:29:45","新北市新莊區新泰路401巷29-1號","121.442478333333","25.0439266666667","6500500","新莊區"
"242048","172-VK","2018/06/01 17:29:40","新北市新莊區龍安路256號","121.421313333333","25.0195216666667","6500500","新莊區"
"242017","175-VK","2018/06/01 17:29:42","新北市新莊區德豐街4號","121.451673333333","25.0439516666667","6500500","新莊區"
"242005","176-VK","2018/06/01 17:29:44","新北市新莊區中港路288巷22號","121.453725","25.0446333333333","6500500","新莊區"
"242015","346-TH","2018/06/01 17:29:43","新北市新莊區新泰路196號","121.447078333333","25.0383083333333","6500500","新莊區"
"242039","347-TH","2018/06/01 17:29:39","新北市新莊區民安路292號","121.428031666667","25.02167","6500500","新莊區"
"242021","348-TH","2018/06/01 17:29:36","新北市新莊區中華路一段2號","121.452131666667","25.03632","6500500","新莊區"
"242050","349-TH","2018/06/01 17:29:38","新北市新莊區新樹路445號","121.432946666667","25.0135516666667","6500500","新莊區"
"242019","350-TH","2018/06/01 17:29:35","新北市新莊區中港路72號","121.455513333333","25.0389233333333","6500500","新莊區"
"242013","351-TH","2018/06/01 17:29:33","新北市新莊區中誠街16巷9號","121.45183","25.0487416666667","6500500","新莊區"
"238015","755-BX","2018/06/01 17:29:34","新北市樹林區大安路267號","121.41906","24.993675","6500700","樹林區"
"238019","599-UM","2018/06/01 17:29:33","新北市樹林區太平路1-9號","121.418693333333","24.9844316666667","6500700","樹林區"
"238018","571-TV","2018/06/01 17:29:38","新北市樹林區鎮前街181號","121.421793333333","24.9869216666667","6500700","樹林區"
"238024","5061-A6","2018/06/01 17:29:40","新北市樹林區博愛街161號","121.425443333333","24.9901516666667","6500700","樹林區"
"238022","KEA-2213","2018/06/01 17:29:37","新北市樹林區仁愛街20號","121.422288333333","24.9820016666667","6500700","樹林區"
"238021","KEA-2539","2018/06/01 17:29:48","新北市樹林區西圳街一段203巷35號","121.395011666667","24.9577083333333","6500700","樹林區"
"238025","303-VK","2018/06/01 17:29:32","新北市樹林區保安二街84巷1號","121.423155","24.9955383333333","6500700","樹林區"
"238017","283-BY","2018/06/01 17:29:27","新北市樹林區保安街二段179-4號","121.415168333333","25.0032583333333","6500700","樹林區"
"238014","282-BY","2018/06/01 17:29:49","新北市樹林區長壽街80號","121.42058","24.995","6500700","樹林區"
"238020","268-VK","2018/06/01 17:29:34","新北市樹林區俊英街108-1號","121.427448333333","25.0053633333333","6500700","樹林區"
"238026","172-UY","2018/06/01 17:29:41","新北市樹林區中山路三段27巷3弄12-2號","121.401661666667","24.9737283333333","6500700","樹林區"
"238016","169-UY","2018/06/01 17:29:42","新北市樹林區長壽街2巷1號","121.423883333333","24.9934716666667","6500700","樹林區"
"239007","AAC-297","2018/06/01 17:29:47","新北市鶯歌區中山路48號","121.352066666667","24.9570683333333","6500800","鶯歌區"
"239006","891-R6","2018/06/01 17:29:41","新北市鶯歌區鶯桃路457號","121.33208","24.9657583333333","6500800","鶯歌區"
"239008","527-UM","2018/06/01 17:29:37","新北市鶯歌區宏德司法新村89號","121.3347","24.9793383333333","6500800","鶯歌區"
"239005","526-UM","2018/06/01 17:29:48","新北市鶯歌區福隆一街36號","121.32521","24.971425","6500800","鶯歌區"
"239001","417-VK","2018/06/01 17:29:32","新北市鶯歌區中正三路171號","121.336351666667","24.940015","6500800","鶯歌區"
"239003","360-BY","2018/06/01 17:29:47","新北市鶯歌區德昌街9-2號","121.333633333333","24.960255","6500800","鶯歌區"
"239002","359-BY","2018/06/01 17:29:35","新北市鶯歌區南雅路16號","121.349435","24.954165","6500800","鶯歌區"
"239004","193-VK","2018/06/01 17:29:48","新北市鶯歌區三鶯路23號","121.35607","24.941595","6500800","鶯歌區"
"221008","489-VK","2018/06/01 17:29:37","新北市汐止區康寧街901號","121.651363333333","25.0750083333333","6501100","汐止區"
"221033","647-BX","2018/06/01 17:29:36","新北市汐止區大同路二段132號","121.651595","25.0635583333333","6501100","汐止區"
"242002","KEA-2550","2018/06/01 17:29:42","新北市新莊區新莊路154號","121.455236666667","25.0354733333333","6500500","新莊區"
"235061","KEA-2875","2018/06/01 17:20:06","新北市中和區員山路36巷16-2號","121.485348333333","24.9916683333333","6500300","中和區"
