"lineid","car","time","location","longitude","latitude","cityid","cityname"
"234026","9371-KE","2018/06/01 17:59:48","新北市永和區永和路一段45-1號","121.51275","25.006265","6500400","永和區"
"234011","9373-KE","2018/06/01 17:41:41","新北市永和區福和路1號","121.525638333333","25.0093616666667","6500400","永和區"
"249005","172-UM","2018/06/01 17:59:38","新北市八里區荖阡坑路16-8號","121.398711666667","25.1385033333333","6502300","八里區"
"249001","173-UM","2018/06/01 17:59:45","新北市八里區龍米路二段30號","121.448671666667","25.1401166666667","6502300","八里區"
"249004","303-UY","2018/06/01 17:59:36","新北市八里區龍米路三段42號","121.428091666667","25.1591783333333","6502300","八里區"
"249002","305-UY","2018/06/01 17:59:44","新北市八里區龍米路一段438號","121.450928333333","25.1340233333333","6502300","八里區"
"249003","593-UM","2018/06/01 17:59:31","新北市八里區中山路二段181號","121.404733333333","25.150175","6502300","八里區"
"248006","077-UY","2018/06/01 17:59:40","新北市五股區中興路二段83巷26-6號","121.459996666667","25.0750116666667","6501500","五股區"
"248008","095-VK","2018/06/01 17:59:47","新北市五股區更洲路6號","121.458486666667","25.0786333333333","6501500","五股區"
"248018","225-UY","2018/06/01 17:59:46","新北市五股區中興路二段163號","121.457628333333","25.0776216666667","6501500","五股區"
"248002","678-BX","2018/06/01 17:59:36","新北市五股區中興路二段37巷28號","121.460066666667","25.07482","6501500","五股區"
"232011","375-UM","2018/06/01 17:59:47","新北市坪林區水柳腳66號","121.710055","24.93562","6502000","坪林區"
"244013","069-UM","2018/06/01 17:59:51","新北市林口區中山路26號","121.395975","25.078425","6501700","林口區"
"244007","080-UY","2018/06/01 17:59:39","新北市林口區佳林路33號","121.38669","25.0819533333333","6501700","林口區"
"244019","403-UM","2018/06/01 17:59:34","新北市林口區文化一路一段40號","121.371176666667","25.069505","6501700","林口區"
"244009","410-SL","2018/06/01 17:59:34","新北市林口區佳林路56巷3號","121.385773333333","25.0817066666667","6501700","林口區"
"244023","483-VK","2018/06/01 17:59:38","新北市林口區東湖路55巷42號","121.385566666667","25.0725483333333","6501700","林口區"
"244017","485-VK","2018/06/01 17:59:36","新北市林口區忠孝路372號","121.369278333333","25.0714333333333","6501700","林口區"
"244011","657-BX","2018/06/01 17:59:37","新北市林口區中正路238號","121.390171666667","25.07773","6501700","林口區"
"244025","837-TS","2018/06/01 17:59:34","新北市林口區文化三路一段39巷96號","121.359125","25.066975","6501700","林口區"
"244021","838-TS","2018/06/01 17:59:45","新北市林口區新寮27號","121.397068333333","25.0676366666667","6501700","林口區"
"222002","016-RS","2018/06/01 17:59:46","新北市深坑區文化街102號","121.616671666667","25.001895","6501800","深坑區"
"222003","436-BY","2018/06/01 17:59:38","新北市深坑區炮子崙23號","121.607183333333","24.9908766666667","6501800","深坑區"
"231040","047-UY","2018/06/01 17:59:41","新北市新店區安一路一段1-1號","121.519138333333","24.9610566666667","6500600","新店區"
"231046","188-VK","2018/06/01 17:59:35","新北市新店區下石厝路31號","121.532816666667","24.9333116666667","6500600","新店區"
"231054","KEA-2219","2018/06/01 17:59:37","新北市新店區安一路一段1-1號","121.519911666667","24.9611833333333","6500600","新店區"
"231050","AAD-862","2018/06/01 17:59:36","新北市新店區安一路一段1-1號","121.519585","24.96104","6500600","新店區"
"241024","065-VK","2018/06/01 17:59:46","新北市三重區力行路一段277號","121.48207","25.0716133333333","6500200","三重區"
"241016","266-UM","2018/06/01 17:59:47","新北市五股區天乙路102-22號","121.448391666667","25.1071116666667","6500200","三重區"
"241033","AAC-255","2018/06/01 17:59:48","新北市三重區重新路五段561號","121.470418333333","25.0460433333333","6500200","三重區"
"235063","006-UY","2018/06/01 17:59:38","新北市中和區員山路36巷16-3號","121.485043333333","24.9911916666667","6500300","中和區"
"235065","098-UM","2018/06/01 17:59:43","新北市中和區橋和路81號","121.489358333333","25.0051883333333","6500300","中和區"
"235058","151-BY","2018/06/01 17:59:29","新北市中和區錦和路350-1號","121.49049","24.99351","6500300","中和區"
"235038","185-VK","2018/06/01 17:59:38","新北市中和區景平路410號","121.508358333333","24.9931","6500300","中和區"
"235043","352-BY","2018/06/01 17:59:35","新北市中和區員山路36巷16-2號","121.485228333333","24.991405","6500300","中和區"
"235054","269-TV","2018/06/01 17:59:31","新北市中和區員山路36巷16-2號","121.485241666667","24.991695","6500300","中和區"
"235042","551-UM","2018/06/01 17:59:41","新北市中和區錦和路350-1號","121.49019","24.9935166666667","6500300","中和區"
"235070","558-UM","2018/06/01 17:59:43","新北市中和區員山路36巷16-2號","121.485053333333","24.9917233333333","6500300","中和區"
"235046","733-UM","2018/06/01 17:59:45","新北市中和區員山路36巷13號","121.484016666667","24.9908983333333","6500300","中和區"
"235062","800-TS","2018/06/01 17:59:39","新北市中和區中正路637巷52弄7號","121.485103333333","24.9936283333333","6500300","中和區"
"235052","805-TS","2018/06/01 17:59:48","新北市中和區員山路36巷16-2號","121.485295","24.9917916666667","6500300","中和區"
"235051","157-BY","2018/06/01 17:59:45","新北市中和區員山路36巷13號","121.484326666667","24.9910783333333","6500300","中和區"
"235037","AAC-213","2018/06/01 17:59:43","新北市中和區錦和路350-1號","121.490188333333","24.9935866666667","6500300","中和區"
"247014","546-UM","2018/06/01 17:59:46","新北市蘆洲區忠孝路66號","121.471731666667","25.08525","6501400","蘆洲區"
"247022","500-BY","2018/06/01 17:59:36","新北市蘆洲區中正路507號","121.461061666667","25.09727","6501400","蘆洲區"
"247012","339-TH","2018/06/01 17:59:48","新北市蘆洲區民族路127號","121.479648333333","25.0871983333333","6501400","蘆洲區"
"247006","336-TH","2018/06/01 17:59:33","新北市蘆洲區中華街3號","121.463955","25.081885","6501400","蘆洲區"
"247016","007-UY","2018/06/01 17:59:35","新北市蘆洲區中正路185巷78弄1號","121.46604","25.0842466666667","6501400","蘆洲區"
"226004","312-R5","2018/06/01 17:59:48","新北市平溪區石底里石筍尖23號","121.729205","25.025305","6502400","平溪區"
"228002","663-BX","2018/06/01 17:59:46","新北市貢寮區福連里香蘭街2-1號","121.968856666667","25.0235","6502600","貢寮區"
"228001","670-TC","2018/06/01 17:59:41","新北市貢寮區真理里新港街26巷53號","121.928036666667","25.0535433333333","6502600","貢寮區"
"228003","828-UM","2018/06/01 17:59:42","新北市貢寮區真理里美艷山街6-2號","121.928848333333","25.0607116666667","6502600","貢寮區"
"224010","AGQ-8101","2018/06/01 17:59:05","新北市瑞芳區山尖路209號","121.848963333333","25.1118","6501200","瑞芳區"
"224006","676-BX","2018/06/01 17:59:32","新北市瑞芳區大寮路356-1號","121.785103333333","25.1032483333333","6501200","瑞芳區"
"224002","639-TC","2018/06/01 17:59:37","新北市瑞芳區三爪子坑路151號","121.810586666667","25.1061866666667","6501200","瑞芳區"
"224008","285-BY","2018/06/01 17:59:46","新北市瑞芳區明燈路一段45巷100號","121.821333333333","25.1038883333333","6501200","瑞芳區"
"224007","275-VK","2018/06/01 17:59:31","新北市瑞芳區大寮路105-1號","121.77935","25.1011266666667","6501200","瑞芳區"
"224009","273-VK","2018/06/01 17:59:29","新北市瑞芳區金光路255號","121.850073333333","25.1077533333333","6501200","瑞芳區"
"224005","271-BY","2018/06/01 17:59:39","新北市瑞芳區深澳路163號","121.819736666667","25.1329183333333","6501200","瑞芳區"
"227003","642-TC","2018/06/01 17:59:45","新北市雙溪區共和里東榮街52號","121.866305","25.0337516666667","6502500","雙溪區"
"253005","032-BX","2018/06/01 17:59:36","新北市石門區中山路62-11號","121.567528333333","25.289625","6502200","石門區"
"253006","295-VK","2018/06/01 17:59:37","新北市石門區大丘田45-2號","121.549813333333","25.2749166666667","6502200","石門區"
"222001","KEA-2212","2018/06/01 17:59:44","新北市深坑區北深路三段7號","121.610481666667","25.000955","6501800","深坑區"
"208002","KEA-2872","2018/06/01 17:59:39","新北市金山區三界壇路91-1號","121.624861666667","25.22863","6502700","金山區"
"208003","665-BX","2018/06/01 17:59:39","新北市金山區磺港里磺港路306號","121.643871666667","25.2271533333333","6502700","金山區"
"208001","761-BX","2018/06/01 17:59:48","新北市金山區磺港里磺港路169號","121.643395","25.224825","6502700","金山區"
"251004","009-UM","2018/06/01 17:59:31","新北市淡水區民權路38號","121.460065","25.1373683333333","6501000","淡水區"
"251005","010-UM","2018/06/01 17:59:36","新北市淡水區英專路119號","121.44584","25.1724016666667","6501000","淡水區"
"251001","011-UM","2018/06/01 17:59:38","新北市淡水區民權路16號","121.463305","25.12438","6501000","淡水區"
"251002","012-UM","2018/06/01 17:59:41","新北市淡水區中正東路40號","121.45008","25.1651183333333","6501000","淡水區"
"251008","180-VK","2018/06/01 17:59:48","新北市淡水區八勢一街43-1號","121.46209","25.1561366666667","6501000","淡水區"
"251010","413-VK","2018/06/01 17:59:47","新北市淡水區中正路一段130-7號","121.42213","25.1793616666667","6501000","淡水區"
"251007","442-VK","2018/06/01 17:59:38","新北市淡水區中正東路二段145號","121.459678333333","25.14713","6501000","淡水區"
"251012","443-VK","2018/06/01 17:59:43","新北市淡水區北新路三段38巷5號","121.484481666667","25.1870483333333","6501000","淡水區"
"251006","561-UM","2018/06/01 17:59:41","新北市淡水區真理街2號","121.438815","25.1731333333333","6501000","淡水區"
"251009","575-R6","2018/06/01 17:59:37","新北市淡水區大仁街6巷1號","121.442406666667","25.174625","6501000","淡水區"
"251011","650-BX","2018/06/01 17:59:33","新北市淡水區坪頂路500號","121.477515","25.1607183333333","6501000","淡水區"
"251003","673-BX","2018/06/01 17:59:42","新北市淡水區大忠街84號","121.444966666667","25.1762716666667","6501000","淡水區"
"207003","550-UM","2018/06/01 17:59:35","新北市萬里區野柳里港東路167-1號","121.690301666667","25.2053383333333","6502800","萬里區"
"207004","225-TW","2018/06/01 17:59:29","新北市萬里區中幅里中福路48號","121.683383333333","25.1740883333333","6502800","萬里區"
"252002","178-VK","2018/06/01 17:59:37","新北市三芝區中山路二段39號","121.502918333333","25.2550816666667","6502100","三芝區"
"252003","249-BX","2018/06/01 17:59:36","新北市三芝區埔坪里埔頭坑41號","121.504543333333","25.264585","6502100","三芝區"
"252001","292-VK","2018/06/01 17:59:40","新北市三芝區中興街二段2號","121.498338333333","25.256545","6502100","三芝區"
"237004","KEA-2597","2018/06/01 17:59:38","新北市三峽區中園街126-15號","121.367016666667","24.9212283333333","6500900","三峽區"
"237007","153-BY","2018/06/01 17:59:41","新北市三峽區中正路二段66號","121.366623333333","24.9183616666667","6500900","三峽區"
"237009","210-TH","2018/06/01 17:59:38","新北市三峽區中山路106巷18-2號","121.366055","24.936675","6500900","三峽區"
"237013","252-BX","2018/06/01 17:59:29","新北市三峽區長泰街70-2號","121.376728333333","24.933565","6500900","三峽區"
"237012","275-BY","2018/06/01 17:59:39","新北市三峽區民生街23號","121.376048333333","24.9365433333333","6500900","三峽區"
"237008","302-VK","2018/06/01 17:59:35","新北市三峽區正義街181號","121.36807","24.9148566666667","6500900","三峽區"
"237014","433-BY","2018/06/01 17:59:38","新北市三峽區復興路141-1號","121.37095","24.937775","6500900","三峽區"
"237011","280-TH","2018/06/01 17:59:35","新北市三峽區介壽路二段91-3號","121.391913333333","24.93544","6500900","三峽區"
"237006","5529-G3","2018/06/01 17:59:31","新北市三峽區介壽路二段138巷1弄5號","121.396235","24.9339466666667","6500900","三峽區"
"237015","649-BX","2018/06/01 17:59:39","新北市三峽區紫微路109號","121.40783","24.91138","6500900","三峽區"
"237010","706-TV","2018/06/01 17:59:37","新北市三峽區民權街180號","121.367783333333","24.9298166666667","6500900","三峽區"
"237005","AKY-6261","2018/06/01 17:59:46","新北市三峽區復興路183號","121.36874","24.9388216666667","6500900","三峽區"
"236069","105-UM","2018/06/01 17:59:35","新北市土城區中華路二段2號","121.439415","24.9796516666667","6501300","土城區"
"236042","107-UM","2018/06/01 17:59:38","新北市土城區城林路6巷80號","121.43854","24.9797416666667","6501300","土城區"
"236079","166-UM","2018/06/01 17:59:50","新北市土城區永寧路32巷10弄5號","121.428798333333","24.9610083333333","6501300","土城區"
"236030","253-BX","2018/06/01 17:59:43","新北市土城區城林路6巷80號","121.438435","24.9796133333333","6501300","土城區"
"236026","269-VK","2018/06/01 17:59:29","新北市土城區承天路1號","121.435898333333","24.9665866666667","6501300","土城區"
"236014","270-VK","2018/06/01 17:59:44","新北市土城區城林路6巷80號","121.43857","24.9795433333333","6501300","土城區"
"236039","271-VK","2018/06/01 17:59:39","新北市土城區中正路19號","121.443395","24.97532","6501300","土城區"
"236020","401-BY","2018/06/01 17:59:42","新北市土城區城林路6巷80號","121.438803333333","24.9796216666667","6501300","土城區"
"236059","912-UM","2018/06/01 17:59:47","新北市土城區中央路三段244巷5號","121.427768333333","24.9641516666667","6501300","土城區"
"236048","913-UM","2018/06/01 17:59:45","新北市土城區城林路6巷80號","121.438733333333","24.9796716666667","6501300","土城區"
"236063","915-UM","2018/06/01 17:59:37","新北市土城區城林路6巷80號","121.438478333333","24.9797116666667","6501300","土城區"
"236055","AAC-216","2018/06/01 17:59:31","新北市土城區城林路6巷80號","121.43853","24.9797166666667","6501300","土城區"
"242034","AAC-296","2018/06/01 17:59:45","新北市新莊區福海街31巷2號","121.445181666667","25.03396","6500500","新莊區"
"242058","986-R7","2018/06/01 17:59:34","新北市新莊區新北大道七段243號","121.412966666667","25.0295883333333","6500500","新莊區"
"242054","751-BX","2018/06/01 17:59:50","新北市新莊區民安西路412-2號","121.429086666667","25.0098783333333","6500500","新莊區"
"242027","615-BX","2018/06/01 17:59:46","新北市新莊區思源路451號","121.459613333333","25.053355","6500500","新莊區"
"242025","613-BX","2018/06/01 17:59:46","新北市新莊區五工路60號","121.458265","25.0632283333333","6500500","新莊區"
"242029","612-BX","2018/06/01 17:59:43","新北市新莊區中平路110巷19號","121.446086666667","25.0461033333333","6500500","新莊區"
"242041","566-BX","2018/06/01 17:59:46","新北市新莊區壽山路31號","121.420221666667","25.0290783333333","6500500","新莊區"
"242046","497-BY","2018/06/01 17:59:28","新北市新莊區福營路185號","121.431343333333","25.0308","6500500","新莊區"
"242056","440-UM","2018/06/01 17:59:32","新北市新莊區豐年街124巷18號","121.445468333333","25.0298566666667","6500500","新莊區"
"242037","415-TV","2018/06/01 17:59:29","新北市新莊區建福路8號","121.426033333333","25.0294583333333","6500500","新莊區"
"242007","413-TV","2018/06/01 17:59:44","新北市新莊區自信街37號","121.454065","25.0482783333333","6500500","新莊區"
"242044","400-BY","2018/06/01 17:59:47","新北市新莊區雙鳳路163巷2號","121.412778333333","25.0267816666667","6500500","新莊區"
"242023","362-BY","2018/06/01 17:59:40","新北市新莊區幸福路42號","121.45784","25.0494483333333","6500500","新莊區"
"242060","353-BY","2018/06/01 17:59:49","新北市新莊區新樹路525-3號","121.432773333333","25.01005","6500500","新莊區"
"242009","132-UY","2018/06/01 17:59:39","新北市新莊區中原路189-1號","121.452393333333","25.0543633333333","6500500","新莊區"
"242032","135-UY","2018/06/01 17:59:45","新北市新莊區新泰路293號","121.445431666667","25.0407383333333","6500500","新莊區"
"242048","172-VK","2018/06/01 17:59:41","新北市新莊區萬安街47巷27號","121.422731666667","25.0243033333333","6500500","新莊區"
"242011","173-VK","2018/06/01 17:59:01","新北市新莊區中港路中慶巷13號","121.450663333333","25.0536266666667","6500500","新莊區"
"242017","175-VK","2018/06/01 17:59:31","新北市新莊區中和街60巷31號","121.449323333333","25.0449766666667","6500500","新莊區"
"242005","176-VK","2018/06/01 17:59:44","新北市新莊區福樂街71巷13號","121.456825","25.0474","6500500","新莊區"
"242015","346-TH","2018/06/01 17:59:43","新北市新莊區中平路188號","121.44475","25.048045","6500500","新莊區"
"242039","347-TH","2018/06/01 17:59:39","新北市新莊區民安路200號","121.425636666667","25.0233033333333","6500500","新莊區"
"242021","348-TH","2018/06/01 17:59:36","新北市新莊區建興街3號","121.450151666667","25.0358933333333","6500500","新莊區"
"242050","349-TH","2018/06/01 17:59:38","新北市新莊區民安西路135號","121.426465","25.0176066666667","6500500","新莊區"
"242019","350-TH","2018/06/01 17:59:35","新北市新莊區明中街51巷1號","121.456846666667","25.0395766666667","6500500","新莊區"
"242013","351-TH","2018/06/01 17:59:33","新北市新莊區幸福路821號","121.445371666667","25.0490433333333","6500500","新莊區"
"238015","755-BX","2018/06/01 17:59:34","新北市樹林區文德街4巷19號","121.419361666667","24.9920666666667","6500700","樹林區"
"238023","601-UM","2018/06/01 17:59:36","新北市樹林區龍興街31巷29號","121.404175","25.0162166666667","6500700","樹林區"
"238019","599-UM","2018/06/01 17:59:47","新北市樹林區國凱街122巷1號","121.422888333333","24.98019","6500700","樹林區"
"238018","571-TV","2018/06/01 17:58:58","新北市樹林區樹新路13號","121.426638333333","24.99386","6500700","樹林區"
"238022","KEA-2213","2018/06/01 17:59:37","新北市樹林區太元街55號","121.41869","24.9790333333333","6500700","樹林區"
"238021","KEA-2539","2018/06/01 17:59:48","新北市樹林區柑園街一段253巷1號","121.395805","24.9566016666667","6500700","樹林區"
"238025","303-VK","2018/06/01 17:59:43","新北市樹林區俊興街211巷7弄27號","121.41674","25.0134116666667","6500700","樹林區"
"238017","283-BY","2018/06/01 17:59:47","新北市樹林區三德街30巷32號","121.41461","25.01215","6500700","樹林區"
"238014","282-BY","2018/06/01 17:59:29","新北市樹林區大安路119號","121.422433333333","24.9977016666667","6500700","樹林區"
"238020","268-VK","2018/06/01 17:59:34","新北市新莊區龍安路254巷18-1號","121.420641666667","25.0184133333333","6500700","樹林區"
"238026","172-UY","2018/06/01 17:59:41","新北市樹林區中洲街16號","121.397318333333","24.9723383333333","6500700","樹林區"
"238016","169-UY","2018/06/01 17:57:25","新北市樹林區啟智街139號","121.416941666667","24.98823","6500700","樹林區"
"239007","AAC-297","2018/06/01 17:59:47","新北市鶯歌區鶯桃路55號","121.341923333333","24.9521433333333","6500800","鶯歌區"
"239006","891-R6","2018/06/01 17:59:21","新北市鶯歌區鶯桃路381巷2弄11號","121.332993333333","24.9636866666667","6500800","鶯歌區"
"239008","527-UM","2018/06/01 17:59:42","新北市鶯歌區朝陽街53巷25號","121.338363333333","24.9777483333333","6500800","鶯歌區"
"239005","526-UM","2018/06/01 17:59:28","新北市鶯歌區大湖路361巷81-1號","121.333108333333","24.9739383333333","6500800","鶯歌區"
"239001","417-VK","2018/06/01 17:59:32","新北市鶯歌區中正三路152號","121.335853333333","24.9396733333333","6500800","鶯歌區"
"239003","360-BY","2018/06/01 17:59:47","新北市鶯歌區鶯桃路213-1號","121.337056666667","24.95905","6500800","鶯歌區"
"239002","359-BY","2018/06/01 17:59:15","新北市鶯歌區光明街15巷7號","121.348985","24.9553366666667","6500800","鶯歌區"
"239004","193-VK","2018/06/01 17:59:28","新北市鶯歌區尖山路103-1號","121.348076666667","24.9491366666667","6500800","鶯歌區"
"221008","489-VK","2018/06/01 17:59:37","新北市汐止區明峰街17號","121.634681666667","25.0714316666667","6501100","汐止區"
"221036","130-UY","2018/06/01 17:59:34","新北市汐止區大同路三段155號","121.670253333333","25.0773883333333","6501100","汐止區"
"221015","131-UY","2018/06/01 17:59:49","新北市汐止區長江街323號","121.666591666667","25.0816933333333","6501100","汐止區"
"221010","269-BY","2018/06/01 17:59:42","新北市汐止區汐萬路二段245巷42號","121.644493333333","25.087885","6501100","汐止區"
"221012","278-VK","2018/06/01 17:59:40","新北市汐止區長興街二段50巷1號","121.674088333333","25.08182","6501100","汐止區"
"221023","279-VK","2018/06/01 17:59:46","新北市汐止區明峰街162號","121.629225","25.0705566666667","6501100","汐止區"
"221032","280-BY","2018/06/01 17:59:43","新北市汐止區民權街一段16號","121.620893333333","25.05339","6501100","汐止區"
"221027","281-BY","2018/06/01 17:59:45","新北市汐止區大同路二段374號","121.657825","25.0671733333333","6501100","汐止區"
"221029","298-VK","2018/06/01 17:59:39","新北市汐止區樟樹二路332號","121.641461666667","25.0703716666667","6501100","汐止區"
"221021","299-VK","2018/06/01 17:59:33","新北市汐止區復興路24號","121.655888333333","25.0637816666667","6501100","汐止區"
"221031","353-TW","2018/06/01 17:59:40","新北市汐止區中興路145號","121.631338333333","25.065655","6501100","汐止區"
"221035","622-UM","2018/06/01 17:59:38","新北市汐止區新江北路30巷22弄5號","121.65169","25.0698216666667","6501100","汐止區"
"221025","623-UM","2018/06/01 17:59:35","新北市汐止區仁愛路27號","121.659351666667","25.063685","6501100","汐止區"
"221038","646-BX","2018/06/01 17:59:42","新北市汐止區大同路二段169巷22弄32號","121.651731666667","25.0652483333333","6501100","汐止區"
"221033","647-BX","2018/06/01 17:59:36","新北市汐止區合順街39巷4號","121.620715","25.0434","6501100","汐止區"
"221002","707-TV","2018/06/01 17:59:41","新北市汐止區工建路213號","121.635661666667","25.06158","6501100","汐止區"
"221018","753-BX","2018/06/01 17:59:39","新北市汐止區招商街20號","121.666606666667","25.0682916666667","6501100","汐止區"
"242002","KEA-2550","2018/06/01 17:59:42","新北市新莊區中正路153-1號","121.455965","25.0367883333333","6500500","新莊區"
