"lineid","car","time","location","longitude","latitude","cityid","cityname"
"234046","148-BY","2018/06/01 18:29:35","新北市永和區豫溪街217巷27號","121.524701666667","25.0104116666667","6500400","永和區"
"234007","207-UY","2018/06/01 18:29:34","新北市永和區文化路188號","121.511145","25.0160166666667","6500400","永和區"
"234086","338-UY","2018/06/01 18:29:43","新北市永和區永貞路41號","121.521023333333","25.00643","6500400","永和區"
"234042","862-TW","2018/06/01 18:29:49","新北市永和區福和路1號","121.526056666667","25.0096316666667","6500400","永和區"
"234026","9371-KE","2018/06/01 18:29:48","新北市永和區永貞路417巷24號","121.505953333333","25.0090333333333","6500400","永和區"
"234011","9373-KE","2018/06/01 18:29:33","新北市永和區保福路二段158巷1號","121.509145","25.01503","6500400","永和區"
"249005","172-UM","2018/06/01 18:29:38","新北市八里區中華路三段134號","121.391318333333","25.1340583333333","6502300","八里區"
"249001","173-UM","2018/06/01 18:29:45","新北市八里區龍米路一段206號","121.451885","25.1282066666667","6502300","八里區"
"249004","303-UY","2018/06/01 18:29:36","新北市八里區忠孝路90號","121.425966666667","25.1604483333333","6502300","八里區"
"249002","305-UY","2018/06/01 18:29:44","新北市八里區龍形三街20號","121.44929","25.13177","6502300","八里區"
"248016","026-BX","2018/06/01 18:29:49","新北市五股區凌雲路一段83巷22弄1號","121.449898333333","25.10078","6501500","五股區"
"248006","077-UY","2018/06/01 18:29:40","新北市五股區四維路93號","121.467095","25.0730833333333","6501500","五股區"
"248008","095-VK","2018/06/01 18:29:47","新北市五股區中興路二段78-5號","121.461663333333","25.0784816666667","6501500","五股區"
"248018","225-UY","2018/06/01 18:29:46","新北市五股區民義路二段52巷15-3號","121.411376666667","25.112685","6501500","五股區"
"248012","247-BX","2018/06/01 18:29:45","新北市五股區御成路126號","121.44149","25.0938966666667","6501500","五股區"
"248014","261-SL","2018/06/01 18:29:38","新北市五股區成泰路一段149-1號","121.435391666667","25.0732833333333","6501500","五股區"
"248010","272-BY","2018/06/01 18:29:49","新北市五股區水碓路16巷3號","121.43374","25.0727066666667","6501500","五股區"
"248004","677-BX","2018/06/01 18:29:46","新北市五股區成泰路二段129號","121.438771666667","25.08482","6501500","五股區"
"248002","678-BX","2018/06/01 18:29:38","新北市五股區西雲路142-1號","121.445871666667","25.0942033333333","6501500","五股區"
"234077","969-R7","2018/06/01 18:29:45","新北市永和區福和路1號","121.526383333333","25.0099166666667","6500400","永和區"
"244013","069-UM","2018/06/01 18:29:50","新北市林口區中山路299號","121.384285","25.0802583333333","6501700","林口區"
"244007","080-UY","2018/06/01 18:29:39","新北市林口區林口路113巷6弄1號","121.388741666667","25.080625","6501700","林口區"
"244019","403-UM","2018/06/01 18:29:34","新北市林口區忠孝路616巷25號","121.377371666667","25.067245","6501700","林口區"
"244009","410-SL","2018/06/01 18:29:34","新北市林口區民生路42號","121.376345","25.0867816666667","6501700","林口區"
"244023","483-VK","2018/06/01 18:29:38","新北市林口區仁愛路二段50號","121.384955","25.0757466666667","6501700","林口區"
"244017","485-VK","2018/06/01 18:29:36","新北市林口區八德路78號","121.36563","25.0656516666667","6501700","林口區"
"244011","657-BX","2018/06/01 18:29:37","新北市林口區新寮1-65號","121.392768333333","25.0764866666667","6501700","林口區"
"244025","837-TS","2018/06/01 18:29:34","新北市林口區南勢六街55號","121.355705","25.0716916666667","6501700","林口區"
"244021","838-TS","2018/06/01 18:29:45","新北市林口區自強二街13號","121.397891666667","25.0782633333333","6501700","林口區"
"243013","AAD-798","2018/06/01 18:27:58","新北市泰山區明志路三段206巷8號","121.423348333333","25.0380016666667","6501600","泰山區"
"243012","646-TV","2018/06/01 18:29:37","新北市泰山區泰林路二段558號","121.422866666667","25.0637566666667","6501600","泰山區"
"222002","016-RS","2018/06/01 18:29:33","新北市深坑區雲鄉路107號","121.623251666667","24.9983383333333","6501800","深坑區"
"222003","436-BY","2018/06/01 18:29:38","新北市深坑區北深路一段288號","121.628051666667","25.007735","6501800","深坑區"
"231041","002-UM","2018/06/01 18:29:42","新北市新店區安華路28-1號","121.519693333333","24.9607516666667","6500600","新店區"
"231059","046-UY","2018/06/01 18:29:34","新北市新店區安華路28-1號","121.51954","24.9608483333333","6500600","新店區"
"231040","047-UY","2018/06/01 18:29:41","新北市新店區安華路28-1號","121.519263333333","24.960925","6500600","新店區"
"231044","106-UY","2018/06/01 18:29:36","新北市新店區安華路28-1號","121.519623333333","24.9607516666667","6500600","新店區"
"231053","108-UY","2018/06/01 18:29:28","新北市新店區新烏路一段50-2號","121.545621666667","24.9493183333333","6500600","新店區"
"231048","187-VK","2018/06/01 18:29:49","新北市新店區安一路一段1-1號","121.519568333333","24.9612116666667","6500600","新店區"
"231046","188-VK","2018/06/01 18:29:35","新北市新店區直潭七街60號","121.53224","24.9398716666667","6500600","新店區"
"231054","KEA-2219","2018/06/01 18:29:37","新北市新店區安一路一段1-1號","121.519871666667","24.961155","6500600","新店區"
"231057","256-BX","2018/06/01 18:29:43","新北市新店區北新路一段89號","121.538546666667","24.9616916666667","6500600","新店區"
"231042","268-BY","2018/06/01 18:29:51","新北市新店區安華路28-1號","121.519395","24.9605966666667","6500600","新店區"
"231051","278-BY","2018/06/01 18:29:38","新北市新店區安一路一段1-1號","121.519796666667","24.9611083333333","6500600","新店區"
"231050","AAD-862","2018/06/01 18:29:36","新北市新店區安華路28-1號","121.520318333333","24.9608916666667","6500600","新店區"
"231058","3713-VJ","2018/06/01 18:29:35","新北市新店區新店後街41號","121.53748","24.9544916666667","6500600","新店區"
"231066","4716-K9","2018/06/01 18:29:40","新北市新店區安一路一段1-1號","121.51919","24.961295","6500600","新店區"
"231056","4715-K9","2018/06/01 18:29:33","新北市新店區二十張路105巷22號","121.536935","24.97905","6500600","新店區"
"231067","4772-VM","2018/06/01 18:29:41","新北市新店區安華路28-1號","121.51933","24.9606416666667","6500600","新店區"
"231065","512-UM","2018/06/01 18:29:35","新北市新店區安一路一段1-1號","121.519228333333","24.961285","6500600","新店區"
"231049","513-UM","2018/06/01 18:29:38","新北市新店區安一路一段1-1號","121.519621666667","24.9611733333333","6500600","新店區"
"231045","617-UM","2018/06/01 18:29:44","新北市新店區安華路28-1號","121.519411666667","24.9609733333333","6500600","新店區"
"231061","619-UM","2018/06/01 18:29:33","新北市新店區安華路28-1號","121.519541666667","24.9607516666667","6500600","新店區"
"231063","641-BX","2018/06/01 18:29:42","新北市新店區安華路28-1號","121.519578333333","24.9605766666667","6500600","新店區"
"231064","719-UY","2018/06/01 18:29:43","新北市新店區安華路28-1號","121.519633333333","24.96058","6500600","新店區"
"231062","720-UM","2018/06/01 18:29:40","新北市新店區安一路一段1-1號","121.519331666667","24.9612883333333","6500600","新店區"
"231060","897-TW","2018/06/01 18:29:50","新北市新店區安華路28-1號","121.519733333333","24.9605816666667","6500600","新店區"
"231043","899-TW","2018/06/01 18:29:36","新北市新店區安華路28-1號","121.519236666667","24.9608733333333","6500600","新店區"
"231055","AKT-0513","2018/06/01 18:29:37","新北市新店區三民路18號","121.538496666667","24.9706716666667","6500600","新店區"
"235064","005-UY","2018/06/01 18:29:46","新北市中和區連城路139巷47號","121.496673333333","24.9975483333333","6500300","中和區"
"235063","006-UY","2018/06/01 18:29:37","新北市中和區連城路389巷8號","121.486431666667","24.9956316666667","6500300","中和區"
"235056","096-UM","2018/06/01 18:29:36","新北市中和區員山路611巷5弄3號","121.477988333333","25.0112816666667","6500300","中和區"
"235039","097-UM","2018/06/01 18:29:42","新北市中和區安平路155號","121.512293333333","24.9982383333333","6500300","中和區"
"235065","098-UM","2018/06/01 18:29:43","新北市中和區莊敬路49巷20弄32號","121.503171666667","25.0050416666667","6500300","中和區"
"235040","150-BY","2018/06/01 18:29:34","新北市中和區安平路38號","121.509776666667","24.9949433333333","6500300","中和區"
"235058","151-BY","2018/06/01 18:29:49","新北市中和區圓通路369巷30弄6號","121.489116666667","24.984425","6500300","中和區"
"235055","183-VK","2018/06/01 18:29:44","新北市中和區莒光路42號","121.472195","25.0037683333333","6500300","中和區"
"235038","185-VK","2018/06/01 18:29:38","新北市中和區立人街14巷37號","121.519296666667","24.9955066666667","6500300","中和區"
"235049","186-VK","2018/06/01 18:29:46","新北市中和區景安路68號","121.5058","24.9966933333333","6500300","中和區"
"235067","255-BX","2018/06/01 18:29:50","新北市中和區新生街38號","121.48307","25.003535","6500300","中和區"
"235072","301-VK","2018/06/01 18:29:38","新北市中和區連城路125號","121.496143333333","24.999245","6500300","中和區"
"235043","352-BY","2018/06/01 18:29:35","新北市中和區景平路289號","121.507283333333","24.99311","6500300","中和區"
"235054","269-TV","2018/06/01 18:29:50","新北市中和區民享街89巷1號","121.474555","25.00163","6500300","中和區"
"235050","4979-A6","2018/06/01 18:29:33","新北市中和區景新街410巷18弄16號","121.511915","24.9897166666667","6500300","中和區"
"235069","4980-A6","2018/06/01 18:29:47","新北市中和區連城路127巷40號","121.497058333333","24.9975366666667","6500300","中和區"
"235042","551-UM","2018/06/01 18:29:41","新北市中和區景平路64巷21號","121.522265","24.9915933333333","6500300","中和區"
"235070","558-UM","2018/06/01 18:29:43","新北市中和區南山路127巷18弄42號","121.503636666667","24.99648","6500300","中和區"
"235045","565-BX","2018/06/01 18:29:41","新北市中和區南山路236巷24弄21號","121.504865","24.9889133333333","6500300","中和區"
"235060","647-TV","2018/06/01 18:29:46","新北市中和區員山路469巷1號","121.480295","25.0045666666667","6500300","中和區"
"235046","733-UM","2018/06/01 18:29:45","新北市中和區板南路188-1號","121.50049","24.9927833333333","6500300","中和區"
"235062","800-TS","2018/06/01 18:29:39","新北市中和區景平路754號","121.496391666667","25.004575","6500300","中和區"
"235057","801-TS","2018/06/01 18:29:33","新北市中和區民安街180號","121.476336666667","24.9998883333333","6500300","中和區"
"235041","802-TS","2018/06/01 18:29:34","新北市中和區景安路76號","121.505731666667","24.99651","6500300","中和區"
"235052","805-TS","2018/06/01 18:29:48","新北市中和區興南路二段96號","121.504911666667","24.9840066666667","6500300","中和區"
"235048","896-TW","2018/06/01 18:29:30","新北市中和區中正路79號","121.500816666667","24.9933966666667","6500300","中和區"
"235053","900-TW","2018/06/01 18:29:37","新北市中和區民享街457號","121.470436666667","24.9931316666667","6500300","中和區"
"235066","911-UM","2018/06/01 18:29:49","新北市中和區中山路二段91號","121.503565","25.0040183333333","6500300","中和區"
"235051","157-BY","2018/06/01 18:29:45","新北市中和區興南路二段114巷10弄12號","121.503976666667","24.98493","6500300","中和區"
"235037","AAC-213","2018/06/01 18:29:47","新北市中和區景德街78號","121.516591666667","24.99152","6500300","中和區"
"235059","AAC-215","2018/06/01 18:29:40","新北市中和區員山路36巷16-3號","121.484775","24.9914116666667","6500300","中和區"
"220065","072-UY","2018/06/01 18:29:50","新北市板橋區四川路二段130巷41號","121.449563333333","24.9945983333333","6500100","板橋區"
"226004","312-R5","2018/06/01 18:29:48","新北市平溪區靜安路二段342號","121.737311666667","25.0243266666667","6502400","平溪區"
"235047","251-BX","2018/06/01 18:29:41","新北市中和區南山路300號","121.50781","24.9870766666667","6500300","中和區"
"228002","663-BX","2018/06/01 18:29:46","新北市貢寮區福連里香蘭街16-2號","121.983445","25.0215866666667","6502600","貢寮區"
"228001","670-TC","2018/06/01 18:29:38","新北市貢寮區仁理村仁和路132號","121.923035","25.0513916666667","6502600","貢寮區"
"228003","828-UM","2018/06/01 18:29:42","新北市貢寮區和美里和美街38號","121.912248333333","25.0880316666667","6502600","貢寮區"
"224010","AGQ-8101","2018/06/01 18:00:05","新北市瑞芳區烏勢巷145號","121.847318333333","25.10819","6501200","瑞芳區"
"224006","676-BX","2018/06/01 18:29:32","新北市瑞芳區民權街3-2號","121.808063333333","25.1074283333333","6501200","瑞芳區"
"224002","639-TC","2018/06/01 18:29:37","新北市瑞芳區三爪子坑路29巷31號","121.813773333333","25.1066866666667","6501200","瑞芳區"
"224008","285-BY","2018/06/01 18:29:46","新北市瑞芳區岳王路1巷9號","121.806333333333","25.1103816666667","6501200","瑞芳區"
"224007","275-VK","2018/06/01 18:29:30","新北市瑞芳區大埔路台北新城5號","121.764435","25.10043","6501200","瑞芳區"
"224009","273-VK","2018/06/01 18:29:49","新北市瑞芳區五號路308號","121.856926666667","25.1114883333333","6501200","瑞芳區"
"224005","271-BY","2018/06/01 18:29:46","新北市瑞芳區建基路一段56-1號","121.817286666667","25.1273716666667","6501200","瑞芳區"
"227003","642-TC","2018/06/01 18:29:45","新北市雙溪區魚行里坤溪21-1號","121.870406666667","25.0282283333333","6502500","雙溪區"
"227011","400-TW","2018/06/01 18:29:48","新北市雙溪區牡丹里牡丹95號","121.851365","25.06005","6502500","雙溪區"
"253005","032-BX","2018/06/01 18:29:36","新北市石門區老崩山10號","121.552908333333","25.2911983333333","6502200","石門區"
"253006","295-VK","2018/06/01 18:29:37","新北市石門區公地47-1號","121.545625","25.29016","6502200","石門區"
"222001","KEA-2212","2018/06/01 18:29:45","新北市深坑區北深路一段199號","121.63075","25.009305","6501800","深坑區"
"208002","KEA-2872","2018/06/01 18:29:39","新北市金山區民生路31號","121.643711666667","25.2220083333333","6502700","金山區"
"208003","665-BX","2018/06/01 18:29:40","新北市金山區中山路154號","121.638766666667","25.2207816666667","6502700","金山區"
"208001","761-BX","2018/06/01 18:29:47","新北市金山區文化一路6號","121.637266666667","25.2239216666667","6502700","金山區"
"251004","009-UM","2018/06/01 18:29:31","新北市淡水區民族路31巷4號","121.462593333333","25.1362916666667","6501000","淡水區"
"251005","010-UM","2018/06/01 18:29:36","新北市淡水區中正東路37號","121.446216666667","25.1684283333333","6501000","淡水區"
"251001","011-UM","2018/06/01 18:29:38","新北市淡水區自強路150號","121.46512","25.133755","6501000","淡水區"
"251002","012-UM","2018/06/01 18:29:41","新北市淡水區竿蓁二街19巷15號","121.452701666667","25.1642366666667","6501000","淡水區"
"251008","180-VK","2018/06/01 18:29:44","新北市淡水區北投子85-5號","121.468525","25.17849","6501000","淡水區"
"251010","413-VK","2018/06/01 18:29:34","新北市淡水區沙崙路181巷1號","121.424101666667","25.1841816666667","6501000","淡水區"
"251012","443-VK","2018/06/01 18:29:43","新北市淡水區北新路一段129-1號","121.457693333333","25.18209","6501000","淡水區"
"251006","561-UM","2018/06/01 18:29:48","新北市淡水區新生街51巷35號","121.440743333333","25.175935","6501000","淡水區"
"251011","650-BX","2018/06/01 18:29:34","新北市淡水區中正東路83-2號","121.448155","25.16652","6501000","淡水區"
"251003","673-BX","2018/06/01 18:29:42","新北市淡水區北新路169巷35-1號","121.449541666667","25.18022","6501000","淡水區"
"207003","550-UM","2018/06/01 18:29:35","新北市萬里區野柳里港東路153號","121.689481666667","25.20512","6502800","萬里區"
"207004","225-TW","2018/06/01 18:29:49","新北市萬里區萬里里瑪鋉路190號","121.689431666667","25.1801316666667","6502800","萬里區"
"252002","178-VK","2018/06/01 18:29:37","新北市三芝區中山路二段41號","121.502905","25.2550533333333","6502100","三芝區"
"252003","249-BX","2018/06/01 18:29:36","新北市三芝區後厝里北勢子44-3號","121.471043333333","25.2519166666667","6502100","三芝區"
"252001","292-VK","2018/06/01 18:29:40","新北市三芝區中興街二段6號","121.498545","25.2566016666667","6502100","三芝區"
"237004","KEA-2597","2018/06/01 18:29:38","新北市三峽區金敏30號","121.389235","24.873655","6500900","三峽區"
"237007","153-BY","2018/06/01 18:29:40","新北市三峽區中正路二段540號","121.360403333333","24.9062616666667","6500900","三峽區"
"237009","210-TH","2018/06/01 18:29:37","新北市三峽區大同路240巷43號","121.365346666667","24.925625","6500900","三峽區"
"237013","252-BX","2018/06/01 18:29:49","新北市三峽區光明路69巷25號","121.376716666667","24.9292533333333","6500900","三峽區"
"237012","275-BY","2018/06/01 18:29:38","新北市三峽區三樹路212-2號","121.37917","24.9424416666667","6500900","三峽區"
"237008","302-VK","2018/06/01 18:29:34","新北市三峽區白雞115-16號","121.400716666667","24.9059983333333","6500900","三峽區"
"237014","433-BY","2018/06/01 18:29:38","新北市三峽區和平街65號","121.369968333333","24.936735","6500900","三峽區"
"237011","280-TH","2018/06/01 18:29:35","新北市三峽區介壽路三段107號","121.395608333333","24.939655","6500900","三峽區"
"237006","5529-G3","2018/06/01 18:29:31","新北市三峽區溪東路315巷114號","121.41196","24.931665","6500900","三峽區"
"237015","649-BX","2018/06/01 18:29:39","新北市三峽區竹崙路10號","121.426656666667","24.92269","6500900","三峽區"
"237010","706-TV","2018/06/01 18:29:37","新北市三峽區復興路277號","121.366283333333","24.9388966666667","6500900","三峽區"
"237005","AKY-6261","2018/06/01 18:29:46","新北市三峽區清水街323號","121.372141666667","24.9342333333333","6500900","三峽區"
"236069","105-UM","2018/06/01 18:29:41","新北市土城區永豐路255巷21弄1號","121.474996666667","24.97396","6501300","土城區"
"236042","107-UM","2018/06/01 18:29:38","新北市土城區學成路91巷7號","121.450285","24.9876533333333","6501300","土城區"
"236079","166-UM","2018/06/01 18:29:41","新北市土城區大暖路26號","121.423531666667","24.959905","6501300","土城區"
"236030","253-BX","2018/06/01 18:29:43","新北市土城區水源街81巷8號","121.43942","24.976245","6501300","土城區"
"236026","269-VK","2018/06/01 18:29:50","新北市土城區南天母路91巷2號","121.447453333333","24.956255","6501300","土城區"
"236014","270-VK","2018/06/01 18:29:44","新北市土城區立清街69號","121.460316666667","24.9872933333333","6501300","土城區"
"236039","271-VK","2018/06/01 18:29:19","新北市土城區青雲路451巷15號","121.459625","24.9747316666667","6501300","土城區"
"236020","401-BY","2018/06/01 18:29:42","新北市土城區永豐路202巷14號","121.466251666667","24.9834483333333","6501300","土城區"
"236059","912-UM","2018/06/01 18:29:47","新北市土城區中央路四段196-1號","121.416203333333","24.95762","6501300","土城區"
"236048","913-UM","2018/06/01 18:29:52","新北市土城區明德路一段226號","121.460715","24.9775283333333","6501300","土城區"
"236063","915-UM","2018/06/01 18:29:48","新北市土城區延壽路75巷14號","121.46878","24.9919483333333","6501300","土城區"
"236055","AAC-216","2018/06/01 18:29:31","新北市土城區中華路二段1號","121.439703333333","24.979165","6501300","土城區"
"242058","986-R7","2018/06/01 18:29:34","新北市新莊區中正路891-44號","121.413866666667","25.02296","6500500","新莊區"
"242054","751-BX","2018/06/01 18:29:30","新北市新莊區新樹路302巷8號","121.432211666667","25.006645","6500500","新莊區"
"242025","613-BX","2018/06/01 18:29:46","新北市新莊區中央路232號","121.45466","25.05934","6500500","新莊區"
"242041","566-BX","2018/06/01 18:29:46","新北市新莊區天祥街120巷8號","121.414795","25.0301783333333","6500500","新莊區"
"242046","497-BY","2018/06/01 18:29:48","新北市新莊區民安路16-29號","121.422376666667","25.0279133333333","6500500","新莊區"
"242007","413-TV","2018/06/01 18:29:44","新北市新莊區新泰路357巷3弄25號","121.441983333333","25.0406483333333","6500500","新莊區"
"242044","400-BY","2018/06/01 18:29:47","新北市新莊區中正路887-2號","121.416801666667","25.0247516666667","6500500","新莊區"
"242060","353-BY","2018/06/01 18:29:49","新北市新莊區富國路127號","121.424368333333","25.0246766666667","6500500","新莊區"
"242009","132-UY","2018/06/01 18:29:39","新北市新莊區中港一街120號","121.448463333333","25.04521","6500500","新莊區"
"242039","347-TH","2018/06/01 18:29:39","新北市新莊區新樹路210號","121.433903333333","25.0203916666667","6500500","新莊區"
"238015","755-BX","2018/06/01 18:29:34","新北市樹林區備前街120號","121.41467","24.9868283333333","6500700","樹林區"
"238023","601-UM","2018/06/01 18:29:36","新北市樹林區三福街114號","121.406475","25.01634","6500700","樹林區"
"238019","599-UM","2018/06/01 18:29:45","新北市樹林區中華路190-1號","121.41161","24.9805866666667","6500700","樹林區"
"238018","571-TV","2018/06/01 18:29:38","新北市樹林區樹新路30-3號","121.427216666667","24.9947416666667","6500700","樹林區"
"238024","5061-A6","2018/06/01 18:29:40","新北市樹林區中山路一段149-2號","121.422126666667","24.9892233333333","6500700","樹林區"
"238025","303-VK","2018/06/01 18:29:32","新北市樹林區保安二街57號","121.424533333333","24.9944766666667","6500700","樹林區"
"238017","283-BY","2018/06/01 18:29:47","新北市樹林區保安街二段333巷1號","121.412003333333","25.0074633333333","6500700","樹林區"
"238014","282-BY","2018/06/01 18:29:49","新北市樹林區大安路111巷11號","121.423111666667","24.9976916666667","6500700","樹林區"
"238020","268-VK","2018/06/01 18:29:34","桃園市龜山區宏慶街34巷6號","121.4103","25.0180683333333","6500700","樹林區"
"238026","172-UY","2018/06/01 18:29:41","新北市樹林區八德街598巷1號","121.397141666667","24.9707433333333","6500700","樹林區"
"238016","169-UY","2018/06/01 18:29:42","新北市樹林區文化街23號","121.419236666667","24.98762","6500700","樹林區"
"239007","AAC-297","2018/06/01 18:29:47","新北市鶯歌區國慶街35號","121.349561666667","24.9559533333333","6500800","鶯歌區"
"239006","891-R6","2018/06/01 18:29:41","新北市鶯歌區鶯桃路296巷46號","121.335588333333","24.96132","6500800","鶯歌區"
"239008","527-UM","2018/06/01 18:29:37","新北市鶯歌區國際一路179號","121.336221666667","24.976475","6500800","鶯歌區"
"239005","526-UM","2018/06/01 18:29:48","新北市鶯歌區鳳吉一街167-1號","121.329045","24.9754866666667","6500800","鶯歌區"
"239001","417-VK","2018/06/01 18:29:32","新北市鶯歌區國中街176號","121.338503333333","24.9394166666667","6500800","鶯歌區"
"239003","360-BY","2018/06/01 18:29:47","新北市鶯歌區鶯桃路439號","121.332458333333","24.9653016666667","6500800","鶯歌區"
"239002","359-BY","2018/06/01 18:29:35","新北市鶯歌區中正一路305號","121.356625","24.9570283333333","6500800","鶯歌區"
"239004","193-VK","2018/06/01 18:29:48","新北市鶯歌區尖山路304號","121.340095","24.9432416666667","6500800","鶯歌區"
"221008","489-VK","2018/06/01 18:29:37","新北市汐止區康寧街901號","121.651415","25.075015","6501100","汐止區"
"221036","130-UY","2018/06/01 18:29:34","新北市汐止區南昌街31號","121.663176666667","25.0691566666667","6501100","汐止區"
"221015","131-UY","2018/06/01 18:29:49","新北市汐止區鄉友街72號","121.669766666667","25.0820533333333","6501100","汐止區"
"221010","269-BY","2018/06/01 18:29:42","新北市汐止區汐萬路三段252巷25號","121.644855","25.1050216666667","6501100","汐止區"
"221012","278-VK","2018/06/01 18:29:40","新北市汐止區大同路三段275號","121.676336666667","25.07583","6501100","汐止區"
"221023","279-VK","2018/06/01 18:29:46","新北市汐止區康寧街534巷26號","121.634726666667","25.0689866666667","6501100","汐止區"
"221032","280-BY","2018/06/01 18:29:43","新北市汐止區福山街60巷13弄3號","121.61844","25.0463883333333","6501100","汐止區"
"221027","281-BY","2018/06/01 18:29:45","新北市汐止區和平街84號","121.6615","25.0707883333333","6501100","汐止區"
"221029","298-VK","2018/06/01 18:29:39","新北市汐止區樟樹一路183號","121.642605","25.0687883333333","6501100","汐止區"
"221021","299-VK","2018/06/01 18:29:47","新北市汐止區復興路71號","121.657383333333","25.0620616666667","6501100","汐止區"
"221031","353-TW","2018/06/01 18:29:40","新北市汐止區光復街7巷34號","121.641328333333","25.0602033333333","6501100","汐止區"
"221035","622-UM","2018/06/01 18:29:38","新北市汐止區大同路二段169巷34號","121.650778333333","25.0651233333333","6501100","汐止區"
"221025","623-UM","2018/06/01 18:29:35","新北市汐止區仁愛路124號","121.66297","25.0638333333333","6501100","汐止區"
"221038","646-BX","2018/06/01 18:29:42","新北市汐止區忠孝東路305號","121.664381666667","25.0690666666667","6501100","汐止區"
"221033","647-BX","2018/06/01 18:29:36","新北市汐止區宜興街1號","121.62079","25.0412033333333","6501100","汐止區"
"221002","707-TV","2018/06/01 18:29:41","新北市汐止區福德一路137號","121.636836666667","25.0671733333333","6501100","汐止區"
"221018","753-BX","2018/06/01 18:29:39","新北市汐止區茄苳路250巷27號","121.672015","25.06761","6501100","汐止區"
"242002","KEA-2550","2018/06/01 18:29:42","新北市新莊區瓊泰路85號","121.442783333333","25.029445","6500500","新莊區"
"220082","610-BX","2018/06/01 18:29:47","新北市板橋區華東街1-9號","121.448256666667","24.9949183333333","6500100","板橋區"
"220084","296-UM","2018/06/01 18:29:38","新北市板橋區華東街1-9號","121.448141666667","24.9949616666667","6500100","板橋區"
"220064","486-VK","2018/06/01 18:29:48","新北市板橋區南雅南路二段144巷60號","121.450185","24.9973033333333","6500100","板橋區"
"220035","560-BX","2018/06/01 18:29:36","新北市板橋區南雅南路二段140號","121.451761666667","24.9962783333333","6500100","板橋區"
"220057","686-BX","2018/06/01 18:29:32","新北市板橋區華東街1-10號","121.448276666667","24.9949166666667","6500100","板橋區"
"220067","829-TW","2018/06/01 18:29:40","新北市板橋區民生路二段120號","121.47051","25.0199533333333","6500100","板橋區"
"235068","KEA-2873","2018/06/01 18:29:44","新北市中和區圓通路331-5號","121.492203333333","24.9906666666667","6500300","中和區"
"235061","KEA-2875","2018/06/01 18:29:37","新北市中和區民享街111號","121.47484","24.99946","6500300","中和區"
