"lineid","car","time","location","longitude","latitude","cityid","cityname"
"234046","148-BY","2018/06/01 18:59:34","新北市永和區得和路373巷16弄1號","121.525091666667","25.0003066666667","6500400","永和區"
"234007","207-UY","2018/06/01 18:59:34","新北市永和區中山路一段47號","121.513161666667","25.01052","6500400","永和區"
"234078","298-R6","2018/06/01 18:59:45","新北市永和區永亨路59號","121.520893333333","25.006245","6500400","永和區"
"234038","336-UY","2018/06/01 18:59:38","新北市永和區成功路二段207號","121.526593333333","24.995915","6500400","永和區"
"234064","337-UY","2018/06/01 18:59:37","新北市永和區秀朗路一段138號","121.517903333333","25.0034116666667","6500400","永和區"
"234086","338-UY","2018/06/01 18:59:43","新北市永和區永利路10巷5號","121.517905","25.0056766666667","6500400","永和區"
"234070","552-UM","2018/06/01 18:59:31","新北市永和區竹林路90號","121.519458333333","25.0122966666667","6500400","永和區"
"234015","745-BX","2018/06/01 18:59:33","新北市永和區永和路二段297號","121.516018333333","25.0160716666667","6500400","永和區"
"234030","746-BX","2018/06/01 18:59:37","新北市永和區秀朗路二段291號","121.5262","24.9980066666667","6500400","永和區"
"234054","KEA-2590","2018/06/01 18:59:31","新北市永和區竹林路66巷5號","121.51819","25.01323","6500400","永和區"
"234013","KEA-2591","2018/06/01 18:59:40","新北市永和區中山路一段75號","121.512423333333","25.0106833333333","6500400","永和區"
"234061","AAD-866","2018/06/01 18:59:46","新北市永和區福和路297號","121.516536666667","25.0072116666667","6500400","永和區"
"234042","862-TW","2018/06/01 18:59:49","新北市永和區永貞路320號","121.511576666667","25.0050866666667","6500400","永和區"
"234050","863-TW","2018/06/01 18:59:40","新北市永和區文化路194號","121.510731666667","25.0162783333333","6500400","永和區"
"234026","9371-KE","2018/06/01 18:59:47","新北市永和區安樂路304巷7號","121.514378333333","25.0050333333333","6500400","永和區"
"234011","9373-KE","2018/06/01 18:59:33","新北市永和區文化路126巷10弄2號","121.513121666667","25.015925","6500400","永和區"
"249005","172-UM","2018/06/01 18:59:38","新北市八里區長道坑2號","121.393576666667","25.1246666666667","6502300","八里區"
"249001","173-UM","2018/06/01 18:59:45","新北市八里區龍米路二段160號","121.435113333333","25.1579666666667","6502300","八里區"
"248016","026-BX","2018/06/01 18:59:48","新北市五股區成泰路三段543巷1號","121.450911666667","25.1021866666667","6501500","五股區"
"248006","077-UY","2018/06/01 18:59:47","新北市五股區中興路一段40號","121.468318333333","25.0725083333333","6501500","五股區"
"248008","095-VK","2018/06/01 18:59:47","新北市五股區中興路一段128巷18號","121.465795","25.0746616666667","6501500","五股區"
"248018","225-UY","2018/06/01 18:59:46","新北市五股區民義路一段287巷2-8號","121.423491666667","25.0901383333333","6501500","五股區"
"248012","247-BX","2018/06/01 18:59:38","新北市五股區中興路四段48巷16號","121.43847","25.0833416666667","6501500","五股區"
"248010","272-BY","2018/06/01 18:59:49","新北市五股區水碓三路25號","121.429781666667","25.0709216666667","6501500","五股區"
"248004","677-BX","2018/06/01 18:59:46","新北市五股區民義路三段1號","121.403581666667","25.1131666666667","6501500","五股區"
"248002","678-BX","2018/06/01 18:59:36","新北市五股區凌雲路一段163號","121.448891666667","25.1025583333333","6501500","五股區"
"234023","9380-KE","2018/06/01 18:59:41","新北市永和區竹林路91巷47弄2號","121.521588333333","25.013035","6500400","永和區"
"234077","969-R7","2018/06/01 18:59:45","新北市永和區智光街22號","121.51809","24.9992133333333","6500400","永和區"
"234074","AAC-211","2018/06/01 18:59:40","新北市永和區環河東路二段100號","121.524125","25.0103333333333","6500400","永和區"
"234067","AAC-212","2018/06/01 18:59:49","新北市永和區永和路一段22號","121.512958333333","25.0047683333333","6500400","永和區"
"234003","AAC-295","2018/06/01 18:59:41","新北市永和區和平街38號","121.513025","25.0099816666667","6500400","永和區"
"232011","375-UM","2018/06/01 18:59:37","新北市坪林區坪林街10-2號","121.713013333333","24.9354666666667","6502000","坪林區"
"244013","069-UM","2018/06/01 18:59:50","新北市林口區麗園一街6巷7-2號","121.37533","25.07075","6501700","林口區"
"244007","080-UY","2018/06/01 18:59:39","新北市林口區太平嶺5-12號","121.379765","25.1142066666667","6501700","林口區"
"244019","403-UM","2018/06/01 18:59:34","新北市林口區麗園二街3巷5-2號","121.377445","25.06988","6501700","林口區"
"244009","410-SL","2018/06/01 18:59:41","新北市林口區林口路97-1號","121.389376666667","25.0802883333333","6501700","林口區"
"244023","483-VK","2018/06/01 18:59:38","新北市林口區文化三路二段77巷39號","121.373043333333","25.0802416666667","6501700","林口區"
"244017","485-VK","2018/06/01 18:59:35","新北市林口區文化二路一段20巷9號","121.365235","25.0671466666667","6501700","林口區"
"244011","657-BX","2018/06/01 18:59:37","新北市林口區中正路24號","121.395991666667","25.077535","6501700","林口區"
"244025","837-TS","2018/06/01 18:59:34","新北市林口區文化北路一段370號","121.36249","25.0744333333333","6501700","林口區"
"243013","AAD-798","2018/06/01 18:59:41","新北市泰山區明志路三段243號","121.423476666667","25.0376066666667","6501600","泰山區"
"243009","297-R6","2018/06/01 18:59:41","新北市泰山區泰林路二段364號","121.428585","25.0636266666667","6501600","泰山區"
"243016","380-SR","2018/06/01 18:59:44","新北市泰山區明志路二段152-1號","121.427586666667","25.0507216666667","6501600","泰山區"
"243015","421-VK","2018/06/01 18:59:51","新北市泰山區明志路一段215號","121.432658333333","25.0612816666667","6501600","泰山區"
"243010","KEA-2216","2018/06/01 18:59:39","新北市泰山區辭修路24號","121.429","25.0581033333333","6501600","泰山區"
"243012","646-TV","2018/06/01 18:59:37","新北市泰山區福興街24號","121.434353333333","25.057775","6501600","泰山區"
"243014","680-BX","2018/06/01 18:59:50","新北市泰山區泰林路二段593號","121.42175","25.063515","6501600","泰山區"
"222002","016-RS","2018/06/01 18:59:33","新北市深坑區文山路一段31巷2號","121.629945","25.0032683333333","6501800","深坑區"
"222003","436-BY","2018/06/01 18:59:38","新北市深坑區深南路51-1號","121.621363333333","25.0101433333333","6501800","深坑區"
"231041","002-UM","2018/06/01 18:59:42","新北市新店區環河路29巷1號","121.536933333333","24.9613283333333","6500600","新店區"
"231059","046-UY","2018/06/01 18:59:34","新北市新店區安華路28-1號","121.519623333333","24.960775","6500600","新店區"
"231040","047-UY","2018/06/01 18:59:41","新北市新店區中正路376號","121.5349","24.9767483333333","6500600","新店區"
"231044","106-UY","2018/06/01 18:59:36","新北市新店區寶中路72號","121.547796666667","24.9805583333333","6500600","新店區"
"231053","108-UY","2018/06/01 18:59:48","新北市新店區櫻花街18號","121.547051666667","24.9266216666667","6500600","新店區"
"231048","187-VK","2018/06/01 18:59:29","新北市新店區德正街23巷12-1號","121.544651666667","24.9722083333333","6500600","新店區"
"231046","188-VK","2018/06/01 18:59:35","新北市新店區直潭五街28號","121.534128333333","24.9415633333333","6500600","新店區"
"231054","KEA-2219","2018/06/01 18:59:37","新北市新店區新店路13號","121.540365","24.95284","6500600","新店區"
"231042","268-BY","2018/06/01 18:59:31","新北市新店區中正路43號","121.544818333333","24.96975","6500600","新店區"
"231051","278-BY","2018/06/01 18:59:18","新北市新店區百忍街17巷5號","121.534308333333","24.9754366666667","6500600","新店區"
"231050","AAD-862","2018/06/01 18:59:36","新北市新店區北宜路二段30巷5弄12號","121.548465","24.95065","6500600","新店區"
"231058","3713-VJ","2018/06/01 18:59:35","新北市新店區光明街100號","121.539061666667","24.960455","6500600","新店區"
"231066","4716-K9","2018/06/01 18:59:40","新北市新店區安康路二段456巷6號","121.493498333333","24.954825","6500600","新店區"
"231056","4715-K9","2018/06/01 18:59:33","新北市新店區建國路218-1號","121.538031666667","24.9810783333333","6500600","新店區"
"231067","4772-VM","2018/06/01 18:59:41","新北市新店區安康路一段195巷2號","121.526348333333","24.96264","6500600","新店區"
"231065","512-UM","2018/06/01 18:59:35","新北市新店區安祥路156巷39號","121.474928333333","24.9545166666667","6500600","新店區"
"231049","513-UM","2018/06/01 18:59:40","新北市新店區中正路454-5號","121.53454","24.9789266666667","6500600","新店區"
"231045","617-UM","2018/06/01 18:59:44","新北市新店區光明街1-1號","121.538175","24.9591683333333","6500600","新店區"
"231061","619-UM","2018/06/01 18:59:33","新北市新店區安華路1-1號","121.519528333333","24.96004","6500600","新店區"
"231063","641-BX","2018/06/01 18:59:43","新北市新店區安華路16號","121.51679","24.9580383333333","6500600","新店區"
"231064","719-UY","2018/06/01 18:59:43","新北市新店區安一路一段1-1號","121.519766666667","24.961805","6500600","新店區"
"231062","720-UM","2018/06/01 18:59:40","新北市新店區吉安街41號","121.515435","24.966065","6500600","新店區"
"231060","897-TW","2018/06/01 18:59:30","新北市新店區安華路28-1號","121.519828333333","24.9608433333333","6500600","新店區"
"231043","899-TW","2018/06/01 18:59:35","新北市新店區北新路二段2號","121.542761666667","24.9706333333333","6500600","新店區"
"231055","AKT-0513","2018/06/01 18:59:37","新北市新店區中華路83巷67號","121.538326666667","24.967235","6500600","新店區"
"241035","462-BY","2018/06/01 18:59:29","新北市三重區中正北路193巷43號","121.475688333333","25.0709266666667","6500200","三重區"
"241029","942-UM","2018/06/01 18:59:33","新北市三重區重安街24號","121.490358333333","25.0579416666667","6500200","三重區"
"235064","005-UY","2018/06/01 18:59:45","新北市中和區泰和街38巷13號","121.49894","25.0005466666667","6500300","中和區"
"235063","006-UY","2018/06/01 18:59:37","新北市中和區中正路584號","121.48602","24.99488","6500300","中和區"
"235056","096-UM","2018/06/01 18:59:36","新北市中和區中山路二段596巷44號","121.481535","25.0063283333333","6500300","中和區"
"235039","097-UM","2018/06/01 18:59:42","新北市中和區安樂路217巷20弄19號","121.51328","24.9989016666667","6500300","中和區"
"235065","098-UM","2018/06/01 18:59:43","新北市中和區福祥路126號","121.498961666667","25.0067333333333","6500300","中和區"
"235040","150-BY","2018/06/01 18:59:46","新北市中和區宜安路1巷28弄18號","121.512076666667","24.9944483333333","6500300","中和區"
"235058","151-BY","2018/06/01 18:59:45","新北市中和區連城路430號","121.480013333333","24.9951333333333","6500300","中和區"
"235055","183-VK","2018/06/01 18:59:44","新北市中和區民德路25巷10號","121.469358333333","25.0028066666667","6500300","中和區"
"235038","185-VK","2018/06/01 18:59:38","新北市中和區立人街24-5號","121.51886","24.99415","6500300","中和區"
"235049","186-VK","2018/06/01 18:59:46","新北市中和區景安路139號","121.505596666667","24.9955766666667","6500300","中和區"
"235067","255-BX","2018/06/01 18:59:50","新北市中和區新生街176巷17號","121.4827","24.999885","6500300","中和區"
"235044","293-VK","2018/06/01 18:59:30","新北市中和區復興路280巷33弄12號","121.501301666667","24.99147","6500300","中和區"
"235072","301-VK","2018/06/01 18:59:38","新北市中和區景平路741號","121.496296666667","25.0044683333333","6500300","中和區"
"235043","352-BY","2018/06/01 18:59:35","新北市中和區景平路46號","121.522698333333","24.990615","6500300","中和區"
"235054","269-TV","2018/06/01 18:59:51","新北市中和區民享街29巷1-1號","121.474008333333","25.0045516666667","6500300","中和區"
"235050","4979-A6","2018/06/01 18:59:47","新北市中和區華新街50巷3號","121.507735","24.98396","6500300","中和區"
"235069","4980-A6","2018/06/01 18:59:47","新北市中和區圓通路105號","121.499573333333","24.9965866666667","6500300","中和區"
"235042","551-UM","2018/06/01 18:59:41","新北市永和區成功路二段199-2號","121.526563333333","24.99606","6500300","中和區"
"235070","558-UM","2018/06/01 18:59:43","新北市中和區安和路173號","121.506135","24.997845","6500300","中和區"
"235045","565-BX","2018/06/01 18:59:41","新北市中和區景新街467巷32弄10號","121.51432","24.98809","6500300","中和區"
"235060","647-TV","2018/06/01 18:59:46","新北市中和區民治街30號","121.475275","25.0036166666667","6500300","中和區"
"235046","733-UM","2018/06/01 18:59:45","新北市中和區興南路二段11號","121.508181666667","24.986175","6500300","中和區"
"235071","783-BX","2018/06/01 18:59:31","新北市中和區員山路36巷16-3號","121.485158333333","24.9911933333333","6500300","中和區"
"235062","800-TS","2018/06/01 18:59:39","新北市中和區中山路二段362-6號","121.492241666667","25.0031533333333","6500300","中和區"
"235057","801-TS","2018/06/01 18:59:33","新北市中和區民利街40巷1弄12號","121.479016666667","24.9990283333333","6500300","中和區"
"235041","802-TS","2018/06/01 18:59:34","新北市中和區宜安路66號","121.511546666667","24.9971833333333","6500300","中和區"
"235052","805-TS","2018/06/01 18:59:48","新北市中和區興南路二段347號","121.500073333333","24.9800466666667","6500300","中和區"
"235048","896-TW","2018/06/01 18:59:50","新北市中和區華新街109巷2號","121.508356666667","24.982605","6500300","中和區"
"235053","900-TW","2018/06/01 18:59:37","新北市中和區民德路358號","121.466318333333","24.9938833333333","6500300","中和區"
"235066","911-UM","2018/06/01 18:59:29","新北市中和區中山路二段131巷5弄28號","121.503486666667","25.0033583333333","6500300","中和區"
"235051","157-BY","2018/06/01 18:59:45","新北市中和區忠孝街31巷27號","121.50989","24.9841716666667","6500300","中和區"
"235037","AAC-213","2018/06/01 18:59:43","新北市中和區秀朗路三段10巷37弄4號","121.524163333333","24.9960383333333","6500300","中和區"
"235059","AAC-215","2018/06/01 18:59:40","新北市中和區圓通路367巷2號","121.491288333333","24.9894283333333","6500300","中和區"
"220065","072-UY","2018/06/01 18:59:50","新北市板橋區漢生東路330-1號","121.471841666667","25.0078466666667","6500100","板橋區"
"220086","073-UY","2018/06/01 18:59:48","新北市板橋區民權路308號","121.457053333333","25.0162066666667","6500100","板橋區"
"220106","075-UY","2018/06/01 18:59:46","新北市板橋區文化路二段124巷28-2號","121.471225","25.02562","6500100","板橋區"
"220069","AAD-861","2018/06/01 18:59:35","新北市板橋區華興街76號","121.457088333333","25.00508","6500100","板橋區"
"226004","312-R5","2018/06/01 18:59:48","新北市平溪區望古里灰3-1號","121.75447","25.02812","6502400","平溪區"
"235047","251-BX","2018/06/01 18:59:41","新北市中和區興南路二段54巷11弄6號","121.505598333333","24.9854766666667","6500300","中和區"
"228002","663-BX","2018/06/01 18:59:46","新北市貢寮區福隆里東興街106巷21弄2號","121.946088333333","25.0179","6502600","貢寮區"
"228001","670-TC","2018/06/01 18:59:38","新北市貢寮區仁理村保健街69號","121.923745","25.05159","6502600","貢寮區"
"228003","828-UM","2018/06/01 18:59:42","新北市貢寮區和美里龍洞街56-2號","121.912148333333","25.1139033333333","6502600","貢寮區"
"224010","AGQ-8101","2018/06/01 18:56:31","新北市瑞芳區基山街31巷2號","121.845646666667","25.1092416666667","6501200","瑞芳區"
"224006","676-BX","2018/06/01 18:59:32","新北市瑞芳區中正路2號","121.808973333333","25.107015","6501200","瑞芳區"
"224008","285-BY","2018/06/01 18:59:46","新北市瑞芳區逢甲路347-2號","121.797915","25.1139666666667","6501200","瑞芳區"
"224007","275-VK","2018/06/01 18:59:30","新北市瑞芳區中央路48巷162號","121.759418333333","25.1035166666667","6501200","瑞芳區"
"224009","273-VK","2018/06/01 18:59:49","新北市瑞芳區洞頂路205號","121.860498333333","25.122","6501200","瑞芳區"
"224005","271-BY","2018/06/01 18:59:39","新北市瑞芳區瑞濱路67號","121.822223333333","25.1209783333333","6501200","瑞芳區"
"227003","642-TC","2018/06/01 18:59:45","新北市雙溪區平林里康福家園10號","121.858711666667","25.03724","6502500","雙溪區"
"227011","400-TW","2018/06/01 18:59:28","新北市雙溪區牡丹里中正路58巷23號","121.866495","25.0416366666667","6502500","雙溪區"
"253005","032-BX","2018/06/01 18:59:36","新北市石門區中央路36號","121.568001666667","25.2926066666667","6502200","石門區"
"253006","295-VK","2018/06/01 18:59:37","新北市石門區八甲9-2號","121.521738333333","25.2817433333333","6502200","石門區"
"222001","KEA-2212","2018/06/01 18:59:44","新北市深坑區北深路一段264號","121.629373333333","25.00871","6501800","深坑區"
"208002","KEA-2872","2018/06/01 18:59:39","新北市金山區信義路39號","121.635258333333","25.2195516666667","6502700","金山區"
"208003","665-BX","2018/06/01 18:59:39","新北市金山區中正路53號","121.634581666667","25.2219366666667","6502700","金山區"
"208001","761-BX","2018/06/01 18:59:47","新北市金山區中山路79號","121.640391666667","25.2186316666667","6502700","金山區"
"251001","011-UM","2018/06/01 18:59:38","新北市淡水區自強路58號","121.463168333333","25.12755","6501000","淡水區"
"251002","012-UM","2018/06/01 18:59:41","新北市淡水區中正東路43號","121.446371666667","25.1681033333333","6501000","淡水區"
"251010","413-VK","2018/06/01 18:59:34","新北市淡水區中正路一段156巷55號","121.422171666667","25.1811083333333","6501000","淡水區"
"251007","442-VK","2018/06/01 18:59:38","新北市淡水區民生路113巷1弄35號","121.463126666667","25.1386233333333","6501000","淡水區"
"251011","650-BX","2018/06/01 18:59:33","新北市淡水區中正東路二段143巷2弄1號","121.460755","25.1474133333333","6501000","淡水區"
"251003","673-BX","2018/06/01 18:59:42","新北市淡水區中山北路一段149巷24號","121.442956666667","25.1779366666667","6501000","淡水區"
"207003","550-UM","2018/06/01 18:59:35","新北市萬里區大鵬里頂社23號","121.657093333333","25.2104166666667","6502800","萬里區"
"207004","225-TW","2018/06/01 18:59:29","新北市萬里區萬里里獅頭路23號","121.6932","25.17825","6502800","萬里區"
"252002","178-VK","2018/06/01 18:59:37","新北市三芝區中正路一段56號","121.503578333333","25.25799","6502100","三芝區"
"252003","249-BX","2018/06/01 18:59:36","新北市三芝區後厝里北勢子20號","121.473958333333","25.25418","6502100","三芝區"
"252001","292-VK","2018/06/01 18:59:40","新北市三芝區中興街二段260號","121.501715","25.253065","6502100","三芝區"
"237004","KEA-2597","2018/06/01 18:59:38","新北市三峽區有木206號","121.439098333333","24.851525","6500900","三峽區"
"237007","153-BY","2018/06/01 18:59:40","新北市三峽區中正路二段42巷84號","121.364291666667","24.9205666666667","6500900","三峽區"
"237013","252-BX","2018/06/01 18:59:49","新北市三峽區光明路69巷25號","121.37667","24.9292283333333","6500900","三峽區"
"237012","275-BY","2018/06/01 18:59:38","新北市三峽區三樹路222巷192-6號","121.388443333333","24.9421816666667","6500900","三峽區"
"237008","302-VK","2018/06/01 18:59:34","新北市三峽區中正路一段191巷7-1號","121.372966666667","24.9277533333333","6500900","三峽區"
"237014","433-BY","2018/06/01 18:59:38","新北市三峽區隆恩街236號","121.357768333333","24.9411566666667","6500900","三峽區"
"237011","280-TH","2018/06/01 18:59:35","新北市三峽區中正路一段146號","121.373355","24.9289183333333","6500900","三峽區"
"237006","5529-G3","2018/06/01 18:59:31","新北市三峽區橫溪路99巷31號","121.40084","24.9361333333333","6500900","三峽區"
"237015","649-BX","2018/06/01 18:59:39","新北市三峽區建安80-2號","121.45146","24.9231383333333","6500900","三峽區"
"237010","706-TV","2018/06/01 18:59:37","新北市三峽區復興路56號","121.373496666667","24.9370766666667","6500900","三峽區"
"237005","AKY-6261","2018/06/01 18:59:46","新北市三峽區中山路459巷163-3號","121.348705","24.9328816666667","6500900","三峽區"
"236069","105-UM","2018/06/01 18:59:35","新北市土城區學士路49號","121.453166666667","24.98064","6501300","土城區"
"236042","107-UM","2018/06/01 18:59:38","新北市土城區學府路一段189巷11弄2號","121.452568333333","24.9844666666667","6501300","土城區"
"236079","166-UM","2018/06/01 18:59:30","新北市土城區中央路四段464號","121.409936666667","24.95057","6501300","土城區"
"236030","253-BX","2018/06/01 18:59:43","新北市土城區慶利街30號","121.438938333333","24.9744866666667","6501300","土城區"
"236026","269-VK","2018/06/01 18:59:49","新北市土城區中正路74巷3弄1號","121.444763333333","24.97489","6501300","土城區"
"236014","270-VK","2018/06/01 18:59:44","新北市土城區立德路36號","121.463463333333","24.9874516666667","6501300","土城區"
"236039","271-VK","2018/06/01 18:59:39","新北市土城區仁愛路13巷1號","121.460286666667","24.98082","6501300","土城區"
"236020","401-BY","2018/06/01 18:59:42","新北市土城區延吉街168巷9號","121.468041666667","24.9858716666667","6501300","土城區"
"236059","912-UM","2018/06/01 18:59:47","新北市土城區金城路二段200號","121.454618333333","24.9816116666667","6501300","土城區"
"236048","913-UM","2018/06/01 18:59:45","新北市土城區明德路一段288號","121.456651666667","24.9776566666667","6501300","土城區"
"236063","915-UM","2018/06/01 18:59:49","新北市土城區延和路86號","121.466355","24.9894283333333","6501300","土城區"
"236055","AAC-216","2018/06/01 18:59:47","新北市土城區學成路122號","121.449403333333","24.989425","6501300","土城區"
"238023","601-UM","2018/06/01 18:59:36","新北市樹林區工興街35巷1號","121.40133","25.0131616666667","6500700","樹林區"
"238019","599-UM","2018/06/01 18:59:45","新北市樹林區鎮前街415號","121.414281666667","24.9831466666667","6500700","樹林區"
"238018","571-TV","2018/06/01 18:59:38","新北市樹林區太平路48號","121.419015","24.9825166666667","6500700","樹林區"
"238022","KEA-2213","2018/06/01 18:59:37","新北市樹林區東興街16巷32號","121.408621666667","24.9779583333333","6500700","樹林區"
"238021","KEA-2539","2018/06/01 18:59:17","新北市樹林區柑園街二段276巷22號","121.372928333333","24.95302","6500700","樹林區"
"238025","303-VK","2018/06/01 18:59:32","新北市樹林區中山路三段361號","121.389758333333","24.9703683333333","6500700","樹林區"
"238017","283-BY","2018/06/01 18:59:47","新北市樹林區光興街44號","121.409878333333","25.002735","6500700","樹林區"
"238014","282-BY","2018/06/01 18:59:49","新北市樹林區潭興街141巷2號","121.425671666667","24.9996116666667","6500700","樹林區"
"238020","268-VK","2018/06/01 18:59:34","新北市樹林區俊英街195號","121.423453333333","25.01224","6500700","樹林區"
"238026","172-UY","2018/06/01 18:59:41","新北市樹林區吉祥街31號","121.396071666667","24.9737516666667","6500700","樹林區"
"238016","169-UY","2018/06/01 18:59:14","新北市樹林區復興路373巷7弄11號","121.417663333333","24.9868483333333","6500700","樹林區"
"239007","AAC-297","2018/06/01 18:59:47","新北市鶯歌區中正一路347號","121.357551666667","24.9571033333333","6500800","鶯歌區"
"239006","891-R6","2018/06/01 18:59:41","新北市鶯歌區鶯桃路279號","121.335153333333","24.96001","6500800","鶯歌區"
"239008","527-UM","2018/06/01 18:59:43","新北市鶯歌區國際二路8巷18號","121.338781666667","24.9741983333333","6500800","鶯歌區"
"239005","526-UM","2018/06/01 18:59:32","新北市鶯歌區中湖街2號","121.346313333333","24.9728183333333","6500800","鶯歌區"
"239001","417-VK","2018/06/01 18:59:52","新北市鶯歌區永安街21號","121.33785","24.95566","6500800","鶯歌區"
"239003","360-BY","2018/06/01 18:59:47","新北市鶯歌區鶯桃路442號","121.33285","24.9648816666667","6500800","鶯歌區"
"239002","359-BY","2018/06/01 18:59:35","新北市鶯歌區中山路315號","121.34404","24.9569316666667","6500800","鶯歌區"
"239004","193-VK","2018/06/01 18:59:48","新北市鶯歌區二甲路111號","121.333646666667","24.9315133333333","6500800","鶯歌區"
"221008","489-VK","2018/06/01 18:59:37","新北市汐止區康寧街753巷2弄22號","121.640121666667","25.074515","6501100","汐止區"
"221036","130-UY","2018/06/01 18:59:34","新北市汐止區信義路1號","121.662458333333","25.0694616666667","6501100","汐止區"
"221015","131-UY","2018/06/01 18:59:49","新北市汐止區汐萬路一段2號","121.656181666667","25.0672433333333","6501100","汐止區"
"221010","269-BY","2018/06/01 18:59:42","新北市汐止區康寧街901號","121.651461666667","25.0749983333333","6501100","汐止區"
"221012","278-VK","2018/06/01 18:59:40","新北市汐止區康寧街901號","121.650868333333","25.0752866666667","6501100","汐止區"
"221023","279-VK","2018/06/01 18:59:46","新北市汐止區康寧街901號","121.65099","25.075215","6501100","汐止區"
"221032","280-BY","2018/06/01 18:59:43","新北市汐止區橫科路407巷30弄28號","121.627298333333","25.048295","6501100","汐止區"
"221027","281-BY","2018/06/01 18:59:41","新北市汐止區康寧街901號","121.651463333333","25.074915","6501100","汐止區"
"221029","298-VK","2018/06/01 18:59:39","新北市汐止區樟樹一路256號","121.642391666667","25.0673416666667","6501100","汐止區"
"221021","299-VK","2018/06/01 18:59:32","新北市汐止區康寧街901號","121.651543333333","25.0749316666667","6501100","汐止區"
"221031","353-TW","2018/06/01 18:59:40","新北市汐止區福德二路156巷19號","121.629616666667","25.0655966666667","6501100","汐止區"
"221035","622-UM","2018/06/01 18:59:38","新北市汐止區汐萬路一段155號","121.653156666667","25.07099","6501100","汐止區"
"221025","623-UM","2018/06/01 18:59:35","新北市汐止區汐萬路一段256巷3號","121.652455","25.074575","6501100","汐止區"
"221038","646-BX","2018/06/01 18:59:42","新北市汐止區康寧街901號","121.650725","25.075315","6501100","汐止區"
"221033","647-BX","2018/06/01 18:59:36","新北市汐止區南勢街1巷1號","121.627073333333","25.0374633333333","6501100","汐止區"
"221002","707-TV","2018/06/01 18:59:41","新北市汐止區大同路一段2號","121.620971666667","25.0549566666667","6501100","汐止區"
"220079","145-BY","2018/06/01 18:59:48","新北市板橋區民權路202巷18弄1號","121.460838333333","25.0166783333333","6500100","板橋區"
"220080","200-UY","2018/06/01 18:59:50","新北市板橋區大觀路二段265巷5號","121.443146666667","24.9963966666667","6500100","板橋區"
"220082","610-BX","2018/06/01 18:59:47","新北市板橋區溪北路38號","121.427175","24.9902016666667","6500100","板橋區"
"220101","245-BX","2018/06/01 18:59:49","新北市板橋區莊敬路62號","121.47247","25.0263866666667","6500100","板橋區"
"220093","267-BY","2018/06/01 18:59:51","新北市板橋區民生路三段68-1號","121.466738333333","25.0259883333333","6500100","板橋區"
"220056","276-BY","2018/06/01 18:59:49","新北市板橋區信義路161號","121.458511666667","24.99251","6500100","板橋區"
"220072","277-BY","2018/06/01 18:59:52","新北市板橋區大觀路三段50巷49號","121.432168333333","24.99574","6500100","板橋區"
"220071","283-VK","2018/06/01 18:59:46","新北市板橋區忠孝路154巷11號","121.464123333333","25.001935","6500100","板橋區"
"220094","285-UM","2018/06/01 18:59:51","新北市板橋區莒光路1-1號","121.469558333333","25.0248783333333","6500100","板橋區"
"220053","285-VK","2018/06/01 18:59:48","新北市板橋區中山路二段89巷58號","121.473768333333","25.0173516666667","6500100","板橋區"
"220083","286-VK","2018/06/01 18:59:32","新北市板橋區大觀路一段38巷174號","121.441688333333","25.0046283333333","6500100","板橋區"
"220081","287-VK","2018/06/01 18:59:47","新北市板橋區光華街19巷3號","121.453625","25.012025","6500100","板橋區"
"220090","288-VK","2018/06/01 18:59:46","新北市板橋區四維路179號","121.464301666667","25.0263566666667","6500100","板橋區"
"220061","293-UM","2018/06/01 18:59:47","新北市板橋區富山街109巷81號","121.47516","25.0210433333333","6500100","板橋區"
"220084","296-UM","2018/06/01 18:59:37","新北市板橋區大觀路三段52號","121.432258333333","24.9959283333333","6500100","板橋區"
"220075","303-R5","2018/06/01 18:59:51","新北市板橋區館前西路159號","121.456043333333","25.00805","6500100","板橋區"
"220092","307-R5","2018/06/01 18:59:40","新北市板橋區板新路238號","121.468028333333","25.01629","6500100","板橋區"
"220098","317-R6","2018/06/01 18:59:50","新北市板橋區民有街16號","121.466283333333","25.02493","6500100","板橋區"
"220064","486-VK","2018/06/01 18:59:48","新北市板橋區中山路一段273號","121.469055","25.01352","6500100","板橋區"
"220088","491-VK","2018/06/01 18:59:37","新北市板橋區民生路二段216號","121.469388333333","25.0215","6500100","板橋區"
"220035","560-BX","2018/06/01 18:59:36","新北市板橋區中正路341巷37號","121.453968333333","25.0198516666667","6500100","板橋區"
"220103","561-BX","2018/06/01 18:59:51","新北市板橋區民生路二段123號","121.470648333333","25.018515","6500100","板橋區"
"220063","609-BX","2018/06/01 18:59:47","新北市板橋區中山路二段150號","121.476666666667","25.0170666666667","6500100","板橋區"
"220091","637-BX","2018/06/01 18:59:53","新北市板橋區雙十路二段47巷2號","121.476285","25.026125","6500100","板橋區"
"220057","686-BX","2018/06/01 18:59:32","新北市板橋區重慶路99號","121.462203333333","25.0055783333333","6500100","板橋區"
"220077","687-BX","2018/06/01 18:59:36","新北市板橋區大觀路二段269號","121.442958333333","24.998925","6500100","板橋區"
"220054","741-BX","2018/06/01 18:59:52","新北市板橋區重慶路139巷2號","121.46254","25.0043933333333","6500100","板橋區"
"220102","KEA-2699","2018/06/01 18:59:49","新北市板橋區懷德街235巷2-1號","121.481378333333","25.0280033333333","6500100","板橋區"
"220055","827-TW","2018/06/01 18:59:48","新北市板橋區中山路一段158巷33-2號","121.466655","25.0110166666667","6500100","板橋區"
"220067","829-TW","2018/06/01 18:59:40","新北市板橋區三民路二段正隆巷12弄16-2號","121.477673333333","25.0135216666667","6500100","板橋區"
"220068","830-TW","2018/06/01 18:59:35","新北市板橋區三民路一段31巷52號","121.481441666667","25.0229383333333","6500100","板橋區"
"220096","831-TW","2018/06/01 18:59:42","新北市板橋區莒光路84號","121.471685","25.0240433333333","6500100","板橋區"
"220089","833-TW","2018/06/01 18:59:35","新北市板橋區文化路二段294號","121.471945","25.029565","6500100","板橋區"
"220074","895-R6","2018/06/01 18:59:34","新北市板橋區林園街28-2號","121.453831666667","25.010015","6500100","板橋區"
"220073","985-R7","2018/06/01 18:59:45","新北市板橋區民權路200號","121.459073333333","25.013865","6500100","板橋區"
"220097","AAC-210","2018/06/01 18:59:35","新北市板橋區漢生東路83巷26號","121.467881666667","25.0164683333333","6500100","板橋區"
"220070","AAC-253","2018/06/01 18:59:44","新北市板橋區四川路一段205號","121.46014","25.0035133333333","6500100","板橋區"
"235068","KEA-2873","2018/06/01 18:59:44","新北市中和區圓通路222號","121.495418333333","24.9930816666667","6500300","中和區"
"235061","KEA-2875","2018/06/01 18:59:37","新北市中和區民享街2巷2號","121.473786666667","25.0059","6500300","中和區"
