"lineid","car","time","location","longitude","latitude","cityid","cityname"
"234046","148-BY","2018/06/01 19:59:34","新北市永和區成功路一段20號","121.52705","25.0050366666667","6500400","永和區"
"234007","207-UY","2018/06/01 19:59:34","新北市永和區保生路22巷21號","121.507215","25.0083233333333","6500400","永和區"
"234081","298-R6","2018/06/01 19:59:44","新北市永和區永亨路98號","121.522986666667","25.0047983333333","6500400","永和區"
"234038","336-UY","2018/06/01 19:59:42","新北市永和區成功路二段126號","121.526576666667","24.9976883333333","6500400","永和區"
"234064","337-UY","2018/06/01 19:59:37","新北市永和區中正路412巷18號","121.51852","25.0020666666667","6500400","永和區"
"234086","338-UY","2018/06/01 19:59:43","新北市永和區福和路158號","121.52157","25.0079916666667","6500400","永和區"
"234070","552-UM","2018/06/01 19:59:36","新北市永和區國光路25號","121.519653333333","25.00839","6500400","永和區"
"234017","745-BX","2018/06/01 19:59:34","新北市永和區文化路39號","121.514576666667","25.0150683333333","6500400","永和區"
"234030","746-BX","2018/06/01 19:59:37","新北市永和區民生路22巷32號","121.521045","24.997025","6500400","永和區"
"234054","KEA-2590","2018/06/01 19:59:32","新北市永和區環河東路一段122號","121.520725","25.0156066666667","6500400","永和區"
"234013","KEA-2591","2018/06/01 19:59:40","新北市永和區保生路55號","121.504708333333","25.0105733333333","6500400","永和區"
"234061","AAD-866","2018/06/01 19:59:42","新北市永和區得和路47號","121.516596666667","25.0002266666667","6500400","永和區"
"234042","862-TW","2018/06/01 19:59:40","新北市永和區雙和街17巷1號","121.509298333333","25.0017833333333","6500400","永和區"
"234050","863-TW","2018/06/01 19:59:41","新北市永和區保安路252巷4號","121.506255","25.0128783333333","6500400","永和區"
"234026","9371-KE","2018/06/01 19:59:27","新北市永和區水源街27巷14號","121.51132","25.003735","6500400","永和區"
"234011","9373-KE","2018/06/01 19:59:33","新北市永和區仁愛路352巷112弄26號","121.50201","25.0087466666667","6500400","永和區"
"249005","172-UM","2018/06/01 19:59:38","新北市八里區楓林路3-1號","121.382423333333","25.1304316666667","6502300","八里區"
"249001","173-UM","2018/06/01 19:59:41","新北市八里區中華路二段310號","121.403831666667","25.148335","6502300","八里區"
"249004","303-UY","2018/06/01 19:59:43","新北市八里區中華路二段31-1號","121.412255","25.15506","6502300","八里區"
"249002","305-UY","2018/06/01 19:59:44","新北市八里區頂寮二街1號","121.451015","25.12385","6502300","八里區"
"249003","593-UM","2018/06/01 19:59:31","新北市八里區訊塘路8號","121.39827","25.1448033333333","6502300","八里區"
"248016","026-BX","2018/06/01 19:59:37","新北市五股區成泰路三段577巷80弄50號","121.449728333333","25.1048483333333","6501500","五股區"
"248008","095-VK","2018/06/01 19:59:27","新北市五股區四維路30巷18號","121.467948333333","25.0714916666667","6501500","五股區"
"248018","225-UY","2018/06/01 19:59:06","新北市五股區登林路101號","121.41154","25.0779133333333","6501500","五股區"
"248012","247-BX","2018/06/01 19:59:42","新北市五股區民義路一段84號","121.435991666667","25.08499","6501500","五股區"
"248014","261-SL","2018/06/01 19:59:39","新北市五股區五福路14巷9號","121.434775","25.08877","6501500","五股區"
"248010","272-BY","2018/06/01 19:59:29","新北市五股區登林路46巷2號","121.432056666667","25.0686383333333","6501500","五股區"
"248004","677-BX","2018/06/01 19:59:46","新北市五股區成泰路一段32巷62號","121.435095","25.0669016666667","6501500","五股區"
"248002","678-BX","2018/06/01 19:59:36","新北市五股區成泰路三段487號","121.45082","25.099285","6501500","五股區"
"234023","9380-KE","2018/06/01 19:59:40","新北市永和區中正路696-1號","121.516596666667","25.00987","6500400","永和區"
"234077","969-R7","2018/06/01 19:59:44","新北市永和區民有街23巷45號","121.517731666667","24.9972433333333","6500400","永和區"
"234074","AAC-211","2018/06/01 19:59:40","新北市永和區豫溪街215巷18號","121.524061666667","25.0099433333333","6500400","永和區"
"234067","AAC-212","2018/06/01 19:59:34","新北市永和區永貞路368號","121.510043333333","25.0068016666667","6500400","永和區"
"234003","AAC-295","2018/06/01 19:59:28","新北市永和區中正路605號","121.516425","25.0096366666667","6500400","永和區"
"244013","069-UM","2018/06/01 19:40:26","新北市林口區麗園一街2巷1號","121.375731666667","25.0718216666667","6501700","林口區"
"243013","AAD-798","2018/06/01 19:40:28","新北市泰山區應化街7號","121.423881666667","25.0437166666667","6501600","泰山區"
"243009","297-R6","2018/06/01 19:59:41","新北市泰山區泰林路二段164巷37號","121.434218333333","25.0612916666667","6501600","泰山區"
"243016","380-SR","2018/06/01 19:59:44","新北市泰山區明志路三段470號","121.420776666667","25.0320866666667","6501600","泰山區"
"243015","421-VK","2018/06/01 19:59:31","新北市泰山區明志路二段194號","121.427401666667","25.0496616666667","6501600","泰山區"
"243010","KEA-2216","2018/06/01 19:59:39","新北市泰山區中華街14巷1號","121.427673333333","25.0524","6501600","泰山區"
"243012","646-TV","2018/06/01 19:59:37","新北市泰山區全興路15號","121.432395","25.05892","6501600","泰山區"
"243014","680-BX","2018/06/01 19:59:30","新北市泰山區泰林路二段117號","121.43437","25.05958","6501600","泰山區"
"222002","016-RS","2018/06/01 19:59:33","新北市深坑區北深路二段81巷8弄2號","121.618385","25.00313","6501800","深坑區"
"222003","436-BY","2018/06/01 19:59:28","新北市深坑區埔新街14號","121.620745","25.0039","6501800","深坑區"
"231041","002-UM","2018/06/01 19:59:42","新北市新店區中正路354號","121.53577","24.97558","6500600","新店區"
"231059","046-UY","2018/06/01 19:59:34","新北市新店區安康路二段3-7號","121.515486666667","24.96369","6500600","新店區"
"231040","047-UY","2018/06/01 19:59:41","新北市新店區中正路60號","121.544346666667","24.9701883333333","6500600","新店區"
"231044","106-UY","2018/06/01 19:59:36","新北市新店區復興路38號","121.538963333333","24.98679","6500600","新店區"
"231053","108-UY","2018/06/01 19:59:28","新北市新店區新烏路三段225號","121.547295","24.8966383333333","6500600","新店區"
"231048","187-VK","2018/06/01 19:59:29","新北市新店區寶宏路18號","121.549308333333","24.9761833333333","6500600","新店區"
"231054","KEA-2219","2018/06/01 19:59:37","新北市新店區光明街135號","121.539496666667","24.961975","6500600","新店區"
"231057","256-BX","2018/06/01 19:59:46","新北市新店區花園二路一段11號","121.555531666667","24.9324733333333","6500600","新店區"
"231042","268-BY","2018/06/01 19:59:31","新北市新店區中興路一段290號","121.545856666667","24.9690716666667","6500600","新店區"
"231051","278-BY","2018/06/01 19:59:38","新北市新店區中央路151號","121.529556666667","24.9725333333333","6500600","新店區"
"231050","AAD-862","2018/06/01 19:59:36","新北市新店區光明街123號","121.539081666667","24.9618266666667","6500600","新店區"
"231066","4716-K9","2018/06/01 19:59:40","新北市新店區柴埕路2-1號","121.514951666667","24.9658766666667","6500600","新店區"
"231067","4772-VM","2018/06/01 19:59:41","新北市新店區溪洲路101-1號","121.532193333333","24.962395","6500600","新店區"
"231065","512-UM","2018/06/01 19:59:35","新北市新店區安祥路109巷8號","121.47547","24.958815","6500600","新店區"
"231049","513-UM","2018/06/01 19:59:41","新北市新店區明德路42-1號","121.541565","24.9782866666667","6500600","新店區"
"231045","617-UM","2018/06/01 19:59:44","新北市新店區北宜路二段82-12號","121.554633333333","24.9535166666667","6500600","新店區"
"231061","619-UM","2018/06/01 19:59:33","新北市新店區安民街314號","121.517581666667","24.9741566666667","6500600","新店區"
"231063","641-BX","2018/06/01 19:59:43","新北市新店區黎明路57巷2號","121.502425","24.9477183333333","6500600","新店區"
"231068","718-UY","2018/06/01 19:59:34","新北市新店區安一路一段1-1號","121.519423333333","24.961015","6500600","新店區"
"231064","719-UY","2018/06/01 19:59:43","新北市新店區光華街22號","121.516981666667","24.9692683333333","6500600","新店區"
"231062","720-UM","2018/06/01 19:59:40","新北市新店區華城路5-3號","121.52937","24.9582116666667","6500600","新店區"
"231060","897-TW","2018/06/01 19:59:30","新北市新店區安康路三段2-1號","121.493403333333","24.9534183333333","6500600","新店區"
"231043","899-TW","2018/06/01 19:59:35","新北市新店區中正路263-2號","121.538428333333","24.9736733333333","6500600","新店區"
"231055","AKT-0513","2018/06/01 19:59:37","新北市新店區中華路50號","121.539698333333","24.9683916666667","6500600","新店區"
"241011","013-R5","2018/06/01 19:59:36","新北市三重區三和路二段165號","121.497923333333","25.0696233333333","6500200","三重區"
"241028","022-UY","2018/06/01 19:59:31","新北市三重區中正南路50號","121.49399","25.059935","6500200","三重區"
"241008","059-VK","2018/06/01 19:59:28","新北市三重區永福街179巷22號","121.47827","25.07489","6500200","三重區"
"241031","061-VK","2018/06/01 19:59:28","新北市三重區重新路四段144巷7號","121.487013333333","25.05548","6500200","三重區"
"241015","062-VK","2018/06/01 19:59:34","新北市三重區三和路二段35-1號","121.500926666667","25.0671416666667","6500200","三重區"
"241017","063-VK","2018/06/01 19:59:34","新北市三重區自強路一段298號","121.49138","25.0683266666667","6500200","三重區"
"241024","065-VK","2018/06/01 19:59:26","新北市三重區力行路一段277號","121.482191666667","25.0714766666667","6500200","三重區"
"241026","066-VK","2018/06/01 19:59:29","新北市三重區福德南路15-1號","121.502693333333","25.063155","6500200","三重區"
"241002","090-VK","2018/06/01 19:59:47","新北市三重區仁愛街294號","121.492266666667","25.079265","6500200","三重區"
"241003","091-VK","2018/06/01 19:59:33","新北市三重區仁愛街430號","121.489705","25.0818233333333","6500200","三重區"
"241013","742-BX","2018/06/01 19:59:37","新北市三重區三和路三段125巷23號","121.493633333333","25.0734733333333","6500200","三重區"
"241005","262-UM","2018/06/01 19:59:44","新北市三重區溪尾街342號","121.488545","25.085145","6500200","三重區"
"241009","265-UM","2018/06/01 19:59:26","新北市三重區三和路四段390巷23號","121.480831666667","25.078765","6500200","三重區"
"241016","266-UM","2018/06/01 19:59:27","新北市三重區正義北路36巷22號","121.496345","25.06331","6500200","三重區"
"241022","267-UM","2018/06/01 19:59:27","新北市三重區過圳街31巷2號","121.489106666667","25.06059","6500200","三重區"
"241018","268-UM","2018/06/01 19:59:30","新北市三重區正義北路244巷23號","121.495246666667","25.0680533333333","6500200","三重區"
"241007","398-BY","2018/06/01 19:59:36","新北市三重區溪尾街160號","121.488801666667","25.0801266666667","6500200","三重區"
"241025","413-TH","2018/06/01 19:59:35","新北市三重區頂崁街210巷20號","121.476266666667","25.0678783333333","6500200","三重區"
"241035","462-BY","2018/06/01 19:59:29","新北市三重區大榮街7號","121.498111666667","25.0632033333333","6500200","三重區"
"241004","475-VK","2018/06/01 19:59:31","新北市三重區五華街74號","121.493491666667","25.0819516666667","6500200","三重區"
"241020","478-VK","2018/06/01 19:59:39","新北市三重區忠孝路一段87號","121.48996","25.0720533333333","6500200","三重區"
"241030","480-VK","2018/06/01 19:59:33","新北市三重區重新路四段248號","121.48613","25.0534333333333","6500200","三重區"
"241014","543-UM","2018/06/01 19:59:30","新北市三重區長樂街1號","121.499345","25.0689683333333","6500200","三重區"
"241023","545-UM","2018/06/01 19:59:41","新北市三重區頂崁街168號","121.477598333333","25.0658766666667","6500200","三重區"
"241019","KEA-2593","2018/06/01 19:59:40","新北市三重區自強路二段9號","121.490206666667","25.0690766666667","6500200","三重區"
"241006","AAD-863","2018/06/01 19:59:27","新北市三重區力行路二段102號","121.482023333333","25.0748066666667","6500200","三重區"
"241002","887-TS","2018/06/01 19:59:36","新北市三重區朝陽街23號","121.483621666667","25.0565266666667","6500200","三重區"
"241012","941-UM","2018/06/01 19:59:41","新北市三重區仁厚街68號","121.500566666667","25.076655","6500200","三重區"
"241029","942-UM","2018/06/01 19:59:33","新北市三重區重安街6號","121.490186666667","25.05838","6500200","三重區"
"241033","AAC-255","2018/06/01 19:59:32","新北市三重區中興北街63號","121.469568333333","25.0475266666667","6500200","三重區"
"235056","096-UM","2018/06/01 19:59:36","新北市中和區中山路三段170巷8弄17號","121.473118333333","25.007745","6500300","中和區"
"235039","097-UM","2018/06/01 19:59:42","新北市中和區大勇街25巷15弄21-3號","121.51507","24.9935166666667","6500300","中和區"
"235065","098-UM","2018/06/01 19:59:43","新北市中和區永和路90巷2弄1號","121.497371666667","25.0058433333333","6500300","中和區"
"235040","150-BY","2018/06/01 19:59:34","新北市中和區保健路10巷21弄1號","121.5077","24.9969133333333","6500300","中和區"
"235055","183-VK","2018/06/01 19:59:44","新北市中和區民生街23巷1弄1號","121.470873333333","25.0054216666667","6500300","中和區"
"235067","255-BX","2018/06/01 19:59:29","新北市中和區中正路866-5號","121.484551666667","25.0059016666667","6500300","中和區"
"235044","293-VK","2018/06/01 19:59:39","新北市中和區中正路67號","121.501166666667","24.9934616666667","6500300","中和區"
"235054","269-TV","2018/06/01 19:59:31","新北市中和區莒光路11號","121.471946666667","25.005775","6500300","中和區"
"235050","4979-A6","2018/06/01 19:59:33","新北市中和區景平路155巷24號","121.513521666667","24.9916183333333","6500300","中和區"
"235069","4980-A6","2018/06/01 19:59:27","新北市中和區圓通路75號","121.499955","24.9969933333333","6500300","中和區"
"235042","551-UM","2018/06/01 19:59:41","新北市中和區保健路9號","121.507956666667","24.998425","6500300","中和區"
"235070","558-UM","2018/06/01 19:59:43","新北市中和區圓通路135號","121.499126666667","24.9958783333333","6500300","中和區"
"235046","733-UM","2018/06/01 19:59:45","新北市中和區興南路一段105巷20弄1號","121.51025","24.9856383333333","6500300","中和區"
"235071","783-BX","2018/06/01 19:59:30","新北市五股區中興路三段2巷10號","121.44827","25.0828116666667","6500300","中和區"
"235041","802-TS","2018/06/01 19:59:33","新北市中和區安平路132號","121.512128333333","24.9978816666667","6500300","中和區"
"235052","805-TS","2018/06/01 19:59:28","新北市中和區忠孝街2號","121.508805","24.9829133333333","6500300","中和區"
"235048","896-TW","2018/06/01 19:59:30","新北市中和區興南路一段48號","121.511041666667","24.9906766666667","6500300","中和區"
"235066","911-UM","2018/06/01 19:59:29","新北市中和區中山路二段22號","121.504796666667","25.0053316666667","6500300","中和區"
"235051","157-BY","2018/06/01 19:59:25","新北市中和區復興路303號","121.501493333333","24.990205","6500300","中和區"
"235037","AAC-213","2018/06/01 19:59:43","新北市中和區自立路99巷22弄7號","121.52335","24.99419","6500300","中和區"
"235059","AAC-215","2018/06/01 19:59:40","新北市中和區圓通路347號","121.491541666667","24.9902783333333","6500300","中和區"
"220065","072-UY","2018/06/01 19:59:30","新北市板橋區民族路69巷14號","121.46578","25.00957","6500100","板橋區"
"220106","075-UY","2018/06/01 19:59:26","新北市板橋區民治街42巷26號","121.478125","25.033","6500100","板橋區"
"220069","AAD-861","2018/06/01 19:59:35","新北市板橋區大明街18-5號","121.458751666667","25.0028883333333","6500100","板橋區"
"247024","893-R6","2018/06/01 19:59:26","新北市蘆洲區光榮路120巷8弄35號","121.46479","25.0880783333333","6501400","蘆洲區"
"247014","546-UM","2018/06/01 19:59:41","新北市蘆洲區中山二路101號","121.472685","25.08188","6501400","蘆洲區"
"247010","341-TH","2018/06/01 19:59:38","新北市蘆洲區集賢路213號","121.483213333333","25.0871833333333","6501400","蘆洲區"
"247012","339-TH","2018/06/01 19:59:41","新北市蘆洲區民族路151號","121.47956","25.087945","6501400","蘆洲區"
"247004","337-TH","2018/06/01 19:59:36","新北市蘆洲區長安街267巷9弄1號","121.45789","25.0834833333333","6501400","蘆洲區"
"247006","336-TH","2018/06/01 19:59:45","新北市蘆洲區九芎街97號","121.466061666667","25.0795133333333","6501400","蘆洲區"
"247008","056-VK","2018/06/01 19:59:45","新北市蘆洲區中山一路95巷18號","121.477281666667","25.0807683333333","6501400","蘆洲區"
"247016","007-UY","2018/06/01 19:59:33","新北市蘆洲區光華路16號","121.469645","25.083455","6501400","蘆洲區"
"247002","002-UY","2018/06/01 19:59:39","新北市蘆洲區長安街272號","121.457288333333","25.0870033333333","6501400","蘆洲區"
"247020","001-UY","2018/06/01 19:59:26","新北市蘆洲區民義街66號","121.472903333333","25.0898","6501400","蘆洲區"
"228003","828-UM","2018/06/01 19:59:42","新北市貢寮區仁理村仁和路122號","121.922961666667","25.0511666666667","6502600","貢寮區"
"224010","AGQ-8101","2018/06/01 19:59:33","新北市瑞芳區輕便路328號","121.841221666667","25.1074183333333","6501200","瑞芳區"
"224002","639-TC","2018/06/01 19:59:36","新北市瑞芳區員山子路員山巷2-1號","121.816983333333","25.1036016666667","6501200","瑞芳區"
"227003","642-TC","2018/06/01 19:59:45","新北市雙溪區雙溪里長安街16號","121.864976666667","25.034665","6502500","雙溪區"
"227011","400-TW","2018/06/01 19:59:28","新北市雙溪區新基里新基南街25號","121.866241666667","25.038145","6502500","雙溪區"
"222001","KEA-2212","2018/06/01 19:59:44","新北市深坑區北深路三段165-1號","121.602198333333","25.0033533333333","6501800","深坑區"
"208002","KEA-2872","2018/06/01 19:59:39","新北市金山區中正路134-1號","121.631991666667","25.2206816666667","6502700","金山區"
"208003","665-BX","2018/06/01 19:59:39","新北市金山區永興里濆水路2號","121.624706666667","25.2704016666667","6502700","金山區"
"208001","761-BX","2018/06/01 19:59:47","新北市金山區南勢40號","121.628725","25.2206983333333","6502700","金山區"
"251004","009-UM","2018/06/01 19:59:31","新北市淡水區民族路50巷2弄4號","121.461333333333","25.1358433333333","6501000","淡水區"
"251005","010-UM","2018/06/01 19:59:34","新北市淡水區學府路136巷19號","121.451336666667","25.172805","6501000","淡水區"
"251001","011-UM","2018/06/01 19:59:38","新北市淡水區埤島3-17號","121.447106666667","25.190415","6501000","淡水區"
"251008","180-VK","2018/06/01 19:59:44","新北市淡水區中正路一段132巷7弄8號","121.422406666667","25.18011","6501000","淡水區"
"251010","413-VK","2018/06/01 19:59:34","新北市淡水區崁頂76-2號","121.431415","25.204135","6501000","淡水區"
"251012","443-VK","2018/06/01 19:59:43","新北市淡水區下圭柔山110-10號","121.439586666667","25.21188","6501000","淡水區"
"251006","561-UM","2018/06/01 19:59:41","新北市淡水區北新路10號","121.444508333333","25.1773466666667","6501000","淡水區"
"251009","575-R6","2018/06/01 19:59:37","新北市淡水區英專路28巷2弄5號","121.445921666667","25.169555","6501000","淡水區"
"251011","650-BX","2018/06/01 19:59:29","新北市淡水區崁頂55-3號","121.442285","25.196655","6501000","淡水區"
"251003","673-BX","2018/06/01 19:59:42","新北市淡水區中山北路二段189巷15弄31號","121.443516666667","25.1841916666667","6501000","淡水區"
"207003","550-UM","2018/06/01 19:59:35","新北市萬里區磺潭里公館崙8-1號","121.641766666667","25.2141033333333","6502800","萬里區"
"207004","225-TW","2018/06/01 19:59:29","新北市萬里區北基里忠二街35號","121.685673333333","25.175745","6502800","萬里區"
"252002","178-VK","2018/06/01 19:59:37","新北市三芝區忠孝街116-3號","121.50554","25.25761","6502100","三芝區"
"252001","292-VK","2018/06/01 19:59:40","新北市三芝區公正街66號","121.499836666667","25.257435","6502100","三芝區"
"237004","KEA-2597","2018/06/01 19:59:38","新北市三峽區添福1號","121.370818333333","24.9086133333333","6500900","三峽區"
"237007","153-BY","2018/06/01 19:59:20","新北市三峽區麻園46號","121.363698333333","24.9213683333333","6500900","三峽區"
"237009","210-TH","2018/06/01 19:59:37","新北市三峽區民族街3號","121.36909","24.93134","6500900","三峽區"
"237012","275-BY","2018/06/01 19:59:38","新北市三峽區中華路48巷16號","121.371086666667","24.9300383333333","6500900","三峽區"
"237014","433-BY","2018/06/01 19:59:37","新北市三峽區白雞14號","121.368163333333","24.9129466666667","6500900","三峽區"
"237006","5529-G3","2018/06/01 19:59:31","新北市三峽區中正路二段196號","121.365455","24.9148266666667","6500900","三峽區"
"237015","649-BX","2018/06/01 19:59:39","新北市三峽區介壽路二段138巷1弄148-2號","121.399446666667","24.9304683333333","6500900","三峽區"
"237005","AKY-6261","2018/06/01 19:59:26","新北市三峽區民生街1巷20號","121.37958","24.9350033333333","6500900","三峽區"
"236069","105-UM","2018/06/01 19:59:35","新北市土城區忠義路77號","121.443115","24.9649683333333","6501300","土城區"
"236042","107-UM","2018/06/01 19:59:44","新北市土城區學府路一段98巷8號","121.455986666667","24.988365","6501300","土城區"
"236079","166-UM","2018/06/01 19:59:30","新北市土城區福安街53號","121.41852","24.9644833333333","6501300","土城區"
"236030","253-BX","2018/06/01 19:59:43","新北市土城區中央路一段248-3號","121.444465","24.9846366666667","6501300","土城區"
"236026","269-VK","2018/06/01 19:59:29","新北市土城區中央路一段301號","121.443995","24.98361","6501300","土城區"
"236014","270-VK","2018/06/01 19:59:44","新北市土城區廣福街123號","121.45627","24.9929","6501300","土城區"
"236039","271-VK","2018/06/01 19:59:43","新北市土城區國際路52號","121.46631","24.97874","6501300","土城區"
"236020","401-BY","2018/06/01 19:59:42","新北市土城區延吉街87巷7號","121.472326666667","24.98679","6501300","土城區"
"236059","912-UM","2018/06/01 19:59:47","新北市土城區中央路一段325號","121.443878333333","24.9830366666667","6501300","土城區"
"236048","913-UM","2018/06/01 19:59:45","新北市土城區金城路三段315號","121.475188333333","24.991265","6501300","土城區"
"236063","915-UM","2018/06/01 19:59:37","新北市土城區金城路三段73巷4弄32號","121.46629","24.98833","6501300","土城區"
"236055","AAC-216","2018/06/01 19:59:31","新北市土城區延和路19號","121.464391666667","24.9883083333333","6501300","土城區"
"242034","AAC-296","2018/06/01 19:59:27","新北市新莊區建中街79號","121.447271666667","25.036675","6500500","新莊區"
"242058","986-R7","2018/06/01 19:59:36","新北市新莊區民安路352號","121.429633333333","25.022495","6500500","新莊區"
"242054","751-BX","2018/06/01 19:59:28","新北市新莊區西盛街419號","121.42735","25.0122266666667","6500500","新莊區"
"242025","613-BX","2018/06/01 19:58:32","新北市新莊區五工一路90號","121.461123333333","25.0677316666667","6500500","新莊區"
"242029","612-BX","2018/06/01 19:59:41","新北市新莊區中榮街152巷20號","121.44609","25.0533516666667","6500500","新莊區"
"242046","497-BY","2018/06/01 19:59:48","新北市新莊區裕民街19巷4號","121.419833333333","25.0252683333333","6500500","新莊區"
"242056","440-UM","2018/06/01 19:59:35","新北市新莊區中正路347巷17弄4號","121.447351666667","25.03434","6500500","新莊區"
"242037","415-TV","2018/06/01 19:59:30","新北市新莊區建安街27號","121.428925","25.0259083333333","6500500","新莊區"
"242007","413-TV","2018/06/01 19:59:25","新北市新莊區思源路589號","121.459646666667","25.05952","6500500","新莊區"
"242044","400-BY","2018/06/01 19:59:42","新北市新莊區中正路891-51號","121.412605","25.0222983333333","6500500","新莊區"
"242023","362-BY","2018/06/01 19:59:37","新北市新莊區化成路424號","121.466011666667","25.0510583333333","6500500","新莊區"
"242060","353-BY","2018/06/01 19:59:36","新北市新莊區瓊泰路39號","121.443786666667","25.028605","6500500","新莊區"
"242032","135-UY","2018/06/01 19:59:43","新北市新莊區公園一路77號","121.443211666667","25.0371183333333","6500500","新莊區"
"242048","172-VK","2018/06/01 19:59:40","新北市新莊區富國路109巷2號","121.423705","25.0251133333333","6500500","新莊區"
"242011","173-VK","2018/06/01 19:59:41","新北市新莊區中港路531巷35號","121.449975","25.051345","6500500","新莊區"
"242017","175-VK","2018/06/01 19:59:42","新北市新莊區中港路320號","121.4526","25.0457983333333","6500500","新莊區"
"242005","176-VK","2018/06/01 19:59:43","新北市新莊區化成路352巷29號","121.467141666667","25.0491283333333","6500500","新莊區"
"242015","346-TH","2018/06/01 19:59:42","新北市新莊區泰順街33巷4號","121.446201666667","25.0425966666667","6500500","新莊區"
"242039","347-TH","2018/06/01 19:59:29","新北市新莊區民安路358號","121.429938333333","25.0225916666667","6500500","新莊區"
"242021","348-TH","2018/06/01 19:59:42","新北市新莊區建中街48巷10弄12號","121.44862","25.038435","6500500","新莊區"
"242019","350-TH","2018/06/01 19:59:47","新北市新莊區民生街15巷7號","121.455433333333","25.0425283333333","6500500","新莊區"
"242013","351-TH","2018/06/01 19:59:34","新北市新莊區中信街6號","121.451471666667","25.050875","6500500","新莊區"
"238015","755-BX","2018/06/01 19:58:41","新北市樹林區中山路三段214號","121.38007","24.96787","6500700","樹林區"
"238021","KEA-2539","2018/06/01 19:59:37","新北市樹林區育德街121巷7號","121.389158333333","24.968215","6500700","樹林區"
"221008","489-VK","2018/06/01 19:59:37","新北市汐止區忠一街9巷7號","121.620503333333","25.0732083333333","6501100","汐止區"
"221036","130-UY","2018/06/01 19:59:34","新北市汐止區新台五路二段85巷22號","121.664146666667","25.0674883333333","6501100","汐止區"
"221015","131-UY","2018/06/01 19:59:29","新北市汐止區橋東街61號","121.665583333333","25.0750266666667","6501100","汐止區"
"221010","269-BY","2018/06/01 19:59:42","新北市汐止區連峰街225巷27號","121.643898333333","25.0809333333333","6501100","汐止區"
"221012","278-VK","2018/06/01 19:59:40","新北市汐止區大同路三段334號","121.679406666667","25.071095","6501100","汐止區"
"221023","279-VK","2018/06/01 19:59:25","新北市汐止區中興路286巷1號","121.628338333333","25.069535","6501100","汐止區"
"221027","281-BY","2018/06/01 19:59:41","新北市汐止區中正路97號","121.660946666667","25.0693966666667","6501100","汐止區"
"221029","298-VK","2018/06/01 19:59:39","新北市汐止區樟樹一路137巷24號","121.641061666667","25.0659483333333","6501100","汐止區"
"221021","299-VK","2018/06/01 19:59:43","新北市汐止區水源路一段131號","121.656186666667","25.0625033333333","6501100","汐止區"
"221031","353-TW","2018/06/01 19:59:40","新北市汐止區福德一路255號","121.633481666667","25.0644366666667","6501100","汐止區"
"221035","622-UM","2018/06/01 19:59:38","新北市汐止區長江街57巷8號","121.65625","25.0718516666667","6501100","汐止區"
"221025","623-UM","2018/06/01 19:59:35","新北市汐止區秀峰路107號","121.660245","25.0634433333333","6501100","汐止區"
"221038","646-BX","2018/06/01 19:59:41","新北市汐止區忠孝東路475號","121.666103333333","25.0730666666667","6501100","汐止區"
"221033","647-BX","2018/06/01 19:59:36","新北市汐止區東勢街201巷129弄2號","121.633445","25.04285","6501100","汐止區"
"221018","753-BX","2018/06/01 19:59:38","新北市汐止區茄福街29號","121.672311666667","25.0667016666667","6501100","汐止區"
"220079","145-BY","2018/06/01 19:59:28","新北市板橋區南雅西路二段136號","121.451961666667","25.0128383333333","6500100","板橋區"
"220080","200-UY","2018/06/01 19:59:44","新北市板橋區大觀路二段175號","121.44513","25.000075","6500100","板橋區"
"242002","KEA-2550","2018/06/01 19:59:42","新北市新莊區新泰路76號","121.449068333333","25.0350133333333","6500500","新莊區"
"220101","245-BX","2018/06/01 19:59:24","新北市板橋區萬板路108號","121.474438333333","25.0233783333333","6500100","板橋區"
"220093","267-BY","2018/06/01 19:59:11","新北市板橋區長江路三段116號","121.475098333333","25.034365","6500100","板橋區"
"220072","277-BY","2018/06/01 19:59:31","新北市板橋區金門街109巷35號","121.434255","24.9914866666667","6500100","板橋區"
"220071","283-VK","2018/06/01 19:59:46","新北市板橋區和平路174巷37號","121.465221666667","24.9941183333333","6500100","板橋區"
"220094","285-UM","2018/06/01 19:59:31","新北市板橋區陽明街239號","121.463173333333","25.02456","6500100","板橋區"
"220053","285-VK","2018/06/01 19:59:42","新北市板橋區永豐街155號","121.475301666667","25.0202216666667","6500100","板橋區"
"220083","286-VK","2018/06/01 19:59:31","新北市板橋區僑中二街48巷18號","121.445545","25.01034","6500100","板橋區"
"220081","287-VK","2018/06/01 19:59:38","新北市板橋區大觀路一段28巷91-1號","121.450128333333","25.0113483333333","6500100","板橋區"
"220090","288-VK","2018/06/01 19:59:33","新北市板橋區新海路109巷1弄2號","121.460758333333","25.02243","6500100","板橋區"
"220061","293-UM","2018/06/01 19:59:42","新北市板橋區觀光街57巷15弄27號","121.471026666667","25.0158366666667","6500100","板橋區"
"220062","305-R5","2018/06/01 19:59:36","新北市五股區五工一路103號","121.45864","25.06936","6500100","板橋區"
"220092","307-R5","2018/06/01 19:59:43","新北市板橋區四維路259巷28號","121.462011666667","25.0275566666667","6500100","板橋區"
"220098","317-R6","2018/06/01 19:59:32","新北市板橋區新海路72巷64號","121.461881666667","25.0235533333333","6500100","板橋區"
"220064","486-VK","2018/06/01 19:59:28","新北市板橋區實踐路155號","121.464238333333","25.0041166666667","6500100","板橋區"
"220088","491-VK","2018/06/01 19:59:29","新北市板橋區懷德街189-3號","121.479848333333","25.0295683333333","6500100","板橋區"
"220035","560-BX","2018/06/01 19:59:36","新北市板橋區新生街53巷3弄2號","121.457565","25.0215833333333","6500100","板橋區"
"220103","561-BX","2018/06/01 19:59:31","新北市板橋區自由路13號","121.465453333333","25.0226233333333","6500100","板橋區"
"220091","637-BX","2018/06/01 19:59:32","新北市板橋區懷德街158巷5號","121.478563333333","25.0306033333333","6500100","板橋區"
"220054","741-BX","2018/06/01 19:59:31","新北市板橋區忠孝路201巷30號","121.465026666667","25.0033983333333","6500100","板橋區"
"220102","KEA-2699","2018/06/01 19:59:29","新北市板橋區仁化街64巷14號","121.475725","25.03152","6500100","板橋區"
"220055","827-TW","2018/06/01 19:59:28","新北市板橋區仁愛路62巷15弄2號","121.460043333333","24.99847","6500100","板橋區"
"220067","829-TW","2018/06/01 19:59:40","新北市板橋區漢生東路163號","121.469568333333","25.012635","6500100","板橋區"
"220068","830-TW","2018/06/01 19:59:35","新北市板橋區光復街180號","121.485311666667","25.0194883333333","6500100","板橋區"
"220096","831-TW","2018/06/01 19:59:42","新北市板橋區莒光路133巷7弄2號","121.472686666667","25.0244366666667","6500100","板橋區"
"220089","833-TW","2018/06/01 19:59:35","新北市板橋區龍泉街57號","121.457105","25.02593","6500100","板橋區"
"220074","895-R6","2018/06/01 19:59:34","新北市板橋區縣民大道一段287號","121.460683333333","25.0101433333333","6500100","板橋區"
"220073","985-R7","2018/06/01 19:59:42","新北市板橋區館前西路162號","121.452828333333","25.0085416666667","6500100","板橋區"
"220097","AAC-210","2018/06/01 19:59:36","新北市板橋區光正街18巷1-2號","121.462658333333","25.01723","6500100","板橋區"
"220070","AAC-253","2018/06/01 19:59:45","新北市板橋區成都街16號","121.460563333333","25.004765","6500100","板橋區"
"235068","KEA-2873","2018/06/01 19:59:43","新北市中和區福美路301巷6號","121.497238333333","25.0045783333333","6500300","中和區"
