"lineid","car","time","location","longitude","latitude","cityid","cityname"
"234077","969-R7","2018/06/01 20:59:44","新北市八里區中山路三段409號","121.36866","25.1356233333333","6500400","永和區"
"244013","069-UM","2018/06/01 20:31:38","新北市林口區粉寮69號","121.404803333333","25.0908116666667","6501700","林口區"
"231059","046-UY","2018/06/01 20:59:34","新北市新店區僑信路107號","121.500466666667","24.9464333333333","6500600","新店區"
"231040","047-UY","2018/06/01 20:59:41","新北市新店區中正路118號","121.542318333333","24.9711466666667","6500600","新店區"
"231053","108-UY","2018/06/01 20:59:28","新北市新店區光明街22號","121.538083333333","24.958845","6500600","新店區"
"231048","187-VK","2018/06/01 20:59:29","新北市新店區寶元路一段109號","121.545691666667","24.9831266666667","6500600","新店區"
"231054","KEA-2219","2018/06/01 20:59:37","新北市新店區北新路一段126巷32號","121.543361666667","24.9690116666667","6500600","新店區"
"231042","268-BY","2018/06/01 20:59:31","新北市新店區中興路二段231號","121.547858333333","24.9748316666667","6500600","新店區"
"231051","278-BY","2018/06/01 20:59:38","新北市新店區中正路663巷1弄24號","121.532795","24.9899133333333","6500600","新店區"
"231050","AAD-862","2018/06/01 20:59:36","新北市新店區三民路42號","121.53613","24.9715233333333","6500600","新店區"
"231066","4716-K9","2018/06/01 20:59:40","新北市新店區吉安街10號","121.516806666667","24.9657933333333","6500600","新店區"
"231056","4715-K9","2018/06/01 20:59:32","新北市新店區溪園路401號","121.523755","24.9780516666667","6500600","新店區"
"231067","4772-VM","2018/06/01 20:59:41","新北市新店區安德街148巷12弄6號","121.508113333333","24.9603233333333","6500600","新店區"
"231065","512-UM","2018/06/01 20:59:35","新北市新店區安祥路69巷86號","121.48276","24.9592216666667","6500600","新店區"
"231045","617-UM","2018/06/01 20:59:44","新北市新店區薏仁坑路6-1號","121.499788333333","24.95853","6500600","新店區"
"231061","619-UM","2018/06/01 20:59:38","新北市新店區新和街116巷7號","121.521398333333","24.986195","6500600","新店區"
"231063","641-BX","2018/06/01 20:59:42","新北市新店區如意街95號","121.495521666667","24.94714","6500600","新店區"
"231064","719-UY","2018/06/01 20:59:43","新北市新店區安民街303巷8號","121.51709","24.9737233333333","6500600","新店區"
"231062","720-UM","2018/06/01 20:59:40","新北市新店區雙城路41巷2號","121.492406666667","24.9488083333333","6500600","新店區"
"231060","897-TW","2018/06/01 20:59:30","新北市新店區安康路三段228號","121.488173333333","24.9518133333333","6500600","新店區"
"231043","899-TW","2018/06/01 20:59:35","新北市新店區中正路423號","121.53421","24.9779233333333","6500600","新店區"
"241011","013-R5","2018/06/01 20:59:36","新北市三重區秀江街119號","121.499701666667","25.07226","6500200","三重區"
"241028","022-UY","2018/06/01 20:59:30","新北市三重區中正北路23號","121.492131666667","25.0613566666667","6500200","三重區"
"241008","059-VK","2018/06/01 20:59:28","新北市三重區車路頭街135-1號","121.484306666667","25.0760966666667","6500200","三重區"
"241031","061-VK","2018/06/01 20:59:28","新北市三重區重陽路一段113巷1弄1號","121.48749","25.059825","6500200","三重區"
"241015","062-VK","2018/06/01 20:59:34","新北市三重區福德北路46號","121.502051666667","25.0655133333333","6500200","三重區"
"241017","063-VK","2018/06/01 20:59:34","新北市三重區大同北路132巷8號","121.492205","25.0646166666667","6500200","三重區"
"241024","065-VK","2018/06/01 20:59:46","新北市三重區國道路一段58巷15號","121.481331666667","25.0720616666667","6500200","三重區"
"241026","066-VK","2018/06/01 20:59:48","新北市三重區文化南路45號","121.500238333333","25.0614016666667","6500200","三重區"
"241002","090-VK","2018/06/01 20:59:47","新北市三重區仁義街143巷2號","121.497358333333","25.080565","6500200","三重區"
"241003","091-VK","2018/06/01 20:59:33","新北市三重區進安街198號","121.493905","25.08593","6500200","三重區"
"241013","742-BX","2018/06/01 20:59:36","新北市三重區仁愛街131號","121.495586666667","25.0748733333333","6500200","三重區"
"241005","262-UM","2018/06/01 20:59:44","新北市三重區三信路5號","121.488648333333","25.0864216666667","6500200","三重區"
"241009","265-UM","2018/06/01 20:59:45","新北市三重區三和路四段157號","121.48379","25.0783183333333","6500200","三重區"
"241016","266-UM","2018/06/01 20:59:27","新北市三重區正義北路96號","121.497105","25.064895","6500200","三重區"
"241022","267-UM","2018/06/01 20:59:27","新北市三重區過圳街27-5號","121.487983333333","25.0624116666667","6500200","三重區"
"241018","268-UM","2018/06/01 20:59:29","新北市三重區雙園街99號","121.493806666667","25.0673266666667","6500200","三重區"
"241007","398-BY","2018/06/01 20:59:37","新北市三重區慈愛街51號","121.486226666667","25.0790633333333","6500200","三重區"
"241025","413-TH","2018/06/01 20:59:35","新北市三重區貴陽街14號","121.48421","25.0617966666667","6500200","三重區"
"241004","475-VK","2018/06/01 20:59:31","新北市三重區仁愛街418號","121.490415","25.08138","6500200","三重區"
"241020","478-VK","2018/06/01 20:59:39","新北市三重區忠孝路二段34號","121.485915","25.071005","6500200","三重區"
"241030","480-VK","2018/06/01 20:59:33","新北市三重區環河南路220-8號","121.493365","25.0526383333333","6500200","三重區"
"241014","543-UM","2018/06/01 20:59:30","新北市三重區長榮路75號","121.502555","25.0691116666667","6500200","三重區"
"241023","545-UM","2018/06/01 20:59:41","新北市三重區洛陽街45巷15號","121.482341666667","25.06374","6500200","三重區"
"241019","KEA-2593","2018/06/01 20:59:39","新北市三重區自強路二段74巷23-1號","121.48794","25.06981","6500200","三重區"
"241006","AAD-863","2018/06/01 20:59:46","新北市三重區永福街58巷3弄27號","121.480566666667","25.0774683333333","6500200","三重區"
"241002","887-TS","2018/06/01 20:59:36","新北市三重區三陽路135號","121.483055","25.0589483333333","6500200","三重區"
"241012","941-UM","2018/06/01 20:59:41","新北市三重區仁信街6號","121.501295","25.075505","6500200","三重區"
"241029","942-UM","2018/06/01 20:59:33","新北市三重區正義南路111號","121.49825","25.0585716666667","6500200","三重區"
"241033","AAC-255","2018/06/01 20:59:38","新北市三重區光復路二段28號","121.472056666667","25.0541616666667","6500200","三重區"
"247024","893-R6","2018/06/01 20:59:46","新北市蘆洲區長興路213號","121.461161666667","25.0863616666667","6501400","蘆洲區"
"247014","546-UM","2018/06/01 20:59:41","新北市蘆洲區中山二路36巷15號","121.474273333333","25.0828366666667","6501400","蘆洲區"
"247022","500-BY","2018/06/01 20:59:46","新北市蘆洲區民族路500號","121.469665","25.090475","6501400","蘆洲區"
"247010","341-TH","2018/06/01 20:59:38","新北市蘆洲區鷺江街82號","121.477298333333","25.083885","6501400","蘆洲區"
"247012","339-TH","2018/06/01 20:59:41","新北市蘆洲區民權路26號","121.476733333333","25.0857583333333","6501400","蘆洲區"
"247004","337-TH","2018/06/01 20:59:36","新北市蘆洲區永安南路二段268號","121.45863","25.0806766666667","6501400","蘆洲區"
"247006","336-TH","2018/06/01 20:59:45","新北市蘆洲區永安南路二段18號","121.467723333333","25.0771566666667","6501400","蘆洲區"
"247018","057-VK","2018/06/01 20:59:42","新北市蘆洲區民權路136-1號","121.473228333333","25.0890033333333","6501400","蘆洲區"
"247008","056-VK","2018/06/01 20:59:45","新北市蘆洲區民生街123號","121.472806666667","25.0789416666667","6501400","蘆洲區"
"247016","007-UY","2018/06/01 20:59:32","新北市蘆洲區正和街94號","121.46809","25.0807583333333","6501400","蘆洲區"
"247020","001-UY","2018/06/01 20:59:45","新北市蘆洲區民族路488號","121.471178333333","25.091315","6501400","蘆洲區"
"222001","KEA-2212","2018/06/01 20:59:44","新北市深坑區北深路三段25巷13-3號","121.608918333333","25.000215","6501800","深坑區"
"251005","010-UM","2018/06/01 20:59:33","新北市淡水區學府路51巷2弄15號","121.447878333333","25.170065","6501000","淡水區"
"251001","011-UM","2018/06/01 20:59:38","新北市淡水區淡金路二段147號","121.449676666667","25.182845","6501000","淡水區"
"251002","012-UM","2018/06/01 20:59:41","新北市淡水區水源街一段145號","121.447415","25.1718566666667","6501000","淡水區"
"251010","413-VK","2018/06/01 20:59:34","新北市淡水區中正路一段118-3號","121.423835","25.1788033333333","6501000","淡水區"
"251007","442-VK","2018/06/01 20:59:38","新北市淡水區水源街一段157號","121.447806666667","25.1716466666667","6501000","淡水區"
"251012","443-VK","2018/06/01 20:59:43","新北市淡水區淡金路五段98號","121.456265","25.2360833333333","6501000","淡水區"
"251009","575-R6","2018/06/01 20:59:37","新北市淡水區民族路172號","121.461955","25.133795","6501000","淡水區"
"251011","650-BX","2018/06/01 20:59:29","新北市淡水區新民街322巷2號","121.435361666667","25.1836633333333","6501000","淡水區"
"251003","673-BX","2018/06/01 20:59:41","新北市淡水區新春街125巷5號","121.441525","25.1823133333333","6501000","淡水區"
"242002","KEA-2550","2018/06/01 20:59:41","新北市新莊區碧江街27-6號","121.452656666667","25.0330766666667","6500500","新莊區"
"242039","280-VK","2018/06/01 20:59:34","新北市新莊區瓊林北路41號","121.438901666667","25.021425","6500500","新莊區"
"220070","AAC-253","2018/06/01 20:59:44","新北市板橋區四川路2段6-1號","121.44775","24.99376","6500100","板橋區"
