"lineid","car","time","location","longitude","latitude","cityid","cityname"
"234077","969-R7","2018/06/01 21:49:45","新北市永和區福和路1號","121.526586666667","25.0098083333333","6500400","永和區"
"241005","262-UM","2018/06/01 21:49:44","新北市三重區碧華街337號","121.491723333333","25.0847716666667","6500200","三重區"
"235010","733-UM","2018/06/01 21:36:39","新北市中和區員山路36巷13號","121.484153333333","24.9908233333333","6500300","中和區"
"251004","009-UM","2018/06/01 21:49:44","新北市淡水區民權路14號","121.463213333333","25.1246833333333","6501000","淡水區"
"251005","010-UM","2018/06/01 21:49:33","新北市淡水區鄧公路30巷28號","121.45351","25.1697433333333","6501000","淡水區"
"251001","011-UM","2018/06/01 21:49:38","新北市淡水區後洲路一段157號","121.427766666667","25.198555","6501000","淡水區"
"251002","012-UM","2018/06/01 21:49:49","新北市淡水區大忠街126號","121.44736","25.1768616666667","6501000","淡水區"
"251008","180-VK","2018/06/01 21:49:32","新北市淡水區學府路104號","121.449833333333","25.1717683333333","6501000","淡水區"
"251010","413-VK","2018/06/01 21:49:34","新北市淡水區中正路二段211號","121.426183333333","25.189075","6501000","淡水區"
"251007","442-VK","2018/06/01 21:49:37","新北市淡水區水源街二段177巷66號","121.452553333333","25.1769816666667","6501000","淡水區"
"251012","443-VK","2018/06/01 21:49:43","新北市淡水區淡金路三段333號","121.44894","25.2064116666667","6501000","淡水區"
"251006","561-UM","2018/06/01 21:49:41","新北市淡水區中正路11巷3號","121.437806666667","25.1707783333333","6501000","淡水區"
"251009","575-R6","2018/06/01 21:49:37","新北市淡水區民族路35巷17號","121.464963333333","25.1367733333333","6501000","淡水區"
"251011","650-BX","2018/06/01 21:49:29","新北市淡水區新民街322巷9號","121.436331666667","25.1828233333333","6501000","淡水區"
"251003","673-BX","2018/06/01 21:49:41","新北市淡水區新春街92號","121.438951666667","25.1823533333333","6501000","淡水區"
