"lineid","car","time","location","longitude","latitude","cityid","cityname"
"234040","862-TW","2018/06/01 22:05:19","新北市永和區福和路1號","121.526386666667","25.0096783333333","6500400","永和區"
"251004","009-UM","2018/06/01 22:29:44","新北市淡水區民族路33號","121.46225","25.135795","6501000","淡水區"
"251008","180-VK","2018/06/01 22:29:32","新北市淡水區學府路110號","121.4501","25.1722","6501000","淡水區"
"251010","413-VK","2018/06/01 22:29:34","新北市淡水區沙崙路200號","121.424686666667","25.1839133333333","6501000","淡水區"
"251007","442-VK","2018/06/01 22:29:37","新北市淡水區北新路180號","121.4494","25.178795","6501000","淡水區"
"251011","650-BX","2018/06/01 22:29:29","新北市淡水區水碓街7號","121.443201666667","25.1771166666667","6501000","淡水區"
