"lineid","car","time","location","longitude","latitude","cityid","cityname"
"232016","291-BY","2018/06/02 06:39:26","新北市坪林區鶯子瀨12-1號","121.712891666667","24.9146083333333","6502000","坪林區"
"232010","375-UM","2018/06/02 06:39:19","新北市坪林區鶯子瀨1-2號","121.708416666667","24.918965","6502000","坪林區"
"232009","758-BX","2018/06/02 06:39:27","新北市坪林區北宜路八段558號","121.717871666667","24.9093733333333","6502000","坪林區"
"244005","248-BX","2018/06/02 06:39:11","新北市林口區粉寮路二段160巷28號","121.405198333333","25.090785","6501700","林口區"
"235001","611-BX","2018/06/02 06:39:22","新北市中和區圓通路367巷4號","121.49138","24.9892583333333","6500300","中和區"
"223006","022-BY","2018/06/02 06:39:14","新北市石碇區楓子林61號","121.644868333333","25.0110316666667","6501900","石碇區"
"223002","KEA-2673","2018/06/02 06:39:29","新北市石碇區石碇西街21號","121.658608333333","24.9877233333333","6501900","石碇區"
"223003","205-TH","2018/06/02 06:39:08","新北市石碇區碇坪路一段87號","121.662086666667","24.9908133333333","6501900","石碇區"
"223008","406-TH","2018/06/02 06:39:15","新北市石碇區碇坪路一段242號","121.675523333333","24.97878","6501900","石碇區"
"223001","592-UM","2018/06/02 06:39:26","新北市石碇區湳窟22-1號","121.661028333333","24.9911583333333","6501900","石碇區"
"223007","661-BX","2018/06/02 06:39:20","新北市石碇區石崁14-1號","121.65512","24.9945466666667","6501900","石碇區"
"227006","030-BX","2018/06/02 06:39:27","新北市雙溪區牡丹里聖南19號","121.85732","25.0526916666667","6502500","雙溪區"
"236011","165-UM","2018/06/02 06:39:12","新北市土城區永平街51號","121.428001666667","24.9591583333333","6501300","土城區"
