"lineid","car","time","location","longitude","latitude","cityid","cityname"
"248005","653-BX","2018/05/01 08:35:49","新北市五股區明德路12巷3號","121.433256666667","25.071815","6501500","五股區"
"248003","655-BX","2018/05/01 08:39:42","新北市五股區中興路二段1號","121.463148333333","25.074055","6501500","五股區"
"222004","289-BY","2018/05/01 08:39:41","新北市深坑區王軍寮1-10號","121.617676666667","24.988935","6501800","深坑區"
"231007","188-VK","2018/05/01 08:39:31","新北市新店區小坑二路102號","121.518556666667","24.9123516666667","6500600","新店區"
"231009","192-VK","2018/05/01 08:39:38","新北市新店區新烏路三段165巷20號","121.553061666667","24.9011483333333","6500600","新店區"
"235001","611-BX","2018/05/01 08:39:36","新北市中和區國光街87號","121.470473333333","25.0002333333333","6500300","中和區"
"226005","5620-A6","2018/05/01 08:39:33","新北市平溪區南山里南山坪124-1號","121.784456666667","25.0454166666667","6502400","平溪區"
"226002","7418-A5","2018/05/01 08:31:48","新北市平溪區東勢里東勢格12號","121.732641666667","25.0005433333333","6502400","平溪區"
"226006","AGD-0702","2018/05/01 08:39:49","新北市平溪區十分里十分街172號","121.778455","25.0437866666667","6502400","平溪區"
"223006","022-BY","2018/05/01 08:39:37","新北市石碇區八分寮47-1號","121.643206666667","25.013735","6501900","石碇區"
"223001","205-TH","2018/05/01 08:30:26","新北市石碇區北宜路六段柑腳巷2號","121.659583333333","24.938075","6501900","石碇區"
"223001","592-UM","2018/05/01 08:39:46","新北市石碇區北宜路六段柑腳巷2號","121.659608333333","24.9380433333333","6501900","石碇區"
"223004","660-BX","2018/05/01 08:39:33","新北市石碇區崩山24-2號","121.679458333333","24.9676416666667","6501900","石碇區"
"223005","677-TV","2018/05/01 08:39:51","新北市石碇區崩山24-2號","121.678605","24.9678466666667","6501900","石碇區"
"227006","282-VK","2018/05/01 08:39:41","新北市雙溪區上林里新寮子25號","121.83099","25.0267283333333","6502500","雙溪區"
"227012","030-BX","2018/05/01 08:39:39","新北市雙溪區上林里內平林90號","121.828036666667","25.02766","6502500","雙溪區"
"252004","249-BX","2018/05/01 08:39:47","新北市三芝區興華里楓子林38號","121.490763333333","25.2078566666667","6502100","三芝區"
"252007","AAC-283","2018/05/01 08:39:41","新北市三芝區後厝里番子崙10號","121.488791666667","25.2386266666667","6502100","三芝區"
"237001","159-UY","2018/05/01 08:39:37","新北市三峽區大學路192號","121.372413333333","24.9467366666667","6500900","三峽區"
"236008","165-UM","2018/05/01 08:39:47","新北市土城區金城路二段48號","121.451583333333","24.9790033333333","6501300","土城區"
"236002","339-SR","2018/05/01 08:39:39","新北市土城區金城路一段12號","121.43912","24.96877","6501300","土城區"
"236005","498-BY","2018/05/01 08:39:45","新北市土城區永和街46號","121.434518333333","24.9605983333333","6501300","土城區"
"220070","282-UM","2018/05/01 08:39:45","新北市八里區荖阡坑路18號","121.398471666667","25.1382966666667","6500100","板橋區"
