"lineid","car","time","location","longitude","latitude","cityid","cityname"
"248005","653-BX","2018/05/01 10:09:00","新北市五股區中興路二段57-6號","121.460531666667","25.075515","6501500","五股區"
"248003","655-BX","2018/05/01 10:09:22","新北市五股區更洲路47-1號","121.456693333333","25.079355","6501500","五股區"
"231007","188-VK","2018/05/01 10:08:51","新北市新店區新潭路三段215巷25號","121.508145","24.9040716666667","6500600","新店區"
"231009","192-VK","2018/05/01 10:09:18","新北市新店區小坑一路12號","121.534025","24.9127866666667","6500600","新店區"
"227006","282-VK","2018/05/01 10:09:01","新北市雙溪區長源里柑腳18號","121.804681666667","25.0141416666667","6502500","雙溪區"
"252004","249-BX","2018/05/01 10:09:07","新北市三芝區福德里埔尾2號","121.50191","25.247185","6502100","三芝區"
"252007","AAC-283","2018/05/01 10:09:21","新北市三芝區古庄里古庄99-7號","121.493766666667","25.270965","6502100","三芝區"
