"lineid","car","time","location","longitude","latitude","cityid","cityname"
"234044","148-BY","2018/05/01 12:59:11","新北市永和區永元路52巷45號","121.524478333333","25.00082","6500400","永和區"
"234005","207-UY","2018/05/01 12:59:20","新北市永和區永和路二段116號","121.515276666667","25.01223","6500400","永和區"
"234078","298-R6","2018/05/01 12:59:24","新北市永和區永貞路19號","121.521006666667","25.00714","6500400","永和區"
"234036","336-UY","2018/05/01 12:59:12","新北市永和區成功路二段213號","121.526535","24.99584","6500400","永和區"
"234062","337-UY","2018/05/01 12:59:18","新北市永和區秀朗路一段146號","121.51824","25.0033933333333","6500400","永和區"
"234084","338-UY","2018/05/01 12:59:14","新北市永和區永寧街135巷1號","121.518173333333","25.004795","6500400","永和區"
"234068","552-UM","2018/05/01 12:59:12","新北市永和區中興街68巷5弄1號","121.517891666667","25.0115866666667","6500400","永和區"
"234015","745-BX","2018/05/01 12:59:24","新北市永和區永和路二段310號","121.516185","25.0160866666667","6500400","永和區"
"234028","746-BX","2018/05/01 12:59:25","新北市永和區四維街42號","121.525308333333","24.99814","6500400","永和區"
"234052","KEA-2590","2018/05/01 12:59:26","新北市永和區竹林路66巷2號","121.518326666667","25.0133966666667","6500400","永和區"
"234012","KEA-2591","2018/05/01 12:59:08","新北市永和區保福路二段3號","121.511096666667","25.0108333333333","6500400","永和區"
"234060","AAD-866","2018/05/01 12:59:19","新北市永和區福和路303號","121.51638","25.0071966666667","6500400","永和區"
"234040","862-TW","2018/05/01 12:59:14","新北市永和區永貞路273號","121.511575","25.0048933333333","6500400","永和區"
"234048","863-TW","2018/05/01 12:59:13","新北市永和區文化路198號","121.510598333333","25.0163233333333","6500400","永和區"
"234025","9371-KE","2018/05/01 12:59:17","新北市永和區永和路一段68號","121.513011666667","25.00614","6500400","永和區"
"234010","9373-KE","2018/05/01 12:59:20","新北市永和區文化路168號","121.512118333333","25.0154083333333","6500400","永和區"
"248017","225-UY","2018/05/01 12:59:04","新北市五股區中興路二段83巷26-6號","121.46003","25.075265","6501500","五股區"
"234022","9380-KE","2018/05/01 12:59:24","新北市永和區竹林路75巷33弄3號","121.520516666667","25.0142833333333","6500400","永和區"
"234076","969-R7","2018/05/01 12:59:07","新北市永和區智光街126號","121.514958333333","24.99568","6500400","永和區"
"234072","AAC-211","2018/05/01 12:59:13","新北市永和區環河東路二段98號","121.524096666667","25.010355","6500400","永和區"
"234066","AAC-212","2018/05/01 12:59:12","新北市永和區中和路625號","121.512968333333","25.0048916666667","6500400","永和區"
"234001","AAC-295","2018/05/01 12:59:11","新北市永和區永平路24號","121.513346666667","25.0088333333333","6500400","永和區"
"244002","248-BX","2018/05/01 12:59:19","新北市林口區粉寮路一段77號","121.396841666667","25.0788116666667","6501700","林口區"
"243013","AAD-798","2018/05/01 12:58:04","新北市泰山區黎明路31號","121.421801666667","25.0606733333333","6501600","泰山區"
"243016","380-SR","2018/05/01 12:58:06","新北市泰山區犁頭窠3-1號","121.422076666667","25.0605216666667","6501600","泰山區"
"243012","646-TV","2018/05/01 12:57:05","新北市泰山區黎明路25號","121.422108333333","25.0607466666667","6501600","泰山區"
"231028","046-UY","2018/05/01 12:59:09","新北市新店區安華路28-1號","121.519526666667","24.9608316666667","6500600","新店區"
"231001","047-UY","2018/05/01 12:59:21","新北市新店區安華路28-1號","121.519301666667","24.96095","6500600","新店區"
"231005","106-UY","2018/05/01 12:59:14","新北市新店區安華路28-1號","121.51966","24.9608216666667","6500600","新店區"
"231010","107-UY","2018/05/01 12:59:24","新北市新店區安華路28-1號","121.51944","24.9614383333333","6500600","新店區"
"231020","108-UY","2018/05/01 12:59:17","新北市新店區安華路28-1號","121.5198","24.9613666666667","6500600","新店區"
"231012","187-VK","2018/05/01 12:59:13","新北市新店區安華路28-1號","121.51952","24.9611","6500600","新店區"
"231023","KEA-2219","2018/05/01 12:59:23","新北市新店區安華路28-1號","121.519763333333","24.961235","6500600","新店區"
"231003","268-BY","2018/05/01 12:59:19","新北市新店區安華路1-1號","121.519353333333","24.9604983333333","6500600","新店區"
"231018","278-BY","2018/05/01 12:59:19","新北市新店區安華路28-1號","121.519475","24.961185","6500600","新店區"
"231015","AAD-862","2018/05/01 12:59:25","新北市新店區安華路28-1號","121.519726666667","24.9612883333333","6500600","新店區"
"231066","4716-K9","2018/05/01 12:59:22","新北市新店區安華路28-1號","121.519265","24.9610966666667","6500600","新店區"
"231025","4715-K9","2018/05/01 12:59:06","新北市新店區安華路28-1號","121.519403333333","24.9606516666667","6500600","新店區"
"231036","512-UM","2018/05/01 12:59:19","新北市新店區安華路28-1號","121.519301666667","24.9612066666667","6500600","新店區"
"231013","513-UM","2018/05/01 12:59:04","新北市新店區安華路28-1號","121.519573333333","24.9611133333333","6500600","新店區"
"231034","616-UM","2018/05/01 12:59:09","新北市新店區安華路28-1號","121.51945","24.9605566666667","6500600","新店區"
"231030","619-UM","2018/05/01 12:59:12","新北市新店區安華路28-1號","121.519588333333","24.961025","6500600","新店區"
"231032","720-UM","2018/05/01 12:59:15","新北市新店區安華路28-1號","121.519428333333","24.9612383333333","6500600","新店區"
"231004","899-TW","2018/05/01 12:59:14","新北市新店區安華路3號","121.51866","24.9608033333333","6500600","新店區"
"231024","AKT-0513","2018/05/01 12:59:26","新北市新店區安華路28-1號","121.519566666667","24.9606433333333","6500600","新店區"
"235028","005-UY","2018/05/01 12:59:25","新北市中和區員山路36巷16-3號","121.484988333333","24.9913433333333","6500300","中和區"
"235027","006-UY","2018/05/01 12:59:21","新北市中和區員山路36巷16-3號","121.485","24.9914033333333","6500300","中和區"
"235029","098-UM","2018/05/01 12:59:21","新北市中和區中山路二段315巷1號","121.494623333333","25.00147","6500300","中和區"
"235004","150-BY","2018/05/01 12:59:24","新北市中和區和城路一段271巷1號","121.485756666667","24.9919083333333","6500300","中和區"
"235022","151-BY","2018/05/01 12:59:09","新北市中和區中正路571巷2弄5號","121.486333333333","24.9934883333333","6500300","中和區"
"235002","185-VK","2018/05/01 12:59:19","新北市中和區秀朗路三段135巷1號","121.525288333333","24.99253","6500300","中和區"
"235031","255-BX","2018/05/01 12:59:20","新北市中和區中正路891號","121.484331666667","25.004525","6500300","中和區"
"235018","640-BX","2018/05/01 12:59:16","新北市中和區員山路36巷16-3號","121.4848","24.9917783333333","6500300","中和區"
"235035","783-BX","2018/05/01 12:59:21","新北市中和區連城路314號","121.483543333333","24.9962","6500300","中和區"
"235021","801-TS","2018/05/01 12:59:14","新北市中和區員山路36巷16-3號","121.484845","24.9916666666667","6500300","中和區"
"235005","802-TS","2018/05/01 12:59:08","新北市中和區和城路一段271巷1號","121.48539","24.9917083333333","6500300","中和區"
"235017","900-TW","2018/05/01 12:59:25","新北市中和區員山路36巷12號","121.484093333333","24.9906483333333","6500300","中和區"
"235030","911-UM","2018/05/01 12:59:16","新北市中和區中正路571巷2弄1號","121.486481666667","24.99372","6500300","中和區"
"235015","157-BY","2018/05/01 12:59:17","新北市中和區員山路36巷13號","121.48421","24.9908616666667","6500300","中和區"
"235001","AAC-213","2018/05/01 12:59:23","新北市中和區中正路523號","121.488135","24.993565","6500300","中和區"
"228004","212-TW","2018/05/01 12:59:22","新北市貢寮區吉林里內寮街10-1號","121.887248333333","24.9888466666667","6502600","貢寮區"
"228005","828-UM","2018/05/01 12:59:07","新北市貢寮區雙玉里田寮洋街25-4號","121.93084","25.02047","6502600","貢寮區"
"207002","749-BX","2018/05/01 12:59:20","新北市萬里區雙興里大坪路9號","121.638141666667","25.1676516666667","6502800","萬里區"
"207001","662-BX","2018/05/01 12:59:13","新北市萬里區萬里里獅頭路22-1號","121.693041666667","25.178075","6502800","萬里區"
"252005","AAC-283","2018/05/01 12:59:25","新北市三芝區忠孝街1-13號","121.505453333333","25.2540366666667","6502100","三芝區"
"221032","280-BY","2018/05/01 12:59:15","新北市汐止區建成路57巷1號","121.66238","25.0725316666667","6501100","汐止區"
"221029","298-VK","2018/05/01 12:59:24","新北市汐止區中興路183巷9號","121.628406666667","25.0658516666667","6501100","汐止區"
