"lineid","car","time","location","longitude","latitude","cityid","cityname"
"234044","148-BY","2018/05/01 13:19:10","新北市永和區永元路68號","121.522416666667","25.00144","6500400","永和區"
"234005","207-UY","2018/05/01 13:19:20","新北市永和區保生路1號","121.506565","25.0073316666667","6500400","永和區"
"234078","298-R6","2018/05/01 13:19:11","新北市永和區福和路7巷7-1號","121.52544","25.0077583333333","6500400","永和區"
"234036","336-UY","2018/05/01 13:15:40","新北市永和區環河東路4段84-1號","121.528351666667","24.9980166666667","6500400","永和區"
"234062","337-UY","2018/05/01 13:19:18","新北市永和區秀朗路二段59號","121.521938333333","25.0021033333333","6500400","永和區"
"234084","338-UY","2018/05/01 13:19:25","新北市永和區永利路96號","121.52092","25.003785","6500400","永和區"
"234068","552-UM","2018/05/01 13:19:12","新北市永和區豫溪街33號","121.516381666667","25.0098633333333","6500400","永和區"
"234015","745-BX","2018/05/01 13:19:24","新北市永和區環河西路一段85巷4弄20號","121.512093333333","25.01689","6500400","永和區"
"234028","746-BX","2018/05/01 13:19:12","新北市永和區厚德街82號","121.523886666667","24.9989683333333","6500400","永和區"
"234052","KEA-2590","2018/05/01 13:19:26","新北市永和區中興街11號","121.515715","25.0120666666667","6500400","永和區"
"234012","KEA-2591","2018/05/01 13:19:08","新北市永和區仁愛路119號","121.512045","25.0130283333333","6500400","永和區"
"234060","AAD-866","2018/05/01 13:19:19","新北市永和區秀朗路一段114號","121.516851666667","25.00381","6500400","永和區"
"234040","862-TW","2018/05/01 13:19:14","新北市永和區保平路151巷3號","121.510078333333","25.005625","6500400","永和區"
"234048","863-TW","2018/05/01 13:19:07","新北市永和區仁愛路98號","121.512228333333","25.0133866666667","6500400","永和區"
"234025","9371-KE","2018/05/01 13:19:17","新北市永和區豫溪街28巷19號","121.515055","25.0090266666667","6500400","永和區"
"234010","9373-KE","2018/05/01 13:19:20","新北市永和區環河西路一段51巷22號","121.514221666667","25.0176266666667","6500400","永和區"
"248017","225-UY","2018/05/01 13:19:04","新北市五股區御史路78巷1號","121.441063333333","25.0947416666667","6501500","五股區"
"234022","9380-KE","2018/05/01 13:19:08","新北市永和區竹林路112-1號","121.519798333333","25.0118033333333","6500400","永和區"
"234076","969-R7","2018/05/01 13:19:07","新北市永和區智光街101號","121.516235","24.9968983333333","6500400","永和區"
"234072","AAC-211","2018/05/01 13:19:13","新北市永和區竹林路46號","121.517635","25.014185","6500400","永和區"
"234066","AAC-212","2018/05/01 13:19:12","新北市永和區保平路50巷6號","121.511183333333","25.0073433333333","6500400","永和區"
"234001","AAC-295","2018/05/01 13:19:09","新北市永和區保福路一段57號","121.512681666667","25.0095616666667","6500400","永和區"
"244002","248-BX","2018/05/01 13:19:19","新北市林口區頂福里16-16號","121.357748333333","25.0895866666667","6501700","林口區"
"243013","AAD-798","2018/05/01 13:15:14","新北市泰山區黎明路25號","121.422068333333","25.0608633333333","6501600","泰山區"
"243009","297-R6","2018/05/01 13:17:54","新北市泰山區黎明路25號","121.421981666667","25.060925","6501600","泰山區"
"243016","380-SR","2018/05/01 12:58:06","新北市泰山區犁頭窠3-1號","121.422076666667","25.0605216666667","6501600","泰山區"
"243010","KEA-2216","2018/05/01 13:14:04","新北市泰山區黎明路25號","121.421928333333","25.06074","6501600","泰山區"
"243012","646-TV","2018/05/01 12:57:05","新北市泰山區黎明路25號","121.422108333333","25.0607466666667","6501600","泰山區"
"231027","0293-UT","2018/05/01 13:19:19","新北市新店區環河路29巷1號","121.537246666667","24.961315","6500600","新店區"
"231028","046-UY","2018/05/01 13:19:09","新北市新店區安華路28-1號","121.519581666667","24.960945","6500600","新店區"
"231001","047-UY","2018/05/01 13:19:21","新北市新店區安華路28-1號","121.519211666667","24.9609016666667","6500600","新店區"
"231005","106-UY","2018/05/01 13:19:14","新北市新店區安華路28-1號","121.519665","24.9609283333333","6500600","新店區"
"231010","107-UY","2018/05/01 13:19:24","新北市新店區安康路一段76巷2號","121.528465","24.9619966666667","6500600","新店區"
"231020","108-UY","2018/05/01 13:19:18","新北市新店區安康路一段100號","121.52744","24.9623216666667","6500600","新店區"
"231012","187-VK","2018/05/01 13:19:13","新北市新店區安華路28-1號","121.51962","24.961255","6500600","新店區"
"231023","KEA-2219","2018/05/01 13:19:23","新北市新店區秀山路72號","121.531186666667","24.960965","6500600","新店區"
"231026","256-BX","2018/05/01 13:19:17","新北市新店區安華路28-1號","121.519763333333","24.9610983333333","6500600","新店區"
"231003","268-BY","2018/05/01 13:19:19","新北市新店區安華路28-1號","121.519271666667","24.960735","6500600","新店區"
"231018","278-BY","2018/05/01 13:19:19","新北市新店區環河路18號","121.536733333333","24.9614333333333","6500600","新店區"
"231015","AAD-862","2018/05/01 13:19:25","新北市新店區安康路一段84號","121.528108333333","24.9620116666667","6500600","新店區"
"231029","355-BY","2018/05/01 13:19:10","新北市新店區安華路28-1號","121.519238333333","24.960905","6500600","新店區"
"231038","3712-VJ","2018/05/01 13:19:08","新北市新店區安華路28-1號","121.519243333333","24.9606416666667","6500600","新店區"
"231037","4716-K9","2018/05/01 13:19:19","新北市新店區安華路28-1號","121.519715","24.9610916666667","6500600","新店區"
"231025","4715-K9","2018/05/01 13:19:06","新北市新店區中央路226號","121.529561666667","24.97284","6500600","新店區"
"231036","512-UM","2018/05/01 13:19:19","新北市新店區安豐路49號","121.500158333333","24.9540866666667","6500600","新店區"
"231013","513-UM","2018/05/01 13:19:24","新北市新店區安華路28-1號","121.51966","24.9611766666667","6500600","新店區"
"231034","616-UM","2018/05/01 13:19:09","新北市新店區安華路28-1號","121.519373333333","24.9607016666667","6500600","新店區"
"231006","617-UM","2018/05/01 13:19:10","新北市新店區安華路28-1號","121.519355","24.96098","6500600","新店區"
"231030","619-UM","2018/05/01 13:19:12","新北市新店區安華路28-1號","121.519631666667","24.9610016666667","6500600","新店區"
"231035","719-UM","2018/05/01 13:19:16","新北市新店區安華路28-1號","121.519485","24.9613666666667","6500600","新店區"
"231032","720-UM","2018/05/01 13:19:15","新北市新店區安忠路205巷8號","121.510073333333","24.9554466666667","6500600","新店區"
"231004","899-TW","2018/05/01 13:19:14","新北市新店區安華路28-1號","121.519278333333","24.9608616666667","6500600","新店區"
"231024","AKT-0513","2018/05/01 13:19:26","新北市新店區安康路一段24巷2號","121.532823333333","24.9603416666667","6500600","新店區"
"235028","005-UY","2018/05/01 13:19:05","新北市中和區中正路218-10號","121.496853333333","24.9941533333333","6500300","中和區"
"235027","006-UY","2018/05/01 13:19:21","新北市中和區中正路589巷5號","121.485908333333","24.9941516666667","6500300","中和區"
"235020","096-UM","2018/05/01 13:19:15","新北市中和區員山路36巷13號","121.484236666667","24.9914616666667","6500300","中和區"
"235003","097-UM","2018/05/01 13:19:26","新北市中和區中正路13號","121.503001666667","24.99347","6500300","中和區"
"235029","098-UM","2018/05/01 13:19:21","新北市中和區莊敬路49巷20弄18號","121.502583333333","25.0059016666667","6500300","中和區"
"235004","150-BY","2018/05/01 13:19:23","新北市中和區安平路59號","121.509456666667","24.9952283333333","6500300","中和區"
"235022","151-BY","2018/05/01 13:19:09","新北市中和區圓通路367巷59弄18號","121.493008333333","24.98383","6500300","中和區"
"235019","183-VK","2018/05/01 13:19:09","新北市中和區中正路637巷52弄1號","121.485471666667","24.9933733333333","6500300","中和區"
"235002","185-VK","2018/05/01 13:19:25","新北市中和區大智街109巷5號","121.523331666667","24.992535","6500300","中和區"
"235013","186-VK","2018/05/01 13:19:22","新北市中和區中正路637巷60弄61號","121.485513333333","24.9932533333333","6500300","中和區"
"235031","255-BX","2018/05/01 13:19:20","新北市中和區員山路148巷46號","121.482563333333","24.9971133333333","6500300","中和區"
"235036","301-VK","2018/05/01 13:19:21","新北市中和區連城路265巷1號","121.491353333333","24.99638","6500300","中和區"
"235007","352-BY","2018/05/01 13:19:21","新北市中和區中正路283號","121.493688333333","24.9938083333333","6500300","中和區"
"235032","377-QA","2018/05/01 13:19:10","新北市中和區員山路36巷16-3號","121.484948333333","24.9912333333333","6500300","中和區"
"235025","378-QA","2018/05/01 13:19:11","新北市中和區國光街215巷24弄4號","121.466616666667","25.00023","6500300","中和區"
"235014","4979-A6","2018/05/01 13:19:23","新北市中和區南山路309號","121.504816666667","24.9915216666667","6500300","中和區"
"235033","4980-A6","2018/05/01 13:19:23","新北市中和區圓通路299號","121.495773333333","24.9910833333333","6500300","中和區"
"235006","551-UM","2018/05/01 13:19:10","新北市中和區景平路159巷23弄10號","121.513033333333","24.9914316666667","6500300","中和區"
"235034","558-UM","2018/05/01 13:19:14","新北市中和區圓通路135號","121.499075","24.9959633333333","6500300","中和區"
"235009","565-BX","2018/05/01 13:19:14","新北市中和區復興路334號","121.500473333333","24.9903166666667","6500300","中和區"
"235018","640-BX","2018/05/01 13:19:27","新北市中和區民享街86巷22號","121.473523333333","25.00075","6500300","中和區"
"235024","647-TV","2018/05/01 13:19:11","新北市中和區員山路146號","121.48133","24.9968066666667","6500300","中和區"
"235011","732-UM","2018/05/01 13:19:27","新北市中和區板南路260號","121.495925","24.9956933333333","6500300","中和區"
"235035","783-BX","2018/05/01 13:19:21","新北市中和區永和路458巷3弄10號","121.48355","25.0132383333333","6500300","中和區"
"235021","801-TS","2018/05/01 13:19:14","新北市中和區民安街81號","121.478015","24.99983","6500300","中和區"
"235005","802-TS","2018/05/01 13:19:08","新北市中和區中和路294號","121.508493333333","24.999745","6500300","中和區"
"235016","805-TS","2018/05/01 13:19:11","新北市中和區興南路二段96號","121.504986666667","24.984085","6500300","中和區"
"235012","896-TW","2018/05/01 13:19:11","新北市中和區員山路36巷16-3號","121.484941666667","24.9919233333333","6500300","中和區"
"235017","900-TW","2018/05/01 13:19:25","新北市中和區員山路36巷16-3號","121.48487","24.991765","6500300","中和區"
"235030","911-UM","2018/05/01 13:19:16","新北市中和區中山路二段64巷14弄2號","121.503553333333","25.0055466666667","6500300","中和區"
"235015","157-BY","2018/05/01 13:19:17","新北市中和區信義街111號","121.512041666667","24.9869716666667","6500300","中和區"
"235001","AAC-213","2018/05/01 13:19:23","新北市中和區景德街72號","121.51676","24.9914683333333","6500300","中和區"
"235023","AAC-215","2018/05/01 13:19:18","新北市中和區員山路36巷16-3號","121.484928333333","24.9913616666667","6500300","中和區"
"247005","336-TH","2018/05/01 13:19:21","新北市五股區中興路三段163號","121.449191666667","25.080795","6501400","蘆洲區"
"228004","212-TW","2018/05/01 13:19:22","新北市貢寮區吉林里內寮街23號","121.901936666667","24.98562","6502600","貢寮區"
"228005","828-UM","2018/05/01 13:19:07","新北市貢寮區美豐里丹裡街12號","121.914685","25.0569383333333","6502600","貢寮區"
"207002","749-BX","2018/05/01 13:19:14","新北市萬里區崁腳里崁腳路166號","121.645041666667","25.1559066666667","6502800","萬里區"
"207001","662-BX","2018/05/01 13:18:13","新北市萬里區龜吼里石角路19-1號","121.684023333333","25.19175","6502800","萬里區"
"252005","AAC-283","2018/05/01 13:19:05","新北市三芝區圓山里木屐寮38號","121.529723333333","25.22598","6502100","三芝區"
"242048","172-VK","2018/05/01 13:19:21","新北市新莊區福營路397號","121.422321666667","25.026065","6500500","新莊區"
"221032","280-BY","2018/05/01 13:19:15","新北市汐止區連興街50號","121.654351666667","25.0634316666667","6501100","汐止區"
"221029","298-VK","2018/05/01 13:19:24","新北市汐止區南陽街43號","121.62503","25.0646216666667","6501100","汐止區"
"220030","610-BX","2018/05/01 13:19:09","新北市板橋區華東街1-10號","121.448251666667","24.9949583333333","6500100","板橋區"
"220025","687-BX","2018/05/01 13:19:14","新北市板橋區華東街1-10號","121.448271666667","24.994975","6500100","板橋區"
"220002","741-BX","2018/05/01 13:19:06","新北市板橋區華東街1-9號","121.4481","24.9949066666667","6500100","板橋區"
