"lineid","car","time","location","longitude","latitude","cityid","cityname"
"234044","148-BY","2018/05/01 13:49:10","新北市永和區永利路121號","121.523806666667","25.0025833333333","6500400","永和區"
"234005","207-UY","2018/05/01 13:49:25","新北市中和區中和路430號","121.51182","25.003395","6500400","永和區"
"234078","298-R6","2018/05/01 13:49:11","新北市永和區永利路81巷21號","121.522258333333","25.0038216666667","6500400","永和區"
"234036","336-UY","2018/05/01 13:49:11","新北市永和區成功路二段76號","121.526588333333","24.99905","6500400","永和區"
"234062","337-UY","2018/05/01 13:49:18","新北市永和區中正路368巷35號","121.519018333333","25.0007","6500400","永和區"
"234084","338-UY","2018/05/01 13:49:17","新北市永和區中正路487號","121.516948333333","25.0065716666667","6500400","永和區"
"234068","552-UM","2018/05/01 13:49:12","新北市永和區竹林路78號","121.519301666667","25.012755","6500400","永和區"
"234015","745-BX","2018/05/01 13:49:24","新北市永和區文化路78號","121.514098333333","25.01516","6500400","永和區"
"234028","746-BX","2018/05/01 13:49:25","新北市永和區民生路47巷17號","121.523608333333","24.99774","6500400","永和區"
"234052","KEA-2590","2018/05/01 13:49:26","新北市永和區竹林路75巷25弄9號","121.520088333333","25.0145233333333","6500400","永和區"
"234012","KEA-2591","2018/05/01 13:49:08","新北市永和區永平路296號","121.507465","25.0122783333333","6500400","永和區"
"234060","AAD-866","2018/05/01 13:49:19","新北市永和區中正路69號","121.514753333333","24.9967083333333","6500400","永和區"
"234040","862-TW","2018/05/01 13:49:14","新北市永和區中和路389巷2-1號","121.50839","25.0004733333333","6500400","永和區"
"234048","863-TW","2018/05/01 13:49:27","新北市永和區保安路144號","121.508493333333","25.0149666666667","6500400","永和區"
"234010","9373-KE","2018/05/01 13:49:20","新北市永和區保生路55號","121.504738333333","25.0106566666667","6500400","永和區"
"248017","225-UY","2018/05/01 13:49:24","新北市五股區民義路二段22巷24號","121.423916666667","25.0984533333333","6501500","五股區"
"234022","9380-KE","2018/05/01 13:49:08","新北市永和區復興街16巷2號","121.515358333333","25.0127616666667","6500400","永和區"
"234076","969-R7","2018/05/01 13:49:27","新北市永和區民權路36巷6號","121.519725","24.9989516666667","6500400","永和區"
"234072","AAC-211","2018/05/01 13:49:20","新北市永和區豫溪街205號","121.523601666667","25.0097","6500400","永和區"
"234066","AAC-212","2018/05/01 13:49:12","新北市永和區中山路一段255巷22號","121.508428333333","25.0070866666667","6500400","永和區"
"234001","AAC-295","2018/05/01 13:49:10","新北市永和區永和路一段107號","121.513878333333","25.0079816666667","6500400","永和區"
"244002","248-BX","2018/05/01 13:49:19","新北市林口區信義路100號","121.381051666667","25.07904","6501700","林口區"
"243016","380-SR","2018/05/01 13:32:35","新北市泰山區犁頭窠3-1號","121.42221","25.06061","6501600","泰山區"
"231027","0293-UT","2018/05/01 13:49:19","新北市新店區中興路一段24號","121.538673333333","24.9583733333333","6500600","新店區"
"231028","046-UY","2018/05/01 13:49:22","新北市新店區安和路二段207號","121.517793333333","24.9754533333333","6500600","新店區"
"231001","047-UY","2018/05/01 13:49:21","新北市新店區三民路24號","121.537051666667","24.9710116666667","6500600","新店區"
"231005","106-UY","2018/05/01 13:49:14","新北市新店區寶中路121-1號","121.549636666667","24.979455","6500600","新店區"
"231010","107-UY","2018/05/01 13:49:24","新北市新店區平等街69號","121.535828333333","24.9724016666667","6500600","新店區"
"231020","108-UY","2018/05/01 13:49:18","新北市新店區新烏路二段50巷3號","121.547561666667","24.92776","6500600","新店區"
"231012","187-VK","2018/05/01 13:49:13","新北市新店區德正街27巷29弄82號","121.54576","24.9735266666667","6500600","新店區"
"231023","KEA-2219","2018/05/01 13:49:23","新北市新店區國校路25號","121.538008333333","24.9562483333333","6500600","新店區"
"231026","256-BX","2018/05/01 13:49:17","新北市新店區三民路159巷19弄31號","121.532231666667","24.9731583333333","6500600","新店區"
"231003","268-BY","2018/05/01 13:49:19","新北市新店區中興路一段282號","121.545661666667","24.9685316666667","6500600","新店區"
"231018","278-BY","2018/05/01 13:49:19","新北市新店區中正路399巷15號","121.534148333333","24.9768","6500600","新店區"
"231015","AAD-862","2018/05/01 13:47:25","新北市新店區竹林路94號","121.553858333333","24.9501866666667","6500600","新店區"
"231029","355-BY","2018/05/01 13:49:10","新北市新店區安康路二段105-1號","121.512783333333","24.9623683333333","6500600","新店區"
"231038","3712-VJ","2018/05/01 13:49:22","新北市新店區安康路一段321巷5-1號","121.522095","24.9626366666667","6500600","新店區"
"231037","4716-K9","2018/05/01 13:49:19","新北市新店區安康路三段359巷12弄27號","121.48396","24.94933","6500600","新店區"
"231025","4715-K9","2018/05/01 13:49:26","新北市新店區中央五街23號","121.529243333333","24.9745966666667","6500600","新店區"
"231036","512-UM","2018/05/01 13:49:11","新北市新店區安祥路145巷7號","121.474875","24.955815","6500600","新店區"
"231013","513-UM","2018/05/01 13:49:24","新北市新店區二十張路25巷18弄27號","121.539348333333","24.98128","6500600","新店區"
"231034","616-UM","2018/05/01 13:49:09","新北市新店區達觀路14巷2號","121.503476666667","24.9416333333333","6500600","新店區"
"231006","617-UM","2018/05/01 13:49:10","新北市新店區北宜路一段260號","121.545658333333","24.952805","6500600","新店區"
"231002","618-UM","2018/05/01 13:49:21","新北市新店區溪園路55號","121.529465","24.9874416666667","6500600","新店區"
"231030","619-UM","2018/05/01 13:49:12","新北市新店區安康路一段50號","121.530233333333","24.9611833333333","6500600","新店區"
"231035","719-UM","2018/05/01 13:49:16","新北市新店區安忠路86-7號","121.511713333333","24.9582716666667","6500600","新店區"
"231032","720-UM","2018/05/01 13:49:08","新北市新店區莒光路44巷21弄11-3號","121.518445","24.9522","6500600","新店區"
"231004","899-TW","2018/05/01 13:49:14","新北市新店區寶橋路69-1號","121.5455","24.97504","6500600","新店區"
"231024","AKT-0513","2018/05/01 13:49:26","新北市新店區新生街17號","121.539885","24.9662216666667","6500600","新店區"
"235028","005-UY","2018/05/01 13:49:25","新北市中和區連城路75巷1-3號","121.4978","24.9998666666667","6500300","中和區"
"235027","006-UY","2018/05/01 13:49:22","新北市中和區中正路464號","121.490158333333","24.994295","6500300","中和區"
"235020","096-UM","2018/05/01 13:49:15","新北市中和區中正路1208號","121.48016","25.0107866666667","6500300","中和區"
"235003","097-UM","2018/05/01 13:49:06","新北市中和區大勇街25巷11弄1號","121.51651","24.9933133333333","6500300","中和區"
"235029","098-UM","2018/05/01 13:49:21","新北市中和區勝利路35巷9弄14號","121.499745","25.0072783333333","6500300","中和區"
"235004","150-BY","2018/05/01 13:49:23","新北市中和區保健路48巷63號","121.509345","24.9959033333333","6500300","中和區"
"235022","151-BY","2018/05/01 13:49:25","新北市中和區連城路573-1號","121.478786666667","24.994275","6500300","中和區"
"235019","183-VK","2018/05/01 13:49:09","新北市中和區德光路77巷1號","121.469498333333","25.003535","6500300","中和區"
"235002","185-VK","2018/05/01 13:49:19","新北市中和區立人街38號","121.518156666667","24.994105","6500300","中和區"
"235013","186-VK","2018/05/01 13:49:22","新北市中和區景新街210巷27號","121.507081666667","24.994155","6500300","中和區"
"235031","255-BX","2018/05/01 13:49:20","新北市中和區新生街266號","121.483471666667","24.9972383333333","6500300","中和區"
"235008","293-VK","2018/05/01 13:49:16","新北市中和區中興街131號","121.500056666667","24.9915833333333","6500300","中和區"
"235036","301-VK","2018/05/01 13:49:21","新北市中和區中山路二段22號","121.504691666667","25.0054033333333","6500300","中和區"
"235007","352-BY","2018/05/01 13:49:21","新北市中和區景平路1號","121.525695","24.9900466666667","6500300","中和區"
"235032","377-QA","2018/05/01 13:49:10","新北市中和區中正路269號","121.495935","24.9935483333333","6500300","中和區"
"235025","378-QA","2018/05/01 13:49:11","新北市中和區民治街128巷6號","121.474911666667","25.003025","6500300","中和區"
"235014","4979-A6","2018/05/01 13:49:23","新北市中和區忠孝街62巷12號","121.512328333333","24.983665","6500300","中和區"
"235033","4980-A6","2018/05/01 13:49:23","新北市中和區南山路47號","121.502105","24.99856","6500300","中和區"
"235006","551-UM","2018/05/01 13:49:10","新北市中和區成功路89號","121.526033333333","24.9918916666667","6500300","中和區"
"235034","558-UM","2018/05/01 13:49:14","新北市中和區南山路7號","121.502133333333","24.9994416666667","6500300","中和區"
"235009","565-BX","2018/05/01 13:49:14","新北市中和區南山路321號","121.505113333333","24.9913616666667","6500300","中和區"
"235018","640-BX","2018/05/01 13:49:19","新北市中和區自治街1號","121.474793333333","25.0033033333333","6500300","中和區"
"235024","647-TV","2018/05/01 13:49:11","新北市中和區中山路三段144號","121.473788333333","25.0063516666667","6500300","中和區"
"235011","732-UM","2018/05/01 13:49:07","新北市中和區興南路二段34巷57弄2號","121.504915","24.985745","6500300","中和區"
"235010","733-UM","2018/05/01 13:49:23","新北市中和區仁愛街36巷36號","121.511165","24.9866133333333","6500300","中和區"
"235035","783-BX","2018/05/01 13:49:21","新北市中和區立德街72巷20號","121.487911666667","25.0082533333333","6500300","中和區"
"235026","800-TS","2018/05/01 13:49:27","新北市中和區中山路二段340巷38號","121.493306666667","25.0038733333333","6500300","中和區"
"235021","801-TS","2018/05/01 13:49:14","新北市中和區員山路325-5號","121.480983333333","25.0010483333333","6500300","中和區"
"235005","802-TS","2018/05/01 13:49:08","新北市永和區永和路一段2號","121.512583333333","25.0042883333333","6500300","中和區"
"235016","805-TS","2018/05/01 13:49:12","新北市中和區興南路二段399巷65-1號","121.501186666667","24.9751916666667","6500300","中和區"
"235012","896-TW","2018/05/01 13:49:11","新北市中和區南山路351號","121.505781666667","24.99076","6500300","中和區"
"235017","900-TW","2018/05/01 13:49:25","新北市中和區民德路290巷42號","121.466495","24.9960666666667","6500300","中和區"
"235030","911-UM","2018/05/01 13:49:16","新北市中和區中山路二段131巷24號","121.503851666667","25.0026766666667","6500300","中和區"
"235015","157-BY","2018/05/01 13:49:17","新北市中和區忠孝街1號","121.508863333333","24.983","6500300","中和區"
"235001","AAC-213","2018/05/01 13:49:23","新北市中和區秀朗路三段128巷16弄2號","121.524598333333","24.9929333333333","6500300","中和區"
"235023","AAC-215","2018/05/01 13:49:18","新北市中和區圓通路393巷9號","121.489865","24.9887516666667","6500300","中和區"
"220016","013-TV","2018/05/01 13:49:17","新北市板橋區民生路二段120號","121.470371666667","25.01959","6500100","板橋區"
"220013","072-UY","2018/05/01 13:49:22","新北市板橋區漢生東路133號","121.467726666667","25.0142083333333","6500100","板橋區"
"220034","073-UY","2018/05/01 13:49:28","新北市板橋區大智街71巷7弄1號","121.453145","25.0146483333333","6500100","板橋區"
"220105","075-UY","2018/05/01 13:49:24","新北市板橋區民生路二段120號","121.470363333333","25.0196783333333","6500100","板橋區"
"220017","AAD-861","2018/05/01 13:49:21","新北市板橋區縣民大道一段92-1號","121.456158333333","25.0047916666667","6500100","板橋區"
"247009","341-TH","2018/05/01 13:49:14","新北市蘆洲區中正路520巷9號","121.46246","25.099665","6501400","蘆洲區"
"247003","337-TH","2018/05/01 13:49:17","新北市蘆洲區中原路30號","121.460026666667","25.08281","6501400","蘆洲區"
"247005","336-TH","2018/05/01 13:49:21","新北市蘆洲區和平路77號","121.469295","25.0790366666667","6501400","蘆洲區"
"247007","056-VK","2018/05/01 13:49:18","新北市蘆洲區重陽街46號","121.48141","25.0828266666667","6501400","蘆洲區"
"247019","001-UY","2018/05/01 13:49:16","新北市蘆洲區民族路408巷46號","121.474931666667","25.093165","6501400","蘆洲區"
"228004","212-TW","2018/05/01 13:44:42","新北市貢寮區龍崗里嵩陽街8號","121.90186","25.010865","6502600","貢寮區"
"228005","828-UM","2018/05/01 13:49:07","新北市貢寮區美豐里土地公嶺12號","121.893121666667","25.0570133333333","6502600","貢寮區"
"207002","749-BX","2018/05/01 13:49:13","新北市萬里區崁腳里崁腳路166號","121.645071666667","25.1558933333333","6502800","萬里區"
"207001","662-BX","2018/05/01 13:49:13","新北市萬里區磺潭里清水12號","121.640245","25.199845","6502800","萬里區"
"252005","AAC-283","2018/05/01 13:49:25","新北市三芝區橫山里橫山57-3號","121.536055","25.2525533333333","6502100","三芝區"
"236065","105-UM","2018/05/01 13:49:13","新北市土城區員福街52號","121.440403333333","24.9791683333333","6501300","土城區"
"236040","107-UM","2018/05/01 13:49:16","新北市土城區城林路6巷80號","121.438453333333","24.979795","6501300","土城區"
"236029","253-BX","2018/05/01 13:49:12","新北市土城區城林路6巷80號","121.43857","24.9797616666667","6501300","土城區"
"236024","269-VK","2018/05/01 13:49:09","新北市土城區中央路二段276-1號","121.440896666667","24.974145","6501300","土城區"
"236013","270-VK","2018/05/01 13:49:13","新北市土城區城林路6巷80號","121.438533333333","24.97972","6501300","土城區"
"236032","271-VK","2018/05/01 13:49:13","新北市土城區城林路6巷80號","121.438463333333","24.97983","6501300","土城區"
"236017","401-BY","2018/05/01 13:49:15","新北市土城區城林路6巷80號","121.43855","24.9797216666667","6501300","土城區"
"236057","912-UM","2018/05/01 13:49:16","新北市土城區中華路二段6號","121.439388333333","24.9789216666667","6501300","土城區"
"236045","913-UM","2018/05/01 13:49:11","新北市土城區城林路6巷80號","121.438656666667","24.9797","6501300","土城區"
"236060","915-UM","2018/05/01 13:49:15","新北市土城區城林路6巷80號","121.438416666667","24.9797583333333","6501300","土城區"
"236054","AAC-216","2018/05/01 13:49:23","新北市土城區城林路6巷80號","121.438686666667","24.9797633333333","6501300","土城區"
"242048","172-VK","2018/05/01 13:49:21","新北市新莊區新崑路189號","121.434486666667","25.0002166666667","6500500","新莊區"
"221029","298-VK","2018/05/01 13:45:44","新北市汐止區大同路二段312巷11弄8號","121.656476666667","25.0655816666667","6501100","汐止區"
"220027","145-BY","2018/05/01 13:49:19","新北市板橋區中正路69號","121.45638","25.01395","6500100","板橋區"
"220028","200-UY","2018/05/01 13:49:24","新北市板橋區大觀路二段365巷13號","121.441016666667","24.99809","6500100","板橋區"
"220030","610-BX","2018/05/01 13:49:10","新北市板橋區篤行路三段71號","121.427263333333","24.9855083333333","6500100","板橋區"
"220050","245-BX","2018/05/01 13:49:21","新北市板橋區民生路二段120號","121.470418333333","25.019985","6500100","板橋區"
"220052","257-TC","2018/05/01 13:49:13","新北市板橋區民生路二段120號","121.470493333333","25.01964","6500100","板橋區"
"220040","267-BY","2018/05/01 13:49:13","新北市板橋區民生路二段163號","121.469725","25.0198866666667","6500100","板橋區"
"220004","276-BY","2018/05/01 13:49:25","新北市板橋區四川路二段77號","121.45312","24.9950766666667","6500100","板橋區"
"220020","277-BY","2018/05/01 13:49:21","新北市板橋區大觀路三段59巷15號","121.434253333333","24.9954166666667","6500100","板橋區"
"220043","283-UM","2018/05/01 13:49:23","新北市板橋區民生路二段161巷1號","121.470081666667","25.01984","6500100","板橋區"
"220019","283-VK","2018/05/01 13:49:25","新北市板橋區忠孝路176巷25號","121.465415","25.00179","6500100","板橋區"
"220001","285-VK","2018/05/01 13:49:14","新北市板橋區民生路二段80號","121.471918333333","25.01848","6500100","板橋區"
"220031","286-VK","2018/05/01 13:49:18","新北市板橋區僑中二街88巷2號","121.446295","25.0094383333333","6500100","板橋區"
"220029","287-VK","2018/05/01 13:49:22","新北市板橋區光華街13巷10號","121.453686666667","25.0114583333333","6500100","板橋區"
"220039","288-VK","2018/05/01 13:49:09","新北市板橋區民生路二段161巷7號","121.470286666667","25.0197133333333","6500100","板橋區"
"220009","293-UM","2018/05/01 13:49:28","新北市板橋區民生路二段56-6號","121.470891666667","25.0189966666667","6500100","板橋區"
"220032","296-UM","2018/05/01 13:49:24","新北市板橋區大觀路二段156巷2-1號","121.441436666667","24.99915","6500100","板橋區"
"220023","303-R5","2018/05/01 13:49:22","新北市板橋區南雅東路79-1號","121.453273333333","25.0079333333333","6500100","板橋區"
"220010","305-R5","2018/05/01 13:49:14","新北市板橋區觀光街2號","121.472451666667","25.0153666666667","6500100","板橋區"
"220047","317-R6","2018/05/01 13:49:17","新北市板橋區民生路二段161巷1號","121.470166666667","25.0198516666667","6500100","板橋區"
"220012","486-VK","2018/05/01 13:49:09","新北市板橋區民生路二段36-1號","121.472161666667","25.0168233333333","6500100","板橋區"
"220037","491-VK","2018/05/01 13:49:25","新北市板橋區民生路二段175號","121.469888333333","25.0202533333333","6500100","板橋區"
"220035","560-BX","2018/05/01 13:49:24","新北市板橋區中正路275巷28號","121.454863333333","25.0186766666667","6500100","板橋區"
"220011","609-BX","2018/05/01 13:49:10","新北市板橋區民生路二段15-1號","121.473176666667","25.0158783333333","6500100","板橋區"
"220003","630-UY","2018/05/01 13:49:24","新北市板橋區華興街91巷4號","121.456628333333","25.0053433333333","6500100","板橋區"
"220005","686-BX","2018/05/01 13:49:16","新北市板橋區南雅南路二段4巷18號","121.453575","25.003705","6500100","板橋區"
"220025","687-BX","2018/05/01 13:49:14","新北市板橋區大觀路二段431-1號","121.441418333333","24.99471","6500100","板橋區"
"220042","689-BX","2018/05/01 13:49:24","新北市板橋區民生路二段188號","121.470326666667","25.0203766666667","6500100","板橋區"
"220002","741-BX","2018/05/01 13:49:06","新北市板橋區館前東路21號","121.46035","25.007235","6500100","板橋區"
"220051","KEA-2699","2018/05/01 13:49:08","新北市板橋區民生路二段161巷1號","121.470195","25.0199783333333","6500100","板橋區"
"220014","829-TW","2018/05/01 13:49:10","新北市板橋區民生路二段15-1號","121.472775","25.0160883333333","6500100","板橋區"
"220038","833-TW","2018/05/01 13:49:19","新北市板橋區民生路二段188號","121.46993","25.020335","6500100","板橋區"
"220022","895-R6","2018/05/01 13:49:13","新北市板橋區南門街53號","121.457165","25.0083366666667","6500100","板橋區"
"220021","985-R7","2018/05/01 13:49:22","新北市板橋區南門街10號","121.45741","25.0090416666667","6500100","板橋區"
"220018","AAC-253","2018/05/01 13:49:24","新北市板橋區四川路一段107-3號","121.459905","25.0051166666667","6500100","板橋區"
