"lineid","car","time","location","longitude","latitude","cityid","cityname"
"234044","148-BY","2018/05/01 13:59:21","新北市永和區成功路一段103號","121.526905","25.0025316666667","6500400","永和區"
"234005","207-UY","2018/05/01 13:59:19","新北市中和區中和路302-1號","121.5088","24.9998816666667","6500400","永和區"
"234078","298-R6","2018/05/01 13:59:20","新北市永和區國中路12號","121.524403333333","25.0050016666667","6500400","永和區"
"234036","336-UY","2018/05/01 13:59:11","新北市永和區成功路二段119號","121.526651666667","24.9985883333333","6500400","永和區"
"234062","337-UY","2018/05/01 13:59:23","新北市永和區秀朗路一段192巷6弄1號","121.519295","25.0024","6500400","永和區"
"234084","338-UY","2018/05/01 13:59:14","新北市永和區福和路69號","121.522678333333","25.0079316666667","6500400","永和區"
"234068","552-UM","2018/05/01 13:59:13","新北市永和區國光路8號","121.519396666667","25.0084716666667","6500400","永和區"
"234015","745-BX","2018/05/01 13:59:24","新北市永和區文化路66號","121.514351666667","25.0152233333333","6500400","永和區"
"234028","746-BX","2018/05/01 13:59:25","新北市永和區四維街73號","121.525323333333","24.99789","6500400","永和區"
"234052","KEA-2590","2018/05/01 13:59:06","新北市永和區竹林路39巷35-1號","121.520121666667","25.0152866666667","6500400","永和區"
"234012","KEA-2591","2018/05/01 13:59:28","新北市永和區保生路55號","121.50468","25.0106316666667","6500400","永和區"
"234060","AAD-866","2018/05/01 13:59:19","新北市永和區中正路283巷57號","121.515593333333","24.9989716666667","6500400","永和區"
"234040","862-TW","2018/05/01 13:59:14","新北市永和區中和路421巷5弄16號","121.508328333333","25.0007366666667","6500400","永和區"
"234048","863-TW","2018/05/01 13:59:07","新北市永和區保安路250號","121.506353333333","25.0126133333333","6500400","永和區"
"234025","9371-KE","2018/05/01 13:59:17","新北市永和區自由街50號","121.513771666667","25.00612","6500400","永和區"
"234010","9373-KE","2018/05/01 13:59:20","新北市永和區仁愛路352巷112弄12號","121.501155","25.008595","6500400","永和區"
"248017","225-UY","2018/05/01 13:59:24","新北市五股區民義路一段283號","121.425703333333","25.0927966666667","6501500","五股區"
"234022","9380-KE","2018/05/01 13:59:08","新北市永和區永和路二段218號","121.51575","25.0142266666667","6500400","永和區"
"234076","969-R7","2018/05/01 13:59:27","新北市永和區民權路58巷2弄1號","121.519518333333","24.9983433333333","6500400","永和區"
"234072","AAC-211","2018/05/01 13:59:13","新北市永和區豫溪街185號","121.52246","25.0104016666667","6500400","永和區"
"234066","AAC-212","2018/05/01 13:59:12","新北市永和區永貞路366號","121.510178333333","25.0068233333333","6500400","永和區"
"234001","AAC-295","2018/05/01 13:59:25","新北市永和區福和路327號","121.515746666667","25.0072166666667","6500400","永和區"
"244002","248-BX","2018/05/01 13:59:19","新北市林口區竹林路266號","121.389675","25.08073","6501700","林口區"
"243016","380-SR","2018/05/01 13:32:35","新北市泰山區犁頭窠3-1號","121.42221","25.06061","6501600","泰山區"
"231027","0293-UT","2018/05/01 13:59:19","新北市新店區中興路一段24號","121.538678333333","24.958375","6500600","新店區"
"231028","046-UY","2018/05/01 13:59:18","新北市新店區安和路三段59號","121.517876666667","24.9830283333333","6500600","新店區"
"231001","047-UY","2018/05/01 13:59:21","新北市新店區三民路24號","121.537128333333","24.9710383333333","6500600","新店區"
"231005","106-UY","2018/05/01 13:59:14","新北市新店區中興路三段184號","121.544075","24.9814316666667","6500600","新店區"
"231010","107-UY","2018/05/01 13:59:24","新北市新店區環河路103-5號","121.531746666667","24.9709016666667","6500600","新店區"
"231020","108-UY","2018/05/01 13:59:18","新北市新店區新烏路二段198巷2弄2號","121.547815","24.91703","6500600","新店區"
"231012","187-VK","2018/05/01 13:59:13","新北市新店區中興路二段79巷2號","121.546708333333","24.9712083333333","6500600","新店區"
"231023","KEA-2219","2018/05/01 13:59:23","新北市新店區文中路45號","121.539561666667","24.95658","6500600","新店區"
"231026","256-BX","2018/05/01 13:59:17","新北市新店區安康路一段266巷4號","121.519923333333","24.9639866666667","6500600","新店區"
"231003","268-BY","2018/05/01 13:59:19","新北市新店區中興路一段282號","121.545716666667","24.9685333333333","6500600","新店區"
"231018","278-BY","2018/05/01 13:59:27","新北市新店區中央路133巷2號","121.530463333333","24.9736383333333","6500600","新店區"
"231015","AAD-862","2018/05/01 13:59:25","新北市新店區郵政路8號","121.556668333333","24.951365","6500600","新店區"
"231029","355-BY","2018/05/01 13:59:12","新北市新店區安康路二段117-1號","121.512478333333","24.9615133333333","6500600","新店區"
"231038","3712-VJ","2018/05/01 13:59:07","新北市新店區溪洲路8巷94號","121.533165","24.962515","6500600","新店區"
"231037","4716-K9","2018/05/01 13:59:19","新北市新店區安康路三段207巷19號","121.488425","24.9508083333333","6500600","新店區"
"231025","4715-K9","2018/05/01 13:59:26","新北市新店區中正路330號","121.536861666667","24.9749433333333","6500600","新店區"
"231036","512-UM","2018/05/01 13:59:11","新北市新店區安祥路110巷30弄1號","121.473613333333","24.9565183333333","6500600","新店區"
"231013","513-UM","2018/05/01 13:59:25","新北市新店區明德路119-1號","121.541148333333","24.979815","6500600","新店區"
"231034","616-UM","2018/05/01 13:59:09","新北市新店區達觀路14巷1號","121.503978333333","24.9408666666667","6500600","新店區"
"231006","617-UM","2018/05/01 13:59:10","新北市新店區北宜路二段179號","121.552511666667","24.9532766666667","6500600","新店區"
"231002","618-UM","2018/05/01 13:59:19","新北市新店區中正路542-4號","121.533798333333","24.985805","6500600","新店區"
"231030","619-UM","2018/05/01 13:59:12","新北市新店區安康路一段220號","121.523871666667","24.9635416666667","6500600","新店區"
"231035","719-UM","2018/05/01 13:59:16","新北市新店區安光路10-1號","121.513755","24.9639233333333","6500600","新店區"
"231032","720-UM","2018/05/01 13:59:08","新北市新店區華城路36號","121.528368333333","24.9557816666667","6500600","新店區"
"231004","899-TW","2018/05/01 13:59:14","新北市新店區北新路二段167號","121.542808333333","24.9763416666667","6500600","新店區"
"231024","AKT-0513","2018/05/01 13:59:26","新北市新店區中華路83巷67號","121.53835","24.967275","6500600","新店區"
"235028","005-UY","2018/05/01 13:59:25","新北市中和區泰和街25號","121.499398333333","25.00002","6500300","中和區"
"235027","006-UY","2018/05/01 13:59:21","新北市中和區建一路196號","121.487728333333","24.9964433333333","6500300","中和區"
"235020","096-UM","2018/05/01 13:59:15","新北市中和區員山路514巷13號","121.479503333333","25.0096666666667","6500300","中和區"
"235003","097-UM","2018/05/01 13:59:11","新北市中和區景平路64巷14弄15號","121.522871666667","24.9913316666667","6500300","中和區"
"235029","098-UM","2018/05/01 13:59:21","新北市中和區中山路二段136巷37號","121.50109","25.0044483333333","6500300","中和區"
"235004","150-BY","2018/05/01 13:59:23","新北市中和區保健路46巷26弄2號","121.508446666667","24.99538","6500300","中和區"
"235022","151-BY","2018/05/01 13:59:10","新北市中和區連城路585號","121.478733333333","24.99412","6500300","中和區"
"235019","183-VK","2018/05/01 13:59:09","新北市板橋區民族路276巷1弄20號","121.470371666667","25.00632","6500300","中和區"
"235002","185-VK","2018/05/01 13:59:19","新北市中和區立人街38號","121.518138333333","24.994095","6500300","中和區"
"235013","186-VK","2018/05/01 13:59:22","新北市中和區景新街208號","121.50663","24.99541","6500300","中和區"
"235031","255-BX","2018/05/01 13:59:20","新北市中和區中正路711號","121.48465","24.9985183333333","6500300","中和區"
"235008","293-VK","2018/05/01 13:59:16","新北市中和區中興街161巷1弄1號","121.500245","24.990925","6500300","中和區"
"235036","301-VK","2018/05/01 13:59:21","新北市中和區中山路二段146-3號","121.50165","25.0029166666667","6500300","中和區"
"235007","352-BY","2018/05/01 13:59:21","新北市中和區成功路41巷1號","121.526216666667","24.9933116666667","6500300","中和區"
"235032","377-QA","2018/05/01 13:59:10","新北市中和區安邦街95號","121.49721","24.996115","6500300","中和區"
"235025","378-QA","2018/05/01 13:59:11","新北市中和區民有街5號","121.47568","25.0057066666667","6500300","中和區"
"235014","4979-A6","2018/05/01 13:59:23","新北市中和區華新街50巷8號","121.507668333333","24.9839683333333","6500300","中和區"
"235033","4980-A6","2018/05/01 13:59:23","新北市中和區圓通路109巷1弄2號","121.49986","24.9964233333333","6500300","中和區"
"235006","551-UM","2018/05/01 13:59:10","新北市中和區秀朗路三段100巷2弄12號","121.524996666667","24.9936633333333","6500300","中和區"
"235034","558-UM","2018/05/01 13:59:14","新北市中和區安和路163號","121.506186666667","24.9975066666667","6500300","中和區"
"235009","565-BX","2018/05/01 13:59:14","新北市中和區景新街467巷20弄7-5號","121.514418333333","24.987855","6500300","中和區"
"235018","640-BX","2018/05/01 13:59:16","新北市中和區民享街34號","121.474013333333","25.003235","6500300","中和區"
"235024","647-TV","2018/05/01 13:59:11","新北市中和區民治街7巷2號","121.475108333333","25.0046616666667","6500300","中和區"
"235011","732-UM","2018/05/01 13:59:07","新北市中和區興南路二段54巷11弄4號","121.505588333333","24.9855316666667","6500300","中和區"
"235010","733-UM","2018/05/01 13:59:23","新北市中和區興南路一段135巷22弄12號","121.509076666667","24.9868283333333","6500300","中和區"
"235035","783-BX","2018/05/01 13:59:21","新北市中和區建一路141號","121.488181666667","25.0009083333333","6500300","中和區"
"235026","800-TS","2018/05/01 13:59:22","新北市中和區中山路二段362-6號","121.492236666667","25.00301","6500300","中和區"
"235021","801-TS","2018/05/01 13:59:14","新北市中和區民安街65巷5號","121.478833333333","24.99934","6500300","中和區"
"235005","802-TS","2018/05/01 13:59:08","新北市中和區永貞路268號","121.513628333333","25.00376","6500300","中和區"
"235016","805-TS","2018/05/01 13:59:11","新北市中和區興南路二段261巷6-4號","121.50246","24.9795466666667","6500300","中和區"
"235012","896-TW","2018/05/01 13:59:11","新北市中和區華新街31號","121.507683333333","24.9848066666667","6500300","中和區"
"235017","900-TW","2018/05/01 13:59:25","新北市中和區和平路200巷33-3號","121.465106666667","24.9945016666667","6500300","中和區"
"235030","911-UM","2018/05/01 13:59:16","新北市中和區水源路6巷6號","121.503433333333","25.0033966666667","6500300","中和區"
"235015","157-BY","2018/05/01 13:59:17","新北市中和區忠孝街9號","121.509906666667","24.9829666666667","6500300","中和區"
"235001","AAC-213","2018/05/01 13:59:23","新北市中和區秀朗路三段10巷14弄41-5號","121.524153333333","24.9963683333333","6500300","中和區"
"235023","AAC-215","2018/05/01 13:59:18","新北市中和區圓通路369巷14弄8號","121.490433333333","24.987855","6500300","中和區"
"220016","013-TV","2018/05/01 13:59:24","新北市板橋區中山路二段465巷34號","121.48138","25.0212633333333","6500100","板橋區"
"220013","072-UY","2018/05/01 13:59:22","新北市板橋區漢生東路338號","121.471751666667","25.0074983333333","6500100","板橋區"
"220034","073-UY","2018/05/01 13:59:08","新北市板橋區中正路107號","121.456353333333","25.0149116666667","6500100","板橋區"
"220105","075-UY","2018/05/01 13:59:23","新北市板橋區文化路二段124巷28-2號","121.471223333333","25.0257166666667","6500100","板橋區"
"220017","AAD-861","2018/05/01 13:59:21","新北市板橋區華興街91巷4號","121.456623333333","25.0053516666667","6500100","板橋區"
"247013","546-UM","2018/05/01 13:59:22","新北市蘆洲區中正路131號","121.469401666667","25.0846266666667","6501400","蘆洲區"
"247021","500-BY","2018/05/01 13:59:21","新北市蘆洲區中正路263巷2號","121.467268333333","25.0874983333333","6501400","蘆洲區"
"247009","341-TH","2018/05/01 13:59:14","新北市蘆洲區中興街48號","121.481535","25.0872166666667","6501400","蘆洲區"
"247011","339-TH","2018/05/01 13:59:25","新北市蘆洲區民族路154號","121.479656666667","25.0860816666667","6501400","蘆洲區"
"247003","337-TH","2018/05/01 13:59:22","新北市蘆洲區長榮路1號","121.463885","25.0820366666667","6501400","蘆洲區"
"247005","336-TH","2018/05/01 13:59:22","新北市蘆洲區九芎街154號","121.464386666667","25.0781916666667","6501400","蘆洲區"
"247017","057-VK","2018/05/01 13:59:22","新北市蘆洲區民族路327巷83號","121.475651666667","25.0892316666667","6501400","蘆洲區"
"247007","056-VK","2018/05/01 13:59:19","新北市三重區仁愛街747號","121.481291666667","25.0805816666667","6501400","蘆洲區"
"247019","001-UY","2018/05/01 13:59:16","新北市蘆洲區民族路422巷11號","121.473918333333","25.0923616666667","6501400","蘆洲區"
"228004","212-TW","2018/05/01 13:59:22","新北市貢寮區龍崗里泮宮路6號","121.907355","25.0176166666667","6502600","貢寮區"
"228005","828-UM","2018/05/01 13:55:27","新北市貢寮區美豐里雞母嶺街52號","121.890941666667","25.0669633333333","6502600","貢寮區"
"207002","749-BX","2018/05/01 13:59:13","新北市萬里區溪底里溪底路9-1號","121.618985","25.1488766666667","6502800","萬里區"
"207001","662-BX","2018/05/01 13:59:13","新北市萬里區磺潭里清水18號","121.637831666667","25.1976916666667","6502800","萬里區"
"252005","AAC-283","2018/05/01 13:59:25","新北市三芝區橫山里橫山33號","121.542863333333","25.2588216666667","6502100","三芝區"
"236065","105-UM","2018/05/01 13:59:13","新北市土城區金城路一段88巷26號","121.446125","24.9733816666667","6501300","土城區"
"236040","107-UM","2018/05/01 13:59:16","新北市土城區城林路6巷80號","121.43851","24.97975","6501300","土城區"
"236074","166-UM","2018/05/01 13:59:16","新北市土城區永寧路32巷10弄21號","121.428971666667","24.9610316666667","6501300","土城區"
"236029","253-BX","2018/05/01 13:59:12","新北市土城區城林路6巷80號","121.438538333333","24.979765","6501300","土城區"
"236024","269-VK","2018/05/01 13:59:09","新北市土城區承天路18號","121.439268333333","24.9636966666667","6501300","土城區"
"236013","270-VK","2018/05/01 13:59:13","新北市土城區中央路二段280號","121.440848333333","24.9741366666667","6501300","土城區"
"236032","271-VK","2018/05/01 13:59:13","新北市土城區城林路6巷80號","121.438483333333","24.97983","6501300","土城區"
"236017","401-BY","2018/05/01 13:59:15","新北市土城區城林路6巷80號","121.438551666667","24.9797033333333","6501300","土城區"
"236057","912-UM","2018/05/01 13:59:24","新北市土城區中央路三段198號","121.430308333333","24.96489","6501300","土城區"
"236045","913-UM","2018/05/01 13:59:11","新北市土城區城林路6巷80號","121.438651666667","24.9797016666667","6501300","土城區"
"236060","915-UM","2018/05/01 13:59:15","新北市土城區城林路6巷80號","121.438481666667","24.979745","6501300","土城區"
"236054","AAC-216","2018/05/01 13:59:23","新北市土城區城林路6巷80號","121.438666666667","24.9797616666667","6501300","土城區"
"242048","172-VK","2018/05/01 13:58:41","新北市新莊區新泰路357巷3弄55號","121.442113333333","25.0397883333333","6500500","新莊區"
"221029","298-VK","2018/05/01 13:56:24","新北市汐止區龍安路2巷2號","121.656236666667","25.06442","6501100","汐止區"
"220027","145-BY","2018/05/01 13:58:59","新北市板橋區民權路260巷1弄1-1號","121.457931666667","25.01549","6500100","板橋區"
"220028","200-UY","2018/05/01 13:59:24","新北市板橋區大觀路二段265巷4號","121.442865","24.9987366666667","6500100","板橋區"
"220030","610-BX","2018/05/01 13:59:09","新北市板橋區溪北路6號","121.426586666667","24.9905116666667","6500100","板橋區"
"220050","245-BX","2018/05/01 13:59:24","新北市板橋區文化路二段182巷3弄1號","121.471366666667","25.0272933333333","6500100","板橋區"
"220052","257-TC","2018/05/01 13:59:13","新北市板橋區民生路二段121號","121.470838333333","25.0184333333333","6500100","板橋區"
"220040","267-BY","2018/05/01 13:59:13","新北市板橋區莒光路165巷4-4號","121.474083333333","25.0240383333333","6500100","板橋區"
"220004","276-BY","2018/05/01 13:59:25","新北市板橋區信義路111號","121.457633333333","24.9934633333333","6500100","板橋區"
"220020","277-BY","2018/05/01 13:59:21","新北市板橋區篤行路二段135號","121.43067","24.9895766666667","6500100","板橋區"
"220043","283-UM","2018/05/01 13:59:23","新北市板橋區文化路二段76號","121.469388333333","25.0251233333333","6500100","板橋區"
"220019","283-VK","2018/05/01 13:59:25","新北市板橋區重慶路245巷52弄2號","121.465415","25.0006633333333","6500100","板橋區"
"220001","285-VK","2018/05/01 13:59:24","新北市板橋區中山路二段89巷66號","121.473633333333","25.017555","6500100","板橋區"
"220031","286-VK","2018/05/01 13:59:17","新北市板橋區僑中二街152號","121.444886666667","25.0043316666667","6500100","板橋區"
"220029","287-VK","2018/05/01 13:59:22","新北市板橋區光華街19巷2號","121.453878333333","25.01221","6500100","板橋區"
"220039","288-VK","2018/05/01 13:59:09","新北市板橋區四維路177巷2弄1號","121.46407","25.02632","6500100","板橋區"
"220009","293-UM","2018/05/01 13:59:23","新北市板橋區富山街109巷60弄19號","121.475523333333","25.0214066666667","6500100","板橋區"
"220032","296-UM","2018/05/01 13:59:21","新北市板橋區篤行路一段16號","121.431348333333","24.9954933333333","6500100","板橋區"
"220023","303-R5","2018/05/01 13:59:22","新北市板橋區南雅西路二段2-1號","121.453375","25.0087783333333","6500100","板橋區"
"220010","305-R5","2018/05/01 13:59:14","新北市板橋區三民路二段245巷49號","121.480633333333","25.0126183333333","6500100","板橋區"
"220041","307-R5","2018/05/01 13:59:09","新北市板橋區漢生東路13號","121.464788333333","25.017475","6500100","板橋區"
"220047","317-R6","2018/05/01 13:59:25","新北市板橋區民有街27號","121.46604","25.0252633333333","6500100","板橋區"
"220012","486-VK","2018/05/01 13:59:24","新北市板橋區板新路154號","121.47032","25.0157316666667","6500100","板橋區"
"220037","491-VK","2018/05/01 13:59:25","新北市板橋區文化路二段16-2號","121.468861666667","25.02426","6500100","板橋區"
"220104","560-BX","2018/05/01 13:59:24","新北市板橋區中正路409號","121.454241666667","25.0224166666667","6500100","板橋區"
"220011","609-BX","2018/05/01 13:59:19","新北市板橋區中山路二段144號","121.476568333333","25.0170083333333","6500100","板橋區"
"220003","630-UY","2018/05/01 13:59:24","新北市板橋區中山路一段166號","121.467025","25.0122333333333","6500100","板橋區"
"220005","686-BX","2018/05/01 13:59:17","新北市板橋區重慶路91號","121.462116666667","25.0060116666667","6500100","板橋區"
"220025","687-BX","2018/05/01 13:59:14","新北市板橋區大觀路一段38巷2號","121.443515","25.0044566666667","6500100","板橋區"
"220042","689-BX","2018/05/01 13:59:24","新北市板橋區民生路三段10號","121.467883333333","25.0242266666667","6500100","板橋區"
"220002","741-BX","2018/05/01 13:59:26","新北市板橋區重慶路139巷12號","121.4629","25.00456","6500100","板橋區"
"220051","KEA-2699","2018/05/01 13:59:28","新北市板橋區萬板路706號","121.481523333333","25.027525","6500100","板橋區"
"220014","829-TW","2018/05/01 13:59:16","新北市板橋區三民路二段正隆巷12弄13號","121.47778","25.01335","6500100","板橋區"
"220045","830-TW","2018/05/01 13:59:22","新北市板橋區莒光路77號","121.471758333333","25.0242833333333","6500100","板橋區"
"220038","833-TW","2018/05/01 13:59:19","新北市板橋區文化路二段284號","121.471713333333","25.0292433333333","6500100","板橋區"
"220022","895-R6","2018/05/01 13:59:13","新北市板橋區西門街59號","121.4544","25.0092283333333","6500100","板橋區"
"220021","985-R7","2018/05/01 13:59:22","新北市板橋區中正路127號","121.4565","25.015315","6500100","板橋區"
"220046","AAC-210","2018/05/01 13:59:11","新北市板橋區漢生東路17號","121.464881666667","25.0173866666667","6500100","板橋區"
"220018","AAC-253","2018/05/01 13:59:24","新北市板橋區四川路一段336號","121.456978333333","24.9971416666667","6500100","板橋區"
