"lineid","car","time","location","longitude","latitude","cityid","cityname"
"234044","148-BY","2018/05/01 14:09:31","新北市永和區得和路322號","121.52311","24.99957","6500400","永和區"
"234005","207-UY","2018/05/01 14:09:20","新北市中和區保平路372號","121.506263333333","25.00333","6500400","永和區"
"234078","298-R6","2018/05/01 14:09:31","新北市永和區國中路104巷2弄2號","121.524333333333","25.006655","6500400","永和區"
"234036","336-UY","2018/05/01 14:09:32","新北市永和區成功路一段47巷21弄2號","121.528035","25.0040116666667","6500400","永和區"
"234062","337-UY","2018/05/01 14:09:18","新北市永和區永利路156號","121.522506666667","25.0027183333333","6500400","永和區"
"234084","338-UY","2018/05/01 14:09:26","新北市永和區中正路618-1號","121.516955","25.0077416666667","6500400","永和區"
"234068","552-UM","2018/05/01 14:09:31","新北市永和區中正路610-1號","121.517058333333","25.007325","6500400","永和區"
"234015","745-BX","2018/05/01 14:09:24","新北市永和區仁愛路91號","121.513028333333","25.0130733333333","6500400","永和區"
"234028","746-BX","2018/05/01 14:09:25","新北市永和區民權路51號","121.52016","24.9971216666667","6500400","永和區"
"234052","KEA-2590","2018/05/01 14:09:26","新北市永和區博愛街33號","121.518611666667","25.0158766666667","6500400","永和區"
"234012","KEA-2591","2018/05/01 14:09:28","新北市永和區永貞路387號","121.508083333333","25.00881","6500400","永和區"
"234060","AAD-866","2018/05/01 14:09:18","新北市中和區安樂路255號","121.514101666667","24.99983","6500400","永和區"
"234040","862-TW","2018/05/01 14:09:15","新北市永和區雙和街64巷1號","121.50904","25.0035016666667","6500400","永和區"
"234048","863-TW","2018/05/01 14:09:28","新北市永和區環河西路二段93號","121.506511666667","25.0149016666667","6500400","永和區"
"234025","9371-KE","2018/05/01 14:09:17","新北市永和區安樂路270號","121.514543333333","25.004045","6500400","永和區"
"234010","9373-KE","2018/05/01 14:09:20","新北市永和區仁愛路352巷122弄13號","121.500745","25.0088733333333","6500400","永和區"
"248017","225-UY","2018/05/01 14:09:24","新北市五股區民義路一段286號","121.425396666667","25.0930766666667","6501500","五股區"
"234022","9380-KE","2018/05/01 14:09:28","新北市永和區博愛街32巷13號","121.518931666667","25.0153016666667","6500400","永和區"
"234076","969-R7","2018/05/01 14:09:26","新北市中和區自強路2號","121.520286666667","24.9960533333333","6500400","永和區"
"234072","AAC-211","2018/05/01 14:09:13","新北市永和區竹林路201巷22弄15號","121.522635","25.009465","6500400","永和區"
"234066","AAC-212","2018/05/01 14:09:12","新北市永和區保平路236巷6號","121.508798333333","25.0062","6500400","永和區"
"234001","AAC-295","2018/05/01 14:09:20","新北市永和區中正路708號","121.515971666667","25.00998","6500400","永和區"
"244002","248-BX","2018/05/01 14:09:19","新北市林口區竹林路266號","121.389666666667","25.08076","6501700","林口區"
"231027","0293-UT","2018/05/01 14:09:19","新北市新店區光明街224巷20弄7號","121.540635","24.9622066666667","6500600","新店區"
"231028","046-UY","2018/05/01 14:09:22","新北市新店區安和路三段47-1號","121.518046666667","24.9822566666667","6500600","新店區"
"231001","047-UY","2018/05/01 14:09:31","新北市新店區中華路36號","121.540036666667","24.9680533333333","6500600","新店區"
"231005","106-UY","2018/05/01 14:09:14","新北市新店區中興路三段327號","121.541948333333","24.9864066666667","6500600","新店區"
"231010","107-UY","2018/05/01 14:09:24","新北市新店區安康路一段355號","121.519556666667","24.9631066666667","6500600","新店區"
"231020","108-UY","2018/05/01 14:09:18","新北市新店區桂山路35號","121.559321666667","24.902975","6500600","新店區"
"231012","187-VK","2018/05/01 14:09:13","新北市新店區中興路一段216號","121.543931666667","24.9657483333333","6500600","新店區"
"231023","KEA-2219","2018/05/01 14:09:23","新北市新店區文中路45號","121.53946","24.95663","6500600","新店區"
"231018","278-BY","2018/05/01 14:09:19","新北市新店區中央五街48-1號","121.528053333333","24.97517","6500600","新店區"
"231015","AAD-862","2018/05/01 14:09:25","新北市新店區中生路171號","121.57715","24.9495866666667","6500600","新店區"
"231029","355-BY","2018/05/01 14:09:10","新北市新店區安康路二段157號","121.510365","24.9594483333333","6500600","新店區"
"231038","3712-VJ","2018/05/01 14:09:27","新北市新店區溪洲路8巷94號","121.533146666667","24.9625183333333","6500600","新店區"
"231037","4716-K9","2018/05/01 14:09:19","新北市新店區安康路二段416號","121.496471666667","24.9551783333333","6500600","新店區"
"231025","4715-K9","2018/05/01 14:09:26","新北市新店區二十張路105巷7號","121.536795","24.9793633333333","6500600","新店區"
"231036","512-UM","2018/05/01 14:09:31","新北市新店區安祥路109巷3弄38號","121.476535","24.9604183333333","6500600","新店區"
"231013","513-UM","2018/05/01 14:09:26","新北市新店區北新路三段65巷30號","121.540253333333","24.9810783333333","6500600","新店區"
"231003","515-UM","2018/05/01 14:09:15","新北市新店區中興路一段160號","121.542586666667","24.9639983333333","6500600","新店區"
"231034","616-UM","2018/05/01 14:09:29","新北市新店區車子路11號","121.503073333333","24.9520933333333","6500600","新店區"
"231006","617-UM","2018/05/01 14:09:30","新北市新店區北宜路二段168號","121.558255","24.9541133333333","6500600","新店區"
"231002","618-UM","2018/05/01 14:09:19","新北市新店區民權路143-1號","121.53461","24.9821483333333","6500600","新店區"
"231030","619-UM","2018/05/01 14:09:32","新北市新店區安興路7-1號","121.514941666667","24.9685383333333","6500600","新店區"
"231035","719-UM","2018/05/01 14:09:16","新北市新店區安和路一段52巷2號","121.517648333333","24.9661316666667","6500600","新店區"
"231032","720-UM","2018/05/01 14:09:28","新北市新店區永業路31巷1號","121.532921666667","24.9555666666667","6500600","新店區"
"231004","899-TW","2018/05/01 14:09:14","新北市新店區北新路二段128號","121.543115","24.97488","6500600","新店區"
"231024","AKT-0513","2018/05/01 14:09:26","新北市新店區中華路83巷67號","121.538355","24.9672766666667","6500600","新店區"
"235028","005-UY","2018/05/01 14:09:25","新北市中和區泰和街38巷19號","121.498811666667","25.000725","6500300","中和區"
"235027","006-UY","2018/05/01 14:09:21","新北市中和區連城路249巷17弄1號","121.493805","24.9965883333333","6500300","中和區"
"235020","096-UM","2018/05/01 14:09:15","新北市中和區員山路531號","121.479586666667","25.00698","6500300","中和區"
"235003","097-UM","2018/05/01 14:09:26","新北市中和區秀峰街56號","121.520945","24.990375","6500300","中和區"
"235029","098-UM","2018/05/01 14:09:21","新北市中和區中山路二段64巷16弄16號","121.503841666667","25.0062016666667","6500300","中和區"
"235004","150-BY","2018/05/01 14:09:23","新北市中和區保健路78號","121.511635","24.99632","6500300","中和區"
"235022","151-BY","2018/05/01 14:09:29","新北市中和區員山路106號","121.481133333333","24.9955233333333","6500300","中和區"
"235019","183-VK","2018/05/01 14:09:29","新北市中和區德光路102號","121.468418333333","25.0033716666667","6500300","中和區"
"235002","185-VK","2018/05/01 14:09:26","新北市中和區大仁街10巷29號","121.519205","24.9925783333333","6500300","中和區"
"235013","186-VK","2018/05/01 14:09:22","新北市中和區景新街235號","121.50808","24.9946133333333","6500300","中和區"
"235031","255-BX","2018/05/01 14:09:20","新北市中和區中正路711號","121.48463","24.99853","6500300","中和區"
"235008","293-VK","2018/05/01 14:09:16","新北市中和區復興路331號","121.500581666667","24.9902683333333","6500300","中和區"
"235036","301-VK","2018/05/01 14:09:21","新北市中和區景平路723號","121.496336666667","25.0039966666667","6500300","中和區"
"235007","352-BY","2018/05/01 14:09:24","新北市中和區景平路120號","121.51928","24.991855","6500300","中和區"
"235032","377-QA","2018/05/01 14:09:30","新北市中和區圓通路158巷4號","121.497726666667","24.9961633333333","6500300","中和區"
"235025","378-QA","2018/05/01 14:09:31","新北市中和區員山路244號","121.481301666667","25.0014783333333","6500300","中和區"
"235014","4979-A6","2018/05/01 14:09:23","新北市中和區復興路274巷20號","121.502795","24.9912","6500300","中和區"
"235033","4980-A6","2018/05/01 14:09:23","新北市中和區中和路165巷5號","121.502603333333","25.0004233333333","6500300","中和區"
"235006","551-UM","2018/05/01 14:09:30","新北市中和區自立路175號","121.523266666667","24.992155","6500300","中和區"
"235034","558-UM","2018/05/01 14:09:14","新北市中和區中和路71號","121.500763333333","25.0009133333333","6500300","中和區"
"235009","565-BX","2018/05/01 14:09:24","新北市中和區景新街467巷35弄6號","121.514546666667","24.9890933333333","6500300","中和區"
"235018","640-BX","2018/05/01 14:09:16","新北市中和區民德路189巷7號","121.469205","24.9990466666667","6500300","中和區"
"235024","647-TV","2018/05/01 14:09:31","新北市中和區中山路三段93號","121.475351666667","25.0060316666667","6500300","中和區"
"235011","732-UM","2018/05/01 14:09:27","新北市中和區興南路一段130號","121.509338333333","24.9882933333333","6500300","中和區"
"235010","733-UM","2018/05/01 14:09:23","新北市中和區忠孝街1巷10號","121.508813333333","24.9835133333333","6500300","中和區"
"235035","783-BX","2018/05/01 14:09:21","新北市中和區中正路911號","121.483203333333","25.0065383333333","6500300","中和區"
"235026","800-TS","2018/05/01 14:09:27","新北市中和區中山路二段398號","121.490251666667","25.0036416666667","6500300","中和區"
"235021","801-TS","2018/05/01 14:09:14","新北市中和區民利街50號","121.479278333333","24.9988066666667","6500300","中和區"
"235005","802-TS","2018/05/01 14:09:28","新北市中和區中安街166號","121.510888333333","25.0000516666667","6500300","中和區"
"235016","805-TS","2018/05/01 14:09:31","新北市中和區興南路二段142巷19弄38號","121.502605","24.9834966666667","6500300","中和區"
"235012","896-TW","2018/05/01 14:09:11","新北市中和區工專路147號","121.508521666667","24.97884","6500300","中和區"
"235017","900-TW","2018/05/01 14:09:25","新北市中和區民德路260號","121.467778333333","24.9969616666667","6500300","中和區"
"235030","911-UM","2018/05/01 14:09:16","新北市中和區廣福路62號","121.503531666667","25.0018783333333","6500300","中和區"
"235015","157-BY","2018/05/01 14:09:17","新北市中和區興南路一段85巷33號","121.5104","24.988155","6500300","中和區"
"235001","AAC-213","2018/05/01 14:09:23","新北市中和區秀朗路三段58-2號","121.525925","24.9951233333333","6500300","中和區"
"235023","AAC-215","2018/05/01 14:09:18","新北市中和區圓通路296巷1號","121.48753","24.988575","6500300","中和區"
"220016","013-TV","2018/05/01 14:09:31","新北市板橋區翠華街6巷57號","121.481338333333","25.024865","6500100","板橋區"
"220013","072-UY","2018/05/01 14:09:22","新北市板橋區民族路219巷68號","121.468841666667","25.00854","6500100","板橋區"
"220034","073-UY","2018/05/01 14:09:28","新北市板橋區中正路236巷25號","121.456993333333","25.0192566666667","6500100","板橋區"
"220105","075-UY","2018/05/01 14:09:23","新北市板橋區雙十路三段9號","121.471646666667","25.0303133333333","6500100","板橋區"
"220017","AAD-861","2018/05/01 14:09:21","新北市板橋區四川路一段104號","121.459568333333","25.0046366666667","6500100","板橋區"
"247023","893-R6","2018/05/01 14:09:24","新北市蘆洲區光榮路118號","121.464763333333","25.0888316666667","6501400","蘆洲區"
"247013","546-UM","2018/05/01 14:09:22","新北市蘆洲區三民路155號","121.471383333333","25.0867283333333","6501400","蘆洲區"
"247021","500-BY","2018/05/01 14:09:25","新北市蘆洲區三民路122號","121.471183333333","25.0873816666667","6501400","蘆洲區"
"247009","341-TH","2018/05/01 14:09:14","新北市蘆洲區民族路42號","121.476653333333","25.084435","6501400","蘆洲區"
"247011","339-TH","2018/05/01 14:09:25","新北市蘆洲區信義路333號","121.477976666667","25.0869116666667","6501400","蘆洲區"
"247003","337-TH","2018/05/01 14:09:17","新北市蘆洲區中華街6巷5號","121.46215","25.0824416666667","6501400","蘆洲區"
"247005","336-TH","2018/05/01 14:09:22","新北市蘆洲區永安南路二段16巷17弄4號","121.467641666667","25.0778933333333","6501400","蘆洲區"
"247017","057-VK","2018/05/01 14:09:22","新北市蘆洲區民族路227巷24弄3號","121.476358333333","25.0888816666667","6501400","蘆洲區"
"247007","056-VK","2018/05/01 14:09:18","新北市蘆洲區中山一路415號","121.46902","25.0767633333333","6501400","蘆洲區"
"247015","007-UY","2018/05/01 14:09:20","新北市蘆洲區光華路46巷34號","121.468031666667","25.0841116666667","6501400","蘆洲區"
"247001","002-UY","2018/05/01 14:09:11","新北市蘆洲區永平街56號","121.457595","25.0914866666667","6501400","蘆洲區"
"247019","001-UY","2018/05/01 14:09:16","新北市蘆洲區仁愛街75號","121.471471666667","25.0938116666667","6501400","蘆洲區"
"228004","212-TW","2018/05/01 14:09:22","新北市貢寮區雙玉里德心街11-1號","121.918648333333","25.0157666666667","6502600","貢寮區"
"228005","828-UM","2018/05/01 14:09:27","新北市貢寮區美豐里土地公嶺10-2號","121.891838333333","25.0568233333333","6502600","貢寮區"
"207002","749-BX","2018/05/01 14:09:13","新北市萬里區溪底里瑞泉路21號","121.60464","25.1488866666667","6502800","萬里區"
"207001","662-BX","2018/05/01 14:09:32","新北市萬里區磺潭里清水18號","121.637878333333","25.1977616666667","6502800","萬里區"
"252005","AAC-283","2018/05/01 14:09:25","新北市三芝區橫山里橫山2號","121.532401666667","25.261655","6502100","三芝區"
"236065","105-UM","2018/05/01 14:09:13","新北市土城區明德路一段174號","121.462583333333","24.978245","6501300","土城區"
"236040","107-UM","2018/05/01 14:09:16","新北市土城區城林路6巷80號","121.438528333333","24.9797483333333","6501300","土城區"
"236074","166-UM","2018/05/01 14:09:16","新北市土城區永和街5號","121.43458","24.9650783333333","6501300","土城區"
"236029","253-BX","2018/05/01 14:09:32","新北市土城區城林路6巷80號","121.438593333333","24.9798066666667","6501300","土城區"
"236024","269-VK","2018/05/01 14:09:29","新北市土城區承天路65號","121.439435","24.96373","6501300","土城區"
"236013","270-VK","2018/05/01 14:09:13","新北市土城區明德路二段131號","121.449573333333","24.9823316666667","6501300","土城區"
"236032","271-VK","2018/05/01 14:09:13","新北市土城區青雲路449號","121.459033333333","24.9749433333333","6501300","土城區"
"236017","401-BY","2018/05/01 14:09:15","新北市土城區城林路6巷80號","121.43852","24.9797183333333","6501300","土城區"
"236057","912-UM","2018/05/01 14:09:16","新北市土城區中央路四段150號","121.417198333333","24.9583366666667","6501300","土城區"
"236045","913-UM","2018/05/01 14:09:11","新北市土城區明德路一段365-1號","121.453523333333","24.979055","6501300","土城區"
"236060","915-UM","2018/05/01 14:09:15","新北市土城區員福街62號","121.440116666667","24.9792733333333","6501300","土城區"
"236054","AAC-216","2018/05/01 14:09:23","新北市土城區中華路二段102號","121.438055","24.9743816666667","6501300","土城區"
"221029","298-VK","2018/05/01 14:09:24","新北市汐止區水源路一段291巷5號","121.65448","25.0584083333333","6501100","汐止區"
"220027","145-BY","2018/05/01 14:09:21","新北市板橋區民權路260巷47號","121.459628333333","25.0152216666667","6500100","板橋區"
"220028","200-UY","2018/05/01 14:09:24","新北市板橋區大觀路二段7巷3號","121.447258333333","25.00363","6500100","板橋區"
"220030","610-BX","2018/05/01 14:09:30","新北市板橋區滿平街84巷80號","121.426151666667","24.9870616666667","6500100","板橋區"
"220050","245-BX","2018/05/01 14:09:21","新北市板橋區萬板路13號","121.470495","25.0210533333333","6500100","板橋區"
"220052","257-TC","2018/05/01 14:09:13","新北市板橋區介壽街84巷30號","121.469291666667","25.018005","6500100","板橋區"
"220040","267-BY","2018/05/01 14:09:13","新北市板橋區八德路二段62號","121.482108333333","25.0271783333333","6500100","板橋區"
"220004","276-BY","2018/05/01 14:09:25","新北市板橋區信義路74巷1弄13號","121.457581666667","24.9927733333333","6500100","板橋區"
"220020","277-BY","2018/05/01 14:09:23","新北市板橋區金門街369巷58號","121.42833","24.98181","6500100","板橋區"
"220043","283-UM","2018/05/01 14:09:23","新北市板橋區光武街167號","121.465301666667","25.0300033333333","6500100","板橋區"
"220019","283-VK","2018/05/01 14:09:25","新北市板橋區重慶路247-3號","121.463451666667","25.000465","6500100","板橋區"
"220001","285-VK","2018/05/01 14:09:15","新北市板橋區懷仁街24巷23號","121.475593333333","25.01922","6500100","板橋區"
"220031","286-VK","2018/05/01 14:09:18","新北市板橋區大觀路二段174巷198號","121.442396666667","25.00399","6500100","板橋區"
"220029","287-VK","2018/05/01 14:09:22","新北市板橋區南雅西路二段2-1號","121.45319","25.0088316666667","6500100","板橋區"
"220039","288-VK","2018/05/01 14:09:29","新北市板橋區裕民街45巷2號","121.461525","25.0284283333333","6500100","板橋區"
"220009","293-UM","2018/05/01 14:09:28","新北市板橋區中山路二段214號","121.477918333333","25.0178183333333","6500100","板橋區"
"220032","296-UM","2018/05/01 14:09:21","新北市板橋區溪崑二街16巷18號","121.428195","24.9920183333333","6500100","板橋區"
"220023","303-R5","2018/05/01 14:09:22","新北市板橋區中正路12巷135弄13號","121.45627","25.01245","6500100","板橋區"
"220010","305-R5","2018/05/01 14:09:14","新北市板橋區三民路二段居仁巷2弄23號","121.479913333333","25.012935","6500100","板橋區"
"220041","307-R5","2018/05/01 14:09:09","新北市板橋區文化路二段225巷39號","121.469218333333","25.0283583333333","6500100","板橋區"
"220047","317-R6","2018/05/01 14:09:17","新北市板橋區自由路51巷9-3號","121.465065","25.02348","6500100","板橋區"
"220012","486-VK","2018/05/01 14:09:29","新北市板橋區觀光街1巷2號","121.472063333333","25.0154583333333","6500100","板橋區"
"220037","491-VK","2018/05/01 14:09:25","新北市板橋區文化路二段182巷3弄29號","121.472166666667","25.0283033333333","6500100","板橋區"
"220104","560-BX","2018/05/01 14:09:24","新北市板橋區中正路433巷27號","121.4532","25.0236583333333","6500100","板橋區"
"220011","609-BX","2018/05/01 14:09:10","新北市板橋區三民路二段192號","121.479065","25.0146183333333","6500100","板橋區"
"220003","630-UY","2018/05/01 14:09:24","新北市板橋區中山路一段146號","121.463735","25.011145","6500100","板橋區"
"220005","686-BX","2018/05/01 14:09:16","新北市板橋區重慶路290號","121.463586666667","24.99895","6500100","板橋區"
"220025","687-BX","2018/05/01 14:09:14","新北市板橋區大觀路二段142-1號","121.442638333333","24.999095","6500100","板橋區"
"220042","689-BX","2018/05/01 14:09:24","新北市板橋區民生路三段164號","121.465815","25.0276733333333","6500100","板橋區"
"220002","741-BX","2018/05/01 14:09:31","新北市板橋區重慶路69巷21號","121.462696666667","25.0070633333333","6500100","板橋區"
"220051","KEA-2699","2018/05/01 14:09:28","新北市板橋區田單街51號","121.482626666667","25.0279616666667","6500100","板橋區"
"220014","829-TW","2018/05/01 14:09:30","新北市板橋區民享街116巷2弄16號","121.477438333333","25.0155316666667","6500100","板橋區"
"220045","830-TW","2018/05/01 14:09:15","新北市板橋區大同街10號","121.477063333333","25.02674","6500100","板橋區"
"220038","833-TW","2018/05/01 14:09:25","新北市板橋區文化路二段445號","121.475253333333","25.0332783333333","6500100","板橋區"
"220022","895-R6","2018/05/01 14:09:13","新北市板橋區文昌街1號","121.455966666667","25.010105","6500100","板橋區"
"220021","985-R7","2018/05/01 14:09:23","新北市板橋區中正路221號","121.456095","25.0176366666667","6500100","板橋區"
"220046","AAC-210","2018/05/01 14:09:30","新北市板橋區新海路135巷35號","121.459745","25.02283","6500100","板橋區"
"220018","AAC-253","2018/05/01 14:09:24","新北市板橋區忠孝路92號","121.461841666667","25.0021183333333","6500100","板橋區"
