"lineid","car","time","location","longitude","latitude","cityid","cityname"
"248017","225-UY","2018/05/01 14:59:24","新北市五股區登林路81-40號","121.42606","25.07037","6501500","五股區"
"244002","248-BX","2018/05/01 14:59:19","新北市林口區竹林路266號","121.389663333333","25.0807833333333","6501700","林口區"
"231028","046-UY","2018/05/01 14:59:29","新北市新店區安豐路46號","121.500076666667","24.95495","6500600","新店區"
"231001","047-UY","2018/05/01 14:59:21","新北市新店區中正路276號","121.53884","24.9736466666667","6500600","新店區"
"231005","106-UY","2018/05/01 14:59:33","新北市新店區寶慶街58巷4號","121.542148333333","24.9869283333333","6500600","新店區"
"231020","108-UY","2018/05/01 14:59:18","新北市新店區永福路54-2號","121.55822","24.9286833333333","6500600","新店區"
"231012","187-VK","2018/05/01 14:59:13","新北市新店區寶橋路132號","121.547388333333","24.976075","6500600","新店區"
"231023","KEA-2219","2018/05/01 14:59:23","新北市新店區檳榔路109號","121.544455","24.96154","6500600","新店區"
"231026","256-BX","2018/05/01 14:59:18","新北市新店區博愛街3號","121.540645","24.9727233333333","6500600","新店區"
"231018","278-BY","2018/05/01 14:59:19","新北市新店區中央六街7號","121.530293333333","24.9745366666667","6500600","新店區"
"231015","AAD-862","2018/05/01 14:59:25","新北市新店區玉山路22號","121.567673333333","24.9552433333333","6500600","新店區"
"231029","355-BY","2018/05/01 14:59:10","新北市新店區安康路三段628號","121.478575","24.94586","6500600","新店區"
"231038","3712-VJ","2018/05/01 14:59:27","新北市新店區安華路28-1號","121.519521666667","24.9609816666667","6500600","新店區"
"231037","4716-K9","2018/05/01 14:59:19","新北市新店區安民街365巷1弄10號","121.516513333333","24.97503","6500600","新店區"
"231025","4715-K9","2018/05/01 14:59:26","新北市新店區大同街42號","121.538766666667","24.980795","6500600","新店區"
"231036","512-UM","2018/05/01 14:59:31","新北市新店區安祥路102巷26號","121.483836666667","24.963995","6500600","新店區"
"231003","515-UM","2018/05/01 14:59:15","新北市新店區五峰路57-1號","121.547143333333","24.970975","6500600","新店區"
"231034","616-UM","2018/05/01 14:59:29","新北市新店區玫瑰路4-1號","121.493606666667","24.9514383333333","6500600","新店區"
"231006","617-UM","2018/05/01 14:59:30","新北市新店區新坡一街72號","121.548926666667","24.9645716666667","6500600","新店區"
"231002","618-UM","2018/05/01 14:59:19","新北市新店區中正路520號","121.533783333333","24.9837433333333","6500600","新店區"
"231030","619-UM","2018/05/01 14:59:12","新北市新店區安民街341-1號","121.516785","24.9749416666667","6500600","新店區"
"231039","718-UY","2018/05/01 14:59:12","新北市新店區寶中路45-3號","121.545225","24.97896","6500600","新店區"
"231035","719-UM","2018/05/01 14:58:56","新北市新店區安業街33號","121.517708333333","24.9770883333333","6500600","新店區"
"231032","720-UM","2018/05/01 14:59:28","新北市新店區安泰路70號","121.485148333333","24.9472083333333","6500600","新店區"
"231004","899-TW","2018/05/01 14:59:14","新北市新店區民族路48巷1號","121.540206666667","24.9786866666667","6500600","新店區"
"231024","AKT-0513","2018/05/01 14:59:26","新北市新店區中華路83巷67號","121.538335","24.9673083333333","6500600","新店區"
"235020","096-UM","2018/05/01 14:59:15","新北市中和區中山路三段186號","121.472395","25.0066616666667","6500300","中和區"
"235003","097-UM","2018/05/01 14:59:26","新北市中和區宜安路18巷8號","121.513671666667","24.9961516666667","6500300","中和區"
"235029","098-UM","2018/05/01 14:59:21","新北市中和區福美路319號","121.49664","25.0046883333333","6500300","中和區"
"235004","150-BY","2018/05/01 14:59:23","新北市中和區中和路260-1號","121.50811","24.9993983333333","6500300","中和區"
"235013","186-VK","2018/05/01 14:59:22","新北市中和區南華路13號","121.502325","24.9956266666667","6500300","中和區"
"235031","255-BX","2018/05/01 14:59:20","新北市板橋區民生路三段93號","121.467066666667","25.0248966666667","6500300","中和區"
"235036","301-VK","2018/05/01 14:59:21","新北市中和區中和路74號","121.500771666667","25.0001966666667","6500300","中和區"
"235007","352-BY","2018/05/01 14:59:21","新北市中和區華新街230號","121.506043333333","24.9817433333333","6500300","中和區"
"235032","377-QA","2018/05/01 14:59:10","新北市中和區永和路9巷1號","121.499243333333","25.0040083333333","6500300","中和區"
"235014","4979-A6","2018/05/01 14:59:23","新北市中和區景平路155巷30號","121.5136","24.99166","6500300","中和區"
"235033","4980-A6","2018/05/01 14:59:23","新北市中和區圓通路83號","121.499826666667","24.9969033333333","6500300","中和區"
"235034","558-UM","2018/05/01 14:59:14","新北市中和區圓通路93號","121.499723333333","24.99678","6500300","中和區"
"235018","640-BX","2018/05/01 14:59:33","新北市中和區莒光路5號","121.47183","25.00602","6500300","中和區"
"235011","732-UM","2018/05/01 14:59:27","新北市中和區錦和路350號","121.490831666667","24.9926183333333","6500300","中和區"
"235010","733-UM","2018/05/01 14:59:23","新北市中和區興南路一段105巷20弄16號","121.51039","24.9855016666667","6500300","中和區"
"235026","800-TS","2018/05/01 14:59:27","新北市中和區中山路二段332巷9號","121.494323333333","25.0027016666667","6500300","中和區"
"235016","805-TS","2018/05/01 14:59:31","新北市中和區華新街192巷14號","121.506536666667","24.9828766666667","6500300","中和區"
"235012","896-TW","2018/05/01 14:59:31","新北市中和區忠孝街1巷2-1號","121.509135","24.9830983333333","6500300","中和區"
"235017","900-TW","2018/05/01 14:59:25","新北市中和區民德路208號","121.468266666667","24.99837","6500300","中和區"
"235030","911-UM","2018/05/01 14:59:16","新北市中和區中山路二段3巷22弄6號","121.506156666667","25.00507","6500300","中和區"
"235015","157-BY","2018/05/01 14:59:17","新北市中和區復興路274巷20號","121.502975","24.9911983333333","6500300","中和區"
"235001","AAC-213","2018/05/01 14:59:32","新北市中和區自立路99巷22弄3號","121.523353333333","24.9943966666667","6500300","中和區"
"235023","AAC-215","2018/05/01 14:59:17","新北市中和區圓通路335巷3弄2號","121.492508333333","24.9901033333333","6500300","中和區"
"220016","013-TV","2018/05/01 14:59:17","新北市板橋區中山路二段337號","121.479585","25.0189216666667","6500100","板橋區"
"220013","072-UY","2018/05/01 14:59:22","新北市板橋區中山路一段154巷3弄2號","121.465475","25.01043","6500100","板橋區"
"220034","073-UY","2018/05/01 14:59:28","新北市板橋區南雅西路二段7巷25號","121.451913333333","25.0095066666667","6500100","板橋區"
"220105","075-UY","2018/05/01 14:59:23","新北市板橋區文聖街13號","121.475591666667","25.0324083333333","6500100","板橋區"
"220017","AAD-861","2018/05/01 14:59:27","新北市板橋區大明街20巷19弄6號","121.45837","25.0032833333333","6500100","板橋區"
"247006","336-TH","2018/05/01 14:50:47","新北市五股區中興路三段163號","121.449211666667","25.08073","6501400","蘆洲區"
"228004","212-TW","2018/05/01 14:59:22","新北市貢寮區雙玉里田寮洋街25-1號","121.929875","25.01775","6502600","貢寮區"
"207002","749-BX","2018/05/01 14:59:13","新北市萬里區崁腳里崁腳路73號","121.647598333333","25.1596183333333","6502800","萬里區"
"207001","662-BX","2018/05/01 14:59:31","新北市萬里區雙興里太和路27-2號","121.655036666667","25.17594","6502800","萬里區"
"236065","105-UM","2018/05/01 14:59:27","新北市土城區明德路二段247號","121.445233333333","24.98391","6501300","土城區"
"236040","107-UM","2018/05/01 14:57:56","新北市土城區學士路25號","121.453141666667","24.9824516666667","6501300","土城區"
"236074","166-UM","2018/05/01 14:59:18","新北市土城區中州路12巷26號","121.415351666667","24.9576233333333","6501300","土城區"
"236029","253-BX","2018/05/01 14:59:32","新北市土城區福仁街52號","121.439645","24.9749566666667","6501300","土城區"
"236024","269-VK","2018/05/01 14:59:29","新北市土城區中正路74巷3弄2號","121.444818333333","24.9746666666667","6501300","土城區"
"236013","270-VK","2018/05/01 14:59:33","新北市土城區延和路15號","121.46404","24.9880383333333","6501300","土城區"
"236032","271-VK","2018/05/01 14:59:13","新北市土城區仁愛路17巷2號","121.460646666667","24.980435","6501300","土城區"
"236017","401-BY","2018/05/01 14:59:15","新北市土城區延吉街168巷2弄1號","121.468231666667","24.9857816666667","6501300","土城區"
"236057","912-UM","2018/05/01 14:59:16","新北市土城區清水路25巷5號","121.453116666667","24.9804183333333","6501300","土城區"
"236045","913-UM","2018/05/01 14:59:31","新北市土城區明德路一段398-1號","121.453645","24.9791183333333","6501300","土城區"
"236060","915-UM","2018/05/01 14:59:31","新北市土城區延和路41巷6弄2號","121.466013333333","24.9900033333333","6501300","土城區"
"236054","AAC-216","2018/05/01 14:59:22","新北市土城區學成路165號","121.448125","24.9890883333333","6501300","土城區"
"221002","707-TV","2018/05/01 14:59:13","新北市汐止區新興路116號","121.65785","25.061085","6501100","汐止區"
"220028","200-UY","2018/05/01 14:59:24","新北市板橋區大觀路二段153巷44弄23號","121.446216666667","24.999225","6500100","板橋區"
"220050","245-BX","2018/05/01 14:59:21","新北市板橋區莒光路209號","121.474171666667","25.0232933333333","6500100","板橋區"
"220052","257-TC","2018/05/01 14:59:15","新北市板橋區文化路一段435巷31弄14號","121.466663333333","25.0230933333333","6500100","板橋區"
"220040","267-BY","2018/05/01 14:59:33","新北市板橋區民治街114號","121.478248333333","25.0310933333333","6500100","板橋區"
"220020","277-BY","2018/05/01 14:59:21","新北市板橋區金門街103巷2號","121.433325","24.9920883333333","6500100","板橋區"
"220043","283-UM","2018/05/01 14:59:23","新北市板橋區文德路38號","121.462203333333","25.0241833333333","6500100","板橋區"
"220019","283-VK","2018/05/01 14:59:24","新北市板橋區信義路2號","121.456951666667","24.9962516666667","6500100","板橋區"
"220001","285-VK","2018/05/01 14:59:14","新北市板橋區永豐街73號","121.473716666667","25.018865","6500100","板橋區"
"220031","286-VK","2018/05/01 14:59:17","新北市板橋區僑中二街92巷28號","121.44492","25.0091","6500100","板橋區"
"220029","287-VK","2018/05/01 14:59:26","新北市板橋區僑中一街102巷5弄10號","121.446348333333","25.0127016666667","6500100","板橋區"
"220039","288-VK","2018/05/01 14:59:29","新北市板橋區幸福路32巷65號","121.460345","25.022195","6500100","板橋區"
"220009","293-UM","2018/05/01 14:59:28","新北市板橋區縣民大道二段200巷1號","121.469731666667","25.0171716666667","6500100","板橋區"
"220023","303-R5","2018/05/01 14:59:22","新北市板橋區金華街10巷45號","121.457311666667","25.0202816666667","6500100","板橋區"
"220010","305-R5","2018/05/01 14:59:24","新北市板橋區萬安街20巷4弄16號","121.485246666667","25.0229533333333","6500100","板橋區"
"220041","307-R5","2018/05/01 14:59:29","新北市板橋區裕民街151號","121.458506666667","25.0270833333333","6500100","板橋區"
"220047","317-R6","2018/05/01 14:59:17","新北市板橋區新海路72巷61號","121.461558333333","25.023775","6500100","板橋區"
"220012","486-VK","2018/05/01 14:59:30","新北市板橋區民族路129巷26號","121.468035","25.00902","6500100","板橋區"
"220037","491-VK","2018/05/01 14:59:25","新北市板橋區懷德街80巷28弄4號","121.478776666667","25.03091","6500100","板橋區"
"220011","609-BX","2018/05/01 14:59:30","新北市板橋區三民路一段139號","121.479296666667","25.0199916666667","6500100","板橋區"
"220003","630-UY","2018/05/01 14:59:24","新北市板橋區忠孝路48巷11弄17-2號","121.462205","24.9998983333333","6500100","板橋區"
"220025","687-BX","2018/05/01 14:59:14","新北市板橋區僑中一街124巷75號","121.446713333333","25.0178066666667","6500100","板橋區"
"220042","689-BX","2018/05/01 14:59:24","新北市板橋區長江路三段59號","121.47396","25.0341733333333","6500100","板橋區"
"220051","KEA-2699","2018/05/01 14:59:28","新北市板橋區文聖街42號","121.476378333333","25.03131","6500100","板橋區"
"220014","829-TW","2018/05/01 14:59:30","新北市板橋區漢生東路161巷3號","121.46965","25.0126316666667","6500100","板橋區"
"220045","830-TW","2018/05/01 14:59:15","新北市板橋區莒光路79巷19號","121.471995","25.0248183333333","6500100","板橋區"
"220038","833-TW","2018/05/01 14:59:19","新北市板橋區龍泉街125號","121.457278333333","25.024045","6500100","板橋區"
"220046","AAC-210","2018/05/01 14:59:23","新北市板橋區文化路一段221巷22號","121.46292","25.0178616666667","6500100","板橋區"
"220018","AAC-253","2018/05/01 14:59:24","新北市板橋區四川路一段336號","121.456973333333","24.997125","6500100","板橋區"
