"lineid","car","time","location","longitude","latitude","cityid","cityname"
"248017","225-UY","2018/05/01 15:09:24","新北市五股區登林路118號","121.418661666667","25.0735416666667","6501500","五股區"
"244002","248-BX","2018/05/01 15:09:19","新北市林口區竹林路265號","121.389633333333","25.0807783333333","6501700","林口區"
"231028","046-UY","2018/05/01 15:09:29","新北市新店區僑信路86號","121.49976","24.9480733333333","6500600","新店區"
"231001","047-UY","2018/05/01 15:09:21","新北市新店區中正路276號","121.53883","24.97364","6500600","新店區"
"231005","106-UY","2018/05/01 15:09:25","新北市新店區北新路三段132號","121.541555","24.98193","6500600","新店區"
"231020","108-UY","2018/05/01 15:09:17","新北市新店區永福路98號","121.56289","24.9292116666667","6500600","新店區"
"231012","187-VK","2018/05/01 15:09:32","新北市新店區寶慶街58巷21-1號","121.541995","24.987335","6500600","新店區"
"231023","KEA-2219","2018/05/01 15:09:23","新北市新店區檳榔路109號","121.544305","24.9616566666667","6500600","新店區"
"231026","256-BX","2018/05/01 15:09:21","新北市新店區建興街4號","121.540108333333","24.976505","6500600","新店區"
"231018","278-BY","2018/05/01 15:09:19","新北市新店區中央七街113號","121.52559","24.9777533333333","6500600","新店區"
"231015","AAD-862","2018/05/01 15:02:45","新北市新店區明山路65號","121.565643333333","24.9574183333333","6500600","新店區"
"231029","355-BY","2018/05/01 15:09:29","新北市新店區安康路三段738號","121.47385","24.9420783333333","6500600","新店區"
"231038","3712-VJ","2018/05/01 15:09:27","新北市新店區安華路28-1號","121.519491666667","24.961175","6500600","新店區"
"231037","4716-K9","2018/05/01 15:09:19","新北市新店區安民街365巷1弄10號","121.516541666667","24.9750583333333","6500600","新店區"
"231025","4715-K9","2018/05/01 15:09:26","新北市新店區二十張路46巷37弄21-5號","121.535388333333","24.9812633333333","6500600","新店區"
"231036","512-UM","2018/05/01 15:09:31","新北市新店區安祥路102巷43號","121.485675","24.9640566666667","6500600","新店區"
"231003","515-UM","2018/05/01 15:09:21","新北市新店區寶橋路172號","121.549275","24.977405","6500600","新店區"
"231034","616-UM","2018/05/01 15:09:29","新北市新店區玫瑰路4-1號","121.493633333333","24.9514183333333","6500600","新店區"
"231006","617-UM","2018/05/01 15:09:30","新北市新店區新坡一街84號","121.548221666667","24.9619683333333","6500600","新店區"
"231002","618-UM","2018/05/01 15:09:19","新北市新店區中正路670號","121.534038333333","24.98972","6500600","新店區"
"231039","718-UY","2018/05/01 15:09:12","新北市新店區寶安街18號","121.542098333333","24.9818366666667","6500600","新店區"
"231035","719-UM","2018/05/01 15:09:16","新北市新店區安和路三段76號","121.518381666667","24.984535","6500600","新店區"
"231032","720-UM","2018/05/01 15:09:08","新北市新店區安泰路125-1號","121.487103333333","24.9409733333333","6500600","新店區"
"231004","899-TW","2018/05/01 15:09:14","新北市新店區建國路4號","121.539795","24.973305","6500600","新店區"
"231024","AKT-0513","2018/05/01 15:09:26","新北市新店區北新路一段297巷17號","121.54085","24.967845","6500600","新店區"
"241013","270-UM","2018/05/01 15:09:28","新北市三重區重新路四段121號","121.484876666667","25.0526283333333","6500200","三重區"
"235003","097-UM","2018/05/01 15:09:26","新北市中和區安樂路217巷47號","121.513176666667","24.997705","6500300","中和區"
"235004","150-BY","2018/05/01 15:09:23","新北市中和區景安路79巷21號","121.506963333333","24.9966616666667","6500300","中和區"
"235036","301-VK","2018/05/01 15:09:21","新北市中和區板南路386號","121.493246666667","24.9992983333333","6500300","中和區"
"235007","352-BY","2018/05/01 15:09:21","新北市中和區興南路二段159巷12號","121.505108333333","24.9830816666667","6500300","中和區"
"235014","4979-A6","2018/05/01 15:09:23","新北市中和區景平路211號","121.510766666667","24.9925116666667","6500300","中和區"
"235033","4980-A6","2018/05/01 15:09:23","新北市中和區景新街96巷6號","121.504605","24.9982433333333","6500300","中和區"
"235034","558-UM","2018/05/01 15:09:14","新北市中和區中正路282號","121.494695","24.99408","6500300","中和區"
"235018","640-BX","2018/05/01 15:09:16","新北市中和區民治街32巷10號","121.474601666667","25.003575","6500300","中和區"
"235026","800-TS","2018/05/01 15:09:27","新北市中和區建八路139巷9弄1號","121.490208333333","24.9996266666667","6500300","中和區"
"235012","896-TW","2018/05/01 15:09:31","新北市中和區興南路一段142-6號","121.50849","24.9870816666667","6500300","中和區"
"235030","911-UM","2018/05/01 15:09:16","新北市中和區廣福路2號","121.505988333333","25.00336","6500300","中和區"
"235001","AAC-213","2018/05/01 15:09:23","新北市中和區自立路76號","121.524106666667","24.9912633333333","6500300","中和區"
"235023","AAC-215","2018/05/01 15:09:17","新北市中和區圓通路367巷13弄17號","121.49268","24.9882666666667","6500300","中和區"
"220016","013-TV","2018/05/01 15:09:17","新北市板橋區光復街230號","121.484748333333","25.0213783333333","6500100","板橋區"
"220013","072-UY","2018/05/01 15:09:22","新北市板橋區貴興路80號","121.4564","25.0028516666667","6500100","板橋區"
"220034","073-UY","2018/05/01 15:09:28","新北市五股區新五路二段86-1號","121.43702","25.0743366666667","6500100","板橋區"
"247006","336-TH","2018/05/01 14:50:47","新北市五股區中興路三段163號","121.449211666667","25.08073","6501400","蘆洲區"
"228004","212-TW","2018/05/01 15:09:22","新北市貢寮區雙玉里田寮洋街16-2號","121.921781666667","25.0252166666667","6502600","貢寮區"
"207002","749-BX","2018/05/01 15:09:13","新北市萬里區崁腳里內中福路66號","121.655246666667","25.1668783333333","6502800","萬里區"
"207001","662-BX","2018/05/01 15:09:13","新北市萬里區磺潭里員潭路7號","121.64661","25.1995566666667","6502800","萬里區"
"236065","105-UM","2018/05/01 15:09:33","新北市土城區學成路132號","121.449083333333","24.9895833333333","6501300","土城區"
"236040","107-UM","2018/05/01 15:09:16","新北市土城區金城路二段245巷15號","121.45533","24.983245","6501300","土城區"
"236074","166-UM","2018/05/01 15:09:16","新北市土城區中央路四段254號","121.414955","24.95696","6501300","土城區"
"236029","253-BX","2018/05/01 15:09:31","新北市土城區福祥街65號","121.441101666667","24.9805466666667","6501300","土城區"
"236024","269-VK","2018/05/01 15:09:29","新北市土城區中央路二段177巷7號","121.44323","24.9762183333333","6501300","土城區"
"236013","270-VK","2018/05/01 15:09:29","新北市土城區學府路一段75巷16弄16號","121.456595","24.9872116666667","6501300","土城區"
"236032","271-VK","2018/05/01 15:09:17","新北市土城區青雲路295巷16弄1號","121.46012","24.97963","6501300","土城區"
"236017","401-BY","2018/05/01 15:09:15","新北市土城區延峰街27巷1號","121.46925","24.985425","6501300","土城區"
"236057","912-UM","2018/05/01 15:09:16","新北市土城區金城路二段23-1號","121.44824","24.976725","6501300","土城區"
"236045","913-UM","2018/05/01 15:09:28","新北市土城區清水路296號","121.462588333333","24.9838666666667","6501300","土城區"
"236054","AAC-216","2018/05/01 15:09:22","新北市土城區學府路一段276號","121.44996","24.9831216666667","6501300","土城區"
"220050","245-BX","2018/05/01 15:09:21","新北市板橋區雙十路二段47巷5-1號","121.476105","25.0260533333333","6500100","板橋區"
"220052","257-TC","2018/05/01 15:09:13","新北市板橋區英士路58巷16號","121.460668333333","25.0254616666667","6500100","板橋區"
"220020","277-BY","2018/05/01 15:09:21","新北市板橋區華東街1-10號","121.448306666667","24.9950566666667","6500100","板橋區"
"220031","286-VK","2018/05/01 15:09:22","新北市板橋區僑中二街104巷24號","121.44506","25.0080683333333","6500100","板橋區"
"220009","293-UM","2018/05/01 15:09:28","新北市板橋區中山路一段161號","121.465376666667","25.0119383333333","6500100","板橋區"
"220023","303-R5","2018/05/01 15:09:22","新北市板橋區中正路316號","121.454875","25.020945","6500100","板橋區"
"220010","305-R5","2018/05/01 15:09:14","新北市板橋區民生路二段161巷1號","121.470153333333","25.0200566666667","6500100","板橋區"
"220041","307-R5","2018/05/01 15:09:29","新北市板橋區文化路一段81巷7號","121.4605","25.014285","6500100","板橋區"
"220037","491-VK","2018/05/01 15:09:25","新北市板橋區懷德街127巷23弄7號","121.479291666667","25.0317916666667","6500100","板橋區"
"220011","609-BX","2018/05/01 15:09:30","新北市板橋區中山路二段307號","121.478816666667","25.0184883333333","6500100","板橋區"
"220003","630-UY","2018/05/01 15:09:24","新北市板橋區仁愛路25號","121.459013333333","24.9995116666667","6500100","板橋區"
"220025","687-BX","2018/05/01 15:09:14","新北市板橋區板城路421號","121.44816","24.9959533333333","6500100","板橋區"
"220042","689-BX","2018/05/01 15:09:29","新北市板橋區長江路二段237號","121.468701666667","25.032595","6500100","板橋區"
"220051","KEA-2699","2018/05/01 15:09:28","新北市板橋區民治街136號","121.477655","25.030815","6500100","板橋區"
"220014","829-TW","2018/05/01 15:09:30","新北市板橋區中山路一段208號","121.469961666667","25.0134716666667","6500100","板橋區"
"220038","833-TW","2018/05/01 15:09:19","新北市板橋區互助街68號","121.46103","25.026645","6500100","板橋區"
"220046","AAC-210","2018/05/01 15:09:30","新北市板橋區光正街45巷2弄2號","121.461765","25.0173566666667","6500100","板橋區"
"220018","AAC-253","2018/05/01 15:09:24","新北市板橋區四川路二段245巷51號","121.452103333333","24.99241","6500100","板橋區"
