"lineid","car","time","location","longitude","latitude","cityid","cityname"
"231028","046-UY","2018/05/01 15:29:29","新北市新店區僑信路88號","121.49975","24.9479683333333","6500600","新店區"
"231005","106-UY","2018/05/01 15:29:13","新北市新店區建國路293巷2號","121.536993333333","24.9859383333333","6500600","新店區"
"231020","108-UY","2018/05/01 15:29:17","新北市新店區花園二路二段14-2號","121.554938333333","24.93155","6500600","新店區"
"231012","187-VK","2018/05/01 15:29:32","新北市新店區寶元路一段105號","121.545585","24.9831866666667","6500600","新店區"
"231023","KEA-2219","2018/05/01 15:29:23","新北市新店區北新路一段96巷23號","121.542813333333","24.96873","6500600","新店區"
"231026","256-BX","2018/05/01 15:29:18","新北市新店區三民路117巷8弄2號","121.534088333333","24.9710966666667","6500600","新店區"
"231018","278-BY","2018/05/01 15:28:59","新北市新店區中央路96號","121.531283333333","24.9768933333333","6500600","新店區"
"231015","AAD-862","2018/05/01 15:29:25","新北市新店區明山路45號","121.56387","24.955905","6500600","新店區"
"231029","355-BY","2018/05/01 15:29:29","新北市新店區安康路三段529-1號","121.482221666667","24.9479433333333","6500600","新店區"
"231038","3712-VJ","2018/05/01 15:29:27","新北市新店區安華路28-1號","121.519431666667","24.96105","6500600","新店區"
"231037","4716-K9","2018/05/01 15:29:19","新北市新店區安民街341-1號","121.51689","24.9748933333333","6500600","新店區"
"231025","4715-K9","2018/05/01 15:29:26","新北市新店區安康路一段266巷4號","121.520088333333","24.9640483333333","6500600","新店區"
"231036","512-UM","2018/05/01 15:29:11","新北市新店區安祥路67巷28弄1號","121.484821666667","24.9594766666667","6500600","新店區"
"231003","515-UM","2018/05/01 15:29:15","新北市新店區寶高路120巷1號","121.554641666667","24.97604","6500600","新店區"
"231034","616-UM","2018/05/01 15:29:09","新北市新店區富貴街9巷2號","121.49405","24.9491266666667","6500600","新店區"
"231002","618-UM","2018/05/01 15:29:19","新北市新店區環河路152號","121.53527","24.96672","6500600","新店區"
"231030","619-UM","2018/05/01 15:29:24","新北市新店區新和街46號","121.519378333333","24.9849933333333","6500600","新店區"
"231039","718-UY","2018/05/01 15:29:12","新北市新店區中興路三段228巷28號","121.544835","24.9834683333333","6500600","新店區"
"231035","719-UM","2018/05/01 15:29:16","新北市新店區安興路96號","121.515206666667","24.976395","6500600","新店區"
"231032","720-UM","2018/05/01 15:29:28","新北市新店區裕合街81號","121.489158333333","24.949425","6500600","新店區"
"231004","899-TW","2018/05/01 15:29:34","新北市新店區民族路108號","121.53831","24.9775016666667","6500600","新店區"
"231024","AKT-0513","2018/05/01 15:29:26","新北市新店區薏仁坑路自強巷6號","121.496298333333","24.9580183333333","6500600","新店區"
"241017","063-VK","2018/05/01 15:29:31","新北市三重區重新路四段121號","121.484826666667","25.0519033333333","6500200","三重區"
"241013","270-UM","2018/05/01 15:29:28","新北市三重區重新路四段121號","121.484656666667","25.0523466666667","6500200","三重區"
"241033","AAC-255","2018/05/01 15:29:26","新北市三重區成功路106-2號","121.487333333333","25.051735","6500200","三重區"
"235064","005-UY","2018/05/01 15:20:49","新北市中和區員山路36巷16-3號","121.484956666667","24.9916833333333","6500300","中和區"
"235014","4979-A6","2018/05/01 15:29:22","新北市中和區景平路385巷9弄22號","121.50179","24.9941066666667","6500300","中和區"
"235033","4980-A6","2018/05/01 15:29:23","新北市中和區連城路347巷16弄17號","121.487953333333","24.9948966666667","6500300","中和區"
"235046","733-UM","2018/05/01 15:22:26","新北市中和區員山路36巷13號","121.48416","24.9908416666667","6500300","中和區"
"235062","800-TS","2018/05/01 15:24:37","新北市中和區員山路36巷16-3號","121.485033333333","24.9917283333333","6500300","中和區"
"235023","AAC-215","2018/05/01 15:29:17","新北市中和區員山路17號","121.4804","24.9849733333333","6500300","中和區"
"236065","105-UM","2018/05/01 15:29:13","新北市土城區中正路5號","121.442701666667","24.9751216666667","6501300","土城區"
"236040","107-UM","2018/05/01 15:29:16","新北市土城區學享街29號","121.451411666667","24.9873716666667","6501300","土城區"
"236074","166-UM","2018/05/01 15:29:16","新北市土城區中央路四段321巷12號","121.410871666667","24.9512","6501300","土城區"
"236029","253-BX","2018/05/01 15:29:31","新北市土城區中央路一段118巷1弄3號","121.446055","24.9880733333333","6501300","土城區"
"236024","269-VK","2018/05/01 15:29:31","新北市土城區中央路一段289號","121.444428333333","24.984365","6501300","土城區"
"236013","270-VK","2018/05/01 15:29:13","新北市土城區廣明街4號","121.456055","24.991775","6501300","土城區"
"236032","271-VK","2018/05/01 15:29:13","新北市土城區延吉街296巷18號","121.464458333333","24.984875","6501300","土城區"
"236017","401-BY","2018/05/01 15:29:29","新北市土城區延吉街137巷12弄4號","121.470718333333","24.9854983333333","6501300","土城區"
"236057","912-UM","2018/05/01 15:29:16","新北市土城區中央路一段324號","121.443235","24.9815466666667","6501300","土城區"
"236045","913-UM","2018/05/01 15:29:31","新北市土城區金城路二段396號","121.463881666667","24.9857683333333","6501300","土城區"
"236060","915-UM","2018/05/01 15:29:15","新北市土城區金城路三段73巷9弄2號","121.466295","24.9877033333333","6501300","土城區"
"236054","AAC-216","2018/05/01 15:29:31","新北市土城區金城路三段203號","121.470183333333","24.98919","6501300","土城區"
"220050","245-BX","2018/05/01 15:29:21","新北市板橋區縣民大道二段101號","121.466633333333","25.01563","6500100","板橋區"
"220052","257-TC","2018/05/01 15:29:33","新北市板橋區漢生東路41-2號","121.465618333333","25.01683","6500100","板橋區"
"220051","KEA-2699","2018/05/01 15:29:28","新北市板橋區文化路一段322-1號","121.468126666667","25.022575","6500100","板橋區"
"220014","829-TW","2018/05/01 15:29:29","新北市板橋區民生路二段161巷1號","121.469871666667","25.0201016666667","6500100","板橋區"
"220038","833-TW","2018/05/01 15:29:23","新北市板橋區四維路357號","121.462165","25.03013","6500100","板橋區"
"220018","AAC-253","2018/05/01 15:29:24","新北市板橋區華東街1-9號","121.448266666667","24.9949033333333","6500100","板橋區"
