"lineid","car","time","location","longitude","latitude","cityid","cityname"
"248020","225-UY","2018/05/01 15:33:17","新北市五股區中興路二段83巷26-6號","121.460025","25.0752483333333","6501500","五股區"
"231005","106-UY","2018/05/01 15:49:14","新北市新店區安興路33-2號","121.516103333333","24.9705233333333","6500600","新店區"
"231046","107-UY","2018/05/01 15:49:25","新北市新店區安華路28-1號","121.51969","24.961135","6500600","新店區"
"231020","108-UY","2018/05/01 15:49:17","新北市新店區新烏路一段87巷69號","121.545963333333","24.9414033333333","6500600","新店區"
"231012","187-VK","2018/05/01 15:49:13","新北市新店區中興路三段160號","121.544531666667","24.9807","6500600","新店區"
"231023","KEA-2219","2018/05/01 15:49:23","新北市新店區檳榔路14號","121.541108333333","24.9645083333333","6500600","新店區"
"231026","256-BX","2018/05/01 15:49:18","新北市新店區中正路541-1號","121.533148333333","24.9868616666667","6500600","新店區"
"231018","278-BY","2018/05/01 15:49:19","新北市新店區中正路663巷7弄15號","121.532976666667","24.9901316666667","6500600","新店區"
"231015","AAD-862","2018/05/01 15:49:25","新北市新店區中華路18號","121.540406666667","24.967645","6500600","新店區"
"231029","355-BY","2018/05/01 15:49:29","新北市新店區安華路30巷1號","121.519493333333","24.9598183333333","6500600","新店區"
"231038","3712-VJ","2018/05/01 15:49:27","新北市新店區安德街171號","121.508603333333","24.95904","6500600","新店區"
"231037","4716-K9","2018/05/01 15:49:19","新北市新店區安民街65巷17-1號","121.515338333333","24.966875","6500600","新店區"
"231013","513-UM","2018/05/01 15:49:15","新北市新店區永業路81巷3弄15號","121.530321666667","24.94962","6500600","新店區"
"231003","515-UM","2018/05/01 15:49:15","新北市新店區寶興路60巷3號","121.549898333333","24.9718433333333","6500600","新店區"
"231034","616-UM","2018/05/01 15:49:29","新北市新店區吉祥街6巷1號","121.49773","24.9457416666667","6500600","新店區"
"231030","619-UM","2018/05/01 15:49:24","新北市新店區永安街60號","121.518883333333","24.98691","6500600","新店區"
"231035","719-UM","2018/05/01 15:49:16","新北市新店區安興路96-1號","121.51529","24.9764983333333","6500600","新店區"
"231032","720-UM","2018/05/01 15:49:28","新北市新店區雙城路212號","121.496943333333","24.9414216666667","6500600","新店區"
"241011","013-R5","2018/05/01 15:49:11","新北市三重區文化北路248號","121.497428333333","25.0699116666667","6500200","三重區"
"241028","022-UY","2018/05/01 15:49:16","新北市三重區中正南路46號","121.493926666667","25.060025","6500200","三重區"
"241008","059-VK","2018/05/01 15:49:30","新北市三重區重新路四段121號","121.484945","25.0519283333333","6500200","三重區"
"241015","062-VK","2018/05/01 15:49:16","新北市三重區重新路四段121號","121.485138333333","25.052005","6500200","三重區"
"241017","063-VK","2018/05/01 15:49:31","新北市三重區大仁街1號","121.491671666667","25.063525","6500200","三重區"
"241024","065-VK","2018/05/01 15:49:26","新北市三重區捷運路36號","121.483128333333","25.0546016666667","6500200","三重區"
"241026","066-VK","2018/05/01 15:49:30","新北市三重區重新路四段121號","121.484935","25.051795","6500200","三重區"
"241005","262-UM","2018/05/01 15:49:21","新北市三重區環河南路261號","121.490325","25.0499566666667","6500200","三重區"
"241016","266-UM","2018/05/01 15:49:20","新北市三重區重新路四段121號","121.485143333333","25.0520466666667","6500200","三重區"
"241022","267-UM","2018/05/01 15:49:23","新北市三重區重新路四段121號","121.484608333333","25.0516216666667","6500200","三重區"
"241013","270-UM","2018/05/01 15:49:28","新北市三重區六張街7號","121.495551666667","25.0707083333333","6500200","三重區"
"241007","398-BY","2018/05/01 15:49:23","新北市三重區捷運路36號","121.482888333333","25.05516","6500200","三重區"
"241014","543-UM","2018/05/01 15:49:28","新北市三重區重新路四段121號","121.48511","25.0520283333333","6500200","三重區"
"241023","545-UM","2018/05/01 15:49:27","新北市三重區捷運路36號","121.48287","25.0551066666667","6500200","三重區"
"241001","547-UM","2018/05/01 15:49:29","新北市三重區重新路四段121號","121.48457","25.0523783333333","6500200","三重區"
"241006","AAD-863","2018/05/01 15:49:21","新北市三重區重新路四段121號","121.485188333333","25.0518683333333","6500200","三重區"
"241012","941-UM","2018/05/01 15:49:13","新北市三重區文化北路85巷2號","121.49833","25.0672583333333","6500200","三重區"
"241029","942-UM","2018/05/01 15:49:24","新北市三重區大同南路242號","121.496916666667","25.0559266666667","6500200","三重區"
"241033","AAC-255","2018/05/01 15:49:25","新北市三重區光復路一段134號","121.472123333333","25.05248","6500200","三重區"
"235064","005-UY","2018/05/01 15:20:49","新北市中和區員山路36巷16-3號","121.484956666667","24.9916833333333","6500300","中和區"
"235033","4980-A6","2018/05/01 15:49:23","新北市中和區連城路477巷6弄2號","121.483063333333","24.9951166666667","6500300","中和區"
"235046","733-UM","2018/05/01 15:22:26","新北市中和區員山路36巷13號","121.48416","24.9908416666667","6500300","中和區"
"235062","800-TS","2018/05/01 15:24:37","新北市中和區員山路36巷16-3號","121.485033333333","24.9917283333333","6500300","中和區"
"224007","275-VK","2018/05/01 15:49:11","新北市瑞芳區大寮路356-1號","121.784738333333","25.1032383333333","6501200","瑞芳區"
"227009","642-TC","2018/05/01 15:49:17","新北市雙溪區牡丹里自強路10號","121.86561","25.0392366666667","6502500","雙溪區"
"227003","400-TW","2018/05/01 15:49:25","新北市雙溪區平林里外平林44號","121.852908333333","25.0363533333333","6502500","雙溪區"
"236065","105-UM","2018/05/01 15:49:13","新北市土城區金安街48巷39號","121.42073","24.96554","6501300","土城區"
"236074","166-UM","2018/05/01 15:49:21","新北市土城區金安街40號","121.420551666667","24.965105","6501300","土城區"
"236024","269-VK","2018/05/01 15:49:29","新北市土城區中華路二段2號","121.438885","24.97988","6501300","土城區"
"236017","401-BY","2018/05/01 15:49:30","新北市土城區延吉街11號","121.472208333333","24.9889216666667","6501300","土城區"
"236057","912-UM","2018/05/01 15:49:16","新北市土城區中央路二段117號","121.442071666667","24.97746","6501300","土城區"
"236045","913-UM","2018/05/01 15:47:48","新北市土城區裕民路285號","121.456121666667","24.9817133333333","6501300","土城區"
