"lineid","car","time","location","longitude","latitude","cityid","cityname"
"249005","172-UM","2018/05/01 17:09:14","新北市八里區大堀湖28號","121.418573333333","25.1461033333333","6502300","八里區"
"249001","173-UM","2018/05/01 17:09:31","新北市八里區中華路二段361-1號","121.398736666667","25.1446916666667","6502300","八里區"
"249004","303-UY","2018/05/01 17:09:14","新北市八里區忠孝路133號","121.423955","25.1606866666667","6502300","八里區"
"249002","305-UY","2018/05/01 17:09:08","新北市八里區龍米路二段147巷7號","121.442266666667","25.1503116666667","6502300","八里區"
"249003","593-UM","2018/05/01 17:09:16","新北市八里區中山路二段518號","121.397796666667","25.14674","6502300","八里區"
"244007","080-UY","2018/05/01 17:09:27","新北市林口區中湖26-8號","121.376255","25.094645","6501700","林口區"
"244023","483-VK","2018/05/01 17:09:24","新北市林口區粉寮1號","121.397388333333","25.079855","6501700","林口區"
"244025","837-TS","2018/05/01 17:09:18","新北市林口區粉寮路一段105號","121.39816","25.0804716666667","6501700","林口區"
"244021","838-TS","2018/05/01 17:09:29","新北市林口區粉寮路二段30號","121.403091666667","25.0864716666667","6501700","林口區"
"231046","107-UY","2018/05/01 17:09:25","新北市新店區直潭路92號","121.530926666667","24.93762","6500600","新店區"
"241011","013-R5","2018/05/01 17:09:31","新北市三重區環河北路一段352號","121.503321666667","25.0726883333333","6500200","三重區"
"241028","022-UY","2018/05/01 17:09:36","新北市三重區重新路三段110號","121.492323333333","25.0602333333333","6500200","三重區"
"241008","059-VK","2018/05/01 17:09:30","新北市三重區力行路二段136巷9號","121.482098333333","25.0757","6500200","三重區"
"241009","060-VK","2018/05/01 17:09:25","新北市三重區三和路四段211-2號","121.481795","25.0797183333333","6500200","三重區"
"241015","062-VK","2018/05/01 17:09:16","新北市三重區文化北路61號","121.498868333333","25.0662616666667","6500200","三重區"
"241017","063-VK","2018/05/01 17:09:31","新北市三重區中正北路25巷25弄4號","121.493321666667","25.0626983333333","6500200","三重區"
"241024","065-VK","2018/05/01 17:09:26","新北市三重區中正北路193巷1號","121.477265","25.0697466666667","6500200","三重區"
"241026","066-VK","2018/05/01 17:09:30","新北市三重區正義南路43-1號","121.49813","25.0608333333333","6500200","三重區"
"241002","090-VK","2018/05/01 17:09:27","新北市三重區五華街35巷50號","121.495605","25.0816033333333","6500200","三重區"
"241003","091-VK","2018/05/01 17:09:26","新北市三重區富福街108號","121.493393333333","25.0856066666667","6500200","三重區"
"241005","262-UM","2018/05/01 17:09:21","新北市三重區碧華街26號","121.4824","25.08067","6500200","三重區"
"241016","266-UM","2018/05/01 17:09:20","新北市三重區大仁街52號","121.49196","25.0647083333333","6500200","三重區"
"241022","267-UM","2018/05/01 17:09:23","新北市三重區中正北路120號","121.485545","25.065095","6500200","三重區"
"241018","268-UM","2018/05/01 17:09:33","新北市三重區大智街172-1號","121.491721666667","25.0692966666667","6500200","三重區"
"241032","269-UM","2018/05/01 17:09:28","新北市三重區興華街50號","121.485016666667","25.0597766666667","6500200","三重區"
"241013","270-UM","2018/05/01 17:09:28","新北市三重區仁愛街88號","121.49553","25.0738516666667","6500200","三重區"
"241025","271-UM","2018/05/01 17:09:27","新北市三重區中正北路560巷98號","121.471528333333","25.0682266666667","6500200","三重區"
"241007","398-BY","2018/05/01 17:09:23","新北市三重區三和路四段163巷10號","121.483641666667","25.0787733333333","6500200","三重區"
"241004","475-VK","2018/05/01 17:09:31","新北市三重區五華街98巷2號","121.49253","25.0821966666667","6500200","三重區"
"241020","478-VK","2018/05/01 17:09:23","新北市三重區自強路三段18號","121.486938333333","25.072205","6500200","三重區"
"241030","480-VK","2018/05/01 17:09:20","新北市三重區集成路21號","121.488925","25.05239","6500200","三重區"
"241014","543-UM","2018/05/01 17:09:28","新北市三重區龍濱路187號","121.502133333333","25.0709783333333","6500200","三重區"
"241023","545-UM","2018/05/01 17:09:27","新北市三重區忠孝路三段84巷1號","121.480221666667","25.0643716666667","6500200","三重區"
"241001","547-UM","2018/05/01 17:09:29","新北市三重區仁愛街269巷58號","121.494705","25.0798033333333","6500200","三重區"
"241019","KEA-2593","2018/05/01 17:09:30","新北市三重區力行路一段153巷28號","121.486028333333","25.0690966666667","6500200","三重區"
"241006","AAD-863","2018/05/01 17:09:17","新北市三重區三和路四段264巷2弄13號","121.485138333333","25.0768116666667","6500200","三重區"
"241012","941-UM","2018/05/01 17:09:33","新北市三重區仁壽街188號","121.50067","25.0746833333333","6500200","三重區"
"241029","942-UM","2018/05/01 17:09:24","新北市三重區重新路四段116號","121.487026666667","25.0568316666667","6500200","三重區"
"241033","AAC-255","2018/05/01 17:09:25","新北市三重區中興北街277號","121.469173333333","25.06094","6500200","三重區"
"247024","893-R6","2018/05/01 17:09:25","新北市蘆洲區長興路25號","121.463676666667","25.08343","6501400","蘆洲區"
"247014","546-UM","2018/05/01 17:09:30","新北市蘆洲區中央路26號","121.473545","25.08285","6501400","蘆洲區"
"247022","500-BY","2018/05/01 17:09:29","新北市蘆洲區三民路222號","121.468893333333","25.0892583333333","6501400","蘆洲區"
"247010","341-TH","2018/05/01 17:09:30","新北市蘆洲區民族路22號","121.476053333333","25.0842016666667","6501400","蘆洲區"
"247012","339-TH","2018/05/01 17:09:17","新北市蘆洲區信義路292巷6號","121.478085","25.0876166666667","6501400","蘆洲區"
"247004","337-TH","2018/05/01 17:09:28","新北市蘆洲區長安街191號","121.460215","25.0819","6501400","蘆洲區"
"247006","336-TH","2018/05/01 17:09:16","新北市蘆洲區中華街6巷26號","121.462828333333","25.0821633333333","6501400","蘆洲區"
"247018","057-VK","2018/05/01 17:09:24","新北市蘆洲區信義路361巷8號","121.47704","25.087335","6501400","蘆洲區"
"247008","056-VK","2018/05/01 17:09:28","新北市蘆洲區信義路30巷52號","121.474575","25.078125","6501400","蘆洲區"
"247016","007-UY","2018/05/01 17:09:19","新北市蘆洲區光華路73巷17號","121.468473333333","25.0822983333333","6501400","蘆洲區"
"247002","002-UY","2018/05/01 17:09:23","新北市蘆洲區永樂街80號","121.45683","25.088565","6501400","蘆洲區"
"247020","001-UY","2018/05/01 17:09:28","新北市蘆洲區民族路422巷114弄1號","121.472513333333","25.09437","6501400","蘆洲區"
"228001","212-TW","2018/05/01 17:09:14","新北市貢寮區仁理村研海街62-2號","121.925376666667","25.0459866666667","6502600","貢寮區"
"228002","585-TW","2018/05/01 17:09:28","新北市貢寮區龍崗里泮宮路51-1號","121.907876666667","25.01657","6502600","貢寮區"
"228003","828-UM","2018/05/01 17:09:25","新北市貢寮區福隆里東興街60號","121.948175","25.01763","6502600","貢寮區"
"224006","676-BX","2018/05/01 17:09:17","新北市瑞芳區大寮路63巷8號","121.77857","25.0945783333333","6501200","瑞芳區"
"224008","285-BY","2018/05/01 17:09:20","新北市瑞芳區柴寮路70號","121.827498333333","25.0869716666667","6501200","瑞芳區"
"224009","273-VK","2018/05/01 17:09:21","新北市瑞芳區街頂巷36號","121.84357","25.1105783333333","6501200","瑞芳區"
"224005","271-BY","2018/05/01 17:09:30","新北市瑞芳區鼻頭路107號","121.916006666667","25.123185","6501200","瑞芳區"
"227009","642-TC","2018/05/01 17:09:17","新北市雙溪區三貂里子崙坑1-6號","121.849885","25.0574733333333","6502500","雙溪區"
"227003","400-TW","2018/05/01 17:09:25","新北市雙溪區外柑里外柑腳52號","121.808128333333","25.0178783333333","6502500","雙溪區"
"251016","008-UM","2018/05/01 17:09:18","新北市淡水區口湖子2-2號","121.476813333333","25.1887766666667","6501000","淡水區"
"251004","010-UM","2018/05/01 17:09:28","新北市淡水區中正路437號","121.432195","25.1747583333333","6501000","淡水區"
"251013","KEA-2871","2018/05/01 17:09:23","新北市淡水區桂花樹1-16號","121.481485","25.1957983333333","6501000","淡水區"
"251014","180-VK","2018/05/01 17:09:18","新北市淡水區八里堆9-8號","121.464345","25.2238666666667","6501000","淡水區"
"251008","181-VK","2018/05/01 17:09:25","新北市淡水區民生路169號","121.470285","25.1426983333333","6501000","淡水區"
"251015","182-VK","2018/05/01 17:09:13","新北市淡水區鄧公路30巷2弄2號","121.452541666667","25.1692","6501000","淡水區"
"251010","413-VK","2018/05/01 17:09:27","新北市淡水區新市五路二段75號","121.43129","25.19827","6501000","淡水區"
"251012","441-VK","2018/05/01 17:09:17","新北市淡水區中山北路一段158號","121.44425","25.17791","6501000","淡水區"
"251007","442-VK","2018/05/01 17:09:31","新北市淡水區中正東路二段121號","121.459511666667","25.14981","6501000","淡水區"
"251005","443-VK","2018/05/01 17:09:21","新北市淡水區中正路20巷2號","121.436683333333","25.1731583333333","6501000","淡水區"
"251001","559-UM","2018/05/01 17:09:12","新北市淡水區中正東路二段115號","121.459466666667","25.1503566666667","6501000","淡水區"
"251006","561-UM","2018/05/01 17:09:28","新北市淡水區中正路259號","121.432783333333","25.174615","6501000","淡水區"
"251007","575-R6","2018/05/01 17:09:14","新北市淡水區三民街20號","121.43905","25.1717283333333","6501000","淡水區"
"251011","650-BX","2018/05/01 17:09:21","新北市淡水區坪頂路51巷2號","121.458076666667","25.16256","6501000","淡水區"
"251003","673-BX","2018/05/01 17:09:34","新北市淡水區中正路二段31號","121.419466666667","25.181465","6501000","淡水區"
"252002","178-VK","2018/05/01 17:09:16","新北市三芝區忠孝街1-1號","121.505755","25.2546983333333","6502100","三芝區"
"252001","292-VK","2018/05/01 17:09:32","新北市三芝區埔坪里埔頭坑33號","121.501408333333","25.261635","6502100","三芝區"
"242034","AAC-296","2018/05/01 17:09:23","新北市新莊區新泰路357巷1弄40號","121.442581666667","25.0403016666667","6500500","新莊區"
"242054","751-BX","2018/05/01 17:09:21","新北市新莊區新泰路357巷3弄45號","121.441971666667","25.0401533333333","6500500","新莊區"
"242029","612-BX","2018/05/01 17:09:33","新北市新莊區新泰路255巷83號","121.442268333333","25.039035","6500500","新莊區"
"242042","566-BX","2018/05/01 17:09:20","新北市新莊區新泰路357巷3弄57號","121.442081666667","25.0391533333333","6500500","新莊區"
"242051","442-UM","2018/05/01 17:09:31","新北市新莊區三和路12-21號","121.44227","25.0384183333333","6500500","新莊區"
"242056","440-UM","2018/05/01 17:09:31","新北市新莊區新泰路357巷3弄57號","121.442018333333","25.03946","6500500","新莊區"
"242044","400-BY","2018/05/01 17:09:18","新北市新莊區新泰路255巷83號","121.442205","25.0389833333333","6500500","新莊區"
"242023","362-BY","2018/05/01 17:09:30","新北市新莊區新泰路255巷83號","121.442231666667","25.0387216666667","6500500","新莊區"
"242061","353-BY","2018/05/01 17:09:23","新北市新莊區新泰路255巷83號","121.442263333333","25.0388283333333","6500500","新莊區"
"242009","132-UY","2018/05/01 17:09:21","新北市新莊區新泰路255巷83號","121.442271666667","25.0390216666667","6500500","新莊區"
"242039","133-UY","2018/05/01 17:09:32","新北市新莊區新泰路357巷3弄49號","121.442431666667","25.040085","6500500","新莊區"
"242048","172-VK","2018/05/01 17:09:32","新北市新莊區中正路535號","121.438951666667","25.0332916666667","6500500","新莊區"
"242017","175-VK","2018/05/01 17:09:19","新北市新莊區三和路12-21號","121.44201","25.0387266666667","6500500","新莊區"
"242005","176-VK","2018/05/01 17:09:30","新北市新莊區新泰路381巷38號","121.442363333333","25.0435883333333","6500500","新莊區"
"242037","349-TH","2018/05/01 17:09:22","新北市新莊區三和路12-17號","121.44197","25.0375533333333","6500500","新莊區"
"242019","350-TH","2018/05/01 17:09:15","新北市新莊區新泰路357巷3弄57號","121.442013333333","25.0391833333333","6500500","新莊區"
"242013","351-TH","2018/05/01 17:09:31","新北市新莊區新泰路357巷3弄57號","121.442121666667","25.0396","6500500","新莊區"
"238023","601-UM","2018/05/01 17:09:24","新北市樹林區保安街一段241-1號","121.419943333333","24.99667","6500700","樹林區"
"238019","599-UM","2018/05/01 17:09:28","新北市樹林區八德街263-1號","121.4191","24.9739433333333","6500700","樹林區"
"238018","571-TV","2018/05/01 17:09:31","新北市樹林區環河路10-1號","121.424596666667","24.9762283333333","6500700","樹林區"
"238024","5061-A6","2018/05/01 17:09:23","新北市樹林區鎮前街160號","121.424433333333","24.990095","6500700","樹林區"
"238021","KEA-2539","2018/05/01 17:09:36","新北市樹林區西圳街一段165巷20弄11號","121.395683333333","24.960175","6500700","樹林區"
"238025","303-VK","2018/05/01 17:09:17","新北市樹林區東和街7號","121.40383","24.9789583333333","6500700","樹林區"
"238017","283-BY","2018/05/01 17:09:32","新北市樹林區中山路二段121號","121.408615","24.9800633333333","6500700","樹林區"
"238020","268-VK","2018/05/01 17:09:32","新北市樹林區中山路三段125-1號","121.397386666667","24.973155","6500700","樹林區"
"238026","172-UY","2018/05/01 17:09:17","新北市樹林區東順街123號","121.406838333333","24.9751166666667","6500700","樹林區"
"238016","169-UY","2018/05/01 17:09:15","新北市樹林區大安路576號","121.411745","24.9836516666667","6500700","樹林區"
"239007","AAC-297","2018/05/01 17:09:19","新北市鶯歌區信義街85號","121.35366","24.9552383333333","6500800","鶯歌區"
"239006","891-R6","2018/05/01 17:09:22","新北市鶯歌區八德路23巷9-1號","121.333356666667","24.950755","6500800","鶯歌區"
"239008","527-UM","2018/05/01 17:09:33","新北市鶯歌區文化路134號","121.35203","24.9514183333333","6500800","鶯歌區"
"239005","526-UM","2018/05/01 17:09:18","新北市鶯歌區鶯桃路558號","121.330841666667","24.9676083333333","6500800","鶯歌區"
"239001","417-VK","2018/05/01 17:09:31","新北市鶯歌區尖山路140巷8號","121.346403333333","24.9492616666667","6500800","鶯歌區"
"239003","360-BY","2018/05/01 17:09:32","新北市鶯歌區八德路50號","121.330475","24.9554933333333","6500800","鶯歌區"
"239002","359-BY","2018/05/01 17:09:13","新北市鶯歌區建國路253號","121.348036666667","24.9533233333333","6500800","鶯歌區"
"239004","193-VK","2018/05/01 17:09:21","新北市鶯歌區文化路669號","121.353086666667","24.9460833333333","6500800","鶯歌區"
"242002","KEA-2550","2018/05/01 17:09:21","新北市新莊區三和路12-17號","121.442278333333","25.0375316666667","6500500","新莊區"
