"lineid","car","time","location","longitude","latitude","cityid","cityname"
"249005","172-UM","2018/05/01 17:19:14","新北市五股區中直路崩山巷36號","121.416981666667","25.125505","6502300","八里區"
"249001","173-UM","2018/05/01 17:19:22","新北市八里區中華路二段165巷3號","121.407675","25.1508883333333","6502300","八里區"
"249004","303-UY","2018/05/01 17:19:34","新北市八里區賢三街96號","121.417281666667","25.1578216666667","6502300","八里區"
"249002","305-UY","2018/05/01 17:19:28","新北市八里區龍米路二段117巷37號","121.443438333333","25.1419416666667","6502300","八里區"
"249003","593-UM","2018/05/01 17:19:16","新北市八里區商港路48號","121.396178333333","25.145365","6502300","八里區"
"244013","069-UM","2018/05/01 17:19:24","新北市林口區粉寮69號","121.40504","25.0908266666667","6501700","林口區"
"244007","080-UY","2018/05/01 17:19:27","新北市林口區湖子15-5號","121.386245","25.0906683333333","6501700","林口區"
"244023","483-VK","2018/05/01 17:19:24","新北市林口區仁愛路一段663號","121.387935","25.0766383333333","6501700","林口區"
"244025","837-TS","2018/05/01 17:19:18","新北市林口區仁愛二路63號","121.368558333333","25.0754133333333","6501700","林口區"
"244021","838-TS","2018/05/01 17:19:28","新北市林口區粉寮路二段458號","121.404185","25.098945","6501700","林口區"
"243010","KEA-2216","2018/05/01 17:19:31","新北市泰山區犁頭窠3-1號","121.422365","25.0605666666667","6501600","泰山區"
"231046","107-UY","2018/05/01 17:19:25","新北市新店區直潭路92號","121.530913333333","24.937615","6500600","新店區"
"241011","013-R5","2018/05/01 17:19:31","新北市三重區龍濱路251號","121.501488333333","25.0727183333333","6500200","三重區"
"241028","022-UY","2018/05/01 17:19:16","新北市三重區仁化街42號","121.493721666667","25.05931","6500200","三重區"
"241008","059-VK","2018/05/01 17:19:30","新北市三重區永福街72巷31號","121.480138333333","25.0764166666667","6500200","三重區"
"241009","060-VK","2018/05/01 17:19:25","新北市三重區仁美街109號","121.485721666667","25.0808383333333","6500200","三重區"
"241015","062-VK","2018/05/01 17:19:16","新北市三重區長元街82-1號","121.50191","25.0663133333333","6500200","三重區"
"241017","063-VK","2018/05/01 17:19:31","新北市三重區大同北路85號","121.494848333333","25.0636083333333","6500200","三重區"
"241024","065-VK","2018/05/01 17:19:26","新北市三重區國道路一段58巷15號","121.481363333333","25.0720616666667","6500200","三重區"
"241026","066-VK","2018/05/01 17:19:30","新北市三重區文化南路31-1號","121.50017","25.0617633333333","6500200","三重區"
"241002","090-VK","2018/05/01 17:19:27","新北市三重區自強路五段24號","121.492628333333","25.0807033333333","6500200","三重區"
"241003","091-VK","2018/05/01 17:19:26","新北市三重區五華街146號","121.491171666667","25.08394","6500200","三重區"
"241005","262-UM","2018/05/01 17:19:32","新北市三重區仁華街28巷5號","121.483316666667","25.0825416666667","6500200","三重區"
"241016","266-UM","2018/05/01 17:19:20","新北市三重區大同北路97-3號","121.494428333333","25.063585","6500200","三重區"
"241022","267-UM","2018/05/01 17:19:23","新北市三重區重陽路二段59號","121.487428333333","25.0634566666667","6500200","三重區"
"241018","268-UM","2018/05/01 17:19:33","新北市三重區安慶街123號","121.494908333333","25.06893","6500200","三重區"
"241032","269-UM","2018/05/01 17:19:28","新北市三重區名源街28巷6號","121.482473333333","25.0604066666667","6500200","三重區"
"241013","270-UM","2018/05/01 17:19:28","新北市三重區三和路三段107巷29號","121.49534","25.0731283333333","6500200","三重區"
"241025","271-UM","2018/05/01 17:19:29","新北市三重區中正北路400號","121.475848333333","25.0703216666667","6500200","三重區"
"241007","398-BY","2018/05/01 17:19:23","新北市三重區慈愛街9-1號","121.485176666667","25.078635","6500200","三重區"
"241004","475-VK","2018/05/01 17:19:31","新北市三重區五華街110巷6號","121.491731666667","25.0827433333333","6500200","三重區"
"241020","478-VK","2018/05/01 17:19:23","新北市三重區忠孝路一段143號","121.488241666667","25.0722383333333","6500200","三重區"
"241030","480-VK","2018/05/01 17:19:20","新北市三重區成功路73巷36號","121.489725","25.0524566666667","6500200","三重區"
"241014","543-UM","2018/05/01 17:19:28","新北市三重區長榮路6號","121.5001","25.0684966666667","6500200","三重區"
"241023","545-UM","2018/05/01 17:19:27","新北市三重區三民街174號","121.48207","25.0656216666667","6500200","三重區"
"241019","KEA-2593","2018/05/01 17:19:30","新北市三重區自強路二段100號","121.487386666667","25.0713633333333","6500200","三重區"
"241006","AAD-863","2018/05/01 17:19:17","新北市三重區車路頭街139巷14號","121.48427","25.076205","6500200","三重區"
"241012","941-UM","2018/05/01 17:19:13","新北市三重區仁信街6號","121.501473333333","25.0755483333333","6500200","三重區"
"241033","AAC-255","2018/05/01 17:19:25","新北市三重區中興北街136巷23號","121.468123333333","25.0560666666667","6500200","三重區"
"247024","893-R6","2018/05/01 17:19:25","新北市蘆洲區光榮路2號","121.460265","25.0861883333333","6501400","蘆洲區"
"247014","546-UM","2018/05/01 17:19:30","新北市蘆洲區中正路60號","121.470491666667","25.0831583333333","6501400","蘆洲區"
"247022","500-BY","2018/05/01 17:19:29","新北市蘆洲區三民路128巷46號","121.470563333333","25.0886066666667","6501400","蘆洲區"
"247010","341-TH","2018/05/01 17:19:30","新北市蘆洲區中山一路120巷7弄25號","121.47704","25.0823733333333","6501400","蘆洲區"
"247012","339-TH","2018/05/01 17:19:17","新北市蘆洲區信義路319巷8號","121.47777","25.0862083333333","6501400","蘆洲區"
"247004","337-TH","2018/05/01 17:19:20","新北市蘆洲區中原路74號","121.458358333333","25.0820066666667","6501400","蘆洲區"
"247006","336-TH","2018/05/01 17:19:16","新北市蘆洲區長安街73巷26-1號","121.461893333333","25.0793416666667","6501400","蘆洲區"
"247018","057-VK","2018/05/01 17:19:24","新北市蘆洲區民權路84號","121.474535","25.0876533333333","6501400","蘆洲區"
"247008","056-VK","2018/05/01 17:19:08","新北市蘆洲區永安北路一段72巷34號","121.476438333333","25.0770133333333","6501400","蘆洲區"
"247016","007-UY","2018/05/01 17:19:19","新北市蘆洲區正和街96巷7號","121.467673333333","25.0810616666667","6501400","蘆洲區"
"247002","002-UY","2018/05/01 17:19:23","新北市蘆洲區永樂街38巷33弄33號","121.456695","25.089865","6501400","蘆洲區"
"247020","001-UY","2018/05/01 17:19:28","新北市蘆洲區仁愛街23號","121.472325","25.0924533333333","6501400","蘆洲區"
"228001","212-TW","2018/05/01 17:19:34","新北市貢寮區仁理村仁和路1號","121.923855","25.0479583333333","6502600","貢寮區"
"228002","585-TW","2018/05/01 17:19:22","新北市貢寮區雙玉里下雙溪街28-1號","121.925211666667","25.0119633333333","6502600","貢寮區"
"228003","828-UM","2018/05/01 17:19:25","新北市貢寮區雙玉里田寮洋街22號","121.928711666667","25.0221483333333","6502600","貢寮區"
"224010","AGQ-8101","2018/05/01 17:19:14","新北市瑞芳區逢甲路34號","121.811516666667","25.1083683333333","6501200","瑞芳區"
"224006","676-BX","2018/05/01 17:19:17","新北市瑞芳區傑魚坑路245巷2-1號","121.78803","25.1066316666667","6501200","瑞芳區"
"224008","285-BY","2018/05/01 17:19:30","新北市瑞芳區侯硐路139號","121.831638333333","25.0903","6501200","瑞芳區"
"224009","273-VK","2018/05/01 17:19:21","新北市瑞芳區汽車路93-1號","121.843003333333","25.109595","6501200","瑞芳區"
"224005","271-BY","2018/05/01 17:19:30","新北市瑞芳區鼻頭路247號","121.912691666667","25.1239916666667","6501200","瑞芳區"
"227009","642-TC","2018/05/01 17:19:17","新北市雙溪區牡丹里牡丹162號","121.850278333333","25.0581666666667","6502500","雙溪區"
"227003","400-TW","2018/05/01 17:19:25","新北市雙溪區上林里內平林90號","121.827563333333","25.0274683333333","6502500","雙溪區"
"251016","008-UM","2018/05/01 17:19:18","新北市淡水區鄒厝崙5-1號","121.470683333333","25.1871266666667","6501000","淡水區"
"251004","010-UM","2018/05/01 17:19:28","新北市淡水區中正路32號","121.443946666667","25.169215","6501000","淡水區"
"251013","KEA-2871","2018/05/01 17:19:23","新北市淡水區大竹圍5-1號","121.466303333333","25.1945466666667","6501000","淡水區"
"251014","180-VK","2018/05/01 17:19:18","新北市淡水區公埔子30-2號","121.465075","25.2282533333333","6501000","淡水區"
"251008","181-VK","2018/05/01 17:19:28","新北市淡水區大同路285號","121.467991666667","25.1424316666667","6501000","淡水區"
"251015","182-VK","2018/05/01 17:17:53","新北市淡水區樹林口20-3號","121.47829","25.1700183333333","6501000","淡水區"
"251010","413-VK","2018/05/01 17:19:27","新北市淡水區中正路二段214號","121.42645","25.1898883333333","6501000","淡水區"
"251012","441-VK","2018/05/01 17:19:17","新北市淡水區中山北路一段158號","121.444356666667","25.1778266666667","6501000","淡水區"
"251007","442-VK","2018/05/01 17:19:31","新北市淡水區民生路40號","121.461616666667","25.1379133333333","6501000","淡水區"
"251005","443-VK","2018/05/01 17:19:21","新北市淡水區學府路88號","121.449115","25.171015","6501000","淡水區"
"251001","559-UM","2018/05/01 17:19:12","新北市淡水區民權路92巷35-1號","121.462128333333","25.1267233333333","6501000","淡水區"
"251006","561-UM","2018/05/01 17:19:28","新北市淡水區真理街2-1號","121.438603333333","25.1729233333333","6501000","淡水區"
"251007","575-R6","2018/05/01 17:19:14","新北市淡水區三民街20號","121.439078333333","25.1717033333333","6501000","淡水區"
"251011","650-BX","2018/05/01 17:19:21","新北市淡水區坪頂路131號","121.464836666667","25.1614533333333","6501000","淡水區"
"251002","672-BX","2018/05/01 17:19:31","新北市淡水區中正路二段31號","121.419406666667","25.1815883333333","6501000","淡水區"
"251003","673-BX","2018/05/01 17:19:14","新北市淡水區中正路一段156巷1號","121.420978333333","25.17976","6501000","淡水區"
"207003","550-UM","2018/05/01 17:19:25","新北市萬里區萬里里瑪鋉路314號","121.688256666667","25.1820433333333","6502800","萬里區"
"252002","178-VK","2018/05/01 17:19:16","新北市三芝區忠孝街1-14號","121.505496666667","25.2539216666667","6502100","三芝區"
"252001","292-VK","2018/05/01 17:19:32","新北市三芝區長安街119號","121.498048333333","25.2596866666667","6502100","三芝區"
"242034","AAC-296","2018/05/01 17:19:23","新北市新莊區中正路473-1號","121.442011666667","25.0329716666667","6500500","新莊區"
"242058","986-R7","2018/05/01 17:19:27","新北市新莊區新泰路357巷3號","121.442015","25.0415766666667","6500500","新莊區"
"242054","751-BX","2018/05/01 17:19:21","新北市新莊區環河路636-1號","121.436558333333","25.01081","6500500","新莊區"
"242027","615-BX","2018/05/01 17:19:33","新北市新莊區中港路301號","121.452926666667","25.0445183333333","6500500","新莊區"
"242025","613-BX","2018/05/01 17:19:28","新北市新莊區復興路一段89號","121.448601666667","25.0428383333333","6500500","新莊區"
"242029","612-BX","2018/05/01 17:19:14","新北市新莊區幸福路90號","121.456225","25.0494416666667","6500500","新莊區"
"242042","566-BX","2018/05/01 17:19:20","新北市新莊區中正路481號","121.441453333333","25.0338066666667","6500500","新莊區"
"242046","497-BY","2018/05/01 17:19:23","新北市新莊區中正路471-1號","121.441676666667","25.0338316666667","6500500","新莊區"
"242051","442-UM","2018/05/01 17:19:31","新北市新莊區瓊林南路1號","121.438658333333","25.02076","6500500","新莊區"
"242056","440-UM","2018/05/01 17:19:31","新北市新莊區中正路471號","121.441941666667","25.0336383333333","6500500","新莊區"
"242007","413-TV","2018/05/01 17:19:23","新北市新莊區中和街108巷1號","121.44758","25.04688","6500500","新莊區"
"242044","400-BY","2018/05/01 17:19:18","新北市新莊區中正路659號","121.42788","25.0305833333333","6500500","新莊區"
"242023","362-BY","2018/05/01 17:19:30","新北市新莊區新泰路484號","121.442608333333","25.0457166666667","6500500","新莊區"
"242061","353-BY","2018/05/01 17:19:23","新北市泰山區磚雅厝3號","121.441965","25.0418166666667","6500500","新莊區"
"242009","132-UY","2018/05/01 17:19:21","新北市新莊區新泰路488號","121.44265","25.0458866666667","6500500","新莊區"
"242039","133-UY","2018/05/01 17:19:32","新北市新莊區民安路302號","121.428251666667","25.021905","6500500","新莊區"
"242032","135-UY","2018/05/01 17:19:15","新北市新莊區三和路12-10號","121.441985","25.0367933333333","6500500","新莊區"
"242048","172-VK","2018/05/01 17:19:32","新北市新莊區龍安路256號","121.42125","25.019615","6500500","新莊區"
"242017","175-VK","2018/05/01 17:19:19","新北市新莊區中平路82巷36-2號","121.446313333333","25.0449416666667","6500500","新莊區"
"242005","176-VK","2018/05/01 17:19:30","新北市新莊區中港路276號","121.453131666667","25.0440733333333","6500500","新莊區"
"242015","346-TH","2018/05/01 17:19:20","新北市新莊區新泰路277巷43弄11號","121.44416","25.0399116666667","6500500","新莊區"
"242021","348-TH","2018/05/01 17:19:17","新北市新莊區中港路306號","121.452581666667","25.0450933333333","6500500","新莊區"
"242037","349-TH","2018/05/01 17:19:22","新北市新莊區新樹路223號","121.435378333333","25.0230783333333","6500500","新莊區"
"242019","350-TH","2018/05/01 17:19:35","新北市新莊區新泰路488號","121.442481666667","25.045775","6500500","新莊區"
"242013","351-TH","2018/05/01 17:19:31","新北市新莊區中環路二段392-1號","121.442431666667","25.0453916666667","6500500","新莊區"
"238023","601-UM","2018/05/01 17:19:24","新北市樹林區中正路433-2號","121.414973333333","25.0082466666667","6500700","樹林區"
"238019","599-UM","2018/05/01 17:19:28","新北市樹林區八德街96號","121.420891666667","24.98024","6500700","樹林區"
"238018","571-TV","2018/05/01 17:19:31","新北市樹林區鎮前街269巷7號","121.42028","24.985545","6500700","樹林區"
"238024","5061-A6","2018/05/01 17:19:26","新北市樹林區保安街一段48巷28號","121.42661","24.995265","6500700","樹林區"
"238021","KEA-2539","2018/05/01 17:19:31","新北市樹林區西圳街一段165巷2號","121.395448333333","24.9619766666667","6500700","樹林區"
"238025","303-VK","2018/05/01 17:19:19","新北市樹林區中山路一段91-1號","121.423373333333","24.99125","6500700","樹林區"
"238017","283-BY","2018/05/01 17:19:32","新北市樹林區保安街二段61號","121.416046666667","25.0004633333333","6500700","樹林區"
"238020","268-VK","2018/05/01 17:19:32","新北市樹林區保安街一段195號","121.420798333333","24.9958766666667","6500700","樹林區"
"238026","172-UY","2018/05/01 17:19:36","新北市樹林區中山路二段219號","121.402795","24.9762516666667","6500700","樹林區"
"238016","169-UY","2018/05/01 17:19:15","新北市樹林區中山路二段34號","121.417381666667","24.9849083333333","6500700","樹林區"
"239007","AAC-297","2018/05/01 17:19:19","新北市鶯歌區行政路3-1號","121.350898333333","24.9552416666667","6500800","鶯歌區"
"239006","891-R6","2018/05/01 17:19:22","新北市鶯歌區鶯桃路301號","121.33364","24.960585","6500800","鶯歌區"
"239008","527-UM","2018/05/01 17:19:33","新北市鶯歌區西湖街279巷23號","121.340965","24.967805","6500800","鶯歌區"
"239005","526-UM","2018/05/01 17:19:18","新北市鶯歌區福德二街4號","121.330195","24.9676083333333","6500800","鶯歌區"
"239001","417-VK","2018/05/01 17:19:31","新北市鶯歌區尖山路234號","121.343053333333","24.9466266666667","6500800","鶯歌區"
"239003","360-BY","2018/05/01 17:19:32","新北市鶯歌區德昌街50號","121.33311","24.9598983333333","6500800","鶯歌區"
"239002","359-BY","2018/05/01 17:19:33","新北市鶯歌區國慶街98號","121.350328333333","24.95449","6500800","鶯歌區"
"239004","193-VK","2018/05/01 17:19:21","新北市鶯歌區文化路226巷7弄15號","121.352123333333","24.9482333333333","6500800","鶯歌區"
"221008","489-VK","2018/05/01 17:19:25","新北市汐止區康寧街901號","121.65141","25.0748866666667","6501100","汐止區"
"242002","KEA-2550","2018/05/01 17:19:21","新北市新莊區新泰路98號","121.448526666667","25.035905","6500500","新莊區"
