"lineid","car","time","location","longitude","latitude","cityid","cityname"
"249005","172-UM","2018/05/01 17:29:14","新北市八里區荖阡坑路69號","121.406361666667","25.1268066666667","6502300","八里區"
"249001","173-UM","2018/05/01 17:29:22","新北市八里區龍米路三段41號","121.424921666667","25.159105","6502300","八里區"
"249004","303-UY","2018/05/01 17:29:34","新北市八里區民治街38號","121.414406666667","25.1574583333333","6502300","八里區"
"249002","305-UY","2018/05/01 17:29:08","新北市八里區龍米路一段438號","121.450766666667","25.133975","6502300","八里區"
"249003","593-UM","2018/05/01 17:29:16","新北市八里區中山路二段398號","121.400583333333","25.1478716666667","6502300","八里區"
"244013","069-UM","2018/05/01 17:29:24","新北市林口區中山路258-1號","121.385133333333","25.079705","6501700","林口區"
"244007","080-UY","2018/05/01 17:29:27","新北市林口區湖子45號","121.384816666667","25.0944983333333","6501700","林口區"
"244023","483-VK","2018/05/01 17:29:24","新北市林口區興林一街96巷33號","121.391278333333","25.0714916666667","6501700","林口區"
"244009","656-BX","2018/05/01 17:29:34","新北市林口區中北一街13號","121.38552","25.086895","6501700","林口區"
"244025","837-TS","2018/05/01 17:29:18","新北市林口區南勢街120號","121.362953333333","25.0740466666667","6501700","林口區"
"244021","838-TS","2018/05/01 17:29:28","新北市林口區中山路2-2號","121.396718333333","25.0787483333333","6501700","林口區"
"231046","107-UY","2018/05/01 17:29:25","新北市新店區直潭路92號","121.530901666667","24.9376133333333","6500600","新店區"
"241011","013-R5","2018/05/01 17:29:31","新北市三重區河邊北街124巷5號","121.50344","25.0714266666667","6500200","三重區"
"241008","059-VK","2018/05/01 17:29:30","新北市蘆洲區永安北路一段76號","121.477363333333","25.0773933333333","6500200","三重區"
"241009","060-VK","2018/05/01 17:29:25","新北市三重區力行路二段162巷53號","121.481198333333","25.076405","6500200","三重區"
"241015","062-VK","2018/05/01 17:29:16","新北市三重區長元街65巷16弄15號","121.503613333333","25.0661916666667","6500200","三重區"
"241017","063-VK","2018/05/01 17:29:31","新北市三重區重新路三段47巷5弄2號","121.492841666667","25.0620333333333","6500200","三重區"
"241024","065-VK","2018/05/01 17:29:26","新北市三重區國道路一段58巷17號","121.481478333333","25.0719916666667","6500200","三重區"
"241003","091-VK","2018/05/01 17:29:26","新北市三重區集賢路87-1號","121.493705","25.0868633333333","6500200","三重區"
"241005","262-UM","2018/05/01 17:29:21","新北市三重區永安北路二段5巷39號","121.48289","25.0812383333333","6500200","三重區"
"241016","266-UM","2018/05/01 17:29:20","新北市三重區信義西街148號","121.495321666667","25.0639633333333","6500200","三重區"
"241018","268-UM","2018/05/01 17:29:14","新北市三重區自強路一段177號","121.492881666667","25.0674366666667","6500200","三重區"
"241032","269-UM","2018/05/01 17:29:28","新北市三重區名源街55號","121.482246666667","25.059675","6500200","三重區"
"241013","270-UM","2018/05/01 17:29:28","新北市三重區仁愛街124號","121.495015","25.0749566666667","6500200","三重區"
"241025","271-UM","2018/05/01 17:29:07","新北市三重區中正北路404號","121.475561666667","25.0704666666667","6500200","三重區"
"241007","398-BY","2018/05/01 17:29:23","新北市三重區慈愛街53號","121.486315","25.0790916666667","6500200","三重區"
"241020","478-VK","2018/05/01 17:29:24","新北市三重區忠孝路二段9號","121.486893333333","25.0714216666667","6500200","三重區"
"241030","480-VK","2018/05/01 17:29:20","新北市三重區新興路1號","121.492868333333","25.0529966666667","6500200","三重區"
"241014","543-UM","2018/05/01 17:29:28","新北市三重區長壽街65號","121.501858333333","25.068525","6500200","三重區"
"241023","545-UM","2018/05/01 17:29:27","新北市三重區三民街146巷7號","121.481456666667","25.064515","6500200","三重區"
"241019","KEA-2593","2018/05/01 17:29:30","新北市三重區自強路二段18-1號","121.489831666667","25.0689433333333","6500200","三重區"
"241006","AAD-863","2018/05/01 17:29:17","新北市三重區車路頭街139巷14號","121.48429","25.076235","6500200","三重區"
"241012","941-UM","2018/05/01 17:29:33","新北市三重區仁興街24巷11號","121.499011666667","25.0750966666667","6500200","三重區"
"241033","AAC-255","2018/05/01 17:29:25","新北市三重區光復路一段138-8號","121.47024","25.0526733333333","6500200","三重區"
"247024","893-R6","2018/05/01 17:29:25","新北市蘆洲區長興路331號","121.460625","25.0905083333333","6501400","蘆洲區"
"247014","546-UM","2018/05/01 17:29:30","新北市蘆洲區三民路33號","121.475431666667","25.0830116666667","6501400","蘆洲區"
"247022","500-BY","2018/05/01 17:29:29","新北市蘆洲區三民路238-2號","121.468173333333","25.089715","6501400","蘆洲區"
"247010","341-TH","2018/05/01 17:29:30","新北市蘆洲區信義路118號","121.479805","25.0822216666667","6501400","蘆洲區"
"247012","339-TH","2018/05/01 17:29:17","新北市蘆洲區民族路42號","121.476696666667","25.0842983333333","6501400","蘆洲區"
"247004","337-TH","2018/05/01 17:29:31","新北市蘆洲區長安街237號","121.459131666667","25.0827933333333","6501400","蘆洲區"
"247006","336-TH","2018/05/01 17:29:16","新北市蘆洲區長安街68巷29號","121.463798333333","25.08097","6501400","蘆洲區"
"247018","057-VK","2018/05/01 17:29:24","新北市蘆洲區民義街45號","121.472256666667","25.0893416666667","6501400","蘆洲區"
"247008","056-VK","2018/05/01 17:29:29","新北市蘆洲區信義路30巷15號","121.47449","25.0787383333333","6501400","蘆洲區"
"247016","007-UY","2018/05/01 17:29:34","新北市蘆洲區光華路22巷49號","121.46816","25.08492","6501400","蘆洲區"
"247002","002-UY","2018/05/01 17:29:23","新北市蘆洲區永樂街38巷45弄20號","121.457386666667","25.090285","6501400","蘆洲區"
"247020","001-UY","2018/05/01 17:29:28","新北市蘆洲區水湳街150號","121.470008333333","25.0936983333333","6501400","蘆洲區"
"228001","212-TW","2018/05/01 17:29:14","新北市貢寮區仁理村仁愛路31號","121.924806666667","25.0532683333333","6502600","貢寮區"
"228002","585-TW","2018/05/01 17:29:22","新北市貢寮區福隆里福隆街14號","121.94489","25.01631","6502600","貢寮區"
"228003","828-UM","2018/05/01 17:29:24","新北市貢寮區仁理村仁和路2-1號","121.923151666667","25.0486916666667","6502600","貢寮區"
"224010","AGQ-8101","2018/05/01 17:28:55","新北市瑞芳區逢甲路93號","121.807276666667","25.1098383333333","6501200","瑞芳區"
"224006","676-BX","2018/05/01 17:29:17","新北市瑞芳區傑魚坑路15號","121.794131666667","25.1105016666667","6501200","瑞芳區"
"224008","285-BY","2018/05/01 17:29:20","新北市瑞芳區侯硐路290號","121.8316","25.0890483333333","6501200","瑞芳區"
"224009","273-VK","2018/05/01 17:29:21","新北市瑞芳區汽車路7-3號","121.84702","25.1107433333333","6501200","瑞芳區"
"224005","271-BY","2018/05/01 17:29:30","新北市瑞芳區洞頂路136號","121.862448333333","25.12398","6501200","瑞芳區"
"227009","642-TC","2018/05/01 17:29:17","新北市雙溪區三貂里十三層33號","121.85382","25.0802333333333","6502500","雙溪區"
"227003","400-TW","2018/05/01 17:29:25","新北市雙溪區平林里梅竹蹊69號","121.843755","25.0302666666667","6502500","雙溪區"
"251016","008-UM","2018/05/01 17:29:18","新北市淡水區鄒厝崙12-1號","121.466918333333","25.1896766666667","6501000","淡水區"
"251004","010-UM","2018/05/01 17:29:28","新北市淡水區中正東路一段105巷1號","121.453485","25.1602183333333","6501000","淡水區"
"251013","KEA-2871","2018/05/01 17:29:23","新北市淡水區大竹圍5號","121.466561666667","25.19522","6501000","淡水區"
"251014","180-VK","2018/05/01 17:29:18","新北市淡水區公埔子20-6號","121.468256666667","25.22643","6501000","淡水區"
"251008","181-VK","2018/05/01 17:29:25","新北市淡水區大同路124巷19號","121.463585","25.13979","6501000","淡水區"
"251015","182-VK","2018/05/01 17:29:33","新北市淡水區三空泉20號","121.469321666667","25.1656","6501000","淡水區"
"251010","413-VK","2018/05/01 17:29:27","新北市淡水區中正路二段211號","121.426213333333","25.1891233333333","6501000","淡水區"
"251012","441-VK","2018/05/01 17:29:17","新北市淡水區北新路114號","121.447853333333","25.17848","6501000","淡水區"
"251007","442-VK","2018/05/01 17:29:31","新北市淡水區民生路47-4號","121.46205","25.13799","6501000","淡水區"
"251005","443-VK","2018/05/01 17:29:21","新北市淡水區鄧公路31巷10號","121.451691666667","25.1706666666667","6501000","淡水區"
"251001","559-UM","2018/05/01 17:29:33","新北市淡水區民權路92巷35-1號","121.462135","25.1266583333333","6501000","淡水區"
"251006","561-UM","2018/05/01 17:29:28","新北市淡水區大智街39號","121.442568333333","25.1742866666667","6501000","淡水區"
"251009","575-R6","2018/05/01 17:29:33","新北市淡水區新生街92號","121.439593333333","25.1745616666667","6501000","淡水區"
"251011","650-BX","2018/05/01 17:29:21","新北市淡水區坪頂路718號","121.482536666667","25.158495","6501000","淡水區"
"251002","672-BX","2018/05/01 17:29:31","新北市淡水區中正路261號","121.431481666667","25.174915","6501000","淡水區"
"251003","673-BX","2018/05/01 17:29:34","新北市淡水區中正路20巷1號","121.43708","25.1730933333333","6501000","淡水區"
"207003","550-UM","2018/05/01 17:29:25","新北市萬里區龜吼里玉田路45-5號","121.683243333333","25.1889766666667","6502800","萬里區"
"207004","225-TW","2018/05/01 17:29:31","新北市萬里區萬里里景美路11-3號","121.685726666667","25.1728366666667","6502800","萬里區"
"252002","178-VK","2018/05/01 17:29:36","新北市三芝區忠孝街1-14號","121.505451666667","25.253935","6502100","三芝區"
"252001","292-VK","2018/05/01 17:29:32","新北市三芝區長安街119號","121.498051666667","25.2596866666667","6502100","三芝區"
"237011","572-TV","2018/05/01 17:29:24","新北市三峽區中山路459巷163-3號","121.348761666667","24.9331","6500900","三峽區"
"236014","270-VK","2018/05/01 17:29:22","新北市土城區城林路6巷80號","121.43859","24.9795866666667","6501300","土城區"
"242034","AAC-296","2018/05/01 17:29:23","新北市新莊區新莊路364號","121.44953","25.03348","6500500","新莊區"
"242058","986-R7","2018/05/01 17:29:27","新北市新莊區中正路583號","121.4344","25.0326666666667","6500500","新莊區"
"242054","751-BX","2018/05/01 17:29:21","新北市新莊區瓊林南路305巷3號","121.434873333333","25.0054883333333","6500500","新莊區"
"242027","615-BX","2018/05/01 17:29:32","新北市新莊區思源路38號","121.460156666667","25.0421033333333","6500500","新莊區"
"242025","613-BX","2018/05/01 17:29:28","新北市新莊區復興路二段31號","121.454296666667","25.0441283333333","6500500","新莊區"
"242029","612-BX","2018/05/01 17:29:33","新北市新莊區復興路二段124號","121.456693333333","25.04426","6500500","新莊區"
"242042","566-BX","2018/05/01 17:29:23","新北市新莊區新樹路113巷17號","121.439","25.0264166666667","6500500","新莊區"
"242046","497-BY","2018/05/01 17:29:23","新北市新莊區新樹路31號","121.440418333333","25.0323033333333","6500500","新莊區"
"242051","442-UM","2018/05/01 17:29:31","新北市新莊區新樹路447號","121.432808333333","25.0134833333333","6500500","新莊區"
"242056","440-UM","2018/05/01 17:29:31","新北市新莊區新莊路364號","121.449565","25.0335366666667","6500500","新莊區"
"242007","413-TV","2018/05/01 17:29:23","新北市新莊區自強街50號","121.45476","25.0466183333333","6500500","新莊區"
"242044","400-BY","2018/05/01 17:29:18","新北市新莊區富國路75號","121.42004","25.0259466666667","6500500","新莊區"
"242023","362-BY","2018/05/01 17:29:30","新北市新莊區公園路152號","121.453198333333","25.040055","6500500","新莊區"
"242061","353-BY","2018/05/01 17:29:25","新北市新莊區瓊林南路6號","121.437325","25.0198966666667","6500500","新莊區"
"242009","132-UY","2018/05/01 17:29:21","新北市新莊區中原路187-1號","121.452715","25.0542883333333","6500500","新莊區"
"242039","133-UY","2018/05/01 17:29:32","新北市新莊區民安路268號","121.427536666667","25.02134","6500500","新莊區"
"242032","135-UY","2018/05/01 17:29:15","新北市新莊區新泰路413巷20號","121.442585","25.0443816666667","6500500","新莊區"
"242048","172-VK","2018/05/01 17:29:32","新北市新莊區四維路210號","121.421513333333","25.02007","6500500","新莊區"
"242011","173-VK","2018/05/01 17:29:24","新北市新莊區中華路二段83號","121.452548333333","25.0479516666667","6500500","新莊區"
"242017","175-VK","2018/05/01 17:29:19","新北市新莊區復興路一段211號","121.45243","25.0436733333333","6500500","新莊區"
"242005","176-VK","2018/05/01 17:29:30","新北市新莊區中港路286號","121.453036666667","25.044335","6500500","新莊區"
"242015","346-TH","2018/05/01 17:29:21","新北市新莊區新泰路159號","121.447663333333","25.0369866666667","6500500","新莊區"
"242021","348-TH","2018/05/01 17:29:23","新北市新莊區中華路一段8號","121.451988333333","25.0368566666667","6500500","新莊區"
"242037","349-TH","2018/05/01 17:29:23","新北市新莊區建國二路1號","121.434883333333","25.02368","6500500","新莊區"
"242019","350-TH","2018/05/01 17:29:15","新北市新莊區中港路71號","121.455446666667","25.0387533333333","6500500","新莊區"
"242013","351-TH","2018/05/01 17:29:31","新北市新莊區中誠街18號","121.45195","25.0481683333333","6500500","新莊區"
"238015","755-BX","2018/05/01 17:29:32","新北市樹林區大安路267號","121.41903","24.9937","6500700","樹林區"
"238023","601-UM","2018/05/01 17:29:24","新北市樹林區中正路443號","121.414691666667","25.01006","6500700","樹林區"
"238019","599-UM","2018/05/01 17:29:29","新北市樹林區太平路59號","121.419061666667","24.9819133333333","6500700","樹林區"
"238018","571-TV","2018/05/01 17:29:31","新北市樹林區博愛街226巷7號","121.424303333333","24.9888316666667","6500700","樹林區"
"238024","5061-A6","2018/05/01 17:29:23","新北市樹林區中華路3號","121.42469","24.9839633333333","6500700","樹林區"
"238021","KEA-2539","2018/05/01 17:29:36","新北市樹林區西圳街一段203巷23-1號","121.394575","24.9583783333333","6500700","樹林區"
"238025","303-VK","2018/05/01 17:29:18","新北市樹林區保安街一段296號","121.419056666667","24.9973066666667","6500700","樹林區"
"238017","283-BY","2018/05/01 17:29:32","新北市樹林區中正路415號","121.417153333333","25.0075966666667","6500700","樹林區"
"238014","282-BY","2018/05/01 17:29:29","新北市樹林區大安路208號","121.420198333333","24.9955983333333","6500700","樹林區"
"238020","268-VK","2018/05/01 17:29:32","新北市樹林區俊英街160巷8號","121.42752","25.0069416666667","6500700","樹林區"
"238026","172-UY","2018/05/01 17:29:36","新北市樹林區新興街19巷13號","121.400871666667","24.97318","6500700","樹林區"
"238016","169-UY","2018/05/01 17:29:35","新北市樹林區中山路一段2巷10號","121.423776666667","24.9942133333333","6500700","樹林區"
"239007","AAC-297","2018/05/01 17:29:19","新北市鶯歌區仁愛路53號","121.353955","24.956105","6500800","鶯歌區"
"239006","891-R6","2018/05/01 17:29:22","新北市鶯歌區鶯桃路466號","121.33243","24.9655216666667","6500800","鶯歌區"
"239008","527-UM","2018/05/01 17:29:13","新北市鶯歌區大湖路742號","121.332305","24.9769666666667","6500800","鶯歌區"
"239005","526-UM","2018/05/01 17:29:28","桃園市桃園區大仁路101巷12號","121.323815","24.9711533333333","6500800","鶯歌區"
"239001","417-VK","2018/05/01 17:29:31","新北市鶯歌區中正三路151號","121.336688333333","24.940125","6500800","鶯歌區"
"239003","360-BY","2018/05/01 17:29:32","新北市鶯歌區鶯桃路289-1號","121.334721666667","24.96033","6500800","鶯歌區"
"239002","359-BY","2018/05/01 17:29:13","新北市鶯歌區國慶街82號","121.350281666667","24.9545683333333","6500800","鶯歌區"
"239004","193-VK","2018/05/01 17:29:21","新北市鶯歌區三鶯路29巷34號","121.353848333333","24.9394866666667","6500800","鶯歌區"
"221008","489-VK","2018/05/01 17:29:25","新北市汐止區康寧街901號","121.651378333333","25.0750166666667","6501100","汐止區"
"221033","647-BX","2018/05/01 17:29:20","新北市汐止區大同路二段273號","121.652421666667","25.0676183333333","6501100","汐止區"
"242002","KEA-2550","2018/05/01 17:29:21","新北市新莊區新莊路213號","121.455268333333","25.0354316666667","6500500","新莊區"
