"lineid","car","time","location","longitude","latitude","cityid","cityname"
"234007","207-UY","2018/05/01 18:09:24","新北市永和區環河東路二段58號","121.523605","25.01135","6500400","永和區"
"234064","337-UY","2018/05/01 18:09:33","新北市永和區福和路1號","121.526516666667","25.0101733333333","6500400","永和區"
"234026","9371-KE","2018/05/01 18:09:35","新北市永和區中和路625號","121.512906666667","25.00496","6500400","永和區"
"234011","9373-KE","2018/05/01 18:09:31","新北市永和區福和路1號","121.525588333333","25.00971","6500400","永和區"
"249005","172-UM","2018/05/01 18:09:34","新北市八里區荖阡坑路15號","121.401626666667","25.139945","6502300","八里區"
"249001","173-UM","2018/05/01 18:09:22","新北市八里區龍米路二段30號","121.448688333333","25.139865","6502300","八里區"
"249004","303-UY","2018/05/01 18:09:34","新北市八里區龍米路二段200巷3號","121.433701666667","25.15875","6502300","八里區"
"249002","305-UY","2018/05/01 18:09:28","新北市八里區龍米路一段386巷7號","121.451986666667","25.1320383333333","6502300","八里區"
"249003","593-UM","2018/05/01 18:09:16","新北市八里區中華路二段165巷19弄10號","121.409455","25.1511966666667","6502300","八里區"
"248016","026-BX","2018/05/01 18:09:33","新北市五股區成泰路三段221巷18號","121.445686666667","25.0934633333333","6501500","五股區"
"248006","077-UY","2018/05/01 18:09:26","新北市五股區中興路二段82號","121.460881666667","25.07731","6501500","五股區"
"248008","095-VK","2018/05/01 18:09:24","新北市五股區更洲路32巷15弄9號","121.458173333333","25.0805116666667","6501500","五股區"
"248020","225-UY","2018/05/01 18:09:28","新北市五股區成泰路三段544號","121.453488333333","25.1029683333333","6501500","五股區"
"248014","261-SL","2018/05/01 18:09:26","新北市五股區成泰路一段189巷18-2號","121.433575","25.076415","6501500","五股區"
"248004","677-BX","2018/05/01 18:09:22","新北市五股區工商路63號","121.438968333333","25.0842683333333","6501500","五股區"
"248002","678-BX","2018/05/01 18:09:22","新北市五股區成泰路三段146號","121.444318333333","25.08997","6501500","五股區"
"248010","682-TV","2018/05/01 18:09:28","新北市五股區成泰路一段229號","121.434273333333","25.0778183333333","6501500","五股區"
"232011","375-UM","2018/05/01 18:09:28","新北市坪林區坪林街10-1號","121.712046666667","24.93564","6502000","坪林區"
"244013","069-UM","2018/05/01 18:09:24","新北市林口區中山路130號","121.392201666667","25.0786933333333","6501700","林口區"
"244007","080-UY","2018/05/01 18:09:27","新北市林口區林口路113巷47號","121.387945","25.0799183333333","6501700","林口區"
"244019","742-UY","2018/05/01 18:09:33","新北市林口區麗園路62號","121.373158333333","25.0694583333333","6501700","林口區"
"244023","483-VK","2018/05/01 18:09:24","新北市林口區東湖路153巷135號","121.382248333333","25.0735816666667","6501700","林口區"
"244017","485-VK","2018/05/01 18:09:24","新北市林口區忠孝路506號","121.370833333333","25.0699633333333","6501700","林口區"
"244009","656-BX","2018/05/01 18:09:34","新北市林口區中山路256-1號","121.38564","25.07989","6501700","林口區"
"244011","657-BX","2018/05/01 18:09:25","新北市林口區中正路30巷4號","121.395755","25.077555","6501700","林口區"
"244025","837-TS","2018/05/01 18:09:18","新北市林口區文化北路一段297號","121.360101666667","25.0729883333333","6501700","林口區"
"244021","838-TS","2018/05/01 18:09:28","新北市林口區自強九街18號","121.400643333333","25.0758483333333","6501700","林口區"
"243013","AAD-798","2018/05/01 18:09:31","新北市泰山區南林路99巷23號","121.418471666667","25.050245","6501600","泰山區"
"243014","680-BX","2018/05/01 17:39:20","新北市泰山區犁頭窠3-1號","121.42187","25.0603933333333","6501600","泰山區"
"222002","659-BX","2018/05/01 18:09:16","新北市深坑區文化街52號","121.618973333333","25.0016716666667","6501800","深坑區"
"231059","046-UY","2018/05/01 18:09:34","新北市新店區安華路28-1號","121.519613333333","24.9608766666667","6500600","新店區"
"231040","047-UY","2018/05/01 18:09:21","新北市新店區安華路28-1號","121.519295","24.9609133333333","6500600","新店區"
"231044","106-UY","2018/05/01 18:09:30","新北市新店區安華路28-1號","121.51965","24.9609333333333","6500600","新店區"
"231046","107-UY","2018/05/01 18:09:25","新北市新店區直潭七街60號","121.532276666667","24.9399016666667","6500600","新店區"
"231053","108-UY","2018/05/01 18:09:20","新北市新店區安華路28-1號","121.519683333333","24.961105","6500600","新店區"
"231048","187-VK","2018/05/01 18:09:25","新北市新店區安華路28-1號","121.519675","24.9611716666667","6500600","新店區"
"231054","KEA-2219","2018/05/01 18:09:36","新北市新店區安華路28-1號","121.52006","24.9611516666667","6500600","新店區"
"231057","256-BX","2018/05/01 18:09:32","新北市新店區安華路28-1號","121.519718333333","24.961115","6500600","新店區"
"231051","278-BY","2018/05/01 18:09:33","新北市新店區安華路28-1號","121.519773333333","24.961295","6500600","新店區"
"231050","AAD-862","2018/05/01 18:09:36","新北市新店區安華路28-1號","121.519983333333","24.9609916666667","6500600","新店區"
"231060","355-BY","2018/05/01 18:09:16","新北市新店區安華路28-1號","121.519301666667","24.9608983333333","6500600","新店區"
"231067","4772-VM","2018/05/01 18:09:28","新北市新店區安華路28-1號","121.519281666667","24.9606666666667","6500600","新店區"
"231065","512-UM","2018/05/01 18:09:24","新北市新店區安華路28-1號","121.519263333333","24.9611966666667","6500600","新店區"
"231042","515-UM","2018/05/01 18:09:30","新北市新店區安華路28-1號","121.519686666667","24.961265","6500600","新店區"
"231063","616-UM","2018/05/01 18:09:31","新北市新店區安華路28-1號","121.51943","24.9607433333333","6500600","新店區"
"231045","617-UM","2018/05/01 18:09:24","新北市新店區安華路28-1號","121.519438333333","24.9609866666667","6500600","新店區"
"231061","619-UM","2018/05/01 18:09:29","新北市新店區安華路28-1號","121.519636666667","24.96054","6500600","新店區"
"231064","719-UM","2018/05/01 18:09:19","新北市新店區安華路28-1號","121.519555","24.96121","6500600","新店區"
"231043","899-TW","2018/05/01 18:09:29","","121.51913","24.9608566666667","6500600","新店區"
"231055","AKT-0513","2018/05/01 18:09:24","新北市新店區安華路1-1號","121.519426666667","24.9603916666667","6500600","新店區"
"241033","AAC-255","2018/05/01 18:09:25","新北市三重區中興北街52-8號","121.469023333333","25.050505","6500200","三重區"
"235064","005-UY","2018/05/01 18:09:20","新北市中和區中正路167巷3號","121.498433333333","24.9931716666667","6500300","中和區"
"235063","006-UY","2018/05/01 18:09:31","新北市中和區員山路36巷16-3號","121.484951666667","24.991345","6500300","中和區"
"235056","096-UM","2018/05/01 18:09:25","新北市中和區員山路36巷16-3號","121.484953333333","24.9915516666667","6500300","中和區"
"235065","098-UM","2018/05/01 18:09:28","新北市中和區莊敬路49巷18號","121.50172","25.0061566666667","6500300","中和區"
"235040","150-BY","2018/05/01 18:06:37","新北市中和區和城路一段271巷1號","121.485533333333","24.9917816666667","6500300","中和區"
"235058","151-BY","2018/05/01 18:09:33","新北市中和區圓通路367巷33弄25號","121.495053333333","24.9854583333333","6500300","中和區"
"235038","185-VK","2018/05/01 18:09:18","新北市中和區大智街22號","121.520716666667","24.991725","6500300","中和區"
"235067","255-BX","2018/05/01 18:09:31","新北市中和區和城路一段271巷1號","121.485965","24.9916966666667","6500300","中和區"
"235072","301-VK","2018/05/01 18:09:35","新北市中和區員山路36巷16-3號","121.48477","24.99128","6500300","中和區"
"235043","352-BY","2018/05/01 18:09:22","新北市中和區中正路395號","121.489738333333","24.9935283333333","6500300","中和區"
"235061","378-QA","2018/05/01 18:09:34","新北市中和區員山路57-2號","121.480125","24.9932416666667","6500300","中和區"
"235050","4979-A6","2018/05/01 18:09:34","新北市中和區中正路637巷52弄1號","121.485378333333","24.9934166666667","6500300","中和區"
"235042","551-UM","2018/05/01 18:09:15","新北市中和區景平路261號","121.508513333333","24.9930266666667","6500300","中和區"
"235070","558-UM","2018/05/01 18:09:25","新北市中和區錦和路350-1號","121.490426666667","24.9935933333333","6500300","中和區"
"235045","565-BX","2018/05/01 18:09:33","新北市中和區錦和路350-1號","121.490528333333","24.9935733333333","6500300","中和區"
"235054","640-BX","2018/05/01 18:09:22","新北市土城區延壽路75巷1號","121.46922","24.9925866666667","6500300","中和區"
"235060","647-TV","2018/05/01 18:09:21","新北市中和區連城路469巷19號","121.483598333333","24.9951466666667","6500300","中和區"
"235047","732-UM","2018/05/01 18:09:26","新北市中和區中正路267號","121.495816666667","24.9936016666667","6500300","中和區"
"235046","733-UM","2018/05/01 18:09:26","新北市中和區員山路36巷13號","121.484136666667","24.990885","6500300","中和區"
"235062","800-TS","2018/05/01 18:09:22","新北市中和區永和路103巷2號","121.495065","25.0064733333333","6500300","中和區"
"235057","801-TS","2018/05/01 18:09:24","新北市中和區連城路469巷7號","121.483628333333","24.9956733333333","6500300","中和區"
"235052","805-TS","2018/05/01 18:09:26","新北市中和區中正路13號","121.503075","24.9932216666667","6500300","中和區"
"235066","911-UM","2018/05/01 18:09:17","新北市中和區圓通路198巷4號","121.49599","24.9944066666667","6500300","中和區"
"235051","157-BY","2018/05/01 18:09:25","新北市中和區板南路100號","121.503835","24.9923566666667","6500300","中和區"
"235037","AAC-213","2018/05/01 18:09:21","新北市中和區景平路149號","121.513916666667","24.992105","6500300","中和區"
"247010","341-TH","2018/05/01 18:09:29","新北市五股區新城八路18號","121.447988333333","25.0894566666667","6501400","蘆洲區"
"247002","002-UY","2018/05/01 18:09:23","新北市蘆洲區永平街32巷69弄31號","121.458831666667","25.0938633333333","6501400","蘆洲區"
"226004","205-ST","2018/05/01 18:09:24","新北市平溪區白石里白石腳22號","121.720405","25.02163","6502400","平溪區"
"228001","212-TW","2018/05/01 18:09:34","新北市貢寮區真理里新港街26巷55弄2-1號","121.927401666667","25.05288","6502600","貢寮區"
"228002","585-TW","2018/05/01 18:09:22","新北市貢寮區福連里馬崗街1號","121.996085","25.0162883333333","6502600","貢寮區"
"228003","828-UM","2018/05/01 18:09:24","新北市貢寮區真理里美艷山街6-2號","121.928831666667","25.0607533333333","6502600","貢寮區"
"224010","AGQ-8101","2018/05/01 17:58:35","新北市瑞芳區金光路374號","121.849268333333","25.111325","6501200","瑞芳區"
"224006","676-BX","2018/05/01 18:09:17","新北市瑞芳區中正路2號","121.809318333333","25.1071483333333","6501200","瑞芳區"
"224002","639-TC","2018/05/01 18:09:34","新北市瑞芳區三爪子坑路64-35號","121.808906666667","25.1058716666667","6501200","瑞芳區"
"224008","285-BY","2018/05/01 18:09:20","新北市瑞芳區員山子路23號","121.821381666667","25.1030283333333","6501200","瑞芳區"
"224007","275-VK","2018/05/01 18:09:29","新北市瑞芳區四腳亭坑路3-1號","121.776895","25.1093016666667","6501200","瑞芳區"
"224009","273-VK","2018/05/01 18:09:20","新北市瑞芳區金光路115號","121.853693333333","25.1062616666667","6501200","瑞芳區"
"224005","271-BY","2018/05/01 18:09:30","新北市瑞芳區深澳路87-1號","121.818228333333","25.1301833333333","6501200","瑞芳區"
"227009","642-TC","2018/05/01 17:39:37","新北市雙溪區三貂里政光路3-1號","121.850865","25.0632833333333","6502500","雙溪區"
"253005","032-BX","2018/05/01 18:09:18","新北市石門區福安街1號","121.568346666667","25.2929783333333","6502200","石門區"
"253006","295-VK","2018/05/01 18:09:30","新北市石門區老梅路52巷21號","121.546396666667","25.2885966666667","6502200","石門區"
"222001","KEA-2212","2018/05/01 18:09:19","新北市深坑區北深路二段151號","121.614206666667","25.0021616666667","6501800","深坑區"
"208002","KEA-2872","2018/05/01 18:09:32","新北市金山區三界壇路101號","121.620771666667","25.2303416666667","6502700","金山區"
"208003","665-BX","2018/05/01 18:09:20","新北市金山區磺港里磺港路192-1號","121.645986666667","25.2276383333333","6502700","金山區"
"208001","761-BX","2018/05/01 18:09:32","新北市金山區磺港里磺港路58號","121.648525","25.2281716666667","6502700","金山區"
"251016","008-UM","2018/05/01 18:09:38","新北市淡水區下圭柔山15號","121.453158333333","25.2022233333333","6501000","淡水區"
"251004","010-UM","2018/05/01 18:09:28","新北市淡水區民族路110巷9號","121.461918333333","25.13545","6501000","淡水區"
"251013","KEA-2871","2018/05/01 18:09:30","新北市淡水區竹圍子10-2號","121.476145","25.194965","6501000","淡水區"
"251014","180-VK","2018/05/01 18:09:18","新北市淡水區南平14-3號","121.486468333333","25.2205283333333","6501000","淡水區"
"251008","181-VK","2018/05/01 18:09:25","新北市淡水區坪頂路70巷37號","121.460325","25.1606333333333","6501000","淡水區"
"251015","182-VK","2018/05/01 18:09:33","新北市淡水區興福寮66巷529號","121.484896666667","25.1647283333333","6501000","淡水區"
"251010","413-VK","2018/05/01 18:09:27","新北市淡水區中正路二段50巷10號","121.4199","25.18331","6501000","淡水區"
"251012","441-VK","2018/05/01 18:09:28","新北市淡水區北新路三段173號","121.49249","25.1922716666667","6501000","淡水區"
"251007","442-VK","2018/05/01 18:09:31","新北市淡水區中正東路二段143巷2弄1號","121.460553333333","25.1472783333333","6501000","淡水區"
"251005","443-VK","2018/05/01 18:09:21","新北市淡水區水源街一段141號","121.447271666667","25.171925","6501000","淡水區"
"251001","559-UM","2018/05/01 18:09:33","新北市淡水區自立路1巷19號","121.462673333333","25.1297366666667","6501000","淡水區"
"251006","561-UM","2018/05/01 18:09:28","新北市淡水區真理街3巷1號","121.436891666667","25.1746533333333","6501000","淡水區"
"251011","650-BX","2018/05/01 18:09:21","新北市淡水區三空泉9-2號","121.474168333333","25.1632883333333","6501000","淡水區"
"251002","672-BX","2018/05/01 18:09:31","新北市淡水區中正東路一段125號","121.455393333333","25.1593166666667","6501000","淡水區"
"251003","673-BX","2018/05/01 18:09:34","新北市淡水區大忠街113巷29號","121.447521666667","25.1775616666667","6501000","淡水區"
"207003","550-UM","2018/05/01 18:09:25","新北市萬里區野柳里港西路70-3號","121.685453333333","25.20474","6502800","萬里區"
"207004","225-TW","2018/05/01 18:09:31","新北市萬里區中幅里中福路116-1號","121.67558","25.1671083333333","6502800","萬里區"
"252002","178-VK","2018/05/01 18:09:16","新北市三芝區中山路二段33號","121.502838333333","25.2552283333333","6502100","三芝區"
"252003","249-BX","2018/05/01 18:09:22","新北市三芝區埔頭里埔頭37號","121.498556666667","25.2603816666667","6502100","三芝區"
"252001","292-VK","2018/05/01 18:09:32","新北市三芝區中興街二段2號","121.498376666667","25.2566216666667","6502100","三芝區"
"237004","KEA-2597","2018/05/01 18:09:27","新北市三峽區圳頭40號","121.376176666667","24.8857266666667","6500900","三峽區"
"237007","153-BY","2018/05/01 18:09:36","新北市三峽區中正路二段349號","121.365505","24.9090333333333","6500900","三峽區"
"237011","572-TV","2018/05/01 18:09:24","新北市三峽區溪東路119號","121.4021","24.934425","6500900","三峽區"
"237009","210-TH","2018/05/01 18:09:32","新北市三峽區大仁路52號","121.365395","24.937665","6500900","三峽區"
"237013","252-BX","2018/05/01 18:09:21","新北市三峽區長泰街54號","121.377796666667","24.932585","6500900","三峽區"
"237012","275-BY","2018/05/01 18:09:21","新北市三峽區民生街1巷6-5號","121.37744","24.9361766666667","6500900","三峽區"
"237008","302-VK","2018/05/01 18:09:31","新北市三峽區白雞42-3號","121.379013333333","24.911215","6500900","三峽區"
"237014","433-BY","2018/05/01 18:09:33","新北市三峽區國光街63巷8號","121.373831666667","24.9379516666667","6500900","三峽區"
"237006","5529-G3","2018/05/01 18:09:18","新北市三峽區溪東路218巷2-1號","121.407575","24.9321283333333","6500900","三峽區"
"237010","706-TV","2018/05/01 18:09:32","新北市三峽區民族街154號","121.369113333333","24.9283466666667","6500900","三峽區"
"237005","AKY-6261","2018/05/01 18:09:34","新北市三峽區文化路65巷12號","121.371983333333","24.9355633333333","6500900","三峽區"
"236070","105-UM","2018/05/01 18:09:36","新北市土城區青雲路452號","121.459326666667","24.9704666666667","6501300","土城區"
"236042","107-UM","2018/05/01 18:09:19","新北市土城區城林路6巷80號","121.438181666667","24.97955","6501300","土城區"
"236079","166-UM","2018/05/01 18:09:22","新北市土城區永安街15號","121.433853333333","24.9648533333333","6501300","土城區"
"236030","253-BX","2018/05/01 18:09:22","新北市土城區城林路6巷80號","121.438708333333","24.9796566666667","6501300","土城區"
"236026","269-VK","2018/05/01 18:09:28","新北市土城區承天路18號","121.439455","24.9634266666667","6501300","土城區"
"236014","270-VK","2018/05/01 18:09:22","新北市土城區學府路二段122號","121.447081666667","24.9794466666667","6501300","土城區"
"236038","271-VK","2018/05/01 18:09:22","新北市土城區明德路一段325號","121.458781666667","24.977045","6501300","土城區"
"236021","401-BY","2018/05/01 18:09:21","新北市土城區城林路6巷80號","121.438795","24.9796366666667","6501300","土城區"
"236059","912-UM","2018/05/01 18:09:24","新北市土城區中央路四段196-1號","121.416291666667","24.9576816666667","6501300","土城區"
"236049","913-UM","2018/05/01 18:09:24","新北市土城區金城路二段20號","121.449656666667","24.9775816666667","6501300","土城區"
"236063","915-UM","2018/05/01 18:09:15","新北市土城區中正路82-1號","121.445178333333","24.975705","6501300","土城區"
"236055","AAC-216","2018/05/01 18:09:24","新北市土城區中華路二段82號","121.438833333333","24.9763333333333","6501300","土城區"
"242034","AAC-296","2018/05/01 18:09:22","新北市新莊區景德路304號","121.447645","25.0335766666667","6500500","新莊區"
"242058","986-R7","2018/05/01 18:09:27","新北市新莊區新北大道七段722號","121.412506666667","25.02602","6500500","新莊區"
"242054","751-BX","2018/05/01 18:09:21","新北市新莊區西盛街407號","121.427581666667","25.0125516666667","6500500","新莊區"
"242027","615-BX","2018/05/01 18:09:34","新北市新莊區幸福路517號","121.455581666667","25.0493016666667","6500500","新莊區"
"242025","613-BX","2018/05/01 18:09:08","新北市新莊區五權一路120號","121.460146666667","25.0683","6500500","新莊區"
"242029","612-BX","2018/05/01 18:09:33","新北市新莊區中平路194號","121.444558333333","25.0483233333333","6500500","新莊區"
"242042","566-BX","2018/05/01 18:09:20","新北市新莊區天祥街120巷3弄2號","121.414788333333","25.03022","6500500","新莊區"
"242046","497-BY","2018/05/01 18:09:22","新北市新莊區福營路353號","121.424455","25.028165","6500500","新莊區"
"242051","442-UM","2018/05/01 18:09:31","新北市新莊區民本街11巷2弄30號","121.429165","25.01995","6500500","新莊區"
"242056","440-UM","2018/05/01 18:09:31","新北市新莊區豐年街豐1巷2號","121.446778333333","25.0309966666667","6500500","新莊區"
"242007","413-TV","2018/05/01 18:09:23","新北市新莊區自立街79巷22號","121.45442","25.0462616666667","6500500","新莊區"
"242044","400-BY","2018/05/01 18:09:21","新北市新莊區中正路730號","121.414895","25.0237833333333","6500500","新莊區"
"242061","353-BY","2018/05/01 18:09:25","新北市新莊區新樹路73號","121.43774","25.02772","6500500","新莊區"
"242009","132-UY","2018/05/01 18:09:21","新北市新莊區昌平街39號","121.454728333333","25.0523966666667","6500500","新莊區"
"242039","133-UY","2018/05/01 18:09:32","新北市新莊區民安西路38巷2號","121.427105","25.021085","6500500","新莊區"
"242032","135-UY","2018/05/01 18:09:36","新北市新莊區新泰路277巷43弄1號","121.444225","25.04013","6500500","新莊區"
"242048","172-VK","2018/05/01 18:09:32","新北市新莊區民安路98巷3號","121.423636666667","25.0257066666667","6500500","新莊區"
"242011","173-VK","2018/05/01 18:08:44","新北市新莊區中榮街56巷6號","121.449235","25.0532","6500500","新莊區"
"242017","175-VK","2018/05/01 18:09:22","新北市新莊區中港路317號","121.452678333333","25.0448116666667","6500500","新莊區"
"242015","346-TH","2018/05/01 18:09:20","新北市新莊區中和街59巷10弄2號","121.446868333333","25.0471016666667","6500500","新莊區"
"242021","348-TH","2018/05/01 18:09:17","新北市新莊區建興街77巷1號","121.44988","25.038315","6500500","新莊區"
"242037","349-TH","2018/05/01 18:09:22","新北市新莊區後港一路63號","121.426428333333","25.0266016666667","6500500","新莊區"
"242013","351-TH","2018/05/01 18:09:31","新北市新莊區中正路400號","121.442","25.0341766666667","6500500","新莊區"
"238015","755-BX","2018/05/01 18:09:32","新北市樹林區大安路493號","121.414478333333","24.98682","6500700","樹林區"
"238023","601-UM","2018/05/01 18:09:24","新北市樹林區龍興街46巷7號","121.402735","25.0152616666667","6500700","樹林區"
"238019","599-UM","2018/05/01 18:09:29","新北市樹林區忠孝街103號","121.424445","24.980875","6500700","樹林區"
"238018","571-TV","2018/05/01 18:09:31","新北市樹林區樹新路36-4號","121.428145","24.9950483333333","6500700","樹林區"
"238024","5061-A6","2018/05/01 18:09:23","新北市樹林區中山路一段276號","121.420681666667","24.9869433333333","6500700","樹林區"
"238022","KEA-2213","2018/05/01 18:09:31","新北市樹林區太平路174巷32弄7號","121.417215","24.9766866666667","6500700","樹林區"
"238021","KEA-2539","2018/05/01 18:09:16","新北市樹林區柑園街二段175號","121.380466666667","24.9531183333333","6500700","樹林區"
"238025","303-VK","2018/05/01 18:09:38","新北市樹林區保安街二段163號","121.415296666667","25.0028466666667","6500700","樹林區"
"238017","283-BY","2018/05/01 18:09:32","新北市樹林區中正路851號","121.408951666667","25.0178233333333","6500700","樹林區"
"238014","282-BY","2018/05/01 18:09:29","新北市樹林區潭興街61號","121.424266666667","24.9980766666667","6500700","樹林區"
"238020","268-VK","2018/05/01 18:09:32","新北市樹林區三俊街50號","121.412371666667","25.0155866666667","6500700","樹林區"
"238026","172-UY","2018/05/01 18:08:36","新北市樹林區佳園路一段90巷2號","121.39308","24.9692433333333","6500700","樹林區"
"238016","169-UY","2018/05/01 18:09:15","新北市樹林區中山路一段276號","121.420696666667","24.9871083333333","6500700","樹林區"
"239007","AAC-297","2018/05/01 18:09:19","新北市鶯歌區尖山埔路173號","121.345788333333","24.9507233333333","6500800","鶯歌區"
"239006","891-R6","2018/05/01 18:09:22","新北市鶯歌區鶯桃路365巷56號","121.33177","24.96238","6500800","鶯歌區"
"239008","527-UM","2018/05/01 18:09:33","新北市鶯歌區國際一路179號","121.336221666667","24.97649","6500800","鶯歌區"
"239005","526-UM","2018/05/01 18:09:34","新北市鶯歌區鶯桃路668巷50號","121.329373333333","24.970685","6500800","鶯歌區"
"239001","417-VK","2018/05/01 18:09:31","新北市鶯歌區中正三路5巷23號","121.340263333333","24.94279","6500800","鶯歌區"
"239003","360-BY","2018/05/01 18:09:32","新北市鶯歌區福安街58號","121.335646666667","24.9652483333333","6500800","鶯歌區"
"239002","359-BY","2018/05/01 18:09:33","新北市鶯歌區中山路315號","121.344026666667","24.956755","6500800","鶯歌區"
"239004","193-VK","2018/05/01 18:09:21","新北市鶯歌區尖山路185號","121.344455","24.9473316666667","6500800","鶯歌區"
"221008","489-VK","2018/05/01 18:09:25","新北市汐止區康寧街364號","121.628733333333","25.0676633333333","6501100","汐止區"
"221036","130-UY","2018/05/01 18:09:28","新北市汐止區大同路三段95號","121.668075","25.07745","6501100","汐止區"
"221015","131-UY","2018/05/01 18:09:15","新北市汐止區鄉長路二段40巷1號","121.667685","25.0835516666667","6501100","汐止區"
"221010","269-BY","2018/05/01 18:09:27","新北市汐止區汐萬路二段275巷3弄1號","121.645295","25.0887833333333","6501100","汐止區"
"221012","278-VK","2018/05/01 18:09:20","新北市汐止區保一街35巷1號","121.674626666667","25.0803733333333","6501100","汐止區"
"221023","279-VK","2018/05/01 18:09:33","新北市汐止區民族五街83號","121.627475","25.0697866666667","6501100","汐止區"
"221032","280-BY","2018/05/01 18:09:23","新北市汐止區橫科路61號","121.618655","25.0508366666667","6501100","汐止區"
"221027","281-BY","2018/05/01 18:09:27","新北市汐止區和平街3-1號","121.66355","25.0705266666667","6501100","汐止區"
"221029","298-VK","2018/05/01 18:09:32","新北市汐止區樟樹二路134號","121.640025","25.0656566666667","6501100","汐止區"
"221021","299-VK","2018/05/01 18:09:19","新北市汐止區連興街73號","121.65395","25.06278","6501100","汐止區"
"221031","353-TW","2018/05/01 18:09:18","新北市汐止區中興路188號","121.631651666667","25.0656633333333","6501100","汐止區"
"221035","622-UM","2018/05/01 18:09:22","新北市汐止區大同路二段196號","121.65291","25.0643666666667","6501100","汐止區"
"221025","623-UM","2018/05/01 18:09:32","新北市汐止區秀峰路151巷1號","121.660666666667","25.061965","6501100","汐止區"
"221038","646-BX","2018/05/01 18:09:15","新北市汐止區新興路1號","121.659226666667","25.0607116666667","6501100","汐止區"
"221033","647-BX","2018/05/01 18:09:20","新北市汐止區宜興街40巷22弄6號","121.62264","25.04123","6501100","汐止區"
"221002","707-TV","2018/05/01 18:09:23","新北市汐止區福德一路207號","121.635138333333","25.0655433333333","6501100","汐止區"
"221018","753-BX","2018/05/01 18:09:29","新北市汐止區忠孝東路363號","121.665621666667","25.0708433333333","6501100","汐止區"
"242002","KEA-2550","2018/05/01 18:09:21","新北市新莊區新莊路42號","121.458173333333","25.0369566666667","6500500","新莊區"
