"lineid","car","time","location","longitude","latitude","cityid","cityname"
"234007","207-UY","2018/05/01 18:19:24","新北市永和區環河西路二段217巷3號","121.501523333333","25.0100733333333","6500400","永和區"
"234064","337-UY","2018/05/01 18:19:33","新北市永和區福和路1號","121.52653","25.0101933333333","6500400","永和區"
"234042","862-TW","2018/05/01 18:19:18","新北市永和區福和路1號","121.526421666667","25.0097566666667","6500400","永和區"
"234026","9371-KE","2018/05/01 18:19:35","新北市永和區豫溪街28巷15號","121.515146666667","25.00922","6500400","永和區"
"234011","9373-KE","2018/05/01 18:19:22","新北市永和區保安路2號","121.510865","25.017425","6500400","永和區"
"249005","172-UM","2018/05/01 18:19:14","新北市八里區荖阡坑路15-27號","121.400451666667","25.1402866666667","6502300","八里區"
"249001","173-UM","2018/05/01 18:19:22","新北市八里區龍米路一段172-1號","121.452355","25.126605","6502300","八里區"
"249004","303-UY","2018/05/01 18:19:34","新北市八里區龍米路二段236-3號","121.431675","25.158845","6502300","八里區"
"249002","305-UY","2018/05/01 18:19:08","新北市八里區龍形三街2號","121.450525","25.1318666666667","6502300","八里區"
"248016","026-BX","2018/05/01 18:19:33","新北市五股區西雲路293號","121.449398333333","25.099215","6501500","五股區"
"248006","077-UY","2018/05/01 18:19:32","新北市五股區中興路一段152號","121.464473333333","25.073875","6501500","五股區"
"248008","095-VK","2018/05/01 18:19:24","新北市五股區更洲路32巷8弄14號","121.459213333333","25.0796316666667","6501500","五股區"
"248020","225-UY","2018/05/01 18:19:28","新北市五股區孝義路47巷23號","121.449961666667","25.1095833333333","6501500","五股區"
"248012","247-BX","2018/05/01 18:19:23","新北市五股區御史路1巷101弄2號","121.441036666667","25.0910333333333","6501500","五股區"
"248014","261-SL","2018/05/01 18:19:28","新北市五股區自強路41號","121.433596666667","25.0738483333333","6501500","五股區"
"248004","677-BX","2018/05/01 18:19:22","新北市五股區成泰路二段87號","121.438308333333","25.0842016666667","6501500","五股區"
"248002","678-BX","2018/05/01 18:19:22","新北市五股區西雲路66號","121.443621666667","25.0916133333333","6501500","五股區"
"248010","682-TV","2018/05/01 18:19:28","新北市五股區成泰路一段126號","121.435253333333","25.0744116666667","6501500","五股區"
"232011","375-UM","2018/05/01 18:19:28","新北市坪林區下坑子口5-9號","121.71301","24.9419416666667","6502000","坪林區"
"244013","069-UM","2018/05/01 18:19:24","新北市林口區中山路198號","121.388773333333","25.078995","6501700","林口區"
"244007","080-UY","2018/05/01 18:19:27","新北市林口區後湖17-6號","121.386611666667","25.0961966666667","6501700","林口區"
"244019","742-UY","2018/05/01 18:19:33","新北市林口區忠孝路580巷19號","121.375216666667","25.0671716666667","6501700","林口區"
"244023","483-VK","2018/05/01 18:19:24","新北市林口區竹林路1號","121.385953333333","25.0764466666667","6501700","林口區"
"244017","485-VK","2018/05/01 18:19:24","新北市林口區八德路45號","121.366711666667","25.0660733333333","6501700","林口區"
"244009","656-BX","2018/05/01 18:19:34","新北市林口區文林二街16號","121.376783333333","25.088755","6501700","林口區"
"244011","657-BX","2018/05/01 18:19:25","新北市林口區中正路78號","121.394576666667","25.0773766666667","6501700","林口區"
"244025","837-TS","2018/05/01 18:19:28","新北市林口區南勢六街57號","121.35553","25.0719233333333","6501700","林口區"
"244021","838-TS","2018/05/01 18:19:28","新北市林口區自強一街2號","121.39752","25.078725","6501700","林口區"
"243013","AAD-798","2018/05/01 18:19:11","新北市泰山區南林路103號","121.415338333333","25.04486","6501600","泰山區"
"222002","659-BX","2018/05/01 18:19:16","新北市深坑區文山路二段15號","121.622156666667","24.9999533333333","6501800","深坑區"
"231059","046-UY","2018/05/01 18:19:14","新北市新店區安華路28-1號","121.51956","24.9608916666667","6500600","新店區"
"231040","047-UY","2018/05/01 18:19:21","新北市新店區安華路28-1號","121.51929","24.9608983333333","6500600","新店區"
"231044","106-UY","2018/05/01 18:19:30","新北市新店區安華路28-1號","121.519733333333","24.96092","6500600","新店區"
"231046","107-UY","2018/05/01 18:19:25","新北市新店區直潭七街60號","121.53227","24.93988","6500600","新店區"
"231053","108-UY","2018/05/01 18:19:20","新北市新店區安康路一段46巷4號","121.530661666667","24.96105","6500600","新店區"
"231048","187-VK","2018/05/01 18:19:25","新北市新店區安華路28-1號","121.519625","24.9611533333333","6500600","新店區"
"231054","KEA-2219","2018/05/01 18:19:16","新北市新店區安華路28-1號","121.519916666667","24.9611633333333","6500600","新店區"
"231057","256-BX","2018/05/01 18:19:32","新北市新店區安華路28-1號","121.519758333333","24.9611016666667","6500600","新店區"
"231051","278-BY","2018/05/01 18:19:33","新北市新店區安華路28-1號","121.519726666667","24.9612033333333","6500600","新店區"
"231050","AAD-862","2018/05/01 18:19:16","新北市新店區安華路28-1號","121.520153333333","24.9611683333333","6500600","新店區"
"231060","355-BY","2018/05/01 18:19:36","新北市新店區安華路28-1號","121.519301666667","24.960935","6500600","新店區"
"231058","3713-VJ","2018/05/01 18:19:19","新北市新店區秀山路72號","121.531425","24.96087","6500600","新店區"
"231066","4716-K9","2018/05/01 18:19:19","新北市新店區安華路28-1號","121.519518333333","24.9614066666667","6500600","新店區"
"231056","4715-K9","2018/05/01 18:19:27","新北市新店區中央路175-3號","121.534903333333","24.9697066666667","6500600","新店區"
"231067","4772-VM","2018/05/01 18:19:28","新北市新店區安華路28-1號","121.519278333333","24.9607016666667","6500600","新店區"
"231065","512-UM","2018/05/01 18:19:24","新北市新店區安華路28-1號","121.51919","24.9612","6500600","新店區"
"231049","513-UM","2018/05/01 18:19:33","新北市新店區安華路28-1號","121.519665","24.9611733333333","6500600","新店區"
"231042","515-UM","2018/05/01 18:19:30","新北市新店區安華路28-1號","121.519725","24.96127","6500600","新店區"
"231063","616-UM","2018/05/01 18:19:32","新北市新店區安華路28-1號","121.519423333333","24.9607983333333","6500600","新店區"
"231045","617-UM","2018/05/01 18:19:24","新北市新店區安華路28-1號","121.519446666667","24.9610133333333","6500600","新店區"
"231061","619-UM","2018/05/01 18:19:29","新北市新店區安華路28-1號","121.51944","24.9607983333333","6500600","新店區"
"231064","719-UM","2018/05/01 18:19:19","新北市新店區安華路28-1號","121.519471666667","24.9612216666667","6500600","新店區"
"231062","720-UM","2018/05/01 18:19:26","新北市新店區安華路28-1號","121.519411666667","24.9612833333333","6500600","新店區"
"231043","899-TW","2018/05/01 18:19:29","新北市新店區安華路28-1號","121.51913","24.9609383333333","6500600","新店區"
"231055","AKT-0513","2018/05/01 18:19:24","新北市新店區安康路一段44號","121.530736666667","24.9610416666667","6500600","新店區"
"241033","AAC-255","2018/05/01 18:19:25","新北市三重區重新路四段121號","121.483856666667","25.051315","6500200","三重區"
"235064","005-UY","2018/05/01 18:19:20","新北市中和區圓通路167巷16號","121.497936666667","24.9948916666667","6500300","中和區"
"235063","006-UY","2018/05/01 18:19:31","新北市中和區中正路577號","121.486366666667","24.9944816666667","6500300","中和區"
"235056","096-UM","2018/05/01 18:19:25","新北市中和區中山路二段594號","121.482341666667","25.0054616666667","6500300","中和區"
"235039","097-UM","2018/05/01 18:19:26","新北市中和區中正路167巷1-1號","121.498186666667","24.9934433333333","6500300","中和區"
"235065","098-UM","2018/05/01 18:19:27","新北市中和區中山路二段2巷45弄44號","121.501795","25.0062616666667","6500300","中和區"
"235040","150-BY","2018/05/01 18:19:17","新北市中和區中正路275號","121.49554","24.9936666666667","6500300","中和區"
"235058","151-BY","2018/05/01 18:19:32","新北市中和區圓通路367巷50號","121.492326666667","24.9861233333333","6500300","中和區"
"235055","183-VK","2018/05/01 18:19:22","新北市中和區中正路637巷60弄61號","121.485418333333","24.9926983333333","6500300","中和區"
"235038","185-VK","2018/05/01 18:19:32","新北市中和區秀朗路三段128巷11號","121.524465","24.993285","6500300","中和區"
"235049","186-VK","2018/05/01 18:19:32","新北市中和區中正路395號","121.489955","24.9935683333333","6500300","中和區"
"235067","255-BX","2018/05/01 18:19:31","新北市中和區和城路一段271巷1號","121.485771666667","24.991825","6500300","中和區"
"235072","301-VK","2018/05/01 18:19:35","新北市中和區連城路196號","121.491978333333","24.9966233333333","6500300","中和區"
"235043","352-BY","2018/05/01 18:19:22","新北市中和區景平路369號","121.504355","24.993475","6500300","中和區"
"235068","377-QA","2018/05/01 18:16:47","新北市中和區員山路36巷16-3號","121.484981666667","24.99134","6500300","中和區"
"235061","378-QA","2018/05/01 18:19:34","新北市中和區民德路248號","121.467951666667","24.99728","6500300","中和區"
"235050","4979-A6","2018/05/01 18:19:34","新北市中和區捷運路100-1號","121.50628","24.99128","6500300","中和區"
"235069","4980-A6","2018/05/01 18:19:35","新北市中和區景平路477號","121.50022","24.9971233333333","6500300","中和區"
"235042","551-UM","2018/05/01 18:19:34","新北市中和區大仁街46號","121.518483333333","24.9936883333333","6500300","中和區"
"235070","558-UM","2018/05/01 18:19:25","新北市中和區圓通路162-5號","121.497495","24.9950616666667","6500300","中和區"
"235045","565-BX","2018/05/01 18:19:33","新北市中和區景安路200巷4弄2號","121.503716666667","24.9915766666667","6500300","中和區"
"235054","640-BX","2018/05/01 18:19:22","新北市中和區民享街86巷26號","121.473401666667","25.00064","6500300","中和區"
"235060","647-TV","2018/05/01 18:19:21","新北市中和區員山路283號","121.481253333333","24.99973","6500300","中和區"
"235047","732-UM","2018/05/01 18:19:26","新北市中和區南山路513號","121.508041666667","24.9874633333333","6500300","中和區"
"235046","733-UM","2018/05/01 18:19:26","新北市中和區和城路一段271巷1號","121.485481666667","24.9918866666667","6500300","中和區"
"235062","800-TS","2018/05/01 18:19:22","新北市中和區景平路999巷2號","121.49534","25.0060716666667","6500300","中和區"
"235057","801-TS","2018/05/01 18:19:24","新北市中和區民享街97巷11號","121.475236666667","24.999535","6500300","中和區"
"235052","805-TS","2018/05/01 18:19:26","新北市中和區興南路二段133號","121.505101666667","24.9840133333333","6500300","中和區"
"235048","896-TW","2018/05/01 18:19:21","新北市中和區中正路395號","121.489878333333","24.9935633333333","6500300","中和區"
"235053","900-TW","2018/05/01 18:19:28","新北市中和區員山路36巷16-2號","121.485016666667","24.9918833333333","6500300","中和區"
"235066","911-UM","2018/05/01 18:19:17","新北市中和區中山路二段181號","121.500885","25.002755","6500300","中和區"
"235051","157-BY","2018/05/01 18:19:25","新北市中和區忠孝街93號","121.512103333333","24.985575","6500300","中和區"
"235037","AAC-213","2018/05/01 18:19:21","新北市中和區景德街67號","121.516841666667","24.9913916666667","6500300","中和區"
"247010","341-TH","2018/05/01 18:19:29","新北市八里區中山路三段112號","121.386923333333","25.1460233333333","6501400","蘆洲區"
"226004","205-ST","2018/05/01 18:19:24","新北市平溪區薯榔里一坑路17號","121.713833333333","25.021575","6502400","平溪區"
"228001","212-TW","2018/05/01 18:19:34","新北市貢寮區真理里新港街26巷55弄2-1號","121.927393333333","25.05288","6502600","貢寮區"
"228002","585-TW","2018/05/01 18:19:22","新北市貢寮區福連里福興街39-3號","121.994713333333","25.0147166666667","6502600","貢寮區"
"228003","828-UM","2018/05/01 18:19:24","新北市貢寮區真理里美艷山街64-2號","121.920318333333","25.07223","6502600","貢寮區"
"224010","AGQ-8101","2018/05/01 17:58:35","新北市瑞芳區金光路374號","121.849268333333","25.111325","6501200","瑞芳區"
"224006","676-BX","2018/05/01 18:19:17","新北市瑞芳區民權街3-2號","121.808183333333","25.107465","6501200","瑞芳區"
"224002","639-TC","2018/05/01 18:19:34","新北市瑞芳區三爪子坑路149巷22-7號","121.811475","25.10623","6501200","瑞芳區"
"224008","285-BY","2018/05/01 18:19:20","新北市瑞芳區逢甲路9號","121.810003333333","25.1085566666667","6501200","瑞芳區"
"224007","275-VK","2018/05/01 18:19:29","新北市瑞芳區大埔路有勝新村3號","121.76489","25.1011866666667","6501200","瑞芳區"
"224009","273-VK","2018/05/01 18:19:20","新北市瑞芳區新山路31號","121.855906666667","25.1083616666667","6501200","瑞芳區"
"224005","271-BY","2018/05/01 18:19:10","新北市瑞芳區建基路二段3號","121.811125","25.1324716666667","6501200","瑞芳區"
"227009","642-TC","2018/05/01 18:19:31","新北市雙溪區牡丹里牡丹73號","121.851706666667","25.0594066666667","6502500","雙溪區"
"227003","400-TW","2018/05/01 18:19:25","新北市雙溪區共和里中山路2號","121.863805","25.0338","6502500","雙溪區"
"253005","032-BX","2018/05/01 18:19:30","新北市石門區中央路1-13號","121.561546666667","25.2910183333333","6502200","石門區"
"253006","295-VK","2018/05/01 18:19:30","新北市石門區老梅路20號","121.545381666667","25.289225","6502200","石門區"
"222001","KEA-2212","2018/05/01 18:19:19","新北市深坑區北深路二段51號","121.618993333333","25.00407","6501800","深坑區"
"208002","KEA-2872","2018/05/01 18:19:32","新北市金山區清泉里清水路60巷20號","121.635296666667","25.233325","6502700","金山區"
"208003","665-BX","2018/05/01 18:19:20","新北市金山區民生路1154號","121.647095","25.2232633333333","6502700","金山區"
"208001","761-BX","2018/05/01 18:19:32","新北市金山區自強路11號","121.640368333333","25.2166116666667","6502700","金山區"
"251016","008-UM","2018/05/01 18:19:18","新北市淡水區下圭柔山34-3號","121.450598333333","25.2048183333333","6501000","淡水區"
"251004","010-UM","2018/05/01 18:19:28","新北市淡水區民族路89號","121.462721666667","25.1338966666667","6501000","淡水區"
"251013","KEA-2871","2018/05/01 18:19:23","新北市淡水區行忠路668號","121.47052","25.19913","6501000","淡水區"
"251014","180-VK","2018/05/01 18:19:18","新北市淡水區崙頂13號","121.491478333333","25.2195683333333","6501000","淡水區"
"251008","181-VK","2018/05/01 18:19:25","新北市淡水區水源街二段346巷1弄1號","121.464341666667","25.1754983333333","6501000","淡水區"
"251015","182-VK","2018/05/01 18:19:33","新北市淡水區興福寮66巷529號","121.484916666667","25.1646716666667","6501000","淡水區"
"251010","413-VK","2018/05/01 18:19:27","新北市淡水區淡海路199號","121.420406666667","25.184895","6501000","淡水區"
"251012","441-VK","2018/05/01 18:19:17","新北市淡水區北新路二段77-5號","121.480466666667","25.18555","6501000","淡水區"
"251007","442-VK","2018/05/01 18:19:31","新北市淡水區中正東路二段143巷2弄1號","121.460606666667","25.14728","6501000","淡水區"
"251005","443-VK","2018/05/01 18:19:21","新北市淡水區學府路51巷6弄7號","121.447543333333","25.1700833333333","6501000","淡水區"
"251001","559-UM","2018/05/01 18:19:33","新北市淡水區自強路299號","121.461553333333","25.1315083333333","6501000","淡水區"
"251006","561-UM","2018/05/01 18:19:28","新北市淡水區新民街76巷24號","121.439116666667","25.1771166666667","6501000","淡水區"
"251011","650-BX","2018/05/01 18:19:21","新北市淡水區坪頂路51巷2號","121.458158333333","25.162515","6501000","淡水區"
"251002","672-BX","2018/05/01 18:19:31","新北市淡水區中正東路一段77號","121.452781666667","25.1621016666667","6501000","淡水區"
"251003","673-BX","2018/05/01 18:19:34","新北市淡水區北新路137號","121.44947","25.17881","6501000","淡水區"
"207003","550-UM","2018/05/01 18:19:25","新北市萬里區野柳里港東路24號","121.687531666667","25.2037433333333","6502800","萬里區"
"207004","225-TW","2018/05/01 18:19:32","新北市萬里區中幅里中福路41號","121.678451666667","25.16694","6502800","萬里區"
"252002","178-VK","2018/05/01 18:19:36","新北市三芝區中山路二段33號","121.502833333333","25.255215","6502100","三芝區"
"252003","249-BX","2018/05/01 18:19:22","新北市三芝區錫板里南勢崗6號","121.47932","25.26202","6502100","三芝區"
"252001","292-VK","2018/05/01 18:19:32","新北市三芝區中興街二段2號","121.498348333333","25.2566333333333","6502100","三芝區"
"237004","KEA-2597","2018/05/01 18:19:27","新北市三峽區五寮41-25號","121.365481666667","24.86286","6500900","三峽區"
"237007","153-BY","2018/05/01 18:19:16","新北市三峽區中正路三段70巷54號","121.355233333333","24.9049483333333","6500900","三峽區"
"237011","572-TV","2018/05/01 18:19:31","新北市三峽區成福路8-2號","121.416835","24.9281366666667","6500900","三峽區"
"237009","210-TH","2018/05/01 18:19:32","新北市三峽區中山路152巷24號","121.365215","24.9369766666667","6500900","三峽區"
"237013","252-BX","2018/05/01 18:19:32","新北市三峽區介壽路一段232號","121.378508333333","24.9303033333333","6500900","三峽區"
"237012","275-BY","2018/05/01 18:19:21","新北市三峽區民生街1巷6-9號","121.377051666667","24.9357333333333","6500900","三峽區"
"237008","302-VK","2018/05/01 18:19:31","新北市三峽區白雞68-101號","121.392463333333","24.90861","6500900","三峽區"
"237014","433-BY","2018/05/01 18:19:33","新北市三峽區復興路59號","121.373183333333","24.9372033333333","6500900","三峽區"
"237006","5529-G3","2018/05/01 18:19:28","新北市三峽區溪東路369號","121.411851666667","24.9295283333333","6500900","三峽區"
"237010","706-TV","2018/05/01 18:19:32","新北市三峽區中山路126號","121.3655","24.9360016666667","6500900","三峽區"
"237005","AKY-6261","2018/05/01 18:19:14","新北市三峽區秀川街82號","121.370616666667","24.9334916666667","6500900","三峽區"
"236070","105-UM","2018/05/01 18:19:36","新北市土城區永豐路149-2號","121.467213333333","24.9826416666667","6501300","土城區"
"236042","107-UM","2018/05/01 18:19:19","新北市土城區樂利街3巷18號","121.448606666667","24.986385","6501300","土城區"
"236079","166-UM","2018/05/01 18:19:22","新北市土城區永平街2巷10號","121.426886666667","24.9632433333333","6501300","土城區"
"236030","253-BX","2018/05/01 18:19:22","新北市土城區順風路41號","121.440696666667","24.9768116666667","6501300","土城區"
"236026","269-VK","2018/05/01 18:19:28","新北市土城區承天路18號","121.43949","24.96344","6501300","土城區"
"236014","270-VK","2018/05/01 18:19:22","新北市土城區立清街69號","121.460298333333","24.987295","6501300","土城區"
"236038","271-VK","2018/05/01 18:19:22","新北市土城區青雲路451巷8弄13號","121.459623333333","24.97422","6501300","土城區"
"236021","401-BY","2018/05/01 18:19:21","新北市土城區明德路一段398號","121.45301","24.97963","6501300","土城區"
"236059","912-UM","2018/05/01 18:19:24","新北市土城區中央路四段307-3號","121.410811666667","24.9514666666667","6501300","土城區"
"236049","913-UM","2018/05/01 18:19:24","新北市土城區明德路一段375-1號","121.454873333333","24.9781533333333","6501300","土城區"
"236063","915-UM","2018/05/01 18:19:35","新北市土城區延壽路13巷2號","121.471065","24.9904616666667","6501300","土城區"
"236055","AAC-216","2018/05/01 18:19:30","新北市土城區中華路二段102號","121.438083333333","24.9743666666667","6501300","土城區"
"242058","986-R7","2018/05/01 18:19:27","桃園市龜山區萬壽路一段42號","121.40884","25.0192066666667","6500500","新莊區"
"242054","751-BX","2018/05/01 18:19:21","新北市新莊區西盛街395巷25弄11號","121.428411666667","25.0120783333333","6500500","新莊區"
"242027","615-BX","2018/05/01 18:19:32","新北市新莊區幸福路823號","121.445281666667","25.04901","6500500","新莊區"
"242025","613-BX","2018/05/01 18:19:34","新北市新莊區五權一路12巷18號","121.457373333333","25.06437","6500500","新莊區"
"242029","612-BX","2018/05/01 18:19:33","新北市泰山區泰林路一段2號","121.442023333333","25.0478933333333","6500500","新莊區"
"242042","566-BX","2018/05/01 18:19:20","新北市新莊區天祥街87號","121.415313333333","25.0294683333333","6500500","新莊區"
"242046","497-BY","2018/05/01 18:19:22","新北市新莊區中正路829巷39號","121.421381666667","25.0275183333333","6500500","新莊區"
"242056","440-UM","2018/05/01 18:19:31","新北市新莊區瓊林路38巷27號","121.447025","25.03047","6500500","新莊區"
"242007","413-TV","2018/05/01 18:19:23","新北市新莊區中安街1號","121.452773333333","25.0451816666667","6500500","新莊區"
"242044","400-BY","2018/05/01 18:19:18","新北市新莊區新北大道七段339號","121.412901666667","25.0276366666667","6500500","新莊區"
"242061","353-BY","2018/05/01 18:19:23","新北市新莊區四維路5號","121.423975","25.025005","6500500","新莊區"
"242009","132-UY","2018/05/01 18:19:21","新北市新莊區昌盛街2巷1弄2號","121.453053333333","25.0495366666667","6500500","新莊區"
"242032","135-UY","2018/05/01 18:19:15","新北市新莊區新泰路255巷51號","121.444033333333","25.0394633333333","6500500","新莊區"
"242048","172-VK","2018/05/01 18:19:32","新北市樹林區中正路280-1號","121.415783333333","25.0095216666667","6500500","新莊區"
"242011","173-VK","2018/05/01 18:19:04","新北市新莊區中榮街6號","121.45114","25.0529433333333","6500500","新莊區"
"242021","348-TH","2018/05/01 18:19:17","新北市新莊區新興街64號","121.450785","25.0377516666667","6500500","新莊區"
"242037","349-TH","2018/05/01 18:19:24","新北市新莊區後港一路31巷3弄2號","121.425033333333","25.0266783333333","6500500","新莊區"
"238015","755-BX","2018/05/01 18:19:32","新北市樹林區文化街112巷55號","121.417913333333","24.9910966666667","6500700","樹林區"
"238023","601-UM","2018/05/01 18:19:24","新北市樹林區三寶街7號","121.406618333333","25.0156233333333","6500700","樹林區"
"238019","599-UM","2018/05/01 18:19:36","新北市樹林區國凱街112號","121.421985","24.9796733333333","6500700","樹林區"
"238018","571-TV","2018/05/01 18:19:31","新北市樹林區保安街一段18-3號","121.427588333333","24.9935233333333","6500700","樹林區"
"238024","5061-A6","2018/05/01 18:19:29","新北市樹林區育英街2巷66號","121.423838333333","24.990945","6500700","樹林區"
"238022","KEA-2213","2018/05/01 18:19:31","新北市樹林區中華路381號","121.412116666667","24.98033","6500700","樹林區"
"238025","303-VK","2018/05/01 18:19:38","新北市樹林區保安街一段198號","121.421356666667","24.99574","6500700","樹林區"
"238017","283-BY","2018/05/01 18:19:32","新北市樹林區保安街二段337巷39號","121.411033333333","25.0081066666667","6500700","樹林區"
"238014","282-BY","2018/05/01 18:19:29","新北市樹林區大安路111巷6號","121.423055","24.9974316666667","6500700","樹林區"
"238020","268-VK","2018/05/01 18:19:32","新北市樹林區三俊街35號","121.412356666667","25.0156316666667","6500700","樹林區"
"238026","172-UY","2018/05/01 18:19:16","新北市樹林區佳園路一段75巷40號","121.39598","24.970585","6500700","樹林區"
"238016","169-UY","2018/05/01 18:19:15","新北市樹林區文化街28號","121.41928","24.9876916666667","6500700","樹林區"
"239007","AAC-297","2018/05/01 18:19:19","新北市鶯歌區育英街91號","121.34741","24.9514883333333","6500800","鶯歌區"
"239006","891-R6","2018/05/01 18:19:22","新北市鶯歌區德昌街3-1號","121.333796666667","24.960615","6500800","鶯歌區"
"239008","527-UM","2018/05/01 18:19:33","新北市鶯歌區國際一路179號","121.33622","24.9765116666667","6500800","鶯歌區"
"239005","526-UM","2018/05/01 18:19:18","新北市鶯歌區鳳吉二街45號","121.326503333333","24.97327","6500800","鶯歌區"
"239001","417-VK","2018/05/01 18:19:31","新北市鶯歌區國中街178號","121.338436666667","24.9392733333333","6500800","鶯歌區"
"239003","360-BY","2018/05/01 18:19:32","新北市鶯歌區福安街13巷1號","121.335563333333","24.965345","6500800","鶯歌區"
"239002","359-BY","2018/05/01 18:19:13","新北市鶯歌區文化路124號","121.351858333333","24.95194","6500800","鶯歌區"
"239004","193-VK","2018/05/01 18:19:20","新北市鶯歌區尖山路293巷13號","121.34154","24.9442533333333","6500800","鶯歌區"
"221008","489-VK","2018/05/01 18:19:25","新北市汐止區汐萬路一段256巷3號","121.653376666667","25.074545","6501100","汐止區"
"221036","130-UY","2018/05/01 18:19:28","新北市汐止區保長路1號","121.670935","25.0802116666667","6501100","汐止區"
"221015","131-UY","2018/05/01 18:19:15","新北市汐止區鄉長路二段23巷12號","121.667473333333","25.0829716666667","6501100","汐止區"
"221010","269-BY","2018/05/01 18:19:27","新北市汐止區祥雲街18巷23號","121.647403333333","25.0894016666667","6501100","汐止區"
"221012","278-VK","2018/05/01 18:19:20","新北市汐止區保長路35巷10號","121.672841666667","25.0796383333333","6501100","汐止區"
"221023","279-VK","2018/05/01 18:19:33","新北市汐止區康寧街474巷18-1號","121.631346666667","25.06763","6501100","汐止區"
"221032","280-BY","2018/05/01 18:19:16","新北市汐止區力行街40號","121.616383333333","25.050055","6501100","汐止區"
"221027","281-BY","2018/05/01 18:19:35","新北市汐止區和平街21號","121.662773333333","25.0706783333333","6501100","汐止區"
"221029","298-VK","2018/05/01 18:19:32","新北市汐止區樟樹二路330巷72號","121.642863333333","25.070065","6501100","汐止區"
"221021","299-VK","2018/05/01 18:19:19","新北市汐止區忠孝東路20-1號","121.654141666667","25.0620716666667","6501100","汐止區"
"221031","353-TW","2018/05/01 18:19:18","新北市汐止區光復街8巷8號","121.638585","25.0578683333333","6501100","汐止區"
"221035","622-UM","2018/05/01 18:19:22","新北市汐止區大同路二段173號","121.651336666667","25.0644683333333","6501100","汐止區"
"221025","623-UM","2018/05/01 18:19:32","新北市汐止區勤進路12巷39號","121.659126666667","25.0627166666667","6501100","汐止區"
"221038","646-BX","2018/05/01 18:19:35","新北市汐止區忠孝東路303號","121.66426","25.0689916666667","6501100","汐止區"
"221033","647-BX","2018/05/01 18:19:20","新北市汐止區宜興街59巷13號","121.621738333333","25.0426933333333","6501100","汐止區"
"221002","707-TV","2018/05/01 18:19:21","新北市汐止區福德一路213巷33號","121.635688333333","25.0647333333333","6501100","汐止區"
"221018","753-BX","2018/05/01 18:19:29","新北市汐止區茄苳路88巷32號","121.667651666667","25.069925","6501100","汐止區"
"242002","KEA-2550","2018/05/01 18:19:24","新北市新莊區碧江街27-7號","121.452666666667","25.03332","6500500","新莊區"
