"lineid","car","time","location","longitude","latitude","cityid","cityname"
"234081","298-R6","2018/05/01 20:29:24","新北市永和區永貞路82號","121.52016","25.005045","6500400","永和區"
"234038","336-UY","2018/05/01 20:29:34","新北市永和區民樂街39巷23號","121.5289","25.000535","6500400","永和區"
"234064","337-UY","2018/05/01 20:29:33","新北市永和區秀朗路一段139巷14號","121.516938333333","25.0048416666667","6500400","永和區"
"234086","338-UY","2018/05/01 20:29:25","新北市永和區光復街13號","121.5165","25.0173416666667","6500400","永和區"
"234070","552-UM","2018/05/01 20:29:34","新北市永和區永亨路6-1號","121.519533333333","25.0055816666667","6500400","永和區"
"234030","746-BX","2018/05/01 20:29:36","新北市中和區自強路52號","121.520131666667","24.9947516666667","6500400","永和區"
"234054","KEA-2590","2018/05/01 20:29:32","新北市永和區光復街31-1號","121.516608333333","25.0179583333333","6500400","永和區"
"234061","AAD-866","2018/05/01 20:29:31","新北市永和區安樂路194巷19號","121.515853333333","25.00102","6500400","永和區"
"234042","862-TW","2018/05/01 20:29:38","新北市永和區安樂路284號","121.5144","25.0044983333333","6500400","永和區"
"234050","863-TW","2018/05/01 20:29:26","新北市永和區新生路172號","121.506228333333","25.01391","6500400","永和區"
"249001","173-UM","2018/05/01 20:29:20","新北市八里區下罟子5-11號","121.386876666667","25.1423033333333","6502300","八里區"
"249004","303-UY","2018/05/01 20:29:26","新北市八里區中山路一段129巷19號","121.413968333333","25.158765","6502300","八里區"
"249003","593-UM","2018/05/01 20:29:18","新北市八里區華峰一街27-1號","121.399233333333","25.1465333333333","6502300","八里區"
"248002","678-BX","2018/05/01 20:29:22","新北市五股區新五路三段12號","121.44377","25.087325","6501500","五股區"
"234023","9380-KE","2018/05/01 20:29:21","新北市永和區光復街2巷16弄27號","121.51805","25.0163783333333","6500400","永和區"
"234077","969-R7","2018/05/01 20:29:31","新北市中和區景新街555號","121.515195","24.9864366666667","6500400","永和區"
"234074","AAC-211","2018/05/01 20:29:33","新北市永和區福和路8巷5號","121.524786666667","25.0091683333333","6500400","永和區"
"234067","AAC-212","2018/05/01 20:29:31","新北市永和區保平路292巷46弄2號","121.507511666667","25.0053383333333","6500400","永和區"
"234003","AAC-295","2018/05/01 20:29:38","新北市永和區中正路531號","121.516783333333","25.0077566666667","6500400","永和區"
"243009","297-R6","2018/05/01 20:29:35","新北市泰山區忠孝街43號","121.428958333333","25.065425","6501600","泰山區"
"243016","380-SR","2018/05/01 20:29:27","新北市泰山區明志路三段1號","121.424861666667","25.04358","6501600","泰山區"
"243015","421-VK","2018/05/01 20:29:20","新北市泰山區福興三街9號","121.43471","25.0579083333333","6501600","泰山區"
"243011","KEA-2215","2018/05/01 20:29:17","新北市新莊區壽山路160巷21號","121.417395","25.0318666666667","6501600","泰山區"
"243010","KEA-2216","2018/05/01 20:29:32","新北市泰山區新生路31巷7號","121.427676666667","25.0458616666667","6501600","泰山區"
"243012","646-TV","2018/05/01 20:29:34","新北市泰山區泰林路二段364號","121.428731666667","25.063755","6501600","泰山區"
"243014","680-BX","2018/05/01 20:29:26","新北市泰山區泰林路二段504號","121.424496666667","25.06423","6501600","泰山區"
"222003","016-RS","2018/05/01 20:29:34","新北市深坑區深坑街27號","121.616001666667","25.0023166666667","6501800","深坑區"
"222002","659-BX","2018/05/01 20:29:36","新北市深坑區萬福路16巷3號","121.603635","25.0078433333333","6501800","深坑區"
"231059","046-UY","2018/05/01 20:29:34","新北市新店區安德街173號","121.508765","24.958885","6500600","新店區"
"231040","047-UY","2018/05/01 20:29:38","新北市新店區中正路346號","121.536371666667","24.9752166666667","6500600","新店區"
"231044","106-UY","2018/05/01 20:29:36","新北市新店區建國路137號","121.53915","24.978505","6500600","新店區"
"231053","108-UY","2018/05/01 20:29:20","新北市新店區松林路36號","121.546223333333","24.9102883333333","6500600","新店區"
"231048","187-VK","2018/05/01 20:29:25","新北市新店區寶慶街58巷21-1號","121.541996666667","24.9872783333333","6500600","新店區"
"231054","KEA-2219","2018/05/01 20:29:36","新北市新店區檳榔路109號","121.544523333333","24.9616433333333","6500600","新店區"
"231057","256-BX","2018/05/01 20:29:28","新北市新店區花園十路二段7-6號","121.55425","24.9343","6500600","新店區"
"231051","278-BY","2018/05/01 20:29:33","新北市新店區中央六街14號","121.529941666667","24.9746366666667","6500600","新店區"
"231060","355-BY","2018/05/01 20:29:36","新北市新店區錦秀路54號","121.479045","24.943275","6500600","新店區"
"231058","3713-VJ","2018/05/01 20:29:19","新北市新店區自由街27號","121.535003333333","24.974385","6500600","新店區"
"231066","4716-K9","2018/05/01 20:29:19","新北市新店區安民街341-1號","121.516776666667","24.9748783333333","6500600","新店區"
"231056","4715-K9","2018/05/01 20:29:35","新北市新店區民生路75巷221號","121.53208","24.98178","6500600","新店區"
"231067","4772-VM","2018/05/01 20:29:28","新北市新店區安華路28-1號","121.5194","24.9610983333333","6500600","新店區"
"231065","512-UM","2018/05/01 20:29:24","新北市新店區安祥路102巷42弄37號","121.485345","24.9634633333333","6500600","新店區"
"231049","513-UM","2018/05/01 20:29:32","新北市新店區華潭街22號","121.529131666667","24.952885","6500600","新店區"
"231042","515-UM","2018/05/01 20:29:30","新北市新店區寶橋路132號","121.547286666667","24.9760783333333","6500600","新店區"
"231063","616-UM","2018/05/01 20:29:31","新北市新店區玫瑰路4-1號","121.49359","24.9513883333333","6500600","新店區"
"231045","617-UM","2018/05/01 20:29:24","新北市新店區長春路21巷1號","121.549338333333","24.9581383333333","6500600","新店區"
"231041","618-UM","2018/05/01 20:29:33","新北市新店區中正路501-5號","121.533573333333","24.98386","6500600","新店區"
"231061","619-UM","2018/05/01 20:29:29","新北市新店區安業街2號","121.515488333333","24.9788283333333","6500600","新店區"
"231068","718-UY","2018/05/01 20:29:36","新北市新店區寶元路一段74巷21號","121.543061666667","24.9838683333333","6500600","新店區"
"231064","719-UM","2018/05/01 20:29:18","新北市新店區永安街74巷24號","121.519168333333","24.9859866666667","6500600","新店區"
"231062","720-UM","2018/05/01 20:29:26","新北市新店區安泰路7巷17號","121.485696666667","24.9507133333333","6500600","新店區"
"231043","899-TW","2018/05/01 20:29:29","新北市新店區民族路51號","121.54018","24.9785666666667","6500600","新店區"
"241011","013-R5","2018/05/01 20:29:38","新北市三重區龍門路42號","121.49606","25.0724433333333","6500200","三重區"
"241028","022-UY","2018/05/01 20:29:30","新北市三重區光興街91號","121.497353333333","25.0599733333333","6500200","三重區"
"241008","059-VK","2018/05/01 20:29:24","新北市三重區下竹圍街42號","121.48107","25.0748416666667","6500200","三重區"
"241009","060-VK","2018/05/01 20:29:25","新北市三重區永福街58巷1弄4號","121.481223333333","25.0779466666667","6500200","三重區"
"241031","061-VK","2018/05/01 20:29:23","新北市三重區三寧街18號","121.489376666667","25.0598583333333","6500200","三重區"
"241015","062-VK","2018/05/01 20:29:35","新北市三重區正義北路107巷68號","121.498681666667","25.0659916666667","6500200","三重區"
"241017","063-VK","2018/05/01 20:29:36","新北市三重區自強路一段288號","121.491611666667","25.06819","6500200","三重區"
"241024","065-VK","2018/05/01 20:29:26","新北市三重區忠孝路三段7巷10號","121.481211666667","25.0677566666667","6500200","三重區"
"241026","066-VK","2018/05/01 20:29:30","新北市三重區福德南路24巷3號","121.503138333333","25.0631583333333","6500200","三重區"
"241002","090-VK","2018/05/01 20:29:26","新北市三重區仁義街211巷53號","121.498206666667","25.0827166666667","6500200","三重區"
"241003","091-VK","2018/05/01 20:29:26","新北市三重區富華街222號","121.493618333333","25.08533","6500200","三重區"
"241005","262-UM","2018/05/01 20:29:41","新北市三重區碧華街311號","121.49083","25.0841483333333","6500200","三重區"
"241016","266-UM","2018/05/01 20:29:20","新北市三重區正義北路99號","121.497005","25.065345","6500200","三重區"
"241022","267-UM","2018/05/01 20:29:23","新北市三重區中正北路20巷2號","121.488181666667","25.0629","6500200","三重區"
"241018","268-UM","2018/05/01 20:29:20","新北市三重區雙園街85號","121.494073333333","25.0674083333333","6500200","三重區"
"241032","269-UM","2018/05/01 20:29:32","新北市三重區重陽路一段120巷35號","121.485215","25.0603","6500200","三重區"
"241013","270-UM","2018/05/01 20:29:27","新北市三重區溪尾街5巷10號","121.492191666667","25.0745566666667","6500200","三重區"
"241025","271-UM","2018/05/01 20:29:28","新北市三重區頂崁街210巷27號","121.4758","25.068125","6500200","三重區"
"241007","398-BY","2018/05/01 20:29:23","新北市三重區自強路四段12號","121.48843","25.0762716666667","6500200","三重區"
"241035","KEA-2210","2018/05/01 20:29:29","新北市三重區重新路二段11-2號","121.498568333333","25.0625216666667","6500200","三重區"
"241004","475-VK","2018/05/01 20:29:19","新北市三重區溪尾街229號","121.488276666667","25.0813116666667","6500200","三重區"
"241020","478-VK","2018/05/01 20:29:23","新北市三重區忠孝路一段3號","121.492295","25.0717833333333","6500200","三重區"
"241030","480-VK","2018/05/01 20:29:39","新北市三重區成功路60號","121.488716666667","25.050955","6500200","三重區"
"241014","543-UM","2018/05/01 20:29:28","新北市三重區長興街97號","121.50174","25.069155","6500200","三重區"
"241023","545-UM","2018/05/01 20:29:27","新北市三重區自由街17巷1號","121.480025","25.0666716666667","6500200","三重區"
"241001","547-UM","2018/05/01 20:29:24","新北市三重區自強路四段22號","121.488766666667","25.0765283333333","6500200","三重區"
"241019","KEA-2593","2018/05/01 20:29:32","新北市三重區重陽路四段81號","121.492611666667","25.07101","6500200","三重區"
"241012","941-UM","2018/05/01 20:29:29","新北市三重區龍濱路257號","121.501455","25.0728583333333","6500200","三重區"
"241029","942-UM","2018/05/01 20:29:34","新北市三重區集美街221號","121.491896666667","25.0548566666667","6500200","三重區"
"241033","AAC-255","2018/05/01 20:29:26","新北市三重區五谷王北街80巷44號","121.475131666667","25.052675","6500200","三重區"
"235039","097-UM","2018/05/01 20:29:26","新北市中和區大勇街27巷18號","121.516675","24.993955","6500300","中和區"
"235050","4979-A6","2018/05/01 20:29:34","新北市中和區景新街131號","121.505861666667","24.99734","6500300","中和區"
"235069","4980-A6","2018/05/01 20:29:35","新北市中和區連城路347巷18弄11號","121.487301666667","24.9948133333333","6500300","中和區"
"235042","551-UM","2018/05/01 20:29:34","新北市中和區興南路二段342-10號","121.499316666667","24.9800816666667","6500300","中和區"
"235066","911-UM","2018/05/01 20:29:37","新北市中和區水源路102號","121.506158333333","25.0034416666667","6500300","中和區"
"235059","AAC-215","2018/05/01 20:29:38","新北市中和區員山路39號","121.482196666667","24.9911583333333","6500300","中和區"
"220068","013-TV","2018/05/01 20:29:36","新北市八里區荖阡坑路4-24號","121.398178333333","25.143065","6500100","板橋區"
"247024","893-R6","2018/05/01 20:29:32","新北市蘆洲區光復路91號","121.46431","25.0856966666667","6501400","蘆洲區"
"247014","546-UM","2018/05/01 20:29:26","新北市蘆洲區中山二路179號","121.470995","25.0809083333333","6501400","蘆洲區"
"247022","500-BY","2018/05/01 20:29:37","新北市蘆洲區中正路333號","121.465576666667","25.089505","6501400","蘆洲區"
"247010","341-TH","2018/05/01 20:29:24","新北市蘆洲區信義路224號","121.479121666667","25.0853116666667","6501400","蘆洲區"
"247012","339-TH","2018/05/01 20:29:20","新北市蘆洲區復興路181號","121.478946666667","25.0894883333333","6501400","蘆洲區"
"247004","337-TH","2018/05/01 20:29:40","新北市蘆洲區長安街297號","121.45796","25.0847966666667","6501400","蘆洲區"
"247006","336-TH","2018/05/01 20:29:27","新北市蘆洲區九芎街90巷6號","121.465993333333","25.0801583333333","6501400","蘆洲區"
"247008","056-VK","2018/05/01 20:29:25","新北市蘆洲區永安北路二段76巷22號","121.482798333333","25.085405","6501400","蘆洲區"
"247016","007-UY","2018/05/01 20:29:30","新北市蘆洲區光華路80-1號","121.467768333333","25.082705","6501400","蘆洲區"
"247002","002-UY","2018/05/01 20:29:21","新北市蘆洲區長安街347巷32號","121.455516666667","25.08711","6501400","蘆洲區"
"247020","001-UY","2018/05/01 20:29:35","新北市蘆洲區仁愛街108號","121.469885","25.0950766666667","6501400","蘆洲區"
"224010","AGQ-8101","2018/05/01 20:29:35","新北市瑞芳區豎崎路33號","121.843493333333","25.108665","6501200","瑞芳區"
"222001","KEA-2212","2018/05/01 20:29:19","新北市深坑區北深路三段345號","121.59711","25.004995","6501800","深坑區"
"251016","008-UM","2018/05/01 20:29:38","新北市淡水區新埔子11-7號","121.447528333333","25.2284833333333","6501000","淡水區"
"251013","KEA-2871","2018/05/01 20:29:03","新北市淡水區後坑子5號","121.463323333333","25.2067483333333","6501000","淡水區"
"251014","180-VK","2018/05/01 20:29:38","新北市淡水區石頭厝9-6號","121.460503333333","25.2377166666667","6501000","淡水區"
"251008","181-VK","2018/05/01 20:29:31","新北市淡水區淡海路189巷2弄8號","121.420095","25.1846266666667","6501000","淡水區"
"251015","182-VK","2018/05/01 20:29:33","新北市淡水區淡金路四段542巷17號","121.452718333333","25.227075","6501000","淡水區"
"251010","413-VK","2018/05/01 20:29:40","新北市淡水區沙崙路181巷2號","121.424471666667","25.183915","6501000","淡水區"
"251012","441-VK","2018/05/01 20:29:36","新北市淡水區興仁路108號","121.451688333333","25.2181483333333","6501000","淡水區"
"251001","559-UM","2018/05/01 20:29:33","新北市淡水區北新路一段69-5號","121.452618333333","25.1808283333333","6501000","淡水區"
"251006","561-UM","2018/05/01 20:29:28","新北市淡水區商工路329號","121.463045","25.18596","6501000","淡水區"
"251009","575-R6","2018/05/01 20:29:34","新北市淡水區民族路170號","121.462011666667","25.1338016666667","6501000","淡水區"
"251002","672-BX","2018/05/01 20:29:30","新北市淡水區中正路70號","121.442865","25.1696983333333","6501000","淡水區"
"251003","673-BX","2018/05/01 20:29:22","新北市淡水區新生街100號","121.439828333333","25.1747","6501000","淡水區"
"252002","178-VK","2018/05/01 20:29:36","新北市三芝區淡金路二段47-2號","121.503723333333","25.26056","6502100","三芝區"
"252001","292-VK","2018/05/01 20:29:31","新北市三芝區中山路一段14號","121.50072","25.25813","6502100","三芝區"
"242034","AAC-296","2018/05/01 20:29:30","新北市新莊區公園一路141號","121.446621666667","25.03842","6500500","新莊區"
"242058","986-R7","2018/05/01 20:29:17","新北市新莊區四維路227號","121.421488333333","25.0196433333333","6500500","新莊區"
"242054","751-BX","2018/05/01 20:29:21","新北市新莊區西盛街362巷14號","121.427256666667","25.013745","6500500","新莊區"
"242027","615-BX","2018/05/01 20:29:26","新北市新莊區思源路331號","121.459671666667","25.049585","6500500","新莊區"
"242025","613-BX","2018/05/01 20:29:37","新北市新莊區五工三路48號","121.460141666667","25.0644883333333","6500500","新莊區"
"242029","612-BX","2018/05/01 20:29:18","新北市新莊區昌隆街31號","121.454891666667","25.05114","6500500","新莊區"
"242042","566-BX","2018/05/01 20:29:20","新北市新莊區天祥街52號","121.416578333333","25.0291016666667","6500500","新莊區"
"242046","497-BY","2018/05/01 20:29:22","新北市新莊區中正路新雅巷2弄20號","121.417653333333","25.024815","6500500","新莊區"
"242051","442-UM","2018/05/01 20:29:31","新北市新莊區民安西路270號","121.426013333333","25.0129066666667","6500500","新莊區"
"242056","440-UM","2018/05/01 20:29:38","新北市新莊區瓊泰路193號","121.443078333333","25.0318916666667","6500500","新莊區"
"242007","413-TV","2018/05/01 20:29:25","新北市新莊區福壽街56巷7號","121.458778333333","25.0488733333333","6500500","新莊區"
"242044","400-BY","2018/05/01 20:29:36","新北市新莊區中正路新建巷15弄6號","121.41443","25.0222866666667","6500500","新莊區"
"242023","362-BY","2018/05/01 20:29:36","新北市新莊區化成路205-47號","121.46587","25.0511766666667","6500500","新莊區"
"242061","353-BY","2018/05/01 20:29:31","新北市新莊區新樹路244巷17號","121.431546666667","25.018255","6500500","新莊區"
"242009","132-UY","2018/05/01 20:29:38","新北市新莊區昌隆街58巷1弄12號","121.455416666667","25.0505633333333","6500500","新莊區"
"242039","133-UY","2018/05/01 20:29:32","新北市新莊區成功街3號","121.425935","25.0219383333333","6500500","新莊區"
"242032","135-UY","2018/05/01 20:29:38","新北市新莊區中正路508巷5弄2號","121.435018333333","25.0338633333333","6500500","新莊區"
"242048","172-VK","2018/05/01 20:29:31","新北市新莊區富國路25號","121.418731666667","25.0263433333333","6500500","新莊區"
"242011","173-VK","2018/05/01 20:27:10","新北市新莊區中港路529號","121.451618333333","25.0514066666667","6500500","新莊區"
"242017","175-VK","2018/05/01 20:29:27","新北市新莊區中港三街11號","121.451036666667","25.04645","6500500","新莊區"
"242005","176-VK","2018/05/01 20:29:30","新北市新莊區化成路371巷1號","121.465571666667","25.057215","6500500","新莊區"
"242015","346-TH","2018/05/01 20:29:28","新北市新莊區中平路46巷30號","121.445955","25.0437483333333","6500500","新莊區"
"242021","348-TH","2018/05/01 20:29:33","新北市新莊區公園路12號","121.447846666667","25.038835","6500500","新莊區"
"242037","349-TH","2018/05/01 20:29:21","新北市新莊區後港一路46巷6號","121.426181666667","25.025915","6500500","新莊區"
"242019","350-TH","2018/05/01 20:29:33","新北市新莊區銘德街55號","121.457026666667","25.0436166666667","6500500","新莊區"
"242013","351-TH","2018/05/01 20:29:30","新北市新莊區中和街155巷24弄39號","121.44641","25.0513616666667","6500500","新莊區"
"238025","303-VK","2018/05/01 20:29:37","新北市樹林區中山路三段204號","121.387036666667","24.968295","6500700","樹林區"
"221008","489-VK","2018/05/01 20:29:25","新北市汐止區康寧街706-2號","121.638548333333","25.0730416666667","6501100","汐止區"
"221036","130-UY","2018/05/01 20:29:28","新北市汐止區新台五路二段79號","121.664201666667","25.0668516666667","6501100","汐止區"
"221015","131-UY","2018/05/01 20:29:34","新北市汐止區建成路160巷8號","121.661868333333","25.07366","6501100","汐止區"
"221010","269-BY","2018/05/01 20:29:27","新北市汐止區八連路二段376-1號","121.629035","25.1022166666667","6501100","汐止區"
"221012","278-VK","2018/05/01 20:29:20","新北市汐止區大同路三段279號","121.674253333333","25.0749366666667","6501100","汐止區"
"221023","279-VK","2018/05/01 20:29:33","新北市汐止區湖東街19號","121.635473333333","25.0723433333333","6501100","汐止區"
"221032","280-BY","2018/05/01 20:29:36","新北市汐止區民權街二段68號","121.619255","25.0484166666667","6501100","汐止區"
"221027","281-BY","2018/05/01 20:29:27","新北市汐止區中正路206號","121.658476666667","25.069045","6501100","汐止區"
"221029","298-VK","2018/05/01 20:29:32","新北市汐止區樟樹二路136巷10號","121.640465","25.0655383333333","6501100","汐止區"
"221021","299-VK","2018/05/01 20:29:39","新北市汐止區水源路一段291巷1號","121.654298333333","25.0583483333333","6501100","汐止區"
"221031","353-TW","2018/05/01 20:29:38","新北市汐止區中興路110巷36號","121.634368333333","25.064705","6501100","汐止區"
"221035","622-UM","2018/05/01 20:29:21","新北市汐止區長江街101-5號","121.658718333333","25.0731283333333","6501100","汐止區"
"221025","623-UM","2018/05/01 20:29:39","新北市汐止區水源路二段88巷1弄1號","121.656328333333","25.0558983333333","6501100","汐止區"
"221038","646-BX","2018/05/01 20:29:35","新北市汐止區秀峰路9號","121.659263333333","25.06633","6501100","汐止區"
"221033","647-BX","2018/05/01 20:29:20","新北市汐止區林森街73巷15號","121.623821666667","25.0413766666667","6501100","汐止區"
"221002","707-TV","2018/05/01 20:29:21","新北市汐止區福德三路75號","121.636431666667","25.0692233333333","6501100","汐止區"
"221018","753-BX","2018/05/01 20:29:28","新北市汐止區中華街131巷5號","121.669858333333","25.0704016666667","6501100","汐止區"
"220080","200-UY","2018/05/01 20:29:29","新北市新莊區中正路384號","121.442365","25.034695","6500100","板橋區"
"242002","KEA-2550","2018/05/01 20:29:39","新北市新莊區中正路74號","121.458765","25.0379316666667","6500500","新莊區"
"220103","257-TC","2018/05/01 20:29:34","新北市板橋區漢生東路23巷56弄2號","121.466058333333","25.0181883333333","6500100","板橋區"
"220083","286-VK","2018/05/01 20:29:26","新北市板橋區僑中二街106巷27號","121.444655","25.0077266666667","6500100","板橋區"
"220061","293-UM","2018/05/01 20:29:30","新北市板橋區四川路一段286巷12號","121.458288333333","25.0011033333333","6500100","板橋區"
"220102","KEA-2699","2018/05/01 20:29:36","新北市板橋區民生路二段165號","121.469693333333","25.0199683333333","6500100","板橋區"
"220089","833-TW","2018/05/01 20:29:28","新北市板橋區四維路345號","121.462355","25.02985","6500100","板橋區"
"220070","AAC-253","2018/05/01 20:29:21","新北市五股區新五路二段347號","121.443661666667","25.086715","6500100","板橋區"
