"lineid","car","time","location","longitude","latitude","cityid","cityname"
"234030","746-BX","2018/05/01 20:39:36","新北市新店區安興路39號","121.516435","24.970945","6500400","永和區"
"234054","KEA-2590","2018/05/01 20:39:38","新北市永和區環河東路一段82號","121.519508333333","25.016315","6500400","永和區"
"234061","AAD-866","2018/05/01 20:39:30","新北市永和區中正路381號","121.51722","25.0037266666667","6500400","永和區"
"249001","173-UM","2018/05/01 20:39:40","新北市八里區中山路三段275號","121.378726666667","25.1390466666667","6502300","八里區"
"249004","303-UY","2018/05/01 20:39:26","新北市八里區中山路一段157巷19號","121.413133333333","25.15824","6502300","八里區"
"234023","9380-KE","2018/05/01 20:39:34","新北市永和區竹林路25巷17弄6-1號","121.518101666667","25.0149933333333","6500400","永和區"
"234077","969-R7","2018/05/01 20:39:31","新北市新店區薏仁坑路22號","121.498628333333","24.959115","6500400","永和區"
"234074","AAC-211","2018/05/01 20:39:33","新北市永和區竹林路119巷30弄2號","121.522031666667","25.0115666666667","6500400","永和區"
"243016","380-SR","2018/05/01 20:39:27","新北市泰山區明志路二段220號","121.42731","25.0485466666667","6501600","泰山區"
"243011","KEA-2215","2018/05/01 20:39:38","新北市泰山區新北大道六段282號","121.425731666667","25.0355516666667","6501600","泰山區"
"243012","646-TV","2018/05/01 20:39:34","新北市泰山區泰林路三段370巷23號","121.411735","25.0697016666667","6501600","泰山區"
"222003","016-RS","2018/05/01 20:39:34","新北市深坑區深坑街135-1號","121.61335","25.00122","6501800","深坑區"
"222002","659-BX","2018/05/01 20:39:36","新北市深坑區萬福路45號","121.599511666667","25.0068916666667","6501800","深坑區"
"231059","046-UY","2018/05/01 20:39:34","新北市新店區僑信路99號","121.500226666667","24.9469233333333","6500600","新店區"
"231040","047-UY","2018/05/01 20:39:21","新北市新店區中正路268號","121.539068333333","24.9736216666667","6500600","新店區"
"231044","106-UY","2018/05/01 20:39:30","新北市新店區建國路293巷1號","121.536693333333","24.986175","6500600","新店區"
"231053","108-UY","2018/05/01 20:39:22","新北市新店區廣興路7-6號","121.546073333333","24.91165","6500600","新店區"
"231048","187-VK","2018/05/01 20:39:25","新北市新店區寶慶街12-2號","121.543251666667","24.9868483333333","6500600","新店區"
"231054","KEA-2219","2018/05/01 20:39:36","新北市新店區行政街43號","121.543108333333","24.9657","6500600","新店區"
"231057","256-BX","2018/05/01 20:39:28","新北市新店區花園六路二段9-2號","121.555993333333","24.93292","6500600","新店區"
"231051","278-BY","2018/05/01 20:39:33","新北市新店區中央八街128號","121.524986666667","24.9783633333333","6500600","新店區"
"231050","AAD-862","2018/05/01 20:39:20","新北市新店區中正路265巷2-1號","121.538013333333","24.9738233333333","6500600","新店區"
"231060","355-BY","2018/05/01 20:39:36","新北市新店區安康路三段738號","121.473816666667","24.9420266666667","6500600","新店區"
"231058","3713-VJ","2018/05/01 20:39:39","新北市新店區平等街25號","121.536706666667","24.9736633333333","6500600","新店區"
"231066","4716-K9","2018/05/01 20:39:19","新北市新店區安民街341-1號","121.516801666667","24.9749","6500600","新店區"
"231056","4715-K9","2018/05/01 20:39:27","新北市新店區中央七街61巷30號","121.529656666667","24.9757033333333","6500600","新店區"
"231067","4772-VM","2018/05/01 20:39:28","新北市新店區安華路28-1號","121.519415","24.96099","6500600","新店區"
"231065","512-UM","2018/05/01 20:39:24","新北市新店區安祥路102巷137號","121.486846666667","24.9645816666667","6500600","新店區"
"231049","513-UM","2018/05/01 20:39:32","新北市新店區永業路81巷1弄1-1號","121.529515","24.9493683333333","6500600","新店區"
"231042","515-UM","2018/05/01 20:39:30","新北市新店區寶橋路210號","121.55092","24.9785733333333","6500600","新店區"
"231063","616-UM","2018/05/01 20:39:31","新北市新店區玫瑰路4-1號","121.493595","24.9513883333333","6500600","新店區"
"231045","617-UM","2018/05/01 20:39:24","新北市新店區長春路41號","121.549928333333","24.957535","6500600","新店區"
"231041","618-UM","2018/05/01 20:39:33","新北市新店區中正路543-3號","121.533636666667","24.9873366666667","6500600","新店區"
"231061","619-UM","2018/05/01 20:39:29","新北市新店區新和街36號","121.51932","24.9849133333333","6500600","新店區"
"231068","718-UY","2018/05/01 20:39:36","新北市新店區寶慶街35巷3弄3號","121.543278333333","24.9861233333333","6500600","新店區"
"231064","719-UM","2018/05/01 20:39:38","新北市新店區安和路三段169號","121.516036666667","24.9860366666667","6500600","新店區"
"231062","720-UM","2018/05/01 20:39:26","新北市新店區安泰路60巷55弄93號","121.484681666667","24.945885","6500600","新店區"
"231043","899-TW","2018/05/01 20:39:29","新北市新店區建國路29號","121.54025","24.9740966666667","6500600","新店區"
"241011","013-R5","2018/05/01 20:39:36","新北市三重區龍濱路277號","121.501281666667","25.0731766666667","6500200","三重區"
"241028","022-UY","2018/05/01 20:39:30","新北市三重區光興街91號","121.49738","25.0599516666667","6500200","三重區"
"241008","059-VK","2018/05/01 20:39:24","新北市三重區下竹圍街42號","121.481078333333","25.0748583333333","6500200","三重區"
"241009","060-VK","2018/05/01 20:39:25","新北市三重區碧華街57號","121.484766666667","25.081335","6500200","三重區"
"241031","061-VK","2018/05/01 20:39:23","新北市三重區過圳街2號","121.488428333333","25.0588283333333","6500200","三重區"
"241015","062-VK","2018/05/01 20:39:22","新北市三重區文化北路103號","121.497891666667","25.0684233333333","6500200","三重區"
"241017","063-VK","2018/05/01 20:39:36","新北市三重區大同北路269號","121.490835","25.067265","6500200","三重區"
"241024","065-VK","2018/05/01 20:39:26","新北市三重區國道路一段58巷15號","121.481405","25.0721133333333","6500200","三重區"
"241026","066-VK","2018/05/01 20:39:30","新北市三重區文化南路3號","121.500053333333","25.062435","6500200","三重區"
"241002","090-VK","2018/05/01 20:39:26","新北市三重區仁義街167巷5號","121.497341666667","25.0816733333333","6500200","三重區"
"241003","091-VK","2018/05/01 20:39:26","新北市三重區五華街141巷58號","121.493468333333","25.0867333333333","6500200","三重區"
"241005","262-UM","2018/05/01 20:39:20","新北市三重區碧華街442-1號","121.493093333333","25.085815","6500200","三重區"
"241016","266-UM","2018/05/01 20:39:20","新北市三重區長壽西街143-3號","121.494291666667","25.0667066666667","6500200","三重區"
"241022","267-UM","2018/05/01 20:39:23","新北市三重區過圳街27-5號","121.487915","25.0623416666667","6500200","三重區"
"241018","268-UM","2018/05/01 20:39:40","新北市三重區正義北路206號","121.496326666667","25.0674433333333","6500200","三重區"
"241032","269-UM","2018/05/01 20:39:32","新北市三重區重陽路一段120巷35號","121.485188333333","25.0603","6500200","三重區"
"241013","270-UM","2018/05/01 20:39:27","新北市三重區三和路四段152號","121.488348333333","25.0756316666667","6500200","三重區"
"241025","271-UM","2018/05/01 20:39:28","新北市三重區頂崁街210巷36號","121.475713333333","25.0680716666667","6500200","三重區"
"241007","398-BY","2018/05/01 20:39:23","新北市三重區自強路四段22號","121.488625","25.07642","6500200","三重區"
"241035","KEA-2210","2018/05/01 20:39:29","新北市三重區正義北路288號","121.495511666667","25.0695466666667","6500200","三重區"
"241004","475-VK","2018/05/01 20:39:19","新北市三重區仁愛街415號","121.490686666667","25.081355","6500200","三重區"
"241020","478-VK","2018/05/01 20:39:23","新北市三重區永德街1號","121.489698333333","25.072225","6500200","三重區"
"241030","480-VK","2018/05/01 20:39:19","新北市三重區成功路73巷8號","121.489301666667","25.0517633333333","6500200","三重區"
"241014","543-UM","2018/05/01 20:39:28","新北市三重區萬壽街7號","121.499398333333","25.0693233333333","6500200","三重區"
"241023","545-UM","2018/05/01 20:39:27","新北市三重區自由街35巷2號","121.47896","25.0668783333333","6500200","三重區"
"241001","547-UM","2018/05/01 20:39:24","新北市三重區自強路三段110巷23號","121.486011666667","25.0746083333333","6500200","三重區"
"241019","KEA-2593","2018/05/01 20:39:32","新北市三重區大智街139號","121.490728333333","25.07089","6500200","三重區"
"241006","AAD-863","2018/05/01 20:39:40","新北市三重區車路頭街139巷14號","121.484263333333","25.0761883333333","6500200","三重區"
"241012","941-UM","2018/05/01 20:39:29","新北市三重區河邊北街174巷1號","121.503016666667","25.0734183333333","6500200","三重區"
"241029","942-UM","2018/05/01 20:39:34","新北市三重區集美街126巷27號","121.490083333333","25.0538583333333","6500200","三重區"
"241033","AAC-255","2018/05/01 20:39:26","新北市三重區光復路二段87巷10-2號","121.474301666667","25.0581483333333","6500200","三重區"
"235050","4979-A6","2018/05/01 20:39:34","新北市中和區中正路446號","121.490981666667","24.9940116666667","6500300","中和區"
"235069","4980-A6","2018/05/01 20:39:35","新北市中和區民安街4號","121.48084","25.0010233333333","6500300","中和區"
"235042","551-UM","2018/05/01 20:39:34","新北市中和區員山路36巷13號","121.484323333333","24.9907716666667","6500300","中和區"
"247024","893-R6","2018/05/01 20:39:32","新北市蘆洲區長樂路159號","121.462018333333","25.0881083333333","6501400","蘆洲區"
"247014","546-UM","2018/05/01 20:39:22","新北市蘆洲區中山一路245號","121.473258333333","25.0803883333333","6501400","蘆洲區"
"247022","500-BY","2018/05/01 20:39:37","新北市蘆洲區中正路243巷1號","121.467398333333","25.0863266666667","6501400","蘆洲區"
"247010","341-TH","2018/05/01 20:39:24","新北市蘆洲區集賢路400號","121.480221666667","25.0820433333333","6501400","蘆洲區"
"247012","339-TH","2018/05/01 20:39:21","新北市蘆洲區中興街127號","121.481798333333","25.0891683333333","6501400","蘆洲區"
"247004","337-TH","2018/05/01 20:39:20","新北市蘆洲區長安街297號","121.45802","25.084845","6501400","蘆洲區"
"247006","336-TH","2018/05/01 20:39:27","新北市蘆洲區和平路136-1號","121.466933333333","25.080755","6501400","蘆洲區"
"247018","057-VK","2018/05/01 20:39:13","新北市蘆洲區復興路154號","121.477358333333","25.08782","6501400","蘆洲區"
"247008","056-VK","2018/05/01 20:39:25","新北市蘆洲區重陽街11號","121.480756666667","25.081905","6501400","蘆洲區"
"247016","007-UY","2018/05/01 20:39:30","新北市蘆洲區中山二路211號","121.47043","25.080335","6501400","蘆洲區"
"247002","002-UY","2018/05/01 20:39:21","新北市蘆洲區長安街375巷20號","121.456523333333","25.08794","6501400","蘆洲區"
"247020","001-UY","2018/05/01 20:39:25","新北市蘆洲區民族路331號","121.473773333333","25.09165","6501400","蘆洲區"
"224010","AGQ-8101","2018/05/01 20:39:35","新北市瑞芳區汽車路7-4號","121.846786666667","25.1104716666667","6501200","瑞芳區"
"222001","KEA-2212","2018/05/01 20:39:39","新北市深坑區北深路三段234號","121.600633333333","25.0039666666667","6501800","深坑區"
"251016","008-UM","2018/05/01 20:39:18","新北市淡水區後洲子16-1號","121.449396666667","25.2240566666667","6501000","淡水區"
"251013","KEA-2871","2018/05/01 20:39:23","新北市淡水區番子厝12-3號","121.459061666667","25.2024716666667","6501000","淡水區"
"251014","180-VK","2018/05/01 20:39:38","新北市淡水區石頭厝14-33號","121.465408333333","25.2367316666667","6501000","淡水區"
"251008","181-VK","2018/05/01 20:39:31","新北市淡水區新民街294號","121.435185","25.18225","6501000","淡水區"
"251015","182-VK","2018/05/01 20:39:33","新北市淡水區淡金路四段542巷17號","121.452725","25.2270766666667","6501000","淡水區"
"251010","413-VK","2018/05/01 20:39:27","新北市淡水區沙崙路183巷5號","121.424076666667","25.1844983333333","6501000","淡水區"
"251012","441-VK","2018/05/01 20:39:36","新北市淡水區興仁路108號","121.451681666667","25.2181233333333","6501000","淡水區"
"251007","442-VK","2018/05/01 20:39:31","新北市淡水區埤島3-20號","121.44682","25.1915233333333","6501000","淡水區"
"251001","559-UM","2018/05/01 20:39:33","新北市淡水區淡金路218號","121.460083333333","25.1668183333333","6501000","淡水區"
"251006","561-UM","2018/05/01 20:39:28","新北市淡水區商工路196巷6號","121.451455","25.1868966666667","6501000","淡水區"
"251009","575-R6","2018/05/01 20:39:34","新北市淡水區民族路182號","121.461646666667","25.1336583333333","6501000","淡水區"
"251011","650-BX","2018/05/01 20:39:22","新北市淡水區新市一路一段361號","121.436293333333","25.1862266666667","6501000","淡水區"
"251002","672-BX","2018/05/01 20:39:30","新北市淡水區中正路34-1號","121.443886666667","25.1693333333333","6501000","淡水區"
"251003","673-BX","2018/05/01 20:39:18","新北市淡水區新民街120巷52號","121.438623333333","25.1784016666667","6501000","淡水區"
"252002","178-VK","2018/05/01 20:39:36","新北市三芝區淡金路二段47-2號","121.503731666667","25.2605183333333","6502100","三芝區"
"252001","292-VK","2018/05/01 20:39:31","新北市三芝區中山路一段85號","121.501101666667","25.2566216666667","6502100","三芝區"
"242034","AAC-296","2018/05/01 20:39:30","新北市新莊區建中街127號","121.445475","25.0364466666667","6500500","新莊區"
"242058","986-R7","2018/05/01 20:39:17","新北市新莊區四維路172號","121.422445","25.02202","6500500","新莊區"
"242054","751-BX","2018/05/01 20:39:29","新北市新莊區西盛街323巷24號","121.428956666667","25.0147483333333","6500500","新莊區"
"242027","615-BX","2018/05/01 20:39:26","新北市新莊區思源路63號","121.45995","25.0403466666667","6500500","新莊區"
"242025","613-BX","2018/05/01 20:39:21","新北市新莊區化成路579巷1號","121.464376666667","25.0661333333333","6500500","新莊區"
"242029","612-BX","2018/05/01 20:39:38","新北市新莊區中華路二段59號","121.453191666667","25.0471133333333","6500500","新莊區"
"242042","566-BX","2018/05/01 20:39:20","新北市新莊區中正路694巷3弄3號","121.41819","25.0281116666667","6500500","新莊區"
"242046","497-BY","2018/05/01 20:39:22","新北市新莊區中正路新生巷85弄7號","121.417715","25.0212566666667","6500500","新莊區"
"242051","442-UM","2018/05/01 20:39:37","新北市新莊區西盛街280巷12號","121.427776666667","25.0156933333333","6500500","新莊區"
"242056","440-UM","2018/05/01 20:39:38","新北市新莊區瓊泰路80巷45號","121.445003333333","25.0291733333333","6500500","新莊區"
"242007","413-TV","2018/05/01 20:39:38","新北市新莊區思源路39號","121.460063333333","25.039745","6500500","新莊區"
"242044","400-BY","2018/05/01 20:39:36","新北市新莊區龍安路106巷2號","121.418258333333","25.0203983333333","6500500","新莊區"
"242023","362-BY","2018/05/01 20:39:30","新北市新莊區復興路三段8號","121.46054","25.0445066666667","6500500","新莊區"
"242061","353-BY","2018/05/01 20:39:31","新北市新莊區新樹路268巷1號","121.432566666667","25.0135466666667","6500500","新莊區"
"242009","132-UY","2018/05/01 20:39:21","新北市新莊區昌隆街67號","121.45708","25.0510433333333","6500500","新莊區"
"242039","133-UY","2018/05/01 20:39:33","新北市新莊區民安路281-1號","121.42867","25.02215","6500500","新莊區"
"242048","172-VK","2018/05/01 20:39:31","新北市新莊區中正路596號","121.426741666667","25.0301266666667","6500500","新莊區"
"242011","173-VK","2018/05/01 20:39:24","新北市新莊區中榮街104巷11弄2號","121.447175","25.0534833333333","6500500","新莊區"
"242017","175-VK","2018/05/01 20:39:27","新北市新莊區中平路110巷18號","121.445565","25.04543","6500500","新莊區"
"242015","346-TH","2018/05/01 20:39:38","新北市新莊區中和街29號","121.448075","25.0439966666667","6500500","新莊區"
"242021","348-TH","2018/05/01 20:39:33","新北市新莊區中華路一段73號","121.45231","25.04014","6500500","新莊區"
"242037","349-TH","2018/05/01 20:39:21","新北市新莊區後港一路154號","121.430071666667","25.0274866666667","6500500","新莊區"
"242019","350-TH","2018/05/01 20:39:33","新北市新莊區中港路22號","121.455045","25.0372066666667","6500500","新莊區"
"242013","351-TH","2018/05/01 20:39:30","新北市新莊區中和街173號","121.447598333333","25.0504033333333","6500500","新莊區"
"221008","489-VK","2018/05/01 20:39:25","新北市汐止區康寧街706-2號","121.638541666667","25.0730516666667","6501100","汐止區"
"221036","130-UY","2018/05/01 20:39:28","新北市汐止區新昌路85號","121.664013333333","25.0692016666667","6501100","汐止區"
"221015","131-UY","2018/05/01 20:39:34","新北市汐止區建成路52號","121.663781666667","25.0728233333333","6501100","汐止區"
"221023","279-VK","2018/05/01 20:39:33","新北市汐止區明峰街13號","121.635115","25.0713466666667","6501100","汐止區"
"221032","280-BY","2018/05/01 20:39:36","新北市汐止區橫科路52巷14弄2號","121.618785","25.0500583333333","6501100","汐止區"
"221027","281-BY","2018/05/01 20:39:27","新北市汐止區大同路二段563-1號","121.662833333333","25.069885","6501100","汐止區"
"221029","298-VK","2018/05/01 20:39:04","新北市汐止區大同路一段437號","121.643236666667","25.06128","6501100","汐止區"
"221021","299-VK","2018/05/01 20:39:19","新北市汐止區水源路一段290號","121.654045","25.0580233333333","6501100","汐止區"
"221031","353-TW","2018/05/01 20:39:39","新北市汐止區工建路302-1號","121.63423","25.06078","6501100","汐止區"
"221035","622-UM","2018/05/01 20:39:21","新北市汐止區長江街101-5號","121.65874","25.0731966666667","6501100","汐止區"
"221025","623-UM","2018/05/01 20:39:32","新北市汐止區水源路二段152號","121.657605","25.05436","6501100","汐止區"
"221038","646-BX","2018/05/01 20:39:35","新北市汐止區大同路二段207號","121.652791666667","25.0645483333333","6501100","汐止區"
"221033","647-BX","2018/05/01 20:39:20","新北市汐止區合順街18巷8弄5號","121.620375","25.0420016666667","6501100","汐止區"
"221002","707-TV","2018/05/01 20:39:21","新北市汐止區福德二路128號","121.631195","25.0654833333333","6501100","汐止區"
"221018","753-BX","2018/05/01 20:39:30","新北市汐止區中華街81號","121.668331666667","25.07072","6501100","汐止區"
"220080","200-UY","2018/05/01 20:39:29","新北市五股區凌雲路三段24巷7號","121.437195","25.1067633333333","6500100","板橋區"
"242002","KEA-2550","2018/05/01 20:39:21","新北市新莊區明中街4號","121.458836666667","25.03825","6500500","新莊區"
"220103","257-TC","2018/05/01 20:39:24","新北市板橋區漢生東路83巷21號","121.46733","25.0166966666667","6500100","板橋區"
"220070","AAC-253","2018/05/01 20:39:41","新北市八里區下罟子8-10號","121.383183333333","25.1444733333333","6500100","板橋區"
