"lineid","car","time","location","longitude","latitude","cityid","cityname"
"248005","653-BX","2018/01/16 09:59:16","新北市五股區蓬萊路6巷10號","121.435796666667","25.0798866666667","6501500","五股區"
"231007","189-VK","2018/01/16 09:59:16","新北市新店區新潭路三段215巷25號","121.508173333333","24.9040266666667","6500600","新店區"
"231009","192-VK","2018/01/16 09:59:08","新北市新店區小坑一路12-6號","121.535036666667","24.9126533333333","6500600","新店區"
"227006","282-VK","2018/01/16 09:59:18","新北市雙溪區長源里柑腳18號","121.804708333333","25.014095","6502500","雙溪區"
"227012","030-BX","2018/01/16 09:59:18","新北市雙溪區泰平里烏山路11號","121.796871666667","24.950065","6502500","雙溪區"
"252004","249-BX","2018/01/16 09:59:09","新北市三芝區福德里土地公埔60號","121.516148333333","25.2247266666667","6502100","三芝區"
"252007","AAC-283","2018/01/16 09:59:11","新北市三芝區新庄里新庄子51-14號","121.507353333333","25.2777166666667","6502100","三芝區"
"237001","159-UY","2018/01/16 09:59:06","新北市鶯歌區三鶯路23號","121.355855","24.9414216666667","6500900","三峽區"
"239006","661-UM","2018/01/16 09:59:14","新北市樹林區中山路三段210-2號","121.381466666667","24.96572","6500800","鶯歌區"
