"lineid","car","time","location","longitude","latitude","cityid","cityname"
"231007","189-VK","2018/01/16 10:29:16","新北市新店區新潭路三段80巷43號","121.499221666667","24.9102266666667","6500600","新店區"
"231009","192-VK","2018/01/16 10:27:48","新北市新店區成功路148號","121.532496666667","24.8917466666667","6500600","新店區"
"227006","282-VK","2018/01/16 10:29:18","新北市雙溪區平林里外平林71號","121.842551666667","25.0349383333333","6502500","雙溪區"
"227012","030-BX","2018/01/16 10:29:17","新北市雙溪區泰平里料角坑40號","121.793063333333","24.9596483333333","6502500","雙溪區"
"237001","159-UY","2018/01/16 10:29:27","新北市三峽區國際一街39號","121.37311","24.942015","6500900","三峽區"
"239006","661-UM","2018/01/16 10:29:14","新北市樹林區中山路三段210-2號","121.381453333333","24.9656416666667","6500800","鶯歌區"
