"lineid","car","time","location","longitude","latitude","cityid","cityname"
"231007","189-VK","2018/01/16 10:49:25","新北市新店區新潭路一段212號","121.529203333333","24.929425","6500600","新店區"
"231009","192-VK","2018/01/16 10:48:28","新北市新店區成功路148號","121.532261666667","24.8917116666667","6500600","新店區"
"235001","611-BX","2018/01/16 10:49:11","新北市中和區德光路47號","121.470306666667","25.0039283333333","6500300","中和區"
"227006","282-VK","2018/01/16 10:49:18","新北市雙溪區新基里新基東街15-1號","121.872413333333","25.0418733333333","6502500","雙溪區"
"237001","159-UY","2018/01/16 10:49:27","新北市三峽區國學街2號","121.373841666667","24.94142","6500900","三峽區"
"239006","661-UM","2018/01/16 10:49:20","新北市樹林區中山路三段210-2號","121.380633333333","24.96659","6500800","鶯歌區"
