"lineid","car","time","location","longitude","latitude","cityid","cityname"
"231009","192-VK","2018/01/16 11:59:27","新北市新店區頂石厝路72號","121.535275","24.9184616666667","6500600","新店區"
"235031","255-BX","2018/01/16 11:45:59","新北市中和區和城路一段271巷1號","121.4856","24.9917833333333","6500300","中和區"
"235001","611-BX","2018/01/16 11:59:11","新北市中和區連城路378號","121.480956666667","24.9950533333333","6500300","中和區"
"228005","097-TW","2018/01/16 11:59:18","新北市貢寮區貢寮里朝陽街1-2號","121.912338333333","25.0212483333333","6502600","貢寮區"
"228004","212-TW","2018/01/16 11:59:18","新北市貢寮區貢寮里朝陽街1-2號","121.912208333333","25.0212883333333","6502600","貢寮區"
"227006","282-VK","2018/01/16 11:59:18","新北市雙溪區雙溪里中正路22號","121.864938333333","25.037045","6502500","雙溪區"
"221012","276-VK","2018/01/16 11:59:12","新北市汐止區康寧街901號","121.650958333333","25.0752133333333","6501100","汐止區"
