"lineid","car","time","location","longitude","latitude","cityid","cityname"
"234044","148-BY","2018/01/16 12:29:23","新北市永和區福和路1號","121.526226666667","25.0097733333333","6500400","永和區"
"234040","149-BY","2018/01/16 12:29:28","新北市永和區福和路1號","121.525401666667","25.0095466666667","6500400","永和區"
"234078","298-R6","2018/01/16 12:29:24","新北市永和區環河東路三段60號","121.526835","25.0058533333333","6500400","永和區"
"234036","336-UY","2018/01/16 12:29:10","新北市永和區福和路1號","121.526733333333","25.0101516666667","6500400","永和區"
"234084","338-UY","2018/01/16 12:29:27","新北市永和區福和路1號","121.52651","25.0096716666667","6500400","永和區"
"234068","847-RS","2018/01/16 12:29:21","新北市永和區福和路1號","121.526575","25.0100116666667","6500400","永和區"
"234048","863-TW","2018/01/16 12:29:16","新北市永和區福和路1號","121.526508333333","25.009755","6500400","永和區"
"234010","9373-KE","2018/01/16 12:29:23","新北市永和區福和路1號","121.525631666667","25.009425","6500400","永和區"
"234076","969-R7","2018/01/16 12:29:26","新北市永和區福和路1號","121.52621","25.009705","6500400","永和區"
"231030","047-UY","2018/01/16 12:29:28","新北市新店區安華路28-1號","121.519105","24.9607816666667","6500600","新店區"
"235001","611-BX","2018/01/16 12:29:11","新北市三重區光復路二段192號","121.470898333333","25.063","6500300","中和區"
"228005","097-TW","2018/01/16 12:29:18","新北市貢寮區福連里蓬萊街15號","121.987628333333","24.9978183333333","6502600","貢寮區"
"228004","212-TW","2018/01/16 12:28:58","新北市貢寮區龍崗里嵩陽街30號","121.90547","25.0189033333333","6502600","貢寮區"
"207002","749-BX","2018/01/16 12:29:10","新北市萬里區雙興里太和路7-2號","121.65857","25.1740183333333","6502800","萬里區"
"207001","662-BX","2018/01/16 12:29:10","新北市萬里區萬里里獅頭路15-1號","121.69801","25.180365","6502800","萬里區"
"221012","276-VK","2018/01/16 12:29:12","新北市汐止區中正路203號","121.658476666667","25.068985","6501100","汐止區"
