"lineid","car","time","location","longitude","latitude","cityid","cityname"
"234040","149-BY","2018/01/16 14:19:28","新北市永和區中和路467號","121.510066666667","25.00171","6500400","永和區"
"234005","207-UY","2018/01/16 14:19:25","新北市永和區中正路684號","121.516698333333","25.0094483333333","6500400","永和區"
"234078","298-R6","2018/01/16 14:19:24","新北市永和區國中路144號","121.523135","25.0069833333333","6500400","永和區"
"234036","336-UY","2018/01/16 14:19:30","新北市永和區成功路一段95號","121.526965","25.00274","6500400","永和區"
"234062","337-UY","2018/01/16 14:19:12","新北市永和區得和路129號","121.519031666667","25.0002116666667","6500400","永和區"
"234084","338-UY","2018/01/16 14:19:27","新北市永和區永和路二段153號","121.515085","25.01281","6500400","永和區"
"234052","553-UM","2018/01/16 14:19:21","新北市永和區光復街2巷26弄1號","121.517648333333","25.01662","6500400","永和區"
"234028","746-BX","2018/01/16 14:19:32","新北市永和區民權路49巷2號","121.520311666667","24.9971583333333","6500400","永和區"
"234012","KEA-2591","2018/01/16 14:19:15","新北市中和區橋和路281巷1號","121.495651666667","25.007835","6500400","永和區"
"234060","AAD-866","2018/01/16 14:19:02","新北市永和區安樂路194巷17弄8號","121.516121666667","25.0013016666667","6500400","永和區"
"234068","847-RS","2018/01/16 14:19:21","新北市永和區福和路263巷22號","121.517945","25.00645","6500400","永和區"
"234048","863-TW","2018/01/16 14:19:16","新北市永和區新生路27號","121.509233333333","25.0166766666667","6500400","永和區"
"234025","9371-KE","2018/01/16 14:19:30","新北市永和區安樂路144巷27號","121.515063333333","24.9998116666667","6500400","永和區"
"248017","225-UY","2018/01/16 14:19:23","新北市五股區壟路12-1號","121.415536666667","25.08829","6501500","五股區"
"234022","9380-KE","2018/01/16 14:19:22","新北市永和區竹林路25巷21號","121.51817","25.0149933333333","6500400","永和區"
"234076","969-R7","2018/01/16 14:19:26","新北市永和區民族街81巷58號","121.520011666667","24.9965116666667","6500400","永和區"
"234072","AAC-211","2018/01/16 14:19:22","新北市永和區豫溪街191巷7弄25號","121.523191666667","25.0109833333333","6500400","永和區"
"234066","AAC-212","2018/01/16 14:19:22","新北市永和區保平路268巷51弄20號","121.506801666667","25.0060983333333","6500400","永和區"
"234001","AAC-295","2018/01/16 14:19:27","新北市永和區自強街32巷10號","121.51596","25.0076","6500400","永和區"
"244002","248-BX","2018/01/16 13:55:44","新北市林口區林口路76號","121.389685","25.0806816666667","6501700","林口區"
"231002","002-UM","2018/01/16 14:19:23","新北市新店區中央路200號","121.530488333333","24.9741983333333","6500600","新店區"
"231025","0291-UT","2018/01/16 14:19:30","新北市新店區二十張路129巷1弄1號","121.536013333333","24.9791783333333","6500600","新店區"
"231037","0293-UT","2018/01/16 14:19:24","新北市新店區車子路57號","121.503946666667","24.9514833333333","6500600","新店區"
"231028","046-UY","2018/01/16 14:19:18","新北市新店區安和路一段52巷2-1號","121.5176","24.96648","6500600","新店區"
"231030","047-UY","2018/01/16 14:19:28","新北市新店區安民街14號","121.51543","24.9644333333333","6500600","新店區"
"231029","106-UY","2018/01/16 14:19:14","新北市新店區安康路二段161號","121.510256666667","24.959435","6500600","新店區"
"231018","107-UY","2018/01/16 14:19:28","新北市新店區中央四街86號","121.526025","24.9759716666667","6500600","新店區"
"231012","108-UY","2018/01/16 14:19:21","新北市新店區五峰路61巷13號","121.549443333333","24.9695016666667","6500600","新店區"
"231020","187-VK","2018/01/16 14:19:20","新北市新店區桂山路35號","121.558983333333","24.9035883333333","6500600","新店區"
"231015","KEA-2219","2018/01/16 14:19:21","新北市新店區中生路170巷18號","121.571211666667","24.9487333333333","6500600","新店區"
"231023","AAD-862","2018/01/16 14:19:28","新北市新店區光明街99號","121.539025","24.96115","6500600","新店區"
"231027","3712-VJ","2018/01/16 14:19:30","新北市新店區北新路二段228巷13號","121.543408333333","24.9771333333333","6500600","新店區"
"231024","4716-K9","2018/01/16 14:19:13","新北市新店區新生街13巷22號","121.539055","24.9662966666667","6500600","新店區"
"231038","4715-K9","2018/01/16 14:19:30","新北市新店區溪洲路6巷80號","121.533576666667","24.9630716666667","6500600","新店區"
"231036","512-UM","2018/01/16 14:19:18","新北市新店區安祥路109巷151弄12號","121.478143333333","24.9589216666667","6500600","新店區"
"231035","515-UM","2018/01/16 14:19:31","新北市新店區碧安街15巷14號","121.517118333333","24.9692216666667","6500600","新店區"
"231006","617-UM","2018/01/16 14:19:16","新北市新店區北宜路二段599號","121.568166666667","24.9556066666667","6500600","新店區"
"231001","619-UM","2018/01/16 14:19:16","新北市新店區北新路一段90號","121.541881666667","24.9685683333333","6500600","新店區"
"231003","641-BX","2018/01/16 14:19:29","新北市新店區中興路一段216號","121.543875","24.965735","6500600","新店區"
"231034","645-TV","2018/01/16 14:19:30","新北市新店區黎明路3號","121.503448333333","24.9523583333333","6500600","新店區"
"231013","719-UM","2018/01/16 14:19:28","新北市新店區民權路89號","121.537615","24.9827816666667","6500600","新店區"
"231032","720-UM","2018/01/16 14:19:19","新北市新店區溪洲路170號","121.530275","24.9654883333333","6500600","新店區"
"231005","897-TW","2018/01/16 14:19:25","新北市新店區中興路三段221-1號","121.543448333333","24.98262","6500600","新店區"
"231004","899-TW","2018/01/16 14:19:13","新北市新店區中正路263-3號","121.538425","24.9738583333333","6500600","新店區"
"235030","003-UY","2018/01/16 14:19:34","新北市中和區中和路102號","121.502663333333","24.9997966666667","6500300","中和區"
"235028","005-UY","2018/01/16 14:19:16","新北市中和區連城路23巷1號","121.498971666667","25.0018616666667","6500300","中和區"
"235027","006-UY","2018/01/16 14:19:31","新北市中和區連勝街121巷12號","121.495095","24.994675","6500300","中和區"
"235010","031-BX","2018/01/16 14:19:31","新北市中和區忠孝街2巷11弄2號","121.510428333333","24.98194","6500300","中和區"
"235020","096-UM","2018/01/16 14:19:28","新北市中和區員山路563號","121.479478333333","25.0077083333333","6500300","中和區"
"235003","097-UM","2018/01/16 14:19:21","新北市中和區秀峰街119巷8弄14號","121.519033333333","24.9899416666667","6500300","中和區"
"235029","098-UM","2018/01/16 14:19:34","新北市中和區中山路二段2巷17號","121.50378","25.00682","6500300","中和區"
"235004","150-BY","2018/01/16 14:19:24","新北市中和區保健路76巷3號","121.511485","24.99616","6500300","中和區"
"235022","151-BY","2018/01/16 14:19:34","新北市中和區中正路637巷52弄1號","121.4855","24.99388","6500300","中和區"
"235019","183-VK","2018/01/16 14:19:15","新北市中和區民享街2巷8號","121.472963333333","25.005545","6500300","中和區"
"235002","185-VK","2018/01/16 14:19:34","新北市中和區景平路126巷2弄13號","121.519623333333","24.9923783333333","6500300","中和區"
"235013","186-VK","2018/01/16 14:19:25","新北市中和區景新街228-6號","121.508173333333","24.9941533333333","6500300","中和區"
"235031","255-BX","2018/01/16 14:19:29","新北市中和區新生街164號","121.483686666667","25.0002583333333","6500300","中和區"
"235008","293-VK","2018/01/16 14:19:16","新北市中和區中興街237巷2號","121.500585","24.9893133333333","6500300","中和區"
"235036","301-VK","2018/01/16 14:19:13","新北市中和區中山路二段64巷2號","121.503843333333","25.004855","6500300","中和區"
"235007","352-BY","2018/01/16 14:19:33","新北市中和區景平路300號","121.512715","24.9928116666667","6500300","中和區"
"235032","377-QA","2018/01/16 14:19:31","新北市中和區圓通路158巷9弄27號","121.497623333333","24.9963683333333","6500300","中和區"
"235025","378-QA","2018/01/16 14:19:22","新北市中和區員山路243號","121.481266666667","24.99849","6500300","中和區"
"235014","4979-A6","2018/01/16 14:19:25","新北市中和區復興路335號","121.500176666667","24.99017","6500300","中和區"
"235033","4980-A6","2018/01/16 14:19:29","新北市中和區中山路二段220號","121.499498333333","25.0028216666667","6500300","中和區"
"235006","551-UM","2018/01/16 14:19:21","新北市中和區安樂路185號","121.514958333333","24.998045","6500300","中和區"
"235034","558-UM","2018/01/16 14:18:58","新北市中和區中和路16號","121.499643333333","25.0020416666667","6500300","中和區"
"235009","565-BX","2018/01/16 14:19:10","新北市中和區景新街423巷35弄3號","121.51408","24.9897666666667","6500300","中和區"
"235018","640-BX","2018/01/16 14:19:32","新北市中和區國光街111號","121.469878333333","25.0004916666667","6500300","中和區"
"235024","647-TV","2018/01/16 14:19:16","新北市中和區民治街1巷1號","121.47485","25.0056683333333","6500300","中和區"
"235011","732-UM","2018/01/16 14:19:11","新北市中和區景平路241巷55號","121.508091666667","24.9920983333333","6500300","中和區"
"235026","800-TS","2018/01/16 14:19:28","新北市中和區中山路二段366巷13號","121.491553333333","25.004305","6500300","中和區"
"235021","801-TS","2018/01/16 14:19:31","新北市中和區員山路188號","121.481283333333","25.00039","6500300","中和區"
"235016","805-TS","2018/01/16 14:19:21","新北市中和區興南路二段142巷13號","121.503501666667","24.983305","6500300","中和區"
"235012","896-TW","2018/01/16 14:19:18","新北市中和區華新街109巷1-3號","121.509061666667","24.9823066666667","6500300","中和區"
"235017","900-TW","2018/01/16 14:19:33","新北市中和區華安街16-8號","121.466496666667","24.998125","6500300","中和區"
"235015","157-BY","2018/01/16 14:19:29","新北市中和區和平街54巷8弄15號","121.509575","24.9915533333333","6500300","中和區"
"235001","AAC-213","2018/01/16 14:19:26","新北市中和區秀朗路三段10巷16弄5號","121.523348333333","24.995955","6500300","中和區"
"235023","AAC-215","2018/01/16 14:19:26","新北市中和區圓通路252巷5弄38號","121.492163333333","24.9915633333333","6500300","中和區"
"220013","072-UY","2018/01/16 14:19:13","新北市板橋區國泰街76巷34號","121.467155","25.0072183333333","6500100","板橋區"
"220105","075-UY","2018/01/16 14:19:17","新北市板橋區雙十路三段70巷1號","121.470268333333","25.032465","6500100","板橋區"
"220017","AAD-861","2018/01/16 14:19:28","新北市板橋區華興街49號","121.457725","25.00453","6500100","板橋區"
"247021","893-R6","2018/01/16 14:19:22","新北市蘆洲區仁愛街216號","121.464841666667","25.0928266666667","6501400","蘆洲區"
"247011","546-UM","2018/01/16 14:19:30","新北市蘆洲區民權路5號","121.476471666667","25.0857616666667","6501400","蘆洲區"
"247019","500-BY","2018/01/16 14:19:31","新北市蘆洲區仁愛街37號","121.472203333333","25.0928383333333","6501400","蘆洲區"
"247007","341-TH","2018/01/16 14:19:20","新北市蘆洲區民生街43號","121.475093333333","25.07891","6501400","蘆洲區"
"247009","339-TH","2018/01/16 14:19:14","新北市蘆洲區三民路26巷29號","121.476875","25.0828766666667","6501400","蘆洲區"
"247003","336-TH","2018/01/16 14:19:29","新北市蘆洲區長安街150號","121.459981666667","25.0823766666667","6501400","蘆洲區"
"247015","057-VK","2018/01/16 14:19:06","新北市蘆洲區光華路22巷13號","121.468866666667","25.0838916666667","6501400","蘆洲區"
"247005","056-VK","2018/01/16 14:19:24","新北市蘆洲區長安街22巷8號","121.464483333333","25.0796","6501400","蘆洲區"
"247001","053-VK","2018/01/16 14:19:21","新北市蘆洲區永樂街75號","121.456181666667","25.08865","6501400","蘆洲區"
"247013","007-UY","2018/01/16 14:19:12","新北市蘆洲區中山一路225號","121.47377","25.0808066666667","6501400","蘆洲區"
"247023","002-UY","2018/01/16 14:19:22","新北市蘆洲區長榮路792號","121.461081666667","25.0928166666667","6501400","蘆洲區"
"247017","001-UY","2018/01/16 14:19:18","新北市蘆洲區民權路136-2號","121.47313","25.0888983333333","6501400","蘆洲區"
"235005","251-BX","2018/01/16 14:19:13","新北市中和區中安街192號","121.511443333333","24.9992916666667","6500300","中和區"
"228005","097-TW","2018/01/16 14:19:18","新北市貢寮區美豐里雞母嶺街60號","121.897666666667","25.063555","6502600","貢寮區"
"228004","212-TW","2018/01/16 14:19:25","新北市貢寮區雙玉里田寮洋街39-3號","121.925478333333","25.0139683333333","6502600","貢寮區"
"208004","AAC-292","2018/01/16 14:19:23","新北市金山區六股里下六股65號","121.614408333333","25.223625","6502700","金山區"
"207002","749-BX","2018/01/16 14:19:30","新北市萬里區溪底里溪底路6-1號","121.616025","25.15071","6502800","萬里區"
"207001","662-BX","2018/01/16 14:19:10","新北市萬里區磺潭里清水18號","121.637925","25.1976916666667","6502800","萬里區"
"252005","AAC-283","2018/01/16 14:19:22","新北市三芝區茂長里陳厝坑64號","121.510766666667","25.2544316666667","6502100","三芝區"
"236065","105-UM","2018/01/16 14:19:29","新北市土城區明德路一段128巷17號","121.463011666667","24.9787833333333","6501300","土城區"
"236041","107-UM","2018/01/16 14:19:17","新北市土城區裕生路21巷6弄43號","121.448655","24.9866766666667","6501300","土城區"
"236075","166-UM","2018/01/16 14:19:20","新北市土城區中央路三段281巷15弄1號","121.426235","24.9627","6501300","土城區"
"236029","253-BX","2018/01/16 14:19:32","新北市土城區順風路46號","121.440123333333","24.977195","6501300","土城區"
"236025","269-VK","2018/01/16 14:19:23","新北市土城區承天路18號","121.43931","24.9634083333333","6501300","土城區"
"236013","270-VK","2018/01/16 14:19:28","新北市土城區青雲路39巷7號","121.460355","24.9875433333333","6501300","土城區"
"236034","271-VK","2018/01/16 14:19:33","新北市土城區青雲路451巷8弄17號","121.459551666667","24.9741516666667","6501300","土城區"
"236017","401-BY","2018/01/16 14:19:20","新北市土城區清水路24號","121.454708333333","24.9799166666667","6501300","土城區"
"236006","498-BY","2018/01/16 14:19:31","新北市土城區日新街45號","121.442761666667","24.988625","6501300","土城區"
"236061","752-BX","2018/01/16 14:19:23","新北市土城區金城路三段202-3號","121.469505","24.988545","6501300","土城區"
"236057","912-UM","2018/01/16 14:19:24","新北市土城區中央路四段225號","121.413613333333","24.9554616666667","6501300","土城區"
"236045","913-UM","2018/01/16 14:19:28","新北市土城區明德路一段375-1號","121.454835","24.978165","6501300","土城區"
"236054","AAC-216","2018/01/16 14:19:14","新北市土城區中華路二段104號","121.438036666667","24.97432","6501300","土城區"
"220027","145-BY","2018/01/16 14:19:30","新北市板橋區民權路202巷17弄24號","121.459798333333","25.0166083333333","6500100","板橋區"
"220028","200-UY","2018/01/16 14:19:24","新北市板橋區大觀路二段19巷68號","121.448558333333","25.0029233333333","6500100","板橋區"
"220030","610-BX","2018/01/16 14:19:19","新北市板橋區滿平街84巷116號","121.426923333333","24.986445","6500100","板橋區"
"220050","245-BX","2018/01/16 14:19:23","新北市板橋區莊敬路2-1號","121.474026666667","25.0285166666667","6500100","板橋區"
"220003","256-TC","2018/01/16 14:19:28","新北市板橋區實踐路159號","121.4642","25.004005","6500100","板橋區"
"220045","257-TC","2018/01/16 14:19:30","新北市板橋區大同街35巷12號","121.477638333333","25.02773","6500100","板橋區"
"220020","277-BY","2018/01/16 14:19:15","新北市板橋區金門街347-2號","121.428906666667","24.9853166666667","6500100","板橋區"
"220019","283-VK","2018/01/16 14:19:13","新北市板橋區大豐街97號","121.461931666667","25.0004833333333","6500100","板橋區"
"220043","285-UM","2018/01/16 14:19:30","新北市板橋區光武街136巷7號","121.465756666667","25.0301416666667","6500100","板橋區"
"220001","285-VK","2018/01/16 14:19:18","新北市板橋區富山街10號","121.47866","25.0219616666667","6500100","板橋區"
"220031","286-VK","2018/01/16 14:19:30","新北市板橋區龍興街73巷29號","121.442683333333","25.0026233333333","6500100","板橋區"
"220029","287-VK","2018/01/16 14:19:30","新北市板橋區南雅西路一段64號","121.45366","25.0051633333333","6500100","板橋區"
"220039","288-VK","2018/01/16 14:19:22","新北市板橋區長江路一段106巷13弄19號","121.460791666667","25.0294833333333","6500100","板橋區"
"220009","293-UM","2018/01/16 14:19:21","新北市板橋區中山路二段255巷7號","121.477061666667","25.017955","6500100","板橋區"
"220010","295-UM","2018/01/16 14:19:25","新北市板橋區三民路二段153巷28號","121.48082","25.0150633333333","6500100","板橋區"
"220032","296-UM","2018/01/16 14:19:20","新北市板橋區篤行路二段136號","121.429831666667","24.9883866666667","6500100","板橋區"
"220023","303-R5","2018/01/16 14:19:22","新北市板橋區南雅南路一段5巷19號","121.456396666667","25.00551","6500100","板橋區"
"220041","307-R5","2018/01/16 14:19:25","新北市板橋區松江街53號","121.46858","25.0275883333333","6500100","板橋區"
"220047","317-R6","2018/01/16 14:19:24","新北市板橋區四維路266巷2弄20號","121.463923333333","25.0281033333333","6500100","板橋區"
"220034","461-BY","2018/01/16 14:19:34","新北市板橋區中正路250巷17號","121.456343333333","25.019455","6500100","板橋區"
"220012","486-VK","2018/01/16 14:19:28","新北市板橋區板新路226號","121.468475","25.0160833333333","6500100","板橋區"
"220038","487-VK","2018/01/16 14:19:13","新北市板橋區文化路二段239號","121.471078333333","25.0286866666667","6500100","板橋區"
"220037","491-VK","2018/01/16 14:19:26","新北市板橋區雙十路二段143號","121.474948333333","25.0280566666667","6500100","板橋區"
"220104","560-BX","2018/01/16 14:19:21","新北市板橋區中正路433巷1弄12號","121.453598333333","25.0231333333333","6500100","板橋區"
"220052","561-BX","2018/01/16 14:19:25","新北市板橋區文化路一段188巷7弄41號","121.4682","25.01953","6500100","板橋區"
"220011","609-BX","2018/01/16 14:19:30","新北市板橋區三民路二段202-28號","121.478931666667","25.0125816666667","6500100","板橋區"
"220004","630-UY","2018/01/16 14:19:26","新北市板橋區和平路4號","121.458115","24.9942916666667","6500100","板橋區"
"220040","637-BX","2018/01/16 14:19:25","新北市板橋區文聖街198號","121.480071666667","25.0259133333333","6500100","板橋區"
"220005","686-BX","2018/01/16 14:19:27","新北市板橋區國慶路191號","121.463021666667","24.9964566666667","6500100","板橋區"
"220025","687-BX","2018/01/16 14:19:27","新北市板橋區大觀路二段185號","121.444766666667","24.999895","6500100","板橋區"
"220042","689-BX","2018/01/16 14:19:18","新北市板橋區文化路一段154號","121.465383333333","25.019215","6500100","板橋區"
"220002","741-BX","2018/01/16 14:19:20","新北市板橋區重慶路155巷35號","121.463468333333","25.004155","6500100","板橋區"
"220014","829-TW","2018/01/16 14:19:30","新北市板橋區長安街138巷1弄69號","121.47449","25.0108016666667","6500100","板橋區"
"220051","830-TW","2018/01/16 14:19:14","新北市板橋區文聖街131號","121.478166666667","25.02868","6500100","板橋區"
"220022","895-R6","2018/01/16 14:19:25","新北市板橋區民權路97號","121.459816666667","25.0128516666667","6500100","板橋區"
"220021","985-R7","2018/01/16 14:19:20","新北市板橋區中正路360巷25號","121.455466666667","25.0237166666667","6500100","板橋區"
"220046","AAC-210","2018/01/16 14:19:27","新北市板橋區幸福路60巷12號","121.460511666667","25.0211533333333","6500100","板橋區"
"220018","AAC-253","2018/01/16 14:19:17","新北市板橋區忠孝路143號","121.463263333333","25.0024166666667","6500100","板橋區"
