"lineid","car","time","location","longitude","latitude","cityid","cityname"
"234040","149-BY","2018/01/16 14:29:28","新北市永和區安樂路336號","121.514406666667","25.0059083333333","6500400","永和區"
"234005","207-UY","2018/01/16 14:29:25","新北市永和區安樂路166號","121.514613333333","25.0008666666667","6500400","永和區"
"234078","298-R6","2018/01/16 14:29:24","新北市永和區永貞路70巷2號","121.520425","25.00533","6500400","永和區"
"234036","336-UY","2018/01/16 14:29:30","新北市永和區環河東路四段38號","121.528836666667","24.9989033333333","6500400","永和區"
"234062","337-UY","2018/01/16 14:29:12","新北市永和區中正路433號","121.517138333333","25.0050466666667","6500400","永和區"
"234084","338-UY","2018/01/16 14:29:27","新北市永和區光復街32號","121.516561666667","25.0174583333333","6500400","永和區"
"234052","553-UM","2018/01/16 14:29:21","新北市永和區環河東路一段42號","121.51889","25.0169766666667","6500400","永和區"
"234028","746-BX","2018/01/16 14:29:12","新北市永和區得和路336號","121.523473333333","24.99953","6500400","永和區"
"234012","KEA-2591","2018/01/16 14:29:16","新北市三重區五谷王北街161-1號","121.478276666667","25.053285","6500400","永和區"
"234060","AAD-866","2018/01/16 14:29:22","新北市永和區秀朗路一段175號","121.517008333333","25.0036766666667","6500400","永和區"
"234068","847-RS","2018/01/16 14:29:21","新北市永和區永亨路7號","121.519401666667","25.005725","6500400","永和區"
"234048","863-TW","2018/01/16 14:29:16","新北市永和區新生路138巷3弄2號","121.506406666667","25.0145116666667","6500400","永和區"
"234025","9371-KE","2018/01/16 14:29:23","新北市中和區安平路222號","121.514058333333","25.0000583333333","6500400","永和區"
"248017","225-UY","2018/01/16 14:23:23","新北市五股區壟路16號","121.415331666667","25.0855983333333","6501500","五股區"
"234072","AAC-211","2018/01/16 14:29:15","新北市永和區環河東路一段122號","121.52062","25.0155283333333","6500400","永和區"
"234001","AAC-295","2018/01/16 14:29:27","新北市永和區大新街51號","121.51579","25.0084466666667","6500400","永和區"
"244002","248-BX","2018/01/16 14:27:49","新北市林口區竹林路265號","121.389643333333","25.0807","6501700","林口區"
"231002","002-UM","2018/01/16 14:29:22","新北市新店區中央路7號","121.533448333333","24.9786266666667","6500600","新店區"
"231025","0291-UT","2018/01/16 14:29:30","新北市新店區民族路161號","121.537738333333","24.9767166666667","6500600","新店區"
"231037","0293-UT","2018/01/16 14:29:24","新北市新店區柴埕路52巷1-14號","121.512591666667","24.9646416666667","6500600","新店區"
"231028","046-UY","2018/01/16 14:29:18","新北市新店區安康路二段147號","121.511248333333","24.9599766666667","6500600","新店區"
"231030","047-UY","2018/01/16 14:29:28","新北市新店區碧安街9巷20號","121.516385","24.9683733333333","6500600","新店區"
"231029","106-UY","2018/01/16 14:29:14","新北市新店區安康路二段416號","121.496483333333","24.9551933333333","6500600","新店區"
"231018","107-UY","2018/01/16 14:29:28","新北市新店區中央二街63號","121.526658333333","24.97468","6500600","新店區"
"231012","108-UY","2018/01/16 14:29:21","新北市新店區五峰路61巷5號","121.548775","24.9696383333333","6500600","新店區"
"231020","187-VK","2018/01/16 14:29:31","新北市新店區桂山路61巷2號","121.565841666667","24.901","6500600","新店區"
"231015","KEA-2219","2018/01/16 14:29:21","新北市新店區北宜路二段468號","121.570106666667","24.9556716666667","6500600","新店區"
"231023","AAD-862","2018/01/16 14:29:25","新北市新店區光明街19號","121.538428333333","24.95944","6500600","新店區"
"231027","3712-VJ","2018/01/16 14:29:30","新北市新店區中正路76巷11弄13號","121.54387","24.9714616666667","6500600","新店區"
"231024","4716-K9","2018/01/16 14:29:13","新北市新店區新生街13巷22號","121.539133333333","24.9663216666667","6500600","新店區"
"231038","4715-K9","2018/01/16 14:29:10","新北市新店區溪洲路184號","121.528688333333","24.9659933333333","6500600","新店區"
"231036","512-UM","2018/01/16 14:29:18","新北市新店區安祥路106巷6弄1號","121.478973333333","24.9625766666667","6500600","新店區"
"231035","515-UM","2018/01/16 14:29:24","新北市新店區安光路10-1號","121.513821666667","24.9641566666667","6500600","新店區"
"231006","617-UM","2018/01/16 14:29:16","新北市新店區北宜路二段204號","121.559276666667","24.9543916666667","6500600","新店區"
"231001","619-UM","2018/01/16 14:29:16","新北市新店區中正路75巷71號","121.543073333333","24.96884","6500600","新店區"
"231003","641-BX","2018/01/16 14:29:29","新北市新店區中興路一段267-4號","121.545076666667","24.9679066666667","6500600","新店區"
"231034","645-TV","2018/01/16 14:29:30","新北市新店區黎明路52巷2號","121.501906666667","24.9489216666667","6500600","新店區"
"231013","719-UM","2018/01/16 14:29:28","新北市新店區民權路100-1號","121.536135","24.9832166666667","6500600","新店區"
"231032","720-UM","2018/01/16 14:29:20","新北市新店區安業街153號","121.521106666667","24.9740816666667","6500600","新店區"
"231005","897-TW","2018/01/16 14:29:25","新北市新店區北新路三段102號","121.54174","24.9811383333333","6500600","新店區"
"231004","899-TW","2018/01/16 14:29:33","新北市新店區中正路263-2號","121.538403333333","24.9736616666667","6500600","新店區"
"235030","003-UY","2018/01/16 14:29:14","新北市中和區景新街48號","121.503968333333","24.9992533333333","6500300","中和區"
"235028","005-UY","2018/01/16 14:29:16","新北市中和區連城路2號","121.499253333333","25.0023966666667","6500300","中和區"
"235027","006-UY","2018/01/16 14:29:31","新北市中和區連城路203巷10弄19號","121.495048333333","24.9968333333333","6500300","中和區"
"235010","031-BX","2018/01/16 14:29:31","新北市中和區忠孝街37巷52號","121.511056666667","24.9849333333333","6500300","中和區"
"235020","096-UM","2018/01/16 14:29:27","新北市中和區民富街88-1號","121.476578333333","25.0082866666667","6500300","中和區"
"235003","097-UM","2018/01/16 14:29:21","新北市中和區秀峰街103巷7弄4號","121.519518333333","24.988935","6500300","中和區"
"235029","098-UM","2018/01/16 14:29:14","新北市中和區永和路1-4號","121.499713333333","25.0032433333333","6500300","中和區"
"235004","150-BY","2018/01/16 14:29:23","新北市中和區保健路106巷23號","121.512203333333","24.995505","6500300","中和區"
"235022","151-BY","2018/01/16 14:29:14","新北市中和區連城路469巷70弄10號","121.483121666667","24.9936383333333","6500300","中和區"
"235019","183-VK","2018/01/16 14:29:19","新北市中和區德光路24號","121.47093","25.0044283333333","6500300","中和區"
"235002","185-VK","2018/01/16 14:29:34","新北市中和區自立路115號","121.52194","24.9945283333333","6500300","中和區"
"235013","186-VK","2018/01/16 14:29:25","新北市中和區景平路392-9號","121.510563333333","24.9932683333333","6500300","中和區"
"235031","255-BX","2018/01/16 14:29:29","新北市中和區連城路296號","121.48401","24.9962716666667","6500300","中和區"
"235008","293-VK","2018/01/16 14:29:16","新北市中和區捷運路191號","121.505266666667","24.991275","6500300","中和區"
"235036","301-VK","2018/01/16 14:29:13","新北市中和區中山路二段3巷22弄33號","121.505853333333","25.0041683333333","6500300","中和區"
"235007","352-BY","2018/01/16 14:29:13","新北市中和區景平路390號","121.510521666667","24.9929183333333","6500300","中和區"
"235032","377-QA","2018/01/16 14:29:11","新北市中和區南山路14號","121.502031666667","24.99853","6500300","中和區"
"235025","378-QA","2018/01/16 14:29:22","新北市中和區民安街22巷18號","121.479641666667","25.0015116666667","6500300","中和區"
"235014","4979-A6","2018/01/16 14:29:25","新北市中和區中正路589巷15號","121.485923333333","24.9937483333333","6500300","中和區"
"235006","551-UM","2018/01/16 14:29:21","新北市中和區中和路378巷14弄21號","121.510933333333","25.00118","6500300","中和區"
"235034","558-UM","2018/01/16 14:27:58","新北市中和區中山路二段228號","121.498926666667","25.0029116666667","6500300","中和區"
"235009","565-BX","2018/01/16 14:29:30","新北市中和區景新街399巷9號","121.51293","24.989915","6500300","中和區"
"235018","640-BX","2018/01/16 14:29:32","新北市中和區國光街112巷13弄1號","121.469693333333","25.00192","6500300","中和區"
"235024","647-TV","2018/01/16 14:29:16","新北市中和區新生街114巷14號","121.48285","25.0023516666667","6500300","中和區"
"235011","732-UM","2018/01/16 14:29:31","新北市中和區景平路329巷1弄2號","121.505895","24.9929283333333","6500300","中和區"
"235026","800-TS","2018/01/16 14:29:28","新北市中和區中山路二段389號","121.48659","25.0048433333333","6500300","中和區"
"235021","801-TS","2018/01/16 14:29:11","新北市中和區員山路382號","121.480685","25.0042766666667","6500300","中和區"
"235016","805-TS","2018/01/16 14:29:21","新北市中和區華新街143巷69弄14號","121.507558333333","24.9788716666667","6500300","中和區"
"235012","896-TW","2018/01/16 14:29:18","新北市中和區忠孝街60巷2弄2號","121.51165","24.9837733333333","6500300","中和區"
"235017","900-TW","2018/01/16 14:29:13","新北市中和區民德路197-2號","121.46891","24.9985966666667","6500300","中和區"
"235015","157-BY","2018/01/16 14:29:29","新北市中和區捷運路125號","121.507255","24.99068","6500300","中和區"
"235001","AAC-213","2018/01/16 14:29:26","新北市中和區秀朗路三段10巷12弄2號","121.525538333333","24.9965616666667","6500300","中和區"
"235023","AAC-215","2018/01/16 14:29:26","新北市中和區圓通路327-5號","121.492361666667","24.9906683333333","6500300","中和區"
"220013","072-UY","2018/01/16 14:29:13","新北市板橋區國泰街75巷9號","121.46762","25.0061033333333","6500100","板橋區"
"220105","075-UY","2018/01/16 14:29:32","新北市板橋區江寧路三段79巷2號","121.472395","25.0324966666667","6500100","板橋區"
"220017","AAD-861","2018/01/16 14:29:26","新北市板橋區縣民大道一段64巷2號","121.45525","25.0039766666667","6500100","板橋區"
"247021","893-R6","2018/01/16 14:29:21","新北市蘆洲區中正路486-1號","121.462201666667","25.0957566666667","6501400","蘆洲區"
"247011","546-UM","2018/01/16 14:29:10","新北市蘆洲區復興路252號","121.479915","25.0896166666667","6501400","蘆洲區"
"247019","500-BY","2018/01/16 14:29:11","新北市蘆洲區水湳街257號","121.4695","25.0924116666667","6501400","蘆洲區"
"247007","341-TH","2018/01/16 14:29:20","新北市蘆洲區民生街6號","121.47579","25.0791366666667","6501400","蘆洲區"
"247009","339-TH","2018/01/16 14:29:24","新北市蘆洲區鷺江街23號","121.478911666667","25.0824783333333","6501400","蘆洲區"
"247003","336-TH","2018/01/16 14:29:29","新北市蘆洲區中原路81號","121.458103333333","25.081755","6501400","蘆洲區"
"247015","057-VK","2018/01/16 14:29:26","新北市蘆洲區中正路185巷68弄13號","121.466323333333","25.0849566666667","6501400","蘆洲區"
"247005","056-VK","2018/01/16 14:29:24","新北市蘆洲區長安街64號","121.462845","25.080005","6501400","蘆洲區"
"247001","053-VK","2018/01/16 14:29:21","新北市蘆洲區永樂街38巷33弄4號","121.45798","25.0895283333333","6501400","蘆洲區"
"247013","007-UY","2018/01/16 14:29:12","新北市蘆洲區中山二路193號","121.470815","25.0807433333333","6501400","蘆洲區"
"247023","002-UY","2018/01/16 14:29:22","新北市蘆洲區中正路263巷2號","121.467238333333","25.087395","6501400","蘆洲區"
"247017","001-UY","2018/01/16 14:29:18","新北市蘆洲區民族路282號","121.47822","25.0894283333333","6501400","蘆洲區"
"235005","251-BX","2018/01/16 14:29:20","新北市中和區中和路260號","121.507946666667","24.999315","6500300","中和區"
"228005","097-TW","2018/01/16 14:29:18","新北市貢寮區美豐里巫里岸9-1號","121.901966666667","25.0700833333333","6502600","貢寮區"
"228004","212-TW","2018/01/16 14:29:18","新北市貢寮區雙玉里田寮洋街33-1號","121.932168333333","25.0136133333333","6502600","貢寮區"
"208004","AAC-292","2018/01/16 14:29:23","新北市金山區重和里竹子山腳1號","121.598063333333","25.22064","6502700","金山區"
"207002","749-BX","2018/01/16 14:21:10","新北市萬里區溪底里富士坪路24-2號","121.620708333333","25.1523216666667","6502800","萬里區"
"207001","662-BX","2018/01/16 14:29:30","新北市萬里區磺潭里員潭路9號","121.646615","25.199235","6502800","萬里區"
"252005","AAC-283","2018/01/16 14:29:22","新北市三芝區埔坪里埔頭坑115號","121.51691","25.2454166666667","6502100","三芝區"
"236065","105-UM","2018/01/16 14:29:29","新北市土城區永豐路205-5號","121.474718333333","24.9779433333333","6501300","土城區"
"236041","107-UM","2018/01/16 14:29:17","新北市土城區學成路91巷1號","121.450631666667","24.9879533333333","6501300","土城區"
"236075","166-UM","2018/01/16 14:29:15","新北市土城區大暖路26號","121.423398333333","24.9598683333333","6501300","土城區"
"236029","253-BX","2018/01/16 14:29:18","新北市土城區水源街30號","121.440905","24.97555","6501300","土城區"
"236025","269-VK","2018/01/16 14:29:23","新北市土城區承天路18號","121.439385","24.9635366666667","6501300","土城區"
"236013","270-VK","2018/01/16 14:29:28","新北市土城區青雲路39巷7號","121.460353333333","24.9875683333333","6501300","土城區"
"236034","271-VK","2018/01/16 14:29:33","新北市土城區青雲路453號","121.458891666667","24.9746316666667","6501300","土城區"
"236017","401-BY","2018/01/16 14:29:20","新北市土城區永豐路202巷7-1號","121.466273333333","24.9832366666667","6501300","土城區"
"236006","498-BY","2018/01/16 14:29:31","新北市土城區城林路6巷80號","121.438391666667","24.9801516666667","6501300","土城區"
"236061","752-BX","2018/01/16 14:29:03","新北市中和區民享街465號","121.470203333333","24.9919216666667","6501300","土城區"
"236057","912-UM","2018/01/16 14:29:14","新北市土城區中央路四段281-14號","121.411965","24.95309","6501300","土城區"
"236045","913-UM","2018/01/16 14:29:28","新北市土城區青雲路463號","121.458601666667","24.974285","6501300","土城區"
"236054","AAC-216","2018/01/16 14:29:14","新北市土城區中華路二段147號","121.438938333333","24.97598","6501300","土城區"
"220027","145-BY","2018/01/16 14:29:30","新北市板橋區中正路162號","121.456646666667","25.0167666666667","6500100","板橋區"
"220028","200-UY","2018/01/16 14:29:24","新北市板橋區大觀路二段37巷226號","121.449481666667","25.0010366666667","6500100","板橋區"
"220030","610-BX","2018/01/16 14:29:20","新北市板橋區金門街298號","121.42908","24.9855533333333","6500100","板橋區"
"220050","245-BX","2018/01/16 14:29:24","新北市板橋區縣民大道三段133巷1號","121.477625","25.0232983333333","6500100","板橋區"
"220014","255-TC","2018/01/16 14:28:08","新北市板橋區民生路二段89-6號","121.470715","25.01903","6500100","板橋區"
"220003","256-TC","2018/01/16 14:29:28","新北市板橋區重慶路290巷3號","121.461576666667","24.99854","6500100","板橋區"
"220045","257-TC","2018/01/16 14:29:30","新北市板橋區民生路二段226巷36號","121.47127","25.0221616666667","6500100","板橋區"
"220020","277-BY","2018/01/16 14:29:15","新北市板橋區篤行路二段151巷11號","121.430441666667","24.9875","6500100","板橋區"
"220019","283-VK","2018/01/16 14:29:25","新北市板橋區四川路一段325巷3弄5號","121.45947","25.0004483333333","6500100","板橋區"
"220043","285-UM","2018/01/16 14:29:30","新北市板橋區吳鳳路50巷75弄12號","121.470173333333","25.0310933333333","6500100","板橋區"
"220001","285-VK","2018/01/16 14:29:15","新北市板橋區永豐街106號","121.475998333333","25.0206116666667","6500100","板橋區"
"220031","286-VK","2018/01/16 14:29:30","新北市板橋區龍興街69號","121.44367","25.0015716666667","6500100","板橋區"
"220029","287-VK","2018/01/16 14:29:27","新北市板橋區大觀路一段75巷24號","121.448115","25.0042816666667","6500100","板橋區"
"220039","288-VK","2018/01/16 14:29:22","新北市板橋區長江路一段131號","121.46048","25.0301","6500100","板橋區"
"220009","293-UM","2018/01/16 14:29:21","新北市板橋區中山路一段265巷36弄1號","121.46908","25.0152316666667","6500100","板橋區"
"220010","295-UM","2018/01/16 14:29:25","新北市板橋區三民路二段181巷12號","121.47981","25.0143183333333","6500100","板橋區"
"220032","296-UM","2018/01/16 14:29:20","新北市板橋區滿平街84巷110弄27號","121.425963333333","24.9856733333333","6500100","板橋區"
"220023","303-R5","2018/01/16 14:29:22","新北市板橋區中正路275巷31號","121.453731666667","25.0181783333333","6500100","板橋區"
"220041","307-R5","2018/01/16 14:29:25","新北市板橋區光武街2巷1號","121.468095","25.02495","6500100","板橋區"
"220047","317-R6","2018/01/16 14:29:15","新北市板橋區民生路三段299巷19號","121.462785","25.030135","6500100","板橋區"
"220034","461-BY","2018/01/16 14:29:13","新北市板橋區中正路216巷150弄12號","121.460785","25.0189466666667","6500100","板橋區"
"220012","486-VK","2018/01/16 14:28:48","新北市板橋區館前西路4-1號","121.45933","25.0070733333333","6500100","板橋區"
"220038","487-VK","2018/01/16 14:29:13","新北市板橋區文化路一段90號","121.464401666667","25.0178616666667","6500100","板橋區"
"220037","491-VK","2018/01/16 14:29:33","新北市板橋區雙十路二段52號","121.47535","25.0278316666667","6500100","板橋區"
"220104","560-BX","2018/01/16 14:29:13","新北市板橋區新生街89巷28號","121.457113333333","25.022645","6500100","板橋區"
"220052","561-BX","2018/01/16 14:29:24","新北市板橋區介壽街3號","121.467121666667","25.020345","6500100","板橋區"
"220011","609-BX","2018/01/16 14:29:30","新北市板橋區三民路二段140號","121.479156666667","25.01586","6500100","板橋區"
"220004","630-UY","2018/01/16 14:29:28","新北市板橋區國慶路29巷9號","121.458785","24.99615","6500100","板橋區"
"220040","637-BX","2018/01/16 14:29:25","新北市板橋區文聖街149巷25號","121.479485","25.028615","6500100","板橋區"
"220005","686-BX","2018/01/16 14:29:27","新北市中和區華順街131號","121.465236666667","24.9963766666667","6500100","板橋區"
"220025","687-BX","2018/01/16 14:29:19","新北市板橋區大觀路一段28巷73號","121.44958","25.0111916666667","6500100","板橋區"
"220042","689-BX","2018/01/16 14:29:18","新北市板橋區新海路160號","121.460893333333","25.0240883333333","6500100","板橋區"
"220002","741-BX","2018/01/16 14:29:20","新北市板橋區四川路一段281號","121.459486666667","25.0020483333333","6500100","板橋區"
"220014","829-TW","2018/01/16 14:29:27","新北市板橋區漢生東路313巷2弄44號","121.472378333333","25.0078733333333","6500100","板橋區"
"220051","830-TW","2018/01/16 14:29:14","新北市板橋區雙十路二段112號","121.474568333333","25.0288166666667","6500100","板橋區"
"220022","895-R6","2018/01/16 14:29:25","新北市板橋區館前西路171號","121.455791666667","25.0081933333333","6500100","板橋區"
"220021","985-R7","2018/01/16 14:29:20","新北市板橋區瑞安街24號","121.455178333333","25.0230483333333","6500100","板橋區"
"220046","AAC-210","2018/01/16 14:29:22","新北市板橋區漢生西路125號","121.46267","25.0212516666667","6500100","板橋區"
"220018","AAC-253","2018/01/16 14:29:17","新北市板橋區四川路一段31號","121.459548333333","25.006685","6500100","板橋區"
