"lineid","car","time","location","longitude","latitude","cityid","cityname"
"234062","337-UY","2018/01/16 14:39:32","新北市永和區環河西路二段185號","121.502238333333","25.0113116666667","6500400","永和區"
"234084","338-UY","2018/01/16 14:39:27","新北市板橋區萬安街20巷4弄11號","121.485306666667","25.023095","6500400","永和區"
"234025","9371-KE","2018/01/16 14:39:23","新北市永和區雙和街7巷8號","121.509453333333","25.001565","6500400","永和區"
"248017","225-UY","2018/01/16 14:31:23","新北市五股區外寮路1-1號","121.425831666667","25.076975","6501500","五股區"
"234072","AAC-211","2018/01/16 14:39:15","新北市永和區竹林路91巷55弄1號","121.521905","25.0137466666667","6500400","永和區"
"244002","248-BX","2018/01/16 14:27:49","新北市林口區竹林路265號","121.389643333333","25.0807","6501700","林口區"
"231002","002-UM","2018/01/16 14:39:22","新北市新店區中正路468號","121.533983333333","24.9794083333333","6500600","新店區"
"231025","0291-UT","2018/01/16 14:39:30","新北市新店區民族路161號","121.537665","24.9767","6500600","新店區"
"231037","0293-UT","2018/01/16 14:39:24","新北市新店區柴埕路60巷7-2號","121.508866666667","24.9647666666667","6500600","新店區"
"231028","046-UY","2018/01/16 14:39:18","新北市新店區安德街60巷15號","121.510668333333","24.962655","6500600","新店區"
"231030","047-UY","2018/01/16 14:39:28","新北市新店區安民街261號","121.517406666667","24.9727183333333","6500600","新店區"
"231029","106-UY","2018/01/16 14:39:14","新北市新店區安康路三段349號","121.485125","24.9514333333333","6500600","新店區"
"231018","107-UY","2018/01/16 14:39:28","新北市新店區中央二街11號","121.529075","24.9732783333333","6500600","新店區"
"231012","108-UY","2018/01/16 14:39:21","新北市新店區中興路二段200-1號","121.548646666667","24.9741466666667","6500600","新店區"
"231020","187-VK","2018/01/16 14:39:20","新北市新店區桂山路37號","121.562995","24.9046133333333","6500600","新店區"
"231015","KEA-2219","2018/01/16 14:39:21","新北市新店區北宜路三段132號","121.58276","24.950215","6500600","新店區"
"231023","AAD-862","2018/01/16 14:39:27","新北市新店區檳榔路27號","121.541728333333","24.9636933333333","6500600","新店區"
"231027","3712-VJ","2018/01/16 14:39:30","新北市新店區中央路95巷4號","121.531461666667","24.974925","6500600","新店區"
"231024","4716-K9","2018/01/16 14:39:33","新北市新店區新生街13巷24號","121.539096666667","24.9663433333333","6500600","新店區"
"231036","512-UM","2018/01/16 14:39:18","新北市新店區安祥路106巷60號","121.476258333333","24.9612133333333","6500600","新店區"
"231035","515-UM","2018/01/16 14:39:24","新北市新店區安德街33-1號","121.51123","24.962375","6500600","新店區"
"231006","617-UM","2018/01/16 14:39:16","新北市新店區北宜路二段103號","121.550245","24.952415","6500600","新店區"
"231001","619-UM","2018/01/16 14:39:16","新北市新店區中正路74號","121.54397","24.970235","6500600","新店區"
"231003","641-BX","2018/01/16 14:39:30","新北市新店區中興路一段298號","121.546181666667","24.969545","6500600","新店區"
"231034","645-TV","2018/01/16 14:39:30","新北市新店區黎明路11號","121.502008333333","24.9497533333333","6500600","新店區"
"231013","719-UM","2018/01/16 14:39:28","新北市新店區北新路二段139巷12弄2號","121.542165","24.9759483333333","6500600","新店區"
"231005","897-TW","2018/01/16 14:39:25","新北市新店區復興路90-1號","121.53341","24.9882916666667","6500600","新店區"
"231004","899-TW","2018/01/16 14:39:13","新北市新店區中正路263-4號","121.538238333333","24.9737983333333","6500600","新店區"
"235030","003-UY","2018/01/16 14:39:34","新北市中和區中和路196巷6號","121.505115","24.9991766666667","6500300","中和區"
"235028","005-UY","2018/01/16 14:39:16","新北市中和區南山路72-1號","121.50243","24.995995","6500300","中和區"
"235027","006-UY","2018/01/16 14:39:31","新北市中和區連城路174巷40號","121.494433333333","25.0003766666667","6500300","中和區"
"235010","031-BX","2018/01/16 14:39:11","新北市中和區四維街37巷1號","121.512483333333","24.9869183333333","6500300","中和區"
"235020","096-UM","2018/01/16 14:39:27","新北市中和區員山路581巷2弄34號","121.477286666667","25.0101416666667","6500300","中和區"
"235003","097-UM","2018/01/16 14:39:21","新北市中和區景德街1號","121.519251666667","24.991365","6500300","中和區"
"235029","098-UM","2018/01/16 14:39:34","新北市中和區福祥路99號","121.498891666667","25.00625","6500300","中和區"
"235004","150-BY","2018/01/16 14:39:24","新北市中和區宜安路23巷17號","121.512403333333","24.9952183333333","6500300","中和區"
"235022","151-BY","2018/01/16 14:39:14","新北市中和區員山路126-2號","121.481418333333","24.9960166666667","6500300","中和區"
"235019","183-VK","2018/01/16 14:39:15","新北市中和區民生街10巷2號","121.471045","25.0058166666667","6500300","中和區"
"235002","185-VK","2018/01/16 14:39:34","新北市中和區大智街55巷30弄31號","121.521926666667","24.9933883333333","6500300","中和區"
"235013","186-VK","2018/01/16 14:39:25","新北市中和區安平路14號","121.509213333333","24.9941166666667","6500300","中和區"
"235031","255-BX","2018/01/16 14:39:29","新北市中和區新生街242巷11弄8號","121.482918333333","24.997465","6500300","中和區"
"235008","293-VK","2018/01/16 14:39:16","新北市中和區興南路一段109號","121.50933","24.9881016666667","6500300","中和區"
"235036","301-VK","2018/01/16 14:39:33","新北市中和區中和路98號","121.501215","25.00018","6500300","中和區"
"235007","352-BY","2018/01/16 14:39:33","新北市中和區景新街129號","121.505731666667","24.9972816666667","6500300","中和區"
"235032","377-QA","2018/01/16 14:39:30","新北市中和區中山路二段136巷3弄4號","121.501258333333","25.0035533333333","6500300","中和區"
"235025","378-QA","2018/01/16 14:39:22","新北市中和區新生街186巷20號","121.482593333333","24.999705","6500300","中和區"
"235014","4979-A6","2018/01/16 14:39:25","新北市中和區中正路273號","121.495718333333","24.9937933333333","6500300","中和區"
"235006","551-UM","2018/01/16 14:39:23","新北市中和區保健路2巷6號","121.507633333333","24.9981316666667","6500300","中和區"
"235034","558-UM","2018/01/16 14:39:17","新北市中和區景平路626巷3號","121.500385","24.99785","6500300","中和區"
"235009","565-BX","2018/01/16 14:39:30","新北市中和區安樂路1號","121.51164","24.9919566666667","6500300","中和區"
"235018","640-BX","2018/01/16 14:39:32","新北市中和區民德路95號","121.46895","25.00111","6500300","中和區"
"235024","647-TV","2018/01/16 14:39:16","新北市中和區員山路314巷7弄4號","121.482141666667","25.0031183333333","6500300","中和區"
"235011","732-UM","2018/01/16 14:39:11","新北市中和區捷運路6號","121.510028333333","24.9894866666667","6500300","中和區"
"235026","800-TS","2018/01/16 14:39:28","新北市中和區錦和路23號","121.486606666667","25.0028966666667","6500300","中和區"
"235021","801-TS","2018/01/16 14:39:33","新北市中和區員山路292號","121.481328333333","25.002405","6500300","中和區"
"235016","805-TS","2018/01/16 14:39:21","新北市中和區華新街206巷21弄2號","121.50592","24.9827616666667","6500300","中和區"
"235012","896-TW","2018/01/16 14:39:18","新北市中和區景新街487號","121.51372","24.987375","6500300","中和區"
"235017","900-TW","2018/01/16 14:39:26","新北市中和區民德路77號","121.468928333333","25.0013183333333","6500300","中和區"
"235015","157-BY","2018/01/16 14:39:29","新北市中和區中興街123號","121.49994","24.9917616666667","6500300","中和區"
"235001","AAC-213","2018/01/16 14:39:26","新北市中和區秀朗路三段50巷5-1號","121.525985","24.9953783333333","6500300","中和區"
"235023","AAC-215","2018/01/16 14:39:06","新北市中和區圓通路305巷13弄2號","121.494153333333","24.9897533333333","6500300","中和區"
"220013","072-UY","2018/01/16 14:39:13","新北市板橋區國泰街75巷28弄54號","121.467638333333","25.0047483333333","6500100","板橋區"
"220105","075-UY","2018/01/16 14:39:17","新北市板橋區民治街26巷18號","121.477336666667","25.0336266666667","6500100","板橋區"
"220017","AAD-861","2018/01/16 14:39:26","新北市板橋區南雅南路二段32號","121.454281666667","25.0030383333333","6500100","板橋區"
"247011","546-UM","2018/01/16 14:39:30","新北市蘆洲區集賢路224巷66號","121.480808333333","25.0881533333333","6501400","蘆洲區"
"247019","500-BY","2018/01/16 14:38:51","新北市蘆洲區民義街68巷46號","121.473928333333","25.0897116666667","6501400","蘆洲區"
"247007","341-TH","2018/01/16 14:39:20","新北市蘆洲區中山一路258號","121.472081666667","25.07972","6501400","蘆洲區"
"247003","336-TH","2018/01/16 14:39:29","新北市蘆洲區長安街194巷3號","121.45909","25.0840783333333","6501400","蘆洲區"
"247015","057-VK","2018/01/16 14:39:26","新北市蘆洲區正和街56號","121.469071666667","25.0814583333333","6501400","蘆洲區"
"247005","056-VK","2018/01/16 14:39:24","新北市蘆洲區中華街47號","121.462748333333","25.0811033333333","6501400","蘆洲區"
"247001","053-VK","2018/01/16 14:39:21","新北市蘆洲區長安街274巷4號","121.457651666667","25.0870066666667","6501400","蘆洲區"
"247013","007-UY","2018/01/16 14:39:12","新北市蘆洲區成功路115號","121.47252","25.0820533333333","6501400","蘆洲區"
"247023","002-UY","2018/01/16 14:39:29","新北市蘆洲區中山二路222巷11號","121.469443333333","25.08024","6501400","蘆洲區"
"235005","251-BX","2018/01/16 14:39:33","新北市中和區景安路10號","121.507603333333","24.99908","6500300","中和區"
"228005","097-TW","2018/01/16 14:39:18","新北市貢寮區美豐里雞母嶺街6-6號","121.902091666667","25.0642233333333","6502600","貢寮區"
"228004","212-TW","2018/01/16 14:39:18","新北市貢寮區福隆里龜壽谷街30-1號","121.947028333333","25.0131916666667","6502600","貢寮區"
"208004","AAC-292","2018/01/16 14:39:23","新北市金山區兩湖里倒照湖43號","121.58992","25.2353016666667","6502700","金山區"
"207002","749-BX","2018/01/16 14:39:30","新北市萬里區崁腳里崁腳路73號","121.647575","25.1596133333333","6502800","萬里區"
"207001","662-BX","2018/01/16 14:38:30","新北市萬里區雙興里豐稟路21-1號","121.640636666667","25.1847416666667","6502800","萬里區"
"236065","105-UM","2018/01/16 14:39:29","新北市土城區永豐路211-2號","121.474628333333","24.976195","6501300","土城區"
"236041","107-UM","2018/01/16 14:39:17","新北市土城區裕民路92巷21弄2號","121.449908333333","24.9864283333333","6501300","土城區"
"236075","166-UM","2018/01/16 14:38:20","新北市土城區頂埔街19巷9-3號","121.416211666667","24.9587116666667","6501300","土城區"
"236029","253-BX","2018/01/16 14:39:18","新北市土城區中華路二段90號","121.438373333333","24.974845","6501300","土城區"
"236025","269-VK","2018/01/16 14:39:23","新北市土城區忠義路46號","121.440576666667","24.969455","6501300","土城區"
"236013","270-VK","2018/01/16 14:39:28","新北市土城區清水路211號","121.46056","24.9819783333333","6501300","土城區"
"236034","271-VK","2018/01/16 14:39:33","新北市土城區明德路一段291巷2號","121.460238333333","24.9769833333333","6501300","土城區"
"236017","401-BY","2018/01/16 14:39:19","新北市土城區明德路一段61號","121.465328333333","24.9844916666667","6501300","土城區"
"236061","752-BX","2018/01/16 14:39:28","新北市土城區延壽路19號","121.4712","24.9906916666667","6501300","土城區"
"236057","912-UM","2018/01/16 14:39:14","新北市土城區中央路四段27巷4號","121.424905","24.9625616666667","6501300","土城區"
"236045","913-UM","2018/01/16 14:39:28","新北市土城區明德路一段51號","121.4652","24.98485","6501300","土城區"
"236054","AAC-216","2018/01/16 14:39:34","新北市土城區中華路一段65號","121.445403333333","24.987905","6501300","土城區"
"220027","145-BY","2018/01/16 14:39:30","新北市板橋區建國街52號","121.458781666667","25.0170033333333","6500100","板橋區"
"220028","200-UY","2018/01/16 14:39:24","新北市板橋區大觀路二段37巷45號","121.448958333333","25.0026466666667","6500100","板橋區"
"220030","610-BX","2018/01/16 14:39:19","新北市板橋區大觀路三段131號","121.432421666667","24.9941116666667","6500100","板橋區"
"220050","245-BX","2018/01/16 14:39:23","新北市板橋區萬板路32號","121.472133333333","25.0222933333333","6500100","板橋區"
"220014","255-TC","2018/01/16 14:28:08","新北市板橋區民生路二段89-6號","121.470715","25.01903","6500100","板橋區"
"220003","256-TC","2018/01/16 14:39:28","新北市板橋區國慶路149巷29弄4號","121.460715","24.9977016666667","6500100","板橋區"
"220045","257-TC","2018/01/16 14:39:30","新北市板橋區民生路二段240巷15號","121.468918333333","25.0231583333333","6500100","板橋區"
"220020","277-BY","2018/01/16 14:39:29","新北市板橋區金門街253巷17弄6號","121.433176666667","24.9884933333333","6500100","板橋區"
"220019","283-VK","2018/01/16 14:39:32","新北市土城區永豐路13巷5弄5號","121.461198333333","24.989235","6500100","板橋區"
"220043","285-UM","2018/01/16 14:39:30","新北市板橋區宏國路14號","121.467795","25.0315216666667","6500100","板橋區"
"220001","285-VK","2018/01/16 14:39:29","新北市板橋區中山路二段148巷28號","121.47721","25.01623","6500100","板橋區"
"220031","286-VK","2018/01/16 14:39:30","新北市板橋區僑中二街126巷2號","121.44525","25.0051116666667","6500100","板橋區"
"220029","287-VK","2018/01/16 14:39:25","新北市板橋區大觀路一段29巷95-1號","121.450575","25.0060366666667","6500100","板橋區"
"220039","288-VK","2018/01/16 14:39:22","新北市板橋區龍泉街54巷8弄12號","121.457393333333","25.0269266666667","6500100","板橋區"
"220009","293-UM","2018/01/16 14:39:21","新北市板橋區中山路一段283巷16號","121.470276666667","25.015105","6500100","板橋區"
"220010","295-UM","2018/01/16 14:39:25","新北市板橋區三民路二段29巷9號","121.48169","25.0181016666667","6500100","板橋區"
"220032","296-UM","2018/01/16 14:39:30","新北市板橋區滿平二街10巷8號","121.425601666667","24.9868283333333","6500100","板橋區"
"220023","303-R5","2018/01/16 14:39:22","新北市板橋區大仁街110巷22號","121.452673333333","25.0165316666667","6500100","板橋區"
"220041","307-R5","2018/01/16 14:39:25","新北市板橋區陽明街27巷1號","121.465673333333","25.0217166666667","6500100","板橋區"
"220047","317-R6","2018/01/16 14:39:32","新北市板橋區裕民街111巷8號","121.459793333333","25.02736","6500100","板橋區"
"220034","461-BY","2018/01/16 14:39:13","新北市板橋區中正路1巷4號","121.455721666667","25.0118783333333","6500100","板橋區"
"220012","486-VK","2018/01/16 14:39:28","新北市板橋區民權路16號","121.463181666667","25.0098833333333","6500100","板橋區"
"220038","487-VK","2018/01/16 14:39:13","新北市板橋區幸福路61號","121.460691666667","25.019725","6500100","板橋區"
"220037","491-VK","2018/01/16 14:39:26","新北市板橋區文化路二段568號","121.476536666667","25.034435","6500100","板橋區"
"220104","560-BX","2018/01/16 14:39:33","新北市板橋區金華街69號","121.457615","25.0207566666667","6500100","板橋區"
"220052","561-BX","2018/01/16 14:39:24","新北市板橋區文化路一段311號","121.466185","25.0203","6500100","板橋區"
"220011","609-BX","2018/01/16 14:39:30","新北市板橋區三民路一段1巷28號","121.480218333333","25.02444","6500100","板橋區"
"220004","630-UY","2018/01/16 14:39:26","新北市板橋區四川路二段47巷1弄1號","121.454083333333","24.99499","6500100","板橋區"
"220040","637-BX","2018/01/16 14:39:25","新北市板橋區懷德街181巷22號","121.480308333333","25.0302166666667","6500100","板橋區"
"220005","686-BX","2018/01/16 14:39:27","新北市板橋區國慶路159號","121.461745","24.99611","6500100","板橋區"
"220025","687-BX","2018/01/16 14:39:19","新北市板橋區僑中二街120巷2號","121.445633333333","25.0059616666667","6500100","板橋區"
"220042","689-BX","2018/01/16 14:39:18","新北市板橋區新海路390號","121.458913333333","25.0263816666667","6500100","板橋區"
"220002","741-BX","2018/01/16 14:39:20","新北市板橋區忠孝路203號","121.465135","25.002675","6500100","板橋區"
"220014","829-TW","2018/01/16 14:39:26","新北市板橋區漢生東路279巷14號","121.471983333333","25.009265","6500100","板橋區"
"220051","830-TW","2018/01/16 14:39:14","新北市板橋區松柏街36巷27號","121.475641666667","25.0292983333333","6500100","板橋區"
"220022","895-R6","2018/01/16 14:39:25","新北市板橋區府中路29-2號","121.458591666667","25.0080566666667","6500100","板橋區"
"220021","985-R7","2018/01/16 14:39:20","新北市板橋區大仁街71號","121.453996666667","25.0162233333333","6500100","板橋區"
"220046","AAC-210","2018/01/16 14:39:22","新北市板橋區漢生西路87號","121.462363333333","25.0194916666667","6500100","板橋區"
"220018","AAC-253","2018/01/16 14:39:17","新北市板橋區民族路256號","121.469365","25.0072033333333","6500100","板橋區"
