"lineid","car","time","location","longitude","latitude","cityid","cityname"
"234025","9371-KE","2018/01/16 15:19:23","新北市永和區福和路1號","121.52556","25.009355","6500400","永和區"
"231002","002-UM","2018/01/16 15:19:22","新北市新店區中正路700巷3號","121.533461666667","24.9917566666667","6500600","新店區"
"231025","0291-UT","2018/01/16 15:19:30","新北市新店區大豐路68巷1號","121.539095","24.979665","6500600","新店區"
"231037","0293-UT","2018/01/16 15:19:24","新北市新店區安興路91巷28-1號","121.512168333333","24.9748383333333","6500600","新店區"
"231028","046-UY","2018/01/16 15:19:18","新北市新店區僑信路108巷42號","121.498986666667","24.94657","6500600","新店區"
"231030","047-UY","2018/01/16 15:19:28","新北市新店區安和路二段207號","121.51764","24.9752233333333","6500600","新店區"
"231029","106-UY","2018/01/16 15:19:14","新北市新店區安康路三段738號","121.473903333333","24.9420066666667","6500600","新店區"
"231018","107-UY","2018/01/16 15:19:28","新北市新店區中央七街21號","121.529843333333","24.97527","6500600","新店區"
"231012","108-UY","2018/01/16 15:19:21","新北市新店區復興路32號","121.539051666667","24.98677","6500600","新店區"
"231020","187-VK","2018/01/16 15:19:20","新北市新店區湖興路49號","121.562443333333","24.9342383333333","6500600","新店區"
"231026","256-BX","2018/01/16 15:19:29","新北市新店區中正路261號","121.538711666667","24.9735733333333","6500600","新店區"
"231023","AAD-862","2018/01/16 15:19:25","新北市新店區行政街14巷2號","121.54312","24.9662633333333","6500600","新店區"
"231024","4716-K9","2018/01/16 15:19:12","新北市新店區新明街14號","121.541031666667","24.968285","6500600","新店區"
"231036","512-UM","2018/01/16 15:19:29","新北市新店區安祥路69巷29號","121.48174","24.9608266666667","6500600","新店區"
"231035","515-UM","2018/01/16 15:19:24","新北市新店區安和路三段77號","121.51794","24.9834766666667","6500600","新店區"
"231006","617-UM","2018/01/16 15:19:16","新北市新店區北新路一段2號","121.54073","24.9651816666667","6500600","新店區"
"231001","619-UM","2018/01/16 15:19:16","新北市新店區光明街314號","121.54057","24.9650966666667","6500600","新店區"
"231003","641-BX","2018/01/16 15:19:29","新北市新店區寶高路120巷1-1號","121.554553333333","24.9759666666667","6500600","新店區"
"231034","645-TV","2018/01/16 15:19:30","新北市新店區如意街1巷2號","121.495705","24.949485","6500600","新店區"
"231039","718-UY","2018/01/16 15:19:29","新北市新店區寶元路一段65號","121.542201666667","24.9858016666667","6500600","新店區"
"231032","720-UM","2018/01/16 15:19:19","新北市新店區裕合街1號","121.490161666667","24.9501266666667","6500600","新店區"
"231005","897-TW","2018/01/16 15:19:25","新北市新店區建國路189號","121.537991666667","24.9796616666667","6500600","新店區"
"231004","899-TW","2018/01/16 15:19:33","新北市新店區建國路29號","121.540231666667","24.9740983333333","6500600","新店區"
"241017","887-TS","2018/01/16 15:19:25","新北市三重區重新路四段121號","121.484983333333","25.0525466666667","6500200","三重區"
"235030","003-UY","2018/01/16 15:19:14","新北市中和區光華街31巷43號","121.505665","25.0050133333333","6500300","中和區"
"235014","4979-A6","2018/01/16 15:19:25","新北市中和區景平路464巷2弄1-4號","121.50591","24.9939983333333","6500300","中和區"
"235033","4980-A6","2018/01/16 15:19:29","新北市中和區連城路347巷16弄9號","121.488195","24.994905","6500300","中和區"
"235034","558-UM","2018/01/16 15:16:37","新北市中和區中正路221號","121.496221666667","24.9937583333333","6500300","中和區"
"235001","611-BX","2018/01/16 15:11:26","新北市中和區員山路36巷16-2號","121.485318333333","24.991685","6500300","中和區"
"235012","896-TW","2018/01/16 15:19:18","新北市中和區景新街377號","121.512336666667","24.9903733333333","6500300","中和區"
"235023","AAC-215","2018/01/16 15:19:26","新北市中和區圓通路320-1號","121.485395","24.9879083333333","6500300","中和區"
"208004","AAC-292","2018/01/16 15:19:23","新北市金山區南勢湖20號","121.620728333333","25.2159466666667","6502700","金山區"
"207002","749-BX","2018/01/16 15:19:29","新北市萬里區崁腳里內中福路9-1號","121.665278333333","25.1639633333333","6502800","萬里區"
"207001","662-BX","2018/01/16 15:19:30","新北市萬里區大鵬里萬里加投9號","121.652166666667","25.2080216666667","6502800","萬里區"
"236065","105-UM","2018/01/16 15:19:29","新北市土城區裕民路185巷36弄10號","121.45438","24.9845166666667","6501300","土城區"
"236041","107-UM","2018/01/16 15:19:17","新北市土城區學府路一段147號","121.453595","24.9859616666667","6501300","土城區"
"236075","166-UM","2018/01/16 14:59:28","新北市土城區中州路3巷50號","121.413375","24.956525","6501300","土城區"
"236029","253-BX","2018/01/16 15:19:18","新北市土城區中央路一段248-3號","121.444283333333","24.9847233333333","6501300","土城區"
"236025","269-VK","2018/01/16 15:19:24","新北市土城區學府路二段228號","121.444993333333","24.9769683333333","6501300","土城區"
"236013","270-VK","2018/01/16 15:19:28","新北市土城區廣福街5號","121.457243333333","24.9888116666667","6501300","土城區"
"236034","271-VK","2018/01/16 15:19:32","新北市土城區國際路152號","121.467831666667","24.976195","6501300","土城區"
"236017","401-BY","2018/01/16 15:19:19","","121.468941666667","24.9874016666667","6501300","土城區"
"236061","752-BX","2018/01/16 15:19:23","新北市土城區延和路105巷4弄2號","121.467458333333","24.990625","6501300","土城區"
"236057","912-UM","2018/01/16 15:19:14","新北市土城區中央路三段38號","121.438251666667","24.9685716666667","6501300","土城區"
"236045","913-UM","2018/01/16 15:19:28","新北市土城區明德路一段137-4號","121.465261666667","24.980635","6501300","土城區"
"236054","AAC-216","2018/01/16 15:19:30","新北市土城區學府路一段72號","121.456703333333","24.9882683333333","6501300","土城區"
"220050","245-BX","2018/01/16 15:19:23","新北市板橋區縣民大道三段32號","121.471676666667","25.0189733333333","6500100","板橋區"
"220031","286-VK","2018/01/16 15:19:30","新北市板橋區僑中二街108巷16號","121.445153333333","25.007515","6500100","板橋區"
"220032","296-UM","2018/01/16 15:19:20","新北市樹林區育德街121巷7號","121.388985","24.9682133333333","6500100","板橋區"
"220038","487-VK","2018/01/16 15:19:24","新北市板橋區四維路232號","121.463673333333","25.0279766666667","6500100","板橋區"
"220025","687-BX","2018/01/16 15:19:19","新北市板橋區華東街1-10號","121.448625","24.994995","6500100","板橋區"
"220042","689-BX","2018/01/16 15:19:18","新北市板橋區長江路一段30號","121.458141666667","25.0288033333333","6500100","板橋區"
"220014","829-TW","2018/01/16 15:19:26","新北市板橋區縣民大道二段200巷35號","121.470643333333","25.0180933333333","6500100","板橋區"
"220051","830-TW","2018/01/16 15:19:14","新北市板橋區漢生東路5號","121.46461","25.0175516666667","6500100","板橋區"
"220018","AAC-253","2018/01/16 15:19:17","新北市板橋區四川路二段245巷32號","121.451451666667","24.9927633333333","6500100","板橋區"
