"lineid","car","time","location","longitude","latitude","cityid","cityname"
"234025","9371-KE","2018/01/16 15:39:23","新北市永和區福和路1號","121.526333333333","25.009795","6500400","永和區"
"231025","0291-UT","2018/01/16 15:39:30","新北市新店區中央路45號","121.532756666667","24.97765","6500600","新店區"
"231037","0293-UT","2018/01/16 15:39:24","新北市新店區安興路105-1號","121.514616666667","24.9777016666667","6500600","新店區"
"231028","046-UY","2018/01/16 15:39:18","新北市新店區安豐路30-1號","121.500743333333","24.9568666666667","6500600","新店區"
"231030","047-UY","2018/01/16 15:39:31","新北市新店區永安街109巷7號","121.5212","24.98582","6500600","新店區"
"231029","106-UY","2018/01/16 15:39:14","新北市新店區安康路三段26號","121.49317","24.95324","6500600","新店區"
"231018","107-UY","2018/01/16 15:39:28","新北市新店區民生路156巷2號","121.528758333333","24.9809833333333","6500600","新店區"
"231012","108-UY","2018/01/16 15:39:21","新北市新店區文化路92號","121.544991666667","24.9826016666667","6500600","新店區"
"231020","187-VK","2018/01/16 15:39:20","新北市新店區金興路1號","121.548196666667","24.929685","6500600","新店區"
"231015","KEA-2219","2018/01/16 15:39:21","新北市新店區北宜路二段64號","121.549535","24.9514883333333","6500600","新店區"
"231026","256-BX","2018/01/16 15:39:29","新北市新店區三民路75巷4弄2號","121.535518333333","24.97101","6500600","新店區"
"231023","AAD-862","2018/01/16 15:39:25","新北市新店區中興路一段280號","121.545526666667","24.968375","6500600","新店區"
"231038","4715-K9","2018/01/16 15:39:30","新北市新店區安康路一段355號","121.519886666667","24.9638133333333","6500600","新店區"
"231036","512-UM","2018/01/16 15:39:18","新北市新店區安康路二段382號","121.500446666667","24.9571316666667","6500600","新店區"
"231035","515-UM","2018/01/16 15:39:24","新北市新店區安興路83號","121.515286666667","24.9753366666667","6500600","新店區"
"231003","641-BX","2018/01/16 15:39:29","新北市新店區寶興路49-1號","121.54935","24.9729983333333","6500600","新店區"
"231034","645-TV","2018/01/16 15:39:30","新北市新店區玫瑰路58巷6號","121.495125","24.9466466666667","6500600","新店區"
"231039","718-UY","2018/01/16 15:39:29","新北市新店區寶元路二段39號","121.54707","24.9813583333333","6500600","新店區"
"231013","719-UM","2018/01/16 15:39:29","新北市新店區永業路81巷7弄16號","121.531081666667","24.9493166666667","6500600","新店區"
"231032","720-UM","2018/01/16 15:39:19","新北市新店區雙城路133號","121.497911666667","24.9388466666667","6500600","新店區"
"231005","897-TW","2018/01/16 15:39:25","新北市新店區建國路130號","121.539118333333","24.978805","6500600","新店區"
"231004","899-TW","2018/01/16 15:39:13","新北市新店區民族路108號","121.538216666667","24.9773816666667","6500600","新店區"
"241011","013-R5","2018/01/16 15:39:14","新北市三重區正義北路154號","121.496548333333","25.0662533333333","6500200","三重區"
"241028","022-UY","2018/01/16 15:39:30","新北市三重區重新路四段121號","121.484823333333","25.0525766666667","6500200","三重區"
"241015","062-VK","2018/01/16 15:39:27","新北市三重區重新路四段121號","121.485148333333","25.0520283333333","6500200","三重區"
"241026","066-VK","2018/01/16 15:39:30","新北市三重區重新路四段121號","121.48441","25.052075","6500200","三重區"
"241003","091-VK","2018/01/16 15:39:31","新北市三重區河邊北街196號","121.503098333333","25.0740233333333","6500200","三重區"
"241005","262-UM","2018/01/16 15:39:32","新北市三重區重新路四段121號","121.48466","25.05185","6500200","三重區"
"241018","268-UM","2018/01/16 15:39:31","新北市三重區重新路四段121號","121.484995","25.0525366666667","6500200","三重區"
"241013","270-UM","2018/01/16 15:39:27","新北市三重區忠孝路二段1號","121.487115","25.0715283333333","6500200","三重區"
"241007","398-BY","2018/01/16 15:39:23","新北市三重區重新路四段121號","121.48522","25.0520016666667","6500200","三重區"
"241014","543-UM","2018/01/16 15:39:27","新北市三重區重新路四段121號","121.485085","25.0521466666667","6500200","三重區"
"241033","557-UM","2018/01/16 15:39:28","新北市三重區重新路五段447號","121.474381666667","25.0472683333333","6500200","三重區"
"241017","887-TS","2018/01/16 15:39:25","新北市三重區捷運路69號","121.483271666667","25.0555633333333","6500200","三重區"
"241029","942-UM","2018/01/16 15:39:22","新北市三重區大同南路153-2號","121.496693333333","25.0567333333333","6500200","三重區"
"235033","4980-A6","2018/01/16 15:39:29","新北市中和區中正路637巷44弄8號","121.484978333333","24.9943666666667","6500300","中和區"
"235001","611-BX","2018/01/16 15:11:26","新北市中和區員山路36巷16-2號","121.485318333333","24.991685","6500300","中和區"
"235026","800-TS","2018/01/16 15:39:28","新北市中和區橋和路170號","121.494451666667","25.0063566666667","6500300","中和區"
"235023","AAC-215","2018/01/16 15:39:26","新北市中和區員山路11號","121.480563333333","24.9835166666667","6500300","中和區"
"228002","828-UM","2018/01/16 15:36:09","新北市貢寮區貢寮里朝陽街1-2號","121.912323333333","25.0212533333333","6502600","貢寮區"
"227003","400-TW","2018/01/16 15:39:19","新北市雙溪區雙溪里內挖路81號","121.863463333333","25.0380016666667","6502500","雙溪區"
"236065","105-UM","2018/01/16 15:39:29","新北市土城區中央路三段112號","121.435298333333","24.96629","6501300","土城區"
"236075","166-UM","2018/01/16 15:39:29","新北市土城區福安街64號","121.418463333333","24.96453","6501300","土城區"
"236029","253-BX","2018/01/16 15:39:18","新北市土城區學成路108巷13弄11號","121.449575","24.9900933333333","6501300","土城區"
"236025","269-VK","2018/01/16 15:39:22","新北市土城區中央路一段249巷11號","121.445891666667","24.9856133333333","6501300","土城區"
"236013","270-VK","2018/01/16 15:39:28","新北市板橋區信義路54巷17弄41號","121.456085","24.9947766666667","6501300","土城區"
"236017","401-BY","2018/01/16 15:39:20","新北市土城區延吉街72號","121.471158333333","24.9866316666667","6501300","土城區"
"236057","912-UM","2018/01/16 15:39:34","新北市土城區中央路一段145號","121.44666","24.98795","6501300","土城區"
"236045","913-UM","2018/01/16 15:39:28","新北市中和區連城路631-2號","121.475601666667","24.9913483333333","6501300","土城區"
"236054","AAC-216","2018/01/16 15:39:21","新北市土城區學府路一段81號","121.456648333333","24.98817","6501300","土城區"
"220032","296-UM","2018/01/16 15:39:30","新北市板橋區溪崑二街101號","121.426916666667","24.9890683333333","6500100","板橋區"
"220052","561-BX","2018/01/16 15:39:27","新北市板橋區漢生東路53巷15號","121.466443333333","25.0172133333333","6500100","板橋區"
