"lineid","car","time","location","longitude","latitude","cityid","cityname"
"249005","172-UM","2018/01/16 17:19:29","新北市五股區民義路二段132號","121.409013333333","25.1211666666667","6502300","八里區"
"249001","173-UM","2018/01/16 17:19:31","新北市八里區中華路二段165巷3號","121.407685","25.1508933333333","6502300","八里區"
"249004","303-UY","2018/01/16 17:19:35","新北市八里區中山路一段45號","121.419116666667","25.1594933333333","6502300","八里區"
"249002","305-UY","2018/01/16 17:19:32","新北市八里區龍米路二段117巷42號","121.444361666667","25.14193","6502300","八里區"
"249003","593-UM","2018/01/16 17:19:42","新北市八里區中山路二段409號","121.397335","25.14646","6502300","八里區"
"244013","069-UM","2018/01/16 17:19:38","新北市林口區粉寮69號","121.405105","25.0908216666667","6501700","林口區"
"244007","080-UY","2018/01/16 17:19:33","新北市林口區中湖48-11號","121.380505","25.0928966666667","6501700","林口區"
"244019","402-UM","2018/01/16 17:19:36","新北市林口區文化二路一段378號","121.37416","25.0763583333333","6501700","林口區"
"244009","410-SL","2018/01/16 17:19:30","新北市林口區文化北路二段550巷20弄37號","121.378063333333","25.0914183333333","6501700","林口區"
"244023","483-VK","2018/01/16 17:19:27","新北市林口區仁愛路一段641號","121.38892","25.0766316666667","6501700","林口區"
"244025","837-TS","2018/01/16 17:19:33","新北市林口區中山路516號","121.379026666667","25.0829633333333","6501700","林口區"
"244021","838-TS","2018/01/16 17:19:42","新北市林口區粉寮路二段352號","121.404715","25.0978683333333","6501700","林口區"
"231046","278-BY","2018/01/16 17:19:43","新北市新店區直潭路92號","121.530905","24.93763","6500600","新店區"
"241011","013-R5","2018/01/16 17:19:33","新北市三重區龍濱路191號","121.501951666667","25.0712116666667","6500200","三重區"
"241028","022-UY","2018/01/16 17:19:29","新北市三重區仁化街64號","121.493868333333","25.05903","6500200","三重區"
"241008","059-VK","2018/01/16 17:19:38","新北市三重區下竹圍街17號","121.481013333333","25.0757766666667","6500200","三重區"
"241009","060-VK","2018/01/16 17:19:27","新北市三重區仁愛街610號","121.483741666667","25.0807816666667","6500200","三重區"
"241015","062-VK","2018/01/16 17:19:47","新北市三重區長元街82-1號","121.501903333333","25.0663016666667","6500200","三重區"
"241024","065-VK","2018/01/16 17:19:46","新北市三重區後竹圍街301號","121.478626666667","25.06984","6500200","三重區"
"241026","066-VK","2018/01/16 17:19:30","新北市三重區福裕街25號","121.499406666667","25.0616133333333","6500200","三重區"
"241002","090-VK","2018/01/16 17:19:34","新北市三重區自強路五段64號","121.493933333333","25.0814816666667","6500200","三重區"
"241003","091-VK","2018/01/16 17:19:24","新北市三重區五華街125號","121.491445","25.084175","6500200","三重區"
"241020","156-TC","2018/01/16 17:19:36","新北市三重區自強路三段72號","121.486825","25.073385","6500200","三重區"
"241005","262-UM","2018/01/16 17:19:48","新北市三重區永安北路二段25巷60號","121.483436666667","25.08209","6500200","三重區"
"241016","266-UM","2018/01/16 17:19:45","新北市三重區大同北路54巷1號","121.49424","25.063595","6500200","三重區"
"241022","267-UM","2018/01/16 17:19:34","新北市三重區中正北路64巷24號","121.486196666667","25.063605","6500200","三重區"
"241018","268-UM","2018/01/16 17:19:31","新北市三重區安慶街155號","121.494266666667","25.0687216666667","6500200","三重區"
"241032","269-UM","2018/01/16 17:19:43","新北市三重區中華路2巷29號","121.482285","25.06053","6500200","三重區"
"241013","270-UM","2018/01/16 17:19:47","新北市三重區三和路三段107巷2號","121.494281666667","25.072905","6500200","三重區"
"241025","271-UM","2018/01/16 17:19:31","新北市三重區中正北路378號","121.476798333333","25.069715","6500200","三重區"
"241007","398-BY","2018/01/16 17:19:43","新北市三重區慈愛街1號","121.48463","25.0784633333333","6500200","三重區"
"241019","478-VK","2018/01/16 17:19:30","新北市三重區自強路二段74巷11號","121.488208333333","25.06984","6500200","三重區"
"241030","480-VK","2018/01/16 17:19:26","新北市三重區成功路73巷20號","121.489466666667","25.0519716666667","6500200","三重區"
"241014","543-UM","2018/01/16 17:19:47","新北市三重區長榮路6號","121.500023333333","25.068485","6500200","三重區"
"241023","545-UM","2018/01/16 17:19:29","新北市三重區三民街166號","121.482158333333","25.0655716666667","6500200","三重區"
"241033","557-UM","2018/01/16 17:19:28","新北市三重區中興北街136巷20號","121.467951666667","25.0559066666667","6500200","三重區"
"241017","887-TS","2018/01/16 17:19:25","新北市三重區大同北路52號","121.495021666667","25.0630566666667","6500200","三重區"
"241012","941-UM","2018/01/16 17:19:42","新北市三重區仁昌街96號","121.499698333333","25.0750783333333","6500200","三重區"
"247022","893-R6","2018/01/16 17:19:34","新北市蘆洲區三民路128巷82弄2號","121.469908333333","25.0896516666667","6501400","蘆洲區"
"247012","546-UM","2018/01/16 17:19:35","新北市蘆洲區信義路319巷8號","121.4778","25.08629","6501400","蘆洲區"
"247020","500-BY","2018/01/16 17:19:36","新北市蘆洲區民族路448號","121.472576666667","25.09208","6501400","蘆洲區"
"247008","341-TH","2018/01/16 17:19:35","新北市蘆洲區永安北路一段72巷42號","121.47627","25.077055","6501400","蘆洲區"
"247010","339-TH","2018/01/16 17:19:29","新北市蘆洲區三民路26巷10號","121.476898333333","25.082695","6501400","蘆洲區"
"247004","336-TH","2018/01/16 17:19:42","新北市蘆洲區中原路26號","121.460066666667","25.082825","6501400","蘆洲區"
"247016","057-VK","2018/01/16 17:19:37","新北市蘆洲區正和街77巷2號","121.468425","25.0806816666667","6501400","蘆洲區"
"247006","056-VK","2018/01/16 17:19:36","新北市蘆洲區永安南路二段156號","121.461846666667","25.079065","6501400","蘆洲區"
"247002","053-VK","2018/01/16 17:19:45","新北市蘆洲區永樂街38巷33弄4號","121.457941666667","25.0894966666667","6501400","蘆洲區"
"247014","007-UY","2018/01/16 17:19:36","新北市蘆洲區中正路81號","121.470158333333","25.083565","6501400","蘆洲區"
"247024","002-UY","2018/01/16 17:19:39","新北市蘆洲區長榮路256號","121.460301666667","25.0860083333333","6501400","蘆洲區"
"247018","001-UY","2018/01/16 17:19:10","新北市蘆洲區民權路84號","121.47456","25.087675","6501400","蘆洲區"
"228003","097-TW","2018/01/16 17:19:35","新北市貢寮區福隆里興隆街36號","121.941448333333","25.0172066666667","6502600","貢寮區"
"228001","212-TW","2018/01/16 17:19:42","新北市貢寮區仁理村尖山腳街18-3號","121.925493333333","25.0483433333333","6502600","貢寮區"
"228002","828-UM","2018/01/16 17:19:36","新北市貢寮區雙玉里田寮洋街43號","121.925948333333","25.0126816666667","6502600","貢寮區"
"224006","676-BX","2018/01/16 17:19:29","新北市瑞芳區大寮路45號","121.78208","25.0983633333333","6501200","瑞芳區"
"224009","285-BY","2018/01/16 17:19:35","新北市瑞芳區石崁巷49號","121.837666666667","25.1095816666667","6501200","瑞芳區"
"224008","275-VK","2018/01/16 17:19:38","新北市瑞芳區侯硐路154號","121.827301666667","25.0848583333333","6501200","瑞芳區"
"224005","271-BY","2018/01/16 17:19:41","新北市瑞芳區南雅路89-8號","121.88604","25.1221216666667","6501200","瑞芳區"
"227009","642-TC","2018/01/16 17:19:31","新北市雙溪區三貂里定福路22-1號","121.8515","25.07285","6502500","雙溪區"
"227003","400-TW","2018/01/16 17:19:39","新北市雙溪區上林里內平林75號","121.82999","25.0285666666667","6502500","雙溪區"
"251004","009-UM","2018/01/16 17:19:28","新北市淡水區中正東路二段88巷15號","121.459161666667","25.1504566666667","6501000","淡水區"
"251005","010-UM","2018/01/16 17:19:37","新北市淡水區鄧公路19-1號","121.450805","25.1700816666667","6501000","淡水區"
"251013","179-VK","2018/01/16 17:19:36","新北市淡水區大埤頭9-1號","121.481925","25.19465","6501000","淡水區"
"251014","180-VK","2018/01/16 17:19:40","新北市淡水區公埔子45號","121.464006666667","25.2302133333333","6501000","淡水區"
"251008","181-VK","2018/01/16 17:19:39","新北市淡水區大同路293號","121.467731666667","25.1424166666667","6501000","淡水區"
"251015","182-VK","2018/01/16 17:19:44","新北市淡水區樹林口168號","121.476541666667","25.167035","6501000","淡水區"
"251010","413-VK","2018/01/16 17:19:34","新北市淡水區新市一路一段6號","121.429103333333","25.18749","6501000","淡水區"
"251012","441-VK","2018/01/16 17:19:40","新北市淡水區北新路9號","121.444451666667","25.1780133333333","6501000","淡水區"
"251016","442-VK","2018/01/16 17:19:45","新北市淡水區鄒厝崙14號","121.461675","25.1904416666667","6501000","淡水區"
"251006","561-UM","2018/01/16 17:19:41","新北市淡水區大智街45號","121.442766666667","25.1742483333333","6501000","淡水區"
"251009","575-R6","2018/01/16 17:19:44","新北市淡水區三民街21號","121.439025","25.17191","6501000","淡水區"
"251007","577-R6","2018/01/16 17:19:42","新北市淡水區民生路47-4號","121.461971666667","25.1380583333333","6501000","淡水區"
"251011","650-BX","2018/01/16 17:19:40","新北市淡水區坪頂路139號","121.46651","25.1616483333333","6501000","淡水區"
"251002","672-BX","2018/01/16 17:19:43","新北市淡水區中正路二段31號","121.419366666667","25.1816866666667","6501000","淡水區"
"251003","673-BX","2018/01/16 17:19:33","新北市淡水區中正路二段31號","121.419326666667","25.1818266666667","6501000","淡水區"
"207003","550-UM","2018/01/16 17:19:33","新北市萬里區萬里里瑪鋉路340號","121.68782","25.1830116666667","6502800","萬里區"
"252002","178-VK","2018/01/16 17:19:30","新北市三芝區忠孝街1-14號","121.50553","25.2540116666667","6502100","三芝區"
"252001","292-VK","2018/01/16 17:19:39","新北市三芝區淡金路一段3號","121.498141666667","25.25966","6502100","三芝區"
"242032","AAC-296","2018/01/16 17:19:43","新北市新莊區新泰路498號","121.442521666667","25.0463166666667","6500500","新莊區"
"242029","986-R7","2018/01/16 17:19:43","新北市新莊區幸福路914號","121.442631666667","25.049","6500500","新莊區"
"242051","751-BX","2018/01/16 17:19:27","新北市新莊區瓊林南路71-9號","121.435366666667","25.0160233333333","6500500","新莊區"
"242025","615-BX","2018/01/16 17:19:42","新北市新莊區復興路一段113號","121.449395","25.0429616666667","6500500","新莊區"
"242023","613-BX","2018/01/16 17:19:45","新北市新莊區中港一街161號","121.447131666667","25.0449716666667","6500500","新莊區"
"242027","612-BX","2018/01/16 17:19:43","新北市新莊區復興路一段97號","121.448895","25.0428133333333","6500500","新莊區"
"242039","566-BX","2018/01/16 17:19:39","新北市新莊區民安路426-9號","121.432935","25.0228866666667","6500500","新莊區"
"242044","442-UM","2018/01/16 17:19:29","新北市新莊區富國路101-1號","121.421305","25.0255983333333","6500500","新莊區"
"242048","441-UM","2018/01/16 17:19:33","新北市新莊區龍安路253號","121.419683333333","25.0201116666667","6500500","新莊區"
"242054","440-UM","2018/01/16 17:19:33","新北市新莊區環河路462號","121.440121666667","25.0197766666667","6500500","新莊區"
"242034","415-TV","2018/01/16 17:19:28","新北市新莊區新莊路773號","121.44201","25.0326533333333","6500500","新莊區"
"242005","413-TV","2018/01/16 17:19:31","新北市新莊區中環路二段392-1號","121.442446666667","25.0455783333333","6500500","新莊區"
"242042","400-BY","2018/01/16 17:19:32","新北市新莊區新樹路113巷33號","121.439571666667","25.0263633333333","6500500","新莊區"
"242061","362-BY","2018/01/16 17:19:34","新北市新莊區新泰路357巷2-2號","121.441901666667","25.041205","6500500","新莊區"
"242058","353-BY","2018/01/16 17:19:39","新北市新莊區中正路400號","121.441723333333","25.033955","6500500","新莊區"
"242007","132-UY","2018/01/16 17:19:46","新北市新莊區中平路82巷36-2號","121.446328333333","25.0449533333333","6500500","新莊區"
"242037","133-UY","2018/01/16 17:19:27","新北市新莊區新樹路209號","121.435716666667","25.0236316666667","6500500","新莊區"
"242021","135-UY","2018/01/16 17:19:37","新北市新莊區中港路264號","121.45346","25.04369","6500500","新莊區"
"242046","172-VK","2018/01/16 17:19:35","新北市新莊區新樹路65-6號","121.43946","25.03078","6500500","新莊區"
"242015","175-VK","2018/01/16 17:19:37","新北市新莊區新泰路312號","121.445216666667","25.0413816666667","6500500","新莊區"
"242002","176-VK","2018/01/16 17:19:41","新北市新莊區新泰路234號","121.446526666667","25.0392366666667","6500500","新莊區"
"242013","346-TH","2018/01/16 17:19:41","新北市新莊區中和街59號","121.447265","25.046805","6500500","新莊區"
"242019","348-TH","2018/01/16 17:19:39","新北市新莊區明中街49巷2號","121.457018333333","25.0394416666667","6500500","新莊區"
"242056","349-TH","2018/01/16 17:19:32","新北市泰山區磚雅厝3號","121.442","25.0416133333333","6500500","新莊區"
"242017","350-TH","2018/01/16 17:19:29","新北市新莊區中華路一段103號","121.452718333333","25.0438966666667","6500500","新莊區"
"242011","351-TH","2018/01/16 17:19:36","新北市新莊區新泰路502巷2號","121.44266","25.0463466666667","6500500","新莊區"
"238015","755-BX","2018/01/16 17:19:41","新北市樹林區大安路305號","121.417788333333","24.9922133333333","6500700","樹林區"
"238023","601-UM","2018/01/16 17:19:36","新北市樹林區保安街一段269號","121.419345","24.997085","6500700","樹林區"
"238019","599-UM","2018/01/16 17:19:43","新北市樹林區八德街106-1號","121.421033333333","24.9799333333333","6500700","樹林區"
"238018","571-TV","2018/01/16 17:19:39","新北市樹林區樹中街63-1號","121.421213333333","24.9852983333333","6500700","樹林區"
"238024","5061-A6","2018/01/16 17:19:30","新北市樹林區鎮前街10號","121.426273333333","24.99337","6500700","樹林區"
"238021","KEA-2217","2018/01/16 17:19:30","新北市樹林區西圳街一段165巷20弄28號","121.395606666667","24.9601383333333","6500700","樹林區"
"238022","KEA-2213","2018/01/16 17:19:44","新北市樹林區和平街71號","121.424466666667","24.9825883333333","6500700","樹林區"
"238025","303-VK","2018/01/16 17:19:44","新北市樹林區中山路一段296號","121.4203","24.9863983333333","6500700","樹林區"
"238014","282-BY","2018/01/16 17:19:33","新北市樹林區長壽街23-7號","121.420808333333","24.994835","6500700","樹林區"
"238020","268-VK","2018/01/16 17:19:38","新北市樹林區保安街一段193-1號","121.420721666667","24.99582","6500700","樹林區"
"238026","172-UY","2018/01/16 17:19:47","新北市樹林區東大街144號","121.409973333333","24.9759566666667","6500700","樹林區"
"238016","169-UY","2018/01/16 17:19:42","新北市樹林區中山路二段34號","121.41741","24.9849433333333","6500700","樹林區"
"239007","AAC-297","2018/01/16 17:19:40","新北市鶯歌區光復街46號","121.35134","24.9559133333333","6500800","鶯歌區"
"239006","891-R6","2018/01/16 17:19:30","新北市鶯歌區德昌二街73號","121.33339","24.9578933333333","6500800","鶯歌區"
"239008","527-UM","2018/01/16 17:19:37","新北市鶯歌區西湖街45巷1號","121.340083333333","24.9587883333333","6500800","鶯歌區"
"239005","526-UM","2018/01/16 17:19:30","新北市鶯歌區福德二街24號","121.329555","24.9670716666667","6500800","鶯歌區"
"239001","417-VK","2018/01/16 17:19:29","新北市鶯歌區尖山路242號","121.342753333333","24.946605","6500800","鶯歌區"
"239003","360-BY","2018/01/16 17:19:33","新北市鶯歌區德昌二街33號","121.333288333333","24.9588516666667","6500800","鶯歌區"
"239002","359-BY","2018/01/16 17:19:35","新北市鶯歌區南昌街17號","121.349573333333","24.9541833333333","6500800","鶯歌區"
"239004","193-VK","2018/01/16 17:19:27","新北市鶯歌區文化路324巷1-35號","121.352563333333","24.9456283333333","6500800","鶯歌區"
"221008","358-BY","2018/01/16 17:19:31","新北市汐止區康寧街901號","121.651316666667","25.075005","6501100","汐止區"
