"lineid","car","time","location","longitude","latitude","cityid","cityname"
"234046","148-BY","2018/01/16 18:39:38","新北市永和區永元路68號","121.522595","25.0015083333333","6500400","永和區"
"234042","149-BY","2018/01/16 18:39:42","新北市永和區永貞路306號","121.511833333333","25.00483","6500400","永和區"
"234007","207-UY","2018/01/16 18:39:40","新北市永和區文化路170號","121.511765","25.0155716666667","6500400","永和區"
"234081","298-R6","2018/01/16 18:39:36","新北市永和區林森路81號","121.523928333333","25.00387","6500400","永和區"
"234086","338-UY","2018/01/16 18:39:33","新北市永和區永貞路120號","121.518648333333","25.0045766666667","6500400","永和區"
"234030","746-BX","2018/01/16 18:39:34","新北市永和區得和路321號","121.523401666667","24.9996266666667","6500400","永和區"
"234013","KEA-2591","2018/01/16 18:39:37","新北市永和區保福路二段109巷2號","121.510223333333","25.0134116666667","6500400","永和區"
"234061","AAD-866","2018/01/16 18:39:35","新北市永和區福和路8巷3號","121.524888333333","25.0090883333333","6500400","永和區"
"234050","863-TW","2018/01/16 18:39:34","新北市永和區福和路1號","121.526645","25.0098616666667","6500400","永和區"
"234026","9371-KE","2018/01/16 18:39:33","新北市永和區中山路一段214號","121.508258333333","25.00851","6500400","永和區"
"234011","9373-KE","2018/01/16 18:39:40","新北市永和區文化路9巷22弄34號","121.51446","25.0145783333333","6500400","永和區"
"249005","172-UM","2018/01/16 18:39:28","新北市八里區中華路三段196號","121.388146666667","25.1256183333333","6502300","八里區"
"249001","173-UM","2018/01/16 18:39:31","新北市八里區龍米路一段398號","121.451425","25.132875","6502300","八里區"
"249004","303-UY","2018/01/16 18:39:35","新北市八里區中山路一段172號","121.417096666667","25.1594983333333","6502300","八里區"
"248014","025-BX","2018/01/16 18:39:42","新北市五股區蓬萊路8號","121.435378333333","25.0794933333333","6501500","五股區"
"248016","026-BX","2018/01/16 18:39:32","新北市五股區凌雲路一段149巷24號","121.448776666667","25.1017016666667","6501500","五股區"
"248008","095-VK","2018/01/16 18:39:29","新北市五股區中興路一段150巷4號","121.464648333333","25.0741716666667","6501500","五股區"
"248020","225-UY","2018/01/16 18:39:43","新北市五股區孝義路73-1號","121.445475","25.1195383333333","6501500","五股區"
"248012","247-BX","2018/01/16 18:39:33","新北市五股區成泰路三段2巷1-20號","121.441256666667","25.0866616666667","6501500","五股區"
"248010","272-BY","2018/01/16 18:39:32","新北市五股區水碓一路92號","121.43177","25.0736433333333","6501500","五股區"
"248004","677-BX","2018/01/16 18:39:45","新北市五股區民義路一段206號","121.430405","25.0891166666667","6501500","五股區"
"248002","678-BX","2018/01/16 18:39:34","新北市五股區西雲路200號","121.447718333333","25.0955983333333","6501500","五股區"
"234023","9380-KE","2018/01/16 18:39:42","新北市永和區福和路8巷3號","121.52488","25.009115","6500400","永和區"
"234077","969-R7","2018/01/16 18:39:31","新北市永和區中正路279號","121.5176","25.0010233333333","6500400","永和區"
"234067","AAC-212","2018/01/16 18:39:45","新北市永和區福和路14號","121.524258333333","25.008495","6500400","永和區"
"232011","375-UM","2018/01/16 18:20:24","新北市坪林區坪雙路一段43號","121.711691666667","24.9424383333333","6502000","坪林區"
"244013","069-UM","2018/01/16 18:39:43","新北市林口區佳林路104號","121.385153333333","25.0790883333333","6501700","林口區"
"244007","080-UY","2018/01/16 18:39:33","新北市林口區湖北里57號","121.384335","25.1067683333333","6501700","林口區"
"244019","402-UM","2018/01/16 18:39:36","新北市林口區忠孝路646巷2號","121.37904","25.0681033333333","6501700","林口區"
"244009","410-SL","2018/01/16 18:39:30","新北市林口區林口路241號","121.38667","25.0837666666667","6501700","林口區"
"244023","483-VK","2018/01/16 18:39:47","新北市林口區文化一路二段92號","121.381611666667","25.0786416666667","6501700","林口區"
"244017","485-VK","2018/01/16 18:39:46","新北市林口區文化二路一段68巷2號","121.366133333333","25.0687333333333","6501700","林口區"
"244011","656-BX","2018/01/16 18:39:43","新北市林口區興林路17巷3弄1號","121.390145","25.0770266666667","6501700","林口區"
"244025","837-TS","2018/01/16 18:39:33","新北市林口區南勢里53-6號","121.35505","25.0748266666667","6501700","林口區"
"244021","838-TS","2018/01/16 18:39:42","新北市林口區工六路10號","121.397978333333","25.0791116666667","6501700","林口區"
"243012","AAD-798","2018/01/16 18:39:32","新北市泰山區泰林路二段73巷27號","121.434443333333","25.05786","6501600","泰山區"
"243013","646-TV","2018/01/16 18:39:45","新北市泰山區明志路三段206巷3號","121.423278333333","25.0379383333333","6501600","泰山區"
"222003","436-BY","2018/01/16 18:39:38","新北市深坑區翠谷街14號","121.627046666667","25.0085983333333","6501800","深坑區"
"222002","659-BX","2018/01/16 18:39:28","新北市深坑區雲鄉路66號","121.621598333333","24.9993366666667","6501800","深坑區"
"231041","002-UM","2018/01/16 18:39:31","新北市新店區安華路28-1號","121.519578333333","24.9608866666667","6500600","新店區"
"231066","0293-UT","2018/01/16 18:39:43","新北市新店區安華路1-1號","121.519558333333","24.9604683333333","6500600","新店區"
"231059","046-UY","2018/01/16 18:39:36","新北市新店區安華路28-1號","121.51951","24.9608416666667","6500600","新店區"
"231061","047-UY","2018/01/16 18:39:38","新北市新店區安華路28-1號","121.519323333333","24.9610083333333","6500600","新店區"
"231060","106-UY","2018/01/16 18:39:44","新北市新店區安華路28-1號","121.51969","24.9607916666667","6500600","新店區"
"231051","107-UY","2018/01/16 18:39:41","新北市新店區中央路47號","121.53281","24.9774283333333","6500600","新店區"
"231048","108-UY","2018/01/16 18:39:27","新北市新店區安康路一段273號","121.524063333333","24.9634283333333","6500600","新店區"
"231053","187-VK","2018/01/16 18:39:39","新北市新店區永興路19號","121.544081666667","24.93923","6500600","新店區"
"231050","KEA-2219","2018/01/16 18:39:30","新北市新店區安華路28-1號","121.519676666667","24.9612583333333","6500600","新店區"
"231057","256-BX","2018/01/16 18:39:30","新北市新店區新烏路一段201號","121.547788333333","24.9324016666667","6500600","新店區"
"231046","278-BY","2018/01/16 18:39:43","新北市新店區直潭二街1號","121.535546666667","24.943205","6500600","新店區"
"231054","AAD-862","2018/01/16 18:39:40","新北市新店區安華路28-1號","121.519711666667","24.9612233333333","6500600","新店區"
"231058","3712-VJ","2018/01/16 18:39:30","新北市新店區北宜路一段168號","121.540425","24.953","6500600","新店區"
"231056","3713-VJ","2018/01/16 18:39:37","新北市新店區環河路113-1號","121.53126","24.9712233333333","6500600","新店區"
"231055","4716-K9","2018/01/16 18:39:35","新北市新店區中華路143號","121.538216666667","24.97009","6500600","新店區"
"231067","4772-VM","2018/01/16 18:39:42","新北市新店區安華路28-1號","121.519331666667","24.96066","6500600","新店區"
"231065","512-UM","2018/01/16 18:39:33","新北市新店區安華路28-1號","121.519206666667","24.9611883333333","6500600","新店區"
"231064","515-UM","2018/01/16 18:39:42","新北市新店區安華路28-1號","121.519743333333","24.9611433333333","6500600","新店區"
"231045","617-UM","2018/01/16 18:19:02","新北市新店區安華路28-1號","121.519451666667","24.9611233333333","6500600","新店區"
"231040","619-UM","2018/01/16 18:39:30","新北市新店區安華路28-1號","121.519675","24.9607633333333","6500600","新店區"
"231042","641-BX","2018/01/16 18:39:40","新北市新店區安華路28-1號","121.519538333333","24.960525","6500600","新店區"
"231063","645-TV","2018/01/16 18:39:42","新北市新店區安華路1-1號","121.519536666667","24.9602533333333","6500600","新店區"
"231049","719-UM","2018/01/16 18:39:34","新北市新店區建國路110號","121.539715","24.9780766666667","6500600","新店區"
"231062","720-UM","2018/01/16 18:39:37","新北市新店區安華路28-1號","121.519366666667","24.9612616666667","6500600","新店區"
"231044","897-TW","2018/01/16 18:39:29","新北市新店區安康路一段50號","121.530231666667","24.96113","6500600","新店區"
"231043","899-TW","2018/01/16 18:39:42","新北市新店區安華路28-1號","121.519251666667","24.9608883333333","6500600","新店區"
"235066","003-UY","2018/01/16 18:39:33","新北市中和區水源路37號","121.504408333333","25.0035983333333","6500300","中和區"
"235064","005-UY","2018/01/16 18:39:40","新北市中和區連城路97號","121.49655","24.9998566666667","6500300","中和區"
"235063","006-UY","2018/01/16 18:39:35","新北市中和區連城路347巷4弄30號","121.48695","24.9956783333333","6500300","中和區"
"235046","031-BX","2018/01/16 18:39:44","新北市中和區仁愛街93號","121.511746666667","24.9868883333333","6500300","中和區"
"235056","096-UM","2018/01/16 18:39:33","新北市中和區員山路611巷1號","121.47791","25.0112933333333","6500300","中和區"
"235039","097-UM","2018/01/16 18:39:39","新北市中和區安平路192號","121.513235","24.9992133333333","6500300","中和區"
"235065","098-UM","2018/01/16 18:39:34","新北市中和區莊敬路33巷34弄14號","121.500616666667","25.00603","6500300","中和區"
"235040","150-BY","2018/01/16 18:39:39","新北市中和區保健路78號","121.511761666667","24.9963683333333","6500300","中和區"
"235058","151-BY","2018/01/16 18:39:30","新北市中和區圓通路369巷30弄24號","121.489086666667","24.98499","6500300","中和區"
"235055","183-VK","2018/01/16 18:39:44","新北市中和區民生街91號","121.468581666667","25.00479","6500300","中和區"
"235038","185-VK","2018/01/16 18:39:40","新北市中和區大勇街60巷30號","121.519376666667","24.99455","6500300","中和區"
"235049","186-VK","2018/01/16 18:39:47","新北市中和區景平路502-1號","121.504053333333","24.993705","6500300","中和區"
"235067","255-BX","2018/01/16 18:39:38","新北市中和區新生街42號","121.483256666667","25.003435","6500300","中和區"
"235044","293-VK","2018/01/16 18:39:45","新北市中和區復興路280巷20號","121.502175","24.99171","6500300","中和區"
"235072","301-VK","2018/01/16 18:39:33","新北市中和區景平路597號","121.497003333333","25.00063","6500300","中和區"
"235043","352-BY","2018/01/16 18:39:38","新北市中和區景平路103號","121.517085","24.9918683333333","6500300","中和區"
"235068","377-QA","2018/01/16 18:39:35","新北市中和區中正路167巷15號","121.498356666667","24.9929033333333","6500300","中和區"
"235061","378-QA","2018/01/16 18:39:32","新北市中和區民享街90巷20號","121.473628333333","25.00007","6500300","中和區"
"235050","4979-A6","2018/01/16 18:39:42","新北市中和區忠孝街124巷2號","121.51241","24.9859966666667","6500300","中和區"
"235069","4980-A6","2018/01/16 18:39:38","新北市中和區連城路65巷12號","121.49795","25.0006866666667","6500300","中和區"
"235042","551-UM","2018/01/16 18:39:28","新北市中和區成功路127巷21號","121.527036666667","24.99104","6500300","中和區"
"235070","558-UM","2018/01/16 18:21:05","新北市中和區圓通路176-1號","121.497113333333","24.9945166666667","6500300","中和區"
"235045","565-BX","2018/01/16 18:39:43","新北市中和區南山路236巷30弄5號","121.505141666667","24.98844","6500300","中和區"
"235054","640-BX","2018/01/16 18:39:25","新北市中和區民享街86巷13號","121.473795","25.000725","6500300","中和區"
"235060","647-TV","2018/01/16 18:39:32","新北市中和區員山路313號","121.481205","25.000355","6500300","中和區"
"235047","732-UM","2018/01/16 18:39:35","新北市中和區南山路320巷3號","121.507638333333","24.9864616666667","6500300","中和區"
"235062","800-TS","2018/01/16 18:39:44","新北市中和區中山路二段312巷10弄2號","121.495588333333","25.003","6500300","中和區"
"235057","801-TS","2018/01/16 18:39:43","新北市中和區民安街42巷24-4號","121.479496666667","25.0009216666667","6500300","中和區"
"235052","805-TS","2018/01/16 18:39:44","新北市中和區興南路三段26號","121.49676","24.9788066666667","6500300","中和區"
"235048","896-TW","2018/01/16 18:39:37","新北市中和區南山路309號","121.504908333333","24.99156","6500300","中和區"
"235053","900-TW","2018/01/16 18:39:32","新北市中和區華安街102號","121.46889","24.995065","6500300","中和區"
"235051","157-BY","2018/01/16 18:39:27","新北市中和區興南路二段114巷12號","121.503941666667","24.984405","6500300","中和區"
"235037","AAC-213","2018/01/16 18:39:39","新北市中和區景新街383巷54號","121.514566666667","24.9907033333333","6500300","中和區"
"235059","AAC-215","2018/01/16 18:39:40","新北市中和區錦和路350-1號","121.49054","24.9935383333333","6500300","中和區"
"220065","072-UY","2018/01/16 18:39:39","新北市板橋區民族路61號","121.464811666667","25.0086433333333","6500100","板橋區"
"220069","AAD-861","2018/01/16 18:39:40","新北市板橋區華東街1-10號","121.448373333333","24.9951566666667","6500100","板橋區"
"226004","312-R5","2018/01/16 18:39:31","新北市平溪區靜安路二段108號","121.720841666667","25.023105","6502400","平溪區"
"235041","251-BX","2018/01/16 18:39:39","新北市中和區宜安路152號","121.509311666667","24.9987016666667","6500300","中和區"
"228003","097-TW","2018/01/16 18:39:34","新北市貢寮區和美里龍洞街12-2號","121.918321666667","25.111805","6502600","貢寮區"
"228001","212-TW","2018/01/16 18:39:42","新北市貢寮區仁理村研海街12-1號","121.923796666667","25.0516483333333","6502600","貢寮區"
"228002","828-UM","2018/01/16 18:39:36","新北市貢寮區福隆里東興街6-11號","121.950798333333","25.02108","6502600","貢寮區"
"224010","AGQ-8101","2018/01/16 18:39:49","新北市瑞芳區基山街31巷19號","121.845908333333","25.1099283333333","6501200","瑞芳區"
"224006","676-BX","2018/01/16 18:39:31","新北市瑞芳區明燈路三段120號","121.804805","25.1083983333333","6501200","瑞芳區"
"224002","639-TC","2018/01/16 18:39:42","新北市瑞芳區傑魚坑路311-1號","121.794251666667","25.1074733333333","6501200","瑞芳區"
"224009","285-BY","2018/01/16 18:39:41","新北市瑞芳區五號路308號","121.856848333333","25.1113966666667","6501200","瑞芳區"
"224008","275-VK","2018/01/16 18:39:38","新北市瑞芳區岳王路25號","121.807441666667","25.1110133333333","6501200","瑞芳區"
"224007","273-VK","2018/01/16 18:39:37","新北市瑞芳區大埔路93號","121.763711666667","25.1013333333333","6501200","瑞芳區"
"224005","271-BY","2018/01/16 18:39:41","新北市瑞芳區建基路一段33號","121.819018333333","25.121575","6501200","瑞芳區"
"227003","400-TW","2018/01/16 18:39:39","新北市雙溪區魚行里坤溪3-5號","121.875073333333","25.021655","6502500","雙溪區"
"253005","032-BX","2018/01/16 18:39:43","新北市石門區中山路33號","121.56718","25.2909783333333","6502200","石門區"
"253006","295-VK","2018/01/16 18:39:42","新北市石門區崁子腳28-1號","121.540106666667","25.2898833333333","6502200","石門區"
"222001","KEA-2212","2018/01/16 18:39:41","新北市深坑區北深路一段32號","121.638116666667","25.01052","6501800","深坑區"
"208002","742-BX","2018/01/16 18:39:43","新北市金山區忠孝一路21-1號","121.638433333333","25.2188983333333","6502700","金山區"
"208003","665-BX","2018/01/16 18:39:42","新北市金山區中山路393號","121.633421666667","25.2252933333333","6502700","金山區"
"208001","761-BX","2018/01/16 18:39:31","新北市金山區文化三路46號","121.635026666667","25.224975","6502700","金山區"
"251005","010-UM","2018/01/16 18:39:36","新北市淡水區中正東路36-1號","121.44888","25.1657716666667","6501000","淡水區"
"251013","179-VK","2018/01/16 18:39:30","新北市淡水區雲廣坑10-1號","121.475838333333","25.214165","6501000","淡水區"
"251014","180-VK","2018/01/16 18:39:40","新北市淡水區南平21-2號","121.498101666667","25.2162166666667","6501000","淡水區"
"251008","181-VK","2018/01/16 18:39:39","新北市淡水區北投子77號","121.458576666667","25.1787983333333","6501000","淡水區"
"251015","182-VK","2018/01/16 18:39:43","新北市淡水區興福寮66巷267號","121.486785","25.1620983333333","6501000","淡水區"
"251010","413-VK","2018/01/16 18:39:34","新北市淡水區沙崙路126號","121.423456666667","25.1827833333333","6501000","淡水區"
"251012","441-VK","2018/01/16 18:39:40","新北市淡水區北新路117號","121.448925","25.178595","6501000","淡水區"
"251016","442-VK","2018/01/16 18:39:44","新北市淡水區下圭柔山76-12號","121.443815","25.2056216666667","6501000","淡水區"
"251001","559-UM","2018/01/16 18:39:44","新北市淡水區自強路415巷2號","121.465415","25.13426","6501000","淡水區"
"251006","561-UM","2018/01/16 18:39:41","新北市淡水區崁頂37-11號","121.439081666667","25.1944366666667","6501000","淡水區"
"251011","650-BX","2018/01/16 18:39:46","新北市淡水區鄧公路278巷1號","121.461051666667","25.1688816666667","6501000","淡水區"
"251002","672-BX","2018/01/16 18:39:23","新北市淡水區中正東路一段3巷14弄1號","121.450886666667","25.164285","6501000","淡水區"
"251003","673-BX","2018/01/16 18:39:33","新北市淡水區中山北路一段212巷38號","121.44613","25.1790366666667","6501000","淡水區"
"207003","550-UM","2018/01/16 18:39:33","新北市萬里區大鵬里頂社2-1號","121.660353333333","25.20721","6502800","萬里區"
"207004","291-VK","2018/01/16 18:39:37","新北市萬里區萬里里獅頭路12號","121.692226666667","25.1789533333333","6502800","萬里區"
"252002","178-VK","2018/01/16 18:39:30","新北市三芝區民生街66號","121.503321666667","25.255525","6502100","三芝區"
"252003","249-BX","2018/01/16 18:39:40","新北市三芝區後厝里土地公坑73-17號","121.459785","25.2470783333333","6502100","三芝區"
"252001","292-VK","2018/01/16 18:39:39","新北市三芝區埔頭里埔頭14號","121.500888333333","25.2537883333333","6502100","三芝區"
"237004","078-UY","2018/01/16 18:39:43","新北市三峽區有木17號","121.425876666667","24.863255","6500900","三峽區"
"237007","153-BY","2018/01/16 18:39:44","新北市三峽區中正路三段42號","121.356958333333","24.9042483333333","6500900","三峽區"
"237009","210-TH","2018/01/16 18:39:39","新北市三峽區大同路311號","121.363363333333","24.9247316666667","6500900","三峽區"
"237013","252-BX","2018/01/16 18:39:42","新北市三峽區光明路69巷25號","121.376693333333","24.92923","6500900","三峽區"
"237012","275-BY","2018/01/16 18:39:42","新北市三峽區三樹路358號","121.384035","24.9433266666667","6500900","三峽區"
"237008","302-VK","2018/01/16 18:39:45","新北市三峽區白雞115-7號","121.400808333333","24.9067316666667","6500900","三峽區"
"237014","433-BY","2018/01/16 18:39:31","新北市三峽區復興路485號","121.361451666667","24.93864","6500900","三峽區"
"237006","5529-G3","2018/01/16 18:39:35","新北市三峽區溪東路315巷67號","121.412038333333","24.9310733333333","6500900","三峽區"
"237010","706-TV","2018/01/16 18:39:33","新北市三峽區復興路323號","121.364771666667","24.9387883333333","6500900","三峽區"
"237005","AKY-6261","2018/01/16 18:39:45","新北市三峽區文化路77號","121.371615","24.936115","6500900","三峽區"
"236070","105-UM","2018/01/16 18:39:34","新北市土城區永豐路157巷29弄1號","121.468723333333","24.9814966666667","6501300","土城區"
"236043","107-UM","2018/01/16 18:39:44","新北市土城區學成路108巷9號","121.45011","24.98965","6501300","土城區"
"236031","253-BX","2018/01/16 18:39:41","新北市土城區中華路二段185號","121.438586666667","24.9745933333333","6501300","土城區"
"236027","269-VK","2018/01/16 18:39:39","新北市土城區金城路一段56號","121.442323333333","24.970465","6501300","土城區"
"236015","270-VK","2018/01/16 18:39:43","新北市土城區清水路207巷9號","121.460045","24.9821833333333","6501300","土城區"
"236038","271-VK","2018/01/16 18:39:41","新北市土城區青山路2巷11號","121.461123333333","24.976555","6501300","土城區"
"236023","401-BY","2018/01/16 18:39:45","新北市土城區延吉街327-1號","121.465593333333","24.9842733333333","6501300","土城區"
"236063","752-BX","2018/01/16 18:39:44","新北市土城區延壽路13巷19號","121.46987","24.9913516666667","6501300","土城區"
"236059","912-UM","2018/01/16 18:39:41","新北市土城區中央路四段57號","121.417511666667","24.95847","6501300","土城區"
"236049","913-UM","2018/01/16 18:39:29","新北市土城區明德路一段30號","121.465146666667","24.9846883333333","6501300","土城區"
"236055","AAC-216","2018/01/16 18:39:42","新北市土城區中華路一段23號","121.446963333333","24.98918","6501300","土城區"
"242061","362-BY","2018/01/16 18:39:34","新北市新莊區新樹路239-1號","121.434948333333","25.0223216666667","6500500","新莊區"
"242058","353-BY","2018/01/16 18:39:39","新北市新莊區中正路881-12號","121.41726","25.0251566666667","6500500","新莊區"
"242037","133-UY","2018/01/16 18:39:47","新北市樹林區中正路279號","121.420625","25.00547","6500500","新莊區"
"238015","755-BX","2018/01/16 18:39:41","新北市樹林區備內街148號","121.408108333333","24.9891483333333","6500700","樹林區"
"238023","601-UM","2018/01/16 18:39:36","新北市樹林區三福街114號","121.406416666667","25.0164216666667","6500700","樹林區"
"238019","599-UM","2018/01/16 18:39:42","新北市樹林區中華路190-1號","121.411548333333","24.9805166666667","6500700","樹林區"
"238018","571-TV","2018/01/16 18:39:29","新北市樹林區樹新路109號","121.428133333333","24.995755","6500700","樹林區"
"238024","5061-A6","2018/01/16 18:39:29","新北市樹林區太順街79巷17號","121.417085","24.97809","6500700","樹林區"
"238025","303-VK","2018/01/16 18:39:44","新北市樹林區中山路三段22號","121.395605","24.972945","6500700","樹林區"
"238014","282-BY","2018/01/16 18:39:33","新北市樹林區大安路111巷11號","121.423123333333","24.997595","6500700","樹林區"
"238020","268-VK","2018/01/16 18:39:38","新北市樹林區俊興街277號","121.418393333333","25.01822","6500700","樹林區"
"238026","172-UY","2018/01/16 18:39:47","新北市樹林區八德街1158號","121.390585","24.9685183333333","6500700","樹林區"
"238016","169-UY","2018/01/16 18:39:42","新北市樹林區文化街28號","121.419345","24.9876733333333","6500700","樹林區"
"239007","AAC-297","2018/01/16 18:39:40","新北市鶯歌區中山路96號","121.350848333333","24.9570416666667","6500800","鶯歌區"
"239006","891-R6","2018/01/16 18:39:30","新北市鶯歌區鶯桃路296巷108號","121.337166666667","24.9622466666667","6500800","鶯歌區"
"239008","527-UM","2018/01/16 18:39:37","新北市鶯歌區朝陽街4號","121.33624","24.9765983333333","6500800","鶯歌區"
"239005","526-UM","2018/01/16 18:39:30","新北市鶯歌區鳳吉一街56號","121.326436666667","24.9739883333333","6500800","鶯歌區"
"239001","417-VK","2018/01/16 18:39:29","新北市鶯歌區中正三路171號","121.336435","24.9400133333333","6500800","鶯歌區"
"239003","360-BY","2018/01/16 18:39:33","新北市鶯歌區永和街239-1號","121.336913333333","24.9713316666667","6500800","鶯歌區"
"239002","359-BY","2018/01/16 18:39:35","新北市鶯歌區中山路267號","121.345178333333","24.95703","6500800","鶯歌區"
"239004","193-VK","2018/01/16 18:39:27","新北市鶯歌區中正三路156巷2-2號","121.333295","24.9400483333333","6500800","鶯歌區"
"221036","130-UY","2018/01/16 18:39:40","新北市汐止區忠孝東路351-3號","121.665136666667","25.0700916666667","6501100","汐止區"
"221010","269-BY","2018/01/16 18:39:40","新北市汐止區汐萬路三段209號","121.642291666667","25.09932","6501100","汐止區"
"221012","278-VK","2018/01/16 18:39:46","新北市汐止區長江街190號","121.660275","25.0768566666667","6501100","汐止區"
"221023","279-VK","2018/01/16 18:39:33","新北市汐止區汐萬路一段312號","121.650658333333","25.075345","6501100","汐止區"
"221032","280-BY","2018/01/16 18:39:29","新北市汐止區福山街62巷2號","121.617846666667","25.0467566666667","6501100","汐止區"
"221027","281-BY","2018/01/16 18:39:29","新北市汐止區汐萬路一段256巷3號","121.65341","25.07477","6501100","汐止區"
"221029","298-VK","2018/01/16 18:39:50","新北市汐止區樟樹一路129巷2號","121.641951666667","25.06507","6501100","汐止區"
"221021","299-VK","2018/01/16 18:39:33","新北市汐止區新興路51號","121.657163333333","25.0630616666667","6501100","汐止區"
"221008","358-BY","2018/01/16 18:28:34","新北市汐止區康寧街901號","121.651416666667","25.075055","6501100","汐止區"
"221015","567-BX","2018/01/16 18:39:31","新北市汐止區吉祥街11巷2號","121.667838333333","25.0807983333333","6501100","汐止區"
"221035","622-UM","2018/01/16 18:39:31","新北市汐止區汐萬路一段3號","121.656083333333","25.067325","6501100","汐止區"
"221025","623-UM","2018/01/16 18:39:39","新北市汐止區仁愛路119巷13號","121.662311666667","25.064075","6501100","汐止區"
"221038","646-BX","2018/01/16 18:39:31","新北市汐止區汐萬路一段312號","121.650688333333","25.075285","6501100","汐止區"
"221033","647-BX","2018/01/16 18:39:33","新北市汐止區南勢街1巷1號","121.62709","25.0374616666667","6501100","汐止區"
"221002","707-TV","2018/01/16 18:39:30","新北市汐止區中興路25號","121.63691","25.05966","6501100","汐止區"
"221018","753-BX","2018/01/16 18:39:41","新北市汐止區茄苳路265號","121.6721","25.06815","6501100","汐止區"
"220079","145-BY","2018/01/16 18:39:43","新北市板橋區大觀路一段31號","121.449823333333","25.0084816666667","6500100","板橋區"
"220080","200-UY","2018/01/16 18:39:27","新北市板橋區大觀路二段431-1號","121.441388333333","24.995085","6500100","板橋區"
"220082","610-BX","2018/01/16 18:39:33","新北市板橋區大觀路三段59巷17弄6-1號","121.435503333333","24.99558","6500100","板橋區"
"220055","256-TC","2018/01/16 18:39:31","新北市板橋區華東街1-10號","121.44874","24.99502","6500100","板橋區"
"220072","277-BY","2018/01/16 18:39:34","新北市板橋區華東街1-10號","121.448363333333","24.9950433333333","6500100","板橋區"
"220071","283-VK","2018/01/16 18:39:42","新北市板橋區四川路二段140巷16弄23號","121.448385","24.9940783333333","6500100","板橋區"
"220053","285-VK","2018/01/16 18:39:37","新北市板橋區民生路二段161巷9號","121.470248333333","25.019635","6500100","板橋區"
"220083","286-VK","2018/01/16 18:39:30","新北市板橋區板城路421號","121.448103333333","24.9956516666667","6500100","板橋區"
"220081","287-VK","2018/01/16 18:39:40","新北市板橋區大觀路二段266號","121.448356666667","24.9968516666667","6500100","板橋區"
"220061","293-UM","2018/01/16 18:39:33","新北市板橋區民生路二段161巷9號","121.470263333333","25.0195716666667","6500100","板橋區"
"220062","295-UM","2018/01/16 18:27:24","新北市板橋區民生路二段120號","121.470553333333","25.0195083333333","6500100","板橋區"
"220084","296-UM","2018/01/16 18:39:33","新北市板橋區板城路421號","121.448093333333","24.9963516666667","6500100","板橋區"
"220075","303-R5","2018/01/16 18:39:46","新北市板橋區南雅南路二段120-12號","121.452036666667","24.999425","6500100","板橋區"
"220098","317-R6","2018/01/16 18:39:38","新北市板橋區民生路二段161巷3號","121.47023","25.0198016666667","6500100","板橋區"
"220086","461-BY","2018/01/16 18:39:40","新北市板橋區南雅西路二段192巷1弄3號","121.452036666667","25.0145183333333","6500100","板橋區"
"220064","486-VK","2018/01/16 18:39:39","新北市板橋區民生路二段36-1號","121.472093333333","25.01669","6500100","板橋區"
"220035","560-BX","2018/01/16 18:39:27","新北市板橋區南雅西路二段175巷9號","121.451538333333","25.0120833333333","6500100","板橋區"
"220103","561-BX","2018/01/16 18:39:31","新北市板橋區民生路二段161巷5號","121.470251666667","25.0197683333333","6500100","板橋區"
"220063","609-BX","2018/01/16 18:39:44","新北市板橋區民生路二段161巷1號","121.469913333333","25.0200583333333","6500100","板橋區"
"220056","630-UY","2018/01/16 18:39:33","新北市板橋區四川路二段140巷6號","121.449655","24.9932166666667","6500100","板橋區"
"220057","686-BX","2018/01/16 18:39:32","新北市板橋區華東街1-9號","121.448188333333","24.9949116666667","6500100","板橋區"
"220077","687-BX","2018/01/16 18:39:41","新北市板橋區大觀路二段443-2號","121.441043333333","24.99523","6500100","板橋區"
"220054","741-BX","2018/01/16 18:39:39","新北市板橋區華東街1-9號","121.448083333333","24.99492","6500100","板橋區"
"220067","829-TW","2018/01/16 18:39:36","新北市板橋區民生路二段120號","121.470366666667","25.0196416666667","6500100","板橋區"
"220074","895-R6","2018/01/16 18:39:35","新北市板橋區南雅南路二段138號","121.452035","24.9964616666667","6500100","板橋區"
"220073","985-R7","2018/01/16 18:39:29","新北市板橋區南雅南路二段132號","121.452041666667","24.99664","6500100","板橋區"
"220097","AAC-210","2018/01/16 18:39:40","新北市板橋區民生路二段161巷7號","121.470111666667","25.0196433333333","6500100","板橋區"
"220070","AAC-253","2018/01/16 18:39:49","新北市板橋區華東街1-9號","121.448273333333","24.9948733333333","6500100","板橋區"
