"lineid","car","time","location","longitude","latitude","cityid","cityname"
"234046","148-BY","2018/01/16 18:49:34","新北市永和區秀朗路二段149號","121.524831666667","25.001565","6500400","永和區"
"234042","149-BY","2018/01/16 18:49:42","新北市永和區永貞路267號","121.511763333333","25.004805","6500400","永和區"
"234007","207-UY","2018/01/16 18:49:40","新北市永和區文化路117號","121.512666666667","25.0152466666667","6500400","永和區"
"234081","298-R6","2018/01/16 18:49:36","新北市永和區永利路108號","121.521218333333","25.0033833333333","6500400","永和區"
"234038","336-UY","2018/01/16 18:49:29","新北市永和區成功路一段50號","121.526971666667","25.0041183333333","6500400","永和區"
"234064","337-UY","2018/01/16 18:49:39","新北市永和區福和路1號","121.526021666667","25.0095483333333","6500400","永和區"
"234086","338-UY","2018/01/16 18:49:32","新北市永和區中正路64號","121.5134","24.9948783333333","6500400","永和區"
"234054","553-UM","2018/01/16 18:49:37","新北市永和區豫溪街191巷1弄2號","121.52325","25.0104116666667","6500400","永和區"
"234030","746-BX","2018/01/16 18:49:34","新北市永和區得和路327號","121.523473333333","24.999585","6500400","永和區"
"234013","KEA-2591","2018/01/16 18:49:34","新北市永和區保福路二段133巷20號","121.509245","25.0136483333333","6500400","永和區"
"234061","AAD-866","2018/01/16 18:49:35","新北市永和區福和路313號","121.516135","25.0071316666667","6500400","永和區"
"234070","847-RS","2018/01/16 18:49:45","新北市永和區竹林路179巷35號","121.522096666667","25.0104","6500400","永和區"
"234050","863-TW","2018/01/16 18:49:34","新北市永和區竹林路91巷70號","121.522125","25.0137583333333","6500400","永和區"
"234026","9371-KE","2018/01/16 18:49:33","新北市永和區自由街56號","121.513803333333","25.0060583333333","6500400","永和區"
"234011","9373-KE","2018/01/16 18:49:40","新北市永和區文化路124號","121.51311","25.0153816666667","6500400","永和區"
"249005","172-UM","2018/01/16 18:49:28","新北市八里區長道坑16-2號","121.394795","25.1166633333333","6502300","八里區"
"249001","173-UM","2018/01/16 18:49:31","新北市八里區龍米路二段66號","121.447973333333","25.14149","6502300","八里區"
"248014","025-BX","2018/01/16 18:49:42","新北市五股區民義路一段107巷23號","121.43195","25.0845916666667","6501500","五股區"
"248016","026-BX","2018/01/16 18:49:32","新北市五股區凌雲路一段149巷42號","121.448631666667","25.1009683333333","6501500","五股區"
"248006","077-UY","2018/01/16 18:49:30","新北市五股區四維路1巷3-1號","121.46632","25.070215","6501500","五股區"
"248008","095-VK","2018/01/16 18:49:29","新北市五股區中興路一段151巷1弄2號","121.465028333333","25.0730766666667","6501500","五股區"
"248020","225-UY","2018/01/16 18:49:44","新北市五股區凌雲路三段39號","121.431776666667","25.1171766666667","6501500","五股區"
"248012","247-BX","2018/01/16 18:49:33","新北市五股區成泰路二段147巷23號","121.437205","25.088005","6501500","五股區"
"248010","272-BY","2018/01/16 18:49:32","新北市五股區水碓五路81號","121.429966666667","25.07194","6501500","五股區"
"248004","677-BX","2018/01/16 18:49:45","新北市五股區民義路二段50-1號","121.411803333333","25.1030966666667","6501500","五股區"
"248002","678-BX","2018/01/16 18:49:34","新北市五股區成泰路三段435巷11號","121.449363333333","25.0979116666667","6501500","五股區"
"234023","9380-KE","2018/01/16 18:49:44","新北市永和區竹林路119巷22弄1號","121.52136","25.01158","6500400","永和區"
"234077","969-R7","2018/01/16 18:49:31","新北市永和區中正路2巷29弄2-2號","121.513883333333","24.9938033333333","6500400","永和區"
"234074","AAC-211","2018/01/16 18:49:45","新北市永和區福和路1號","121.526538333333","25.0099","6500400","永和區"
"234067","AAC-212","2018/01/16 18:49:45","新北市永和區永和路一段1號","121.512968333333","25.0051933333333","6500400","永和區"
"234003","AAC-295","2018/01/16 18:49:39","新北市永和區中正路625號","121.51566","25.0100083333333","6500400","永和區"
"232011","375-UM","2018/01/16 18:49:35","新北市坪林區坪雙路一段21號","121.711961666667","24.9422233333333","6502000","坪林區"
"244013","069-UM","2018/01/16 18:49:38","新北市林口區文化一路二段92號","121.381513333333","25.078735","6501700","林口區"
"244007","080-UY","2018/01/16 18:49:33","新北市林口區太平里4鄰20號","121.377706666667","25.1159633333333","6501700","林口區"
"244019","402-UM","2018/01/16 18:49:36","新北市林口區麗園二街47巷13號","121.381446666667","25.0694916666667","6501700","林口區"
"244009","410-SL","2018/01/16 18:49:30","新北市林口區竹林路332號","121.391285","25.0833016666667","6501700","林口區"
"244023","483-VK","2018/01/16 18:49:47","新北市林口區信義路220號","121.376803333333","25.081255","6501700","林口區"
"244017","485-VK","2018/01/16 18:49:46","新北市林口區文化二路一段68巷15號","121.36664","25.0688283333333","6501700","林口區"
"244011","656-BX","2018/01/16 18:49:43","新北市林口區仁愛路一段252號","121.39461","25.0758766666667","6501700","林口區"
"244025","837-TS","2018/01/16 18:49:33","新北市林口區南勢二街166號","121.359253333333","25.0747983333333","6501700","林口區"
"243012","AAD-798","2018/01/16 18:49:32","新北市泰山區泰林路二段73巷27號","121.434426666667","25.05786","6501600","泰山區"
"243015","380-SR","2018/01/16 18:49:47","新北市泰山區美寧街55號","121.43016","25.0647116666667","6501600","泰山區"
"243014","421-VK","2018/01/16 18:49:31","新北市泰山區犁頭窠3-1號","121.42219","25.0605983333333","6501600","泰山區"
"243013","646-TV","2018/01/16 18:45:22","新北市泰山區明志路三段206巷3號","121.423285","25.037955","6501600","泰山區"
"243016","680-BX","2018/01/16 18:49:44","新北市泰山區明志路一段221號","121.432545","25.0611516666667","6501600","泰山區"
"222003","436-BY","2018/01/16 18:49:46","新北市深坑區深南路49號","121.620811666667","25.0094583333333","6501800","深坑區"
"222002","659-BX","2018/01/16 18:49:48","新北市深坑區昇高坑路15號","121.625043333333","25.0011716666667","6501800","深坑區"
"231041","002-UM","2018/01/16 18:49:31","新北市新店區安華路28-1號","121.519611666667","24.960855","6500600","新店區"
"231066","0293-UT","2018/01/16 18:49:43","新北市新店區安康路二段217號","121.508735","24.9588333333333","6500600","新店區"
"231059","046-UY","2018/01/16 18:49:36","新北市新店區安華路28-1號","121.519483333333","24.960825","6500600","新店區"
"231061","047-UY","2018/01/16 18:49:38","新北市新店區安華路28-1號","121.519335","24.9610833333333","6500600","新店區"
"231060","106-UY","2018/01/16 18:49:44","新北市新店區安華路28-1號","121.519765","24.9607566666667","6500600","新店區"
"231051","107-UY","2018/01/16 18:49:41","新北市新店區百忍街14號","121.534655","24.975635","6500600","新店區"
"231048","108-UY","2018/01/16 18:49:48","新北市新店區德正街11號","121.543626666667","24.9730933333333","6500600","新店區"
"231053","187-VK","2018/01/16 18:49:38","新北市新店區新烏路一段105巷23號","121.546511666667","24.94038","6500600","新店區"
"231050","KEA-2219","2018/01/16 18:49:30","新北市新店區安康路一段162號","121.526118333333","24.963","6500600","新店區"
"231046","278-BY","2018/01/16 18:49:43","新北市新店區直潭路75號","121.532335","24.94217","6500600","新店區"
"231054","AAD-862","2018/01/16 18:49:40","新北市新店區秀山路72號","121.53133","24.960935","6500600","新店區"
"231058","3712-VJ","2018/01/16 18:49:30","新北市新店區中興路一段121號","121.541726666667","24.9629766666667","6500600","新店區"
"231056","3713-VJ","2018/01/16 18:49:37","新北市新店區中正路429-1號","121.534111666667","24.9782566666667","6500600","新店區"
"231055","4716-K9","2018/01/16 18:49:31","新北市新店區中華路47巷3號","121.539818333333","24.9675916666667","6500600","新店區"
"231067","4772-VM","2018/01/16 18:49:42","新北市新店區安康路一段106巷20號","121.527786666667","24.9630033333333","6500600","新店區"
"231065","512-UM","2018/01/16 18:49:33","新北市新店區安忠路205巷8號","121.508335","24.9547416666667","6500600","新店區"
"231064","515-UM","2018/01/16 18:49:42","新北市新店區安華路28-1號","121.519853333333","24.960965","6500600","新店區"
"231045","617-UM","2018/01/16 18:49:32","新北市新店區安康路一段89號","121.529231666667","24.9614766666667","6500600","新店區"
"231040","619-UM","2018/01/16 18:49:31","新北市新店區中央路224號","121.52966","24.97287","6500600","新店區"
"231042","641-BX","2018/01/16 18:49:40","新北市新店區光明街123號","121.539076666667","24.9618266666667","6500600","新店區"
"231063","645-TV","2018/01/16 18:49:42","新北市新店區安華路1-1號","121.51957","24.9602733333333","6500600","新店區"
"231049","719-UM","2018/01/16 18:49:34","新北市新店區中正路454-5號","121.53453","24.9792066666667","6500600","新店區"
"231062","720-UM","2018/01/16 18:49:37","新北市新店區安忠路205巷8號","121.509341666667","24.95493","6500600","新店區"
"231044","897-TW","2018/01/16 18:49:29","新北市新店區中興路三段6號","121.546595","24.9769833333333","6500600","新店區"
"231043","899-TW","2018/01/16 18:49:42","新北市新店區安康路一段355-10號","121.520405","24.9638116666667","6500600","新店區"
"241035","462-BY","2018/01/16 18:49:33","新北市三重區重新路四段121號","121.484878333333","25.0516866666667","6500200","三重區"
"235066","003-UY","2018/01/16 18:49:33","新北市中和區水源路7巷25號","121.503985","25.0039183333333","6500300","中和區"
"235064","005-UY","2018/01/16 18:49:40","新北市中和區連城路109巷17號","121.496763333333","24.9989516666667","6500300","中和區"
"235063","006-UY","2018/01/16 18:49:35","新北市中和區連城路319巷5弄1號","121.489243333333","24.9953933333333","6500300","中和區"
"235046","031-BX","2018/01/16 18:49:44","新北市中和區仁愛街36巷28號","121.511043333333","24.9869866666667","6500300","中和區"
"235056","096-UM","2018/01/16 18:49:33","新北市中和區員山路611巷5弄3號","121.478031666667","25.011285","6500300","中和區"
"235039","097-UM","2018/01/16 18:49:39","新北市永和區中正路15號","121.513973333333","24.9958916666667","6500300","中和區"
"235065","098-UM","2018/01/16 18:49:34","新北市中和區中山路二段2巷71號","121.501568333333","25.0074516666667","6500300","中和區"
"235040","150-BY","2018/01/16 18:49:39","新北市中和區安平路78-1號","121.511278333333","24.9964966666667","6500300","中和區"
"235058","151-BY","2018/01/16 18:49:30","新北市中和區員山路96號","121.480918333333","24.9945966666667","6500300","中和區"
"235055","183-VK","2018/01/16 18:49:44","新北市中和區民生街43號","121.469975","25.0052916666667","6500300","中和區"
"235038","185-VK","2018/01/16 18:49:40","新北市中和區大勇街31巷23號","121.517066666667","24.9945466666667","6500300","中和區"
"235049","186-VK","2018/01/16 18:49:27","新北市中和區景安路173號","121.505238333333","24.9944083333333","6500300","中和區"
"235067","255-BX","2018/01/16 18:49:38","新北市中和區中山路二段449巷1弄11號","121.483981666667","25.0039633333333","6500300","中和區"
"235044","293-VK","2018/01/16 18:49:45","新北市中和區中興街169號","121.499955","24.9904633333333","6500300","中和區"
"235072","301-VK","2018/01/16 18:49:33","新北市中和區中山路二段172號","121.501191666667","25.0029366666667","6500300","中和區"
"235043","352-BY","2018/01/16 18:49:38","新北市中和區成功路115號","121.525925","24.99108","6500300","中和區"
"235068","377-QA","2018/01/16 18:49:42","新北市中和區中正路167巷34號","121.498441666667","24.992045","6500300","中和區"
"235061","378-QA","2018/01/16 18:49:32","新北市中和區民享街30巷6號","121.473583333333","25.0035366666667","6500300","中和區"
"235050","4979-A6","2018/01/16 18:49:42","新北市中和區忠孝街62巷9弄10號","121.513165","24.9839583333333","6500300","中和區"
"235069","4980-A6","2018/01/16 18:49:38","新北市中和區南山路52巷3號","121.501706666667","24.99737","6500300","中和區"
"235042","551-UM","2018/01/16 18:49:48","新北市中和區秀朗路三段78巷1弄28號","121.525368333333","24.9933583333333","6500300","中和區"
"235070","558-UM","2018/01/16 18:46:05","新北市中和區景平路564號","121.502","24.9952266666667","6500300","中和區"
"235045","565-BX","2018/01/16 18:49:43","新北市中和區景安路221號","121.504295","24.9913633333333","6500300","中和區"
"235054","640-BX","2018/01/16 18:49:45","新北市中和區莒光路129巷2弄5號","121.473143333333","25.0017616666667","6500300","中和區"
"235060","647-TV","2018/01/16 18:49:32","新北市中和區中山路二段483號","121.482836666667","25.004995","6500300","中和區"
"235047","732-UM","2018/01/16 18:49:35","新北市中和區興南路二段34巷30弄1號","121.50489","24.9863233333333","6500300","中和區"
"235062","800-TS","2018/01/16 18:49:44","新北市中和區景平路701號","121.496355","25.0034583333333","6500300","中和區"
"235057","801-TS","2018/01/16 18:49:43","新北市中和區民安街22巷7-2號","121.480018333333","25.001085","6500300","中和區"
"235052","805-TS","2018/01/16 18:49:44","新北市中和區興南路二段399巷35-2號","121.500265","24.97824","6500300","中和區"
"235048","896-TW","2018/01/16 18:49:37","新北市中和區華新街2-6號","121.507495","24.98515","6500300","中和區"
"235053","900-TW","2018/01/16 18:49:33","新北市中和區華福街42巷1弄1號","121.466386666667","24.9963316666667","6500300","中和區"
"235051","157-BY","2018/01/16 18:49:47","新北市中和區華新街143巷106弄22號","121.506035","24.9789166666667","6500300","中和區"
"235037","AAC-213","2018/01/16 18:49:39","新北市中和區秀朗路三段175巷7號","121.525056666667","24.9915016666667","6500300","中和區"
"235059","AAC-215","2018/01/16 18:49:40","新北市中和區圓通路395號","121.489635","24.9890433333333","6500300","中和區"
"220065","072-UY","2018/01/16 18:49:39","新北市板橋區民族路151巷52號","121.470098333333","25.0084616666667","6500100","板橋區"
"220106","075-UY","2018/01/16 18:49:39","新北市板橋區民生路二段161巷9號","121.470135","25.0195016666667","6500100","板橋區"
"220069","AAD-861","2018/01/16 18:49:40","新北市板橋區南雅南路二段4巷2號","121.454486666667","25.0038016666667","6500100","板橋區"
"226004","312-R5","2018/01/16 18:49:31","新北市平溪區靜安路二段294巷6號","121.73565","25.0237266666667","6502400","平溪區"
"235041","251-BX","2018/01/16 18:49:39","新北市中和區宜安路118巷18號","121.510801666667","24.9986066666667","6500300","中和區"
"228003","097-TW","2018/01/16 18:49:34","新北市瑞芳區鼻頭路127號","121.917101666667","25.121305","6502600","貢寮區"
"228001","212-TW","2018/01/16 18:49:42","新北市貢寮區仁理村研海街12-1號","121.923798333333","25.0516183333333","6502600","貢寮區"
"228002","828-UM","2018/01/16 18:49:36","新北市貢寮區福隆里東興街6-11號","121.950803333333","25.0210783333333","6502600","貢寮區"
"224010","AGQ-8101","2018/01/16 18:49:48","新北市瑞芳區基山街3號","121.845188333333","25.1097716666667","6501200","瑞芳區"
"224006","676-BX","2018/01/16 18:49:29","新北市瑞芳區中正路63-1號","121.806141666667","25.1074483333333","6501200","瑞芳區"
"224009","285-BY","2018/01/16 18:49:35","新北市瑞芳區祈堂路2號","121.85978","25.1118583333333","6501200","瑞芳區"
"224008","275-VK","2018/01/16 18:49:38","新北市瑞芳區逢甲路271-1號","121.801838333333","25.111995","6501200","瑞芳區"
"224007","273-VK","2018/01/16 18:49:37","新北市瑞芳區大埔路192-1號","121.761498333333","25.101225","6501200","瑞芳區"
"224005","271-BY","2018/01/16 18:49:41","新北市瑞芳區濱二路41-2號","121.833006666667","25.1164416666667","6501200","瑞芳區"
"227003","400-TW","2018/01/16 18:49:39","新北市雙溪區平林里梅竹蹊26號","121.861656666667","25.0360316666667","6502500","雙溪區"
"253005","032-BX","2018/01/16 18:49:43","新北市石門區中山路21號","121.56611","25.2902416666667","6502200","石門區"
"253006","295-VK","2018/01/16 18:49:42","新北市石門區下員坑16號","121.511226666667","25.28395","6502200","石門區"
"222001","KEA-2212","2018/01/16 18:49:41","新北市深坑區北深路一段32號","121.638106666667","25.0104733333333","6501800","深坑區"
"208002","742-BX","2018/01/16 18:49:43","新北市金山區信義路66號","121.635601666667","25.218965","6502700","金山區"
"208003","665-BX","2018/01/16 18:49:42","新北市金山區中山路310號","121.634356666667","25.2247283333333","6502700","金山區"
"208001","761-BX","2018/01/16 18:49:31","新北市金山區文化三路66巷2弄1號","121.634308333333","25.225675","6502700","金山區"
"251009","008-UM","2018/01/16 18:49:35","新北市淡水區新生街124號","121.441025","25.1745416666667","6501000","淡水區"
"251013","179-VK","2018/01/16 18:49:50","新北市淡水區小坑子頭2-2號","121.482905","25.2127633333333","6501000","淡水區"
"251014","180-VK","2018/01/16 18:49:40","新北市淡水區崙頂15-1號","121.489523333333","25.2235033333333","6501000","淡水區"
"251015","182-VK","2018/01/16 18:49:43","新北市淡水區興福寮66巷22號","121.486471666667","25.16227","6501000","淡水區"
"251010","413-VK","2018/01/16 18:49:34","新北市淡水區沙崙路11號","121.421096666667","25.181285","6501000","淡水區"
"251012","441-VK","2018/01/16 18:49:42","新北市淡水區新興街13號","121.443305","25.1805633333333","6501000","淡水區"
"251016","442-VK","2018/01/16 18:49:44","新北市淡水區下圭柔山71-3號","121.447088333333","25.206165","6501000","淡水區"
"251001","559-UM","2018/01/16 18:49:44","新北市淡水區自強路273號","121.462575","25.1281183333333","6501000","淡水區"
"251011","650-BX","2018/01/16 18:49:39","新北市淡水區學府路9號","121.447466666667","25.16804","6501000","淡水區"
"251002","672-BX","2018/01/16 18:49:43","新北市淡水區學府路55號","121.448128333333","25.1693283333333","6501000","淡水區"
"251003","673-BX","2018/01/16 18:49:33","新北市淡水區中山北路一段149巷24號","121.442926666667","25.1780183333333","6501000","淡水區"
"207003","550-UM","2018/01/16 18:49:33","新北市萬里區大鵬里頂社2-1號","121.658746666667","25.2083116666667","6502800","萬里區"
"207004","291-VK","2018/01/16 18:49:37","新北市萬里區萬里里獅頭路23號","121.693261666667","25.17825","6502800","萬里區"
"252002","178-VK","2018/01/16 18:49:30","新北市三芝區中正路一段112號","121.5048","25.25648","6502100","三芝區"
"252003","249-BX","2018/01/16 18:49:40","新北市三芝區後厝里大片頭108號","121.458538333333","25.2428883333333","6502100","三芝區"
"252001","292-VK","2018/01/16 18:49:39","新北市三芝區中正路三段9號","121.502881666667","25.2540366666667","6502100","三芝區"
"237004","078-UY","2018/01/16 18:49:43","新北市三峽區有木196號","121.443666666667","24.8501716666667","6500900","三峽區"
"237007","153-BY","2018/01/16 18:49:44","新北市三峽區柑樹路9號","121.362248333333","24.9060983333333","6500900","三峽區"
"237009","210-TH","2018/01/16 18:49:39","新北市三峽區仁愛街18號","121.368315","24.9323083333333","6500900","三峽區"
"237013","252-BX","2018/01/16 18:49:42","新北市三峽區光明路69巷25號","121.376753333333","24.9291733333333","6500900","三峽區"
"237012","275-BY","2018/01/16 18:49:42","新北市三峽區三樹路340號","121.384001666667","24.9433233333333","6500900","三峽區"
"237008","302-VK","2018/01/16 18:49:45","新北市三峽區白雞33-61號","121.371006666667","24.9131216666667","6500900","三峽區"
"237014","433-BY","2018/01/16 18:49:31","新北市三峽區隆恩街247號","121.35712","24.9403983333333","6500900","三峽區"
"237006","5529-G3","2018/01/16 18:49:35","新北市三峽區溪東路233巷4弄17號","121.407211666667","24.93374","6500900","三峽區"
"237010","706-TV","2018/01/16 18:49:33","新北市三峽區國光街364巷16號","121.371383333333","24.94038","6500900","三峽區"
"237005","AKY-6261","2018/01/16 18:49:45","新北市三峽區中山路459巷163-3號","121.349045","24.9333366666667","6500900","三峽區"
"236070","105-UM","2018/01/16 18:49:34","新北市土城區延和路21巷19號","121.463941666667","24.9888566666667","6501300","土城區"
"236043","107-UM","2018/01/16 18:49:44","新北市土城區裕民路92巷24弄2號","121.4495","24.98602","6501300","土城區"
"236031","253-BX","2018/01/16 18:49:38","新北市土城區忠義路36巷12號","121.43991","24.9698716666667","6501300","土城區"
"236027","269-VK","2018/01/16 18:49:39","新北市土城區中央路二段237號","121.44037","24.9722166666667","6501300","土城區"
"236015","270-VK","2018/01/16 18:49:42","新北市土城區金城路二段354巷10號","121.460908333333","24.9844316666667","6501300","土城區"
"236038","271-VK","2018/01/16 18:49:41","新北市土城區明德路一段235巷6號","121.46302","24.9780383333333","6501300","土城區"
"236023","401-BY","2018/01/16 18:49:45","新北市土城區延吉街253巷5號","121.467733333333","24.984625","6501300","土城區"
"236063","752-BX","2018/01/16 18:49:29","新北市土城區延和路191-1號","121.469328333333","24.9903116666667","6501300","土城區"
"236059","912-UM","2018/01/16 18:49:46","新北市土城區中央路三段137號","121.433593333333","24.965385","6501300","土城區"
"236049","913-UM","2018/01/16 18:49:29","新北市土城區青雲路10-1號","121.460148333333","24.9889333333333","6501300","土城區"
"236055","AAC-216","2018/01/16 18:49:42","新北市土城區裕民路193號","121.453613333333","24.98427","6501300","土城區"
"242061","362-BY","2018/01/16 18:49:34","新北市新莊區新泰路357巷3弄37號","121.442068333333","25.0404216666667","6500500","新莊區"
"242037","133-UY","2018/01/16 18:49:27","新北市樹林區八德街262-1號","121.417418333333","24.97205","6500500","新莊區"
"238023","601-UM","2018/01/16 18:49:36","新北市樹林區三福街114號","121.40642","25.0163516666667","6500700","樹林區"
"238019","599-UM","2018/01/16 18:49:43","新北市樹林區東華街70巷8號","121.414838333333","24.9810583333333","6500700","樹林區"
"238018","571-TV","2018/01/16 18:49:49","新北市樹林區太平路45號","121.419176666667","24.9829066666667","6500700","樹林區"
"238024","5061-A6","2018/01/16 18:49:50","新北市樹林區太平路253號","121.419311666667","24.97425","6500700","樹林區"
"238022","KEA-2213","2018/01/16 18:49:44","新北市樹林區東大街32號","121.413165","24.97657","6500700","樹林區"
"238025","303-VK","2018/01/16 18:49:44","新北市樹林區中山路三段22號","121.395615","24.9729883333333","6500700","樹林區"
"238014","282-BY","2018/01/16 18:49:33","新北市樹林區大安路111巷2號","121.423016666667","24.9975516666667","6500700","樹林區"
"238020","268-VK","2018/01/16 18:49:38","新北市樹林區三俊街250-1號","121.421353333333","25.01466","6500700","樹林區"
"238026","172-UY","2018/01/16 18:49:46","新北市樹林區信和街35號","121.389296666667","24.9735466666667","6500700","樹林區"
"238016","169-UY","2018/01/16 18:49:42","新北市樹林區文化街28號","121.419336666667","24.98768","6500700","樹林區"
"239007","AAC-297","2018/01/16 18:49:43","新北市鶯歌區中正一路建德巷20號","121.364658333333","24.9573366666667","6500800","鶯歌區"
"239006","891-R6","2018/01/16 18:49:30","新北市鶯歌區鶯桃路268巷16弄13號","121.336393333333","24.9601766666667","6500800","鶯歌區"
"239008","527-UM","2018/01/16 18:49:37","新北市鶯歌區朝陽街2號","121.336238333333","24.9765716666667","6500800","鶯歌區"
"239005","526-UM","2018/01/16 18:49:30","新北市鶯歌區大湖路361巷8號","121.330676666667","24.9778533333333","6500800","鶯歌區"
"239001","417-VK","2018/01/16 18:49:29","新北市鶯歌區鶯桃路86號","121.339971666667","24.9536133333333","6500800","鶯歌區"
"239003","360-BY","2018/01/16 18:49:33","新北市鶯歌區鶯桃路660號","121.329196666667","24.9691683333333","6500800","鶯歌區"
"239002","359-BY","2018/01/16 18:49:35","新北市鶯歌區中正一路355號","121.35778","24.9570716666667","6500800","鶯歌區"
"239004","193-VK","2018/01/16 18:49:47","新北市鶯歌區中正三路194巷2-3號","121.332701666667","24.9385383333333","6500800","鶯歌區"
"221036","130-UY","2018/01/16 18:49:20","新北市汐止區水碓街29號","121.664555","25.069735","6501100","汐止區"
"221010","269-BY","2018/01/16 18:49:40","新北市汐止區汐萬路一段256巷3號","121.652621666667","25.0745083333333","6501100","汐止區"
"221012","278-VK","2018/01/16 18:49:46","新北市汐止區康寧街901號","121.650843333333","25.0752416666667","6501100","汐止區"
"221023","279-VK","2018/01/16 18:49:33","新北市汐止區康寧街901號","121.651003333333","25.07522","6501100","汐止區"
"221032","280-BY","2018/01/16 18:49:29","新北市汐止區民權街二段79號","121.619203333333","25.048035","6501100","汐止區"
"221027","281-BY","2018/01/16 18:49:29","新北市汐止區康寧街901號","121.651465","25.0749866666667","6501100","汐止區"
"221029","298-VK","2018/01/16 18:49:30","新北市汐止區工建路62號","121.640608333333","25.0630283333333","6501100","汐止區"
"221008","358-BY","2018/01/16 18:49:41","新北市汐止區康寧街901號","121.65131","25.0749866666667","6501100","汐止區"
"221015","567-BX","2018/01/16 18:49:31","新北市汐止區鄉長路一段285號","121.668695","25.0788366666667","6501100","汐止區"
"221035","622-UM","2018/01/16 18:49:31","新北市汐止區汐萬路一段273號","121.650408333333","25.0745283333333","6501100","汐止區"
"221025","623-UM","2018/01/16 18:49:39","新北市汐止區秀峰路97號","121.660081666667","25.0637783333333","6501100","汐止區"
"221038","646-BX","2018/01/16 18:49:31","新北市汐止區汐萬路一段312號","121.650701666667","25.0752833333333","6501100","汐止區"
"221033","647-BX","2018/01/16 18:49:33","新北市汐止區南勢街3號","121.627103333333","25.037435","6501100","汐止區"
"221002","707-TV","2018/01/16 18:49:30","新北市汐止區大同路一段183號","121.632923333333","25.0568733333333","6501100","汐止區"
"221018","753-BX","2018/01/16 18:49:39","新北市汐止區茄苳路59號","121.66665","25.0707016666667","6501100","汐止區"
"220079","145-BY","2018/01/16 18:49:23","新北市板橋區民權路202巷5弄1號","121.459813333333","25.0145233333333","6500100","板橋區"
"220080","200-UY","2018/01/16 18:49:47","新北市板橋區大觀路二段265巷20弄49號","121.441255","24.9979866666667","6500100","板橋區"
"220082","610-BX","2018/01/16 18:49:33","新北市板橋區篤行路二段127-2號","121.43124","24.9906766666667","6500100","板橋區"
"220101","245-BX","2018/01/16 18:48:27","新北市板橋區民生路二段161巷5號","121.470008333333","25.019675","6500100","板橋區"
"220055","256-TC","2018/01/16 18:49:31","新北市板橋區南雅南路二段4巷18號","121.453648333333","25.0037033333333","6500100","板橋區"
"220096","257-TC","2018/01/16 18:49:33","新北市板橋區民生路二段161巷9號","121.470093333333","25.01955","6500100","板橋區"
"220072","277-BY","2018/01/16 18:49:42","新北市板橋區金門街31巷33號","121.434098333333","24.9933833333333","6500100","板橋區"
"220071","283-VK","2018/01/16 18:49:42","新北市板橋區忠孝路101號","121.462505","25.00225","6500100","板橋區"
"220094","285-UM","2018/01/16 18:49:39","新北市板橋區民生路二段161巷1號","121.4701","25.0198683333333","6500100","板橋區"
"220053","285-VK","2018/01/16 18:49:37","新北市板橋區民生路二段89-4號","121.471161666667","25.0180766666667","6500100","板橋區"
"220083","286-VK","2018/01/16 18:49:30","新北市板橋區僑中三街39號","121.44508","25.0046266666667","6500100","板橋區"
"220081","287-VK","2018/01/16 18:49:20","新北市板橋區光華街13巷47號","121.452678333333","25.0111466666667","6500100","板橋區"
"220090","288-VK","2018/01/16 18:49:42","新北市板橋區民生路二段161巷9號","121.47024","25.0196666666667","6500100","板橋區"
"220061","293-UM","2018/01/16 18:49:33","新北市板橋區太和街4巷9號","121.474188333333","25.0199433333333","6500100","板橋區"
"220062","295-UM","2018/01/16 18:49:44","新北市板橋區中山路二段28號","121.47264","25.01514","6500100","板橋區"
"220084","296-UM","2018/01/16 18:49:39","新北市板橋區大觀路二段150巷64-1號","121.44154","25.000795","6500100","板橋區"
"220075","303-R5","2018/01/16 18:49:46","新北市板橋區大觀路一段28巷104號","121.450161666667","25.0110583333333","6500100","板橋區"
"220098","317-R6","2018/01/16 18:49:38","新北市板橋區民生路二段161巷5號","121.470193333333","25.0197333333333","6500100","板橋區"
"220086","461-BY","2018/01/16 18:49:40","新北市板橋區大智街71巷7弄1號","121.453145","25.0146866666667","6500100","板橋區"
"220064","486-VK","2018/01/16 18:49:39","新北市板橋區民生路二段36-1號","121.47214","25.0167916666667","6500100","板橋區"
"220088","491-VK","2018/01/16 18:49:29","新北市板橋區民生路二段161巷1號","121.470086666667","25.0199816666667","6500100","板橋區"
"220035","560-BX","2018/01/16 18:49:48","新北市板橋區中正路275巷44號","121.453878333333","25.0184716666667","6500100","板橋區"
"220103","561-BX","2018/01/16 18:49:31","新北市板橋區民生路二段161巷7號","121.470295","25.019725","6500100","板橋區"
"220063","609-BX","2018/01/16 18:49:44","新北市板橋區民生路二段56-3號","121.471921666667","25.0170383333333","6500100","板橋區"
"220056","630-UY","2018/01/16 18:49:33","新北市土城區四川路5號","121.455651666667","24.996005","6500100","板橋區"
"220091","637-BX","2018/01/16 18:49:41","新北市板橋區民生路二段161巷1號","121.470143333333","25.02001","6500100","板橋區"
"220057","686-BX","2018/01/16 18:49:32","新北市板橋區板城路421號","121.448113333333","24.9956433333333","6500100","板橋區"
"220077","687-BX","2018/01/16 18:49:41","新北市板橋區龍興街103巷1號","121.444445","25.003295","6500100","板橋區"
"220093","689-BX","2018/01/16 18:49:29","新北市板橋區民生路二段161巷1號","121.470093333333","25.0199633333333","6500100","板橋區"
"220054","741-BX","2018/01/16 18:49:39","新北市板橋區館前西路17巷2號","121.458821666667","25.00697","6500100","板橋區"
"220067","829-TW","2018/01/16 18:49:36","新北市板橋區三民路二段正隆巷41號","121.477001666667","25.0136866666667","6500100","板橋區"
"220074","895-R6","2018/01/16 18:49:36","新北市板橋區南門街39號","121.457291666667","25.0087983333333","6500100","板橋區"
"220073","985-R7","2018/01/16 18:49:49","新北市板橋區林園街1號","121.453846666667","25.0091433333333","6500100","板橋區"
"220097","AAC-210","2018/01/16 18:49:40","新北市板橋區民生路二段161巷7號","121.470146666667","25.019625","6500100","板橋區"
"220070","AAC-253","2018/01/16 18:49:29","新北市板橋區館前西路11號","121.459003333333","25.0070183333333","6500100","板橋區"
