"lineid","car","time","location","longitude","latitude","cityid","cityname"
"234046","148-BY","2018/01/16 18:59:34","新北市永和區得和路373巷31弄9號","121.524711666667","25.0005833333333","6500400","永和區"
"234042","149-BY","2018/01/16 18:59:42","新北市永和區永貞路265號","121.51176","25.00467","6500400","永和區"
"234007","207-UY","2018/01/16 18:59:40","新北市永和區中山路一段51號","121.512915","25.0106016666667","6500400","永和區"
"234081","298-R6","2018/01/16 18:59:36","新北市永和區永亨路67號","121.521351666667","25.0059533333333","6500400","永和區"
"234038","336-UY","2018/01/16 18:59:29","新北市永和區成功路二段207號","121.526575","24.9959383333333","6500400","永和區"
"234064","337-UY","2018/01/16 18:59:39","新北市永和區秀朗路一段156號","121.51836","25.0033966666667","6500400","永和區"
"234086","338-UY","2018/01/16 18:59:32","新北市永和區永寧街121號","121.51803","25.0057333333333","6500400","永和區"
"234054","553-UM","2018/01/16 18:59:37","新北市永和區竹林路66巷5號","121.518236666667","25.0132983333333","6500400","永和區"
"234017","745-BX","2018/01/16 18:59:33","新北市永和區永和路二段297號","121.516001666667","25.0160783333333","6500400","永和區"
"234030","746-BX","2018/01/16 18:59:41","新北市永和區厚德街14號","121.525793333333","24.9980316666667","6500400","永和區"
"234013","KEA-2591","2018/01/16 18:59:34","新北市永和區中山路一段60巷6號","121.51308","25.0109716666667","6500400","永和區"
"234061","AAD-866","2018/01/16 18:59:35","新北市永和區福和路309巷1號","121.516333333333","25.0070416666667","6500400","永和區"
"234070","847-RS","2018/01/16 18:59:46","新北市永和區中興街68巷5弄1號","121.517618333333","25.0114766666667","6500400","永和區"
"234050","863-TW","2018/01/16 18:59:34","新北市永和區文化路190號","121.510948333333","25.01613","6500400","永和區"
"234026","9371-KE","2018/01/16 18:59:33","新北市永和區安樂路453號","121.514298333333","25.0050216666667","6500400","永和區"
"234011","9373-KE","2018/01/16 18:59:40","新北市永和區仁愛路141巷3弄21號","121.512231666667","25.0125216666667","6500400","永和區"
"249005","172-UM","2018/01/16 18:59:48","新北市八里區長道坑7-3號","121.393363333333","25.1236066666667","6502300","八里區"
"249001","173-UM","2018/01/16 18:59:31","新北市八里區龍米路二段228-2號","121.43266","25.1584816666667","6502300","八里區"
"248016","026-BX","2018/01/16 18:59:32","新北市五股區成泰路三段543巷52號","121.449933333333","25.10292","6501500","五股區"
"248006","077-UY","2018/01/16 18:59:45","新北市五股區四維路80號","121.467443333333","25.0729516666667","6501500","五股區"
"248008","095-VK","2018/01/16 18:59:48","新北市五股區中興路一段132號","121.465445","25.0735316666667","6501500","五股區"
"248020","225-UY","2018/01/16 18:59:43","新北市五股區凌雲路三段57號","121.425285","25.1250216666667","6501500","五股區"
"248012","247-BX","2018/01/16 18:59:33","新北市五股區工商路38號","121.43938","25.0837016666667","6501500","五股區"
"248010","272-BY","2018/01/16 18:59:32","新北市五股區水碓七路5號","121.429393333333","25.07184","6501500","五股區"
"248004","677-BX","2018/01/16 18:59:45","新北市五股區民義路二段50-16號","121.412745","25.1022666666667","6501500","五股區"
"248002","678-BX","2018/01/16 18:59:34","新北市五股區凌雲路一段111號","121.450078333333","25.101735","6501500","五股區"
"234023","9380-KE","2018/01/16 18:59:48","新北市永和區竹林路75巷33弄37號","121.521065","25.01459","6500400","永和區"
"234077","969-R7","2018/01/16 18:59:31","新北市永和區中正路286巷7號","121.517668333333","24.9986016666667","6500400","永和區"
"234074","AAC-211","2018/01/16 18:59:45","新北市永和區環河東路二段100號","121.524118333333","25.0103266666667","6500400","永和區"
"234067","AAC-212","2018/01/16 18:59:45","新北市永和區永和路一段3號","121.512828333333","25.0051666666667","6500400","永和區"
"234003","AAC-295","2018/01/16 18:59:39","新北市永和區和平街44號","121.512905","25.00994","6500400","永和區"
"232011","375-UM","2018/01/16 18:59:46","新北市坪林區水聳淒坑19-1號","121.712548333333","24.9348066666667","6502000","坪林區"
"244013","069-UM","2018/01/16 18:59:38","新北市林口區麗園一街6巷8-2號","121.375178333333","25.0710333333333","6501700","林口區"
"244019","402-UM","2018/01/16 18:59:36","新北市林口區麗園二街76號","121.38195","25.0681133333333","6501700","林口區"
"244009","410-SL","2018/01/16 18:59:30","新北市林口區竹林路430巷1弄12號","121.388551666667","25.0857166666667","6501700","林口區"
"244023","483-VK","2018/01/16 18:59:47","新北市林口區民權路77號","121.37199","25.0808383333333","6501700","林口區"
"244017","485-VK","2018/01/16 18:59:26","新北市林口區公園路56-1號","121.368993333333","25.0700283333333","6501700","林口區"
"244011","656-BX","2018/01/16 18:59:43","新北市林口區仁愛路一段274號","121.39355","25.0760933333333","6501700","林口區"
"244025","837-TS","2018/01/16 18:59:33","新北市林口區文化北路一段412巷78號","121.365616666667","25.076265","6501700","林口區"
"243012","AAD-798","2018/01/16 18:59:32","新北市泰山區福興三街183號","121.432941666667","25.0570616666667","6501600","泰山區"
"243011","297-R6","2018/01/16 18:59:42","新北市泰山區明志路二段246號","121.427008333333","25.0477766666667","6501600","泰山區"
"243015","380-SR","2018/01/16 18:59:47","新北市泰山區明志路一段217號","121.432625","25.061265","6501600","泰山區"
"243014","421-VK","2018/01/16 18:59:31","新北市泰山區黎明路23號","121.42091","25.06262","6501600","泰山區"
"243010","KEA-2215","2018/01/16 18:59:34","新北市泰山區辭修路30號","121.428975","25.058185","6501600","泰山區"
"243009","KEA-2216","2018/01/16 18:59:42","新北市泰山區泰林路二段236號","121.432355","25.062125","6501600","泰山區"
"243013","646-TV","2018/01/16 18:59:36","新北市泰山區明志路三段351巷8號","121.42228","25.0349716666667","6501600","泰山區"
"243016","680-BX","2018/01/16 18:59:44","新北市泰山區明志路二段135號","121.427696666667","25.0507616666667","6501600","泰山區"
"222003","436-BY","2018/01/16 18:59:38","新北市深坑區深南路51-1號","121.62136","25.0101716666667","6501800","深坑區"
"222002","659-BX","2018/01/16 18:59:27","新北市深坑區文山路一段33號","121.629543333333","25.0040416666667","6501800","深坑區"
"231041","002-UM","2018/01/16 18:59:31","新北市新店區環河路76號","121.537025","24.9632383333333","6500600","新店區"
"231066","0293-UT","2018/01/16 18:59:43","新北市新店區安康路二段317號","121.499561666667","24.95677","6500600","新店區"
"231059","046-UY","2018/01/16 18:59:36","新北市新店區安康路一段355號","121.519883333333","24.963685","6500600","新店區"
"231061","047-UY","2018/01/16 18:59:38","新北市新店區安康路一段353號","121.519058333333","24.9638966666667","6500600","新店區"
"231060","106-UY","2018/01/16 18:59:44","新北市新店區安忠路205巷8號","121.508308333333","24.9547266666667","6500600","新店區"
"231051","107-UY","2018/01/16 18:59:41","新北市新店區中正路409巷9號","121.533983333333","24.9772316666667","6500600","新店區"
"231048","108-UY","2018/01/16 18:59:47","新北市新店區德正街27巷16號","121.545268333333","24.971495","6500600","新店區"
"231053","187-VK","2018/01/16 18:59:38","新北市新店區新烏路二段7號","121.543588333333","24.9296816666667","6500600","新店區"
"231050","KEA-2219","2018/01/16 18:59:30","新北市新店區新烏路一段11巷7號","121.547421666667","24.95114","6500600","新店區"
"231046","278-BY","2018/01/16 18:59:43","新北市新店區直潭五街28號","121.534128333333","24.9415566666667","6500600","新店區"
"231054","AAD-862","2018/01/16 18:59:40","新北市新店區新店路13號","121.540301666667","24.9528316666667","6500600","新店區"
"231058","3712-VJ","2018/01/16 18:59:30","新北市新店區中興路一段121號","121.541618333333","24.9630833333333","6500600","新店區"
"231056","3713-VJ","2018/01/16 18:59:37","新北市新店區自立街23號","121.53767","24.9794416666667","6500600","新店區"
"231055","4716-K9","2018/01/16 18:59:39","新北市新店區北新路一段271巷3號","121.540648333333","24.9666216666667","6500600","新店區"
"231067","4772-VM","2018/01/16 18:59:41","新北市新店區安康路一段263巷18號","121.524175","24.9625833333333","6500600","新店區"
"231065","512-UM","2018/01/16 18:59:33","新北市新店區安康路二段393號","121.494311666667","24.9539283333333","6500600","新店區"
"231064","515-UM","2018/01/16 18:59:42","新北市新店區安忠路8-2號","121.514786666667","24.9630933333333","6500600","新店區"
"231045","617-UM","2018/01/16 18:59:31","新北市新店區北新路一段69號","121.53835","24.9600666666667","6500600","新店區"
"231040","619-UM","2018/01/16 18:59:31","新北市新店區三民路185號","121.535366666667","24.9753916666667","6500600","新店區"
"231042","641-BX","2018/01/16 18:59:40","新北市新店區中興路一段285-1號","121.545508333333","24.96856","6500600","新店區"
"231063","645-TV","2018/01/16 18:59:42","新北市新店區車子路115-11號","121.506796666667","24.954645","6500600","新店區"
"231049","719-UM","2018/01/16 18:59:34","新北市新店區中正路454-5號","121.534475","24.9790833333333","6500600","新店區"
"231062","720-UM","2018/01/16 18:59:37","新北市新店區車子路1-1號","121.504513333333","24.9579166666667","6500600","新店區"
"231044","897-TW","2018/01/16 18:59:29","新北市新店區寶中路117號","121.549288333333","24.9799433333333","6500600","新店區"
"231043","899-TW","2018/01/16 18:59:42","新北市新店區北新路二段2號","121.542528333333","24.9705516666667","6500600","新店區"
"241035","462-BY","2018/01/16 18:59:33","新北市三重區重新路四段121號","121.48492","25.051925","6500200","三重區"
"241029","942-UM","2018/01/16 18:59:32","新北市三重區重安街15-1號","121.4903","25.057935","6500200","三重區"
"235066","003-UY","2018/01/16 18:59:33","新北市中和區中山路二段131巷11-1號","121.502891666667","25.0023566666667","6500300","中和區"
"235064","005-UY","2018/01/16 18:59:40","新北市中和區景平路511號","121.499305","24.99874","6500300","中和區"
"235063","006-UY","2018/01/16 18:59:35","新北市中和區中正路530號","121.487923333333","24.9944","6500300","中和區"
"235046","031-BX","2018/01/16 18:59:44","新北市中和區興南路一段135巷20號","121.509296666667","24.9868916666667","6500300","中和區"
"235056","096-UM","2018/01/16 18:59:33","新北市中和區新民街96號","121.48118","25.0083316666667","6500300","中和區"
"235039","097-UM","2018/01/16 18:59:39","新北市中和區宜安路52巷3號","121.512081666667","24.9969066666667","6500300","中和區"
"235065","098-UM","2018/01/16 18:59:34","新北市中和區勝利路35巷11弄1號","121.49967","25.0068183333333","6500300","中和區"
"235040","150-BY","2018/01/16 18:59:39","新北市中和區宜安路1巷24號","121.5126","24.99448","6500300","中和區"
"235058","151-BY","2018/01/16 18:59:30","新北市中和區連城路532號","121.475746666667","24.9915583333333","6500300","中和區"
"235055","183-VK","2018/01/16 18:59:44","新北市中和區民德路10號","121.468731666667","25.0027916666667","6500300","中和區"
"235038","185-VK","2018/01/16 18:59:40","新北市中和區大仁街20巷1號","121.51782","24.9932616666667","6500300","中和區"
"235049","186-VK","2018/01/16 18:59:50","新北市中和區景安路177巷36號","121.506953333333","24.994445","6500300","中和區"
"235067","255-BX","2018/01/16 18:59:38","新北市中和區中正路839巷3號","121.484481666667","25.0023966666667","6500300","中和區"
"235044","293-VK","2018/01/16 18:59:45","新北市中和區中興街202巷8號","121.498871666667","24.9904216666667","6500300","中和區"
"235072","301-VK","2018/01/16 18:59:33","新北市中和區中山路二段99號","121.503355","25.00397","6500300","中和區"
"235043","352-BY","2018/01/16 18:59:38","新北市中和區秀朗路三段117號","121.52609","24.9933233333333","6500300","中和區"
"235068","377-QA","2018/01/16 18:56:42","新北市中和區中正路167巷28號","121.498281666667","24.9921583333333","6500300","中和區"
"235061","378-QA","2018/01/16 18:59:32","新北市中和區民享街81號","121.474056666667","25.00171","6500300","中和區"
"235050","4979-A6","2018/01/16 18:59:42","新北市中和區華新街46號","121.5079","24.984135","6500300","中和區"
"235069","4980-A6","2018/01/16 18:59:38","新北市中和區中和路219-3號","121.504161666667","25.0001066666667","6500300","中和區"
"235042","551-UM","2018/01/16 18:59:28","新北市中和區秀朗路三段100巷2弄14號","121.52496","24.9936783333333","6500300","中和區"
"235070","558-UM","2018/01/16 18:56:45","新北市中和區景新街2號","121.502605","24.99967","6500300","中和區"
"235045","565-BX","2018/01/16 18:59:42","新北市中和區景新街467巷15弄1號","121.513921666667","24.9882966666667","6500300","中和區"
"235054","640-BX","2018/01/16 18:59:45","新北市中和區民享街4號","121.4741","25.0051666666667","6500300","中和區"
"235060","647-TV","2018/01/16 18:59:32","新北市中和區中山路三段41號","121.477198333333","25.0055816666667","6500300","中和區"
"235047","732-UM","2018/01/16 18:59:35","新北市中和區興南路二段54巷11弄4號","121.505588333333","24.9855783333333","6500300","中和區"
"235062","800-TS","2018/01/16 18:59:44","新北市中和區中山路二段348巷8號","121.493","25.0030366666667","6500300","中和區"
"235057","801-TS","2018/01/16 18:59:43","新北市中和區民利街22號","121.480335","24.99914","6500300","中和區"
"235052","805-TS","2018/01/16 18:59:44","新北市中和區興南路二段347-2號","121.501075","24.98047","6500300","中和區"
"235048","896-TW","2018/01/16 18:59:37","新北市中和區華新街109巷15號","121.508828333333","24.9810633333333","6500300","中和區"
"235053","900-TW","2018/01/16 18:59:41","新北市中和區壽德街25號","121.46626","24.9949533333333","6500300","中和區"
"235051","157-BY","2018/01/16 18:59:27","新北市中和區忠孝街106巷45號","121.513786666667","24.98438","6500300","中和區"
"235037","AAC-213","2018/01/16 18:59:39","新北市中和區自立路99巷10號","121.522518333333","24.9947333333333","6500300","中和區"
"235059","AAC-215","2018/01/16 18:59:40","新北市中和區圓通路369巷2號","121.491231666667","24.9894483333333","6500300","中和區"
"220065","072-UY","2018/01/16 18:59:46","新北市中和區中山路三段218號","121.471291666667","25.00684","6500100","板橋區"
"220106","075-UY","2018/01/16 18:59:39","新北市板橋區文化路二段124巷28-2號","121.471236666667","25.025635","6500100","板橋區"
"220069","AAD-861","2018/01/16 18:59:40","新北市板橋區華興街89號","121.456653333333","25.0051683333333","6500100","板橋區"
"226004","312-R5","2018/01/16 18:59:31","新北市平溪區平溪里三坑路38號","121.734463333333","25.0328783333333","6502400","平溪區"
"235041","251-BX","2018/01/16 18:59:39","新北市中和區安平路147號","121.512095","24.9980316666667","6500300","中和區"
"228003","097-TW","2018/01/16 18:59:34","新北市貢寮區和美里龍洞街33號","121.916618333333","25.11071","6502600","貢寮區"
"228001","212-TW","2018/01/16 18:59:42","新北市貢寮區仁理村保健街69號","121.923688333333","25.0516083333333","6502600","貢寮區"
"228002","828-UM","2018/01/16 18:59:36","新北市貢寮區福隆里東興街106巷25弄1號","121.946473333333","25.018295","6502600","貢寮區"
"224010","AGQ-8101","2018/01/16 18:50:22","新北市瑞芳區汽車路22-1號","121.845415","25.10981","6501200","瑞芳區"
"224006","676-BX","2018/01/16 18:59:29","新北市瑞芳區中正路2號","121.808925","25.1070816666667","6501200","瑞芳區"
"224009","285-BY","2018/01/16 18:59:35","新北市瑞芳區祈堂路53-1號","121.859578333333","25.1104683333333","6501200","瑞芳區"
"224008","275-VK","2018/01/16 18:59:38","新北市瑞芳區逢甲路343-5號","121.799965","25.1123533333333","6501200","瑞芳區"
"224007","273-VK","2018/01/16 18:59:37","新北市瑞芳區中央路48巷166號","121.759176666667","25.1032933333333","6501200","瑞芳區"
"224005","271-BY","2018/01/16 18:59:41","新北市瑞芳區連福新城25號","121.820305","25.11901","6501200","瑞芳區"
"227003","400-TW","2018/01/16 18:59:39","新北市雙溪區平林里康福家園10號","121.85879","25.0373533333333","6502500","雙溪區"
"253005","032-BX","2018/01/16 18:59:43","新北市石門區中央路37-5號","121.57002","25.2965616666667","6502200","石門區"
"253006","295-VK","2018/01/16 18:59:42","新北市石門區下員坑42-1號","121.518326666667","25.2790916666667","6502200","石門區"
"222001","KEA-2212","2018/01/16 18:59:41","新北市深坑區北深路二段25號","121.620138333333","25.00452","6501800","深坑區"
"208002","742-BX","2018/01/16 18:59:43","新北市金山區仁愛路37-13號","121.635753333333","25.2202966666667","6502700","金山區"
"208003","665-BX","2018/01/16 18:59:42","新北市金山區中正路83號","121.633441666667","25.2217366666667","6502700","金山區"
"208001","761-BX","2018/01/16 18:59:31","新北市金山區中山路79號","121.64031","25.2187066666667","6502700","金山區"
"251009","008-UM","2018/01/16 18:59:35","新北市淡水區重建街63號","121.43983","25.1719216666667","6501000","淡水區"
"251013","179-VK","2018/01/16 18:59:30","新北市淡水區安子內12號","121.481573333333","25.2190766666667","6501000","淡水區"
"251014","180-VK","2018/01/16 18:59:40","新北市淡水區小中寮32-1號","121.491306666667","25.2261866666667","6501000","淡水區"
"251015","182-VK","2018/01/16 18:59:43","新北市淡水區糞箕湖60號","121.485176666667","25.17228","6501000","淡水區"
"251010","413-VK","2018/01/16 18:59:34","新北市淡水區淡海路69巷8弄6號","121.4227","25.18155","6501000","淡水區"
"251016","442-VK","2018/01/16 18:59:44","新北市淡水區埤島23-1號","121.446646666667","25.199605","6501000","淡水區"
"251001","559-UM","2018/01/16 18:59:44","新北市淡水區自強路60號","121.463123333333","25.1275283333333","6501000","淡水區"
"251002","672-BX","2018/01/16 18:59:43","新北市淡水區學府路1號","121.447243333333","25.1678566666667","6501000","淡水區"
"251003","673-BX","2018/01/16 18:59:33","新北市淡水區中山北路一段149巷28號","121.442953333333","25.1780766666667","6501000","淡水區"
"207003","550-UM","2018/01/16 18:59:33","新北市萬里區大鵬里頂社24-2號","121.657495","25.2103433333333","6502800","萬里區"
"207004","291-VK","2018/01/16 18:59:37","新北市萬里區萬里里獅頭路23號","121.693213333333","25.1782083333333","6502800","萬里區"
"252002","178-VK","2018/01/16 18:59:30","新北市三芝區民生街2號","121.503803333333","25.257475","6502100","三芝區"
"252003","249-BX","2018/01/16 18:59:40","新北市三芝區後厝里北勢子42-1號","121.471808333333","25.2522633333333","6502100","三芝區"
"252001","292-VK","2018/01/16 18:59:39","新北市三芝區中興街二段260號","121.501741666667","25.2530666666667","6502100","三芝區"
"237004","078-UY","2018/01/16 18:59:43","新北市三峽區有木206號","121.439076666667","24.8514633333333","6500900","三峽區"
"237007","153-BY","2018/01/16 18:59:44","新北市三峽區大埔路101號","121.366518333333","24.9069416666667","6500900","三峽區"
"237009","210-TH","2018/01/16 18:59:39","新北市三峽區文化路212-6號","121.368408333333","24.9359733333333","6500900","三峽區"
"237013","252-BX","2018/01/16 18:59:42","新北市三峽區光明路69巷25號","121.376755","24.9291916666667","6500900","三峽區"
"237012","275-BY","2018/01/16 18:59:42","新北市三峽區三樹路222巷61號","121.383715","24.9422133333333","6500900","三峽區"
"237008","302-VK","2018/01/16 18:59:45","新北市三峽區正義街35號","121.36946","24.919075","6500900","三峽區"
"237014","433-BY","2018/01/16 18:59:31","新北市三峽區隆恩街238號","121.357735","24.9411283333333","6500900","三峽區"
"237006","5529-G3","2018/01/16 18:59:35","新北市三峽區溪東路233巷47弄2號","121.41066","24.934685","6500900","三峽區"
"237010","706-TV","2018/01/16 18:59:33","新北市三峽區民生街28號","121.37576","24.9366933333333","6500900","三峽區"
"237005","AKY-6261","2018/01/16 18:59:45","新北市三峽區中山路459巷163-3號","121.348651666667","24.9329683333333","6500900","三峽區"
"236070","105-UM","2018/01/16 18:59:34","新北市土城區清水路99巷13號","121.45686","24.9823766666667","6501300","土城區"
"236043","107-UM","2018/01/16 18:59:44","新北市土城區學府路一段256巷4弄2號","121.45091","24.9849066666667","6501300","土城區"
"236031","253-BX","2018/01/16 18:59:38","新北市土城區慶利街9號","121.439535","24.973655","6501300","土城區"
"236027","269-VK","2018/01/16 18:59:40","新北市土城區中正路56巷15號","121.444116666667","24.9746766666667","6501300","土城區"
"236015","270-VK","2018/01/16 18:59:42","新北市土城區延和路7號","121.463763333333","24.9878483333333","6501300","土城區"
"236038","271-VK","2018/01/16 18:59:41","新北市土城區明德路一段240巷26弄12號","121.460711666667","24.97812","6501300","土城區"
"236023","401-BY","2018/01/16 18:59:45","新北市土城區延吉街168巷9號","121.468063333333","24.9858383333333","6501300","土城區"
"236063","752-BX","2018/01/16 18:58:09","新北市土城區延和路63號","121.466886666667","24.9898716666667","6501300","土城區"
"236059","912-UM","2018/01/16 18:59:41","新北市土城區明德路一段385-1號","121.452381666667","24.979775","6501300","土城區"
"236049","913-UM","2018/01/16 18:59:29","新北市土城區青雲路318-1號","121.458913333333","24.977415","6501300","土城區"
"236055","AAC-216","2018/01/16 18:59:42","新北市土城區學成路146號","121.448813333333","24.9895516666667","6501300","土城區"
"242037","133-UY","2018/01/16 18:59:47","新北市樹林區中山路三段214號","121.379878333333","24.9677083333333","6500500","新莊區"
"238023","601-UM","2018/01/16 18:58:36","新北市樹林區工興街14巷1號","121.398936666667","25.0137666666667","6500700","樹林區"
"238019","599-UM","2018/01/16 18:59:42","新北市樹林區東榮街91巷2弄4號","121.41591","24.982285","6500700","樹林區"
"238018","571-TV","2018/01/16 18:59:49","新北市樹林區八德街13號","121.418","24.984415","6500700","樹林區"
"238021","KEA-2217","2018/01/16 18:59:27","新北市樹林區西圳街二段125號","121.384341666667","24.9574816666667","6500700","樹林區"
"238022","KEA-2213","2018/01/16 18:59:44","新北市樹林區東興街2-1號","121.409195","24.97968","6500700","樹林區"
"238025","303-VK","2018/01/16 18:59:44","新北市樹林區民和街83巷10號","121.378655","24.9730316666667","6500700","樹林區"
"238014","282-BY","2018/01/16 18:59:33","新北市樹林區中正路21號","121.427475","24.9991366666667","6500700","樹林區"
"238020","268-VK","2018/01/16 18:59:38","新北市樹林區俊英街282號","121.423738333333","25.0133416666667","6500700","樹林區"
"238026","172-UY","2018/01/16 18:59:46","新北市樹林區吉祥街23號","121.395653333333","24.9736383333333","6500700","樹林區"
"238016","169-UY","2018/01/16 18:59:42","新北市樹林區文化街25巷21號","121.418255","24.9866216666667","6500700","樹林區"
"239007","AAC-297","2018/01/16 18:59:40","新北市鶯歌區成功街8號","121.358711666667","24.9573833333333","6500800","鶯歌區"
"239006","891-R6","2018/01/16 18:59:50","新北市鶯歌區鶯桃路91巷31弄1衖3號","121.337311666667","24.952135","6500800","鶯歌區"
"239008","527-UM","2018/01/16 18:59:37","新北市鶯歌區國際二路44號","121.335728333333","24.97546","6500800","鶯歌區"
"239005","526-UM","2018/01/16 18:59:30","新北市鶯歌區中湖街2號","121.346318333333","24.9729116666667","6500800","鶯歌區"
"239001","417-VK","2018/01/16 18:59:29","新北市鶯歌區永明街73-2號","121.341268333333","24.9559183333333","6500800","鶯歌區"
"239003","360-BY","2018/01/16 18:59:33","新北市鶯歌區鶯桃路499號","121.331616666667","24.9665066666667","6500800","鶯歌區"
"239002","359-BY","2018/01/16 18:59:35","新北市鶯歌區西湖街69號","121.338846666667","24.9613016666667","6500800","鶯歌區"
"239004","193-VK","2018/01/16 18:59:47","新北市鶯歌區中正三路327號","121.32834","24.9355016666667","6500800","鶯歌區"
"221036","130-UY","2018/01/16 18:59:40","新北市汐止區仁愛路326號","121.66426","25.0678966666667","6501100","汐止區"
"221010","269-BY","2018/01/16 18:59:40","新北市汐止區康寧街901號","121.65139","25.0750283333333","6501100","汐止區"
"221012","278-VK","2018/01/16 18:59:26","新北市汐止區康寧街901號","121.65088","25.0752516666667","6501100","汐止區"
"221023","279-VK","2018/01/16 18:59:33","新北市汐止區康寧街901號","121.651003333333","25.0752","6501100","汐止區"
"221032","280-BY","2018/01/16 18:59:29","新北市汐止區橫科路367巷24弄5號","121.623638333333","25.0481583333333","6501100","汐止區"
"221027","281-BY","2018/01/16 18:59:29","新北市汐止區康寧街901號","121.651496666667","25.07501","6501100","汐止區"
"221029","298-VK","2018/01/16 18:59:30","新北市汐止區樟樹一路256號","121.642385","25.0673333333333","6501100","汐止區"
"221008","358-BY","2018/01/16 18:59:41","新北市汐止區康寧街861巷1號","121.64539","25.075945","6501100","汐止區"
"221015","567-BX","2018/01/16 18:59:31","新北市汐止區大同路二段639號","121.664498333333","25.071135","6501100","汐止區"
"221025","623-UM","2018/01/16 18:59:39","新北市汐止區汐萬路一段256巷3號","121.652931666667","25.0744366666667","6501100","汐止區"
"221038","646-BX","2018/01/16 18:59:31","新北市汐止區康寧街901號","121.650761666667","25.07526","6501100","汐止區"
"221033","647-BX","2018/01/16 18:59:33","新北市汐止區南勢街1巷1號","121.627053333333","25.0374233333333","6501100","汐止區"
"221002","707-TV","2018/01/16 18:59:50","新北市汐止區大同路一段4號","121.621115","25.0550516666667","6501100","汐止區"
"221018","753-BX","2018/01/16 18:59:39","新北市汐止區汐萬路一段310號","121.65036","25.07491","6501100","汐止區"
"220079","145-BY","2018/01/16 18:59:43","新北市板橋區民權路202巷9弄8號","121.46015","25.0154583333333","6500100","板橋區"
"220080","200-UY","2018/01/16 18:59:27","新北市板橋區大觀路二段265巷1弄14號","121.443536666667","24.9985133333333","6500100","板橋區"
"220082","610-BX","2018/01/16 18:59:35","新北市板橋區篤行路二段136號","121.429901666667","24.9885183333333","6500100","板橋區"
"220101","245-BX","2018/01/16 18:59:47","新北市板橋區文化路二段182巷5弄2號","121.471738333333","25.0269916666667","6500100","板橋區"
"220055","256-TC","2018/01/16 18:59:36","新北市板橋區民安街13號","121.466868333333","25.0118116666667","6500100","板橋區"
"220096","257-TC","2018/01/16 18:59:32","新北市板橋區莒光路101號","121.472605","25.02405","6500100","板橋區"
"220072","277-BY","2018/01/16 18:59:34","新北市板橋區大觀路三段36巷4號","121.4339","24.9959616666667","6500100","板橋區"
"220071","283-VK","2018/01/16 18:59:42","新北市板橋區忠孝路154巷49號","121.464528333333","25.0009166666667","6500100","板橋區"
"220094","285-UM","2018/01/16 18:59:39","新北市板橋區文化路二段76號","121.469515","25.0249716666667","6500100","板橋區"
"220053","285-VK","2018/01/16 18:59:37","新北市板橋區中山路二段89巷39號","121.473688333333","25.0170866666667","6500100","板橋區"
"220083","286-VK","2018/01/16 18:59:40","新北市板橋區大觀路一段38巷156弄76號","121.443073333333","25.0066816666667","6500100","板橋區"
"220081","287-VK","2018/01/16 18:59:40","新北市板橋區光華街19巷39號","121.4527","25.0117566666667","6500100","板橋區"
"220090","288-VK","2018/01/16 18:59:42","新北市板橋區四維路177巷1弄2號","121.464055","25.0262333333333","6500100","板橋區"
"220061","293-UM","2018/01/16 18:59:33","新北市板橋區富山街87號","121.476638333333","25.021895","6500100","板橋區"
"220062","295-UM","2018/01/16 18:59:44","新北市板橋區民享街117號","121.47786","25.01642","6500100","板橋區"
"220084","296-UM","2018/01/16 18:59:33","新北市板橋區龍興街63巷5號","121.442696666667","25.0012883333333","6500100","板橋區"
"220075","303-R5","2018/01/16 18:59:46","新北市板橋區館前西路227號","121.454578333333","25.008495","6500100","板橋區"
"220092","307-R5","2018/01/16 18:59:41","新北市板橋區文化路一段90號","121.464278333333","25.01777","6500100","板橋區"
"220098","317-R6","2018/01/16 18:59:38","新北市板橋區民有街18號","121.466211666667","25.0250016666667","6500100","板橋區"
"220086","461-BY","2018/01/16 18:59:40","新北市板橋區民權路209號","121.457918333333","25.0149433333333","6500100","板橋區"
"220064","486-VK","2018/01/16 18:59:39","新北市板橋區漢生東路178號","121.466905","25.0143133333333","6500100","板橋區"
"220089","487-VK","2018/01/16 18:59:47","新北市板橋區文化路二段294號","121.471995","25.0295766666667","6500100","板橋區"
"220088","491-VK","2018/01/16 18:59:29","新北市板橋區民生路二段222號","121.469133333333","25.021745","6500100","板橋區"
"220035","560-BX","2018/01/16 18:59:47","新北市板橋區中正路294號","121.45495","25.0204083333333","6500100","板橋區"
"220103","561-BX","2018/01/16 18:59:50","新北市板橋區民生路二段123號","121.470698333333","25.0185816666667","6500100","板橋區"
"220063","609-BX","2018/01/16 18:59:44","新北市板橋區中山路二段177號","121.476126666667","25.0168833333333","6500100","板橋區"
"220056","630-UY","2018/01/16 18:59:33","新北市板橋區信義路116號","121.45838","24.99256","6500100","板橋區"
"220091","637-BX","2018/01/16 18:59:41","新北市板橋區莒光路165巷46號","121.474635","25.025275","6500100","板橋區"
"220057","686-BX","2018/01/16 18:59:40","新北市板橋區重慶路58號","121.461775","25.0071183333333","6500100","板橋區"
"220077","687-BX","2018/01/16 18:59:41","新北市板橋區大觀路二段299號","121.442081666667","24.998755","6500100","板橋區"
"220093","689-BX","2018/01/16 18:59:50","新北市板橋區文化路一段479巷42號","121.468056666667","25.0232916666667","6500100","板橋區"
"220054","741-BX","2018/01/16 18:59:47","新北市板橋區重慶路141號","121.462285","25.00463","6500100","板橋區"
"220067","829-TW","2018/01/16 18:59:36","新北市板橋區三民路二段188號","121.478888333333","25.014935","6500100","板橋區"
"220102","830-TW","2018/01/16 18:59:40","新北市板橋區懷德街235巷2-1號","121.481435","25.02812","6500100","板橋區"
"220074","895-R6","2018/01/16 18:59:35","新北市板橋區西門街59號","121.45448","25.009145","6500100","板橋區"
"220073","985-R7","2018/01/16 18:59:29","新北市板橋區民權路248號","121.4584","25.0146683333333","6500100","板橋區"
"220097","AAC-210","2018/01/16 18:59:40","新北市板橋區陽明街166號","121.46363","25.024515","6500100","板橋區"
"220070","AAC-253","2018/01/16 18:59:49","新北市板橋區四川路一段294號","121.458623333333","25.000605","6500100","板橋區"
