"lineid","car","time","location","longitude","latitude","cityid","cityname"
"234046","148-BY","2018/01/16 19:09:34","新北市永和區永元路52巷52號","121.524503333333","25.0006166666667","6500400","永和區"
"234042","149-BY","2018/01/16 19:09:42","新北市永和區永和路一段49巷3弄99號","121.511768333333","25.005995","6500400","永和區"
"234007","207-UY","2018/01/16 19:09:40","新北市永和區中山路一段277號","121.507051666667","25.007025","6500400","永和區"
"234081","298-R6","2018/01/16 19:09:36","新北市永和區永亨路61號","121.521081666667","25.0060533333333","6500400","永和區"
"234038","336-UY","2018/01/16 19:09:39","新北市永和區民樂街71巷2號","121.52738","24.9973516666667","6500400","永和區"
"234064","337-UY","2018/01/16 19:09:39","新北市永和區秀朗路二段33號","121.521278333333","25.002435","6500400","永和區"
"234086","338-UY","2018/01/16 19:09:32","新北市永和區永貞路94號","121.519303333333","25.004495","6500400","永和區"
"234054","553-UM","2018/01/16 19:09:43","新北市永和區中興街133巷4號","121.51885","25.0125866666667","6500400","永和區"
"234017","745-BX","2018/01/16 19:09:33","新北市永和區文化路90巷8號","121.513905","25.015685","6500400","永和區"
"234030","746-BX","2018/01/16 19:09:34","新北市永和區民生路23號","121.522875","24.9988533333333","6500400","永和區"
"234013","KEA-2591","2018/01/16 19:09:34","新北市永和區保福路二段2號","121.511373333333","25.0107583333333","6500400","永和區"
"234061","AAD-866","2018/01/16 19:09:35","新北市永和區安樂路304巷7號","121.514561666667","25.0051933333333","6500400","永和區"
"234070","847-RS","2018/01/16 19:09:46","新北市永和區豫溪街137巷1弄10號","121.519241666667","25.01046","6500400","永和區"
"234050","863-TW","2018/01/16 19:09:34","新北市永和區仁愛路104巷7弄23號","121.511013333333","25.0140616666667","6500400","永和區"
"234026","9371-KE","2018/01/16 19:09:33","新北市永和區安樂路272巷9弄7號","121.515095","25.0046116666667","6500400","永和區"
"234011","9373-KE","2018/01/16 19:09:40","新北市永和區仁愛路141巷30弄26號","121.512051666667","25.0115","6500400","永和區"
"249005","172-UM","2018/01/16 19:09:48","新北市八里區中華路三段35號","121.396155","25.142595","6502300","八里區"
"249001","173-UM","2018/01/16 19:09:31","新北市八里區龍米路二段246號","121.430145","25.1588166666667","6502300","八里區"
"249003","593-UM","2018/01/16 19:09:44","新北市八里區博物館路10-1號","121.415305","25.164145","6502300","八里區"
"248016","026-BX","2018/01/16 19:09:32","新北市五股區凌雲路一段116巷6號","121.450405","25.1022466666667","6501500","五股區"
"248020","225-UY","2018/01/16 19:07:12","新北市五股區凌雲路三段57號","121.425276666667","25.1250283333333","6501500","五股區"
"248012","247-BX","2018/01/16 19:09:33","新北市五股區中興路四段48巷16號","121.438635","25.08346","6501500","五股區"
"248010","272-BY","2018/01/16 19:09:32","新北市五股區水碓一路23號","121.430631666667","25.0713433333333","6501500","五股區"
"248004","677-BX","2018/01/16 19:09:45","新北市五股區六合街3號","121.431951666667","25.0885033333333","6501500","五股區"
"248002","678-BX","2018/01/16 19:09:34","新北市五股區凌雲路一段158巷13號","121.447783333333","25.103465","6501500","五股區"
"234023","9380-KE","2018/01/16 19:09:42","新北市永和區勵行街72巷21號","121.516355","25.0124616666667","6500400","永和區"
"234077","969-R7","2018/01/16 19:09:47","新北市永和區民族街45號","121.518641666667","24.99846","6500400","永和區"
"234074","AAC-211","2018/01/16 19:09:45","新北市永和區竹林路206號","121.520705","25.0085416666667","6500400","永和區"
"234067","AAC-212","2018/01/16 19:09:45","新北市永和區保平路33號","121.512091666667","25.007305","6500400","永和區"
"234003","AAC-295","2018/01/16 19:09:39","新北市永和區保福路一段82號","121.51229","25.0101983333333","6500400","永和區"
"244013","069-UM","2018/01/16 19:09:38","新北市林口區麗園一街11巷3號","121.377421666667","25.0703816666667","6501700","林口區"
"244019","402-UM","2018/01/16 19:09:36","新北市林口區麗園二街12巷2-2號","121.378368333333","25.0690516666667","6501700","林口區"
"244009","410-SL","2018/01/16 19:09:30","新北市林口區竹林路279號","121.389833333333","25.081305","6501700","林口區"
"244023","483-VK","2018/01/16 19:09:47","新北市林口區仁愛路二段700號","121.36919","25.080795","6501700","林口區"
"244011","656-BX","2018/01/16 19:09:43","新北市林口區竹林路55號","121.387411666667","25.0782533333333","6501700","林口區"
"244025","837-TS","2018/01/16 19:09:37","新北市林口區文化北路一段542巷13弄69號","121.369693333333","25.0796733333333","6501700","林口區"
"243012","AAD-798","2018/01/16 19:09:32","新北市泰山區辭修路36巷8弄5號","121.427885","25.0585866666667","6501600","泰山區"
"243011","297-R6","2018/01/16 19:09:42","新北市泰山區明志路二段342號","121.426033333333","25.0454383333333","6501600","泰山區"
"243015","380-SR","2018/01/16 19:09:46","新北市泰山區明志路一段403號","121.43079","25.0572716666667","6501600","泰山區"
"243014","421-VK","2018/01/16 19:09:33","新北市泰山區泰林路二段465號","121.425475","25.0640116666667","6501600","泰山區"
"243010","KEA-2215","2018/01/16 19:09:34","新北市泰山區明志路一段483巷1弄4號","121.431166666667","25.0554683333333","6501600","泰山區"
"243009","KEA-2216","2018/01/16 19:09:36","新北市泰山區楓樹街15巷13號","121.434731666667","25.0630016666667","6501600","泰山區"
"243013","646-TV","2018/01/16 19:09:36","新北市泰山區明志路三段277號","121.423125","25.0368166666667","6501600","泰山區"
"243016","680-BX","2018/01/16 19:09:44","新北市泰山區明志路二段357號","121.42548","25.0442483333333","6501600","泰山區"
"222003","436-BY","2018/01/16 19:09:48","新北市深坑區深南路93-1號","121.626271666667","25.0155783333333","6501800","深坑區"
"222002","659-BX","2018/01/16 19:09:48","新北市深坑區紅葉街61號","121.63228","25.0138966666667","6501800","深坑區"
"231041","002-UM","2018/01/16 19:09:43","新北市新店區溪園路411號","121.524285","24.9784283333333","6500600","新店區"
"231066","0293-UT","2018/01/16 19:09:43","新北市新店區安康路三段237號","121.48739","24.9518083333333","6500600","新店區"
"231059","046-UY","2018/01/16 19:09:36","新北市新店區安和路二段138-3號","121.519405","24.9718033333333","6500600","新店區"
"231061","047-UY","2018/01/16 19:09:38","新北市新店區安康路一段65號","121.530391666667","24.96099","6500600","新店區"
"231060","106-UY","2018/01/16 19:09:44","新北市新店區安康路二段356號","121.502221666667","24.9574433333333","6500600","新店區"
"231051","107-UY","2018/01/16 19:09:41","新北市新店區中正路399巷20號","121.534008333333","24.9768316666667","6500600","新店區"
"231048","108-UY","2018/01/16 19:09:47","新北市新店區德正街27巷29弄39號","121.544998333333","24.971885","6500600","新店區"
"231053","187-VK","2018/01/16 19:09:38","新北市新店區自強路90號","121.546385","24.92406","6500600","新店區"
"231050","KEA-2219","2018/01/16 19:09:30","新北市新店區竹林路2巷31號","121.55041","24.950205","6500600","新店區"
"231046","278-BY","2018/01/16 19:09:43","新北市新店區永業路119號","121.528401666667","24.948","6500600","新店區"
"231054","AAD-862","2018/01/16 19:09:40","新北市新店區新店路169號","121.53708","24.95562","6500600","新店區"
"231058","3712-VJ","2018/01/16 19:09:30","新北市新店區光明街138巷13弄1號","121.540385","24.96111","6500600","新店區"
"231056","3713-VJ","2018/01/16 19:09:37","新北市新店區建國路150號","121.538741666667","24.9792216666667","6500600","新店區"
"231055","4716-K9","2018/01/16 19:09:35","新北市新店區力行路12號","121.539431666667","24.9646166666667","6500600","新店區"
"231067","4772-VM","2018/01/16 19:09:41","新北市新店區安康路一段198號","121.524448333333","24.9633933333333","6500600","新店區"
"231065","512-UM","2018/01/16 19:09:33","新北市新店區安祥路147巷53號","121.476175","24.9561183333333","6500600","新店區"
"231064","515-UM","2018/01/16 19:09:42","新北市新店區安忠路102巷2號","121.510833333333","24.956395","6500600","新店區"
"231045","617-UM","2018/01/16 19:09:36","新北市新店區北宜路一段123-2號","121.540495","24.953365","6500600","新店區"
"231040","619-UM","2018/01/16 19:09:31","新北市新店區三民路98-2號","121.534028333333","24.9735266666667","6500600","新店區"
"231042","641-BX","2018/01/16 19:09:40","新北市新店區中興路一段115號","121.541363333333","24.962765","6500600","新店區"
"231063","645-TV","2018/01/16 19:09:42","新北市新店區車子路110號","121.505228333333","24.9520933333333","6500600","新店區"
"231049","719-UM","2018/01/16 19:09:34","新北市新店區二十張路25巷18弄28號","121.539225","24.9813933333333","6500600","新店區"
"231062","720-UM","2018/01/16 19:09:37","新北市新店區安平路20號","121.524028333333","24.9671366666667","6500600","新店區"
"231044","897-TW","2018/01/16 19:09:48","新北市新店區中興路三段214號","121.54378","24.9825133333333","6500600","新店區"
"231043","899-TW","2018/01/16 19:09:43","新北市新店區中興路二段252號","121.547448333333","24.9759666666667","6500600","新店區"
"241026","066-VK","2018/01/16 19:09:48","新北市三重區泉州街96巷6號","121.495323333333","25.0540216666667","6500200","三重區"
"241035","462-BY","2018/01/16 19:09:33","新北市三重區三寧街32號","121.489836666667","25.06013","6500200","三重區"
"241029","942-UM","2018/01/16 19:09:32","新北市三重區重安街83號","121.492546666667","25.0557783333333","6500200","三重區"
"235066","003-UY","2018/01/16 19:09:33","新北市中和區水源路102號","121.506148333333","25.0034033333333","6500300","中和區"
"235064","005-UY","2018/01/16 19:09:40","新北市中和區連城路47巷1號","121.498316666667","25.0016033333333","6500300","中和區"
"235063","006-UY","2018/01/16 19:09:35","新北市中和區中正路700號","121.48615","24.9963933333333","6500300","中和區"
"235046","031-BX","2018/01/16 19:09:44","新北市中和區忠孝街1巷45號","121.508446666667","24.9841233333333","6500300","中和區"
"235056","096-UM","2018/01/16 19:09:33","新北市中和區員山路536號","121.478855","25.0099483333333","6500300","中和區"
"235039","097-UM","2018/01/16 19:09:39","新北市永和區安樂路58巷2號","121.515116666667","24.9980083333333","6500300","中和區"
"235065","098-UM","2018/01/16 19:09:34","新北市中和區中山路二段2巷49號","121.502076666667","25.0071883333333","6500300","中和區"
"235040","150-BY","2018/01/16 19:09:39","新北市中和區宜安路11巷21號","121.512645","24.9948983333333","6500300","中和區"
"235058","151-BY","2018/01/16 19:09:30","新北市中和區員山路143巷21號","121.479875","24.9955933333333","6500300","中和區"
"235055","183-VK","2018/01/16 19:09:44","新北市中和區德光路18號","121.471126666667","25.004455","6500300","中和區"
"235038","185-VK","2018/01/16 19:09:42","新北市中和區大仁街10巷21號","121.51881","24.992545","6500300","中和區"
"235049","186-VK","2018/01/16 19:09:47","新北市中和區明禮街13號","121.504915","24.9958616666667","6500300","中和區"
"235067","255-BX","2018/01/16 19:09:37","新北市中和區新生街164號","121.483636666667","25.0002516666667","6500300","中和區"
"235044","293-VK","2018/01/16 19:09:45","新北市中和區中興街235巷1號","121.500681666667","24.9895566666667","6500300","中和區"
"235072","301-VK","2018/01/16 19:09:33","新北市中和區景平路699號","121.496505","25.00343","6500300","中和區"
"235043","352-BY","2018/01/16 19:09:38","新北市中和區景平路120號","121.519281666667","24.99171","6500300","中和區"
"235068","377-QA","2018/01/16 19:09:42","新北市中和區圓通路162巷8號","121.496818333333","24.9954","6500300","中和區"
"235061","378-QA","2018/01/16 19:09:32","新北市中和區中山路三段63巷9號","121.477058333333","25.0041","6500300","中和區"
"235050","4979-A6","2018/01/16 19:09:44","新北市中和區復興路263巷9弄10號","121.503121666667","24.98972","6500300","中和區"
"235069","4980-A6","2018/01/16 19:09:38","新北市中和區中山路二段181巷7號","121.501143333333","25.00192","6500300","中和區"
"235042","551-UM","2018/01/16 19:09:28","新北市中和區自立路117巷2弄2號","121.522283333333","24.9944433333333","6500300","中和區"
"235070","558-UM","2018/01/16 19:08:05","新北市中和區中和路285號","121.506211666667","24.9997016666667","6500300","中和區"
"235045","565-BX","2018/01/16 19:09:43","新北市中和區景新街467巷35弄1號","121.514625","24.98899","6500300","中和區"
"235054","640-BX","2018/01/16 19:09:45","新北市中和區國光街104號","121.470145","25.0004833333333","6500300","中和區"
"235060","647-TV","2018/01/16 19:09:32","新北市中和區中山路三段109號","121.474918333333","25.0060166666667","6500300","中和區"
"235047","732-UM","2018/01/16 19:09:35","新北市中和區興南路一段56巷5號","121.51045","24.9911883333333","6500300","中和區"
"235062","800-TS","2018/01/16 19:09:44","新北市中和區中山路二段526巷35弄1號","121.485646666667","25.0058983333333","6500300","中和區"
"235057","801-TS","2018/01/16 19:09:43","新北市中和區民利街97號","121.477813333333","24.99781","6500300","中和區"
"235052","805-TS","2018/01/16 19:09:44","新北市中和區興南路二段142巷19弄13號","121.502701666667","24.9835016666667","6500300","中和區"
"235048","896-TW","2018/01/16 19:09:48","新北市中和區忠孝街1號","121.50891","24.9829916666667","6500300","中和區"
"235053","900-TW","2018/01/16 19:09:32","新北市中和區華福街71號","121.467148333333","24.9965683333333","6500300","中和區"
"235051","157-BY","2018/01/16 19:09:47","新北市中和區忠孝街31巷27號","121.509895","24.9841783333333","6500300","中和區"
"235037","AAC-213","2018/01/16 19:09:39","新北市中和區秀朗路三段60巷35號","121.52519","24.9949083333333","6500300","中和區"
"235059","AAC-215","2018/01/16 19:09:40","新北市中和區圓通路294巷9號","121.488666666667","24.9899766666667","6500300","中和區"
"220065","072-UY","2018/01/16 19:09:39","新北市板橋區民族路219巷68號","121.468831666667","25.00855","6500100","板橋區"
"220106","075-UY","2018/01/16 19:09:39","新北市板橋區文化路二段315號","121.472091666667","25.0297233333333","6500100","板橋區"
"220069","AAD-861","2018/01/16 19:09:40","新北市板橋區四川路一段100號","121.459528333333","25.0047766666667","6500100","板橋區"
"226004","312-R5","2018/01/16 19:09:32","新北市平溪區平溪里平溪街32號","121.738766666667","25.02574","6502400","平溪區"
"235041","251-BX","2018/01/16 19:09:39","新北市中和區景安路59號","121.507163333333","24.9980166666667","6500300","中和區"
"228003","097-TW","2018/01/16 19:09:34","新北市貢寮區和美里和美街40-2號","121.913113333333","25.090745","6502600","貢寮區"
"228001","212-TW","2018/01/16 19:09:42","新北市貢寮區真理里新港街10號","121.925503333333","25.0543833333333","6502600","貢寮區"
"228002","828-UM","2018/01/16 19:09:36","新北市貢寮區福隆里福隆街32-1號","121.945078333333","25.017415","6502600","貢寮區"
"224010","AGQ-8101","2018/01/16 19:09:28","新北市瑞芳區基山街130號","121.843728333333","25.1082983333333","6501200","瑞芳區"
"224006","676-BX","2018/01/16 19:09:48","新北市瑞芳區三爪子坑路118-2號","121.806475","25.1053283333333","6501200","瑞芳區"
"224009","285-BY","2018/01/16 19:09:35","新北市瑞芳區山尖路54號","121.856673333333","25.1162183333333","6501200","瑞芳區"
"224008","275-VK","2018/01/16 19:09:38","新北市瑞芳區瑞芳街82-1號","121.80305","25.1100033333333","6501200","瑞芳區"
"224007","273-VK","2018/01/16 19:09:37","新北市瑞芳區大寮路157號","121.776163333333","25.1003916666667","6501200","瑞芳區"
"224005","271-BY","2018/01/16 19:09:41","新北市瑞芳區三爪子坑路25號","121.813505","25.1075083333333","6501200","瑞芳區"
"227003","400-TW","2018/01/16 19:09:39","新北市雙溪區平林里梅竹蹊56-4號","121.860616666667","25.0368216666667","6502500","雙溪區"
"253005","032-BX","2018/01/16 19:09:43","新北市石門區阿里荖41-1號","121.605603333333","25.2805633333333","6502200","石門區"
"253006","295-VK","2018/01/16 19:09:42","新北市石門區崁子腳58-5號","121.530093333333","25.2862583333333","6502200","石門區"
"222001","KEA-2212","2018/01/16 19:09:41","新北市深坑區北深路二段32號","121.619991666667","25.0046916666667","6501800","深坑區"
"208002","742-BX","2018/01/16 19:09:43","新北市金山區中華路152巷14號","121.63352","25.2212883333333","6502700","金山區"
"208003","665-BX","2018/01/16 19:09:48","新北市金山區中正路51號","121.634668333333","25.22201","6502700","金山區"
"208001","761-BX","2018/01/16 19:09:33","新北市金山區福德街14號","121.639278333333","25.2217383333333","6502700","金山區"
"251009","008-UM","2018/01/16 19:09:35","新北市淡水區清水街178號","121.440796666667","25.17073","6501000","淡水區"
"251005","010-UM","2018/01/16 19:09:36","新北市淡水區原德路11號","121.442161666667","25.17125","6501000","淡水區"
"251013","179-VK","2018/01/16 19:09:30","新北市淡水區安子內12號","121.481571666667","25.219085","6501000","淡水區"
"251014","180-VK","2018/01/16 19:09:50","新北市淡水區小中寮15-2號","121.484968333333","25.2299983333333","6501000","淡水區"
"251015","182-VK","2018/01/16 19:09:43","新北市淡水區南勢埔32-1號","121.48403","25.1803033333333","6501000","淡水區"
"251010","413-VK","2018/01/16 19:09:34","新北市淡水區中正路一段156巷3號","121.42113","25.180275","6501000","淡水區"
"251016","442-VK","2018/01/16 19:09:44","新北市淡水區淡金路三段350巷18號","121.450793333333","25.20839","6501000","淡水區"
"251001","559-UM","2018/01/16 19:09:44","新北市淡水區自強路201巷39號","121.462081666667","25.1268433333333","6501000","淡水區"
"251006","561-UM","2018/01/16 19:09:41","新北市淡水區中山北路二段191號","121.444241666667","25.18535","6501000","淡水區"
"251002","672-BX","2018/01/16 19:09:43","新北市淡水區中山路77號","121.442698333333","25.1704683333333","6501000","淡水區"
"251003","673-BX","2018/01/16 19:09:33","新北市淡水區中山北路一段74號","121.442228333333","25.1758683333333","6501000","淡水區"
"207003","550-UM","2018/01/16 19:09:40","新北市萬里區大鵬里萬里加投14號","121.650375","25.2091833333333","6502800","萬里區"
"207004","291-VK","2018/01/16 19:09:37","新北市萬里區萬里里瑪鋉路112-1號","121.691163333333","25.1786833333333","6502800","萬里區"
"252002","178-VK","2018/01/16 19:09:30","新北市三芝區埔坪里埔頭坑84號","121.508096666667","25.254275","6502100","三芝區"
"252003","249-BX","2018/01/16 19:09:40","新北市三芝區錫板里南勢崗7號","121.479381666667","25.2618066666667","6502100","三芝區"
"252001","292-VK","2018/01/16 19:09:39","新北市三芝區長勤街80號","121.500278333333","25.2551316666667","6502100","三芝區"
"237004","078-UY","2018/01/16 19:09:43","新北市三峽區有木205-1號","121.439013333333","24.8515166666667","6500900","三峽區"
"237007","153-BY","2018/01/16 19:09:44","新北市三峽區中正路二段39號","121.366743333333","24.9188516666667","6500900","三峽區"
"237009","210-TH","2018/01/16 19:09:39","新北市三峽區文化路26號","121.373178333333","24.9359916666667","6500900","三峽區"
"237013","252-BX","2018/01/16 19:09:42","新北市三峽區光明路69巷25號","121.376791666667","24.929225","6500900","三峽區"
"237012","275-BY","2018/01/16 19:09:42","新北市三峽區三樹路222巷254弄81-3號","121.39401","24.9445683333333","6500900","三峽區"
"237008","302-VK","2018/01/16 19:09:45","新北市三峽區中正路一段191巷4號","121.372893333333","24.92764","6500900","三峽區"
"237014","433-BY","2018/01/16 19:09:31","新北市三峽區大仁路37號","121.365795","24.937455","6500900","三峽區"
"237006","5529-G3","2018/01/16 19:09:35","新北市三峽區溪東路205巷6號","121.404801666667","24.9337533333333","6500900","三峽區"
"237010","706-TV","2018/01/16 19:09:33","新北市三峽區復興路179-8號","121.369563333333","24.9387816666667","6500900","三峽區"
"237005","AKY-6261","2018/01/16 19:09:45","新北市三峽區中山路459巷163-3號","121.348661666667","24.9329716666667","6500900","三峽區"
"236070","105-UM","2018/01/16 19:09:34","新北市土城區裕生路84巷7號","121.446843333333","24.98552","6501300","土城區"
"236027","269-VK","2018/01/16 19:09:39","新北市土城區中央路二段218號","121.442021666667","24.97549","6501300","土城區"
"236015","270-VK","2018/01/16 19:09:42","新北市土城區學府路一段75巷16弄2號","121.457243333333","24.9876416666667","6501300","土城區"
"236038","271-VK","2018/01/16 19:09:41","新北市土城區清水路141巷6號","121.458436666667","24.9818366666667","6501300","土城區"
"236023","401-BY","2018/01/16 19:09:45","新北市土城區延峰街29巷1號","121.469481666667","24.9852066666667","6501300","土城區"
"236059","912-UM","2018/01/16 19:09:41","新北市土城區金城路二段239號","121.455713333333","24.9824983333333","6501300","土城區"
"236049","913-UM","2018/01/16 19:09:49","新北市土城區明德路一段398-1號","121.453606666667","24.9791566666667","6501300","土城區"
"242037","133-UY","2018/01/16 19:09:27","新北市板橋區溪城路90-2號","121.429593333333","24.9802883333333","6500500","新莊區"
"238015","755-BX","2018/01/16 19:09:46","新北市樹林區備內街99-3號","121.407573333333","24.9893633333333","6500700","樹林區"
"238023","601-UM","2018/01/16 19:09:41","新北市樹林區大慶街49號","121.39637","25.013885","6500700","樹林區"
"238019","599-UM","2018/01/16 19:09:42","新北市樹林區東榮街60號","121.416815","24.98302","6500700","樹林區"
"238018","571-TV","2018/01/16 19:09:29","新北市樹林區太平路48號","121.41905","24.9825533333333","6500700","樹林區"
"238021","KEA-2217","2018/01/16 19:09:47","新北市樹林區柑園街二段326號","121.373038333333","24.951775","6500700","樹林區"
"238022","KEA-2213","2018/01/16 19:09:44","新北市樹林區中山路二段151巷8弄41號","121.405896666667","24.977485","6500700","樹林區"
"238025","303-VK","2018/01/16 19:09:44","新北市樹林區中山路三段68號","121.393718333333","24.97232","6500700","樹林區"
"238014","282-BY","2018/01/16 19:09:33","新北市樹林區千歲街63-8號","121.426783333333","24.99833","6500700","樹林區"
"238020","268-VK","2018/01/16 19:09:47","新北市樹林區俊英街195號","121.423548333333","25.0122466666667","6500700","樹林區"
"238026","172-UY","2018/01/16 19:09:27","新北市樹林區佳園路一段41巷18號","121.393895","24.9711083333333","6500700","樹林區"
"238016","169-UY","2018/01/16 19:09:42","新北市樹林區中山路一段296號","121.420181666667","24.986455","6500700","樹林區"
"239007","AAC-297","2018/01/16 19:09:40","新北市鶯歌區中正一路221號","121.354095","24.9573416666667","6500800","鶯歌區"
"239006","891-R6","2018/01/16 19:09:30","新北市鶯歌區建國路512巷29號","121.339758333333","24.9511666666667","6500800","鶯歌區"
"239008","527-UM","2018/01/16 19:09:45","新北市鶯歌區國際二路10巷13號","121.338218333333","24.9743516666667","6500800","鶯歌區"
"239005","526-UM","2018/01/16 19:09:30","新北市鶯歌區東湖路19-1號","121.3578","24.9734683333333","6500800","鶯歌區"
"239001","417-VK","2018/01/16 19:09:49","新北市鶯歌區鶯桃路129巷12弄8號","121.337238333333","24.9542933333333","6500800","鶯歌區"
"239003","360-BY","2018/01/16 19:09:33","新北市鶯歌區德昌二街92-1號","121.33273","24.9551416666667","6500800","鶯歌區"
"239002","359-BY","2018/01/16 19:09:35","新北市鶯歌區湖山路56巷1號","121.339518333333","24.9756483333333","6500800","鶯歌區"
"239004","193-VK","2018/01/16 19:09:47","新北市鶯歌區二甲路106巷2號","121.3339","24.9312933333333","6500800","鶯歌區"
"221036","130-UY","2018/01/16 19:09:40","新北市汐止區汐萬路一段310號","121.650343333333","25.0747616666667","6501100","汐止區"
"221010","269-BY","2018/01/16 19:09:40","新北市汐止區康寧街901號","121.651353333333","25.0750216666667","6501100","汐止區"
"221012","278-VK","2018/01/16 19:09:46","新北市汐止區康寧街901號","121.650865","25.0752933333333","6501100","汐止區"
"221023","279-VK","2018/01/16 19:09:33","新北市汐止區康寧街901號","121.650996666667","25.075195","6501100","汐止區"
"221032","280-BY","2018/01/16 19:09:49","新北市汐止區橫科路407巷25弄11號","121.625898333333","25.0484283333333","6501100","汐止區"
"221027","281-BY","2018/01/16 19:09:49","新北市汐止區康寧街901號","121.651486666667","25.0750016666667","6501100","汐止區"
"221029","298-VK","2018/01/16 19:09:29","新北市汐止區汐萬路一段256巷3號","121.653433333333","25.0747733333333","6501100","汐止區"
"221008","358-BY","2018/01/16 19:09:41","新北市汐止區康寧街462號","121.631718333333","25.0682316666667","6501100","汐止區"
"221015","567-BX","2018/01/16 19:09:31","新北市汐止區汐萬路一段256巷3號","121.65252","25.0745666666667","6501100","汐止區"
"221025","623-UM","2018/01/16 19:09:39","新北市汐止區康寧街901號","121.651538333333","25.0749216666667","6501100","汐止區"
"221038","646-BX","2018/01/16 19:09:31","新北市汐止區康寧街901號","121.650753333333","25.0752916666667","6501100","汐止區"
"221033","647-BX","2018/01/16 19:09:33","新北市汐止區南勢街1巷1號","121.627026666667","25.0373816666667","6501100","汐止區"
"221002","707-TV","2018/01/16 19:09:30","台北市南港區南港路一段20-1號","121.619141666667","25.0546333333333","6501100","汐止區"
"220079","145-BY","2018/01/16 19:09:43","新北市板橋區民權路260巷14號","121.458295","25.0153533333333","6500100","板橋區"
"220080","200-UY","2018/01/16 19:09:47","新北市板橋區大觀路二段5-5號","121.446993333333","25.0035783333333","6500100","板橋區"
"220082","610-BX","2018/01/16 19:09:33","新北市板橋區溪崑二街11-3號","121.428978333333","24.991805","6500100","板橋區"
"220101","245-BX","2018/01/16 19:09:27","新北市板橋區萬板路15號","121.47062","25.0210233333333","6500100","板橋區"
"220055","256-TC","2018/01/16 19:09:31","新北市板橋區中山路一段132號","121.463366666667","25.01101","6500100","板橋區"
"220096","257-TC","2018/01/16 19:09:36","新北市板橋區雙十路二段33巷18號","121.475995","25.0254866666667","6500100","板橋區"
"220072","277-BY","2018/01/16 19:09:34","新北市板橋區金門街355-1號","121.428643333333","24.9849133333333","6500100","板橋區"
"220071","283-VK","2018/01/16 19:09:42","新北市板橋區重慶路245巷50弄55號","121.465171666667","24.9993533333333","6500100","板橋區"
"220094","285-UM","2018/01/16 19:09:39","新北市板橋區光武街108-5號","121.465733333333","25.0291616666667","6500100","板橋區"
"220053","285-VK","2018/01/16 19:09:37","新北市板橋區懷仁街35巷5號","121.476865","25.0197216666667","6500100","板橋區"
"220083","286-VK","2018/01/16 19:09:30","新北市板橋區龍興街97巷4號","121.443971666667","25.0027166666667","6500100","板橋區"
"220081","287-VK","2018/01/16 19:09:40","新北市板橋區南雅西路二段110巷24號","121.452691666667","25.012615","6500100","板橋區"
"220090","288-VK","2018/01/16 19:09:42","新北市板橋區裕民街31號","121.461798333333","25.028815","6500100","板橋區"
"220061","293-UM","2018/01/16 19:09:33","新北市板橋區三民路二段2號","121.479221666667","25.018185","6500100","板橋區"
"220062","295-UM","2018/01/16 19:09:44","新北市板橋區三民路二段245巷67號","121.480993333333","25.0125533333333","6500100","板橋區"
"220084","296-UM","2018/01/16 19:09:49","新北市板橋區大觀路三段227-8號","121.430956666667","24.9919316666667","6500100","板橋區"
"220075","303-R5","2018/01/16 19:09:46","新北市板橋區南雅南路一段1巷1弄9號","121.457061666667","25.00634","6500100","板橋區"
"220092","307-R5","2018/01/16 19:09:41","新北市板橋區文化路二段225巷60弄36號","121.469145","25.0292933333333","6500100","板橋區"
"220098","317-R6","2018/01/16 19:09:38","新北市板橋區自由路51巷14弄4號","121.464803333333","25.02369","6500100","板橋區"
"220086","461-BY","2018/01/16 19:09:40","新北市板橋區中正路216巷142號","121.460351666667","25.0193666666667","6500100","板橋區"
"220064","486-VK","2018/01/16 19:09:45","新北市板橋區板新路79號","121.47351","25.0138133333333","6500100","板橋區"
"220089","487-VK","2018/01/16 19:09:47","新北市板橋區文化路二段413號","121.474406666667","25.03234","6500100","板橋區"
"220088","491-VK","2018/01/16 19:09:29","新北市板橋區文化路二段182巷1弄12號","121.47131","25.0277616666667","6500100","板橋區"
"220035","560-BX","2018/01/16 19:09:27","新北市板橋區瑞安街53號","121.45547","25.0222233333333","6500100","板橋區"
"220103","561-BX","2018/01/16 19:09:50","新北市板橋區文化路一段188巷9弄23號","121.468568333333","25.0194366666667","6500100","板橋區"
"220063","609-BX","2018/01/16 19:09:47","新北市板橋區三民路二段117號","121.47918","25.0157583333333","6500100","板橋區"
"220056","630-UY","2018/01/16 19:09:33","新北市板橋區信義路74巷2弄2號","121.457191666667","24.9932","6500100","板橋區"
"220091","637-BX","2018/01/16 19:09:41","新北市板橋區縣民大道247巷41號","121.482085","25.0269766666667","6500100","板橋區"
"220057","686-BX","2018/01/16 19:09:32","新北市板橋區重慶路247-3號","121.46334","25.0004183333333","6500100","板橋區"
"220077","687-BX","2018/01/16 19:09:41","新北市板橋區僑中三街2號","121.447091666667","25.00464","6500100","板橋區"
"220093","689-BX","2018/01/16 19:09:50","新北市板橋區民生路三段251號","121.464586666667","25.02911","6500100","板橋區"
"220054","741-BX","2018/01/16 19:09:39","新北市板橋區實踐路30號","121.463516666667","25.00724","6500100","板橋區"
"220067","829-TW","2018/01/16 19:09:36","新北市板橋區三民路二段正隆巷41號","121.476986666667","25.0136033333333","6500100","板橋區"
"220102","830-TW","2018/01/16 19:09:40","新北市板橋區田單街44號","121.482621666667","25.0278383333333","6500100","板橋區"
"220074","895-R6","2018/01/16 19:09:35","新北市板橋區中正路自強新村29-1號","121.454761666667","25.01408","6500100","板橋區"
"220073","985-R7","2018/01/16 19:09:29","新北市板橋區中正路343號","121.454863333333","25.0205183333333","6500100","板橋區"
"220097","AAC-210","2018/01/16 19:09:45","新北市板橋區幸福路60巷81號","121.459753333333","25.02182","6500100","板橋區"
"220070","AAC-253","2018/01/16 19:09:49","新北市板橋區四川路一段285號","121.459173333333","25.001375","6500100","板橋區"
