"lineid","car","time","location","longitude","latitude","cityid","cityname"
"234046","148-BY","2018/01/16 19:59:13","新北市永和區成功路一段108號","121.526781666667","25.00294","6500400","永和區"
"234042","149-BY","2018/01/16 19:59:22","新北市永和區中和路335巷18弄1號","121.507506666667","25.0003516666667","6500400","永和區"
"234007","207-UY","2018/01/16 19:59:19","新北市永和區保生路22巷14號","121.507626666667","25.0083733333333","6500400","永和區"
"234081","298-R6","2018/01/16 19:59:15","新北市永和區永亨路108號","121.52361","25.0045533333333","6500400","永和區"
"234038","336-UY","2018/01/16 19:59:29","新北市永和區成功路二段138號","121.526511666667","24.9972916666667","6500400","永和區"
"234064","337-UY","2018/01/16 19:59:19","新北市永和區中正路412巷20弄7號","121.518551666667","25.0018916666667","6500400","永和區"
"234086","338-UY","2018/01/16 19:59:26","新北市永和區福和路130號","121.521966666667","25.00792","6500400","永和區"
"234054","553-UM","2018/01/16 19:59:17","新北市永和區環河東路一段124號","121.520688333333","25.0154533333333","6500400","永和區"
"234017","745-BX","2018/01/16 19:59:13","新北市永和區文化路69號","121.513878333333","25.0151366666667","6500400","永和區"
"234030","746-BX","2018/01/16 19:59:24","新北市永和區民生路22巷28號","121.521196666667","24.9970583333333","6500400","永和區"
"234013","KEA-2591","2018/01/16 19:59:14","新北市永和區保生路55號","121.504706666667","25.0105883333333","6500400","永和區"
"234061","AAD-866","2018/01/16 19:59:21","新北市永和區得和路53巷3號","121.516835","25.0002316666667","6500400","永和區"
"234070","847-RS","2018/01/16 19:59:25","新北市永和區國光路14號","121.519065","25.00837","6500400","永和區"
"234050","863-TW","2018/01/16 19:59:14","新北市永和區保安路151號","121.506956666667","25.01303","6500400","永和區"
"234026","9371-KE","2018/01/16 19:59:13","新北市永和區保平路177巷6弄11號","121.509398333333","25.0045116666667","6500400","永和區"
"234011","9373-KE","2018/01/16 19:59:21","新北市永和區仁愛路352巷112弄6號","121.500875","25.0084366666667","6500400","永和區"
"249005","172-UM","2018/01/16 19:59:28","新北市八里區楓林路3-1號","121.382963333333","25.1300833333333","6502300","八里區"
"249001","173-UM","2018/01/16 19:59:20","新北市八里區中華路二段312號","121.403783333333","25.148355","6502300","八里區"
"249004","303-UY","2018/01/16 19:59:25","新北市八里區中華路一段333-1號","121.413223333333","25.15393","6502300","八里區"
"249002","305-UY","2018/01/16 19:59:12","新北市八里區龍米路一段63號","121.455675","25.120845","6502300","八里區"
"249003","593-UM","2018/01/16 19:59:24","新北市八里區中華路二段560巷1號","121.39875","25.1450083333333","6502300","八里區"
"248014","025-BX","2018/01/16 19:59:11","新北市五股區五福路22巷4號","121.434565","25.08894","6501500","五股區"
"248016","026-BX","2018/01/16 19:59:13","新北市五股區成泰路三段577巷80弄48號","121.449855","25.1050966666667","6501500","五股區"
"248008","095-VK","2018/01/16 19:59:29","新北市五股區四維路30巷17號","121.467936666667","25.07151","6501500","五股區"
"248020","225-UY","2018/01/16 19:59:23","新北市五股區凌雲路三段19-1號","121.430661666667","25.1092","6501500","五股區"
"248012","247-BX","2018/01/16 19:59:13","新北市五股區民義路一段84號","121.435995","25.084945","6501500","五股區"
"248010","272-BY","2018/01/16 19:59:28","新北市五股區登林路92-2號","121.42862","25.0694866666667","6501500","五股區"
"248004","677-BX","2018/01/16 19:59:25","新北市五股區成泰路一段8巷2-3號","121.434921666667","25.066885","6501500","五股區"
"248002","678-BX","2018/01/16 19:59:14","新北市五股區成泰路三段495-2號","121.451186666667","25.0999916666667","6501500","五股區"
"234077","969-R7","2018/01/16 19:59:21","新北市永和區民有街9號","121.516241666667","24.996935","6500400","永和區"
"234074","AAC-211","2018/01/16 19:59:25","新北市永和區福和路10巷15號","121.524243333333","25.00935","6500400","永和區"
"234067","AAC-212","2018/01/16 19:59:25","新北市永和區中山路一段281巷1號","121.507206666667","25.006905","6500400","永和區"
"234003","AAC-295","2018/01/16 19:58:59","新北市永和區中正路708號","121.516036666667","25.009925","6500400","永和區"
"244011","656-BX","2018/01/16 19:59:23","新北市八里區長道坑5-2號","121.393365","25.1224483333333","6501700","林口區"
"243012","AAD-798","2018/01/16 19:59:18","新北市泰山區全興路111號","121.433908333333","25.0566483333333","6501600","泰山區"
"243011","297-R6","2018/01/16 19:59:22","新北市泰山區明志路三段196巷52號","121.421718333333","25.0399116666667","6501600","泰山區"
"243015","380-SR","2018/01/16 19:59:26","新北市泰山區明志路二段194號","121.427335","25.0496633333333","6501600","泰山區"
"243014","421-VK","2018/01/16 19:59:28","新北市泰山區泰林路二段119號","121.434313333333","25.0596283333333","6501600","泰山區"
"243010","KEA-2215","2018/01/16 19:59:14","新北市泰山區中華街10巷2號","121.428101666667","25.0523916666667","6501600","泰山區"
"243009","KEA-2216","2018/01/16 19:59:19","新北市泰山區泰林路二段164巷32號","121.43446","25.0611633333333","6501600","泰山區"
"243013","646-TV","2018/01/16 19:59:23","新北市泰山區應化街7號","121.42397","25.0436566666667","6501600","泰山區"
"243016","680-BX","2018/01/16 19:58:59","新北市泰山區貴鳳街1號","121.421511666667","25.0314883333333","6501600","泰山區"
"222003","436-BY","2018/01/16 19:59:19","新北市深坑區埔新街14號","121.620748333333","25.0039416666667","6501800","深坑區"
"222002","659-BX","2018/01/16 19:59:28","新北市深坑區埔新街104號","121.618438333333","25.0022933333333","6501800","深坑區"
"231041","002-UM","2018/01/16 19:59:11","新北市新店區中正路354號","121.535828333333","24.9757283333333","6500600","新店區"
"231066","0293-UT","2018/01/16 19:59:23","新北市新店區安康路二段320巷15弄2號","121.504298333333","24.9597116666667","6500600","新店區"
"231059","046-UY","2018/01/16 19:59:16","新北市新店區安康路二段147號","121.511286666667","24.9598733333333","6500600","新店區"
"231061","047-UY","2018/01/16 19:59:18","新北市新店區安民街330號","121.517408333333","24.9747416666667","6500600","新店區"
"231060","106-UY","2018/01/16 19:59:24","新北市新店區安康路二段391號","121.494505","24.9541566666667","6500600","新店區"
"231051","107-UY","2018/01/16 19:59:20","新北市新店區中央路216-1號","121.529668333333","24.9732916666667","6500600","新店區"
"231048","108-UY","2018/01/16 19:59:27","新北市新店區寶橋路201號","121.548371666667","24.9769433333333","6500600","新店區"
"231053","187-VK","2018/01/16 19:59:18","新北市新店區新烏路三段130號","121.55244","24.9031916666667","6500600","新店區"
"231050","KEA-2219","2018/01/16 19:59:10","新北市新店區北新路一段88巷1號","121.54172","24.9679666666667","6500600","新店區"
"231057","256-BX","2018/01/16 19:59:13","新北市新店區花園二路一段11號","121.555495","24.932555","6500600","新店區"
"231054","AAD-862","2018/01/16 19:59:19","新北市新店區北新路一段97號","121.538953333333","24.9621133333333","6500600","新店區"
"231055","4716-K9","2018/01/16 19:59:15","新北市新店區中華路83巷67號","121.538326666667","24.9672733333333","6500600","新店區"
"231067","4772-VM","2018/01/16 19:59:21","新北市新店區秀山路11巷10號","121.53177","24.9594266666667","6500600","新店區"
"231065","512-UM","2018/01/16 19:59:13","新北市新店區安祥路109巷8號","121.475425","24.9588633333333","6500600","新店區"
"231064","515-UM","2018/01/16 19:59:21","新北市新店區碧安街36號","121.517423333333","24.96907","6500600","新店區"
"231045","617-UM","2018/01/16 19:59:12","新北市新店區北宜路二段82-12號","121.554663333333","24.9535483333333","6500600","新店區"
"231040","619-UM","2018/01/16 19:59:19","新北市新店區中正路67號","121.543883333333","24.970135","6500600","新店區"
"231042","641-BX","2018/01/16 19:59:20","新北市新店區中興路二段89號","121.547056666667","24.9713933333333","6500600","新店區"
"231063","645-TV","2018/01/16 19:59:22","新北市新店區黎明路45號","121.501991666667","24.9497083333333","6500600","新店區"
"231068","718-UY","2018/01/16 19:59:23","新北市新店區安華路28-1號","121.519218333333","24.960925","6500600","新店區"
"231049","719-UM","2018/01/16 19:59:14","新北市新店區明德路40-1號","121.541456666667","24.9780783333333","6500600","新店區"
"231062","720-UM","2018/01/16 19:59:17","新北市新店區華城路36巷1號","121.527958333333","24.9553383333333","6500600","新店區"
"231044","897-TW","2018/01/16 19:59:28","新北市新店區復興路27號","121.539053333333","24.9866433333333","6500600","新店區"
"231043","899-TW","2018/01/16 19:59:22","新北市新店區中正路263-2號","121.538453333333","24.9738216666667","6500600","新店區"
"241028","022-UY","2018/01/16 19:59:24","新北市三重區中正南路30號","121.493636666667","25.0602","6500200","三重區"
"241008","059-VK","2018/01/16 19:59:29","新北市三重區永福街179巷28號","121.478003333333","25.07482","6500200","三重區"
"241009","060-VK","2018/01/16 19:59:27","新北市三重區三和路四段390巷39號","121.48025","25.078565","6500200","三重區"
"241031","061-VK","2018/01/16 19:59:20","新北市三重區重新路四段184巷8號","121.486721666667","25.0551416666667","6500200","三重區"
"241015","062-VK","2018/01/16 19:59:24","新北市三重區三和路二段27號","121.501096666667","25.0670283333333","6500200","三重區"
"241024","065-VK","2018/01/16 19:59:26","新北市三重區力行路二段2號","121.481878333333","25.071935","6500200","三重區"
"241026","066-VK","2018/01/16 19:59:08","新北市三重區仁慈街15號","121.501896666667","25.063075","6500200","三重區"
"241002","090-VK","2018/01/16 19:59:14","新北市三重區仁愛街269巷56號","121.494573333333","25.0796783333333","6500200","三重區"
"241003","091-VK","2018/01/16 19:59:18","新北市三重區五華街122巷21號","121.490953333333","25.0827983333333","6500200","三重區"
"241020","156-TC","2018/01/16 19:59:20","新北市三重區大智街179巷23號","121.490768333333","25.0729333333333","6500200","三重區"
"241005","262-UM","2018/01/16 19:59:13","新北市三重區五華街180巷2號","121.488716666667","25.0860283333333","6500200","三重區"
"241016","266-UM","2018/01/16 19:59:13","新北市三重區正義北路36巷23號","121.496498333333","25.063405","6500200","三重區"
"241022","267-UM","2018/01/16 19:59:10","新北市三重區過圳街31巷2號","121.48899","25.0605316666667","6500200","三重區"
"241018","268-UM","2018/01/16 19:59:21","新北市三重區雙園街84號","121.49539","25.0676633333333","6500200","三重區"
"241013","270-UM","2018/01/16 19:59:17","新北市三重區三和路三段125巷33號","121.493935","25.073705","6500200","三重區"
"241025","271-UM","2018/01/16 19:59:24","新北市三重區頂崁街210巷11號","121.476515","25.0678283333333","6500200","三重區"
"241007","398-BY","2018/01/16 19:59:23","新北市三重區慈愛街90號","121.488671666667","25.0800083333333","6500200","三重區"
"241035","462-BY","2018/01/16 19:59:13","新北市三重區大榮街9號","121.49827","25.06309","6500200","三重區"
"241004","475-VK","2018/01/16 19:59:18","新北市三重區五華街70號","121.493515","25.0819433333333","6500200","三重區"
"241019","478-VK","2018/01/16 19:59:22","新北市三重區重陽路四段12號","121.49083","25.0689716666667","6500200","三重區"
"241030","480-VK","2018/01/16 19:59:27","新北市三重區重新路四段244巷6號","121.486166666667","25.053555","6500200","三重區"
"241014","543-UM","2018/01/16 19:59:27","新北市三重區三和路二段117號","121.499128333333","25.06884","6500200","三重區"
"241023","545-UM","2018/01/16 19:59:29","新北市三重區頂崁街172號","121.47756","25.0659516666667","6500200","三重區"
"241001","547-UM","2018/01/16 19:59:07","新北市三重區福隆路12號","121.490318333333","25.0774866666667","6500200","三重區"
"241033","557-UM","2018/01/16 19:59:23","新北市三重區中興北街123-1號","121.469675","25.0490233333333","6500200","三重區"
"241006","AAD-863","2018/01/16 19:59:16","新北市三重區永福街269號","121.481906666667","25.07403","6500200","三重區"
"241017","887-TS","2018/01/16 19:59:25","新北市三重區重陽路三段154號","121.489676666667","25.06755","6500200","三重區"
"241012","941-UM","2018/01/16 19:59:22","新北市三重區仁義街29-1號","121.499856666667","25.0764566666667","6500200","三重區"
"241029","942-UM","2018/01/16 19:59:12","新北市三重區重安街1號","121.48997","25.0583166666667","6500200","三重區"
"235066","003-UY","2018/01/16 19:59:14","新北市中和區中山路二段65號","121.504038333333","25.0046183333333","6500300","中和區"
"235046","031-BX","2018/01/16 19:59:24","新北市中和區興南路一段93巷24號","121.510313333333","24.9868066666667","6500300","中和區"
"235056","096-UM","2018/01/16 19:59:27","新北市中和區中山路三段170巷8弄24號","121.473061666667","25.007645","6500300","中和區"
"235039","097-UM","2018/01/16 19:59:19","新北市中和區大勇街27巷31號","121.516083333333","24.9938416666667","6500300","中和區"
"235065","098-UM","2018/01/16 19:59:14","新北市中和區福美路252號","121.498366666667","25.0051733333333","6500300","中和區"
"235040","150-BY","2018/01/16 19:59:19","新北市中和區景安路79巷25號","121.507093333333","24.9966483333333","6500300","中和區"
"235058","151-BY","2018/01/16 19:59:10","新北市中和區員山路150巷5-2號","121.481715","24.9983366666667","6500300","中和區"
"235055","183-VK","2018/01/16 19:59:24","新北市中和區民生街23巷2弄2號","121.470845","25.00534","6500300","中和區"
"235049","186-VK","2018/01/16 19:59:06","新北市中和區中興街37號","121.500816666667","24.9943566666667","6500300","中和區"
"235067","255-BX","2018/01/16 19:59:17","新北市中和區新生街220巷35號","121.48231","24.998315","6500300","中和區"
"235044","293-VK","2018/01/16 19:59:24","新北市中和區中正路67號","121.50123","24.9934783333333","6500300","中和區"
"235043","352-BY","2018/01/16 19:59:18","新北市中和區興南路二段159巷7號","121.505386666667","24.9830816666667","6500300","中和區"
"235068","377-QA","2018/01/16 19:58:42","新北市中和區福美路301巷10號","121.497326666667","25.00437","6500300","中和區"
"235061","378-QA","2018/01/16 19:59:12","新北市中和區新生街166巷20號","121.482685","25.000265","6500300","中和區"
"235050","4979-A6","2018/01/16 19:59:21","新北市中和區景平路155巷24號","121.513491666667","24.9916033333333","6500300","中和區"
"235069","4980-A6","2018/01/16 19:59:18","新北市中和區景新街34巷2弄7號","121.502886666667","24.9990766666667","6500300","中和區"
"235042","551-UM","2018/01/16 19:59:28","新北市中和區宜安路96號","121.510628333333","24.9977283333333","6500300","中和區"
"235070","558-UM","2018/01/16 19:34:24","新北市中和區南山路52巷14號","121.50146","24.9974466666667","6500300","中和區"
"235054","640-BX","2018/01/16 19:59:25","新北市中和區莒光路130號","121.472525","25.00158","6500300","中和區"
"235060","647-TV","2018/01/16 19:59:12","新北市中和區新生街38號","121.48325","25.0035516666667","6500300","中和區"
"235057","801-TS","2018/01/16 19:59:23","新北市中和區民樂路54號","121.483273333333","25.00122","6500300","中和區"
"235052","805-TS","2018/01/16 19:59:24","新北市中和區華新街192巷20號","121.506458333333","24.9830733333333","6500300","中和區"
"235048","896-TW","2018/01/16 19:59:16","新北市中和區興南路一段20-1號","121.511195","24.9910683333333","6500300","中和區"
"235053","900-TW","2018/01/16 19:59:12","新北市中和區華安街99號","121.468168333333","24.9963033333333","6500300","中和區"
"235051","157-BY","2018/01/16 19:59:27","新北市中和區復興路337號","121.500071666667","24.9902733333333","6500300","中和區"
"235037","AAC-213","2018/01/16 19:59:19","新北市中和區自立路147號","121.522585","24.9930383333333","6500300","中和區"
"235059","AAC-215","2018/01/16 19:59:22","新北市中和區錦和路408號","121.491248333333","24.9896083333333","6500300","中和區"
"220065","072-UY","2018/01/16 19:59:14","新北市板橋區民族路69巷5號","121.465498333333","25.0092333333333","6500100","板橋區"
"220106","075-UY","2018/01/16 19:59:19","新北市板橋區民治街52巷11號","121.478926666667","25.0328033333333","6500100","板橋區"
"220069","AAD-861","2018/01/16 19:59:23","新北市板橋區大明街22號","121.458591666667","25.0026183333333","6500100","板橋區"
"247020","500-BY","2018/01/16 19:59:21","新北市蘆洲區民義街66號","121.47287","25.0897216666667","6501400","蘆洲區"
"247008","341-TH","2018/01/16 19:59:15","新北市蘆洲區信義路121號","121.47866","25.0801166666667","6501400","蘆洲區"
"247010","339-TH","2018/01/16 19:59:16","新北市三重區集賢路188號","121.483975","25.088045","6501400","蘆洲區"
"247004","336-TH","2018/01/16 19:59:23","新北市蘆洲區永康街55號","121.456698333333","25.0852366666667","6501400","蘆洲區"
"247016","057-VK","2018/01/16 19:59:17","新北市蘆洲區光華路1號","121.46998","25.0834616666667","6501400","蘆洲區"
"247006","056-VK","2018/01/16 19:59:14","新北市蘆洲區九芎街88號","121.465895","25.07983","6501400","蘆洲區"
"247002","053-VK","2018/01/16 19:59:21","新北市蘆洲區長安街280-3號","121.457636666667","25.0872866666667","6501400","蘆洲區"
"247014","007-UY","2018/01/16 19:59:24","新北市蘆洲區成功路108號","121.472431666667","25.08228","6501400","蘆洲區"
"247024","002-UY","2018/01/16 19:59:17","新北市蘆洲區光榮路120巷23號","121.465841666667","25.0881933333333","6501400","蘆洲區"
"226004","312-R5","2018/01/16 19:59:11","新北市平溪區十分里十分街145-1號","121.777171666667","25.043805","6502400","平溪區"
"235041","251-BX","2018/01/16 19:59:18","新北市中和區中安街128號","121.511108333333","25.000325","6500300","中和區"
"228003","097-TW","2018/01/16 19:59:14","新北市貢寮區仁理村仁和路76號","121.922705","25.0501633333333","6502600","貢寮區"
"224006","676-BX","2018/01/16 19:59:29","新北市平溪區新寮里五分寮10-2號","121.800296666667","25.0761516666667","6501200","瑞芳區"
"227003","400-TW","2018/01/16 19:59:19","新北市雙溪區雙溪里長安街16號","121.865006666667","25.0346766666667","6502500","雙溪區"
"222001","KEA-2212","2018/01/16 19:59:21","新北市深坑區北深路三段166號","121.602325","25.00347","6501800","深坑區"
"208002","742-BX","2018/01/16 19:59:23","新北市金山區中正路147號","121.631978333333","25.2211666666667","6502700","金山區"
"208003","665-BX","2018/01/16 19:59:22","新北市金山區香園14號","121.63393","25.25417","6502700","金山區"
"208001","761-BX","2018/01/16 19:59:11","新北市金山區南勢41-1號","121.629106666667","25.2198666666667","6502700","金山區"
"251009","008-UM","2018/01/16 19:59:15","新北市淡水區英專路28巷3號","121.445921666667","25.1699683333333","6501000","淡水區"
"251004","009-UM","2018/01/16 19:59:25","新北市淡水區民權路177巷7號","121.460871666667","25.1355433333333","6501000","淡水區"
"251005","010-UM","2018/01/16 19:59:16","新北市淡水區學府路136巷37號","121.451821666667","25.1727683333333","6501000","淡水區"
"251013","179-VK","2018/01/16 19:59:30","新北市淡水區奎柔山路63號","121.451686666667","25.2061733333333","6501000","淡水區"
"251014","180-VK","2018/01/16 19:59:20","新北市淡水區石頭厝13-3號","121.462901666667","25.23658","6501000","淡水區"
"251008","181-VK","2018/01/16 19:59:19","新北市淡水區淡海路63巷2號","121.422813333333","25.1809016666667","6501000","淡水區"
"251015","182-VK","2018/01/16 19:59:23","新北市淡水區埤島76-1號","121.451861666667","25.1931866666667","6501000","淡水區"
"251010","413-VK","2018/01/16 19:59:14","新北市淡水區崁頂92號","121.429565","25.202635","6501000","淡水區"
"251012","441-VK","2018/01/16 19:59:20","新北市淡水區下圭柔山70-7號","121.447691666667","25.205295","6501000","淡水區"
"251016","442-VK","2018/01/16 19:59:24","新北市淡水區番子田16-13號","121.45374","25.2316183333333","6501000","淡水區"
"251001","559-UM","2018/01/16 19:59:24","新北市淡水區淡金路二段30號","121.452398333333","25.18118","6501000","淡水區"
"251006","561-UM","2018/01/16 19:59:21","新北市淡水區北新路6號","121.444436666667","25.1774","6501000","淡水區"
"251007","577-R6","2018/01/16 19:59:22","新北市淡水區淡金路二段270-1號","121.446976666667","25.188675","6501000","淡水區"
"251011","650-BX","2018/01/16 19:59:22","新北市淡水區崁頂55-3號","121.442258333333","25.1966616666667","6501000","淡水區"
"251002","672-BX","2018/01/16 19:59:23","新北市淡水區沙崙路129號","121.422538333333","25.1823783333333","6501000","淡水區"
"207003","550-UM","2018/01/16 19:59:13","新北市萬里區磺潭里公館崙5號","121.641888333333","25.2142483333333","6502800","萬里區"
"207004","291-VK","2018/01/16 19:59:17","新北市萬里區北基里忠二街35號","121.68565","25.17574","6502800","萬里區"
"252002","178-VK","2018/01/16 19:59:10","新北市三芝區忠孝街116-3號","121.505648333333","25.2574966666667","6502100","三芝區"
"252001","292-VK","2018/01/16 19:59:19","新北市三芝區公正街9號","121.499655","25.25761","6502100","三芝區"
"237004","078-UY","2018/01/16 19:59:22","新北市三峽區嘉添179號","121.369463333333","24.9115233333333","6500900","三峽區"
"237007","153-BY","2018/01/16 19:59:24","新北市三峽區二鬮路136巷24弄19號","121.356141666667","24.9104316666667","6500900","三峽區"
"237009","210-TH","2018/01/16 19:59:19","新北市三峽區民族街26號","121.369236666667","24.93096","6500900","三峽區"
"237012","275-BY","2018/01/16 19:59:23","新北市三峽區中華路76-2號","121.371498333333","24.9289816666667","6500900","三峽區"
"237008","302-VK","2018/01/16 19:59:25","新北市三峽區中華路61號","121.372291666667","24.93048","6500900","三峽區"
"237014","433-BY","2018/01/16 19:59:11","新北市三峽區中正路一段204號","121.372433333333","24.927965","6500900","三峽區"
"237006","5529-G3","2018/01/16 19:59:15","新北市三峽區中正路一段524號","121.36948","24.9201433333333","6500900","三峽區"
"237016","649-BX","2018/01/16 19:55:31","新北市三峽區溪東路215號","121.406098333333","24.9329066666667","6500900","三峽區"
"237005","AKY-6261","2018/01/16 19:59:25","新北市三峽區民生街1巷26-1號","121.379365","24.9340783333333","6500900","三峽區"
"236070","105-UM","2018/01/16 19:59:14","新北市土城區忠義路77號","121.442988333333","24.9651133333333","6501300","土城區"
"236043","107-UM","2018/01/16 19:59:24","新北市土城區學府路一段105號","121.455986666667","24.98771","6501300","土城區"
"236031","253-BX","2018/01/16 19:59:18","新北市土城區中央路一段250巷1號","121.444196666667","24.9846433333333","6501300","土城區"
"236027","269-VK","2018/01/16 19:59:19","新北市土城區中央路一段325號","121.443755","24.982945","6501300","土城區"
"236015","270-VK","2018/01/16 19:59:22","新北市土城區廣福街123號","121.456273333333","24.9928966666667","6501300","土城區"
"236038","271-VK","2018/01/16 19:59:21","新北市土城區國際路54號","121.466548333333","24.9776666666667","6501300","土城區"
"236023","401-BY","2018/01/16 19:59:25","新北市土城區延吉街137巷13號","121.47097","24.9857466666667","6501300","土城區"
"236063","752-BX","2018/01/16 19:59:29","新北市土城區金城路三段73巷4弄34號","121.466213333333","24.9884033333333","6501300","土城區"
"236059","912-UM","2018/01/16 19:59:21","新北市土城區中央路一段120號","121.446521666667","24.9879383333333","6501300","土城區"
"236049","913-UM","2018/01/16 19:59:09","新北市土城區金城路三段170號","121.467541666667","24.9874533333333","6501300","土城區"
"236055","AAC-216","2018/01/16 19:59:22","新北市土城區立德路25號","121.461993333333","24.9880366666667","6501300","土城區"
"242032","AAC-296","2018/01/16 19:59:26","新北市新莊區公園一路14號","121.443603333333","25.0349033333333","6500500","新莊區"
"242029","986-R7","2018/01/16 19:59:27","新北市新莊區中平路298號","121.44482","25.05172","6500500","新莊區"
"242051","751-BX","2018/01/16 19:59:27","新北市新莊區西盛街137號","121.428321666667","25.0185766666667","6500500","新莊區"
"242025","615-BX","2018/01/16 19:59:22","新北市新莊區五工一路92號","121.460801666667","25.0676183333333","6500500","新莊區"
"242023","613-BX","2018/01/16 19:59:17","新北市新莊區化成路179號","121.465816666667","25.049805","6500500","新莊區"
"242027","612-BX","2018/01/16 19:59:28","新北市新莊區立信三街73號","121.444098333333","25.051045","6500500","新莊區"
"242039","566-BX","2018/01/16 19:59:19","新北市新莊區民安路299巷6號","121.429461666667","25.0227783333333","6500500","新莊區"
"242044","442-UM","2018/01/16 19:59:28","新北市新莊區中正路746巷45-1號","121.411341666667","25.025355","6500500","新莊區"
"242048","441-UM","2018/01/16 19:59:12","新北市新莊區四維路6號","121.42394","25.0253366666667","6500500","新莊區"
"242054","440-UM","2018/01/16 19:59:22","新北市新莊區西盛街418號","121.427208333333","25.0122333333333","6500500","新莊區"
"242034","415-TV","2018/01/16 19:59:28","新北市新莊區建中街94號","121.446718333333","25.036555","6500500","新莊區"
"242005","413-TV","2018/01/16 19:59:31","新北市新莊區化成路364巷26號","121.467036666667","25.0492966666667","6500500","新莊區"
"242042","400-BY","2018/01/16 19:59:24","新北市新莊區青山路一段89號","121.405198333333","25.0288583333333","6500500","新莊區"
"242061","362-BY","2018/01/16 19:59:22","新北市新莊區瓊林路70號","121.445181666667","25.0286783333333","6500500","新莊區"
"242058","353-BY","2018/01/16 19:59:24","新北市新莊區八德街139號","121.423793333333","25.0199616666667","6500500","新莊區"
"242007","132-UY","2018/01/16 19:59:26","新北市新莊區榮華路一段2號","121.457915","25.0558016666667","6500500","新莊區"
"242037","133-UY","2018/01/16 19:59:27","新北市新莊區建安街39號","121.428976666667","25.0255133333333","6500500","新莊區"
"242021","135-UY","2018/01/16 19:59:14","新北市新莊區建中街16巷29號","121.448916666667","25.03863","6500500","新莊區"
"242009","173-VK","2018/01/16 19:59:15","新北市新莊區中和街145號","121.447363333333","25.04911","6500500","新莊區"
"242015","175-VK","2018/01/16 19:59:17","新北市新莊區復興路一段33巷12號","121.446238333333","25.04247","6500500","新莊區"
"242002","176-VK","2018/01/16 19:59:21","新北市新莊區新泰路83號","121.449245","25.0346716666667","6500500","新莊區"
"242013","346-TH","2018/01/16 19:59:21","新北市新莊區幸福路670巷2弄1號","121.451133333333","25.0495066666667","6500500","新莊區"
"242019","348-TH","2018/01/16 19:59:27","新北市新莊區民樂街65巷10號","121.4574","25.0418","6500500","新莊區"
"242056","349-TH","2018/01/16 19:59:12","新北市新莊區中正路347巷15號","121.447301666667","25.0343733333333","6500500","新莊區"
"242017","350-TH","2018/01/16 19:59:24","新北市新莊區中港路360號","121.452001666667","25.0469066666667","6500500","新莊區"
"242011","351-TH","2018/01/16 19:59:28","新北市新莊區中港路531巷116號","121.449885","25.0517466666667","6500500","新莊區"
"238015","755-BX","2018/01/16 19:59:26","新北市樹林區中山路三段214號","121.380126666667","24.9678866666667","6500700","樹林區"
"238021","KEA-2217","2018/01/16 19:59:07","新北市樹林區佳園路三段101巷38弄2號","121.391171666667","24.9506783333333","6500700","樹林區"
"238020","268-VK","2018/01/16 19:59:18","新北市樹林區中山路三段210-2號","121.380985","24.9659983333333","6500700","樹林區"
"239002","359-BY","2018/01/16 19:59:15","新北市鶯歌區二甲路12-2號","121.34594","24.935015","6500800","鶯歌區"
"221036","130-UY","2018/01/16 19:59:20","新北市汐止區忠孝東路258巷11弄14號","121.663911666667","25.06728","6501100","汐止區"
"221010","269-BY","2018/01/16 19:59:20","新北市汐止區連峰街225巷19號","121.644195","25.0809416666667","6501100","汐止區"
"221012","278-VK","2018/01/16 19:59:26","新北市汐止區大同路三段290號","121.67804","25.071215","6501100","汐止區"
"221023","279-VK","2018/01/16 19:59:13","新北市汐止區明峰街201-1號","121.627203333333","25.0687983333333","6501100","汐止區"
"221032","280-BY","2018/01/16 19:59:09","新北市汐止區橫科路18巷12號","121.6177","25.050485","6501100","汐止區"
"221027","281-BY","2018/01/16 19:59:09","新北市汐止區中正路58號","121.661853333333","25.0701","6501100","汐止區"
"221029","298-VK","2018/01/16 19:59:09","新北市汐止區樟樹一路137巷24號","121.641073333333","25.0659666666667","6501100","汐止區"
"221021","299-VK","2018/01/16 19:58:53","新北市汐止區水源路一段131號","121.656275","25.062545","6501100","汐止區"
"221008","358-BY","2018/01/16 19:59:21","新北市汐止區忠一街9巷7號","121.620485","25.0731983333333","6501100","汐止區"
"221015","567-BX","2018/01/16 19:59:11","新北市汐止區橋東街16號","121.66631","25.0759616666667","6501100","汐止區"
"221035","622-UM","2018/01/16 19:59:16","新北市汐止區長江街57巷12號","121.656175","25.07197","6501100","汐止區"
"221025","623-UM","2018/01/16 19:59:19","新北市汐止區秀峰路122號","121.660056666667","25.0633183333333","6501100","汐止區"
"221038","646-BX","2018/01/16 19:59:11","新北市汐止區忠孝東路462巷26號","121.666516666667","25.0737733333333","6501100","汐止區"
"221033","647-BX","2018/01/16 19:59:13","新北市汐止區東勢街201巷104號","121.633461666667","25.0429566666667","6501100","汐止區"
"221018","753-BX","2018/01/16 19:59:19","新北市汐止區忠孝東路363號","121.665625","25.0707716666667","6501100","汐止區"
"220079","145-BY","2018/01/16 19:59:23","新北市板橋區中正路135巷14-2號","121.45547","25.0155083333333","6500100","板橋區"
"220080","200-UY","2018/01/16 19:59:27","新北市板橋區大觀路二段153巷3號","121.445906666667","25.000635","6500100","板橋區"
"220082","610-BX","2018/01/16 19:59:14","新北市板橋區篤行路二段131巷33-4號","121.432121666667","24.9902016666667","6500100","板橋區"
"220101","245-BX","2018/01/16 19:59:27","新北市板橋區縣民大道三段33巷6弄2號","121.47401","25.021135","6500100","板橋區"
"220055","256-TC","2018/01/16 19:59:11","新北市板橋區仁愛路62巷17弄1號","121.46001","24.9982783333333","6500100","板橋區"
"220096","257-TC","2018/01/16 19:59:30","新北市板橋區文化路一段370號","121.469898333333","25.0234483333333","6500100","板橋區"
"220072","277-BY","2018/01/16 19:59:21","新北市板橋區金門街159號","121.432873333333","24.9904383333333","6500100","板橋區"
"220071","283-VK","2018/01/16 19:59:22","新北市板橋區五權街1-9號","121.463628333333","24.9952183333333","6500100","板橋區"
"220094","285-UM","2018/01/16 19:59:19","新北市板橋區文德路11號","121.462703333333","25.0243433333333","6500100","板橋區"
"220053","285-VK","2018/01/16 19:59:26","新北市板橋區永豐街51號","121.474145","25.01784","6500100","板橋區"
"220083","286-VK","2018/01/16 19:59:30","新北市板橋區僑中二街10巷28號","121.445851666667","25.0111416666667","6500100","板橋區"
"220081","287-VK","2018/01/16 19:59:20","新北市板橋區僑中一街80巷12弄1號","121.448076666667","25.013195","6500100","板橋區"
"220090","288-VK","2018/01/16 19:59:22","新北市板橋區幸福路32巷2弄24號","121.461066666667","25.0217116666667","6500100","板橋區"
"220061","293-UM","2018/01/16 19:59:12","新北市板橋區觀光街5號","121.471851666667","25.01585","6500100","板橋區"
"220062","295-UM","2018/01/16 19:59:24","新北市板橋區民生路二段64號","121.472","25.0179383333333","6500100","板橋區"
"220084","296-UM","2018/01/16 19:59:15","新北市板橋區溪崑二街112巷2號","121.426408333333","24.9888516666667","6500100","板橋區"
"220075","303-R5","2018/01/16 19:59:26","新北市板橋區金華街10巷125號","121.45974","25.0206216666667","6500100","板橋區"
"220092","307-R5","2018/01/16 19:59:21","新北市板橋區幸福路60巷73號","121.459845","25.0217883333333","6500100","板橋區"
"220098","317-R6","2018/01/16 19:59:18","新北市板橋區漢生西路165巷38號","121.462133333333","25.0234866666667","6500100","板橋區"
"220064","486-VK","2018/01/16 19:59:19","新北市板橋區實踐路91號","121.464056666667","25.0053866666667","6500100","板橋區"
"220089","487-VK","2018/01/16 19:59:31","新北市板橋區龍泉街55巷36號","121.457878333333","25.0249033333333","6500100","板橋區"
"220088","491-VK","2018/01/16 19:59:29","新北市板橋區懷德街183號","121.479535","25.0298683333333","6500100","板橋區"
"220035","560-BX","2018/01/16 19:59:27","新北市板橋區新生街53巷16號","121.457618333333","25.0215016666667","6500100","板橋區"
"220103","561-BX","2018/01/16 19:59:31","新北市板橋區陽明街29-1號","121.465456666667","25.0219316666667","6500100","板橋區"
"220091","637-BX","2018/01/16 19:59:20","新北市板橋區文聖街89巷26號","121.478231666667","25.03027","6500100","板橋區"
"220057","686-BX","2018/01/16 19:59:11","新北市板橋區四川路一段338號","121.456713333333","24.9967133333333","6500100","板橋區"
"220093","689-BX","2018/01/16 19:59:30","新北市板橋區長江路三段118號","121.475141666667","25.034355","6500100","板橋區"
"220054","741-BX","2018/01/16 19:58:59","新北市板橋區忠孝路201巷93號","121.464638333333","25.004885","6500100","板橋區"
"220067","829-TW","2018/01/16 19:59:16","新北市板橋區長安街331巷93弄3號","121.472226666667","25.0125","6500100","板橋區"
"220102","830-TW","2018/01/16 19:59:20","新北市板橋區文聖街20號","121.475785","25.0318333333333","6500100","板橋區"
"220074","895-R6","2018/01/16 19:59:21","新北市板橋區縣民大道一段297號","121.460951666667","25.0108033333333","6500100","板橋區"
"220073","985-R7","2018/01/16 19:59:29","新北市板橋區南雅西路二段143號","121.452243333333","25.0117216666667","6500100","板橋區"
"220097","AAC-210","2018/01/16 19:59:27","新北市板橋區光正街24號","121.462408333333","25.0172416666667","6500100","板橋區"
"220070","AAC-253","2018/01/16 19:59:09","新北市板橋區成都街7號","121.46028","25.0047766666667","6500100","板橋區"
