"lineid","car","time","location","longitude","latitude","cityid","cityname"
"234046","148-BY","2018/01/16 20:09:13","新北市永和區得和路315號","121.523213333333","24.9996433333333","6500400","永和區"
"234042","149-BY","2018/01/16 20:09:02","新北市永和區雙和街64巷17號","121.509588333333","25.00346","6500400","永和區"
"234007","207-UY","2018/01/16 20:09:19","新北市永和區保生路40巷2號","121.505926666667","25.0080866666667","6500400","永和區"
"234081","298-R6","2018/01/16 20:09:15","新北市永和區永亨路107號","121.523196666667","25.0049","6500400","永和區"
"234038","336-UY","2018/01/16 20:09:29","新北市永和區成功路一段47巷3號","121.527396666667","25.0041283333333","6500400","永和區"
"234064","337-UY","2018/01/16 20:09:19","新北市永和區秀朗路二段51號","121.521821666667","25.0023216666667","6500400","永和區"
"234086","338-UY","2018/01/16 20:09:12","新北市永和區福和路285號","121.51738","25.00734","6500400","永和區"
"234054","553-UM","2018/01/16 20:09:17","新北市永和區博愛街21巷1號","121.517638333333","25.0158716666667","6500400","永和區"
"234017","745-BX","2018/01/16 20:09:21","新北市永和區文化路70號","121.514253333333","25.0152016666667","6500400","永和區"
"234030","746-BX","2018/01/16 20:09:20","新北市永和區民權路49巷28號","121.521578333333","24.9974583333333","6500400","永和區"
"234013","KEA-2591","2018/01/16 20:09:14","新北市永和區永貞路387號","121.508051666667","25.0087","6500400","永和區"
"234061","AAD-866","2018/01/16 20:09:15","新北市永和區中正路151巷5弄2-1號","121.515691666667","24.9986516666667","6500400","永和區"
"234070","847-RS","2018/01/16 20:09:30","新北市永和區福和路175號","121.51993","25.007425","6500400","永和區"
"234050","863-TW","2018/01/16 20:09:21","新北市永和區新生路245號","121.505946666667","25.013535","6500400","永和區"
"234011","9373-KE","2018/01/16 20:09:25","新北市永和區仁愛路352巷132弄3號","121.50013","25.0088983333333","6500400","永和區"
"249005","172-UM","2018/01/16 20:09:08","新北市八里區下罟子44號","121.384466666667","25.1364616666667","6502300","八里區"
"249001","173-UM","2018/01/16 20:09:20","新北市八里區中華路二段328號","121.40321","25.1478466666667","6502300","八里區"
"249004","303-UY","2018/01/16 20:02:45","新北市八里區中山路一段217巷38號","121.411168333333","25.156255","6502300","八里區"
"249002","305-UY","2018/01/16 20:09:12","新北市八里區龍米路一段92號","121.45435","25.12379","6502300","八里區"
"249003","593-UM","2018/01/16 20:09:24","新北市八里區中山路二段540巷13號","121.39665","25.1472616666667","6502300","八里區"
"248014","025-BX","2018/01/16 20:09:12","新北市五股區成泰路二段147巷12號","121.438923333333","25.0862266666667","6501500","五股區"
"248016","026-BX","2018/01/16 20:09:13","新北市五股區凌雲路一段158巷50弄19號","121.447793333333","25.1043983333333","6501500","五股區"
"248008","095-VK","2018/01/16 20:09:24","新北市五股區中興路一段1巷11號","121.469455","25.0714583333333","6501500","五股區"
"248020","225-UY","2018/01/16 20:09:23","新北市五股區凌雲路二段42號","121.439613333333","25.102795","6501500","五股區"
"248012","247-BX","2018/01/16 20:09:13","新北市五股區民義路一段212號","121.43046","25.0895216666667","6501500","五股區"
"248010","272-BY","2018/01/16 20:09:22","新北市五股區成泰路一段7巷4號","121.43337","25.0667083333333","6501500","五股區"
"248004","677-BX","2018/01/16 20:09:25","新北市五股區成泰路一段138號","121.43508","25.0755883333333","6501500","五股區"
"248002","678-BX","2018/01/16 20:09:14","新北市五股區成泰路三段369-2號","121.448983333333","25.0958833333333","6501500","五股區"
"234023","9380-KE","2018/01/16 20:09:22","新北市永和區中正路660-1號","121.51695","25.0087033333333","6500400","永和區"
"234077","969-R7","2018/01/16 20:09:11","新北市永和區智光街107巷15號","121.515833333333","24.995905","6500400","永和區"
"234074","AAC-211","2018/01/16 20:09:25","新北市永和區豫溪街150巷2號","121.521821666667","25.0104066666667","6500400","永和區"
"234067","AAC-212","2018/01/16 20:09:25","新北市永和區保平路214巷10弄1號","121.50924","25.00668","6500400","永和區"
"234003","AAC-295","2018/01/16 20:09:19","新北市永和區中正路620號","121.516973333333","25.00789","6500400","永和區"
"244011","656-BX","2018/01/16 20:09:23","新北市林口區粉寮69號","121.40505","25.09085","6501700","林口區"
"243012","AAD-798","2018/01/16 20:08:52","新北市泰山區楓江路86巷7號","121.437301666667","25.0628133333333","6501600","泰山區"
"243011","297-R6","2018/01/16 20:09:28","新北市泰山區明志路三段531巷2號","121.421355","25.0297016666667","6501600","泰山區"
"243015","380-SR","2018/01/16 20:09:27","新北市泰山區明志路一段361號","121.430961666667","25.0581833333333","6501600","泰山區"
"243014","421-VK","2018/01/16 20:09:11","新北市泰山區明志路一段24號","121.433578333333","25.0655516666667","6501600","泰山區"
"243010","KEA-2215","2018/01/16 20:09:14","新北市泰山區明志路二段136巷11號","121.42661","25.0515216666667","6501600","泰山區"
"243009","KEA-2216","2018/01/16 20:09:16","新北市泰山區泰林路二段116巷1弄3號","121.434793333333","25.0594666666667","6501600","泰山區"
"243013","646-TV","2018/01/16 20:09:23","新北市泰山區民國街31號","121.425825","25.0437966666667","6501600","泰山區"
"243016","680-BX","2018/01/16 20:09:24","新北市泰山區貴陽街4號","121.421583333333","25.0332866666667","6501600","泰山區"
"222003","436-BY","2018/01/16 20:09:19","新北市深坑區埔新街64號","121.620033333333","25.002565","6501800","深坑區"
"222002","659-BX","2018/01/16 20:09:27","新北市深坑區北深路三段158巷32弄1號","121.601625","25.0044766666667","6501800","深坑區"
"231041","002-UM","2018/01/16 20:09:11","新北市新店區中正路468號","121.533978333333","24.9794983333333","6500600","新店區"
"231066","0293-UT","2018/01/16 20:09:23","新北市新店區柴埕路52巷1-1號","121.511248333333","24.9642783333333","6500600","新店區"
"231059","046-UY","2018/01/16 20:09:19","新北市新店區安德街60巷17-1號","121.510756666667","24.9627666666667","6500600","新店區"
"231061","047-UY","2018/01/16 20:09:18","新北市新店區安興路33-1號","121.51583","24.9704283333333","6500600","新店區"
"231060","106-UY","2018/01/16 20:09:24","新北市新店區安康路三段337號","121.485446666667","24.95149","6500600","新店區"
"231051","107-UY","2018/01/16 20:09:20","新北市新店區中央一街14號","121.528628333333","24.9728516666667","6500600","新店區"
"231048","108-UY","2018/01/16 20:09:27","新北市新店區寶橋路65號","121.545266666667","24.9751066666667","6500600","新店區"
"231053","187-VK","2018/01/16 20:09:18","新北市新店區新烏路三段227-1號","121.54717","24.8965716666667","6500600","新店區"
"231050","KEA-2219","2018/01/16 20:09:30","新北市新店區北新路一段96巷23號","121.542873333333","24.968675","6500600","新店區"
"231057","256-BX","2018/01/16 20:09:13","新北市新店區花園一路一段2號","121.553173333333","24.9324883333333","6500600","新店區"
"231054","AAD-862","2018/01/16 20:09:19","新北市新店區檳榔路2-1號","121.540941666667","24.9648933333333","6500600","新店區"
"231058","3712-VJ","2018/01/16 20:09:10","新北市新店區柴埕路59號","121.51398","24.9650583333333","6500600","新店區"
"231056","3713-VJ","2018/01/16 20:09:17","新北市新店區民權路24號","121.541021666667","24.9829433333333","6500600","新店區"
"231055","4716-K9","2018/01/16 20:09:15","新北市新店區中華路48巷19號","121.540523333333","24.9690183333333","6500600","新店區"
"231067","4772-VM","2018/01/16 20:09:21","新北市新店區溪洲路65號","121.533343333333","24.9610016666667","6500600","新店區"
"231065","512-UM","2018/01/16 20:09:13","新北市新店區安祥路106巷345號","121.472881666667","24.9595566666667","6500600","新店區"
"231064","515-UM","2018/01/16 20:09:21","新北市新店區安德街6號","121.51216","24.9628883333333","6500600","新店區"
"231045","617-UM","2018/01/16 20:09:12","新北市新店區北宜路一段121-2號","121.540395","24.9537716666667","6500600","新店區"
"231040","619-UM","2018/01/16 20:09:10","新北市新店區中正路106號","121.543131666667","24.9705566666667","6500600","新店區"
"231042","641-BX","2018/01/16 20:09:20","新北市新店區中興路二段228號","121.547993333333","24.975285","6500600","新店區"
"231063","645-TV","2018/01/16 20:09:22","新北市新店區黎明路54巷2號","121.50234","24.948375","6500600","新店區"
"231068","718-UY","2018/01/16 20:09:23","新北市新店區中興路二段186-1號","121.547958333333","24.9724233333333","6500600","新店區"
"231049","719-UM","2018/01/16 20:09:14","新北市新店區北新路二段97巷12號","121.542078333333","24.9743516666667","6500600","新店區"
"231062","720-UM","2018/01/16 20:09:17","新北市新店區安康路一段231號","121.525413333333","24.9631933333333","6500600","新店區"
"231044","897-TW","2018/01/16 20:09:29","新北市新店區寶元路一段15巷11號","121.54202","24.9871066666667","6500600","新店區"
"231043","899-TW","2018/01/16 20:09:22","新北市新店區民族路186號","121.536831666667","24.97613","6500600","新店區"
"241011","013-R5","2018/01/16 20:09:13","新北市三重區三和路三段47巷11號","121.49597","25.0716583333333","6500200","三重區"
"241028","022-UY","2018/01/16 20:09:24","新北市三重區仁化街137號","121.494681666667","25.0575166666667","6500200","三重區"
"241008","059-VK","2018/01/16 20:09:29","新北市三重區永福街197巷15-1號","121.479005","25.074305","6500200","三重區"
"241009","060-VK","2018/01/16 20:09:27","新北市三重區三和路四段328號","121.483538333333","25.07821","6500200","三重區"
"241031","061-VK","2018/01/16 20:09:20","新北市三重區過圳街9-1號","121.488793333333","25.06009","6500200","三重區"
"241015","062-VK","2018/01/16 20:09:24","新北市三重區福德北路43號","121.502298333333","25.0649016666667","6500200","三重區"
"241024","065-VK","2018/01/16 20:09:26","新北市三重區中正北路165巷2號","121.47869","25.0694433333333","6500200","三重區"
"241026","066-VK","2018/01/16 20:09:28","新北市三重區福德南路69號","121.502123333333","25.06036","6500200","三重區"
"241002","090-VK","2018/01/16 20:09:14","新北市三重區仁忠街31號","121.495878333333","25.0820316666667","6500200","三重區"
"241003","091-VK","2018/01/16 20:09:18","新北市三重區仁愛街476號","121.48961","25.082425","6500200","三重區"
"241020","156-TC","2018/01/16 20:09:23","新北市三重區忠孝路一段87號","121.490085","25.072235","6500200","三重區"
"241005","262-UM","2018/01/16 20:09:12","新北市三重區碧華街294巷3號","121.48947","25.0835166666667","6500200","三重區"
"241016","266-UM","2018/01/16 20:09:13","新北市三重區中正北路25巷4號","121.493178333333","25.062905","6500200","三重區"
"241022","267-UM","2018/01/16 20:09:10","新北市三重區新北大道一段15巷2號","121.487936666667","25.0607633333333","6500200","三重區"
"241018","268-UM","2018/01/16 20:09:24","新北市三重區正義北路195號","121.496175","25.0683433333333","6500200","三重區"
"241013","270-UM","2018/01/16 20:09:17","新北市三重區三和路三段139巷40號","121.494116666667","25.0741766666667","6500200","三重區"
"241025","271-UM","2018/01/16 20:09:24","新北市三重區中正北路342號","121.478303333333","25.0692916666667","6500200","三重區"
"241007","398-BY","2018/01/16 20:09:23","新北市三重區仁美街50號","121.487161666667","25.0778366666667","6500200","三重區"
"241035","462-BY","2018/01/16 20:09:13","新北市三重區平安街4號","121.499015","25.0642","6500200","三重區"
"241004","475-VK","2018/01/16 20:09:18","新北市三重區自強路四段112號","121.491643333333","25.0801666666667","6500200","三重區"
"241019","478-VK","2018/01/16 20:09:22","新北市三重區自強路二段33巷17號","121.490161666667","25.0696583333333","6500200","三重區"
"241030","480-VK","2018/01/16 20:09:26","新北市三重區成功路145巷35號","121.487736666667","25.0532583333333","6500200","三重區"
"241014","543-UM","2018/01/16 20:09:27","新北市三重區長樂街90號","121.501361666667","25.069525","6500200","三重區"
"241023","545-UM","2018/01/16 20:09:29","新北市三重區頂崁街220巷2號","121.476946666667","25.0681683333333","6500200","三重區"
"241001","547-UM","2018/01/16 20:09:27","新北市三重區三和路四段89巷2-1號","121.489053333333","25.0758133333333","6500200","三重區"
"241033","557-UM","2018/01/16 20:09:23","新北市三重區光復路一段61巷31弄2號","121.474846666667","25.049165","6500200","三重區"
"241006","AAD-863","2018/01/16 20:09:16","新北市三重區力行路二段71-1號","121.482388333333","25.0751816666667","6500200","三重區"
"241017","887-TS","2018/01/16 20:09:25","新北市三重區自強路一段298號","121.491425","25.06832","6500200","三重區"
"241012","941-UM","2018/01/16 20:09:22","新北市三重區仁愛街125巷91號","121.498238333333","25.0759816666667","6500200","三重區"
"241029","942-UM","2018/01/16 20:09:12","新北市三重區光明路32巷16號","121.491781666667","25.0586333333333","6500200","三重區"
"235066","003-UY","2018/01/16 20:09:14","新北市中和區水源路127巷2號","121.508083333333","25.0037266666667","6500300","中和區"
"235046","031-BX","2018/01/16 20:09:24","新北市中和區忠孝街31巷12號","121.510206666667","24.9838266666667","6500300","中和區"
"235039","097-UM","2018/01/16 20:09:19","新北市中和區景平路278巷16弄8號","121.514223333333","24.9936366666667","6500300","中和區"
"235065","098-UM","2018/01/16 20:09:14","新北市中和區永和路90巷2弄1號","121.497475","25.0057666666667","6500300","中和區"
"235040","150-BY","2018/01/16 20:09:19","新北市中和區中和路262號","121.508266666667","24.9995316666667","6500300","中和區"
"235068","377-QA","2018/01/16 20:09:22","新北市中和區景平路677巷2弄3號","121.496098333333","25.0028383333333","6500300","中和區"
"235050","4979-A6","2018/01/16 20:09:21","新北市中和區安樂路8-1號","121.511725","24.9918533333333","6500300","中和區"
"235069","4980-A6","2018/01/16 20:09:18","新北市中和區南山路127巷27弄30號","121.503435","24.998095","6500300","中和區"
"235042","551-UM","2018/01/16 20:09:28","新北市新店區安興路65巷16號","121.516096666667","24.9729916666667","6500300","中和區"
"235048","896-TW","2018/01/16 20:09:16","新北市新店區安和路三段144號","121.515986666667","24.9862433333333","6500300","中和區"
"235051","157-BY","2018/01/16 20:09:27","新北市中和區復興路262號","121.503281666667","24.990445","6500300","中和區"
"235037","AAC-213","2018/01/16 20:09:19","新北市中和區立人街17號","121.521455","24.99412","6500300","中和區"
"235059","AAC-215","2018/01/16 20:09:20","新北市中和區圓通路335巷33弄5號","121.493591666667","24.98918","6500300","中和區"
"220106","075-UY","2018/01/16 20:09:19","新北市板橋區文聖街13號","121.475545","25.0323566666667","6500100","板橋區"
"220069","AAD-861","2018/01/16 20:09:20","新北市板橋區貴興路48號","121.457228333333","25.0032383333333","6500100","板橋區"
"247022","893-R6","2018/01/16 20:09:13","新北市蘆洲區三民路120號","121.471211666667","25.087295","6501400","蘆洲區"
"247012","546-UM","2018/01/16 20:09:12","新北市蘆洲區民族路185號","121.478823333333","25.0888183333333","6501400","蘆洲區"
"247020","500-BY","2018/01/16 20:09:21","新北市蘆洲區民義街68巷56號","121.474271666667","25.0893533333333","6501400","蘆洲區"
"247008","341-TH","2018/01/16 20:09:15","新北市蘆洲區中山一路135巷6弄27號","121.474816666667","25.08083","6501400","蘆洲區"
"247010","339-TH","2018/01/16 20:09:16","新北市蘆洲區集賢路393號","121.480358333333","25.0821666666667","6501400","蘆洲區"
"247004","336-TH","2018/01/16 20:09:23","新北市蘆洲區永安南路二段328巷15弄15號","121.4559","25.0835016666667","6501400","蘆洲區"
"247016","057-VK","2018/01/16 20:09:17","新北市蘆洲區光華路174號","121.465066666667","25.082105","6501400","蘆洲區"
"247006","056-VK","2018/01/16 20:09:14","新北市蘆洲區永安南路二段14號","121.467645","25.0767283333333","6501400","蘆洲區"
"247002","053-VK","2018/01/16 20:09:21","新北市蘆洲區永康街2巷31號","121.459028333333","25.0866733333333","6501400","蘆洲區"
"247014","007-UY","2018/01/16 20:09:19","新北市蘆洲區中山二路224號","121.469806666667","25.0797316666667","6501400","蘆洲區"
"247024","002-UY","2018/01/16 20:09:17","新北市蘆洲區光明路110號","121.46358","25.0881183333333","6501400","蘆洲區"
"247018","001-UY","2018/01/16 20:09:19","新北市蘆洲區民族路314巷7號","121.477645","25.0904833333333","6501400","蘆洲區"
"226004","312-R5","2018/01/16 20:09:11","新北市平溪區十分里十分街311號","121.775176666667","25.043445","6502400","平溪區"
"224006","676-BX","2018/01/16 20:09:29","新北市瑞芳區靜安路四段10號","121.797016666667","25.0858733333333","6501200","瑞芳區"
"222001","KEA-2212","2018/01/16 20:09:21","新北市深坑區北深路三段208號","121.601265","25.0037666666667","6501800","深坑區"
"208003","665-BX","2018/01/16 20:09:24","新北市金山區永興里忠義路29號","121.631451666667","25.2615533333333","6502700","金山區"
"251009","008-UM","2018/01/16 20:09:15","新北市淡水區清水街2號","121.445443333333","25.17044","6501000","淡水區"
"251004","009-UM","2018/01/16 20:05:18","新北市淡水區民生路27號","121.461063333333","25.1380833333333","6501000","淡水區"
"251013","179-VK","2018/01/16 20:09:25","新北市淡水區水汴頭9號","121.471141666667","25.2054216666667","6501000","淡水區"
"251014","180-VK","2018/01/16 20:09:19","新北市淡水區石頭厝3號","121.458728333333","25.235565","6501000","淡水區"
"251008","181-VK","2018/01/16 20:09:21","新北市淡水區淡海路72巷30弄5號","121.424616666667","25.1826183333333","6501000","淡水區"
"251015","182-VK","2018/01/16 20:09:23","新北市淡水區埤島5號","121.44648","25.1931983333333","6501000","淡水區"
"251010","413-VK","2018/01/16 20:09:14","新北市淡水區崁頂五路303號","121.424165","25.1976383333333","6501000","淡水區"
"251012","441-VK","2018/01/16 20:09:20","新北市淡水區下圭柔山56-20號","121.44765","25.2044816666667","6501000","淡水區"
"251016","442-VK","2018/01/16 20:09:24","新北市淡水區番子田25-5號","121.456581666667","25.229535","6501000","淡水區"
"251006","561-UM","2018/01/16 20:09:21","新北市淡水區北新路141巷80弄20號","121.44795","25.179855","6501000","淡水區"
"251007","577-R6","2018/01/16 20:06:02","新北市淡水區崁頂78-5號","121.429653333333","25.2066","6501000","淡水區"
"251002","672-BX","2018/01/16 20:09:23","新北市淡水區中正路292號","121.437635","25.1720316666667","6501000","淡水區"
"207003","550-UM","2018/01/16 20:09:13","新北市萬里區大鵬里萬里加投192號","121.642811666667","25.215675","6502800","萬里區"
"207004","291-VK","2018/01/16 20:09:17","新北市萬里區北基里愛三街11號","121.681775","25.1767216666667","6502800","萬里區"
"252002","178-VK","2018/01/16 20:09:10","新北市三芝區三民街23號","121.504128333333","25.2583","6502100","三芝區"
"252001","292-VK","2018/01/16 20:09:19","新北市三芝區公正街9號","121.499701666667","25.2575433333333","6502100","三芝區"
"237007","153-BY","2018/01/16 20:09:24","新北市三峽區二鬮路57號","121.36004","24.9079683333333","6500900","三峽區"
"237012","275-BY","2018/01/16 20:09:23","新北市三峽區中華路95號","121.371588333333","24.9291716666667","6500900","三峽區"
"237006","5529-G3","2018/01/16 20:09:15","新北市三峽區中正路二段299巷3號","121.366405","24.910905","6500900","三峽區"
"237016","649-BX","2018/01/16 20:09:31","新北市三峽區介壽路二段138巷1弄162號","121.402416666667","24.928205","6500900","三峽區"
"237005","AKY-6261","2018/01/16 20:09:25","新北市三峽區三樹路98巷121號","121.382723333333","24.9383233333333","6500900","三峽區"
"236070","105-UM","2018/01/16 20:09:14","新北市土城區中央路三段147巷2弄16號","121.431933333333","24.9648666666667","6501300","土城區"
"236043","107-UM","2018/01/16 20:09:24","新北市土城區學成路24號","121.452935","24.9869633333333","6501300","土城區"
"236031","253-BX","2018/01/16 20:09:18","新北市土城區中央路一段116號","121.446423333333","24.98809","6501300","土城區"
"236027","269-VK","2018/01/16 20:09:22","新北市土城區裕生路83巷24號","121.447656666667","24.9838833333333","6501300","土城區"
"236015","270-VK","2018/01/16 20:09:22","新北市土城區德興街131號","121.454973333333","24.9917583333333","6501300","土城區"
"236038","271-VK","2018/01/16 20:09:21","新北市土城區延吉街296巷1弄2號","121.464406666667","24.9845","6501300","土城區"
"236023","401-BY","2018/01/16 20:09:25","新北市土城區延吉街111巷12弄15-3號","121.471565","24.984985","6501300","土城區"
"236063","752-BX","2018/01/16 20:09:29","新北市土城區立德路135巷5弄9號","121.464566666667","24.9873716666667","6501300","土城區"
"236059","912-UM","2018/01/16 20:09:22","新北市土城區中央路二段55號","121.44264","24.979385","6501300","土城區"
"236049","913-UM","2018/01/16 20:09:09","新北市土城區金城路三段129號","121.46798","24.9879933333333","6501300","土城區"
"236055","AAC-216","2018/01/16 20:09:27","新北市土城區中華路一段20號","121.447495","24.9903683333333","6501300","土城區"
"242032","AAC-296","2018/01/16 20:09:26","新北市新莊區忠孝街29巷12號","121.443676666667","25.0360533333333","6500500","新莊區"
"242029","986-R7","2018/01/16 20:09:27","新北市新莊區中榮街152巷34號","121.445943333333","25.0535366666667","6500500","新莊區"
"242051","751-BX","2018/01/16 20:09:27","新北市新莊區民安西路172巷1弄1號","121.425843333333","25.0159383333333","6500500","新莊區"
"242025","615-BX","2018/01/16 20:09:22","新北市新莊區五工路68巷23號","121.458721666667","25.0646483333333","6500500","新莊區"
"242023","613-BX","2018/01/16 20:09:17","新北市新莊區化成路570號","121.466206666667","25.054375","6500500","新莊區"
"242027","612-BX","2018/01/16 20:09:28","新北市新莊區幸福路727號","121.449255","25.0491383333333","6500500","新莊區"
"242039","566-BX","2018/01/16 20:09:19","新北市新莊區民安西路80號","121.427143333333","25.019705","6500500","新莊區"
"242044","442-UM","2018/01/16 20:09:19","新北市新莊區中正路929巷7弄11號","121.411501666667","25.0202916666667","6500500","新莊區"
"242048","441-UM","2018/01/16 20:09:12","新北市新莊區四維路152巷19號","121.422215","25.0227066666667","6500500","新莊區"
"242054","440-UM","2018/01/16 20:09:22","新北市新莊區西盛街387巷15號","121.428573333333","25.0130716666667","6500500","新莊區"
"242034","415-TV","2018/01/16 20:09:28","新北市新莊區中正路318巷9號","121.446358333333","25.0355533333333","6500500","新莊區"
"242005","413-TV","2018/01/16 20:09:11","新北市新莊區頭興街13巷2號","121.46119","25.053555","6500500","新莊區"
"242042","400-BY","2018/01/16 20:09:22","新北市新莊區壽山路73號","121.409745","25.03269","6500500","新莊區"
"242061","362-BY","2018/01/16 20:09:22","新北市新莊區瓊林路瓊英巷1弄1號","121.443875","25.0272216666667","6500500","新莊區"
"242058","353-BY","2018/01/16 20:09:24","新北市新莊區龍安路266巷16號","121.421418333333","25.0186766666667","6500500","新莊區"
"242007","132-UY","2018/01/16 20:09:26","新北市新莊區思源路419巷1弄1號","121.45932","25.0524383333333","6500500","新莊區"
"242037","133-UY","2018/01/16 20:09:27","新北市新莊區建安街9巷8號","121.429123333333","25.0266033333333","6500500","新莊區"
"242021","135-UY","2018/01/16 20:09:14","新北市新莊區建中街48巷10弄12號","121.448553333333","25.0384716666667","6500500","新莊區"
"242046","172-VK","2018/01/16 20:09:15","新北市新莊區裕民街85巷9號","121.419121666667","25.0235733333333","6500500","新莊區"
"242009","173-VK","2018/01/16 20:09:15","新北市新莊區昌盛街39號","121.454206666667","25.0500016666667","6500500","新莊區"
"242015","175-VK","2018/01/16 20:09:17","新北市新莊區中平路26巷51號","121.447301666667","25.0434366666667","6500500","新莊區"
"242002","176-VK","2018/01/16 20:09:01","新北市新莊區中正路100號","121.454693333333","25.03658","6500500","新莊區"
"242013","346-TH","2018/01/16 20:09:21","新北市新莊區幸福路710巷5弄10號","121.44948","25.0497316666667","6500500","新莊區"
"242019","348-TH","2018/01/16 20:09:14","新北市新莊區博愛路6巷2號","121.456336666667","25.0433466666667","6500500","新莊區"
"242056","349-TH","2018/01/16 20:09:12","新北市新莊區新莊路649巷15弄1號","121.445051666667","25.0314733333333","6500500","新莊區"
"242017","350-TH","2018/01/16 20:09:24","新北市新莊區中港一街50號","121.450443333333","25.0455166666667","6500500","新莊區"
"242011","351-TH","2018/01/16 20:09:16","新北市新莊區中信街52號","121.449218333333","25.0508583333333","6500500","新莊區"
"238021","KEA-2217","2018/01/16 20:09:27","新北市樹林區田尾街192巷7號","121.4002","24.9493166666667","6500700","樹林區"
"239002","359-BY","2018/01/16 20:09:15","新北市鶯歌區二甲路12-2號","121.345763333333","24.93485","6500800","鶯歌區"
"221036","130-UY","2018/01/16 20:09:20","新北市汐止區新台五路二段110號","121.66268","25.0661233333333","6501100","汐止區"
"221010","269-BY","2018/01/16 20:09:20","新北市汐止區八連路一段317號","121.639698333333","25.0860566666667","6501100","汐止區"
"221012","278-VK","2018/01/16 20:09:26","新北市汐止區汐平路二段45號","121.696453333333","25.0634833333333","6501100","汐止區"
"221023","279-VK","2018/01/16 20:09:13","新北市汐止區明峰街298巷4號","121.62516","25.0682866666667","6501100","汐止區"
"221032","280-BY","2018/01/16 20:09:09","新北市汐止區弘道街8巷5弄6號","121.617403333333","25.04785","6501100","汐止區"
"221027","281-BY","2018/01/16 20:09:09","新北市汐止區中正路110號","121.660865","25.0696816666667","6501100","汐止區"
"221029","298-VK","2018/01/16 20:09:09","新北市汐止區樟樹一路123巷17號","121.641261666667","25.0646116666667","6501100","汐止區"
"221021","299-VK","2018/01/16 20:09:26","新北市汐止區莊敬街126-2號","121.654888333333","25.060995","6501100","汐止區"
"221008","358-BY","2018/01/16 20:09:21","台北市內湖區康樂街65號","121.618453333333","25.06863","6501100","汐止區"
"221015","567-BX","2018/01/16 20:09:11","新北市汐止區建成路26號","121.664558333333","25.0726533333333","6501100","汐止區"
"221035","622-UM","2018/01/16 20:09:16","新北市汐止區長江街97號","121.658158333333","25.0727683333333","6501100","汐止區"
"221025","623-UM","2018/01/16 20:09:19","新北市汐止區水源路一段233號","121.654301666667","25.0606366666667","6501100","汐止區"
"221038","646-BX","2018/01/16 20:09:11","新北市汐止區大同路三段66-3號","121.668111666667","25.0771716666667","6501100","汐止區"
"221033","647-BX","2018/01/16 20:09:13","新北市汐止區東勢街201巷104號","121.633575","25.042885","6501100","汐止區"
"221018","753-BX","2018/01/16 20:09:19","新北市汐止區茄苳路319號","121.673655","25.06654","6501100","汐止區"
"220101","245-BX","2018/01/16 20:09:27","新北市板橋區莒光路165巷32-2號","121.474341666667","25.0248416666667","6500100","板橋區"
"220055","256-TC","2018/01/16 20:09:23","新北市板橋區重慶路290巷11號","121.461065","24.9986216666667","6500100","板橋區"
"220072","277-BY","2018/01/16 20:09:15","新北市板橋區篤行路二段31巷18號","121.432516666667","24.99256","6500100","板橋區"
"220071","283-VK","2018/01/16 20:09:22","新北市板橋區廣權路101號","121.46456","24.9927583333333","6500100","板橋區"
"220094","285-UM","2018/01/16 20:09:19","新北市板橋區文化路一段479巷44號","121.468018333333","25.022825","6500100","板橋區"
"220053","285-VK","2018/01/16 20:09:17","新北市板橋區中山路二段267號","121.477625","25.0179966666667","6500100","板橋區"
"220083","286-VK","2018/01/16 20:09:10","新北市板橋區僑中二街88巷3號","121.446245","25.009415","6500100","板橋區"
"220081","287-VK","2018/01/16 20:09:27","新北市板橋區僑中一街80巷7弄5號","121.447523333333","25.0127233333333","6500100","板橋區"
"220061","293-UM","2018/01/16 20:09:13","新北市板橋區觀光街4巷2弄1號","121.47237","25.0159583333333","6500100","板橋區"
"220084","296-UM","2018/01/16 20:09:13","新北市板橋區溪崑二街134號","121.425895","24.9878633333333","6500100","板橋區"
"220062","305-R5","2018/01/16 20:09:30","新北市板橋區永豐街89巷5弄6號","121.472798333333","25.019555","6500100","板橋區"
"220092","307-R5","2018/01/16 20:09:21","新北市板橋區文化路一段35號","121.460375","25.012895","6500100","板橋區"
"220064","486-VK","2018/01/16 20:09:25","新北市板橋區漢生東路193巷15號","121.470778333333","25.011985","6500100","板橋區"
"220089","487-VK","2018/01/16 20:09:27","新北市板橋區互助街69巷4號","121.460371666667","25.0260966666667","6500100","板橋區"
"220088","491-VK","2018/01/16 20:09:29","新北市板橋區民治街85號","121.479468333333","25.0320833333333","6500100","板橋區"
"220103","561-BX","2018/01/16 20:09:10","新北市板橋區文化路一段421巷11弄15號","121.466828333333","25.0225983333333","6500100","板橋區"
"220093","689-BX","2018/01/16 20:09:30","新北市板橋區長江路一段151號","121.461055","25.03036","6500100","板橋區"
"220067","829-TW","2018/01/16 20:09:16","新北市板橋區中山路一段206巷68號","121.472066666667","25.0132333333333","6500100","板橋區"
"220102","830-TW","2018/01/16 20:09:20","新北市板橋區懷德街76巷6號","121.477605","25.0318283333333","6500100","板橋區"
"220074","895-R6","2018/01/16 20:09:22","新北市板橋區館前西路104號","121.457115","25.0074333333333","6500100","板橋區"
"220097","AAC-210","2018/01/16 20:09:26","新北市板橋區光正街7號","121.462928333333","25.01705","6500100","板橋區"
"220070","AAC-253","2018/01/16 20:09:09","新北市板橋區德興街19號","121.453435","24.9942183333333","6500100","板橋區"
