"lineid","car","time","location","longitude","latitude","cityid","cityname"
"231063","645-TV","2018/01/16 21:39:22","新北市新店區如意街26號","121.493801666667","24.948335","6500600","新店區"
"241005","262-UM","2018/01/16 21:39:11","新北市三重區碧華街1號","121.483448333333","25.0812266666667","6500200","三重區"
"247008","341-TH","2018/01/16 21:38:34","新北市五股區民義路二段52巷22號","121.414653333333","25.11207","6501400","蘆洲區"
"251009","008-UM","2018/01/16 21:39:29","新北市淡水區民族路29巷1弄8號","121.463061666667","25.1373","6501000","淡水區"
"251004","009-UM","2018/01/16 21:39:31","新北市淡水區民權路99-5號","121.46015","25.137885","6501000","淡水區"
"251005","010-UM","2018/01/16 21:39:16","新北市淡水區學府路88號","121.449061666667","25.17105","6501000","淡水區"
"251014","180-VK","2018/01/16 21:39:19","新北市淡水區淡金路四段231號","121.451758333333","25.2228266666667","6501000","淡水區"
"251008","181-VK","2018/01/16 21:39:19","新北市淡水區水源街二段36號","121.450113333333","25.1737416666667","6501000","淡水區"
"251010","413-VK","2018/01/16 21:39:14","新北市淡水區沙崙路216巷56號","121.426298333333","25.1841216666667","6501000","淡水區"
"251012","441-VK","2018/01/16 21:39:20","新北市淡水區淡金路四段526-3號","121.451883333333","25.2263916666667","6501000","淡水區"
"251016","442-VK","2018/01/16 21:39:24","新北市淡水區中山北路三段165號","121.445403333333","25.1968083333333","6501000","淡水區"
"251001","559-UM","2018/01/16 21:39:24","新北市淡水區新市二路三段152號","121.435346666667","25.1942883333333","6501000","淡水區"
"251006","561-UM","2018/01/16 21:39:21","新北市淡水區中正路113號","121.439818333333","25.16966","6501000","淡水區"
"251011","650-BX","2018/01/16 21:39:21","新北市淡水區新民街101號","121.436191666667","25.1807566666667","6501000","淡水區"
"251002","672-BX","2018/01/16 21:39:22","新北市淡水區學府路183號","121.446581666667","25.1746016666667","6501000","淡水區"
"251003","673-BX","2018/01/16 21:39:33","新北市淡水區新春街46-1號","121.437593333333","25.1817533333333","6501000","淡水區"
"242021","135-UY","2018/01/16 21:39:14","新北市新莊區環河路636-7號","121.437093333333","25.01094","6500500","新莊區"
"220070","AAC-253","2018/01/16 21:39:29","新北市板橋區僑中一街124巷70-5號","121.44885","25.0161283333333","6500100","板橋區"
