"lineid","car","time","location","longitude","latitude","cityid","cityname"
"247008","341-TH","2018/01/16 21:59:14","新北市八里區中山路三段367號","121.37336","25.1378283333333","6501400","蘆洲區"
"251004","009-UM","2018/01/16 21:57:11","新北市淡水區自強路201巷49號","121.462048333333","25.1269566666667","6501000","淡水區"
"251005","010-UM","2018/01/16 21:59:16","新北市淡水區鄧公路30巷2弄57號","121.454156666667","25.1692683333333","6501000","淡水區"
"251008","181-VK","2018/01/16 21:59:19","新北市淡水區學府路104號","121.44988","25.171805","6501000","淡水區"
"251010","413-VK","2018/01/16 21:59:14","新北市淡水區中正路二段211號","121.42617","25.1890866666667","6501000","淡水區"
"251012","441-VK","2018/01/16 21:59:19","新北市淡水區中山北路三段171號","121.445565","25.1970133333333","6501000","淡水區"
"251006","561-UM","2018/01/16 21:59:21","新北市淡水區中正路11巷3號","121.437831666667","25.1707783333333","6501000","淡水區"
"251007","577-R6","2018/01/16 21:59:20","新北市淡水區水源街二段177巷114號","121.451808333333","25.1773283333333","6501000","淡水區"
"251011","650-BX","2018/01/16 21:59:21","新北市淡水區水碓街7號","121.443151666667","25.1771416666667","6501000","淡水區"
"251003","673-BX","2018/01/16 21:59:13","新北市淡水區新春街95-6號","121.439708333333","25.1825633333333","6501000","淡水區"
"242021","135-UY","2018/01/16 21:59:13","新北市新莊區三和路12-21號","121.44189","25.0388366666667","6500500","新莊區"
