"lineid","car","time","location","longitude","latitude","cityid","cityname"
"248005","653-BX","2018/04/27 09:29:37","新北市五股區登林路貿商巷5弄2號","121.429696666667","25.0700016666667","6501500","五股區"
"248003","655-BX","2018/04/27 09:29:42","新北市五股區芳洲八路80號","121.446448333333","25.0870716666667","6501500","五股區"
"222005","289-BY","2018/04/27 09:29:36","新北市深坑區北深路一段116號","121.63525","25.01073","6501800","深坑區"
"231007","188-VK","2018/04/27 09:29:40","新北市新店區新潭路三段215巷25號","121.508103333333","24.904095","6500600","新店區"
"231009","192-VK","2018/04/27 09:28:07","新北市新店區平廣路一段140號","121.525126666667","24.8921316666667","6500600","新店區"
"223001","205-TH","2018/04/27 09:29:40","新北市石碇區北宜路四段30號","121.624283333333","24.9564633333333","6501900","石碇區"
"223005","677-TV","2018/04/27 09:29:45","新北市石碇區碇坪路一段252號","121.67526","24.9781866666667","6501900","石碇區"
"227005","282-VK","2018/04/27 09:29:10","新北市雙溪區泰平里溪尾寮1號","121.820958333333","24.9603466666667","6502500","雙溪區"
"237001","159-UY","2018/04/27 09:29:41","新北市三峽區大學路150-3號","121.373981666667","24.9446133333333","6500900","三峽區"
"236010","165-UM","2018/04/27 09:29:36","新北市土城區中央路四段321巷34弄5號","121.412898333333","24.950255","6501300","土城區"
"236006","498-BY","2018/04/27 09:29:34","新北市土城區承天路71巷4弄21號","121.441676666667","24.9631833333333","6501300","土城區"
