"lineid","car","time","location","longitude","latitude","cityid","cityname"
"248005","653-BX","2018/04/27 09:39:37","新北市五股區成泰路一段7巷38號","121.432641666667","25.067035","6501500","五股區"
"248003","655-BX","2018/04/27 09:39:42","新北市五股區成泰路三段101-1號","121.444163333333","25.0903766666667","6501500","五股區"
"222005","289-BY","2018/04/27 09:39:36","新北市深坑區文山路一段64號","121.62402","25.0008366666667","6501800","深坑區"
"231007","188-VK","2018/04/27 09:39:40","新北市新店區新潭路三段215巷25號","121.508111666667","24.904085","6500600","新店區"
"231009","192-VK","2018/04/27 09:39:08","新北市新店區平廣路一段205號","121.51451","24.8891716666667","6500600","新店區"
"223005","677-TV","2018/04/27 09:39:47","新北市石碇區小粗坑(潭邊里)6號","121.67512","24.9841716666667","6501900","石碇區"
"227005","282-VK","2018/04/27 09:29:10","新北市雙溪區泰平里溪尾寮1號","121.820958333333","24.9603466666667","6502500","雙溪區"
"237001","159-UY","2018/04/27 09:39:41","新北市三峽區國際二街61號","121.371371666667","24.9425816666667","6500900","三峽區"
"236006","498-BY","2018/04/27 09:39:35","新北市土城區千歲路20號","121.44142","24.9691616666667","6501300","土城區"
