"lineid","car","time","location","longitude","latitude","cityid","cityname"
"234078","298-R6","2018/04/27 12:29:09","新北市永和區環河東路三段60號","121.526808333333","25.0058083333333","6500400","永和區"
"234036","336-UY","2018/04/27 12:29:10","新北市永和區福和路1號","121.526618333333","25.010115","6500400","永和區"
"234084","338-UY","2018/04/27 12:29:10","新北市永和區福和路1號","121.52564","25.009425","6500400","永和區"
"234015","745-BX","2018/04/27 12:29:19","新北市永和區福和路1號","121.526426666667","25.0099016666667","6500400","永和區"
"235029","098-UM","2018/04/27 12:29:09","新北市中和區員山路36巷16-3號","121.485093333333","24.9911466666667","6500300","中和區"
"227005","282-VK","2018/04/27 12:29:10","新北市雙溪區三貂里政光路3-1號","121.850831666667","25.0633333333333","6502500","雙溪區"
"207002","749-BX","2018/04/27 12:29:15","新北市萬里區雙興里太和路7-2號","121.658553333333","25.173995","6502800","萬里區"
