"lineid","car","time","location","longitude","latitude","cityid","cityname"
"234044","148-BY","2018/04/27 12:39:13","新北市永和區永元路105號","121.522588333333","25.0023066666667","6500400","永和區"
"234078","298-R6","2018/04/27 12:39:09","新北市永和區林森路81號","121.523925","25.0038483333333","6500400","永和區"
"234036","336-UY","2018/04/27 12:39:10","新北市永和區福和路1號","121.526546666667","25.0101683333333","6500400","永和區"
"234084","338-UY","2018/04/27 12:39:10","新北市永和區永貞路153號","121.515551666667","25.0039933333333","6500400","永和區"
"234015","745-BX","2018/04/27 12:39:19","新北市永和區福和路1號","121.526346666667","25.00965","6500400","永和區"
"234028","746-BX","2018/04/27 12:39:08","新北市永和區成功路一段2號","121.527166666667","25.0055833333333","6500400","永和區"
"234060","AAD-866","2018/04/27 12:39:20","新北市永和區福和路1號","121.526091666667","25.009625","6500400","永和區"
"234025","9371-KE","2018/04/27 12:39:22","新北市永和區福和路1號","121.526463333333","25.0099516666667","6500400","永和區"
"234076","969-R7","2018/04/27 12:39:23","新北市永和區福和路1號","121.525445","25.0095833333333","6500400","永和區"
"234001","AAC-295","2018/04/27 12:39:11","新北市永和區福和路1號","121.526563333333","25.0100033333333","6500400","永和區"
"231013","513-UM","2018/04/27 12:34:35","新北市新店區安華路28-1號","121.519616666667","24.9610783333333","6500600","新店區"
"235029","098-UM","2018/04/27 12:39:09","新北市中和區員山路36巷16-3號","121.485098333333","24.9911966666667","6500300","中和區"
"235031","255-BX","2018/04/27 12:39:13","新北市中和區新生街118巷2號","121.483445","25.0018","6500300","中和區"
"235025","378-QA","2018/04/27 12:32:11","新北市中和區員山路36巷16-6號","121.485315","24.9919983333333","6500300","中和區"
"227005","282-VK","2018/04/27 12:39:10","新北市雙溪區三貂里政光路3-1號","121.850841666667","25.0633566666667","6502500","雙溪區"
"207002","749-BX","2018/04/27 12:39:15","新北市萬里區雙興里太和路7-2號","121.658568333333","25.1739516666667","6502800","萬里區"
"236006","498-BY","2018/04/27 12:39:06","新北市土城區永平街51號","121.427593333333","24.9591266666667","6501300","土城區"
