"lineid","car","time","location","longitude","latitude","cityid","cityname"
"234044","148-BY","2018/04/27 13:59:13","新北市永和區成功路一段20號","121.527033333333","25.00506","6500400","永和區"
"234005","207-UY","2018/04/27 13:59:22","新北市中和區中和路326號","121.509805","25.0010116666667","6500400","永和區"
"234078","298-R6","2018/04/27 13:59:09","新北市永和區國中路17號","121.524305","25.0049616666667","6500400","永和區"
"234036","336-UY","2018/04/27 13:59:10","新北市永和區成功路二段119號","121.52677","24.99855","6500400","永和區"
"234062","337-UY","2018/04/27 13:59:14","新北市永和區中正路412巷20弄21號","121.51898","25.0014266666667","6500400","永和區"
"234084","338-UY","2018/04/27 13:59:10","新北市永和區福和路73號","121.522555","25.007775","6500400","永和區"
"234068","552-UM","2018/04/27 13:59:22","新北市永和區國光路39-1號","121.519085","25.0082816666667","6500400","永和區"
"234066","553-UM","2018/04/27 13:59:11","新北市永和區永貞路366號","121.510075","25.0067433333333","6500400","永和區"
"234015","745-BX","2018/04/27 13:59:19","新北市永和區文化路14號","121.515443333333","25.01504","6500400","永和區"
"234028","746-BX","2018/04/27 13:59:23","新北市永和區民生路47巷58號","121.525698333333","24.9978333333333","6500400","永和區"
"234052","KEA-2590","2018/04/27 13:59:24","新北市永和區竹林路39巷33弄1號","121.520016666667","25.0151883333333","6500400","永和區"
"234012","KEA-2591","2018/04/27 13:59:25","新北市永和區保生路55號","121.5047","25.010635","6500400","永和區"
"234060","AAD-866","2018/04/27 13:59:20","新北市永和區中正路151巷14號","121.515566666667","24.998785","6500400","永和區"
"234040","862-TW","2018/04/27 13:59:24","新北市永和區中和路389巷1弄5號","121.508138333333","25.000185","6500400","永和區"
"234048","863-TW","2018/04/27 13:59:08","新北市永和區保安路260號","121.506005","25.0123216666667","6500400","永和區"
"234025","9371-KE","2018/04/27 13:59:23","新北市永和區自由街41-1號","121.513961666667","25.0060383333333","6500400","永和區"
"234010","9373-KE","2018/04/27 13:59:26","新北市永和區仁愛路352巷112弄12號","121.501146666667","25.0085866666667","6500400","永和區"
"248019","225-UY","2018/04/27 13:59:13","新北市五股區凌雲路三段57號","121.425338333333","25.1250116666667","6501500","五股區"
"234022","9380-KE","2018/04/27 13:59:13","新北市永和區復興街56號","121.516571666667","25.01324","6500400","永和區"
"234076","969-R7","2018/04/27 13:59:22","新北市永和區民權路58巷3號","121.519596666667","24.9983233333333","6500400","永和區"
"234072","AAC-211","2018/04/27 13:59:25","新北市永和區豫溪街185號","121.522513333333","25.0103933333333","6500400","永和區"
"234001","AAC-295","2018/04/27 13:59:21","新北市永和區福和路318號","121.515778333333","25.0072783333333","6500400","永和區"
"232015","291-BY","2018/04/27 13:59:14","新北市新店區安平路30號","121.52403","24.9679416666667","6502000","坪林區"
"244004","248-BX","2018/04/27 13:59:12","新北市林口區南勢里33-3號","121.352153333333","25.070295","6501700","林口區"
"231002","002-UM","2018/04/27 13:59:10","新北市新店區中正路552號","121.533706666667","24.9868033333333","6500600","新店區"
"231027","0293-UT","2018/04/27 13:59:20","新北市新店區北宜路一段39巷20號","121.538818333333","24.958465","6500600","新店區"
"231001","047-UY","2018/04/27 13:59:21","新北市新店區三民路24號","121.53711","24.971","6500600","新店區"
"231005","106-UY","2018/04/27 13:59:17","新北市新店區中興路三段186號","121.544071666667","24.9815","6500600","新店區"
"231010","107-UY","2018/04/27 13:59:14","新北市新店區環河路109-2號","121.531888333333","24.970815","6500600","新店區"
"231022","108-UY","2018/04/27 13:59:17","新北市新店區自強路252號","121.548445","24.9184366666667","6500600","新店區"
"231012","187-VK","2018/04/27 13:59:27","新北市新店區五峰路58號","121.54573","24.9683416666667","6500600","新店區"
"231023","KEA-2219","2018/04/27 13:59:16","新北市新店區文中路45號","121.539615","24.9566766666667","6500600","新店區"
"231026","256-BX","2018/04/27 13:59:19","新北市新店區安康路一段35-1號","121.531981666667","24.9605983333333","6500600","新店區"
"231003","268-BY","2018/04/27 13:59:24","新北市新店區中興路一段108號","121.541025","24.9619133333333","6500600","新店區"
"231018","278-BY","2018/04/27 13:59:13","新北市新店區中央路97號","121.53111","24.975085","6500600","新店區"
"231016","AAD-862","2018/04/27 13:59:26","新北市新店區郵政路81號","121.55527","24.9516183333333","6500600","新店區"
"231028","355-BY","2018/04/27 13:59:20","新北市新店區安和路三段153號","121.516593333333","24.9856783333333","6500600","新店區"
"231038","3712-VJ","2018/04/27 13:59:26","新北市新店區溪洲路8巷94號","121.533108333333","24.9624883333333","6500600","新店區"
"231037","4716-K9","2018/04/27 13:59:23","新北市新店區安康路三段165巷2弄12號","121.489045","24.9514733333333","6500600","新店區"
"231025","4715-K9","2018/04/27 13:59:17","新北市新店區中正路328巷24號","121.537643333333","24.9758266666667","6500600","新店區"
"231036","512-UM","2018/04/27 13:59:14","新北市新店區安祥路109巷1弄39號","121.476973333333","24.9603766666667","6500600","新店區"
"231013","513-UM","2018/04/27 13:59:26","新北市新店區明德路62號","121.54162","24.9793866666667","6500600","新店區"
"231006","617-UM","2018/04/27 13:59:11","新北市新店區北宜路二段209號","121.553138333333","24.953375","6500600","新店區"
"231030","619-UM","2018/04/27 13:59:13","新北市新店區安康路一段302號","121.518333333333","24.964075","6500600","新店區"
"231034","641-BX","2018/04/27 13:59:17","新北市新店區達觀路16-7號","121.502141666667","24.9408933333333","6500600","新店區"
"231035","719-UM","2018/04/27 13:59:14","新北市新店區安康路二段85巷17號","121.514431666667","24.9615916666667","6500600","新店區"
"231032","720-UM","2018/04/27 13:59:07","新北市新店區莒光路87巷15號","121.525638333333","24.9533683333333","6500600","新店區"
"231029","897-TW","2018/04/27 13:59:22","新北市新店區安康路二段93號","121.513141666667","24.9627466666667","6500600","新店區"
"231004","899-TW","2018/04/27 13:59:23","新北市新店區北新路二段158號","121.543025","24.975565","6500600","新店區"
"231024","AKT-0513","2018/04/27 13:59:17","新北市新店區中華路83巷67號","121.53836","24.967275","6500600","新店區"
"235028","005-UY","2018/04/27 13:59:20","新北市中和區泰和街30巷18號","121.499088333333","25.001115","6500300","中和區"
"235027","006-UY","2018/04/27 13:59:29","新北市中和區中正路612號","121.485498333333","24.9956","6500300","中和區"
"235020","096-UM","2018/04/27 13:59:27","新北市中和區中正路1222號","121.479768333333","25.0110033333333","6500300","中和區"
"235003","097-UM","2018/04/27 13:59:13","新北市中和區自立路58巷23號","121.52314","24.991385","6500300","中和區"
"235029","098-UM","2018/04/27 13:59:29","新北市中和區中山路二段136巷8號","121.501821666667","25.0038016666667","6500300","中和區"
"235004","150-BY","2018/04/27 13:59:02","新北市中和區宜安路129號","121.509603333333","24.9980483333333","6500300","中和區"
"235022","151-BY","2018/04/27 13:59:25","新北市中和區連城路583巷1號","121.478775","24.9941083333333","6500300","中和區"
"235019","183-VK","2018/04/27 13:59:25","新北市中和區中山路三段214號","121.471405","25.0065333333333","6500300","中和區"
"235002","185-VK","2018/04/27 13:59:18","新北市中和區大仁街10巷53號","121.51999","24.992475","6500300","中和區"
"235013","186-VK","2018/04/27 13:59:24","新北市中和區景安路157號","121.505356666667","24.9949233333333","6500300","中和區"
"235031","255-BX","2018/04/27 13:59:13","新北市中和區中正路711號","121.484533333333","24.998485","6500300","中和區"
"235008","293-VK","2018/04/27 13:59:15","新北市中和區中興街161巷3弄1號","121.500491666667","24.9909283333333","6500300","中和區"
"235007","352-BY","2018/04/27 13:59:11","新北市中和區成功路41巷1號","121.52623","24.9933266666667","6500300","中和區"
"235032","377-QA","2018/04/27 13:59:20","新北市中和區圓通路162巷14號","121.49672","24.995575","6500300","中和區"
"235025","378-QA","2018/04/27 13:59:26","新北市中和區民治街134巷10號","121.474883333333","25.002045","6500300","中和區"
"235014","4979-A6","2018/04/27 13:59:28","新北市中和區華新街50巷8號","121.507655","24.9839766666667","6500300","中和區"
"235033","4980-A6","2018/04/27 13:59:27","新北市中和區中和路165巷18號","121.50332","25.0004783333333","6500300","中和區"
"235006","551-UM","2018/04/27 13:59:23","新北市中和區秀朗路三段22巷10號","121.525893333333","24.99629","6500300","中和區"
"235034","558-UM","2018/04/27 13:59:10","新北市中和區安和路163號","121.506205","24.997465","6500300","中和區"
"235009","565-BX","2018/04/27 13:59:21","新北市中和區景新街467巷20弄84號","121.51449","24.987575","6500300","中和區"
"235018","640-BX","2018/04/27 13:59:15","新北市中和區民享街27巷1號","121.474135","25.005025","6500300","中和區"
"235024","647-TV","2018/04/27 13:59:14","新北市中和區民治街3巷1號","121.475008333333","25.0053816666667","6500300","中和區"
"235011","732-UM","2018/04/27 13:59:20","新北市中和區興南路二段107號","121.505773333333","24.9844583333333","6500300","中和區"
"235010","733-UM","2018/04/27 13:59:21","新北市中和區興南路一段135巷22弄4號","121.509123333333","24.9868733333333","6500300","中和區"
"235035","783-BX","2018/04/27 13:59:17","新北市中和區立德街98巷103號","121.488926666667","25.00837","6500300","中和區"
"235026","800-TS","2018/04/27 13:59:12","新北市中和區中山路二段362-3號","121.49216","25.00384","6500300","中和區"
"235021","801-TS","2018/04/27 13:59:20","新北市中和區民利街40巷3弄11號","121.478906666667","24.999155","6500300","中和區"
"235005","802-TS","2018/04/27 13:59:22","新北市中和區永貞路272號","121.513518333333","25.0037516666667","6500300","中和區"
"235016","805-TS","2018/04/27 13:59:25","新北市中和區興南路二段131-15號","121.504191666667","24.9802333333333","6500300","中和區"
"235012","896-TW","2018/04/27 13:59:13","新北市中和區華新街59號","121.508025","24.9842766666667","6500300","中和區"
"235017","900-TW","2018/04/27 13:59:26","新北市中和區和平路200巷33-3號","121.465211666667","24.9945083333333","6500300","中和區"
"235030","911-UM","2018/04/27 13:59:12","新北市中和區水源路29巷2號","121.50418","25.003735","6500300","中和區"
"235015","157-BY","2018/04/27 13:59:16","新北市中和區忠孝街11巷5號","121.509868333333","24.9831883333333","6500300","中和區"
"235001","AAC-213","2018/04/27 13:59:25","新北市中和區秀朗路三段10巷37弄3號","121.524241666667","24.9960266666667","6500300","中和區"
"235023","AAC-215","2018/04/27 13:59:27","新北市中和區圓通路369巷33弄7號","121.491118333333","24.9879983333333","6500300","中和區"
"220013","072-UY","2018/04/27 13:59:11","新北市板橋區漢生東路340巷12號","121.471408333333","25.00733","6500100","板橋區"
"220034","073-UY","2018/04/27 13:59:11","新北市板橋區中正路216巷41號","121.45704","25.018985","6500100","板橋區"
"220105","075-UY","2018/04/27 13:59:15","新北市板橋區莊敬路66號","121.471816666667","25.0253666666667","6500100","板橋區"
"220017","AAD-861","2018/04/27 13:59:29","新北市板橋區華興街87號","121.456758333333","25.00523","6500100","板橋區"
"247013","546-UM","2018/04/27 13:59:20","新北市蘆洲區中正路153號","121.469228333333","25.08486","6501400","蘆洲區"
"247009","341-TH","2018/04/27 13:59:23","新北市蘆洲區中興街46號","121.48157","25.0871133333333","6501400","蘆洲區"
"247011","339-TH","2018/04/27 13:59:07","新北市蘆洲區民族路150號","121.479476666667","25.086105","6501400","蘆洲區"
"247003","337-TH","2018/04/27 13:59:20","新北市蘆洲區長榮路20號","121.463928333333","25.0821433333333","6501400","蘆洲區"
"247005","336-TH","2018/04/27 13:59:21","新北市蘆洲區永安南路二段76號","121.464546666667","25.078145","6501400","蘆洲區"
"247007","056-VK","2018/04/27 13:59:25","新北市三重區三和路四段237號","121.481085","25.0803783333333","6501400","蘆洲區"
"247017","053-VK","2018/04/27 13:59:24","新北市蘆洲區民族路255巷37號","121.475888333333","25.0890116666667","6501400","蘆洲區"
"247015","007-UY","2018/04/27 13:59:12","新北市蘆洲區光華路42號","121.468906666667","25.0832066666667","6501400","蘆洲區"
"247019","001-UY","2018/04/27 13:59:18","新北市蘆洲區民族路426巷40弄11號","121.473553333333","25.09312","6501400","蘆洲區"
"235036","251-BX","2018/04/27 13:59:16","新北市中和區中山路二段68號","121.503865","25.0045583333333","6500300","中和區"
"207002","749-BX","2018/04/27 13:59:15","新北市萬里區溪底里溪底路9-1號","121.619471666667","25.1491033333333","6502800","萬里區"
"207001","662-BX","2018/04/27 13:59:10","新北市萬里區磺潭里清水18號","121.637721666667","25.1977466666667","6502800","萬里區"
"236067","105-UM","2018/04/27 13:59:13","新北市土城區中華路一段301號","121.439916666667","24.979395","6501300","土城區"
"236040","107-UM","2018/04/27 13:59:20","新北市土城區城林路6巷80號","121.438488333333","24.97976","6501300","土城區"
"236077","166-UM","2018/04/27 13:59:15","新北市土城區永寧路24-1號","121.429603333333","24.96121","6501300","土城區"
"236029","253-BX","2018/04/27 13:59:11","新北市土城區城林路6巷80號","121.438481666667","24.97982","6501300","土城區"
"236024","269-VK","2018/04/27 13:59:16","新北市土城區承天路18號","121.439488333333","24.9633766666667","6501300","土城區"
"236013","270-VK","2018/04/27 13:59:15","新北市土城區城林路6巷80號","121.438621666667","24.9797333333333","6501300","土城區"
"236032","271-VK","2018/04/27 13:59:25","新北市土城區城林路6巷80號","121.438528333333","24.9797233333333","6501300","土城區"
"236016","401-BY","2018/04/27 13:59:12","新北市土城區城林路6巷80號","121.438551666667","24.9797083333333","6501300","土城區"
"236006","498-BY","2018/04/27 13:59:06","新北市土城區中央路一段363號","121.443326666667","24.9809316666667","6501300","土城區"
"236057","912-UM","2018/04/27 13:59:24","新北市土城區中央路三段248-1號","121.427708333333","24.964235","6501300","土城區"
"236045","913-UM","2018/04/27 13:59:26","新北市土城區中華路一段301號","121.43998","24.9793383333333","6501300","土城區"
"236060","915-UM","2018/04/27 13:59:08","新北市土城區城林路6巷80號","121.438538333333","24.979685","6501300","土城區"
"236054","AAC-216","2018/04/27 13:59:25","新北市土城區城林路6巷80號","121.43866","24.9797083333333","6501300","土城區"
"242001","233-RS","2018/04/27 13:59:23","新北市新莊區自治街38號","121.454175","25.0477983333333","6500500","新莊區"
"220027","145-BY","2018/04/27 13:59:26","新北市板橋區民權路202巷9弄2號","121.460336666667","25.015445","6500100","板橋區"
"220028","200-UY","2018/04/27 13:59:24","新北市板橋區大觀路二段153巷44弄23號","121.44616","24.9992283333333","6500100","板橋區"
"220030","610-BX","2018/04/27 13:59:19","新北市板橋區滿平街67號","121.427601666667","24.9892066666667","6500100","板橋區"
"220050","245-BX","2018/04/27 13:59:12","新北市板橋區文化路二段182巷5弄1號","121.471618333333","25.0271366666667","6500100","板橋區"
"220004","276-BY","2018/04/27 13:59:23","新北市板橋區信義路127號","121.45777","24.9933516666667","6500100","板橋區"
"220020","277-BY","2018/04/27 13:59:16","新北市板橋區篤行路二段135號","121.430246666667","24.9889366666667","6500100","板橋區"
"220019","283-VK","2018/04/27 13:59:23","新北市板橋區重慶路245巷54號","121.465168333333","25.0008516666667","6500100","板橋區"
"220043","285-UM","2018/04/27 13:44:25","新北市板橋區民生路二段161巷1號","121.47003","25.0198533333333","6500100","板橋區"
"220001","285-VK","2018/04/27 13:59:13","新北市板橋區成功路46號","121.475086666667","25.0177683333333","6500100","板橋區"
"220031","286-VK","2018/04/27 13:59:18","新北市板橋區龍興街99巷15號","121.443473333333","25.0032233333333","6500100","板橋區"
"220029","287-VK","2018/04/27 13:59:22","新北市板橋區光華街36號","121.453841666667","25.01274","6500100","板橋區"
"220039","288-VK","2018/04/27 13:59:29","新北市板橋區四維路177巷2弄2號","121.464135","25.0262833333333","6500100","板橋區"
"220009","295-UM","2018/04/27 13:58:58","新北市板橋區永豐街163號","121.475518333333","25.0204016666667","6500100","板橋區"
"220032","296-UM","2018/04/27 13:59:18","新北市板橋區大觀路三段5-4號","121.432716666667","24.99589","6500100","板橋區"
"220023","303-R5","2018/04/27 13:59:23","新北市板橋區南雅西路二段8號","121.453506666667","25.0091166666667","6500100","板橋區"
"220010","305-R5","2018/04/27 13:59:23","新北市板橋區三民路二段245巷4弄6號","121.480673333333","25.0123766666667","6500100","板橋區"
"220041","307-R5","2018/04/27 13:59:13","新北市板橋區文化路一段88號","121.46439","25.0174983333333","6500100","板橋區"
"220047","317-R6","2018/04/27 13:59:14","新北市板橋區民有街18號","121.466276666667","25.0250366666667","6500100","板橋區"
"220012","486-VK","2018/04/27 13:59:25","新北市板橋區板新路237號","121.467576666667","25.015905","6500100","板橋區"
"220104","560-BX","2018/04/27 13:59:22","新北市板橋區中正路379巷1弄30號","121.45315","25.02177","6500100","板橋區"
"220052","561-BX","2018/04/27 13:59:22","新北市板橋區縣民大道二段279號","121.470083333333","25.0178966666667","6500100","板橋區"
"220011","609-BX","2018/04/27 13:59:11","新北市板橋區中山路二段126號","121.476218333333","25.0168983333333","6500100","板橋區"
"220003","630-UY","2018/04/27 13:59:10","新北市板橋區中山路一段158巷4號","121.466075","25.0117583333333","6500100","板橋區"
"220040","637-BX","2018/04/27 13:59:20","新北市板橋區莒光路165巷30號","121.474241666667","25.0247516666667","6500100","板橋區"
"220005","686-BX","2018/04/27 13:59:20","新北市板橋區重慶路40號","121.461378333333","25.0074066666667","6500100","板橋區"
"220025","687-BX","2018/04/27 13:59:24","新北市板橋區龍興街71巷52號","121.441683333333","25.0028883333333","6500100","板橋區"
"220042","689-BX","2018/04/27 13:59:20","新北市板橋區民生路三段32-6號","121.467355","25.0249066666667","6500100","板橋區"
"220002","741-BX","2018/04/27 13:59:08","新北市板橋區重慶路139巷13號","121.46336","25.0046566666667","6500100","板橋區"
"220051","KEA-2699","2018/04/27 13:59:25","新北市板橋區田單街2巷38號","121.481763333333","25.0275066666667","6500100","板橋區"
"220014","829-TW","2018/04/27 13:59:30","新北市板橋區三民路二段正隆巷12弄15號","121.477696666667","25.0134366666667","6500100","板橋區"
"220045","830-TW","2018/04/27 13:59:09","新北市板橋區莊敬路175號","121.47104","25.0236416666667","6500100","板橋區"
"220038","833-TW","2018/04/27 13:59:16","新北市板橋區文化路二段315號","121.472141666667","25.0297033333333","6500100","板橋區"
"220022","895-R6","2018/04/27 13:59:14","新北市板橋區林園街10號","121.454068333333","25.00962","6500100","板橋區"
"220021","985-R7","2018/04/27 13:59:14","新北市板橋區館前西路269號","121.453715","25.0087133333333","6500100","板橋區"
"220046","AAC-210","2018/04/27 13:59:09","新北市板橋區漢生東路15號","121.464855","25.0173633333333","6500100","板橋區"
"220018","AAC-253","2018/04/27 13:59:19","新北市板橋區四川路一段233號","121.460045","25.0028783333333","6500100","板橋區"
