"lineid","car","time","location","longitude","latitude","cityid","cityname"
"234028","746-BX","2018/04/27 14:49:27","新北市新店區薏仁坑路23號","121.498078333333","24.9589933333333","6500400","永和區"
"234025","9371-KE","2018/04/27 14:49:29","新北市永和區水源街39巷1號","121.510468333333","25.0043466666667","6500400","永和區"
"248019","225-UY","2018/04/27 14:49:13","新北市五股區中直路6號","121.429533333333","25.1111066666667","6501500","五股區"
"244004","248-BX","2018/04/27 14:49:24","新北市林口區竹林路266號","121.38968","25.0808316666667","6501700","林口區"
"231002","002-UM","2018/04/27 14:49:10","新北市新店區民權路83號","121.538245","24.9828933333333","6500600","新店區"
"231027","0293-UT","2018/04/27 14:49:20","新北市新店區環河路186號","121.524963333333","24.9758316666667","6500600","新店區"
"231001","047-UY","2018/04/27 14:49:21","新北市新店區三民路80號","121.534628333333","24.9724716666667","6500600","新店區"
"231005","106-UY","2018/04/27 14:49:17","新北市新店區復興路2號","121.532463333333","24.9882583333333","6500600","新店區"
"231022","108-UY","2018/04/27 14:49:17","新北市新店區新烏路一段245號","121.547748333333","24.9297866666667","6500600","新店區"
"231012","187-VK","2018/04/27 14:49:27","新北市新店區寶橋路78巷3號","121.54693","24.975","6500600","新店區"
"231023","KEA-2219","2018/04/27 14:49:16","新北市新店區檳榔路111號","121.544548333333","24.9614866666667","6500600","新店區"
"231026","256-BX","2018/04/27 14:49:22","新北市新店區安康路一段355-10號","121.520871666667","24.96386","6500600","新店區"
"231003","268-BY","2018/04/27 14:49:24","新北市新店區中興路二段39號","121.546248333333","24.9700133333333","6500600","新店區"
"231018","278-BY","2018/04/27 14:49:13","新北市新店區中央六街10號","121.530038333333","24.9744483333333","6500600","新店區"
"231016","AAD-862","2018/04/27 14:49:26","新北市新店區北宜路三段181號","121.586606666667","24.9525383333333","6500600","新店區"
"231028","355-BY","2018/04/27 14:49:17","新北市新店區安德街134號","121.508585","24.9602166666667","6500600","新店區"
"231038","3712-VJ","2018/04/27 14:49:26","新北市新店區安華路28-1號","121.519683333333","24.9609233333333","6500600","新店區"
"231025","4715-K9","2018/04/27 14:49:17","新北市新店區民族路66號","121.539408333333","24.978425","6500600","新店區"
"231036","512-UM","2018/04/27 14:49:14","新北市新店區安祥路104巷6弄36號","121.483076666667","24.9629866666667","6500600","新店區"
"231013","513-UM","2018/04/27 14:49:26","新北市新店區北新路二段17號","121.542761666667","24.971475","6500600","新店區"
"231006","617-UM","2018/04/27 14:49:11","新北市新店區北宜路一段107號","121.53941","24.9552366666667","6500600","新店區"
"231030","619-UM","2018/04/27 14:49:13","新北市新店區安民街304號","121.517623333333","24.9738616666667","6500600","新店區"
"231034","641-BX","2018/04/27 14:49:17","新北市新店區安康路二段383號","121.49488","24.9545933333333","6500600","新店區"
"231039","718-UY","2018/04/27 14:49:16","新北市新店區安華路8號","121.519855","24.96247","6500600","新店區"
"231035","719-UM","2018/04/27 14:49:13","新北市新店區吉安街34號","121.516035","24.9661033333333","6500600","新店區"
"231032","720-UM","2018/04/27 14:49:27","新北市新店區安康路二段452-1號","121.495231666667","24.95473","6500600","新店區"
"231029","897-TW","2018/04/27 14:49:16","新北市新店區錦秀路59號","121.47908","24.943215","6500600","新店區"
"231004","899-TW","2018/04/27 14:49:23","新北市新店區建國路133號","121.539381666667","24.9781916666667","6500600","新店區"
"231024","AKT-0513","2018/04/27 14:49:16","新北市新店區力行路70號","121.538825","24.96614","6500600","新店區"
"235027","006-UY","2018/04/27 14:49:09","新北市中和區連城路184號","121.492898333333","24.9969916666667","6500300","中和區"
"235020","096-UM","2018/04/27 14:49:26","新北市中和區中山路三段114巷35號","121.475416666667","25.0084683333333","6500300","中和區"
"235003","097-UM","2018/04/27 14:49:13","新北市中和區安平路200號","121.513425","24.9994133333333","6500300","中和區"
"235029","098-UM","2018/04/27 14:49:28","新北市中和區橋和路294號","121.496776666667","25.0068466666667","6500300","中和區"
"235004","150-BY","2018/04/27 14:49:15","新北市中和區安和路39號","121.509693333333","24.9948966666667","6500300","中和區"
"235019","183-VK","2018/04/27 14:49:25","新北市中和區民德路23號","121.468838333333","25.0027316666667","6500300","中和區"
"235002","185-VK","2018/04/27 14:49:18","新北市中和區自強路10號","121.5203","24.99584","6500300","中和區"
"235013","186-VK","2018/04/27 14:49:24","新北市中和區中正路58號","121.501646666667","24.993705","6500300","中和區"
"235031","255-BX","2018/04/27 14:49:13","新北市中和區中正路751巷3弄1號","121.484396666667","24.9996516666667","6500300","中和區"
"235008","293-VK","2018/04/27 14:49:15","新北市中和區南山路389號","121.506408333333","24.9903583333333","6500300","中和區"
"235007","352-BY","2018/04/27 14:49:11","新北市中和區安和路9號","121.511605","24.9936133333333","6500300","中和區"
"235032","377-QA","2018/04/27 14:49:20","新北市中和區中山路二段250巷5號","121.497398333333","25.002965","6500300","中和區"
"235025","378-QA","2018/04/27 14:49:26","新北市中和區員山路174巷18號","121.482116666667","24.99965","6500300","中和區"
"235014","4979-A6","2018/04/27 14:49:28","新北市中和區景平路241巷82弄38號","121.506311666667","24.9925933333333","6500300","中和區"
"235033","4980-A6","2018/04/27 14:49:27","新北市中和區南山路37巷3弄15號","121.502545","24.9988583333333","6500300","中和區"
"235034","558-UM","2018/04/27 14:49:10","新北市中和區連勝街41號","121.498146666667","24.9976066666667","6500300","中和區"
"235018","640-BX","2018/04/27 14:49:15","新北市中和區莒光路258號","121.468136666667","24.9939766666667","6500300","中和區"
"235011","732-UM","2018/04/27 14:49:20","新北市中和區和平街74號","121.507863333333","24.9910616666667","6500300","中和區"
"235010","733-UM","2018/04/27 14:49:20","新北市中和區仁愛街4號","121.5105","24.989215","6500300","中和區"
"235035","783-BX","2018/04/27 14:49:17","新北市中和區建康路93號","121.487603333333","25.000155","6500300","中和區"
"235026","800-TS","2018/04/27 14:49:12","新北市中和區中山路二段389號","121.486838333333","25.0048133333333","6500300","中和區"
"235016","805-TS","2018/04/27 14:49:25","新北市中和區華新街28-1號","121.507655","24.9844983333333","6500300","中和區"
"235012","896-TW","2018/04/27 14:49:13","新北市中和區忠孝街76號","121.512046666667","24.984205","6500300","中和區"
"235017","900-TW","2018/04/27 14:49:26","新北市中和區國光街189巷1號","121.46775","25.0010216666667","6500300","中和區"
"235030","911-UM","2018/04/27 14:49:11","新北市中和區南工路38號","121.505813333333","25.0011583333333","6500300","中和區"
"235015","157-BY","2018/04/27 14:49:16","新北市中和區景安路247巷7號","121.504316666667","24.9906966666667","6500300","中和區"
"235001","AAC-213","2018/04/27 14:49:25","新北市中和區自立路193號","121.524386666667","24.991275","6500300","中和區"
"235023","AAC-215","2018/04/27 14:49:26","新北市中和區圓通路305巷5弄2號","121.493605","24.9902083333333","6500300","中和區"
"220013","072-UY","2018/04/27 14:49:26","新北市板橋區長安街23號","121.466708333333","25.0088083333333","6500100","板橋區"
"220105","075-UY","2018/04/27 14:49:15","新北市板橋區民治街71巷27號","121.480638333333","25.033035","6500100","板橋區"
"220017","AAD-861","2018/04/27 14:49:29","新北市板橋區貴興路50號","121.457091666667","25.0031933333333","6500100","板橋區"
"247023","893-R6","2018/04/27 14:49:28","新北市五股區四維路185巷1號","121.467795","25.0761433333333","6501400","蘆洲區"
"247003","337-TH","2018/04/27 14:49:20","新北市蘆洲區長安街100號","121.461728333333","25.0808266666667","6501400","蘆洲區"
"247001","002-UY","2018/04/27 14:49:25","新北市蘆洲區永康街2巷6號","121.459371666667","25.086105","6501400","蘆洲區"
"235036","251-BX","2018/04/27 14:49:16","新北市中和區中和路74號","121.500835","25.0002066666667","6500300","中和區"
"227011","400-TW","2018/04/27 14:49:08","新北市雙溪區三貂里政光路3-1號","121.850858333333","25.0630283333333","6502500","雙溪區"
"207002","749-BX","2018/04/27 14:49:15","新北市萬里區崁腳里崁腳路73號","121.647608333333","25.159615","6502800","萬里區"
"207001","662-BX","2018/04/27 14:49:30","新北市萬里區雙興里二坪路1-1號","121.65093","25.1766116666667","6502800","萬里區"
"236067","105-UM","2018/04/27 14:49:13","新北市土城區明德路二段99巷15號","121.450485","24.9810933333333","6501300","土城區"
"236040","107-UM","2018/04/27 14:49:20","新北市土城區裕民路136巷29號","121.450703333333","24.98513","6501300","土城區"
"236077","166-UM","2018/04/27 14:49:24","新北市土城區中央路四段125巷7號","121.416686666667","24.9572366666667","6501300","土城區"
"236029","253-BX","2018/04/27 14:49:11","新北市土城區忠義路26巷10號","121.439823333333","24.9698966666667","6501300","土城區"
"236024","269-VK","2018/04/27 14:49:16","新北市土城區慶安街52號","121.441045","24.97321","6501300","土城區"
"236013","270-VK","2018/04/27 14:49:15","新北市土城區金城路二段356號","121.461556666667","24.9850916666667","6501300","土城區"
"236032","271-VK","2018/04/27 14:49:25","新北市土城區仁愛路25-1號","121.462728333333","24.9784083333333","6501300","土城區"
"236016","401-BY","2018/04/27 14:49:12","新北市土城區德峰街39號","121.46741","24.9856166666667","6501300","土城區"
"236057","912-UM","2018/04/27 14:49:26","新北市土城區金城路一段16號","121.439468333333","24.9689183333333","6501300","土城區"
"236045","913-UM","2018/04/27 14:49:26","新北市土城區青雲路38號","121.459961666667","24.98859","6501300","土城區"
"236060","915-UM","2018/04/27 14:49:28","新北市土城區金城路三段139巷11號","121.46775","24.98878","6501300","土城區"
"236054","AAC-216","2018/04/27 14:49:25","新北市土城區裕民路85號","121.450175","24.9872316666667","6501300","土城區"
"242001","233-RS","2018/04/27 14:49:23","新北市樹林區環河路2號","121.42825","24.9791766666667","6500500","新莊區"
"221002","707-TV","2018/04/27 14:49:09","新北市汐止區新興路78號","121.657588333333","25.0617633333333","6501100","汐止區"
"220027","145-BY","2018/04/27 14:49:17","新北市板橋區大智街52號","121.454498333333","25.015305","6500100","板橋區"
"220028","200-UY","2018/04/27 14:49:11","新北市板橋區大觀路二段179巷23號","121.445918333333","24.9998033333333","6500100","板橋區"
"220030","610-BX","2018/04/27 14:49:15","新北市板橋區金門街159號","121.432803333333","24.990405","6500100","板橋區"
"220050","245-BX","2018/04/27 14:49:11","新北市板橋區縣民大道三段79巷13號","121.475121666667","25.0220366666667","6500100","板橋區"
"220004","276-BY","2018/04/27 14:49:13","新北市板橋區德興街37巷1號","121.453673333333","24.99378","6500100","板橋區"
"220020","277-BY","2018/04/27 14:49:16","新北市板橋區金門街127巷14號","121.433576666667","24.9910583333333","6500100","板橋區"
"220043","283-UM","2018/04/27 14:49:20","新北市板橋區長江路一段27號","121.458386666667","25.0294866666667","6500100","板橋區"
"220019","283-VK","2018/04/27 14:49:23","新北市板橋區和平路178號","121.463468333333","24.9955783333333","6500100","板橋區"
"220001","285-VK","2018/04/27 14:49:15","新北市板橋區民享街13號","121.47511","25.0145233333333","6500100","板橋區"
"220031","286-VK","2018/04/27 14:49:22","新北市板橋區僑中二街100巷38號","121.444486666667","25.0087366666667","6500100","板橋區"
"220029","287-VK","2018/04/27 14:49:20","新北市板橋區僑中一街80巷10弄1號","121.44794","25.0128666666667","6500100","板橋區"
"220039","288-VK","2018/04/27 14:49:29","新北市板橋區幸福路32巷4弄7號","121.461155","25.0214183333333","6500100","板橋區"
"220009","295-UM","2018/04/27 14:49:18","新北市板橋區中山路一段283巷2弄28號","121.470671666667","25.0151983333333","6500100","板橋區"
"220032","296-UM","2018/04/27 14:49:18","新北市板橋區溪崑二街112巷18號","121.425941666667","24.988955","6500100","板橋區"
"220023","303-R5","2018/04/27 14:49:23","新北市板橋區金華街10巷48弄24-3號","121.457845","25.0199716666667","6500100","板橋區"
"220010","305-R5","2018/04/27 14:49:21","新北市板橋區光復街172巷31弄5-2號","121.486141666667","25.018965","6500100","板橋區"
"220041","307-R5","2018/04/27 14:49:23","新北市板橋區四維路259巷28號","121.462006666667","25.0274833333333","6500100","板橋區"
"220047","317-R6","2018/04/27 14:49:15","新北市板橋區裕民街133巷3號","121.459246666667","25.0270733333333","6500100","板橋區"
"220012","486-VK","2018/04/27 14:49:17","新北市板橋區實踐路132號","121.464478333333","25.00272","6500100","板橋區"
"220037","491-VK","2018/04/27 14:49:25","新北市板橋區仁化街189號","121.478481666667","25.034","6500100","板橋區"
"220052","561-BX","2018/04/27 14:49:13","新北市板橋區陽明街29巷32號","121.463766666667","25.0227416666667","6500100","板橋區"
"220011","609-BX","2018/04/27 14:49:27","新北市板橋區中山路二段397號","121.480395","25.0194216666667","6500100","板橋區"
"220003","630-UY","2018/04/27 14:49:10","新北市板橋區仁愛路62巷15弄1號","121.45997","24.99851","6500100","板橋區"
"220040","637-BX","2018/04/27 14:49:20","新北市板橋區文聖街149巷2號","121.478705","25.02809","6500100","板橋區"
"220005","686-BX","2018/04/27 14:49:20","新北市板橋區信義路48號","121.45716","24.9943933333333","6500100","板橋區"
"220025","687-BX","2018/04/27 14:49:15","新北市板橋區僑中一街118號","121.446108333333","25.0116983333333","6500100","板橋區"
"220042","689-BX","2018/04/27 14:49:20","新北市板橋區長江路二段67號","121.464741666667","25.03154","6500100","板橋區"
"220002","741-BX","2018/04/27 14:49:22","新北市板橋區忠孝路201巷66號","121.464836666667","25.0041816666667","6500100","板橋區"
"220051","KEA-2699","2018/04/27 14:49:25","新北市板橋區仁化街8號","121.47437","25.0315","6500100","板橋區"
"220014","829-TW","2018/04/27 14:49:14","新北市板橋區長安街331巷19弄8號","121.473451666667","25.0122833333333","6500100","板橋區"
"220045","830-TW","2018/04/27 14:49:09","新北市板橋區民生路二段226巷31弄1號","121.471075","25.0221816666667","6500100","板橋區"
"220038","833-TW","2018/04/27 14:49:16","新北市板橋區龍泉街82巷10號","121.455846666667","25.02558","6500100","板橋區"
"220022","895-R6","2018/04/27 14:49:19","新北市板橋區館前西路68號","121.457593333333","25.0070916666667","6500100","板橋區"
"220021","985-R7","2018/04/27 14:49:14","新北市板橋區南雅西路二段120號","121.45212","25.0124233333333","6500100","板橋區"
"220046","AAC-210","2018/04/27 14:49:29","新北市板橋區漢生西路56號","121.463013333333","25.0187983333333","6500100","板橋區"
"220018","AAC-253","2018/04/27 14:49:19","新北市板橋區館前東路132號","121.463991666667","25.007855","6500100","板橋區"
