"lineid","car","time","location","longitude","latitude","cityid","cityname"
"234025","9371-KE","2018/04/27 14:59:23","新北市中和區永貞路280號","121.513195","25.0039383333333","6500400","永和區"
"248019","225-UY","2018/04/27 14:59:13","新北市五股區中直路25號","121.421545","25.1138966666667","6501500","五股區"
"244004","248-BX","2018/04/27 14:59:24","新北市林口區竹林路267號","121.389628333333","25.0807966666667","6501700","林口區"
"231002","002-UM","2018/04/27 14:59:27","新北市新店區中正路516-1號","121.533783333333","24.9834833333333","6500600","新店區"
"231001","047-UY","2018/04/27 14:59:21","新北市新店區中正路274號","121.538886666667","24.9736383333333","6500600","新店區"
"231005","106-UY","2018/04/27 14:59:17","新北市新店區寶慶街58巷2號","121.542046666667","24.98664","6500600","新店區"
"231022","108-UY","2018/04/27 14:59:17","新北市新店區永福路54-2號","121.558268333333","24.9286966666667","6500600","新店區"
"231012","187-VK","2018/04/27 14:59:27","新北市新店區寶橋路82號","121.546376666667","24.9755966666667","6500600","新店區"
"231023","KEA-2219","2018/04/27 14:59:16","新北市新店區檳榔路123號","121.544653333333","24.961495","6500600","新店區"
"231026","256-BX","2018/04/27 14:59:22","新北市新店區中正路135號","121.541826666667","24.9714466666667","6500600","新店區"
"231003","268-BY","2018/04/27 14:59:24","新北市新店區中興路二段188號","121.548303333333","24.9728283333333","6500600","新店區"
"231018","278-BY","2018/04/27 14:59:13","新北市新店區中央六街8號","121.530126666667","24.9745016666667","6500600","新店區"
"231016","AAD-862","2018/04/27 14:59:26","新北市新店區銀河路66-4號","121.57928","24.9587416666667","6500600","新店區"
"231028","355-BY","2018/04/27 14:59:17","新北市新店區安豐路46號","121.500158333333","24.95503","6500600","新店區"
"231038","3712-VJ","2018/04/27 14:59:26","新北市新店區安華路28-1號","121.51967","24.9609066666667","6500600","新店區"
"231025","4715-K9","2018/04/27 14:59:17","新北市新店區大同街14號","121.539495","24.9799983333333","6500600","新店區"
"231036","512-UM","2018/04/27 14:59:14","新北市新店區安祥路102巷30弄23號","121.484741666667","24.9633983333333","6500600","新店區"
"231006","617-UM","2018/04/27 14:59:11","新北市新店區新坡一街72號","121.548936666667","24.964555","6500600","新店區"
"231030","619-UM","2018/04/27 14:59:13","新北市新店區安民街341-1號","121.516738333333","24.974955","6500600","新店區"
"231034","641-BX","2018/04/27 14:59:17","新北市新店區玫瑰路4-1號","121.493623333333","24.9513733333333","6500600","新店區"
"231039","718-UY","2018/04/27 14:59:16","新北市新店區民權路6號","121.542553333333","24.9830083333333","6500600","新店區"
"231035","719-UM","2018/04/27 14:59:13","新北市新店區安利街30號","121.519115","24.9747833333333","6500600","新店區"
"231032","720-UM","2018/04/27 14:59:27","新北市新店區安泰路22-1號","121.485413333333","24.9483383333333","6500600","新店區"
"231029","897-TW","2018/04/27 14:59:16","新北市新店區安康路三段738號","121.473798333333","24.9420316666667","6500600","新店區"
"231004","899-TW","2018/04/27 14:59:23","新北市新店區民族路65號","121.53965","24.9783183333333","6500600","新店區"
"231024","AKT-0513","2018/04/27 14:59:17","新北市新店區中華路83巷21號","121.538773333333","24.968055","6500600","新店區"
"235020","096-UM","2018/04/27 14:59:26","新北市中和區中山路三段136巷2號","121.473985","25.006585","6500300","中和區"
"235003","097-UM","2018/04/27 14:59:12","新北市中和區宜安路18巷7號","121.513613333333","24.99602","6500300","中和區"
"235004","150-BY","2018/04/27 14:59:15","新北市中和區保健路10巷22號","121.507753333333","24.996635","6500300","中和區"
"235013","186-VK","2018/04/27 14:59:24","新北市中和區南華路9號","121.50219","24.9955983333333","6500300","中和區"
"235031","255-BX","2018/04/27 14:59:13","新北市板橋區民生路一段81號","121.474983333333","25.0137716666667","6500300","中和區"
"235008","293-VK","2018/04/27 14:59:15","新北市中和區板南路174號","121.501138333333","24.992755","6500300","中和區"
"235007","352-BY","2018/04/27 14:59:26","新北市中和區興南路二段159巷25號","121.505375","24.9829883333333","6500300","中和區"
"235032","377-QA","2018/04/27 14:59:20","新北市中和區福祥路136號","121.498835","25.006985","6500300","中和區"
"235014","4979-A6","2018/04/27 14:59:28","新北市中和區景平路153號","121.513558333333","24.9917383333333","6500300","中和區"
"235033","4980-A6","2018/04/27 14:59:27","新北市中和區南山路127巷27弄28號","121.503386666667","24.997995","6500300","中和區"
"235034","558-UM","2018/04/27 14:59:10","新北市中和區圓通路165-1號","121.497753333333","24.9954633333333","6500300","中和區"
"235018","640-BX","2018/04/27 14:59:15","新北市中和區中山路三段200號","121.471795","25.0064783333333","6500300","中和區"
"235010","733-UM","2018/04/27 14:59:20","新北市中和區興南路一段105巷20弄4號","121.510361666667","24.985735","6500300","中和區"
"235035","783-BX","2018/04/27 14:59:17","新北市中和區建三路24號","121.486115","25.0021483333333","6500300","中和區"
"235012","896-TW","2018/04/27 14:59:13","新北市中和區忠孝街1巷2-1號","121.509188333333","24.9830833333333","6500300","中和區"
"235030","911-UM","2018/04/27 14:59:12","新北市永和區保平路292巷46弄2號","121.507526666667","25.0053316666667","6500300","中和區"
"235015","157-BY","2018/04/27 14:59:16","新北市中和區南山路234號","121.50664","24.9899483333333","6500300","中和區"
"235001","AAC-213","2018/04/27 14:59:25","新北市中和區自立路99巷1號","121.52219","24.9948483333333","6500300","中和區"
"235023","AAC-215","2018/04/27 14:59:06","新北市中和區圓通路335巷3弄2號","121.492593333333","24.9901516666667","6500300","中和區"
"220013","072-UY","2018/04/27 14:59:11","新北市板橋區民生路一段33號","121.476521666667","25.0120566666667","6500100","板橋區"
"220105","075-UY","2018/04/27 14:59:15","新北市板橋區文聖街13號","121.475601666667","25.0323883333333","6500100","板橋區"
"220017","AAD-861","2018/04/27 14:59:09","新北市板橋區貴興路111號","121.455831666667","25.0025666666667","6500100","板橋區"
"247003","337-TH","2018/04/27 14:59:12","新北市蘆洲區長安街97號","121.461735","25.0807816666667","6501400","蘆洲區"
"235036","251-BX","2018/04/27 14:59:16","新北市中和區板南路399巷2號","121.493561666667","24.9989816666667","6500300","中和區"
"227011","400-TW","2018/04/27 14:59:29","新北市雙溪區三貂里政光路3-1號","121.850913333333","25.0631033333333","6502500","雙溪區"
"207002","749-BX","2018/04/27 14:59:15","新北市萬里區崁腳里崁腳路73號","121.647618333333","25.1596083333333","6502800","萬里區"
"207001","662-BX","2018/04/27 14:58:34","新北市萬里區雙興里麗水路3-1號","121.653276666667","25.1800733333333","6502800","萬里區"
"236067","105-UM","2018/04/27 14:59:24","新北市土城區裕生路84巷4號","121.447036666667","24.9855583333333","6501300","土城區"
"236040","107-UM","2018/04/27 14:59:21","新北市土城區裕民路214巷7號","121.45303","24.9840333333333","6501300","土城區"
"236077","166-UM","2018/04/27 14:59:15","新北市土城區中州路24巷15號","121.414941666667","24.95774","6501300","土城區"
"236029","253-BX","2018/04/27 14:59:13","新北市土城區慶利街16號","121.439795","24.9736433333333","6501300","土城區"
"236024","269-VK","2018/04/27 14:59:29","新北市土城區中正路76號","121.444631666667","24.9754266666667","6501300","土城區"
"236013","270-VK","2018/04/27 14:59:16","新北市土城區立德路29巷8號","121.462258333333","24.9882416666667","6501300","土城區"
"236032","271-VK","2018/04/27 14:59:25","新北市土城區清水路166號","121.459798333333","24.9812983333333","6501300","土城區"
"236016","401-BY","2018/04/27 14:59:19","新北市土城區延吉街217巷1弄1號","121.468606666667","24.9850383333333","6501300","土城區"
"236057","912-UM","2018/04/27 14:59:15","新北市土城區清水路5號","121.453091666667","24.9803933333333","6501300","土城區"
"236045","913-UM","2018/04/27 14:59:26","新北市土城區明德路一段398-1號","121.453663333333","24.9791183333333","6501300","土城區"
"236054","AAC-216","2018/04/27 14:59:28","新北市土城區學府路一段169號","121.452665","24.9854966666667","6501300","土城區"
"242001","233-RS","2018/04/27 14:59:23","新北市樹林區中山路三段204號","121.386846666667","24.96832","6500500","新莊區"
"221002","707-TV","2018/04/27 14:59:09","新北市汐止區莊敬街33號","121.656831666667","25.0612783333333","6501100","汐止區"
"220027","145-BY","2018/04/27 14:59:17","新北市板橋區大觀路一段29巷131弄125號","121.451903333333","25.0051466666667","6500100","板橋區"
"220050","245-BX","2018/04/27 14:59:21","新北市板橋區萬板路128號","121.475006666667","25.0234266666667","6500100","板橋區"
"220020","277-BY","2018/04/27 14:59:16","新北市板橋區金門街111-3號","121.43311","24.9920883333333","6500100","板橋區"
"220043","283-UM","2018/04/27 14:59:18","新北市板橋區文德路25號","121.462098333333","25.0240616666667","6500100","板橋區"
"220019","283-VK","2018/04/27 14:59:23","新北市板橋區干城路167號","121.461018333333","24.9916933333333","6500100","板橋區"
"220001","285-VK","2018/04/27 14:59:24","新北市板橋區永豐街12號","121.474901666667","25.01686","6500100","板橋區"
"220031","286-VK","2018/04/27 14:59:21","新北市板橋區僑中二街108巷22號","121.444906666667","25.0075133333333","6500100","板橋區"
"220029","287-VK","2018/04/27 14:59:29","新北市板橋區僑中一街80巷7弄6號","121.44754","25.012815","6500100","板橋區"
"220009","295-UM","2018/04/27 14:59:18","新北市板橋區縣民大道二段200巷1號","121.469603333333","25.01722","6500100","板橋區"
"220010","305-R5","2018/04/27 14:59:21","新北市板橋區民生路二段36-1號","121.472411666667","25.016825","6500100","板橋區"
"220041","307-R5","2018/04/27 14:59:20","新北市板橋區四維路269巷94弄13號","121.459261666667","25.0268716666667","6500100","板橋區"
"220047","317-R6","2018/04/27 14:59:14","新北市板橋區新海路72巷61號","121.461518333333","25.02373","6500100","板橋區"
"220012","486-VK","2018/04/27 14:59:17","新北市板橋區漢生東路217號","121.470776666667","25.010175","6500100","板橋區"
"220037","491-VK","2018/04/27 14:59:28","新北市板橋區文聖街115號","121.47793","25.029135","6500100","板橋區"
"220052","561-BX","2018/04/27 14:59:24","新北市板橋區文化路一段435巷31弄1號","121.466946666667","25.022995","6500100","板橋區"
"220011","609-BX","2018/04/27 14:59:12","新北市板橋區三民路一段140號","121.47915","25.0204283333333","6500100","板橋區"
"220003","630-UY","2018/04/27 14:59:10","新北市板橋區仁愛路75號","121.460956666667","24.9996933333333","6500100","板橋區"
"220040","637-BX","2018/04/27 14:59:20","新北市板橋區民治街121號","121.478285","25.0310466666667","6500100","板橋區"
"220005","686-BX","2018/04/27 14:59:20","新北市板橋區四川路二段130巷1-2號","121.449953333333","24.9937966666667","6500100","板橋區"
"220025","687-BX","2018/04/27 14:59:15","新北市板橋區僑中一街124巷29號","121.446468333333","25.015055","6500100","板橋區"
"220042","689-BX","2018/04/27 14:59:20","新北市板橋區文化路二段590號","121.476948333333","25.034865","6500100","板橋區"
"220051","KEA-2699","2018/04/27 14:59:25","新北市板橋區懷德街66巷35號","121.476295","25.0315183333333","6500100","板橋區"
"220014","829-TW","2018/04/27 14:59:14","新北市板橋區中山路一段206巷4弄12號","121.46968","25.0127866666667","6500100","板橋區"
"220045","830-TW","2018/04/27 14:59:29","新北市板橋區莒光路133巷22號","121.472703333333","25.0245316666667","6500100","板橋區"
"220038","833-TW","2018/04/27 14:59:22","新北市板橋區新海路403巷18號","121.457721666667","25.02635","6500100","板橋區"
"220021","985-R7","2018/04/27 14:59:14","新北市板橋區大觀路二段169巷23號","121.446675","24.9997083333333","6500100","板橋區"
"220046","AAC-210","2018/04/27 14:59:09","新北市板橋區文化路一段221巷10號","121.463338333333","25.0177583333333","6500100","板橋區"
"220018","AAC-253","2018/04/27 14:59:24","新北市板橋區四川路一段127號","121.459895","25.0047716666667","6500100","板橋區"
