"lineid","car","time","location","longitude","latitude","cityid","cityname"
"248019","225-UY","2018/04/27 15:09:13","新北市五股區凌雲路三段24巷21號","121.433843333333","25.1068233333333","6501500","五股區"
"244004","248-BX","2018/04/27 15:09:24","新北市林口區竹林路266號","121.389638333333","25.08081","6501700","林口區"
"231002","002-UM","2018/04/27 15:09:30","新北市新店區中正路654號","121.534058333333","24.9894166666667","6500600","新店區"
"231001","047-UY","2018/04/27 15:09:21","新北市新店區中正路274號","121.538898333333","24.9736416666667","6500600","新店區"
"231005","106-UY","2018/04/27 15:09:28","新北市新店區北新路三段97號","121.541531666667","24.9819533333333","6500600","新店區"
"231022","108-UY","2018/04/27 15:09:17","新北市新店區永福路54-2號","121.558278333333","24.9287016666667","6500600","新店區"
"231012","187-VK","2018/04/27 15:09:27","新北市新店區寶元路一段65號","121.542243333333","24.98584","6500600","新店區"
"231023","KEA-2219","2018/04/27 15:09:16","新北市新店區檳榔路113號","121.544525","24.9614783333333","6500600","新店區"
"231026","256-BX","2018/04/27 15:09:23","新北市新店區建國路78號","121.54055","24.9765333333333","6500600","新店區"
"231003","268-BY","2018/04/27 15:09:26","新北市新店區寶橋路215號","121.548816666667","24.9772566666667","6500600","新店區"
"231018","278-BY","2018/04/27 15:09:13","新北市新店區中央六街82號","121.526803333333","24.9764533333333","6500600","新店區"
"231016","AAD-862","2018/04/27 15:09:26","新北市新店區明山路45號","121.563815","24.9558633333333","6500600","新店區"
"231028","355-BY","2018/04/27 15:09:17","新北市新店區僑愛五路5號","121.499683333333","24.944135","6500600","新店區"
"231038","3712-VJ","2018/04/27 15:09:26","新北市新店區安華路28-1號","121.519655","24.9608866666667","6500600","新店區"
"231037","4716-K9","2018/04/27 15:09:23","新北市新店區安興路56號","121.516518333333","24.9750016666667","6500600","新店區"
"231025","4715-K9","2018/04/27 15:09:17","新北市新店區二十張路46巷37弄21號","121.535891666667","24.9815666666667","6500600","新店區"
"231036","512-UM","2018/04/27 15:09:14","新北市新店區安祥路102巷41號","121.485633333333","24.9641516666667","6500600","新店區"
"231006","617-UM","2018/04/27 15:09:21","新北市新店區新坡一街2號","121.548271666667","24.9606583333333","6500600","新店區"
"231034","641-BX","2018/04/27 15:08:58","新北市新店區玫瑰路4-1號","121.49365","24.9513916666667","6500600","新店區"
"231039","718-UY","2018/04/27 15:09:16","新北市新店區民權路13號","121.542421666667","24.9828816666667","6500600","新店區"
"231035","719-UM","2018/04/27 15:09:14","新北市新店區安和路三段76號","121.518346666667","24.9845316666667","6500600","新店區"
"231032","720-UM","2018/04/27 15:09:27","新北市新店區安泰路76號","121.485966666667","24.9458783333333","6500600","新店區"
"231029","897-TW","2018/04/27 15:09:16","新北市新店區安康路三段738號","121.473821666667","24.94202","6500600","新店區"
"231004","899-TW","2018/04/27 15:09:23","新北市新店區博愛街13巷23號","121.540285","24.9741183333333","6500600","新店區"
"231024","AKT-0513","2018/04/27 15:09:16","新北市新店區北新路一段297巷16號","121.540876666667","24.9678333333333","6500600","新店區"
"235003","097-UM","2018/04/27 15:09:13","新北市中和區宜安路52巷24號","121.512801666667","24.99753","6500300","中和區"
"235004","150-BY","2018/04/27 15:09:15","新北市中和區保健路44巷14號","121.509078333333","24.9967883333333","6500300","中和區"
"235031","255-BX","2018/04/27 15:09:13","新北市五股區新五路二段372巷20號","121.447751666667","25.086505","6500300","中和區"
"235007","352-BY","2018/04/27 15:09:11","新北市中和區興南路二段159巷12號","121.505178333333","24.9832133333333","6500300","中和區"
"235014","4979-A6","2018/04/27 15:09:16","新北市中和區景平路211號","121.510901666667","24.9925033333333","6500300","中和區"
"235033","4980-A6","2018/04/27 15:09:07","新北市中和區中正路440號","121.491026666667","24.9943","6500300","中和區"
"235034","558-UM","2018/04/27 15:09:10","新北市中和區中正路412號","121.492125","24.99427","6500300","中和區"
"235035","783-BX","2018/04/27 15:09:17","新北市中和區立德街321號","121.482021666667","25.0102516666667","6500300","中和區"
"235012","896-TW","2018/04/27 15:09:13","新北市中和區興南路一段159號","121.508521666667","24.9870783333333","6500300","中和區"
"235030","911-UM","2018/04/27 15:09:12","新北市中和區水源路89號","121.506933333333","25.0035416666667","6500300","中和區"
"235001","AAC-213","2018/04/27 15:09:25","新北市中和區自立路193號","121.524296666667","24.9913016666667","6500300","中和區"
"235023","AAC-215","2018/04/27 15:09:26","新北市中和區圓通路367巷5號","121.492265","24.9881433333333","6500300","中和區"
"220017","AAD-861","2018/04/27 15:09:29","新北市板橋區華東街1-10號","121.448458333333","24.9950266666667","6500100","板橋區"
"247003","337-TH","2018/04/27 15:09:12","新北市蘆洲區長安街97號","121.46173","25.08078","6501400","蘆洲區"
"227011","400-TW","2018/04/27 15:09:29","新北市雙溪區三貂里政光路3-1號","121.850966666667","25.0630366666667","6502500","雙溪區"
"207002","749-BX","2018/04/27 15:09:15","新北市萬里區崁腳里內中福路73-1號","121.654966666667","25.166945","6502800","萬里區"
"207001","662-BX","2018/04/27 15:09:10","新北市萬里區大鵬里萬里加投25-1號","121.648253333333","25.2066266666667","6502800","萬里區"
"236067","105-UM","2018/04/27 15:09:13","新北市土城區學成路155號","121.448293333333","24.9893116666667","6501300","土城區"
"236040","107-UM","2018/04/27 15:09:20","新北市土城區裕民路274號","121.455033333333","24.982495","6501300","土城區"
"236077","166-UM","2018/04/27 15:09:15","新北市土城區溪頭路20巷2弄2號","121.412825","24.955515","6501300","土城區"
"236029","253-BX","2018/04/27 15:09:11","新北市土城區中央路二段80巷4弄1號","121.442021666667","24.9790583333333","6501300","土城區"
"236024","269-VK","2018/04/27 15:09:16","新北市土城區中央路二段149巷23號","121.442776666667","24.9767033333333","6501300","土城區"
"236013","270-VK","2018/04/27 15:09:20","新北市土城區學府路一段99巷27號","121.456995","24.9868116666667","6501300","土城區"
"236032","271-VK","2018/04/27 15:09:25","新北市土城區明德路一段92號","121.464766666667","24.9796933333333","6501300","土城區"
"236016","401-BY","2018/04/27 15:09:12","新北市土城區明峰街64號","121.468553333333","24.9868633333333","6501300","土城區"
"236057","912-UM","2018/04/27 15:09:15","新北市土城區金城路一段131號","121.444866666667","24.97378","6501300","土城區"
"236045","913-UM","2018/04/27 15:09:30","新北市土城區清水路296號","121.462573333333","24.9838733333333","6501300","土城區"
"236060","915-UM","2018/04/27 15:09:28","新北市土城區延平街69巷4號","121.467456666667","24.99283","6501300","土城區"
"236054","AAC-216","2018/04/27 15:09:25","新北市土城區學府路一段276號","121.449898333333","24.983015","6501300","土城區"
"242001","233-RS","2018/04/27 15:09:23","新北市樹林區中山路三段210-2號","121.380706666667","24.9669266666667","6500500","新莊區"
"220050","245-BX","2018/04/27 15:09:11","新北市板橋區雙十路二段47巷31號","121.47516","25.0255016666667","6500100","板橋區"
"220001","285-VK","2018/04/27 15:08:52","新北市板橋區懷仁街93號","121.477573333333","25.0181333333333","6500100","板橋區"
"220031","286-VK","2018/04/27 15:09:18","新北市板橋區僑中二街152-1號","121.444378333333","25.0043716666667","6500100","板橋區"
"220029","287-VK","2018/04/27 15:09:18","新北市板橋區僑中一街82號","121.447466666667","25.0116433333333","6500100","板橋區"
"220009","295-UM","2018/04/27 15:09:18","新北市板橋區中山路一段156號","121.465061666667","25.011505","6500100","板橋區"
"220010","305-R5","2018/04/27 15:09:21","新北市板橋區民生路二段56-6號","121.47104","25.0190516666667","6500100","板橋區"
"220041","307-R5","2018/04/27 15:09:13","新北市板橋區漢生西路89巷4弄11號","121.461313333333","25.01866","6500100","板橋區"
"220047","317-R6","2018/04/27 15:09:14","新北市板橋區陽明街51號","121.464776666667","25.0224266666667","6500100","板橋區"
"220037","491-VK","2018/04/27 15:09:25","新北市板橋區懷德街55號","121.477253333333","25.0327716666667","6500100","板橋區"
"220052","561-BX","2018/04/27 15:09:13","新北市板橋區陽明街279巷35-1號","121.461063333333","25.025645","6500100","板橋區"
"220003","630-UY","2018/04/27 15:09:30","新北市板橋區仁愛路23號","121.458966666667","24.9995183333333","6500100","板橋區"
"220025","687-BX","2018/04/27 15:09:15","新北市板橋區大觀路一段29巷35-4號","121.451245","25.0078933333333","6500100","板橋區"
"220042","689-BX","2018/04/27 15:09:26","新北市板橋區長江路二段108號","121.465185","25.031455","6500100","板橋區"
"220051","KEA-2699","2018/04/27 15:09:25","新北市板橋區文聖街113號","121.47787","25.0292166666667","6500100","板橋區"
"220014","829-TW","2018/04/27 15:09:14","新北市板橋區中山路一段206巷4弄2號","121.470283333333","25.01315","6500100","板橋區"
"220038","833-TW","2018/04/27 15:09:30","新北市板橋區四維路228號","121.463728333333","25.0278133333333","6500100","板橋區"
"220021","985-R7","2018/04/27 15:09:14","新北市板橋區華東街1-10號","121.448351666667","24.9950083333333","6500100","板橋區"
"220046","AAC-210","2018/04/27 15:09:29","新北市板橋區光正街42號","121.461785","25.01746","6500100","板橋區"
"220018","AAC-253","2018/04/27 15:09:23","新北市板橋區四川路二段245巷55弄1號","121.452375","24.99254","6500100","板橋區"
