"lineid","car","time","location","longitude","latitude","cityid","cityname"
"234067","553-UM","2018/04/27 15:29:19","新北市永和區福和路1號","121.526355","25.0096333333333","6500400","永和區"
"231005","106-UY","2018/04/27 15:39:17","新北市新店區北新路二段106號","121.54298","24.9739416666667","6500600","新店區"
"231022","108-UY","2018/04/27 15:38:13","新北市新店區新烏路一段87巷2號","121.546091666667","24.941965","6500600","新店區"
"231012","187-VK","2018/04/27 15:39:27","新北市新店區寶元路一段109號","121.545703333333","24.9831883333333","6500600","新店區"
"231023","KEA-2219","2018/04/27 15:39:16","新北市新店區中興路一段285號","121.545283333333","24.9686316666667","6500600","新店區"
"231026","256-BX","2018/04/27 15:39:28","新北市新店區三民路30號","121.536755","24.9711316666667","6500600","新店區"
"231003","268-BY","2018/04/27 15:39:23","新北市新店區寶橋路132號","121.547173333333","24.9761666666667","6500600","新店區"
"231018","278-BY","2018/04/27 15:39:13","新北市新店區溪園路87號","121.52881","24.9864833333333","6500600","新店區"
"231016","AAD-862","2018/04/27 15:39:26","新北市新店區北宜路二段51號","121.548941666667","24.9514816666667","6500600","新店區"
"231038","3712-VJ","2018/04/27 15:39:26","新北市新店區吉安街2號","121.517375","24.9656333333333","6500600","新店區"
"231037","4716-K9","2018/04/27 15:39:23","新北市新店區安民街341-1號","121.516783333333","24.9749866666667","6500600","新店區"
"231036","512-UM","2018/04/27 15:39:14","新北市新店區安祥路67巷61號","121.486331666667","24.959315","6500600","新店區"
"231013","513-UM","2018/04/27 15:39:20","新北市新店區永業路81巷1弄6號","121.529943333333","24.9497716666667","6500600","新店區"
"231030","619-UM","2018/04/27 15:39:17","新北市新店區新和街93巷10號","121.52083","24.9867916666667","6500600","新店區"
"231034","641-BX","2018/04/27 15:39:17","新北市新店區如意街51號","121.49333","24.9471966666667","6500600","新店區"
"231039","718-UY","2018/04/27 15:39:16","新北市新店區寶元路二段64巷1號","121.547246666667","24.981115","6500600","新店區"
"231035","719-UM","2018/04/27 15:39:13","新北市新店區安興路96號","121.51521","24.97645","6500600","新店區"
"231032","720-UM","2018/04/27 15:39:27","新北市新店區雙城路133號","121.497951666667","24.938765","6500600","新店區"
"231029","897-TW","2018/04/27 15:39:16","新北市新店區安康路二段317-1號","121.499323333333","24.9565633333333","6500600","新店區"
"231004","899-TW","2018/04/27 15:39:23","新北市新店區民族路108號","121.538221666667","24.9773883333333","6500600","新店區"
"241015","062-VK","2018/04/27 15:39:17","新北市三重區重新路四段121號","121.48521","25.0520433333333","6500200","三重區"
"241017","063-VK","2018/04/27 15:39:29","新北市三重區大仁街20-1號","121.491613333333","25.063405","6500200","三重區"
"241001","265-UM","2018/04/27 15:39:30","新北市三重區成功路97號","121.48798","25.0514916666667","6500200","三重區"
"241007","398-BY","2018/04/27 15:39:14","新北市三重區重新路四段121號","121.485283333333","25.0520466666667","6500200","三重區"
"241014","543-UM","2018/04/27 15:39:20","新北市三重區重新路四段121號","121.485096666667","25.0520016666667","6500200","三重區"
"241029","942-UM","2018/04/27 15:39:16","新北市三重區大同南路204號","121.496795","25.0566633333333","6500200","三重區"
"241033","AAC-255","2018/04/27 15:39:26","新北市三重區重新路五段283號","121.479383333333","25.0489833333333","6500200","三重區"
"235033","4980-A6","2018/04/27 15:39:27","新北市中和區中正路637巷44弄6號","121.485061666667","24.9943766666667","6500300","中和區"
"235046","733-UM","2018/04/27 15:22:22","新北市中和區員山路36巷13號","121.484193333333","24.99085","6500300","中和區"
"235023","AAC-215","2018/04/27 15:39:26","新北市中和區員山路36巷1號","121.48249","24.9903016666667","6500300","中和區"
"247003","337-TH","2018/04/27 15:31:04","新北市五股區中興路三段163號","121.449431666667","25.0808216666667","6501400","蘆洲區"
"227003","642-TC","2018/04/27 15:39:27","新北市雙溪區牡丹里頂坪5-1號","121.86274","25.0386683333333","6502500","雙溪區"
"227011","400-TW","2018/04/27 15:39:08","新北市雙溪區三貂里政光路3-1號","121.850965","25.06313","6502500","雙溪區"
"236067","105-UM","2018/04/27 15:39:13","新北市土城區中央路三段32號","121.43856","24.9691233333333","6501300","土城區"
"236040","107-UM","2018/04/27 15:39:20","新北市土城區城林路6巷80號","121.438406666667","24.98017","6501300","土城區"
"236077","166-UM","2018/04/27 15:39:15","新北市土城區德安街4巷4號","121.422201666667","24.964925","6501300","土城區"
"236029","253-BX","2018/04/27 15:39:11","新北市土城區中央路一段45巷7號","121.44894","24.9901866666667","6501300","土城區"
"236024","269-VK","2018/04/27 15:39:16","新北市土城區裕生路100巷12號","121.44634","24.985115","6501300","土城區"
"236013","270-VK","2018/04/27 15:39:15","新北市土城區四川路18號","121.455443333333","24.9960116666667","6501300","土城區"
"236016","401-BY","2018/04/27 15:39:22","新北市土城區延吉街137巷25弄5號","121.471508333333","24.985135","6501300","土城區"
"236057","912-UM","2018/04/27 15:39:15","新北市土城區中央路一段100號","121.446831666667","24.988545","6501300","土城區"
"236045","913-UM","2018/04/27 15:39:25","新北市土城區金城路三段151號","121.468658333333","24.9882133333333","6501300","土城區"
"236054","AAC-216","2018/04/27 15:39:27","新北市土城區中華路一段10-1號","121.44789","24.9905966666667","6501300","土城區"
"242001","233-RS","2018/04/27 15:39:23","新北市新莊區環河路636-7號","121.437415","25.01167","6500500","新莊區"
"220031","286-VK","2018/04/27 15:39:18","新北市樹林區八德街491-8號","121.403081666667","24.969305","6500100","板橋區"
"220047","317-R6","2018/04/27 15:39:14","新北市板橋區民生路二段188號","121.470025","25.020375","6500100","板橋區"
