"lineid","car","time","location","longitude","latitude","cityid","cityname"
"234046","148-BY","2018/04/27 18:49:14","新北市永和區秀朗路二段124-3號","121.524801666667","25.0014616666667","6500400","永和區"
"234007","207-UY","2018/04/27 18:49:22","新北市永和區文化路166號","121.512133333333","25.015405","6500400","永和區"
"234081","298-R6","2018/04/27 18:49:30","新北市永和區永利路83-1號","121.521323333333","25.00342","6500400","永和區"
"234038","336-UY","2018/04/27 18:49:29","新北市永和區成功路一段53號","121.527038333333","25.0037833333333","6500400","永和區"
"234064","337-UY","2018/04/27 18:49:31","新北市永和區豫溪街217巷3號","121.52522","25.00982","6500400","永和區"
"234086","338-UY","2018/04/27 18:49:31","新北市永和區中正路93號","121.5154","24.9973283333333","6500400","永和區"
"234070","552-UM","2018/04/27 18:49:16","新北市永和區豫溪街193-2號","121.522903333333","25.01028","6500400","永和區"
"234067","553-UM","2018/04/27 18:49:15","新北市中和區永貞路221號","121.513723333333","25.0035466666667","6500400","永和區"
"234017","745-BX","2018/04/27 18:49:28","新北市永和區永和路二段299號","121.515978333333","25.016165","6500400","永和區"
"234030","746-BX","2018/04/27 18:49:31","新北市永和區得和路321號","121.523378333333","24.99965","6500400","永和區"
"234054","KEA-2590","2018/04/27 18:49:16","新北市永和區豫溪街191巷5號","121.523623333333","25.0104216666667","6500400","永和區"
"234013","KEA-2591","2018/04/27 18:49:25","新北市永和區保福路二段133巷30號","121.508993333333","25.013425","6500400","永和區"
"234061","AAD-866","2018/04/27 18:49:31","新北市永和區福和路309巷3號","121.516445","25.0069816666667","6500400","永和區"
"234042","862-TW","2018/04/27 18:49:22","新北市永和區永貞路271號","121.511591666667","25.0048733333333","6500400","永和區"
"234050","863-TW","2018/04/27 18:49:25","新北市永和區竹林路91巷60弄70號","121.522975","25.01231","6500400","永和區"
"234026","9371-KE","2018/04/27 18:49:26","新北市永和區自由街58號","121.513768333333","25.0059533333333","6500400","永和區"
"234011","9373-KE","2018/04/27 18:49:32","新北市永和區文化路124號","121.513098333333","25.0153016666667","6500400","永和區"
"249005","172-UM","2018/04/27 18:49:26","新北市八里區長道坑16-2號","121.394811666667","25.116725","6502300","八里區"
"249001","173-UM","2018/04/27 18:49:15","新北市八里區龍米路二段30號","121.448606666667","25.1398516666667","6502300","八里區"
"249004","303-UY","2018/04/27 18:49:23","新北市八里區忠孝路423號","121.414506666667","25.161465","6502300","八里區"
"248014","025-BX","2018/04/27 18:49:26","新北市五股區民義路一段26號","121.437205","25.083725","6501500","五股區"
"248006","077-UY","2018/04/27 18:49:27","新北市五股區四維路1巷1號","121.466888333333","25.0700483333333","6501500","五股區"
"248008","095-VK","2018/04/27 18:49:27","新北市五股區中興路一段132號","121.465223333333","25.07358","6501500","五股區"
"248018","225-UY","2018/04/27 18:49:29","新北市五股區民義路二段46-6號","121.413778333333","25.1016666666667","6501500","五股區"
"248012","247-BX","2018/04/27 18:49:14","新北市五股區成泰路二段147巷2-2號","121.437493333333","25.08908","6501500","五股區"
"248016","261-SL","2018/04/27 18:49:30","新北市五股區凌雲路一段149巷13-1號","121.448588333333","25.1008766666667","6501500","五股區"
"248010","272-BY","2018/04/27 18:49:18","新北市五股區水碓七路117號","121.430801666667","25.0738083333333","6501500","五股區"
"248004","677-BX","2018/04/27 18:49:34","新北市五股區民義路二段22巷2號","121.420185","25.096855","6501500","五股區"
"248002","678-BX","2018/04/27 18:49:28","新北市五股區成泰路三段513號","121.451361666667","25.1005083333333","6501500","五股區"
"234023","9380-KE","2018/04/27 18:49:30","新北市永和區竹林路119巷45號","121.521883333333","25.0119466666667","6500400","永和區"
"234077","969-R7","2018/04/27 18:49:25","新北市永和區中正路2巷29弄2-1號","121.513808333333","24.9937066666667","6500400","永和區"
"234074","AAC-211","2018/04/27 18:49:15","新北市永和區福和路1號","121.526198333333","25.0098233333333","6500400","永和區"
"234003","AAC-295","2018/04/27 18:49:23","新北市永和區中正路708號","121.516136666667","25.00996","6500400","永和區"
"232011","375-UM","2018/04/27 18:49:19","新北市坪林區坪林街25號","121.711911666667","24.93659","6502000","坪林區"
"244013","069-UM","2018/04/27 18:49:27","新北市林口區文化一路一段133號","121.373776666667","25.0717966666667","6501700","林口區"
"244007","080-UY","2018/04/27 18:49:07","新北市林口區太平嶺30-1號","121.37487","25.1216283333333","6501700","林口區"
"244019","742-UY","2018/04/27 18:49:17","新北市林口區忠孝路616巷17號","121.377265","25.0675583333333","6501700","林口區"
"244023","483-VK","2018/04/27 18:49:20","新北市林口區民權路110號","121.37366","25.08297","6501700","林口區"
"244017","485-VK","2018/04/27 18:49:30","新北市林口區文化二路一段20巷48-1號","121.365195","25.0665466666667","6501700","林口區"
"244009","656-BX","2018/04/27 18:49:29","新北市林口區竹林路358巷20號","121.39303","25.0839416666667","6501700","林口區"
"244011","701-TV","2018/04/27 18:49:15","新北市林口區仁愛路一段285巷116號","121.39508","25.0757316666667","6501700","林口區"
"244025","837-TS","2018/04/27 18:49:26","新北市林口區南勢一街26號","121.360948333333","25.0756883333333","6501700","林口區"
"243012","AAD-798","2018/04/27 18:49:18","新北市泰山區泰林路二段73巷27號","121.43445","25.0579","6501600","泰山區"
"243015","380-SR","2018/04/27 18:49:31","新北市泰山區美寧街57巷2號","121.430393333333","25.0648016666667","6501600","泰山區"
"243014","421-VK","2018/04/27 18:49:15","新北市泰山區犁頭窠3-1號","121.422178333333","25.060555","6501600","泰山區"
"243013","646-TV","2018/04/27 18:49:20","新北市泰山區明志路三段206巷6號","121.42339","25.0381183333333","6501600","泰山區"
"243016","680-BX","2018/04/27 18:49:32","新北市泰山區明志路二段135號","121.427636666667","25.0507616666667","6501600","泰山區"
"222003","436-BY","2018/04/27 18:49:31","新北市深坑區翠谷街15號","121.626595","25.00832","6501800","深坑區"
"222002","659-BX","2018/04/27 18:49:24","新北市深坑區文山路一段69號","121.627113333333","25.001915","6501800","深坑區"
"231041","002-UM","2018/04/27 18:49:24","新北市新店區安華路28-1號","121.519731666667","24.9606016666667","6500600","新店區"
"231040","047-UY","2018/04/27 18:49:28","新北市新店區中央路183-1號","121.536161666667","24.9688333333333","6500600","新店區"
"231044","106-UY","2018/04/27 18:49:13","新北市新店區北新路二段2號","121.542585","24.9706166666667","6500600","新店區"
"231046","107-UY","2018/04/27 18:49:19","新北市新店區直潭路65號","121.53267","24.9422816666667","6500600","新店區"
"231053","108-UY","2018/04/27 18:49:17","新北市新店區新烏路169號","121.545806666667","24.9324316666667","6500600","新店區"
"231048","187-VK","2018/04/27 18:49:25","新北市新店區北新路一段86號","121.541598333333","24.9677","6500600","新店區"
"231054","KEA-2219","2018/04/27 18:49:30","新北市新店區光明街9號","121.538165","24.9593166666667","6500600","新店區"
"231042","268-BY","2018/04/27 18:49:20","新北市新店區光明街129號","121.539283333333","24.9619416666667","6500600","新店區"
"231051","278-BY","2018/04/27 18:49:18","新北市新店區中央路67號","121.532451666667","24.9769433333333","6500600","新店區"
"231050","AAD-862","2018/04/27 18:49:31","新北市新店區光明街23號","121.538361666667","24.9596","6500600","新店區"
"231059","355-BY","2018/04/27 18:49:23","新北市新店區安華路28-1號","121.519295","24.9608933333333","6500600","新店區"
"231058","3713-VJ","2018/04/27 18:49:31","新北市新店區中興路一段174號","121.542971666667","24.9645916666667","6500600","新店區"
"231066","4716-K9","2018/04/27 18:49:30","新北市新店區安豐路22巷5-4號","121.501723333333","24.955995","6500600","新店區"
"231056","4715-K9","2018/04/27 18:49:29","新北市新店區大同街2號","121.53978","24.980025","6500600","新店區"
"231067","4772-VM","2018/04/27 18:49:28","新北市新店區安康路一段291巷50號","121.523006666667","24.9614316666667","6500600","新店區"
"231065","512-UM","2018/04/27 18:49:30","新北市新店區安忠路205巷8號","121.509321666667","24.9548283333333","6500600","新店區"
"231049","513-UM","2018/04/27 18:49:13","新北市新店區環河路116號","121.537095","24.9669","6500600","新店區"
"231063","616-UM","2018/04/27 18:49:18","新北市新店區安華路28-1號","121.519538333333","24.96058","6500600","新店區"
"231045","617-UM","2018/04/27 18:49:30","新北市新店區安康路一段77號","121.529986666667","24.9611066666667","6500600","新店區"
"231061","619-UM","2018/04/27 18:49:20","新北市新店區安華路1-1號","121.519668333333","24.9603816666667","6500600","新店區"
"231064","719-UM","2018/04/27 18:49:34","新北市新店區安華路28-1號","121.519515","24.9612783333333","6500600","新店區"
"231062","720-UM","2018/04/27 18:49:26","新北市新店區安華路28-1號","121.519225","24.961155","6500600","新店區"
"231060","897-TW","2018/04/27 18:49:25","新北市新店區安華路28-1號","121.519435","24.9606583333333","6500600","新店區"
"231043","899-TW","2018/04/27 18:49:19","新北市新店區安康路一段140號","121.526565","24.9629133333333","6500600","新店區"
"231055","AKT-0513","2018/04/27 18:49:24","新北市新店區新生街28號","121.539665","24.9666733333333","6500600","新店區"
"235064","005-UY","2018/04/27 18:49:31","新北市中和區景平路597號","121.497108333333","25.0005633333333","6500300","中和區"
"235063","006-UY","2018/04/27 18:49:34","新北市中和區連城路319巷3弄10號","121.489628333333","24.9956566666667","6500300","中和區"
"235056","096-UM","2018/04/27 18:49:29","新北市中和區員山路611巷5弄5號","121.478108333333","25.0112333333333","6500300","中和區"
"235039","097-UM","2018/04/27 18:49:03","新北市永和區中正路3號","121.51386","24.9955416666667","6500300","中和區"
"235065","098-UM","2018/04/27 18:49:19","新北市中和區中山路二段2巷41號","121.50258","25.006945","6500300","中和區"
"235040","150-BY","2018/04/27 18:46:59","新北市永和區中正路732巷44號","121.515763333333","25.0108683333333","6500300","中和區"
"235058","151-BY","2018/04/27 18:49:32","新北市中和區連城路380號","121.48078","24.9950916666667","6500300","中和區"
"235055","183-VK","2018/04/27 18:49:17","新北市中和區民生街47號","121.469876666667","25.0052333333333","6500300","中和區"
"235038","185-VK","2018/04/27 18:49:33","新北市中和區立人街24-5號","121.5188","24.9941666666667","6500300","中和區"
"235049","186-VK","2018/04/27 18:49:34","新北市中和區景安路177巷3號","121.505565","24.9942883333333","6500300","中和區"
"235067","255-BX","2018/04/27 18:44:40","新北市中和區中正路879號","121.484465","25.0040666666667","6500300","中和區"
"235044","293-VK","2018/04/27 18:49:14","新北市中和區中興街141號","121.50001","24.991275","6500300","中和區"
"235043","352-BY","2018/04/27 18:49:22","新北市中和區成功路90號","121.52586","24.99124","6500300","中和區"
"235068","377-QA","2018/04/27 18:48:11","新北市中和區中正路211巷13弄8號","121.497296666667","24.9931216666667","6500300","中和區"
"235061","378-QA","2018/04/27 18:49:23","新北市中和區民享街32巷4號","121.473781666667","25.003335","6500300","中和區"
"235050","4979-A6","2018/04/27 18:49:12","新北市中和區忠孝街62巷46號","121.513153333333","24.9839433333333","6500300","中和區"
"235069","4980-A6","2018/04/27 18:49:30","新北市中和區連城路65巷12號","121.497943333333","25.0006866666667","6500300","中和區"
"235042","551-UM","2018/04/27 18:49:27","新北市中和區秀朗路三段100巷1號","121.525605","24.9932733333333","6500300","中和區"
"235070","558-UM","2018/04/27 18:49:15","新北市中和區南山路6號","121.502001666667","24.9986083333333","6500300","中和區"
"235045","565-BX","2018/04/27 18:49:15","新北市中和區景安路194號","121.50432","24.99158","6500300","中和區"
"235054","640-BX","2018/04/27 18:49:22","新北市中和區民享街38-1號","121.473945","25.0030016666667","6500300","中和區"
"235060","647-TV","2018/04/27 18:49:14","新北市中和區中山路三段163號","121.473288333333","25.00619","6500300","中和區"
"235047","732-UM","2018/04/27 18:49:17","新北市中和區興南路二段34巷32號","121.504816666667","24.9861633333333","6500300","中和區"
"235046","733-UM","2018/04/27 18:49:32","新北市中和區仁愛街36巷37號","121.511211666667","24.98688","6500300","中和區"
"235062","800-TS","2018/04/27 18:49:31","新北市中和區中山路二段362號","121.49256","25.0030466666667","6500300","中和區"
"235057","801-TS","2018/04/27 18:49:18","新北市中和區民安街23號","121.480463333333","25.0004016666667","6500300","中和區"
"235041","802-TS","2018/04/27 18:49:27","新北市中和區中安街226號","121.51219","24.9986716666667","6500300","中和區"
"235052","805-TS","2018/04/27 18:49:23","新北市中和區興南路二段399巷90-2號","121.500275","24.9777816666667","6500300","中和區"
"235048","896-TW","2018/04/27 18:49:16","新北市中和區南山路300號","121.507876666667","24.9870783333333","6500300","中和區"
"235053","900-TW","2018/04/27 18:49:16","新北市中和區華福街42巷1弄1號","121.466398333333","24.9963866666667","6500300","中和區"
"235066","911-UM","2018/04/27 18:49:17","新北市中和區水源路7巷4號","121.504046666667","25.003605","6500300","中和區"
"235051","157-BY","2018/04/27 18:49:27","新北市中和區忠孝街106巷9弄9號","121.512553333333","24.98446","6500300","中和區"
"235037","AAC-213","2018/04/27 18:49:30","新北市中和區秀朗路三段128巷7弄2號","121.524501666667","24.9930183333333","6500300","中和區"
"235059","AAC-215","2018/04/27 18:49:30","新北市中和區圓通路395號","121.489615","24.9890733333333","6500300","中和區"
"220068","013-TV","2018/04/27 18:49:28","新北市板橋區民生路二段89-6號","121.470605","25.0190366666667","6500100","板橋區"
"220065","072-UY","2018/04/27 18:49:30","新北市板橋區民族路219巷100號","121.469988333333","25.0087466666667","6500100","板橋區"
"220086","073-UY","2018/04/27 18:49:20","新北市板橋區大智街46號","121.454725","25.015305","6500100","板橋區"
"220106","075-UY","2018/04/27 18:49:21","新北市板橋區民生路二段161巷3號","121.470246666667","25.01979","6500100","板橋區"
"220069","AAD-861","2018/04/27 18:49:23","新北市板橋區縣民大道一段114號","121.457175","25.0058666666667","6500100","板橋區"
"226004","312-R5","2018/04/27 18:49:21","新北市平溪區靜安路二段426號","121.739851666667","25.024765","6502400","平溪區"
"235072","251-BX","2018/04/27 18:49:32","新北市中和區中山路二段75號","121.503773333333","25.0044416666667","6500300","中和區"
"228002","663-BX","2018/04/27 18:49:27","新北市貢寮區福隆里東興街6-11號","121.950716666667","25.02106","6502600","貢寮區"
"228001","670-TC","2018/04/27 18:49:24","新北市貢寮區仁理村保健街73號","121.923745","25.0516516666667","6502600","貢寮區"
"228003","828-UM","2018/04/27 18:49:14","新北市貢寮區和美里龍洞街63-7號","121.917343333333","25.118375","6502600","貢寮區"
"224006","676-BX","2018/04/27 18:49:30","新北市瑞芳區民權街6巷25號","121.806955","25.1066483333333","6501200","瑞芳區"
"224002","639-TC","2018/04/27 18:49:19","新北市瑞芳區靜安路四段10號","121.794945","25.0848416666667","6501200","瑞芳區"
"224008","285-BY","2018/04/27 18:49:22","新北市瑞芳區逢甲路285-1號","121.801488333333","25.1121533333333","6501200","瑞芳區"
"224007","275-VK","2018/04/27 18:49:27","新北市瑞芳區大埔路130號","121.761885","25.1007283333333","6501200","瑞芳區"
"224009","273-VK","2018/04/27 18:49:31","新北市瑞芳區五號路314號","121.857628333333","25.111385","6501200","瑞芳區"
"224005","271-BY","2018/04/27 18:49:26","新北市瑞芳區海濱路78號","121.831015","25.1231083333333","6501200","瑞芳區"
"227003","642-TC","2018/04/27 18:49:35","新北市雙溪區平林里梅竹蹊23號","121.861616666667","25.0359783333333","6502500","雙溪區"
"227011","400-TW","2018/04/27 18:49:28","新北市雙溪區牡丹里聖南14號","121.858293333333","25.0527133333333","6502500","雙溪區"
"253005","032-BX","2018/04/27 18:49:27","新北市石門區中山路3號","121.565433333333","25.2907733333333","6502200","石門區"
"253006","295-VK","2018/04/27 18:49:22","新北市石門區下員坑28-6號","121.516933333333","25.283035","6502200","石門區"
"222001","KEA-2212","2018/04/27 18:49:28","新北市深坑區松柏街30巷2號","121.638676666667","25.0112383333333","6501800","深坑區"
"208002","KEA-2872","2018/04/27 18:49:29","新北市金山區信義路61號","121.635758333333","25.218945","6502700","金山區"
"208003","665-BX","2018/04/27 18:49:29","新北市金山區中山路314號","121.634278333333","25.224765","6502700","金山區"
"208001","761-BX","2018/04/27 18:49:34","新北市金山區文化三路66巷2弄1號","121.634256666667","25.225665","6502700","金山區"
"251001","011-UM","2018/04/27 18:49:33","新北市淡水區自強路108-17號","121.461695","25.1310066666667","6501000","淡水區"
"251010","413-VK","2018/04/27 18:49:20","新北市淡水區沙崙路19號","121.421283333333","25.1813366666667","6501000","淡水區"
"251012","441-VK","2018/04/27 18:49:23","新北市淡水區新興街1號","121.443825","25.180235","6501000","淡水區"
"251009","575-R6","2018/04/27 18:49:22","新北市淡水區重建街134號","121.440458333333","25.1733133333333","6501000","淡水區"
"251011","650-BX","2018/04/27 18:49:29","新北市淡水區學府路10號","121.447486666667","25.1678833333333","6501000","淡水區"
"251002","672-BX","2018/04/27 18:49:27","新北市淡水區學府路63號","121.44838","25.1695416666667","6501000","淡水區"
"251003","673-BX","2018/04/27 18:49:23","新北市淡水區中山北路一段186巷27弄1-1號","121.446376666667","25.1787083333333","6501000","淡水區"
"207003","550-UM","2018/04/27 18:49:20","新北市萬里區大鵬里頂社1號","121.657003333333","25.2097033333333","6502800","萬里區"
"207004","225-TW","2018/04/27 18:49:31","新北市萬里區萬里里獅頭路23號","121.69321","25.1782366666667","6502800","萬里區"
"252002","178-VK","2018/04/27 18:49:33","新北市三芝區中正路一段112號","121.504796666667","25.2564033333333","6502100","三芝區"
"252003","249-BX","2018/04/27 18:49:30","新北市三芝區後厝里大片頭76號","121.459278333333","25.2457116666667","6502100","三芝區"
"252001","292-VK","2018/04/27 18:49:28","新北市三芝區中正路三段9號","121.50301","25.2539183333333","6502100","三芝區"
"237004","KEA-2597","2018/04/27 18:49:32","新北市三峽區有木205-1號","121.439026666667","24.851355","6500900","三峽區"
"237007","153-BY","2018/04/27 18:49:23","新北市三峽區大埔路134巷1號","121.367043333333","24.9046366666667","6500900","三峽區"
"237011","572-TV","2018/04/27 18:49:28","新北市三峽區介壽路二段165號","121.394088333333","24.935965","6500900","三峽區"
"237013","252-BX","2018/04/27 18:49:24","新北市三峽區光明路69巷25號","121.37662","24.9292333333333","6500900","三峽區"
"237012","275-BY","2018/04/27 18:49:15","新北市三峽區三樹路340號","121.383995","24.9433266666667","6500900","三峽區"
"237008","302-VK","2018/04/27 18:49:22","新北市三峽區正義街92號","121.368863333333","24.9176783333333","6500900","三峽區"
"237014","433-BY","2018/04/27 18:49:16","新北市三峽區隆恩街242號","121.35761","24.941085","6500900","三峽區"
"237006","5529-G3","2018/04/27 18:49:27","新北市三峽區溪東路205巷2號","121.404703333333","24.933595","6500900","三峽區"
"237005","AKY-6261","2018/04/27 18:49:17","新北市三峽區文化路189號","121.366743333333","24.9356783333333","6500900","三峽區"
"236069","105-UM","2018/04/27 18:49:15","新北市土城區永豐路157巷1號","121.467441666667","24.981855","6501300","土城區"
"236042","107-UM","2018/04/27 18:49:20","新北市土城區裕民路114巷1號","121.450905","24.9861116666667","6501300","土城區"
"236079","166-UM","2018/04/27 18:49:29","新北市土城區中央路四段67巷38號","121.417883333333","24.9570933333333","6501300","土城區"
"236030","253-BX","2018/04/27 18:49:12","新北市土城區忠義路36巷16號","121.439895","24.9698533333333","6501300","土城區"
"236026","269-VK","2018/04/27 18:49:31","新北市土城區興城路17號","121.44133","24.9721416666667","6501300","土城區"
"236014","270-VK","2018/04/27 18:49:31","新北市土城區金城路二段354巷10號","121.460903333333","24.98448","6501300","土城區"
"236039","271-VK","2018/04/27 18:49:18","新北市土城區明德路一段197號","121.463783333333","24.97891","6501300","土城區"
"236020","401-BY","2018/04/27 18:49:16","新北市土城區延吉街206號","121.46761","24.9849766666667","6501300","土城區"
"236059","912-UM","2018/04/27 18:49:21","新北市土城區中央路三段87號","121.437751666667","24.967895","6501300","土城區"
"236048","913-UM","2018/04/27 18:49:35","新北市土城區青雲路8-1號","121.460243333333","24.9891416666667","6501300","土城區"
"236063","915-UM","2018/04/27 18:49:28","新北市土城區金城路三段139巷20號","121.46774","24.9891266666667","6501300","土城區"
"236055","AAC-216","2018/04/27 18:49:33","新北市土城區裕民路27號","121.448013333333","24.9884483333333","6501300","土城區"
"242027","615-BX","2018/04/27 18:26:50","新北市新莊區新泰路255巷83號","121.442175","25.038865","6500500","新莊區"
"242046","497-BY","2018/04/27 18:49:19","新北市樹林區八德街588號","121.398171666667","24.9692583333333","6500500","新莊區"
"238023","601-UM","2018/04/27 18:49:30","新北市樹林區工興街14巷5號","121.39912","25.013735","6500700","樹林區"
"238019","599-UM","2018/04/27 18:49:14","新北市樹林區東榮街147巷23號","121.414826666667","24.981125","6500700","樹林區"
"238018","571-TV","2018/04/27 18:49:27","新北市樹林區鎮前街156號","121.424495","24.990225","6500700","樹林區"
"238024","5061-A6","2018/04/27 18:49:24","新北市樹林區八德街498號","121.40011","24.9702866666667","6500700","樹林區"
"238022","KEA-2213","2018/04/27 18:49:30","新北市樹林區東興街43號","121.41067","24.9776266666667","6500700","樹林區"
"238025","303-VK","2018/04/27 18:49:16","新北市樹林區中山路三段22號","121.395661666667","24.9729716666667","6500700","樹林區"
"238017","283-BY","2018/04/27 18:49:33","新北市樹林區光興街50號","121.409848333333","25.0027266666667","6500700","樹林區"
"238014","282-BY","2018/04/27 18:49:22","新北市樹林區潭興街107巷2弄19號","121.425026666667","24.9996783333333","6500700","樹林區"
"238020","268-VK","2018/04/27 18:49:12","新北市樹林區俊英街282號","121.423721666667","25.0133633333333","6500700","樹林區"
"238026","172-UY","2018/04/27 18:49:21","新北市樹林區吉祥街31號","121.396155","24.9739033333333","6500700","樹林區"
"238016","169-UY","2018/04/27 18:49:19","新北市樹林區文化街18號","121.419576666667","24.9875283333333","6500700","樹林區"
"239007","AAC-297","2018/04/27 18:49:13","新北市鶯歌區中正一路339號","121.357481666667","24.9570816666667","6500800","鶯歌區"
"239006","891-R6","2018/04/27 18:49:26","新北市鶯歌區鶯桃路296巷74號","121.336666666667","24.961635","6500800","鶯歌區"
"239008","527-UM","2018/04/27 18:49:29","新北市鶯歌區國際二路70巷28號","121.336221666667","24.97541","6500800","鶯歌區"
"239005","526-UM","2018/04/27 18:49:23","新北市鶯歌區大湖路361巷10號","121.330676666667","24.9779016666667","6500800","鶯歌區"
"239001","417-VK","2018/04/27 18:49:23","新北市鶯歌區永明街23號","121.338631666667","24.9558316666667","6500800","鶯歌區"
"239003","360-BY","2018/04/27 18:49:29","新北市鶯歌區鶯桃路658巷49-2號","121.330753333333","24.97018","6500800","鶯歌區"
"239002","359-BY","2018/04/27 18:49:27","新北市鶯歌區中正一路350號","121.357806666667","24.9569716666667","6500800","鶯歌區"
"239004","193-VK","2018/04/27 18:49:16","新北市鶯歌區中正三路230巷12號","121.330053333333","24.93917","6500800","鶯歌區"
"221008","489-VK","2018/04/27 18:49:18","新北市汐止區康寧街901號","121.651376666667","25.0749433333333","6501100","汐止區"
"221036","130-UY","2018/04/27 18:49:21","新北市汐止區仁愛路326號","121.664305","25.0680466666667","6501100","汐止區"
"221015","131-UY","2018/04/27 18:49:28","新北市汐止區鄉長路一段43號","121.665278333333","25.0750033333333","6501100","汐止區"
"221010","269-BY","2018/04/27 18:49:17","新北市汐止區康寧街901號","121.651553333333","25.0749916666667","6501100","汐止區"
"221012","278-VK","2018/04/27 18:49:24","新北市汐止區康寧街901號","121.650831666667","25.0751666666667","6501100","汐止區"
"221023","279-VK","2018/04/27 18:49:18","新北市汐止區汐萬路一段256巷3號","121.652375","25.0745933333333","6501100","汐止區"
"221032","280-BY","2018/04/27 18:49:30","新北市汐止區橫科路121巷52弄3號","121.62248","25.0509016666667","6501100","汐止區"
"221027","281-BY","2018/04/27 18:49:23","新北市汐止區康寧街901號","121.651458333333","25.0749616666667","6501100","汐止區"
"221029","298-VK","2018/04/27 18:49:13","新北市汐止區樟樹二路68號","121.640208333333","25.0624566666667","6501100","汐止區"
"221031","353-TW","2018/04/27 18:49:32","新北市汐止區福德一路300巷2弄1號","121.631063333333","25.0636783333333","6501100","汐止區"
"221035","622-UM","2018/04/27 18:49:25","新北市汐止區康寧街901號","121.65158","25.0749733333333","6501100","汐止區"
"221025","623-UM","2018/04/27 18:49:27","新北市汐止區仁愛路32號","121.660335","25.0628183333333","6501100","汐止區"
"221038","646-BX","2018/04/27 18:49:13","新北市汐止區康寧街901號","121.65071","25.0752466666667","6501100","汐止區"
"221033","647-BX","2018/04/27 18:49:26","新北市汐止區南勢街1巷2號","121.626948333333","25.03748","6501100","汐止區"
"221002","707-TV","2018/04/27 18:49:22","新北市汐止區大同路一段185號","121.633176666667","25.0570783333333","6501100","汐止區"
"221018","753-BX","2018/04/27 18:49:29","新北市汐止區大同路二段407號","121.658283333333","25.067195","6501100","汐止區"
"220079","145-BY","2018/04/27 18:49:19","新北市板橋區民權路202巷7弄10號","121.459781666667","25.01485","6500100","板橋區"
"220080","200-UY","2018/04/27 18:49:29","新北市板橋區大觀路二段375巷13號","121.441085","24.9977966666667","6500100","板橋區"
"220082","610-BX","2018/04/27 18:49:16","新北市板橋區篤行路三段93號","121.42651","24.984785","6500100","板橋區"
"220101","245-BX","2018/04/27 18:49:16","新北市板橋區民生路二段161巷7號","121.470053333333","25.0196133333333","6500100","板橋區"
"220056","276-BY","2018/04/27 18:49:33","新北市板橋區信義路63號","121.45729","24.9955966666667","6500100","板橋區"
"220072","277-BY","2018/04/27 18:49:29","新北市板橋區大觀路三段59巷15號","121.434223333333","24.9954083333333","6500100","板橋區"
"220094","283-UM","2018/04/27 18:49:23","新北市板橋區民生路二段161巷1號","121.470035","25.0199833333333","6500100","板橋區"
"220071","283-VK","2018/04/27 18:49:32","新北市板橋區重慶路245巷67弄6號","121.46559","25.0013566666667","6500100","板橋區"
"220053","285-VK","2018/04/27 18:49:35","新北市板橋區民生路二段107號","121.471021666667","25.01796","6500100","板橋區"
"220083","286-VK","2018/04/27 18:49:32","新北市板橋區僑中二街12巷36-1號","121.445295","25.0109966666667","6500100","板橋區"
"220081","287-VK","2018/04/27 18:49:23","新北市板橋區光華街13巷27號","121.453148333333","25.0112783333333","6500100","板橋區"
"220090","288-VK","2018/04/27 18:49:23","新北市板橋區民生路二段161巷9號","121.470308333333","25.0196666666667","6500100","板橋區"
"220084","296-UM","2018/04/27 18:49:19","新北市板橋區大觀路二段150巷20號","121.441686666667","24.9994766666667","6500100","板橋區"
"220075","303-R5","2018/04/27 18:49:29","新北市板橋區館前西路162號","121.452911666667","25.0086083333333","6500100","板橋區"
"220062","305-R5","2018/04/27 18:49:26","新北市板橋區觀光街2-1號","121.47237","25.0153483333333","6500100","板橋區"
"220092","307-R5","2018/04/27 18:49:29","新北市板橋區民生路二段120號","121.470613333333","25.0196733333333","6500100","板橋區"
"220098","317-R6","2018/04/27 18:49:19","新北市板橋區民生路二段161巷3號","121.470108333333","25.01978","6500100","板橋區"
"220064","486-VK","2018/04/27 18:49:32","新北市板橋區民生路二段17號","121.472603333333","25.016195","6500100","板橋區"
"220088","491-VK","2018/04/27 18:49:34","新北市板橋區民生路二段171號","121.469915","25.020175","6500100","板橋區"
"220035","560-BX","2018/04/27 18:49:32","新北市板橋區中正路275巷36號","121.45437","25.01851","6500100","板橋區"
"220103","561-BX","2018/04/27 18:49:15","新北市板橋區民生路二段161巷5號","121.470255","25.01972","6500100","板橋區"
"220063","609-BX","2018/04/27 18:49:22","新北市板橋區民生路二段121號","121.470833333333","25.0182166666667","6500100","板橋區"
"220055","630-UY","2018/04/27 18:49:17","新北市板橋區縣民大道一段322號","121.461735","25.0110766666667","6500100","板橋區"
"220091","637-BX","2018/04/27 18:49:30","新北市板橋區民生路二段161巷1號","121.470001666667","25.0200916666667","6500100","板橋區"
"220057","686-BX","2018/04/27 18:49:17","新北市板橋區華東街260號","121.45279","25.0018166666667","6500100","板橋區"
"220077","687-BX","2018/04/27 18:49:29","新北市板橋區僑中二街152號","121.44477","25.0043716666667","6500100","板橋區"
"220093","689-BX","2018/04/27 18:49:19","新北市板橋區民生路二段161巷1號","121.47011","25.02011","6500100","板橋區"
"220054","741-BX","2018/04/27 18:49:28","新北市板橋區館前西路46巷3號","121.458876666667","25.0071233333333","6500100","板橋區"
"220102","KEA-2699","2018/04/27 18:49:17","新北市板橋區民生路二段161巷1號","121.470186666667","25.0200416666667","6500100","板橋區"
"220067","829-TW","2018/04/27 18:49:17","新北市板橋區三民路二段正隆巷75號","121.476133333333","25.01298","6500100","板橋區"
"220074","895-R6","2018/04/27 18:49:30","新北市板橋區南門街10號","121.457425","25.0090966666667","6500100","板橋區"
"220073","985-R7","2018/04/27 18:49:25","新北市板橋區南雅西路二段4號","121.453666666667","25.008965","6500100","板橋區"
"220070","AAC-253","2018/04/27 18:49:25","新北市板橋區南雅南路二段120-1號","121.452301666667","24.9996833333333","6500100","板橋區"
