"lineid","car","time","location","longitude","latitude","cityid","cityname"
"234046","148-BY","2018/04/27 18:59:14","新北市永和區得和路373巷31弄2號","121.525125","25.0004383333333","6500400","永和區"
"234007","207-UY","2018/04/27 18:59:22","新北市永和區永和路二段94號","121.514973333333","25.0115233333333","6500400","永和區"
"234081","298-R6","2018/04/27 18:59:30","新北市永和區永亨路70號","121.52126","25.0058916666667","6500400","永和區"
"234038","336-UY","2018/04/27 18:59:29","新北市永和區成功路二段203號","121.526545","24.996","6500400","永和區"
"234064","337-UY","2018/04/27 18:59:31","新北市永和區秀朗路一段186號","121.519105","25.0032266666667","6500400","永和區"
"234086","338-UY","2018/04/27 18:59:31","新北市永和區永寧街133巷1號","121.51804","25.0049916666667","6500400","永和區"
"234070","552-UM","2018/04/27 18:59:32","新北市永和區竹林路124巷32號","121.518188333333","25.0116066666667","6500400","永和區"
"234067","553-UM","2018/04/27 18:59:35","新北市永和區永和路一段32號","121.513073333333","25.004895","6500400","永和區"
"234017","745-BX","2018/04/27 18:59:28","新北市永和區永和路二段297號","121.516038333333","25.016075","6500400","永和區"
"234030","746-BX","2018/04/27 18:59:31","新北市永和區四維街71號","121.525435","24.9980183333333","6500400","永和區"
"234054","KEA-2590","2018/04/27 18:59:16","新北市永和區竹林路64號","121.518265","25.01345","6500400","永和區"
"234013","KEA-2591","2018/04/27 18:59:25","新北市永和區中山路一段46號","121.513198333333","25.0108666666667","6500400","永和區"
"234061","AAD-866","2018/04/27 18:59:31","新北市永和區福和路309巷1號","121.51631","25.007055","6500400","永和區"
"234042","862-TW","2018/04/27 18:59:26","新北市永和區永貞路271號","121.51168","25.004905","6500400","永和區"
"234050","863-TW","2018/04/27 18:59:25","新北市永和區文化路194號","121.510831666667","25.0162566666667","6500400","永和區"
"234026","9371-KE","2018/04/27 18:59:30","新北市永和區安樂路453號","121.51433","25.0050383333333","6500400","永和區"
"234011","9373-KE","2018/04/27 18:59:32","新北市永和區文化路94號","121.513726666667","25.0152233333333","6500400","永和區"
"249005","172-UM","2018/04/27 18:59:26","新北市八里區長道坑2號","121.393375","25.1239966666667","6502300","八里區"
"249001","173-UM","2018/04/27 18:59:35","新北市八里區龍米路二段192號","121.433831666667","25.1585216666667","6502300","八里區"
"248006","077-UY","2018/04/27 18:59:27","新北市五股區中興路一段67號","121.467675","25.0725316666667","6501500","五股區"
"248008","095-VK","2018/04/27 18:59:27","新北市五股區中興路一段118巷6弄7號","121.466315","25.0743816666667","6501500","五股區"
"248018","225-UY","2018/04/27 18:59:17","新北市五股區民義路二段22巷35-1號","121.424166666667","25.10092","6501500","五股區"
"248012","247-BX","2018/04/27 18:59:31","新北市五股區中興路四段48巷11號","121.43855","25.0835383333333","6501500","五股區"
"248016","261-SL","2018/04/27 18:59:30","新北市五股區成泰路三段543巷16號","121.450943333333","25.1022766666667","6501500","五股區"
"248010","272-BY","2018/04/27 18:59:18","新北市五股區水碓七路1號","121.428038333333","25.0713933333333","6501500","五股區"
"248004","677-BX","2018/04/27 18:59:14","新北市五股區民義路二段116號","121.403688333333","25.1113283333333","6501500","五股區"
"248002","678-BX","2018/04/27 18:59:28","新北市五股區凌雲路一段158巷6號","121.448013333333","25.102765","6501500","五股區"
"234023","9380-KE","2018/04/27 18:59:33","新北市永和區竹林路75巷33弄47號","121.52111","25.014655","6500400","永和區"
"234077","969-R7","2018/04/27 18:59:21","新北市永和區智光街33號","121.517971666667","24.9988833333333","6500400","永和區"
"234074","AAC-211","2018/04/27 18:59:15","新北市永和區環河東路二段98號","121.524105","25.0103483333333","6500400","永和區"
"234003","AAC-295","2018/04/27 18:59:23","新北市永和區和平街25號","121.513275","25.00986","6500400","永和區"
"232011","375-UM","2018/04/27 18:59:18","新北市坪林區九芎林14-1號","121.707293333333","24.93096","6502000","坪林區"
"244013","069-UM","2018/04/27 18:59:27","新北市林口區麗園二街1巷2-2號","121.376868333333","25.0698933333333","6501700","林口區"
"244019","742-UY","2018/04/27 18:59:17","新北市林口區忠孝路648號","121.379135","25.068565","6501700","林口區"
"244023","483-VK","2018/04/27 18:59:20","新北市林口區文林六街62巷50-1號","121.37124","25.0822716666667","6501700","林口區"
"244017","485-VK","2018/04/27 18:59:30","新北市林口區文化二路一段120巷5號","121.367896666667","25.0699733333333","6501700","林口區"
"244009","656-BX","2018/04/27 18:59:29","新北市林口區台電新村23號","121.387403333333","25.0860866666667","6501700","林口區"
"244011","701-TV","2018/04/27 18:59:15","新北市林口區中正路349號","121.387865","25.0776866666667","6501700","林口區"
"244025","837-TS","2018/04/27 18:59:26","新北市林口區仁愛二路101-1號","121.367801666667","25.075205","6501700","林口區"
"243012","AAD-798","2018/04/27 18:59:18","新北市泰山區福興三街181號","121.432956666667","25.0569716666667","6501600","泰山區"
"243015","380-SR","2018/04/27 18:59:31","新北市泰山區美寧街6號","121.430148333333","25.06346","6501600","泰山區"
"243014","421-VK","2018/04/27 18:59:15","新北市泰山區黎明路23號","121.420901666667","25.0625616666667","6501600","泰山區"
"243010","KEA-2215","2018/04/27 18:59:25","新北市泰山區辭修路30號","121.429006666667","25.058275","6501600","泰山區"
"243009","KEA-2216","2018/04/27 18:59:22","新北市泰山區泰林路二段362號","121.428756666667","25.0636033333333","6501600","泰山區"
"243013","646-TV","2018/04/27 18:59:20","新北市泰山區明志路三段351巷5號","121.422303333333","25.0350516666667","6501600","泰山區"
"243016","680-BX","2018/04/27 18:58:32","新北市泰山區明志路二段152-2號","121.427523333333","25.0505016666667","6501600","泰山區"
"222003","436-BY","2018/04/27 18:59:31","新北市深坑區深南路51-1號","121.62142","25.0101633333333","6501800","深坑區"
"222002","659-BX","2018/04/27 18:59:24","新北市深坑區文山路一段31巷2號","121.629878333333","25.0033116666667","6501800","深坑區"
"231041","002-UM","2018/04/27 18:59:24","新北市新店區環河路62號","121.53703","24.9626766666667","6500600","新店區"
"231040","047-UY","2018/04/27 18:59:28","新北市新店區中正路397號","121.534556666667","24.9773133333333","6500600","新店區"
"231044","106-UY","2018/04/27 18:59:33","新北市新店區寶中路72號","121.547831666667","24.9806216666667","6500600","新店區"
"231046","107-UY","2018/04/27 18:59:19","新北市新店區直潭八街2號","121.534658333333","24.9400533333333","6500600","新店區"
"231053","108-UY","2018/04/27 18:59:17","新北市新店區屈尺路58號","121.547398333333","24.92277","6500600","新店區"
"231048","187-VK","2018/04/27 18:59:25","新北市新店區德正街23巷6號","121.5443","24.9719983333333","6500600","新店區"
"231054","KEA-2219","2018/04/27 18:59:30","新北市新店區北宜路一段168號","121.540358333333","24.9529816666667","6500600","新店區"
"231042","268-BY","2018/04/27 18:59:20","新北市新店區中興路一段290號","121.545833333333","24.9690433333333","6500600","新店區"
"231051","278-BY","2018/04/27 18:59:18","新北市新店區百忍街1號","121.534928333333","24.9754266666667","6500600","新店區"
"231050","AAD-862","2018/04/27 18:59:31","新北市新店區北宜路二段30巷5弄36號","121.548806666667","24.9506216666667","6500600","新店區"
"231059","355-BY","2018/04/27 18:59:23","新北市新店區安華路28-1號","121.51929","24.9609133333333","6500600","新店區"
"231058","3713-VJ","2018/04/27 18:59:32","新北市新店區中興路一段180號","121.54329","24.9647066666667","6500600","新店區"
"231066","4716-K9","2018/04/27 18:59:30","新北市新店區安祥路35-1號","121.491785","24.955565","6500600","新店區"
"231056","4715-K9","2018/04/27 18:59:29","新北市新店區二十張路46巷37弄21-2號","121.535715","24.98153","6500600","新店區"
"231067","4772-VM","2018/04/27 18:59:28","新北市新店區安康路一段207巷1號","121.526041666667","24.962735","6500600","新店區"
"231065","512-UM","2018/04/27 18:59:30","新北市新店區安祥路109巷151弄6號","121.479116666667","24.957485","6500600","新店區"
"231049","513-UM","2018/04/27 18:59:33","新北市新店區中正路454-5號","121.53464","24.9789583333333","6500600","新店區"
"231063","616-UM","2018/04/27 18:58:58","新北市新店區安忠路57巷15號","121.51259","24.9571216666667","6500600","新店區"
"231045","617-UM","2018/04/27 18:59:30","新北市新店區光明街28號","121.538326666667","24.9588316666667","6500600","新店區"
"231061","619-UM","2018/04/27 18:59:20","新北市新店區安華路28-1號","121.51955","24.9607033333333","6500600","新店區"
"231064","719-UM","2018/04/27 18:59:34","新北市新店區安華路28-1號","121.519473333333","24.9611916666667","6500600","新店區"
"231062","720-UM","2018/04/27 18:59:26","新北市新店區安豐路60-1號","121.497868333333","24.9535933333333","6500600","新店區"
"231060","897-TW","2018/04/27 18:59:25","新北市新店區安忠路205巷8號","121.509","24.95477","6500600","新店區"
"231043","899-TW","2018/04/27 18:59:19","新北市新店區北新路二段1號","121.54262","24.9712616666667","6500600","新店區"
"231055","AKT-0513","2018/04/27 18:59:24","新北市新店區新生街13巷22號","121.538968333333","24.96625","6500600","新店區"
"241035","462-BY","2018/04/27 18:59:22","新北市三重區重新路四段121號","121.484865","25.0520483333333","6500200","三重區"
"241029","942-UM","2018/04/27 18:59:17","新北市三重區重安街12號","121.490221666667","25.058235","6500200","三重區"
"235064","005-UY","2018/04/27 18:59:30","新北市中和區中和路49號","121.50022","25.0013683333333","6500300","中和區"
"235063","006-UY","2018/04/27 18:59:14","新北市中和區中正路572號","121.48636","24.9946716666667","6500300","中和區"
"235056","096-UM","2018/04/27 18:59:29","新北市中和區新民街94巷15號","121.48131","25.00899","6500300","中和區"
"235039","097-UM","2018/04/27 18:59:23","新北市中和區宜安路52巷12號","121.512375","24.9969383333333","6500300","中和區"
"235065","098-UM","2018/04/27 18:59:20","新北市中和區勝利路35巷1弄1號","121.498931666667","25.0075433333333","6500300","中和區"
"235040","150-BY","2018/04/27 18:46:59","新北市永和區中正路732巷44號","121.515763333333","25.0108683333333","6500300","中和區"
"235058","151-BY","2018/04/27 18:59:12","新北市中和區連城路534巷2號","121.475306666667","24.991445","6500300","中和區"
"235055","183-VK","2018/04/27 18:59:17","新北市中和區民德路25巷2號","121.469128333333","25.0026983333333","6500300","中和區"
"235038","185-VK","2018/04/27 18:59:13","新北市中和區立人街12-1號","121.519441666667","24.994335","6500300","中和區"
"235049","186-VK","2018/04/27 18:59:34","新北市中和區景安路163號","121.50547","24.9945816666667","6500300","中和區"
"235067","255-BX","2018/04/27 18:44:40","新北市中和區中正路879號","121.484465","25.0040666666667","6500300","中和區"
"235044","293-VK","2018/04/27 18:59:14","新北市中和區中興街161巷4弄1號","121.500595","24.9908483333333","6500300","中和區"
"235043","352-BY","2018/04/27 18:59:22","新北市中和區秀朗路三段133巷11號","121.525896666667","24.9927633333333","6500300","中和區"
"235068","377-QA","2018/04/27 18:55:06","新北市中和區中正路211巷13弄1號","121.497051666667","24.992825","6500300","中和區"
"235061","378-QA","2018/04/27 18:59:27","新北市中和區民享街73號","121.474216666667","25.002005","6500300","中和區"
"235050","4979-A6","2018/04/27 18:59:32","新北市中和區華新街50巷4號","121.507725","24.9840866666667","6500300","中和區"
"235069","4980-A6","2018/04/27 18:59:30","新北市中和區南山路50號","121.502005","24.99751","6500300","中和區"
"235042","551-UM","2018/04/27 18:59:27","新北市中和區秀朗路三段36巷12號","121.525961666667","24.9959716666667","6500300","中和區"
"235070","558-UM","2018/04/27 18:59:15","新北市中和區安和路189號","121.506045","24.9981766666667","6500300","中和區"
"235045","565-BX","2018/04/27 18:59:15","新北市中和區景新街467巷6號","121.513773333333","24.9882016666667","6500300","中和區"
"235054","640-BX","2018/04/27 18:59:22","新北市中和區民享街4號","121.474011666667","25.0051683333333","6500300","中和區"
"235060","647-TV","2018/04/27 18:59:14","新北市中和區中山路三段115號","121.474638333333","25.0060983333333","6500300","中和區"
"235047","732-UM","2018/04/27 18:59:17","新北市中和區興南路二段74巷8號","121.505266666667","24.98465","6500300","中和區"
"235046","733-UM","2018/04/27 18:59:32","新北市中和區興南路一段135巷17號","121.509376666667","24.98698","6500300","中和區"
"235062","800-TS","2018/04/27 18:59:31","新北市中和區中山路二段348巷8號","121.49305","25.0029483333333","6500300","中和區"
"235057","801-TS","2018/04/27 18:59:18","新北市中和區民利街40巷1弄12號","121.478943333333","24.999105","6500300","中和區"
"235041","802-TS","2018/04/27 18:59:27","新北市中和區宜安路116號","121.510318333333","24.997975","6500300","中和區"
"235052","805-TS","2018/04/27 18:59:23","新北市中和區興南路二段347號","121.500546666667","24.9802366666667","6500300","中和區"
"235048","896-TW","2018/04/27 18:59:26","新北市中和區華新街93號","121.508676666667","24.9831333333333","6500300","中和區"
"235053","900-TW","2018/04/27 18:59:16","新北市中和區壽德街26-1號","121.466361666667","24.9944216666667","6500300","中和區"
"235066","911-UM","2018/04/27 18:59:17","新北市中和區中山路二段131巷5弄4號","121.502958333333","25.0028383333333","6500300","中和區"
"235051","157-BY","2018/04/27 18:59:27","新北市中和區忠孝街11巷1號","121.509865","24.983155","6500300","中和區"
"235037","AAC-213","2018/04/27 18:59:28","新北市中和區秀朗路三段10巷14弄41-5號","121.524105","24.9963783333333","6500300","中和區"
"235059","AAC-215","2018/04/27 18:59:30","新北市中和區圓通路367巷20弄23號","121.49149","24.9883566666667","6500300","中和區"
"220068","013-TV","2018/04/27 18:59:29","新北市板橋區中山路二段465巷80號","121.481135","25.0224216666667","6500100","板橋區"
"220065","072-UY","2018/04/27 18:59:30","新北市板橋區民族路287巷5號","121.471123333333","25.0072116666667","6500100","板橋區"
"220086","073-UY","2018/04/27 18:59:19","新北市板橋區中正路184號","121.456196666667","25.0176783333333","6500100","板橋區"
"220106","075-UY","2018/04/27 18:59:27","新北市板橋區莒光路42號","121.470473333333","25.024405","6500100","板橋區"
"220069","AAD-861","2018/04/27 18:59:23","新北市板橋區華興街73-1號","121.457113333333","25.0050516666667","6500100","板橋區"
"247003","337-TH","2018/04/27 18:59:32","新北市五股區中興路三段163號","121.449293333333","25.0808683333333","6501400","蘆洲區"
"226004","312-R5","2018/04/27 18:59:18","新北市平溪區望古里灰3-1號","121.753973333333","25.0275933333333","6502400","平溪區"
"235072","251-BX","2018/04/27 18:59:12","新北市中和區中山路二段132號","121.50236","25.0034666666667","6500300","中和區"
"228002","663-BX","2018/04/27 18:59:27","新北市貢寮區福隆里東興街106巷25弄1號","121.946408333333","25.018325","6502600","貢寮區"
"228001","670-TC","2018/04/27 18:59:24","新北市貢寮區仁理村研海街12-1號","121.923803333333","25.05173","6502600","貢寮區"
"228003","828-UM","2018/04/27 18:59:27","新北市貢寮區和美里龍洞街46號","121.912635","25.1119566666667","6502600","貢寮區"
"224006","676-BX","2018/04/27 18:59:30","新北市瑞芳區三爪子坑路106巷1-2號","121.808003333333","25.10485","6501200","瑞芳區"
"224008","285-BY","2018/04/27 18:59:30","新北市瑞芳區瑞芳街86號","121.802388333333","25.110175","6501200","瑞芳區"
"224007","275-VK","2018/04/27 18:59:27","新北市瑞芳區大埔路270號","121.75953","25.101405","6501200","瑞芳區"
"224009","273-VK","2018/04/27 18:59:31","新北市瑞芳區洞頂路85號","121.86306","25.1186833333333","6501200","瑞芳區"
"224005","271-BY","2018/04/27 18:59:26","新北市瑞芳區豎崎路32-5號","121.82431","25.1209616666667","6501200","瑞芳區"
"227003","642-TC","2018/04/27 18:59:15","新北市雙溪區平林里康福家園10號","121.858701666667","25.037295","6502500","雙溪區"
"227011","400-TW","2018/04/27 18:59:28","新北市雙溪區牡丹里中正路58巷23號","121.866465","25.0416316666667","6502500","雙溪區"
"253005","032-BX","2018/04/27 18:59:27","新北市石門區中央路37-5號","121.569488333333","25.2963366666667","6502200","石門區"
"253006","295-VK","2018/04/27 18:59:22","新北市石門區八甲9號","121.521716666667","25.2817566666667","6502200","石門區"
"222001","KEA-2212","2018/04/27 18:59:28","新北市深坑區北深路一段264號","121.629395","25.00871","6501800","深坑區"
"208002","KEA-2872","2018/04/27 18:59:29","新北市金山區信義路72號","121.635183333333","25.219505","6502700","金山區"
"208003","665-BX","2018/04/27 18:59:36","新北市金山區中正路101號","121.63296","25.2215566666667","6502700","金山區"
"208001","761-BX","2018/04/27 18:59:14","新北市金山區中山路95號","121.640058333333","25.2189066666667","6502700","金山區"
"251001","011-UM","2018/04/27 18:59:22","新北市淡水區自強路58號","121.463253333333","25.1274183333333","6501000","淡水區"
"251010","413-VK","2018/04/27 18:59:20","新北市淡水區淡海路111號","121.42185","25.1826916666667","6501000","淡水區"
"251012","441-VK","2018/04/27 18:59:23","新北市淡水區新春街142號","121.441831666667","25.1815133333333","6501000","淡水區"
"251009","575-R6","2018/04/27 18:59:22","新北市淡水區重建街23號","121.439868333333","25.1711166666667","6501000","淡水區"
"251007","577-R6","2018/04/27 18:59:24","新北市淡水區民生路113巷1弄41號","121.462883333333","25.1385766666667","6501000","淡水區"
"251002","672-BX","2018/04/27 18:59:27","新北市淡水區中正東路53號","121.446755","25.1679283333333","6501000","淡水區"
"251003","673-BX","2018/04/27 18:59:23","新北市淡水區中山北路一段149巷31號","121.443073333333","25.1778966666667","6501000","淡水區"
"207003","550-UM","2018/04/27 18:59:20","新北市萬里區大鵬里頂社69-1號","121.655488333333","25.2093983333333","6502800","萬里區"
"207004","225-TW","2018/04/27 18:59:31","新北市萬里區萬里里獅頭路23號","121.693201666667","25.1782516666667","6502800","萬里區"
"252002","178-VK","2018/04/27 18:59:13","新北市三芝區中正路一段54號","121.503528333333","25.25804","6502100","三芝區"
"252003","249-BX","2018/04/27 18:59:30","新北市三芝區後厝里北勢子42-1號","121.471693333333","25.2521233333333","6502100","三芝區"
"252001","292-VK","2018/04/27 18:59:28","新北市三芝區中正路三段22號","121.502583333333","25.2530583333333","6502100","三芝區"
"237004","KEA-2597","2018/04/27 18:59:12","新北市三峽區有木206號","121.439076666667","24.8516566666667","6500900","三峽區"
"237007","153-BY","2018/04/27 18:59:23","新北市三峽區中正路二段83巷12號","121.367125","24.9176933333333","6500900","三峽區"
"237011","572-TV","2018/04/27 18:59:28","新北市三峽區介壽路一段225號","121.378925","24.9304816666667","6500900","三峽區"
"237013","252-BX","2018/04/27 18:59:24","新北市三峽區光明路69巷35號","121.377053333333","24.9291933333333","6500900","三峽區"
"237012","275-BY","2018/04/27 18:59:15","新北市三峽區三樹路222巷192-1號","121.388393333333","24.942565","6500900","三峽區"
"237008","302-VK","2018/04/27 18:59:21","新北市三峽區大同路174巷18號","121.372818333333","24.9274383333333","6500900","三峽區"
"237014","433-BY","2018/04/27 18:59:16","新北市三峽區中山路257巷39號","121.362106666667","24.9363733333333","6500900","三峽區"
"237006","5529-G3","2018/04/27 18:59:26","新北市三峽區橫溪路52號","121.396688333333","24.9353583333333","6500900","三峽區"
"237005","AKY-6261","2018/04/27 18:59:17","新北市三峽區中山路459巷163-3號","121.348668333333","24.9329333333333","6500900","三峽區"
"236069","105-UM","2018/04/27 18:59:35","新北市土城區金城路二段221號","121.45505","24.9821083333333","6501300","土城區"
"236042","107-UM","2018/04/27 18:59:20","新北市土城區學府路一段189巷9號","121.452623333333","24.9846083333333","6501300","土城區"
"236079","166-UM","2018/04/27 18:59:29","新北市土城區中央路四段450號","121.410463333333","24.9512216666667","6501300","土城區"
"236030","253-BX","2018/04/27 18:59:32","新北市土城區中央路二段308號","121.440521666667","24.9732183333333","6501300","土城區"
"236026","269-VK","2018/04/27 18:59:30","新北市土城區中正路56巷1號","121.444008333333","24.9751","6501300","土城區"
"236014","270-VK","2018/04/27 18:59:31","新北市土城區延和路13巷14號","121.463638333333","24.98847","6501300","土城區"
"236039","271-VK","2018/04/27 18:59:33","新北市土城區仁愛路17巷1號","121.460566666667","24.9805516666667","6501300","土城區"
"236020","401-BY","2018/04/27 18:59:16","新北市土城區延吉街168巷2弄2號","121.468298333333","24.985615","6501300","土城區"
"236059","912-UM","2018/04/27 18:59:20","新北市土城區清水路5號","121.453078333333","24.9803666666667","6501300","土城區"
"236048","913-UM","2018/04/27 18:59:17","新北市土城區青雲路318-1號","121.458893333333","24.9778466666667","6501300","土城區"
"236063","915-UM","2018/04/27 18:59:34","新北市土城區金城路三段91號","121.466901666667","24.9876466666667","6501300","土城區"
"236055","AAC-216","2018/04/27 18:59:13","新北市土城區學成路11號","121.453271666667","24.9865433333333","6501300","土城區"
"242046","497-BY","2018/04/27 18:59:19","新北市樹林區八德街840號","121.392293333333","24.9685583333333","6500500","新莊區"
"238023","601-UM","2018/04/27 18:59:30","新北市樹林區工興街26號","121.398911666667","25.0131233333333","6500700","樹林區"
"238019","599-UM","2018/04/27 18:59:14","新北市樹林區東榮街91巷2弄5號","121.415958333333","24.9822066666667","6500700","樹林區"
"238018","571-TV","2018/04/27 18:59:27","新北市樹林區中華路116號","121.418056666667","24.980615","6500700","樹林區"
"238022","KEA-2213","2018/04/27 18:59:30","新北市樹林區東順街90巷15號","121.408358333333","24.9766583333333","6500700","樹林區"
"238021","KEA-2539","2018/04/27 18:59:17","新北市樹林區西圳街二段135巷7-9號","121.381776666667","24.9566283333333","6500700","樹林區"
"238025","303-VK","2018/04/27 18:59:16","新北市樹林區民和街67號","121.38111","24.9712466666667","6500700","樹林區"
"238017","283-BY","2018/04/27 18:59:33","新北市樹林區光興街50號","121.409835","25.00274","6500700","樹林區"
"238014","282-BY","2018/04/27 18:59:22","新北市樹林區千歲街134巷7號","121.427623333333","24.9985433333333","6500700","樹林區"
"238020","268-VK","2018/04/27 18:59:32","新北市樹林區俊英街183號","121.424098333333","25.0123516666667","6500700","樹林區"
"238026","172-UY","2018/04/27 18:59:21","新北市樹林區地政街13號","121.394015","24.9718183333333","6500700","樹林區"
"238016","169-UY","2018/04/27 18:59:19","新北市樹林區復興路335巷6弄13號","121.417938333333","24.9870116666667","6500700","樹林區"
"239007","AAC-297","2018/04/27 18:59:34","新北市鶯歌區中山路6號","121.353048333333","24.957265","6500800","鶯歌區"
"239006","891-R6","2018/04/27 18:59:26","新北市鶯歌區鶯桃路296巷86號","121.336796666667","24.9619266666667","6500800","鶯歌區"
"239008","527-UM","2018/04/27 18:59:29","新北市鶯歌區國際二路12巷24號","121.33831","24.9747133333333","6500800","鶯歌區"
"239005","526-UM","2018/04/27 18:59:23","新北市鶯歌區中湖街16號","121.346776666667","24.97274","6500800","鶯歌區"
"239001","417-VK","2018/04/27 18:59:23","新北市鶯歌區鶯桃路95巷55號","121.33768","24.9528933333333","6500800","鶯歌區"
"239003","360-BY","2018/04/27 18:59:29","新北市鶯歌區鶯桃路461號","121.332051666667","24.9658566666667","6500800","鶯歌區"
"239002","359-BY","2018/04/27 18:59:28","新北市鶯歌區西湖街45巷17號","121.339901666667","24.9591166666667","6500800","鶯歌區"
"239004","193-VK","2018/04/27 18:59:16","新北市鶯歌區中正三路335巷5號","121.32849","24.93509","6500800","鶯歌區"
"221008","489-VK","2018/04/27 18:59:18","新北市汐止區汐萬路一段333巷23號","121.648423333333","25.0761633333333","6501100","汐止區"
"221036","130-UY","2018/04/27 18:59:21","新北市汐止區汐萬路一段81號","121.654576666667","25.0703916666667","6501100","汐止區"
"221015","131-UY","2018/04/27 18:59:28","新北市汐止區汐萬路一段292號","121.650666666667","25.0744","6501100","汐止區"
"221010","269-BY","2018/04/27 18:59:17","新北市汐止區康寧街901號","121.65139","25.074975","6501100","汐止區"
"221012","278-VK","2018/04/27 18:59:24","新北市汐止區康寧街901號","121.650868333333","25.075235","6501100","汐止區"
"221023","279-VK","2018/04/27 18:59:18","新北市汐止區康寧街901號","121.650971666667","25.0752166666667","6501100","汐止區"
"221032","280-BY","2018/04/27 18:59:30","新北市汐止區橫科路407巷30弄28號","121.6273","25.0483233333333","6501100","汐止區"
"221027","281-BY","2018/04/27 18:59:23","新北市汐止區康寧街901號","121.651458333333","25.0749616666667","6501100","汐止區"
"221029","298-VK","2018/04/27 18:59:13","新北市汐止區樟樹一路258號","121.642373333333","25.0674283333333","6501100","汐止區"
"221031","353-TW","2018/04/27 18:59:32","新北市汐止區中興路181巷29弄8號","121.629738333333","25.06586","6501100","汐止區"
"221025","623-UM","2018/04/27 18:59:27","新北市汐止區汐萬路一段273號","121.65055","25.0745033333333","6501100","汐止區"
"221038","646-BX","2018/04/27 18:59:33","新北市汐止區康寧街901號","121.650721666667","25.0752683333333","6501100","汐止區"
"221033","647-BX","2018/04/27 18:59:26","新北市汐止區南勢街3號","121.627056666667","25.0373983333333","6501100","汐止區"
"221002","707-TV","2018/04/27 18:59:22","新北市汐止區大同路一段2號","121.621026666667","25.0550783333333","6501100","汐止區"
"221018","753-BX","2018/04/27 18:59:29","新北市汐止區汐萬路一段256巷3號","121.652728333333","25.0744966666667","6501100","汐止區"
"220079","145-BY","2018/04/27 18:59:19","新北市板橋區民權路202巷14弄1號","121.460673333333","25.015935","6500100","板橋區"
"220080","200-UY","2018/04/27 18:59:29","新北市板橋區大觀路二段文和巷67號","121.44358","24.998525","6500100","板橋區"
"220082","610-BX","2018/04/27 18:59:16","新北市板橋區溪崑二街89號","121.427198333333","24.9894383333333","6500100","板橋區"
"220101","245-BX","2018/04/27 18:59:17","新北市板橋區文化路二段169號","121.470571666667","25.027265","6500100","板橋區"
"220056","276-BY","2018/04/27 18:59:33","新北市板橋區信義路148號","121.458918333333","24.991765","6500100","板橋區"
"220072","277-BY","2018/04/27 18:59:29","新北市板橋區大觀路三段50巷59號","121.431828333333","24.9960366666667","6500100","板橋區"
"220094","283-UM","2018/04/27 18:59:23","新北市板橋區莒光路4號","121.469485","25.0248583333333","6500100","板橋區"
"220071","283-VK","2018/04/27 18:59:12","新北市板橋區忠孝路154巷41號","121.46437","25.0011166666667","6500100","板橋區"
"220053","285-VK","2018/04/27 18:59:31","新北市板橋區中山路二段89巷48號","121.473701666667","25.0172333333333","6500100","板橋區"
"220083","286-VK","2018/04/27 18:59:33","新北市板橋區龍興街101巷16號","121.443666666667","25.00349","6500100","板橋區"
"220081","287-VK","2018/04/27 18:59:23","新北市板橋區光華街19巷11號","121.453366666667","25.0119666666667","6500100","板橋區"
"220090","288-VK","2018/04/27 18:59:23","新北市板橋區四維路253號","121.463355","25.027825","6500100","板橋區"
"220061","295-UM","2018/04/27 18:59:17","新北市板橋區富山街109巷69號","121.475343333333","25.0212033333333","6500100","板橋區"
"220084","296-UM","2018/04/27 18:59:19","新北市板橋區龍興街4號","121.442768333333","24.99949","6500100","板橋區"
"220075","303-R5","2018/04/27 18:59:29","新北市板橋區茶館街18號","121.456598333333","25.0107533333333","6500100","板橋區"
"220062","305-R5","2018/04/27 18:59:26","新北市板橋區民享街142巷2號","121.477858333333","25.0164666666667","6500100","板橋區"
"220092","307-R5","2018/04/27 18:59:29","新北市板橋區漢生東路21號","121.464826666667","25.017125","6500100","板橋區"
"220098","317-R6","2018/04/27 18:59:23","新北市板橋區民有街14號","121.466395","25.0248166666667","6500100","板橋區"
"220064","486-VK","2018/04/27 18:57:52","新北市板橋區縣民大道二段100號","121.466785","25.0147116666667","6500100","板橋區"
"220088","491-VK","2018/04/27 18:59:34","新北市板橋區民生路二段232-10號","121.468498333333","25.0224966666667","6500100","板橋區"
"220035","560-BX","2018/04/27 18:59:28","新北市板橋區中正路399巷13弄6號","121.453123333333","25.0224116666667","6500100","板橋區"
"220103","561-BX","2018/04/27 18:59:35","新北市板橋區民生路二段123號","121.470648333333","25.0186733333333","6500100","板橋區"
"220063","609-BX","2018/04/27 18:59:32","新北市板橋區中山路二段106號","121.475895","25.0165116666667","6500100","板橋區"
"220055","630-UY","2018/04/27 18:59:17","新北市板橋區民安街16號","121.466598333333","25.0115083333333","6500100","板橋區"
"220091","637-BX","2018/04/27 18:59:30","新北市板橋區莒光路165巷44號","121.474446666667","25.025175","6500100","板橋區"
"220057","686-BX","2018/04/27 18:58:56","新北市板橋區館前東路62號","121.461143333333","25.0072116666667","6500100","板橋區"
"220077","687-BX","2018/04/27 18:59:33","新北市板橋區大觀路二段146-1號","121.442095","24.998945","6500100","板橋區"
"220093","689-BX","2018/04/27 18:59:19","新北市板橋區民生路三段32-6號","121.4674","25.024875","6500100","板橋區"
"220054","741-BX","2018/04/27 18:59:28","新北市板橋區成都街45號","121.461348333333","25.0050583333333","6500100","板橋區"
"220102","KEA-2699","2018/04/27 18:59:17","新北市板橋區雙十路一段44巷36號","121.47728","25.024895","6500100","板橋區"
"220067","829-TW","2018/04/27 18:59:17","新北市板橋區三民路二段正隆巷12弄20號","121.477545","25.0136466666667","6500100","板橋區"
"220096","830-TW","2018/04/27 18:59:32","新北市板橋區莒光路99號","121.472505","25.024085","6500100","板橋區"
"220089","833-TW","2018/04/27 18:59:14","新北市板橋區文化路二段80號","121.469496666667","25.02549","6500100","板橋區"
"220074","895-R6","2018/04/27 18:59:30","新北市板橋區林園街2號","121.454338333333","25.0092466666667","6500100","板橋區"
"220073","985-R7","2018/04/27 18:59:25","新北市板橋區民權路252號","121.458366666667","25.014695","6500100","板橋區"
"220097","AAC-210","2018/04/27 18:59:23","新北市板橋區漢生東路19號","121.464993333333","25.0174433333333","6500100","板橋區"
"220070","AAC-253","2018/04/27 18:59:25","新北市板橋區四川路一段131號","121.459836666667","25.004625","6500100","板橋區"
