"lineid","car","time","location","longitude","latitude","cityid","cityname"
"234046","148-BY","2018/04/27 19:19:34","新北市永和區得和路359號","121.524478333333","24.9993966666667","6500400","永和區"
"234007","207-UY","2018/04/27 19:19:22","新北市永和區中山路一段277號","121.506926666667","25.0071266666667","6500400","永和區"
"234081","298-R6","2018/04/27 19:19:30","新北市永和區福和路7巷11弄4號","121.525496666667","25.00735","6500400","永和區"
"234038","336-UY","2018/04/27 19:19:29","新北市永和區民樂街70號","121.52742","24.99843","6500400","永和區"
"234064","337-UY","2018/04/27 19:19:31","新北市永和區永元路17巷12號","121.521526666667","25.00097","6500400","永和區"
"234086","338-UY","2018/04/27 19:19:31","新北市永和區永利路72號","121.520288333333","25.004275","6500400","永和區"
"234070","552-UM","2018/04/27 19:19:16","新北市永和區豫溪街72-1號","121.51713","25.0098216666667","6500400","永和區"
"234067","553-UM","2018/04/27 19:19:15","新北市永和區保平路50巷8弄1號","121.510971666667","25.00763","6500400","永和區"
"234017","745-BX","2018/04/27 19:19:28","新北市永和區文化路144巷31弄1號","121.51241","25.0166183333333","6500400","永和區"
"234030","746-BX","2018/04/27 19:19:31","新北市永和區厚德街83號","121.524213333333","24.99872","6500400","永和區"
"234054","KEA-2590","2018/04/27 19:19:16","新北市永和區中興街20號","121.516071666667","25.0118666666667","6500400","永和區"
"234013","KEA-2591","2018/04/27 19:19:25","新北市永和區仁愛路111號","121.512308333333","25.0131066666667","6500400","永和區"
"234061","AAD-866","2018/04/27 19:19:31","新北市永和區秀朗路一段114號","121.516933333333","25.0037166666667","6500400","永和區"
"234042","862-TW","2018/04/27 19:19:21","新北市永和區永貞路285號","121.511163333333","25.0054133333333","6500400","永和區"
"234050","863-TW","2018/04/27 19:19:33","新北市永和區仁愛路104巷4號","121.512068333333","25.0134116666667","6500400","永和區"
"234026","9371-KE","2018/04/27 19:19:26","新北市永和區安樂路144巷31號","121.51518","24.9997133333333","6500400","永和區"
"234011","9373-KE","2018/04/27 19:19:32","新北市永和區保福路二段23巷19號","121.51013","25.0112133333333","6500400","永和區"
"249001","173-UM","2018/04/27 19:19:35","新北市八里區文昌路122號","121.409318333333","25.158125","6502300","八里區"
"249003","593-UM","2018/04/27 19:19:32","新北市八里區中山路二段466巷6號","121.39891","25.147435","6502300","八里區"
"248018","225-UY","2018/04/27 19:19:17","新北市五股區民義路二段12-1號","121.42099","25.0963616666667","6501500","五股區"
"248012","247-BX","2018/04/27 19:19:34","新北市五股區中興路四段48巷16號","121.438563333333","25.0834266666667","6501500","五股區"
"248010","272-BY","2018/04/27 19:19:18","新北市五股區水碓一路23號","121.430568333333","25.0713016666667","6501500","五股區"
"248004","677-BX","2018/04/27 19:19:14","新北市五股區五福路29號","121.433873333333","25.0892483333333","6501500","五股區"
"248002","678-BX","2018/04/27 19:19:28","新北市五股區凌雲路一段158巷11號","121.447723333333","25.1034466666667","6501500","五股區"
"234023","9380-KE","2018/04/27 19:19:30","新北市永和區竹林路105號","121.519828333333","25.0118933333333","6500400","永和區"
"234077","969-R7","2018/04/27 19:19:20","新北市永和區民族街44號","121.518248333333","24.998685","6500400","永和區"
"234074","AAC-211","2018/04/27 19:19:35","新北市永和區竹林路95號","121.519675","25.0121133333333","6500400","永和區"
"234003","AAC-295","2018/04/27 19:19:22","新北市永和區中山路一段142號","121.510098333333","25.0097666666667","6500400","永和區"
"244013","069-UM","2018/04/27 19:19:27","新北市林口區麗園一街9巷2號","121.376755","25.070755","6501700","林口區"
"244019","742-UY","2018/04/27 19:19:17","新北市林口區麗園二街15號","121.379156666667","25.0696166666667","6501700","林口區"
"244023","483-VK","2018/04/27 19:19:20","新北市林口區文化三路一段553號","121.369915","25.0758783333333","6501700","林口區"
"243012","AAD-798","2018/04/27 19:19:18","新北市泰山區仁愛路100巷11號","121.433493333333","25.0552333333333","6501600","泰山區"
"243011","297-R6","2018/04/27 19:19:15","新北市泰山區中央路36巷1號","121.426261666667","25.0427616666667","6501600","泰山區"
"243015","380-SR","2018/04/27 19:19:31","新北市泰山區公園路71號","121.426275","25.0553816666667","6501600","泰山區"
"243014","421-VK","2018/04/27 19:19:35","新北市泰山區泰林路二段203號","121.433185","25.0614766666667","6501600","泰山區"
"243010","KEA-2215","2018/04/27 19:19:25","新北市泰山區明志路一段492巷5號","121.430118333333","25.0546566666667","6501600","泰山區"
"243009","KEA-2216","2018/04/27 19:19:22","新北市泰山區和平街13巷13號","121.434401666667","25.06524","6501600","泰山區"
"243013","646-TV","2018/04/27 19:19:20","新北市泰山區明志路三段145巷2弄1號","121.425418333333","25.0399","6501600","泰山區"
"243016","680-BX","2018/04/27 19:19:34","新北市泰山區工專路51號","121.422798333333","25.0400883333333","6501600","泰山區"
"222003","436-BY","2018/04/27 19:19:31","新北市深坑區深南路204號","121.62662","25.01604","6501800","深坑區"
"222002","659-BX","2018/04/27 19:19:24","新北市深坑區北深路一段177號","121.632571666667","25.0109016666667","6501800","深坑區"
"231041","002-UM","2018/04/27 19:19:24","新北市新店區溪園路245-6號","121.525463333333","24.9833566666667","6500600","新店區"
"231040","047-UY","2018/04/27 19:19:28","新北市新店區三民路31號","121.53808","24.9704066666667","6500600","新店區"
"231044","106-UY","2018/04/27 19:19:33","新北市新店區中興路三段297號","121.542245","24.9852666666667","6500600","新店區"
"231046","107-UY","2018/04/27 19:19:19","新北市新店區華城路36巷1-1號","121.5285","24.9553066666667","6500600","新店區"
"231053","108-UY","2018/04/27 19:19:19","新北市新店區屈尺路55-2號","121.546015","24.9226483333333","6500600","新店區"
"231048","187-VK","2018/04/27 19:19:25","新北市新店區中興路二段79巷11號","121.546361666667","24.9713266666667","6500600","新店區"
"231054","KEA-2219","2018/04/27 19:19:30","新北市新店區國校路4號","121.537936666667","24.95639","6500600","新店區"
"231042","268-BY","2018/04/27 19:19:20","新北市新店區光明街138巷22號","121.54016","24.9609033333333","6500600","新店區"
"231051","278-BY","2018/04/27 19:19:18","新北市新店區中央路68號","121.532473333333","24.977265","6500600","新店區"
"231050","AAD-862","2018/04/27 19:19:31","新北市新店區竹林路157號","121.556125","24.9483983333333","6500600","新店區"
"231059","355-BY","2018/04/27 19:19:23","新北市新店區安和路三段1-1號","121.516936666667","24.9799616666667","6500600","新店區"
"231058","3713-VJ","2018/04/27 19:19:32","新北市新店區北新路一段285號","121.541251666667","24.9669633333333","6500600","新店區"
"231066","4716-K9","2018/04/27 19:19:30","新北市新店區安康路三段355巷17號","121.484866666667","24.9503783333333","6500600","新店區"
"231065","512-UM","2018/04/27 19:19:30","新北市新店區安祥路110巷29號","121.473291666667","24.95644","6500600","新店區"
"231049","513-UM","2018/04/27 19:19:33","新北市新店區北新路三段19號","121.541788333333","24.9795866666667","6500600","新店區"
"231063","616-UM","2018/04/27 19:19:18","新北市新店區達觀路14巷5-3號","121.503445","24.9429483333333","6500600","新店區"
"231045","617-UM","2018/04/27 19:19:30","新北市新店區北宜路一段286號","121.546775","24.9525683333333","6500600","新店區"
"231061","619-UM","2018/04/27 19:19:20","新北市新店區安康路一段65號","121.530373333333","24.9610383333333","6500600","新店區"
"231064","719-UM","2018/04/27 19:19:28","新北市新店區安忠路57巷26弄15號","121.512833333333","24.9585233333333","6500600","新店區"
"231062","720-UM","2018/04/27 19:19:26","新北市新店區莒光路38巷10號","121.522483333333","24.9588883333333","6500600","新店區"
"231060","897-TW","2018/04/27 19:19:25","新北市新店區安康路二段128號","121.512655","24.962485","6500600","新店區"
"231043","899-TW","2018/04/27 19:19:19","新北市新店區北新路二段137號","121.542885","24.9755583333333","6500600","新店區"
"231055","AKT-0513","2018/04/27 19:19:24","新北市新店區中華路83巷67號","121.538316666667","24.967255","6500600","新店區"
"241009","060-VK","2018/04/27 19:19:28","新北市三重區溪尾街230巷44號","121.48604","25.0811033333333","6500200","三重區"
"241031","061-VK","2018/04/27 19:19:26","新北市三重區重新路四段242號","121.485721666667","25.05381","6500200","三重區"
"241017","063-VK","2018/04/27 19:19:28","新北市三重區大同北路217號","121.491595","25.0660316666667","6500200","三重區"
"241022","267-UM","2018/04/27 19:19:33","新北市三重區重陽路二段72號","121.48718","25.064145","6500200","三重區"
"241032","269-UM","2018/04/27 19:19:33","新北市三重區新生街90號","121.48381","25.05926","6500200","三重區"
"241025","271-UM","2018/04/27 19:19:29","新北市三重區中正北路438號","121.474288333333","25.0713","6500200","三重區"
"241007","398-BY","2018/04/27 19:19:31","新北市三重區慈愛街50號","121.48602","25.0791416666667","6500200","三重區"
"241035","462-BY","2018/04/27 19:19:22","新北市三重區重陽路三段5巷42號","121.491898333333","25.0650516666667","6500200","三重區"
"241020","478-VK","2018/04/27 19:19:27","新北市三重區三和路四段32巷81號","121.489001666667","25.07374","6500200","三重區"
"241030","480-VK","2018/04/27 19:19:17","新北市三重區新興路40號","121.491471666667","25.0532983333333","6500200","三重區"
"241006","AAD-863","2018/04/27 19:19:33","新北市三重區力行路二段145號","121.483625","25.0773066666667","6500200","三重區"
"241026","887-TS","2018/04/27 19:19:20","新北市三重區中正南路216號","121.493761666667","25.0552083333333","6500200","三重區"
"241029","942-UM","2018/04/27 19:19:17","新北市三重區重安街27號","121.491063333333","25.05717","6500200","三重區"
"235064","005-UY","2018/04/27 19:19:30","新北市中和區中和路40巷4-3號","121.499721666667","25.001425","6500300","中和區"
"235063","006-UY","2018/04/27 19:19:34","新北市中和區中正路262號","121.495316666667","24.99441","6500300","中和區"
"235056","096-UM","2018/04/27 19:19:29","新北市中和區員山路521號","121.479721666667","25.0067783333333","6500300","中和區"
"235039","097-UM","2018/04/27 19:19:23","新北市中和區景平路64巷14弄22號","121.52272","24.991255","6500300","中和區"
"235065","098-UM","2018/04/27 19:19:19","新北市中和區中山路二段2巷3弄7-1號","121.504578333333","25.0058683333333","6500300","中和區"
"235058","151-BY","2018/04/27 19:19:32","新北市中和區連城路523巷13弄20號","121.482131666667","24.993805","6500300","中和區"
"235055","183-VK","2018/04/27 19:19:17","新北市中和區德光路29號","121.470676666667","25.0042616666667","6500300","中和區"
"235038","185-VK","2018/04/27 19:19:33","新北市中和區景平路126巷2弄11號","121.519541666667","24.9922933333333","6500300","中和區"
"235049","186-VK","2018/04/27 19:19:13","新北市中和區景新街283號","121.509591666667","24.9933966666667","6500300","中和區"
"235067","255-BX","2018/04/27 19:19:20","新北市中和區新生街179號","121.483683333333","25.0006533333333","6500300","中和區"
"235044","293-VK","2018/04/27 19:19:34","新北市中和區復興路307號","121.501325","24.9902266666667","6500300","中和區"
"235043","352-BY","2018/04/27 19:19:22","新北市中和區景平路426號","121.50739","24.9932633333333","6500300","中和區"
"235068","377-QA","2018/04/27 19:19:26","新北市中和區連勝街38巷28號","121.497605","24.9980783333333","6500300","中和區"
"235061","378-QA","2018/04/27 19:19:17","新北市中和區員山路394巷12弄4號","121.481253333333","25.0042733333333","6500300","中和區"
"235050","4979-A6","2018/04/27 19:19:32","新北市中和區景安路208巷4號","121.503698333333","24.9910883333333","6500300","中和區"
"235069","4980-A6","2018/04/27 19:19:30","新北市中和區福祥路83號","121.499096666667","25.0056916666667","6500300","中和區"
"235042","551-UM","2018/04/27 19:19:26","新北市中和區大勇街60巷14弄2號","121.51863","24.9945266666667","6500300","中和區"
"235070","558-UM","2018/04/27 19:19:35","新北市中和區中山路二段231號","121.49829","25.00254","6500300","中和區"
"235045","565-BX","2018/04/27 19:19:35","新北市中和區景新街423巷35弄34號","121.513905","24.990415","6500300","中和區"
"235054","640-BX","2018/04/27 19:19:22","新北市中和區國光街109巷27號","121.46943","24.9995333333333","6500300","中和區"
"235060","647-TV","2018/04/27 19:19:34","新北市中和區民有街9號","121.475636666667","25.005575","6500300","中和區"
"235047","732-UM","2018/04/27 19:19:17","新北市中和區和平街54巷6弄2號","121.508736666667","24.9909716666667","6500300","中和區"
"235046","733-UM","2018/04/27 19:19:32","新北市中和區忠孝街2巷14弄10號","121.510701666667","24.9813916666667","6500300","中和區"
"235071","783-BX","2018/04/27 19:19:17","新北市中和區中正路639號","121.485171666667","24.9955","6500300","中和區"
"235057","801-TS","2018/04/27 19:19:33","新北市中和區員山路220號","121.481231666667","25.00113","6500300","中和區"
"235041","802-TS","2018/04/27 19:19:27","新北市中和區中和路252巷3號","121.507685","24.9992383333333","6500300","中和區"
"235052","805-TS","2018/04/27 19:19:23","新北市中和區華新街143巷19號","121.506636666667","24.98095","6500300","中和區"
"235048","896-TW","2018/04/27 19:19:16","新北市中和區忠孝街112號","121.512191666667","24.9853283333333","6500300","中和區"
"235053","900-TW","2018/04/27 19:19:16","新北市中和區華安街21巷2號","121.46739","24.9974916666667","6500300","中和區"
"235066","911-UM","2018/04/27 19:19:36","新北市中和區中和路169號","121.502963333333","24.9999433333333","6500300","中和區"
"235051","157-BY","2018/04/27 19:19:26","新北市中和區景平路239巷33弄31號","121.509605","24.991605","6500300","中和區"
"235037","AAC-213","2018/04/27 19:19:28","新北市中和區自立路15巷8號","121.522958333333","24.995905","6500300","中和區"
"235059","AAC-215","2018/04/27 19:19:30","新北市中和區圓通路286巷1號","121.491445","24.9910383333333","6500300","中和區"
"220068","013-TV","2018/04/27 19:19:30","新北市板橋區翠華街6巷69號","121.480995","25.024875","6500100","板橋區"
"220065","072-UY","2018/04/27 19:19:30","新北市板橋區國泰街39巷4弄31號","121.467751666667","25.0058233333333","6500100","板橋區"
"220086","073-UY","2018/04/27 19:19:19","新北市板橋區中正路216巷22號","121.456748333333","25.01853","6500100","板橋區"
"220106","075-UY","2018/04/27 19:19:21","新北市板橋區長江路二段280-1號","121.470008333333","25.03281","6500100","板橋區"
"220069","AAD-861","2018/04/27 19:19:23","新北市板橋區貴興路41號","121.457526666667","25.00359","6500100","板橋區"
"247004","337-TH","2018/04/27 19:19:32","新北市蘆洲區永康街66號","121.458505","25.0855216666667","6501400","蘆洲區"
"226004","312-R5","2018/04/27 19:19:18","新北市平溪區靜安路三段375號","121.780923333333","25.04693","6502400","平溪區"
"235072","251-BX","2018/04/27 19:19:32","新北市中和區連城路71號","121.497341666667","25.00118","6500300","中和區"
"228002","663-BX","2018/04/27 19:19:27","新北市貢寮區雙玉里田寮洋街21號","121.926498333333","25.0244383333333","6502600","貢寮區"
"228001","670-TC","2018/04/27 19:19:23","新北市貢寮區真理里新港街10號","121.925568333333","25.0543816666667","6502600","貢寮區"
"228003","828-UM","2018/04/27 19:19:27","新北市貢寮區和美里和美街22-1號","121.912811666667","25.0826166666667","6502600","貢寮區"
"224010","AGQ-8101","2018/04/27 19:19:30","新北市瑞芳區街頂巷4號","121.844545","25.10843","6501200","瑞芳區"
"224006","676-BX","2018/04/27 19:19:30","新北市瑞芳區東和路9號","121.804588333333","25.1061266666667","6501200","瑞芳區"
"224008","285-BY","2018/04/27 19:19:21","新北市瑞芳區一坑路283號","121.801148333333","25.1085733333333","6501200","瑞芳區"
"224005","271-BY","2018/04/27 19:19:26","新北市瑞芳區員山子路13-1號","121.822483333333","25.1022666666667","6501200","瑞芳區"
"227003","642-TC","2018/04/27 19:19:15","新北市雙溪區平林里梅竹蹊66-1號","121.86021","25.0358716666667","6502500","雙溪區"
"227011","400-TW","2018/04/27 19:19:28","新北市雙溪區新基里新基北街40號","121.86851","25.03804","6502500","雙溪區"
"253005","032-BX","2018/04/27 19:19:27","新北市石門區阿里荖42-1號","121.603871666667","25.2850916666667","6502200","石門區"
"253006","295-VK","2018/04/27 19:19:22","新北市石門區楓林17-6號","121.53651","25.292885","6502200","石門區"
"222001","KEA-2212","2018/04/27 19:19:28","新北市深坑區北深路二段103號","121.617425","25.0033683333333","6501800","深坑區"
"208002","KEA-2872","2018/04/27 19:19:29","新北市金山區環金路376巷2號","121.632246666667","25.2220233333333","6502700","金山區"
"208003","665-BX","2018/04/27 19:19:22","新北市金山區中山路103號","121.639611666667","25.2191816666667","6502700","金山區"
"208001","761-BX","2018/04/27 19:19:34","新北市金山區民生路69號","121.640143333333","25.21968","6502700","金山區"
"251001","011-UM","2018/04/27 19:19:22","新北市淡水區自強路201巷39號","121.462133333333","25.126845","6501000","淡水區"
"251010","413-VK","2018/04/27 19:19:20","新北市淡水區沙崙路30號","121.421506666667","25.1814683333333","6501000","淡水區"
"251005","443-VK","2018/04/27 19:19:32","新北市淡水區水源街一段29號","121.443186666667","25.1723816666667","6501000","淡水區"
"251006","561-UM","2018/04/27 19:19:32","新北市淡水區大信街33號","121.44207","25.1773483333333","6501000","淡水區"
"251009","575-R6","2018/04/27 19:19:22","新北市淡水區北新路32號","121.445323333333","25.1776983333333","6501000","淡水區"
"251007","577-R6","2018/04/27 19:19:24","新北市淡水區民生路117巷27號","121.464888333333","25.1395433333333","6501000","淡水區"
"251003","673-BX","2018/04/27 19:19:23","新北市淡水區中山路170號","121.44122","25.1739883333333","6501000","淡水區"
"207003","550-UM","2018/04/27 19:19:20","新北市萬里區大鵬里萬里加投79-3號","121.647315","25.2123616666667","6502800","萬里區"
"207004","225-TW","2018/04/27 19:19:31","新北市萬里區萬里里瑪鋉路4號","121.687583333333","25.1750783333333","6502800","萬里區"
"252002","178-VK","2018/04/27 19:19:33","新北市三芝區淡金路二段18-1號","121.502668333333","25.2595533333333","6502100","三芝區"
"252001","292-VK","2018/04/27 19:19:28","新北市三芝區長勤街9巷11弄3號","121.501875","25.2548866666667","6502100","三芝區"
"237004","KEA-2597","2018/04/27 19:19:32","新北市三峽區有木206號","121.439113333333","24.8516433333333","6500900","三峽區"
"237007","153-BY","2018/04/27 19:19:23","新北市三峽區二鬮路69號","121.359756666667","24.9073033333333","6500900","三峽區"
"237009","210-TH","2018/04/27 19:19:21","新北市三峽區和平街41號","121.370321666667","24.9356683333333","6500900","三峽區"
"237013","252-BX","2018/04/27 19:19:24","新北市三峽區大同路39巷9號","121.377175","24.92768","6500900","三峽區"
"237012","275-BY","2018/04/27 19:19:35","新北市三峽區三樹路222巷196-40號","121.390315","24.94281","6500900","三峽區"
"237008","302-VK","2018/04/27 19:19:21","新北市三峽區大同路154號","121.373121666667","24.92682","6500900","三峽區"
"237014","433-BY","2018/04/27 19:19:16","新北市三峽區民權街199號","121.367701666667","24.928815","6500900","三峽區"
"237006","5529-G3","2018/04/27 19:19:26","新北市三峽區中正路一段336巷15弄2號","121.369973333333","24.924945","6500900","三峽區"
"237005","AKY-6261","2018/04/27 19:19:17","新北市三峽區中山路459巷24號","121.35746","24.9384783333333","6500900","三峽區"
"236069","105-UM","2018/04/27 19:19:15","新北市土城區學成路157號","121.448238333333","24.98927","6501300","土城區"
"236079","166-UM","2018/04/27 19:19:29","新北市土城區中央路四段181號","121.41499","24.9567683333333","6501300","土城區"
"236026","269-VK","2018/04/27 19:19:30","新北市土城區員林街6-1號","121.442555","24.9780266666667","6501300","土城區"
"236014","270-VK","2018/04/27 19:19:31","新北市土城區學府路一段23巷25弄16號","121.457276666667","24.986265","6501300","土城區"
"236020","401-BY","2018/04/27 19:19:16","新北市土城區金城路三段200-5號","121.468735","24.98779","6501300","土城區"
"236059","912-UM","2018/04/27 19:19:20","新北市土城區中央路二段310號","121.440461666667","24.9731433333333","6501300","土城區"
"236048","913-UM","2018/04/27 19:19:17","新北市土城區明德路一段398-1號","121.453668333333","24.9790733333333","6501300","土城區"
"236055","AAC-216","2018/04/27 19:19:33","新北市土城區學府路一段276號","121.450096666667","24.9829616666667","6501300","土城區"
"242046","497-BY","2018/04/27 19:19:19","新北市新莊區瓊林南路77-41號","121.437661666667","25.0123266666667","6500500","新莊區"
"238015","755-BX","2018/04/27 19:19:17","新北市樹林區備內街1巷31號","121.412678333333","24.98637","6500700","樹林區"
"238023","601-UM","2018/04/27 19:19:30","新北市樹林區三興路45號","121.395731666667","25.01445","6500700","樹林區"
"238019","599-UM","2018/04/27 19:19:34","新北市樹林區鎮前街363號","121.416103333333","24.98391","6500700","樹林區"
"238018","571-TV","2018/04/27 19:19:27","新北市樹林區中華路68號","121.420011666667","24.981555","6500700","樹林區"
"238024","5061-A6","2018/04/27 19:19:24","新北市樹林區福德街26號","121.400818333333","24.9755733333333","6500700","樹林區"
"238022","KEA-2213","2018/04/27 19:19:31","新北市樹林區國凱街48號","121.420108333333","24.9787333333333","6500700","樹林區"
"238021","KEA-2539","2018/04/27 19:19:23","新北市樹林區柑園街二段378巷11號","121.368495","24.950165","6500700","樹林區"
"238025","303-VK","2018/04/27 19:19:16","新北市樹林區東興街2號","121.409041666667","24.980175","6500700","樹林區"
"238017","283-BY","2018/04/27 19:19:33","新北市樹林區光興街18號","121.412326666667","25.0028783333333","6500700","樹林區"
"238014","282-BY","2018/04/27 19:19:21","新北市樹林區千歲街6巷24號","121.425725","24.9950966666667","6500700","樹林區"
"238020","268-VK","2018/04/27 19:19:32","新北市樹林區俊英街111巷1-3號","121.424321666667","25.009595","6500700","樹林區"
"238026","172-UY","2018/04/27 19:19:21","新北市樹林區佳園路三段15號","121.388241666667","24.954795","6500700","樹林區"
"238016","169-UY","2018/04/27 19:19:19","新北市樹林區復興路464巷5號","121.41321","24.9834633333333","6500700","樹林區"
"239007","AAC-297","2018/04/27 19:19:34","新北市鶯歌區大湖路306巷8-1號","121.34479","24.9700933333333","6500800","鶯歌區"
"239006","891-R6","2018/04/27 19:19:26","新北市鶯歌區鶯桃路67巷12號","121.340861666667","24.9523666666667","6500800","鶯歌區"
"239008","527-UM","2018/04/27 19:19:36","新北市鶯歌區大湖路460巷5號","121.339835","24.97246","6500800","鶯歌區"
"239001","417-VK","2018/04/27 19:19:23","新北市鶯歌區中山路311號","121.344206666667","24.9569133333333","6500800","鶯歌區"
"239003","360-BY","2018/04/27 19:19:29","新北市鶯歌區建國路278號","121.346558333333","24.953335","6500800","鶯歌區"
"239002","359-BY","2018/04/27 19:19:27","新北市鶯歌區大湖路340號","121.3462","24.9715316666667","6500800","鶯歌區"
"239004","193-VK","2018/04/27 19:19:16","新北市鶯歌區二甲路中心巷13弄1號","121.337673333333","24.935495","6500800","鶯歌區"
"221008","489-VK","2018/04/27 19:19:18","新北市汐止區康寧街302-1號","121.626336666667","25.0671116666667","6501100","汐止區"
"221036","130-UY","2018/04/27 19:19:21","新北市汐止區汐萬路一段256巷1號","121.651703333333","25.0748733333333","6501100","汐止區"
"221015","131-UY","2018/04/27 19:19:28","新北市汐止區康寧街901號","121.651606666667","25.0749033333333","6501100","汐止區"
"221010","269-BY","2018/04/27 19:19:17","新北市汐止區康寧街901號","121.651268333333","25.0748783333333","6501100","汐止區"
"221012","278-VK","2018/04/27 19:19:24","新北市汐止區汐萬路一段306號","121.65038","25.0746333333333","6501100","汐止區"
"221023","279-VK","2018/04/27 19:19:18","新北市汐止區康寧街901號","121.651025","25.07522","6501100","汐止區"
"221032","280-BY","2018/04/27 19:19:30","新北市汐止區汐萬路一段221號","121.651951666667","25.0725216666667","6501100","汐止區"
"221027","281-BY","2018/04/27 19:19:23","新北市汐止區康寧街901號","121.65144","25.0749716666667","6501100","汐止區"
"221031","353-TW","2018/04/27 19:19:13","新北市汐止區康寧街901號","121.650898333333","25.075265","6501100","汐止區"
"221025","623-UM","2018/04/27 19:19:27","新北市汐止區康寧街901號","121.651556666667","25.0749866666667","6501100","汐止區"
"221038","646-BX","2018/04/27 19:19:13","新北市汐止區康寧街901號","121.65071","25.0752833333333","6501100","汐止區"
"221033","647-BX","2018/04/27 19:19:26","新北市汐止區南勢街3號","121.62705","25.0373516666667","6501100","汐止區"
"221002","707-TV","2018/04/27 19:19:22","新北市汐止區大同路一段363號","121.640313333333","25.060085","6501100","汐止區"
"221018","753-BX","2018/04/27 19:19:29","新北市汐止區康寧街901號","121.651485","25.0749083333333","6501100","汐止區"
"220079","145-BY","2018/04/27 19:19:32","新北市板橋區民權路202巷17弄7號","121.460415","25.0165","6500100","板橋區"
"220080","200-UY","2018/04/27 19:19:29","新北市板橋區大觀路二段19巷28號","121.447653333333","25.0030333333333","6500100","板橋區"
"220082","610-BX","2018/04/27 19:19:32","新北市板橋區金門街373號","121.428303333333","24.9846216666667","6500100","板橋區"
"220101","245-BX","2018/04/27 19:19:21","新北市板橋區莒光路221號","121.474238333333","25.0226533333333","6500100","板橋區"
"220056","276-BY","2018/04/27 19:19:33","新北市板橋區干城路158-1號","121.460488333333","24.99225","6500100","板橋區"
"220072","277-BY","2018/04/27 19:19:29","新北市板橋區金門街337巷9弄1號","121.430533333333","24.9846416666667","6500100","板橋區"
"220094","283-UM","2018/04/27 19:19:23","新北市板橋區吳鳳路21巷2號","121.466928333333","25.031245","6500100","板橋區"
"220071","283-VK","2018/04/27 19:19:32","新北市板橋區忠孝路48巷9弄2號","121.461226666667","25.0000366666667","6500100","板橋區"
"220053","285-VK","2018/04/27 19:19:15","新北市板橋區富山街20號","121.47832","25.021845","6500100","板橋區"
"220083","286-VK","2018/04/27 19:19:32","新北市板橋區大觀路二段174巷166弄2號","121.441893333333","25.0033216666667","6500100","板橋區"
"220081","287-VK","2018/04/27 19:19:23","新北市板橋區南雅西路一段134號","121.45251","25.00695","6500100","板橋區"
"220090","288-VK","2018/04/27 19:19:25","新北市板橋區長江路一段106巷13弄4號","121.460203333333","25.0291016666667","6500100","板橋區"
"220061","295-UM","2018/04/27 19:19:17","新北市板橋區中山路二段318巷20弄3號","121.480521666667","25.0188183333333","6500100","板橋區"
"220084","296-UM","2018/04/27 19:19:19","新北市板橋區滿平街136巷8弄12號","121.427488333333","24.9876466666667","6500100","板橋區"
"220075","303-R5","2018/04/27 19:19:29","新北市板橋區南雅西路一段122號","121.452416666667","25.00645","6500100","板橋區"
"220062","305-R5","2018/04/27 19:19:26","新北市板橋區三民路二段153巷30弄37號","121.481271666667","25.0142166666667","6500100","板橋區"
"220092","307-R5","2018/04/27 19:19:29","新北市板橋區文化路二段225巷60弄57號","121.468986666667","25.0297416666667","6500100","板橋區"
"220098","317-R6","2018/04/27 19:19:24","新北市板橋區民有街82號","121.465078333333","25.0271683333333","6500100","板橋區"
"220064","486-VK","2018/04/27 19:19:32","新北市板橋區縣民大道二段22號","121.463691666667","25.013275","6500100","板橋區"
"220088","491-VK","2018/04/27 19:19:22","新北市板橋區雙十路一段9號","121.477923333333","25.024165","6500100","板橋區"
"220035","560-BX","2018/04/27 19:19:28","新北市板橋區中正路399巷32號","121.452958333333","25.0227516666667","6500100","板橋區"
"220103","561-BX","2018/04/27 19:19:35","新北市板橋區文化路一段188巷7弄34號","121.468041666667","25.0194816666667","6500100","板橋區"
"220063","609-BX","2018/04/27 19:19:22","新北市板橋區三民路二段202-7號","121.47906","25.0142666666667","6500100","板橋區"
"220055","630-UY","2018/04/27 19:19:17","新北市板橋區實踐路65巷6-7號","121.464453333333","25.0065066666667","6500100","板橋區"
"220091","637-BX","2018/04/27 19:19:30","新北市板橋區大同街52號","121.47876","25.0275716666667","6500100","板橋區"
"220057","686-BX","2018/04/27 19:19:19","新北市板橋區國慶路186號","121.463056666667","24.9964033333333","6500100","板橋區"
"220077","687-BX","2018/04/27 19:19:29","新北市板橋區僑中二街12巷2號","121.446911666667","25.010595","6500100","板橋區"
"220093","689-BX","2018/04/27 19:19:33","新北市板橋區文化路一段383號","121.467275","25.0217633333333","6500100","板橋區"
"220054","741-BX","2018/04/27 19:19:29","新北市板橋區校前街52號","121.461521666667","25.003285","6500100","板橋區"
"220102","KEA-2699","2018/04/27 19:19:16","新北市板橋區田單街13號","121.481986666667","25.0294633333333","6500100","板橋區"
"220067","829-TW","2018/04/27 19:19:17","新北市板橋區長安街138巷1弄108號","121.474093333333","25.0101983333333","6500100","板橋區"
"220096","830-TW","2018/04/27 19:19:32","新北市板橋區大同街35巷12號","121.477588333333","25.02774","6500100","板橋區"
"220089","833-TW","2018/04/27 19:19:34","新北市板橋區文化路一段322-1號","121.467803333333","25.0224216666667","6500100","板橋區"
"220074","895-R6","2018/04/27 19:19:30","新北市板橋區中正路1巷10號","121.45539","25.011765","6500100","板橋區"
"220073","985-R7","2018/04/27 19:19:25","新北市板橋區新生街28號","121.456086666667","25.0211266666667","6500100","板橋區"
"220097","AAC-210","2018/04/27 19:19:23","新北市板橋區幸福路60巷31-2號","121.460593333333","25.0209616666667","6500100","板橋區"
"220070","AAC-253","2018/04/27 19:19:25","新北市板橋區忠孝路147號","121.463423333333","25.00235","6500100","板橋區"
