"lineid","car","time","location","longitude","latitude","cityid","cityname"
"234046","148-BY","2018/04/27 19:49:34","新北市永和區永利路163號","121.524913333333","25.0034983333333","6500400","永和區"
"234007","207-UY","2018/04/27 19:49:22","新北市中和區中和路232號","121.506756666667","24.9995266666667","6500400","永和區"
"234081","298-R6","2018/04/27 19:49:30","新北市永和區永亨路112號","121.523731666667","25.0044483333333","6500400","永和區"
"234038","336-UY","2018/04/27 19:49:29","新北市永和區民樂街57巷8號","121.528121666667","24.9984966666667","6500400","永和區"
"234064","337-UY","2018/04/27 19:49:31","新北市永和區中正路368巷29號","121.518601666667","25.00086","6500400","永和區"
"234086","338-UY","2018/04/27 19:49:31","新北市永和區永利路2號","121.517418333333","25.0059416666667","6500400","永和區"
"234070","552-UM","2018/04/27 19:49:36","新北市永和區竹林路88號","121.519356666667","25.012565","6500400","永和區"
"234067","553-UM","2018/04/27 19:49:35","新北市永和區保平路236巷20號","121.508281666667","25.0069533333333","6500400","永和區"
"234017","745-BX","2018/04/27 19:49:28","新北市永和區永和路二段299號","121.515986666667","25.01609","6500400","永和區"
"234030","746-BX","2018/04/27 19:49:31","新北市永和區民生路67巷58號","121.525583333333","24.99753","6500400","永和區"
"234054","KEA-2590","2018/04/27 19:49:16","新北市永和區竹林路75巷15-2號","121.519801666667","25.0137966666667","6500400","永和區"
"234013","KEA-2591","2018/04/27 19:49:25","新北市永和區仁愛路245號","121.508786666667","25.011835","6500400","永和區"
"234061","AAD-866","2018/04/27 19:49:30","新北市永和區中正路248號","121.516575","24.9983633333333","6500400","永和區"
"234042","862-TW","2018/04/27 19:49:21","新北市永和區中和路389巷11弄1號","121.508045","25.00093","6500400","永和區"
"234050","863-TW","2018/04/27 19:49:25","新北市永和區保安路77號","121.508646666667","25.0148366666667","6500400","永和區"
"234026","9371-KE","2018/04/27 19:49:26","新北市永和區雙和街25巷3號","121.509001666667","25.0019633333333","6500400","永和區"
"234011","9373-KE","2018/04/27 19:49:32","新北市永和區仁愛路352巷94號","121.50112","25.007965","6500400","永和區"
"249001","173-UM","2018/04/27 19:49:13","新北市八里區中華路二段252號","121.405371666667","25.1497116666667","6502300","八里區"
"249004","303-UY","2018/04/27 19:49:28","新北市八里區仁愛路19號","121.413326666667","25.16098","6502300","八里區"
"249002","305-UY","2018/04/27 19:48:59","新北市八里區頂寮五街18號","121.451423333333","25.1262716666667","6502300","八里區"
"249003","593-UM","2018/04/27 19:49:32","新北市八里區中華路二段560巷3號","121.398491666667","25.14515","6502300","八里區"
"248014","025-BX","2018/04/27 19:49:28","新北市五股區五福路32巷30號","121.435233333333","25.08967","6501500","五股區"
"248008","095-VK","2018/04/27 19:49:27","新北市蘆洲區中山二路320號","121.468446666667","25.0765833333333","6501500","五股區"
"248018","225-UY","2018/04/27 19:25:58","新北市五股區壟路16號","121.415265","25.08552","6501500","五股區"
"248012","247-BX","2018/04/27 19:49:14","新北市五股區蓬萊路24號","121.433855","25.0799083333333","6501500","五股區"
"248016","261-SL","2018/04/27 19:49:35","新北市五股區成泰路四段24-14號","121.454171666667","25.106945","6501500","五股區"
"248010","272-BY","2018/04/27 19:49:18","新北市五股區登林路76-5號","121.430515","25.06957","6501500","五股區"
"248004","677-BX","2018/04/27 19:49:20","新北市五股區成泰路一段194-1號","121.435565","25.0778733333333","6501500","五股區"
"248002","678-BX","2018/04/27 19:49:28","新北市五股區成泰路三段625-2號","121.452648333333","25.1043166666667","6501500","五股區"
"234077","969-R7","2018/04/27 19:49:20","新北市永和區民治街93號","121.51723","24.998315","6500400","永和區"
"234074","AAC-211","2018/04/27 19:49:15","新北市永和區竹林路179巷17弄1號","121.521236666667","25.0099533333333","6500400","永和區"
"234003","AAC-295","2018/04/27 19:49:23","新北市永和區福和路316-2號","121.515951666667","25.0073516666667","6500400","永和區"
"243012","AAD-798","2018/04/27 19:49:18","新北市泰山區全興路20號","121.432278333333","25.0588966666667","6501600","泰山區"
"243011","297-R6","2018/04/27 19:49:15","新北市泰山區明志路三段196巷19號","121.423245","25.0391566666667","6501600","泰山區"
"243015","380-SR","2018/04/27 19:49:31","新北市泰山區明志路二段237巷8號","121.42766","25.0479816666667","6501600","泰山區"
"243014","421-VK","2018/04/27 19:49:35","新北市泰山區泰林路二段33-8號","121.435165","25.0565566666667","6501600","泰山區"
"243010","KEA-2215","2018/04/27 19:49:25","新北市泰山區民生路33號","121.430741666667","25.0522016666667","6501600","泰山區"
"243009","KEA-2216","2018/04/27 19:49:22","新北市泰山區美寧街68號","121.431046666667","25.0647283333333","6501600","泰山區"
"243013","646-TV","2018/04/27 19:49:20","新北市泰山區應化街7號","121.423856666667","25.043715","6501600","泰山區"
"243016","680-BX","2018/04/27 19:49:31","新北市泰山區中山路三段77號","121.41836","25.032095","6501600","泰山區"
"222003","436-BY","2018/04/27 19:30:29","新北市深坑區深南路51-1號","121.621205","25.0098366666667","6501800","深坑區"
"222002","659-BX","2018/04/27 19:49:24","新北市深坑區北深路一段300號","121.623546666667","25.005445","6501800","深坑區"
"231041","002-UM","2018/04/27 19:49:24","新北市新店區中央路149號","121.529953333333","24.9732316666667","6500600","新店區"
"231040","047-UY","2018/04/27 19:49:28","新北市新店區中正路75巷71號","121.543173333333","24.9687766666667","6500600","新店區"
"231044","106-UY","2018/04/27 19:49:33","新北市新店區復興路46號","121.538228333333","24.986785","6500600","新店區"
"231046","107-UY","2018/04/27 19:49:19","新北市新店區三民路159巷19弄48號","121.532173333333","24.9731666666667","6500600","新店區"
"231053","108-UY","2018/04/27 19:49:17","新北市新店區新烏路三段1號","121.551683333333","24.9068883333333","6500600","新店區"
"231048","187-VK","2018/04/27 19:49:25","新北市新店區寶興路47號","121.549158333333","24.9734283333333","6500600","新店區"
"231054","KEA-2219","2018/04/27 19:49:30","新北市新店區光明街95號","121.539063333333","24.9610583333333","6500600","新店區"
"231057","256-BX","2018/04/27 19:49:22","新北市新店區梅崗三路1號","121.558091666667","24.9311366666667","6500600","新店區"
"231042","268-BY","2018/04/27 19:49:20","新北市新店區中興路一段267-4號","121.545088333333","24.967845","6500600","新店區"
"231051","278-BY","2018/04/27 19:49:18","新北市新店區中央路149號","121.530055","24.9731316666667","6500600","新店區"
"231050","AAD-862","2018/04/27 19:49:31","新北市新店區北宜路一段272-1號","121.546138333333","24.9527833333333","6500600","新店區"
"231059","355-BY","2018/04/27 19:49:23","新北市新店區安和路二段1號","121.517731666667","24.966845","6500600","新店區"
"231058","3713-VJ","2018/04/27 19:49:32","新北市新店區安興路32號","121.51568","24.9700883333333","6500600","新店區"
"231056","4715-K9","2018/04/27 19:49:29","新北市新店區民權路72號","121.538116666667","24.98315","6500600","新店區"
"231067","4772-VM","2018/04/27 19:49:28","新北市新店區精忠路10-1號","121.532683333333","24.9590583333333","6500600","新店區"
"231065","512-UM","2018/04/27 19:49:30","新北市新店區安祥路109巷151弄12號","121.478113333333","24.958865","6500600","新店區"
"231049","513-UM","2018/04/27 19:49:33","新北市新店區民權路127巷23號","121.5352","24.9818766666667","6500600","新店區"
"231063","616-UM","2018/04/27 19:49:18","新北市新店區黎明路3號","121.503221666667","24.9521683333333","6500600","新店區"
"231045","617-UM","2018/04/27 19:49:30","新北市新店區北宜路二段360-1號","121.564716666667","24.952425","6500600","新店區"
"231061","619-UM","2018/04/27 19:49:20","新北市新店區安民街172號","121.516823333333","24.97079","6500600","新店區"
"231068","718-UY","2018/04/27 19:49:30","新北市新店區安華路28-1號","121.519293333333","24.96099","6500600","新店區"
"231064","719-UM","2018/04/27 19:49:13","新北市新店區安和路一段52巷2號","121.517691666667","24.96621","6500600","新店區"
"231062","720-UM","2018/04/27 19:49:26","新北市新店區永業路121號","121.528401666667","24.947825","6500600","新店區"
"231060","897-TW","2018/04/27 19:49:25","新北市新店區安康路二段167號","121.509973333333","24.959325","6500600","新店區"
"231043","899-TW","2018/04/27 19:49:19","新北市新店區中正路263-2號","121.538446666667","24.9737733333333","6500600","新店區"
"231055","AKT-0513","2018/04/27 19:49:30","新北市新店區力行路30號","121.539173333333","24.964665","6500600","新店區"
"241011","013-R5","2018/04/27 19:49:32","新北市三重區三和路二段173巷43號","121.499225","25.0701733333333","6500200","三重區"
"241008","059-VK","2018/04/27 19:49:31","新北市三重區永福街98巷2號","121.478963333333","25.0759316666667","6500200","三重區"
"241009","060-VK","2018/04/27 19:49:28","新北市三重區三和路四段396巷22號","121.480253333333","25.0788866666667","6500200","三重區"
"241031","061-VK","2018/04/27 19:49:26","新北市三重區重新路四段250-1號","121.485988333333","25.05348","6500200","三重區"
"241015","062-VK","2018/04/27 19:49:37","新北市三重區重新路一段1號","121.503798333333","25.0642516666667","6500200","三重區"
"241017","063-VK","2018/04/27 19:49:28","新北市三重區重陽路三段27巷3號","121.489691666667","25.0665316666667","6500200","三重區"
"241003","091-VK","2018/04/27 19:49:16","新北市三重區五華街93巷15號","121.492345","25.0838283333333","6500200","三重區"
"241028","265-UM","2018/04/27 19:49:33","新北市三重區中正南路157號","121.493733333333","25.0561216666667","6500200","三重區"
"241016","266-UM","2018/04/27 19:49:32","新北市三重區正義北路48巷74號","121.49559","25.0634","6500200","三重區"
"241022","267-UM","2018/04/27 19:49:33","新北市三重區過圳街31巷13號","121.489543333333","25.0605233333333","6500200","三重區"
"241018","268-UM","2018/04/27 19:49:21","新北市三重區雙園街57巷36號","121.49445","25.0684033333333","6500200","三重區"
"241032","269-UM","2018/04/27 19:49:33","新北市三重區重陽路一段44巷68號","121.484423333333","25.0577166666667","6500200","三重區"
"241013","270-UM","2018/04/27 19:49:21","新北市三重區仁愛街92巷15號","121.494615","25.07369","6500200","三重區"
"241025","271-UM","2018/04/27 19:49:29","新北市三重區忠孝路三段52號","121.480728333333","25.06564","6500200","三重區"
"241007","398-BY","2018/04/27 19:49:31","新北市三重區三和路四段145巷11號","121.484613333333","25.0783283333333","6500200","三重區"
"241035","462-BY","2018/04/27 19:49:22","新北市三重區文化北路10號","121.499315","25.0636866666667","6500200","三重區"
"241020","478-VK","2018/04/27 19:49:26","新北市三重區大智街238-3號","121.48939","25.0728833333333","6500200","三重區"
"241030","480-VK","2018/04/27 19:49:17","新北市三重區成功路91號","121.488231666667","25.051435","6500200","三重區"
"241014","543-UM","2018/04/27 19:49:20","新北市三重區三和路二段37-8號","121.501375","25.0675583333333","6500200","三重區"
"241023","545-UM","2018/04/27 19:49:31","新北市三重區頂崁街168號","121.477533333333","25.06587","6500200","三重區"
"241001","547-UM","2018/04/27 19:49:28","新北市三重區仁愛街325號","121.492403333333","25.079565","6500200","三重區"
"241019","KEA-2593","2018/04/27 19:49:24","新北市三重區自強路二段74巷23-1號","121.487815","25.0697433333333","6500200","三重區"
"241006","AAD-863","2018/04/27 19:49:32","新北市三重區力行路二段76巷29號","121.48046","25.0735833333333","6500200","三重區"
"241026","887-TS","2018/04/27 19:49:20","新北市三重區文化南路42號","121.500301666667","25.0601466666667","6500200","三重區"
"241012","941-UM","2018/04/27 19:49:06","新北市三重區仁興街56巷46號","121.498095","25.0754033333333","6500200","三重區"
"241029","942-UM","2018/04/27 19:49:27","新北市三重區光明路23號","121.491148333333","25.05857","6500200","三重區"
"241033","AAC-255","2018/04/27 19:49:31","新北市三重區中興南街31-3號","121.47064","25.0439366666667","6500200","三重區"
"235064","005-UY","2018/04/27 19:49:30","新北市中和區圓通路29號","121.501106666667","24.997875","6500300","中和區"
"235056","096-UM","2018/04/27 19:49:29","新北市板橋區漢生東路338號","121.471915","25.0075333333333","6500300","中和區"
"235039","097-UM","2018/04/27 19:49:23","新北市中和區景平路170號","121.516985","24.9925383333333","6500300","中和區"
"235065","098-UM","2018/04/27 19:49:19","新北市中和區福祥路90巷5號","121.499668333333","25.0056333333333","6500300","中和區"
"235058","151-BY","2018/04/27 19:49:32","新北市中和區員山路132巷14號","121.481986666667","24.9962066666667","6500300","中和區"
"235055","183-VK","2018/04/27 19:49:17","新北市中和區莒光路2號","121.471778333333","25.004715","6500300","中和區"
"235038","185-VK","2018/04/27 19:49:33","新北市中和區自強路18號","121.520295","24.99558","6500300","中和區"
"235049","186-VK","2018/04/27 19:49:13","新北市中和區中興街7號","121.501316666667","24.99509","6500300","中和區"
"235067","255-BX","2018/04/27 19:49:20","新北市中和區新生街186巷1弄19號","121.483391666667","24.9989933333333","6500300","中和區"
"235044","293-VK","2018/04/27 19:49:14","新北市中和區中正路1號","121.503338333333","24.99336","6500300","中和區"
"235043","352-BY","2018/04/27 19:49:22","新北市中和區興南路二段159巷7號","121.505315","24.98316","6500300","中和區"
"235068","377-QA","2018/04/27 19:49:26","新北市中和區永和路8巷21號","121.500901666667","25.0035333333333","6500300","中和區"
"235061","378-QA","2018/04/27 19:49:17","新北市中和區員山路226巷6號","121.481621666667","25.0007066666667","6500300","中和區"
"235050","4979-A6","2018/04/27 19:49:32","新北市中和區景平路241巷84弄54號","121.50612","24.99237","6500300","中和區"
"235042","551-UM","2018/04/27 19:49:26","新北市中和區景安路79巷37弄25號","121.507631666667","24.9964633333333","6500300","中和區"
"235070","558-UM","2018/04/27 19:49:15","新北市中和區景平路509號","121.4995","24.9986266666667","6500300","中和區"
"235045","565-BX","2018/04/27 19:49:35","新北市中和區景平路318號","121.512318333333","24.9928233333333","6500300","中和區"
"235054","640-BX","2018/04/27 19:49:22","新北市中和區莒光路147號","121.472601666667","25.0012366666667","6500300","中和區"
"235060","647-TV","2018/04/27 19:49:14","新北市中和區新生街16巷23號","121.482153333333","25.00428","6500300","中和區"
"235047","732-UM","2018/04/27 19:49:36","新北市中和區興南路一段86號","121.509973333333","24.98926","6500300","中和區"
"235046","733-UM","2018/04/27 19:49:32","新北市中和區仁愛街46號","121.5111","24.9881766666667","6500300","中和區"
"235071","783-BX","2018/04/27 19:49:17","新北市中和區永和路333巷3號","121.485313333333","25.01044","6500300","中和區"
"235057","801-TS","2018/04/27 19:49:18","新北市中和區員山路106號","121.481031666667","24.9955466666667","6500300","中和區"
"235041","802-TS","2018/04/27 19:49:27","新北市中和區永貞路239巷15號","121.512666666667","25.0031033333333","6500300","中和區"
"235052","805-TS","2018/04/27 19:49:23","新北市中和區華新街30巷18-1號","121.506763333333","24.9844516666667","6500300","中和區"
"235048","896-TW","2018/04/27 19:49:36","新北市中和區興南路一段93巷2號","121.509591666667","24.9885566666667","6500300","中和區"
"235053","900-TW","2018/04/27 19:49:16","新北市中和區國光街171巷17號","121.467736666667","25.0012766666667","6500300","中和區"
"235066","911-UM","2018/04/27 19:49:17","新北市中和區南工路20號","121.505548333333","25.0004833333333","6500300","中和區"
"235051","157-BY","2018/04/27 19:49:27","新北市中和區中興街127號","121.49998","24.9916533333333","6500300","中和區"
"235037","AAC-213","2018/04/27 19:49:28","新北市中和區秀朗路三段173-2號","121.524468333333","24.9913083333333","6500300","中和區"
"235059","AAC-215","2018/04/27 19:49:30","新北市中和區圓通路305巷10號","121.494075","24.9896066666667","6500300","中和區"
"220068","013-TV","2018/04/27 19:49:29","新北市板橋區中山路二段416巷47弄30號","121.483666666667","25.0194216666667","6500100","板橋區"
"220065","072-UY","2018/04/27 19:49:36","新北市板橋區長安街57號","121.467153333333","25.0088483333333","6500100","板橋區"
"220086","073-UY","2018/04/27 19:49:19","新北市板橋區南雅西路二段7巷25號","121.451915","25.0094966666667","6500100","板橋區"
"220106","075-UY","2018/04/27 19:49:21","新北市板橋區民治街71巷58號","121.480588333333","25.033405","6500100","板橋區"
"220069","AAD-861","2018/04/27 19:49:23","新北市板橋區貴興路119巷4號","121.455711666667","25.0021766666667","6500100","板橋區"
"247014","546-UM","2018/04/27 19:49:23","新北市蘆洲區中央路101號","121.47237","25.0840833333333","6501400","蘆洲區"
"247004","337-TH","2018/04/27 19:49:32","新北市蘆洲區中原路59號","121.45895","25.0821516666667","6501400","蘆洲區"
"247006","336-TH","2018/04/27 19:49:27","新北市蘆洲區永安南路二段26號","121.467295","25.07703","6501400","蘆洲區"
"247008","056-VK","2018/04/27 19:49:33","新北市蘆洲區信義路109號","121.478265","25.08008","6501400","蘆洲區"
"247002","002-UY","2018/04/27 19:49:21","新北市蘆洲區永平街24號","121.458878333333","25.0907116666667","6501400","蘆洲區"
"226004","312-R5","2018/04/27 19:49:18","新北市平溪區靜安路二段380號","121.738225","25.024605","6502400","平溪區"
"228001","670-TC","2018/04/27 19:49:23","新北市貢寮區真理里新港街113-2號","121.926376666667","25.0566083333333","6502600","貢寮區"
"228003","828-UM","2018/04/27 19:49:27","新北市貢寮區真理里延平街143-1號","121.925033333333","25.0578","6502600","貢寮區"
"224010","AGQ-8101","2018/04/27 19:25:10","新北市瑞芳區街頂巷4號","121.844545","25.10843","6501200","瑞芳區"
"224002","639-TC","2018/04/27 19:49:19","新北市瑞芳區員山子路員山巷21號","121.816971666667","25.10427","6501200","瑞芳區"
"227003","642-TC","2018/04/27 19:49:15","新北市雙溪區雙溪里內挖路47號","121.86327","25.036705","6502500","雙溪區"
"227011","400-TW","2018/04/27 19:49:28","新北市雙溪區新基里中華路88號","121.865978333333","25.0389216666667","6502500","雙溪區"
"222001","KEA-2212","2018/04/27 19:37:28","新北市深坑區深坑街148號","121.613015","25.001465","6501800","深坑區"
"208002","KEA-2872","2018/04/27 19:49:29","新北市金山區八德街14號","121.634905","25.2236466666667","6502700","金山區"
"208003","665-BX","2018/04/27 19:49:22","新北市金山區海興路112-1號","121.631141666667","25.238675","6502700","金山區"
"208001","761-BX","2018/04/27 19:49:20","新北市金山區重和里林口18號","121.597396666667","25.2105483333333","6502700","金山區"
"251001","011-UM","2018/04/27 19:49:22","新北市淡水區中正東路二段45號","121.459335","25.1560933333333","6501000","淡水區"
"251012","441-VK","2018/04/27 19:49:23","新北市淡水區埤島6-10號","121.44598","25.194845","6501000","淡水區"
"251005","443-VK","2018/04/27 19:49:32","新北市淡水區中正東路6號","121.446803333333","25.167285","6501000","淡水區"
"251006","561-UM","2018/04/27 19:49:32","新北市淡水區水碓街10號","121.44355","25.1769583333333","6501000","淡水區"
"251009","575-R6","2018/04/27 19:49:22","新北市淡水區中正路38-1號","121.443733333333","25.16928","6501000","淡水區"
"251007","577-R6","2018/04/27 19:49:24","新北市淡水區竿蓁一街113號","121.455096666667","25.1664866666667","6501000","淡水區"
"251011","650-BX","2018/04/27 19:49:22","新北市淡水區淡金路二段401號","121.446868333333","25.1864416666667","6501000","淡水區"
"207003","550-UM","2018/04/27 19:49:20","新北市萬里區大鵬里萬里加投45-8號","121.640708333333","25.2110183333333","6502800","萬里區"
"207004","225-TW","2018/04/27 19:49:31","新北市萬里區萬里里瑪鋉路221號","121.689793333333","25.1798266666667","6502800","萬里區"
"252002","178-VK","2018/04/27 19:49:33","新北市三芝區三民街31號","121.504555","25.2585233333333","6502100","三芝區"
"252001","292-VK","2018/04/27 19:49:28","新北市三芝區公正街66號","121.49979","25.257475","6502100","三芝區"
"237004","KEA-2597","2018/04/27 19:49:32","新北市三峽區圳頭35號","121.37686","24.887495","6500900","三峽區"
"237007","153-BY","2018/04/27 19:49:23","新北市三峽區二鬮路17-2號","121.36292","24.9118966666667","6500900","三峽區"
"237009","210-TH","2018/04/27 19:49:21","新北市三峽區民族街78巷20號","121.36809","24.92954","6500900","三峽區"
"237013","252-BX","2018/04/27 19:49:24","新北市三峽區溪北街37號","121.396893333333","24.9361383333333","6500900","三峽區"
"237012","275-BY","2018/04/27 19:49:30","新北市三峽區中華路53號","121.372358333333","24.9307633333333","6500900","三峽區"
"237008","302-VK","2018/04/27 19:49:21","新北市三峽區中正路一段108巷7弄5號","121.37367","24.9298216666667","6500900","三峽區"
"237014","433-BY","2018/04/27 19:49:16","新北市三峽區中正路一段357號","121.370875","24.92281","6500900","三峽區"
"237006","5529-G3","2018/04/27 19:49:26","新北市三峽區中正路一段328-6號","121.370863333333","24.9247766666667","6500900","三峽區"
"237005","AKY-6261","2018/04/27 19:49:17","新北市三峽區民生街100號","121.373873333333","24.935485","6500900","三峽區"
"236069","105-UM","2018/04/27 19:49:35","新北市土城區水源街32巷10號","121.441103333333","24.975845","6501300","土城區"
"236042","107-UM","2018/04/27 19:49:20","新北市土城區裕民路233巷1號","121.454898333333","24.9836083333333","6501300","土城區"
"236079","166-UM","2018/04/27 19:49:29","新北市土城區中州路32號","121.413261666667","24.9580933333333","6501300","土城區"
"236030","253-BX","2018/04/27 19:49:32","新北市土城區中央路一段286號","121.443683333333","24.98261","6501300","土城區"
"236026","269-VK","2018/04/27 19:49:30","新北市土城區中央路二段61巷26號","121.443265","24.978705","6501300","土城區"
"236039","271-VK","2018/04/27 19:49:29","新北市土城區國際路158巷24弄2號","121.468531666667","24.9758766666667","6501300","土城區"
"236020","401-BY","2018/04/27 19:49:32","新北市土城區延峰街27巷11號","121.469928333333","24.9857266666667","6501300","土城區"
"236059","912-UM","2018/04/27 19:49:20","新北市土城區中央路一段269-3號","121.444843333333","24.9851283333333","6501300","土城區"
"236048","913-UM","2018/04/27 19:49:33","新北市土城區青雲路181號","121.459231666667","24.9827683333333","6501300","土城區"
"236063","915-UM","2018/04/27 19:49:28","新北市土城區延和路105巷5弄1號","121.467291666667","24.991105","6501300","土城區"
"236055","AAC-216","2018/04/27 19:49:35","新北市土城區延和路152號","121.467938333333","24.9902883333333","6501300","土城區"
"242034","AAC-296","2018/04/27 19:49:32","新北市新莊區新泰路199巷19號","121.445555","25.0377233333333","6500500","新莊區"
"242058","986-R7","2018/04/27 19:49:25","新北市新莊區新樹路72-6號","121.436485","25.0250883333333","6500500","新莊區"
"242054","751-BX","2018/04/27 19:49:30","新北市新莊區民安西路415巷3號","121.43076","25.0091333333333","6500500","新莊區"
"242027","615-BX","2018/04/27 19:49:21","新北市新莊區中平路377巷45號","121.443065","25.0524533333333","6500500","新莊區"
"242029","612-BX","2018/04/27 19:49:37","新北市新莊區中平路256-1號","121.444968333333","25.0496783333333","6500500","新莊區"
"242046","497-BY","2018/04/27 19:49:19","新北市新莊區瓊林路206-6號","121.435518333333","25.0221783333333","6500500","新莊區"
"242056","440-UM","2018/04/27 19:49:26","新北市新莊區新泰路83號","121.449223333333","25.0346516666667","6500500","新莊區"
"242007","413-TV","2018/04/27 19:49:24","新北市新莊區思源路593巷6弄23號","121.457895","25.0598983333333","6500500","新莊區"
"242060","353-BY","2018/04/27 19:49:30","新北市新莊區中環路一段10號","121.442736666667","25.025735","6500500","新莊區"
"242039","133-UY","2018/04/27 19:49:17","新北市新莊區民安路309號","121.429885","25.0226816666667","6500500","新莊區"
"242032","135-UY","2018/04/27 19:49:32","新北市新莊區中正路352號","121.443906666667","25.0345516666667","6500500","新莊區"
"242048","172-VK","2018/04/27 19:49:29","新北市新莊區建安街76巷1弄15號","121.425995","25.0242","6500500","新莊區"
"242017","175-VK","2018/04/27 19:49:30","新北市新莊區中港路287號","121.452851666667","25.04399","6500500","新莊區"
"242005","176-VK","2018/04/27 19:49:20","新北市新莊區化成路63巷24弄41號","121.462086666667","25.0459816666667","6500500","新莊區"
"242021","348-TH","2018/04/27 19:49:22","新北市新莊區建中街56號","121.448308333333","25.0371866666667","6500500","新莊區"
"242037","349-TH","2018/04/27 19:49:19","新北市新莊區民安路207巷30弄16號","121.428118333333","25.023905","6500500","新莊區"
"242013","351-TH","2018/04/27 19:49:27","新北市新莊區中誠街69巷4號","121.450688333333","25.047625","6500500","新莊區"
"238015","755-BX","2018/04/27 19:49:17","新北市樹林區中山路一段92號","121.423243333333","24.9912483333333","6500700","樹林區"
"238023","601-UM","2018/04/27 19:49:30","新北市樹林區中正路815號","121.409316666667","25.0169833333333","6500700","樹林區"
"238021","KEA-2539","2018/04/27 19:49:35","新北市樹林區田尾街192巷7號","121.400165","24.9493383333333","6500700","樹林區"
"238020","268-VK","2018/04/27 19:49:32","新北市樹林區中山路三段212號","121.382503333333","24.9661333333333","6500700","樹林區"
"239006","891-R6","2018/04/27 19:49:26","新北市鶯歌區文化路145巷4號","121.35664","24.9540383333333","6500800","鶯歌區"
"239001","417-VK","2018/04/27 19:49:23","新北市鶯歌區二甲路12-2號","121.345488333333","24.934785","6500800","鶯歌區"
"221008","489-VK","2018/04/27 19:49:18","新北市汐止區康寧街39號","121.618511666667","25.0668283333333","6501100","汐止區"
"221036","130-UY","2018/04/27 19:49:21","新北市汐止區汐萬路一段39號","121.655111666667","25.06901","6501100","汐止區"
"221015","131-UY","2018/04/27 19:49:28","新北市汐止區忠孝東路414號","121.665923333333","25.071305","6501100","汐止區"
"221010","269-BY","2018/04/27 19:49:17","新北市汐止區連峰街128號","121.646133333333","25.0790766666667","6501100","汐止區"
"221012","278-VK","2018/04/27 19:49:24","新北市汐止區保長路271巷2號","121.680961666667","25.0742783333333","6501100","汐止區"
"221023","279-VK","2018/04/27 19:49:18","新北市汐止區民族六街4巷1號","121.629563333333","25.0700966666667","6501100","汐止區"
"221032","280-BY","2018/04/27 19:49:30","新北市汐止區橫科路119號","121.619998333333","25.0503616666667","6501100","汐止區"
"221027","281-BY","2018/04/27 19:49:36","新北市汐止區中正路7號","121.663076666667","25.0701283333333","6501100","汐止區"
"221021","299-VK","2018/04/27 19:49:34","新北市汐止區新興路78號","121.657686666667","25.0617966666667","6501100","汐止區"
"221031","353-TW","2018/04/27 19:49:34","新北市汐止區福德二路24號","121.634718333333","25.0681166666667","6501100","汐止區"
"221035","622-UM","2018/04/27 19:49:32","新北市汐止區長江街13巷10號","121.65469","25.0719883333333","6501100","汐止區"
"221025","623-UM","2018/04/27 19:49:27","新北市汐止區秀峰路81巷11號","121.660703333333","25.0643633333333","6501100","汐止區"
"221038","646-BX","2018/04/27 19:49:33","新北市汐止區忠孝東路408號","121.665873333333","25.0711666666667","6501100","汐止區"
"221033","647-BX","2018/04/27 19:49:26","新北市汐止區東勢街76巷100-1號","121.636251666667","25.0389616666667","6501100","汐止區"
"221018","753-BX","2018/04/27 19:49:29","新北市汐止區大同路二段533號","121.66181","25.069035","6501100","汐止區"
"220079","145-BY","2018/04/27 19:49:34","新北市板橋區中正路135巷12弄19號","121.455435","25.01608","6500100","板橋區"
"220080","200-UY","2018/04/27 19:49:29","新北市板橋區大觀路二段79巷2弄15號","121.447371666667","25.0016816666667","6500100","板橋區"
"220082","610-BX","2018/04/27 19:49:16","新北市板橋區金門街182-3號","121.43262","24.99089","6500100","板橋區"
"220101","245-BX","2018/04/27 19:49:30","新北市板橋區縣民大道三段93巷18-1號","121.475156666667","25.0222633333333","6500100","板橋區"
"220056","276-BY","2018/04/27 19:49:33","新北市板橋區四川路二段89號","121.452845","24.9948966666667","6500100","板橋區"
"220072","277-BY","2018/04/27 19:49:29","新北市板橋區金門街153號","121.432711666667","24.9904833333333","6500100","板橋區"
"220094","283-UM","2018/04/27 19:49:23","新北市板橋區溪頭街82-3號","121.459078333333","25.0299083333333","6500100","板橋區"
"220071","283-VK","2018/04/27 19:49:32","新北市板橋區和平路174巷1號","121.463678333333","24.9954816666667","6500100","板橋區"
"220053","285-VK","2018/04/27 19:49:15","新北市板橋區中山路二段60巷1弄28號","121.475246666667","25.0158216666667","6500100","板橋區"
"220083","286-VK","2018/04/27 19:49:32","新北市板橋區僑中二街50號","121.446785","25.0104633333333","6500100","板橋區"
"220081","287-VK","2018/04/27 19:49:23","新北市板橋區大觀路一段28巷88號","121.449926666667","25.011085","6500100","板橋區"
"220090","288-VK","2018/04/27 19:49:23","新北市板橋區英士路151號","121.460115","25.0241516666667","6500100","板橋區"
"220061","295-UM","2018/04/27 19:49:17","新北市板橋區中山路一段265巷45號","121.469176666667","25.0159183333333","6500100","板橋區"
"220084","296-UM","2018/04/27 19:49:33","新北市板橋區溪崑二街92號","121.42673","24.9892466666667","6500100","板橋區"
"220075","303-R5","2018/04/27 19:49:30","新北市板橋區金華街10巷46號","121.456966666667","25.0200716666667","6500100","板橋區"
"220062","305-R5","2018/04/27 19:49:26","新北市板橋區光復街33巷32號","121.482528333333","25.018865","6500100","板橋區"
"220092","307-R5","2018/04/27 19:49:29","新北市板橋區陽明街29號","121.465381666667","25.02183","6500100","板橋區"
"220098","317-R6","2018/04/27 19:49:20","新北市板橋區裕民街151號","121.458525","25.0270266666667","6500100","板橋區"
"220064","486-VK","2018/04/27 19:49:32","新北市板橋區館前東路108-1號","121.463231666667","25.0075466666667","6500100","板橋區"
"242019","280-VK","2018/04/27 19:49:33","新北市新莊區中港路201號","121.45492","25.041825","6500500","新莊區"
"220088","491-VK","2018/04/27 19:49:34","新北市板橋區文聖街115號","121.477928333333","25.0290066666667","6500100","板橋區"
"220035","560-BX","2018/04/27 19:49:28","新北市板橋區新生街53巷1弄10號","121.457055","25.021505","6500100","板橋區"
"220103","561-BX","2018/04/27 19:49:32","新北市板橋區陽明街29巷3號","121.465286666667","25.021625","6500100","板橋區"
"220063","609-BX","2018/04/27 19:49:22","新北市板橋區三民路一段131號","121.47923","25.0202766666667","6500100","板橋區"
"220055","630-UY","2018/04/27 19:49:29","新北市板橋區國慶路167巷15號","121.461826666667","24.9972383333333","6500100","板橋區"
"220091","637-BX","2018/04/27 19:49:30","新北市板橋區懷德街191巷28號","121.480551666667","25.029765","6500100","板橋區"
"220057","686-BX","2018/04/27 19:49:16","新北市板橋區廣權路9號","121.460735","24.991345","6500100","板橋區"
"220077","687-BX","2018/04/27 19:49:29","新北市板橋區僑中一街124巷18弄1號","121.446146666667","25.013815","6500100","板橋區"
"220093","689-BX","2018/04/27 19:49:28","新北市板橋區長江路二段239號","121.468721666667","25.03263","6500100","板橋區"
"220054","741-BX","2018/04/27 19:49:28","新北市板橋區忠孝路忠義巷22弄2號","121.466861666667","25.0039316666667","6500100","板橋區"
"220102","KEA-2699","2018/04/27 19:49:37","新北市板橋區文化路二段410巷1弄1號","121.474311666667","25.0311516666667","6500100","板橋區"
"220067","829-TW","2018/04/27 19:49:17","新北市板橋區長安街138巷1弄288號","121.474895","25.0110583333333","6500100","板橋區"
"220096","830-TW","2018/04/27 19:49:32","新北市板橋區文化路二段124巷34弄4號","121.471211666667","25.0253816666667","6500100","板橋區"
"220089","833-TW","2018/04/27 19:49:34","新北市板橋區綠堤街47號","121.4553","25.025905","6500100","板橋區"
"220074","895-R6","2018/04/27 19:49:30","新北市板橋區文化路一段30號","121.459313333333","25.0115966666667","6500100","板橋區"
"220073","985-R7","2018/04/27 19:49:34","新北市板橋區大仁街107號","121.452575","25.0156716666667","6500100","板橋區"
"220097","AAC-210","2018/04/27 19:49:34","新北市板橋區文化路一段285巷1弄2號","121.464296666667","25.0187216666667","6500100","板橋區"
"220070","AAC-253","2018/04/27 19:49:25","新北市板橋區館前東路126號","121.463913333333","25.0078183333333","6500100","板橋區"
