"lineid","car","time","location","longitude","latitude","cityid","cityname"
"234067","553-UM","2018/04/27 21:19:35","新北市永和區福和路1號","121.526041666667","25.0097516666667","6500400","永和區"
"231040","047-UY","2018/04/27 21:19:48","新北市新店區北新路一段215號","121.540488333333","24.9651283333333","6500600","新店區"
"231048","187-VK","2018/04/27 21:19:45","新北市新店區中正路444號","121.53418","24.9784916666667","6500600","新店區"
"231054","KEA-2219","2018/04/27 21:19:30","新北市新店區光明街147號","121.539355","24.9622683333333","6500600","新店區"
"231051","278-BY","2018/04/27 21:19:38","新北市新店區中正路700巷322-10號","121.534153333333","24.9935433333333","6500600","新店區"
"231050","AAD-862","2018/04/27 21:19:31","新北市新店區中正路284巷4弄3號","121.53842","24.974725","6500600","新店區"
"231059","355-BY","2018/04/27 21:19:43","新北市新店區薏仁坑路自強巷1號","121.497335","24.9577466666667","6500600","新店區"
"231065","512-UM","2018/04/27 21:19:50","新北市新店區薏仁坑路自強巷6號","121.496715","24.9583333333333","6500600","新店區"
"231063","616-UM","2018/04/27 21:19:38","新北市新店區吉祥街15巷1號","121.497723333333","24.945595","6500600","新店區"
"231061","619-UM","2018/04/27 21:19:40","新北市新店區永平街6號","121.517406666667","24.983435","6500600","新店區"
"231060","897-TW","2018/04/27 21:19:45","新北市新店區薏仁坑路自強巷1號","121.497846666667","24.9577033333333","6500600","新店區"
"241011","013-R5","2018/04/27 21:19:32","新北市三重區龍濱路199號","121.501835","25.0714666666667","6500200","三重區"
"241008","059-VK","2018/04/27 21:19:31","新北市三重區正義北路61-1號","121.497248333333","25.0645466666667","6500200","三重區"
"241009","060-VK","2018/04/27 21:19:48","新北市三重區頂崁街141號","121.477936666667","25.0650583333333","6500200","三重區"
"241031","061-VK","2018/04/27 21:19:46","新北市三重區重新路五段408巷19號","121.475763333333","25.0455533333333","6500200","三重區"
"241017","063-VK","2018/04/27 21:19:48","新北市三重區大同北路65號","121.49504","25.0635116666667","6500200","三重區"
"241024","065-VK","2018/04/27 21:19:43","新北市三重區中正北路145巷14號","121.484138333333","25.0677766666667","6500200","三重區"
"241002","090-VK","2018/04/27 21:19:36","新北市三重區自強路五段83號","121.495118333333","25.0820783333333","6500200","三重區"
"241003","091-VK","2018/04/27 21:19:37","新北市三重區通華街1號","121.495498333333","25.0843316666667","6500200","三重區"
"241005","262-UM","2018/04/27 21:19:39","新北市三重區三信路186號","121.487843333333","25.0860233333333","6500200","三重區"
"241028","265-UM","2018/04/27 21:19:33","新北市三重區正義南路165-1號","121.49895","25.057555","6500200","三重區"
"241016","266-UM","2018/04/27 21:19:31","新北市三重區自強路一段95號","121.49591","25.066325","6500200","三重區"
"241018","268-UM","2018/04/27 21:19:41","新北市三重區忠孝路三段45號","121.481161666667","25.0666683333333","6500200","三重區"
"241032","269-UM","2018/04/27 21:19:33","新北市三重區重新路五段593號","121.469625","25.0458716666667","6500200","三重區"
"241013","270-UM","2018/04/27 21:19:41","新北市三重區仁愛街87號","121.495935","25.073395","6500200","三重區"
"241025","271-UM","2018/04/27 21:19:49","新北市三重區中正北路208巷8號","121.482343333333","25.0669466666667","6500200","三重區"
"241007","398-BY","2018/04/27 21:19:31","新北市三重區忠孝路一段87號","121.490108333333","25.07208","6500200","三重區"
"241004","475-VK","2018/04/27 21:19:37","新北市三重區仁愛街467號","121.489328333333","25.08205","6500200","三重區"
"241030","480-VK","2018/04/27 21:19:37","新北市三重區中興南街37號","121.47023","25.04292","6500200","三重區"
"241014","543-UM","2018/04/27 21:19:40","新北市三重區萬全街15號","121.499406666667","25.069675","6500200","三重區"
"241023","545-UM","2018/04/27 21:19:51","新北市三重區中正北路176巷16號","121.48268","25.0659266666667","6500200","三重區"
"241001","547-UM","2018/04/27 21:19:47","新北市三重區碧華街337號","121.491736666667","25.08476","6500200","三重區"
"241006","AAD-863","2018/04/27 21:19:32","新北市三重區新北大道一段105號","121.484","25.0613766666667","6500200","三重區"
"241026","887-TS","2018/04/27 21:19:40","新北市三重區大同南路232號","121.49683","25.0561016666667","6500200","三重區"
"241012","941-UM","2018/04/27 21:19:46","新北市三重區龍門路282號","121.501933333333","25.0740516666667","6500200","三重區"
"241033","AAC-255","2018/04/27 21:19:31","新北市三重區光復路二段102巷59號","121.469008333333","25.058165","6500200","三重區"
"247024","893-R6","2018/04/27 21:19:44","新北市蘆洲區長樂路91號","121.462358333333","25.087545","6501400","蘆洲區"
"247014","546-UM","2018/04/27 21:19:43","新北市蘆洲區保和街50-6號","121.46981","25.0863066666667","6501400","蘆洲區"
"247022","500-BY","2018/04/27 21:19:34","新北市蘆洲區三民路202號","121.4692","25.0889583333333","6501400","蘆洲區"
"247010","341-TH","2018/04/27 21:19:46","新北市蘆洲區鷺江街16-1號","121.478948333333","25.0825316666667","6501400","蘆洲區"
"247012","339-TH","2018/04/27 21:19:36","新北市蘆洲區民族路236巷8號","121.480426666667","25.0886133333333","6501400","蘆洲區"
"247004","337-TH","2018/04/27 21:19:52","新北市蘆洲區永安南路二段320號","121.457045","25.0827033333333","6501400","蘆洲區"
"247006","336-TH","2018/04/27 21:19:47","新北市蘆洲區長安街91號","121.46204","25.0802483333333","6501400","蘆洲區"
"247008","056-VK","2018/04/27 21:19:33","新北市蘆洲區中山一路135巷8號","121.475711666667","25.0811333333333","6501400","蘆洲區"
"247018","053-VK","2018/04/27 21:19:42","新北市蘆洲區復興路111-5號","121.476593333333","25.0884966666667","6501400","蘆洲區"
"247002","002-UY","2018/04/27 21:19:41","新北市蘆洲區永樂街80號","121.45681","25.0886","6501400","蘆洲區"
"247020","001-UY","2018/04/27 21:19:31","新北市蘆洲區民族路422巷118號","121.472501666667","25.0943416666667","6501400","蘆洲區"
"251004","009-UM","2018/04/27 21:19:09","新北市淡水區民族路72號","121.46219","25.1357466666667","6501000","淡水區"
"251001","011-UM","2018/04/27 21:19:42","新北市淡水區中山北路二段200號","121.444291666667","25.1860683333333","6501000","淡水區"
"251010","413-VK","2018/04/27 21:19:40","新北市淡水區中正路一段156巷12號","121.421853333333","25.180805","6501000","淡水區"
"251012","441-VK","2018/04/27 21:19:43","新北市淡水區石頭埔8號","121.452593333333","25.2346383333333","6501000","淡水區"
"251005","443-VK","2018/04/27 21:19:32","新北市淡水區仁愛街18巷2號","121.446806666667","25.170405","6501000","淡水區"
"251006","561-UM","2018/04/27 21:19:39","新北市淡水區中正路一段85號","121.422496666667","25.1787983333333","6501000","淡水區"
"251009","575-R6","2018/04/27 21:19:42","新北市淡水區民族路65巷58號","121.463418333333","25.1357266666667","6501000","淡水區"
"251011","650-BX","2018/04/27 21:19:42","新北市淡水區新民街152巷6弄22號","121.43879","25.1787816666667","6501000","淡水區"
"251002","672-BX","2018/04/27 21:19:46","新北市淡水區英專路151號","121.448456666667","25.1748933333333","6501000","淡水區"
"251003","673-BX","2018/04/27 21:19:43","新北市淡水區崁頂15-5號","121.438955","25.18593","6501000","淡水區"
"242025","613-BX","2018/04/27 21:19:32","新北市樹林區中山路三段210-2號","121.380563333333","24.968075","6500500","新莊區"
