"lineid","car","time","location","longitude","latitude","cityid","cityname"
"251004","009-UM","2018/04/27 22:29:49","新北市淡水區民族路33號","121.462296666667","25.1357683333333","6501000","淡水區"
"251008","181-VK","2018/04/27 22:29:43","新北市淡水區學府路104號","121.449961666667","25.171945","6501000","淡水區"
"251010","413-VK","2018/04/27 22:29:40","新北市淡水區沙崙路200號","121.424693333333","25.183905","6501000","淡水區"
"251007","577-R6","2018/04/27 22:29:45","新北市淡水區北新路180號","121.44944","25.1788066666667","6501000","淡水區"
"251011","650-BX","2018/04/27 22:29:42","新北市淡水區水碓街7號","121.443175","25.177115","6501000","淡水區"
