"lineid","car","time","location","longitude","latitude","cityid","cityname"
"248005","653-BX","2018/04/28 06:59:22","新北市五股區中興路二段182巷3號","121.457233333333","25.0783766666667","6501500","五股區"
"232004","290-BY","2018/04/28 06:59:29","新北市坪林區大粗坑6-1號","121.731553333333","24.949105","6502000","坪林區"
"232016","291-BY","2018/04/28 06:59:30","新北市坪林區仁里11號","121.689668333333","24.928545","6502000","坪林區"
"232010","375-UM","2018/04/28 06:59:25","新北市坪林區水聳淒坑7-1號","121.724825","24.92723","6502000","坪林區"
"232009","758-BX","2018/04/28 06:59:12","新北市坪林區九芎林19-4號","121.707038333333","24.926535","6502000","坪林區"
"244005","248-BX","2018/04/28 06:59:18","新北市林口區民權路17號","121.371258333333","25.0801233333333","6501700","林口區"
"222004","289-BY","2018/04/28 06:59:19","新北市深坑區昇高坑路16號","121.62508","25.00008","6501800","深坑區"
"235001","611-BX","2018/04/28 06:59:20","新北市中和區圓通路367巷6號","121.491451666667","24.9892766666667","6500300","中和區"
"226002","7418-A5","2018/04/28 06:59:15","新北市平溪區石底里公園街18-3號","121.733408333333","25.02558","6502400","平溪區"
"226003","AGD-0702","2018/04/28 06:59:19","新北市平溪區石底里公園街18-3號","121.733415","25.0257816666667","6502400","平溪區"
"223006","022-BY","2018/04/28 06:59:27","新北市石碇區新興坑4-1號","121.653653333333","25.016775","6501900","石碇區"
"223002","KEA-2673","2018/04/28 06:59:26","新北市石碇區小粗坑(格頭里)2-1號","121.65118","24.958015","6501900","石碇區"
"223001","205-TH","2018/04/28 06:59:12","新北市石碇區石碇東街143號","121.658916666667","24.9891533333333","6501900","石碇區"
"223008","406-TH","2018/04/28 06:59:25","新北市石碇區靜安路一段252號","121.677011666667","25.0107133333333","6501900","石碇區"
"223001","592-UM","2018/04/28 06:59:27","新北市石碇區石碇東街46號","121.659581666667","24.991","6501900","石碇區"
"223004","660-BX","2018/04/28 06:59:30","新北市石碇區碇坪路一段60號","121.657091666667","24.9914616666667","6501900","石碇區"
"223007","661-BX","2018/04/28 06:59:26","新北市石碇區靜安路一段252號","121.67734","25.0106533333333","6501900","石碇區"
"223005","677-TV","2018/04/28 06:59:28","新北市石碇區碇坪路一段62號","121.657171666667","24.991445","6501900","石碇區"
"227006","030-BX","2018/04/28 06:59:33","新北市雙溪區新基里自強路5號","121.86632","25.0390233333333","6502500","雙溪區"
"252004","249-BX","2018/04/28 06:59:26","新北市三芝區埔坪里埔頭坑41號","121.504526666667","25.2644933333333","6502100","三芝區"
"252007","AAC-283","2018/04/28 06:59:19","新北市三芝區埔坪里埔頭坑107號","121.504601666667","25.2617333333333","6502100","三芝區"
"236011","165-UM","2018/04/28 06:59:17","新北市土城區永平街51號","121.427986666667","24.9591516666667","6501300","土城區"
"220070","282-UM","2018/04/28 06:59:28","新北市板橋區國光路49巷15號","121.458856666667","25.018735","6500100","板橋區"
