"lineid","car","time","location","longitude","latitude","cityid","cityname"
"248005","653-BX","2018/04/28 07:06:10","新北市五股區明德路12巷3號","121.433311666667","25.07176","6501500","五股區"
"248003","655-BX","2018/04/28 07:19:33","新北市五股區中興路二段11號","121.462876666667","25.07413","6501500","五股區"
"232004","290-BY","2018/04/28 07:19:29","新北市坪林區九芎坑13號","121.735841666667","24.9506716666667","6502000","坪林區"
"232016","291-BY","2018/04/28 07:19:30","新北市坪林區金瓜寮22號","121.679833333333","24.9121583333333","6502000","坪林區"
"232010","375-UM","2018/04/28 07:19:26","新北市坪林區苦苓腳3-8號","121.714726666667","24.9395766666667","6502000","坪林區"
"244005","248-BX","2018/04/28 07:19:18","新北市林口區頂福里71-22號","121.353938333333","25.0798133333333","6501700","林口區"
"222004","289-BY","2018/04/28 07:07:19","新北市石碇區員潭子坑4號","121.634126666667","24.9858366666667","6501800","深坑區"
"235001","611-BX","2018/04/28 07:19:20","新北市中和區圓通路367巷2號","121.491283333333","24.98923","6500300","中和區"
"226005","5620-A6","2018/04/28 07:18:16","新北市平溪區靜安路二段119號","121.72135","25.02391","6502400","平溪區"
"226002","7418-A5","2018/04/28 07:19:15","新北市平溪區南山里南山坪3號","121.762626666667","25.031785","6502400","平溪區"
"226003","AGD-0702","2018/04/28 07:19:19","新北市平溪區嶺腳里嶺腳寮9-1號","121.747476666667","25.0299","6502400","平溪區"
"223006","022-BY","2018/04/28 07:18:27","新北市石碇區靜安路一段60號","121.645348333333","25.0121933333333","6501900","石碇區"
"223002","KEA-2673","2018/04/28 07:19:26","新北市石碇區半路店3-1號","121.64543","24.9643533333333","6501900","石碇區"
"223001","205-TH","2018/04/28 07:18:52","新北市石碇區蓬菜寮11號","121.650565","24.9734083333333","6501900","石碇區"
"223008","406-TH","2018/04/28 07:19:25","新北市石碇區藤寮坑6-1號","121.703825","25.006485","6501900","石碇區"
"223001","592-UM","2018/04/28 07:19:27","新北市石碇區蓬菜寮16號","121.649628333333","24.972965","6501900","石碇區"
"223004","660-BX","2018/04/28 07:19:30","新北市石碇區新興坑1-1號","121.653993333333","25.015075","6501900","石碇區"
"223007","661-BX","2018/04/28 07:19:21","新北市石碇區大溪墘16-1號","121.69264","25.0084616666667","6501900","石碇區"
"223005","677-TV","2018/04/28 07:19:28","新北市石碇區新興坑31號","121.64872","25.0138916666667","6501900","石碇區"
"227006","030-BX","2018/04/28 07:19:33","新北市雙溪區新基里自強路5號","121.866313333333","25.0389833333333","6502500","雙溪區"
"252004","249-BX","2018/04/28 07:19:26","新北市三芝區福德里大湖9-1號","121.505668333333","25.2218266666667","6502100","三芝區"
"252007","AAC-283","2018/04/28 07:19:19","新北市三芝區錫板里海尾25號","121.484273333333","25.2556066666667","6502100","三芝區"
"237001","159-UY","2018/04/28 07:19:30","新北市三峽區中山路459巷52-1號","121.356428333333","24.9368133333333","6500900","三峽區"
"236011","165-UM","2018/04/28 07:19:17","新北市土城區中央路一段48號","121.447671666667","24.99019","6501300","土城區"
"236002","339-SR","2018/04/28 07:19:22","新北市土城區南天母路143號","121.447841666667","24.95339","6501300","土城區"
"220070","282-UM","2018/04/28 07:16:00","新北市板橋區國光路51號","121.45807","25.0179916666667","6500100","板橋區"
