"lineid","car","time","location","longitude","latitude","cityid","cityname"
"234005","693-BX","2018/03/08 08:49:20","新北市永和區安樂路270號","121.514476666667","25.0040833333333","6500400","永和區"
"248005","653-BX","2018/03/08 08:49:17","新北市五股區明德路12巷6號","121.433353333333","25.0718083333333","6501500","五股區"
"232001","290-BY","2018/03/08 08:49:13","新北市坪林區虎寮潭1號","121.740925","24.9505266666667","6502000","坪林區"
"244012","069-UM","2018/03/08 08:49:29","新北市林口區中山路68-1號","121.393303333333","25.0786","6501700","林口區"
"244006","080-UY","2018/03/08 08:49:21","新北市林口區竹林路77-8號","121.388641666667","25.0796633333333","6501700","林口區"
"244004","248-BX","2018/03/08 08:49:25","新北市林口區下福里86-1號","121.308466666667","25.1156583333333","6501700","林口區"
"244018","402-UM","2018/03/08 08:49:13","新北市林口區忠孝路512巷49號","121.371688333333","25.0683716666667","6501700","林口區"
"244024","742-UY","2018/03/08 08:49:31","新北市林口區南勢六街30巷52號","121.356585","25.071325","6501700","林口區"
"244022","483-VK","2018/03/08 08:49:20","新北市林口區東湖路84號","121.386695","25.0740383333333","6501700","林口區"
"244016","485-VK","2018/03/08 08:49:21","新北市林口區八德路20巷17號","121.367551666667","25.0678033333333","6501700","林口區"
"244008","656-BX","2018/03/08 08:49:12","新北市林口區竹林路606巷9號","121.385846666667","25.0827233333333","6501700","林口區"
"244010","701-TV","2018/03/08 08:49:25","新北市林口區中正路144號","121.392788333333","25.0774216666667","6501700","林口區"
"244020","838-TS","2018/03/08 08:49:22","新北市林口區自強三街28號","121.398743333333","25.0770516666667","6501700","林口區"
"222006","289-BY","2018/03/08 08:48:43","新北市深坑區大坪街11號","121.630753333333","25.0192333333333","6501800","深坑區"
"231069","189-VK","2018/03/08 08:43:54","新北市新店區新潭路三段236號","121.500223333333","24.9028966666667","6500600","新店區"
"231008","192-VK","2018/03/08 08:49:23","新北市新店區新烏路三段364號","121.546098333333","24.893775","6500600","新店區"
"235001","611-BX","2018/03/08 08:49:24","新北市中和區民安街180號","121.475996666667","24.999935","6500300","中和區"
"226005","5620-A6","2018/03/08 08:49:26","新北市平溪區十分里十分街149號","121.77753","25.0433733333333","6502400","平溪區"
"226002","7418-A5","2018/03/08 08:49:13","新北市平溪區東勢里芊蓁林32-2號","121.727418333333","24.9782","6502400","平溪區"
"226003","AGD-0702","2018/03/08 08:49:16","新北市平溪區十分里十分街271號","121.778801666667","25.04497","6502400","平溪區"
"223006","022-BY","2018/03/08 08:49:14","新北市石碇區溪邊寮2-2號","121.657653333333","24.9768166666667","6501900","石碇區"
"223001","205-TH","2018/03/08 08:49:16","新北市石碇區北宜路五段66號","121.638323333333","24.953755","6501900","石碇區"
"223008","406-TH","2018/03/08 08:49:27","新北市石碇區光明路13號","121.679975","25.0335","6501900","石碇區"
"223001","592-UM","2018/03/08 08:49:29","新北市石碇區北宜路五段76號","121.645641666667","24.9530116666667","6501900","石碇區"
"223004","660-BX","2018/03/08 08:49:10","新北市石碇區碇坪路二段51號","121.684333333333","24.9717783333333","6501900","石碇區"
"223007","661-BX","2018/03/08 08:49:19","新北市石碇區碇南路二段5-1號","121.670386666667","25.0260216666667","6501900","石碇區"
"223005","677-TV","2018/03/08 08:47:20","新北市石碇區崩山53號","121.682401666667","24.9688616666667","6501900","石碇區"
"252004","249-BX","2018/03/08 08:49:15","新北市三芝區興華里田心子20-3號","121.493958333333","25.2020283333333","6502100","三芝區"
"252007","AAC-283","2018/03/08 08:49:22","新北市三芝區後厝里北勢子28號","121.475271666667","25.2508333333333","6502100","三芝區"
"237001","159-UY","2018/03/08 08:49:21","新北市三峽區大德路135號","121.376073333333","24.9447316666667","6500900","三峽區"
"236009","165-UM","2018/03/08 08:49:31","新北市土城區清水路32巷2號","121.455858333333","24.9809466666667","6501300","土城區"
"236003","339-SR","2018/03/08 08:49:18","新北市土城區中央路三段281巷11弄3號","121.426543333333","24.9628833333333","6501300","土城區"
"236005","498-BY","2018/03/08 08:49:15","新北市土城區永和街120-16號","121.435831666667","24.9566316666667","6501300","土城區"
"242057","986-R7","2018/03/08 08:49:17","新北市新莊區中正路889-2號","121.41544","25.02379","6500500","新莊區"
"242052","751-BX","2018/03/08 08:49:20","新北市新莊區光華街58號","121.428353333333","25.0118783333333","6500500","新莊區"
"242026","615-BX","2018/03/08 08:49:12","新北市新莊區中平路377巷28號","121.442935","25.0525133333333","6500500","新莊區"
"242024","613-BX","2018/03/08 08:49:32","新北市新莊區五權一路12巷16號","121.457333333333","25.0645633333333","6500500","新莊區"
"242028","612-BX","2018/03/08 08:49:20","新北市新莊區中榮街152巷45號","121.445521666667","25.0537316666667","6500500","新莊區"
"242040","566-BX","2018/03/08 08:49:25","新北市新莊區天祥街91巷34號","121.414675","25.0286933333333","6500500","新莊區"
"242045","497-BY","2018/03/08 08:49:31","新北市新莊區福營路336號","121.421638333333","25.0267866666667","6500500","新莊區"
"242030","442-UM","2018/03/08 08:49:28","新北市新莊區新泰路255巷62號","121.443625","25.0395033333333","6500500","新莊區"
"242049","441-UM","2018/03/08 08:49:27","新北市新莊區西盛街131號","121.428215","25.0186783333333","6500500","新莊區"
"242055","440-UM","2018/03/08 08:49:23","新北市新莊區瓊林路46-6號","121.447156666667","25.0293533333333","6500500","新莊區"
"242035","415-TV","2018/03/08 08:49:27","新北市新莊區建安街101巷32號","121.427096666667","25.0236266666667","6500500","新莊區"
"242006","413-TV","2018/03/08 08:49:22","新北市新莊區思源路593巷21號","121.45832","25.05963","6500500","新莊區"
"242043","400-BY","2018/03/08 08:49:25","新北市新莊區中正路891-27號","121.415071666667","25.0229166666667","6500500","新莊區"
"242022","362-BY","2018/03/08 08:49:13","新北市新莊區頭前路82號","121.466228333333","25.052555","6500500","新莊區"
"242059","353-BY","2018/03/08 08:49:15","新北市新莊區後港一路104號","121.42818","25.02685","6500500","新莊區"
"242008","132-UY","2018/03/08 08:49:24","新北市新莊區昌盛街19號","121.453495","25.0499633333333","6500500","新莊區"
"242038","133-UY","2018/03/08 08:49:20","新北市新莊區民安路299巷51號","121.429616666667","25.02376","6500500","新莊區"
"242047","172-VK","2018/03/08 08:49:22","新北市新莊區建安街92巷9號","121.425855","25.0242383333333","6500500","新莊區"
"242010","173-VK","2018/03/08 08:49:03","新北市新莊區中港路591巷19號","121.450168333333","25.0523616666667","6500500","新莊區"
"242003","176-VK","2018/03/08 08:49:18","新北市新莊區化成路29巷59號","121.462558333333","25.0439833333333","6500500","新莊區"
"242014","346-TH","2018/03/08 08:49:29","新北市新莊區復興路一段47巷9號","121.446771666667","25.0426066666667","6500500","新莊區"
"242020","348-TH","2018/03/08 08:49:32","新北市新莊區建中街24號","121.449173333333","25.0375066666667","6500500","新莊區"
"242001","349-TH","2018/03/08 08:49:14","新北市新莊區中正路180號","121.449875","25.035675","6500500","新莊區"
"242018","350-TH","2018/03/08 08:49:23","新北市新莊區民生街15巷9號","121.455286666667","25.0426183333333","6500500","新莊區"
"242012","351-TH","2018/03/08 08:49:13","新北市新莊區幸福路710巷5弄16號","121.449218333333","25.0497366666667","6500500","新莊區"
"220057","282-UM","2018/03/08 08:49:30","新北市五股區新五路三段202號","121.446045","25.090005","6500100","板橋區"
"242016","281-VK","2018/03/08 08:49:25","新北市新莊區中港路350號","121.452075","25.046295","6500500","新莊區"
"242033","280-VK","2018/03/08 08:49:27","新北市新莊區仁愛街73號","121.444225","25.0378","6500500","新莊區"
