"lineid","car","time","location","longitude","latitude","cityid","cityname"
"234005","693-BX","2018/03/08 09:59:20","新北市新店區薏仁坑路自強巷1號","121.49739","24.9576916666667","6500400","永和區"
"248005","653-BX","2018/03/08 09:59:17","新北市五股區蓬萊路6巷10號","121.435773333333","25.07992","6501500","五股區"
"244012","069-UM","2018/03/08 09:59:29","新北市林口區麗園一街1號","121.375785","25.0725466666667","6501700","林口區"
"244018","402-UM","2018/03/08 09:59:13","新北市林口區麗園二街1巷6-2號","121.378026666667","25.07017","6501700","林口區"
"244022","483-VK","2018/03/08 09:59:19","新北市林口區仁愛路二段377號","121.370336666667","25.080065","6501700","林口區"
"222006","289-BY","2018/03/08 09:59:13","新北市深坑區王軍寮7-5號","121.614425","24.983995","6501800","深坑區"
"231069","189-VK","2018/03/08 09:59:33","新北市新店區新潭路三段215巷25號","121.508085","24.9040983333333","6500600","新店區"
"231008","192-VK","2018/03/08 09:49:03","新北市新店區平廣路一段256號","121.50765","24.8881733333333","6500600","新店區"
"223001","205-TH","2018/03/08 09:59:29","新北市石碇區半路店3號","121.64839","24.9648","6501900","石碇區"
"252004","249-BX","2018/03/08 09:59:15","新北市三芝區福德里埔尾38號","121.510333333333","25.2348583333333","6502100","三芝區"
"252007","AAC-283","2018/03/08 09:59:22","新北市三芝區新庄里新庄子80號","121.508348333333","25.2721733333333","6502100","三芝區"
"237001","159-UY","2018/03/08 09:59:26","新北市三峽區大學路125號","121.374668333333","24.9432716666667","6500900","三峽區"
"236005","498-BY","2018/03/08 09:59:15","新北市土城區中華路二段88號","121.4379","24.975505","6501300","土城區"
"242045","497-BY","2018/03/08 09:59:31","新北市泰山區新五路一段91號","121.441073333333","25.0608466666667","6500500","新莊區"
"242030","442-UM","2018/03/08 09:59:22","新北市新莊區中正路508巷5弄2號","121.43502","25.033865","6500500","新莊區"
"242003","176-VK","2018/03/08 09:59:33","新北市新莊區化成路363巷55號","121.463313333333","25.05665","6500500","新莊區"
