"lineid","car","time","location","longitude","latitude","cityid","cityname"
"234005","693-BX","2018/03/08 10:50:01","新北市永和區福和路1號","121.52671","25.01003","6500400","永和區"
"231069","189-VK","2018/03/08 10:59:14","新北市新店區新潭路二段2號","121.527891666667","24.9271","6500600","新店區"
"231008","192-VK","2018/03/08 10:59:23","新北市新店區松林路16巷41號","121.546428333333","24.907425","6500600","新店區"
"224010","AGQ-8101","2018/03/08 10:55:49","新北市雙溪區三貂里石壁坑13-2號","121.834026666667","25.0703133333333","6501200","瑞芳區"
"242045","497-BY","2018/03/08 10:59:31","新北市五股區新五路二段24號","121.437955","25.0655533333333","6500500","新莊區"
