"lineid","car","time","location","longitude","latitude","cityid","cityname"
"234005","693-BX","2018/03/08 11:44:55","新北市中和區興南路三段47巷32-6號","121.497065","24.9778","6500400","永和區"
"234040","862-TW","2018/03/08 12:09:20","新北市永和區福和路1號","121.526465","25.0096733333333","6500400","永和區"
"231008","192-VK","2018/03/08 12:09:23","新北市新店區頂石厝路36號","121.53684","24.9172583333333","6500600","新店區"
"228005","097-TW","2018/03/08 12:09:26","新北市貢寮區福隆里興隆街36號","121.942581666667","25.0165466666667","6502600","貢寮區"
"228004","212-TW","2018/03/08 12:09:28","新北市貢寮區貢寮里長泰路5號","121.905593333333","25.02089","6502600","貢寮區"
