"lineid","car","time","location","longitude","latitude","cityid","cityname"
"234036","336-UY","2018/03/08 12:19:25","新北市永和區福和路1號","121.526686666667","25.010135","6500400","永和區"
"234040","862-TW","2018/03/08 12:19:20","新北市永和區福和路1號","121.526435","25.009695","6500400","永和區"
"243007","380-SR","2018/03/08 12:16:52","新北市泰山區犁頭窠12鄰3號","121.423551666667","25.0603566666667","6501600","泰山區"
"231008","192-VK","2018/03/08 12:19:03","新北市新店區新烏路一段140-1號","121.546358333333","24.9323416666667","6500600","新店區"
"235025","378-QA","2018/03/08 12:19:23","新北市中和區和城路一段271巷1號","121.485475","24.991945","6500300","中和區"
"228005","097-TW","2018/03/08 12:19:26","新北市貢寮區福連里福連街36號","121.990081666667","25.0101583333333","6502600","貢寮區"
"228004","212-TW","2018/03/08 12:19:28","新北市貢寮區貢寮里長泰路17-2號","121.892711666667","25.020845","6502600","貢寮區"
