"lineid","car","time","location","longitude","latitude","cityid","cityname"
"234044","148-BY","2018/03/08 13:39:44","新北市永和區永元路101號","121.522508333333","25.0022466666667","6500400","永和區"
"234005","207-UY","2018/03/08 13:39:40","新北市永和區永和路一段122號","121.513806666667","25.0077316666667","6500400","永和區"
"234078","298-R6","2018/03/08 13:39:23","新北市永和區林森路20巷5號","121.52591","25.0056166666667","6500400","永和區"
"234036","336-UY","2018/03/08 13:39:25","新北市永和區民樂街31巷3號","121.527895","25.0015383333333","6500400","永和區"
"234062","337-UY","2018/03/08 13:39:31","新北市永和區秀朗路一段192巷6弄5號","121.519345","25.002125","6500400","永和區"
"234084","338-UY","2018/03/08 13:39:28","新北市永和區成功路一段18巷15號","121.526315","25.0049733333333","6500400","永和區"
"234068","552-UM","2018/03/08 13:39:28","新北市永和區永和路二段235號","121.515605","25.0142983333333","6500400","永和區"
"234015","745-BX","2018/03/08 13:39:24","新北市永和區永和路二段405巷3號","121.51529","25.01721","6500400","永和區"
"234028","746-BX","2018/03/08 13:39:30","新北市永和區民權路1巷8號","121.520663333333","24.99843","6500400","永和區"
"234052","KEA-2590","2018/03/08 13:39:40","新北市永和區竹林路39巷24弄3號","121.519145","25.0144833333333","6500400","永和區"
"234012","KEA-2591","2018/03/08 13:39:36","新北市永和區仁愛路191號","121.510196666667","25.0126016666667","6500400","永和區"
"234060","AAD-866","2018/03/08 13:39:41","新北市永和區秀朗路一段185號","121.51737","25.0036666666667","6500400","永和區"
"234040","862-TW","2018/03/08 13:39:40","新北市永和區中和路305巷2弄1號","121.506673333333","25.000065","6500400","永和區"
"234048","863-TW","2018/03/08 13:39:26","新北市永和區保安路31號","121.509953333333","25.0162516666667","6500400","永和區"
"234025","9371-KE","2018/03/08 13:39:32","新北市永和區永平路191號","121.50981","25.0098216666667","6500400","永和區"
"234010","9373-KE","2018/03/08 13:39:36","新北市永和區信義路25巷53號","121.512288333333","25.0115033333333","6500400","永和區"
"248013","025-BX","2018/03/08 13:39:40","新北市五股區中興路四段67-2號","121.436935","25.0833966666667","6501500","五股區"
"248015","026-BX","2018/03/08 13:39:25","新北市五股區凌雲路一段149巷13-1號","121.448605","25.10089","6501500","五股區"
"248005","077-UY","2018/03/08 13:39:33","新北市五股區中興路一段54號","121.467958333333","25.0726966666667","6501500","五股區"
"248007","095-VK","2018/03/08 13:39:31","新北市五股區中興路一段150巷21號","121.464648333333","25.0746416666667","6501500","五股區"
"248011","247-BX","2018/03/08 13:39:37","新北市五股區成泰路三段6號","121.4412","25.0874783333333","6501500","五股區"
"248017","261-SL","2018/03/08 13:29:25","新北市五股區御史路180號","121.423508333333","25.1057233333333","6501500","五股區"
"248003","677-BX","2018/03/08 13:39:37","新北市五股區民義路一段255-3號","121.427333333333","25.0912916666667","6501500","五股區"
"248001","678-BX","2018/03/08 13:39:33","新北市五股區西雲路247號","121.449316666667","25.0979433333333","6501500","五股區"
"248009","682-TV","2018/03/08 13:39:41","新北市五股區水碓七路168號","121.430811666667","25.0739666666667","6501500","五股區"
"234022","9380-KE","2018/03/08 13:39:36","新北市永和區中正路702巷18號","121.516458333333","25.010555","6500400","永和區"
"234076","969-R7","2018/03/08 13:39:37","新北市永和區民權路20號","121.52025","24.9993783333333","6500400","永和區"
"234072","AAC-211","2018/03/08 13:39:27","新北市永和區竹林路213巷19號","121.522086666667","25.0089883333333","6500400","永和區"
"234066","AAC-212","2018/03/08 13:39:28","新北市永和區中山路一段191巷9弄2號","121.509751666667","25.0080683333333","6500400","永和區"
"234001","AAC-295","2018/03/08 13:39:32","新北市永和區福和路352號","121.514833333333","25.0073833333333","6500400","永和區"
"244004","248-BX","2018/03/08 13:39:28","新北市林口區寶斗厝坑51號","121.352645","25.117785","6501700","林口區"
"243004","AAD-798","2018/03/08 13:39:28","新北市泰山區泰林路二段491號","121.424791666667","25.063945","6501600","泰山區"
"243003","297-R6","2018/03/08 13:39:26","新北市泰山區泰林路二段196號","121.433486666667","25.0612183333333","6501600","泰山區"
"243007","380-SR","2018/03/08 13:39:19","新北市泰山區犁頭窠12鄰3號","121.423535","25.0605833333333","6501600","泰山區"
"243005","646-TV","2018/03/08 13:39:28","新北市泰山區明志路三段206巷3號","121.42327","25.0379716666667","6501600","泰山區"
"243008","680-BX","2018/03/08 13:39:39","新北市泰山區泰林路二段599巷1-1號","121.421415","25.0632233333333","6501600","泰山區"
"231002","002-UM","2018/03/08 13:39:35","新北市新店區中央三街127號","121.524026666667","24.9768716666667","6500600","新店區"
"231025","0293-UT","2018/03/08 13:39:24","新北市新店區中央六街56號","121.527908333333","24.975745","6500600","新店區"
"231028","046-UY","2018/03/08 13:39:22","新北市新店區安和路二段120號","121.51904","24.9707133333333","6500600","新店區"
"231030","047-UY","2018/03/08 13:39:38","新北市新店區安康路一段52巷2號","121.53005","24.9611833333333","6500600","新店區"
"231029","106-UY","2018/03/08 13:39:38","新北市新店區安康路二段170號","121.511911666667","24.9605666666667","6500600","新店區"
"231018","107-UY","2018/03/08 13:39:37","新北市新店區百忍街17巷2號","121.534245","24.9756716666667","6500600","新店區"
"231021","187-VK","2018/03/08 13:39:42","新北市新店區永興路88-1號","121.544033333333","24.9337266666667","6500600","新店區"
"231017","KEA-2219","2018/03/08 13:39:20","新北市新店區竹林路2巷21-1號","121.550301666667","24.95107","6500600","新店區"
"231026","256-BX","2018/03/08 13:39:41","新北市新店區中正路293號","121.537231666667","24.974565","6500600","新店區"
"231010","278-BY","2018/03/08 13:39:40","新北市新店區中正路293號","121.53721","24.97453","6500600","新店區"
"231027","3712-VJ","2018/03/08 13:39:32","新北市新店區北宜路一段105巷4弄3號","121.539928333333","24.955455","6500600","新店區"
"231024","4716-K9","2018/03/08 13:39:34","新北市新店區華興街38巷3號","121.537111666667","24.9691566666667","6500600","新店區"
"231038","4715-K9","2018/03/08 13:39:29","新北市新店區安華路30巷1號","121.519621666667","24.9592733333333","6500600","新店區"
"231036","512-UM","2018/03/08 13:39:35","新北市新店區安祥路142號","121.47428","24.955495","6500600","新店區"
"231023","513-UM","2018/03/08 13:39:38","新北市新店區新店路128號","121.53714","24.95506","6500600","新店區"
"231035","515-UM","2018/03/08 13:39:32","新北市新店區安華路28-1號","121.519516666667","24.96118","6500600","新店區"
"231001","619-UM","2018/03/08 13:39:31","新北市新店區中正路360號","121.535428333333","24.975945","6500600","新店區"
"231003","641-BX","2018/03/08 13:39:38","新北市新店區中興路一段266-6號","121.545","24.96768","6500600","新店區"
"231034","645-TV","2018/03/08 13:39:43","新北市新店區車子路162號","121.50442","24.9459116666667","6500600","新店區"
"231013","719-UM","2018/03/08 13:39:34","新北市新店區中正路454-5號","121.534573333333","24.979015","6500600","新店區"
"231011","719-UY","2018/03/08 13:39:35","新北市新店區德正街27巷27號","121.545638333333","24.9716033333333","6500600","新店區"
"231031","720-UM","2018/03/08 13:39:23","新北市新店區莒光路67號","121.523658333333","24.956585","6500600","新店區"
"231005","897-TW","2018/03/08 13:39:29","新北市新店區寶中路72號","121.547925","24.9805916666667","6500600","新店區"
"231006","898-TW","2018/03/08 13:39:28","新北市新店區北宜路一段83號","121.538766666667","24.9559216666667","6500600","新店區"
"231004","899-TW","2018/03/08 13:39:39","新北市新店區北新路二段19號","121.542776666667","24.9715566666667","6500600","新店區"
"231037","AKT-0513","2018/03/08 13:39:30","新北市新店區安康路二段382-2號","121.500435","24.957275","6500600","新店區"
"235030","003-UY","2018/03/08 13:39:27","新北市中和區水源路26號","121.504456666667","25.0035166666667","6500300","中和區"
"235028","005-UY","2018/03/08 13:39:40","新北市中和區連城路103號","121.496298333333","24.99955","6500300","中和區"
"235027","006-UY","2018/03/08 13:39:28","新北市中和區連城路401號","121.48618","24.995965","6500300","中和區"
"235020","096-UM","2018/03/08 13:39:31","新北市中和區中山路二段568巷22號","121.482511666667","25.0063716666667","6500300","中和區"
"235003","097-UM","2018/03/08 13:39:35","新北市中和區大勇街27巷20號","121.516441666667","24.9938283333333","6500300","中和區"
"235029","098-UM","2018/03/08 13:39:40","新北市中和區莊敬路49巷29弄22號","121.50105","25.00654","6500300","中和區"
"235004","150-BY","2018/03/08 13:39:36","新北市中和區安平路69號","121.509911666667","24.99577","6500300","中和區"
"235022","151-BY","2018/03/08 13:39:21","新北市中和區圓通路369巷39-28號","121.489858333333","24.9855266666667","6500300","中和區"
"235019","183-VK","2018/03/08 13:39:34","新北市中和區莒光路120巷13弄2號","121.471648333333","25.00144","6500300","中和區"
"235002","185-VK","2018/03/08 13:39:34","新北市中和區立人街14巷32號","121.519506666667","24.9955016666667","6500300","中和區"
"235013","186-VK","2018/03/08 13:39:28","新北市中和區明義街11巷12弄2號","121.50379","24.99469","6500300","中和區"
"235031","255-BX","2018/03/08 13:39:24","新北市中和區新生街220巷13號","121.482918333333","24.998505","6500300","中和區"
"235008","293-VK","2018/03/08 13:39:22","新北市中和區復興路280巷15號","121.502253333333","24.99132","6500300","中和區"
"235036","301-VK","2018/03/08 13:39:35","新北市中和區中山路二段193號","121.499961666667","25.0027166666667","6500300","中和區"
"235007","352-BY","2018/03/08 13:39:36","新北市中和區景平路111巷2號","121.516443333333","24.99188","6500300","中和區"
"235032","377-QA","2018/03/08 13:39:25","新北市中和區中正路211巷29號","121.497846666667","24.9926966666667","6500300","中和區"
"235025","378-QA","2018/03/08 13:39:40","新北市中和區民享街114巷7號","121.474176666667","24.9993133333333","6500300","中和區"
"235035","269-TV","2018/03/08 13:39:34","新北市中和區光環路二段24號","121.483023333333","25.01447","6500300","中和區"
"235014","4979-A6","2018/03/08 13:39:40","新北市中和區景新街496巷33弄4號","121.513491666667","24.985795","6500300","中和區"
"235033","4980-A6","2018/03/08 13:39:28","新北市中和區連城路95號","121.496661666667","24.9996783333333","6500300","中和區"
"235006","551-UM","2018/03/08 13:39:39","新北市中和區成功路107巷1號","121.52617","24.991295","6500300","中和區"
"235009","565-BX","2018/03/08 13:39:43","新北市中和區南山路236巷30弄1號","121.505318333333","24.9885566666667","6500300","中和區"
"235001","611-BX","2018/03/08 13:39:34","新北市中和區中山路三段136巷10弄10號","121.474295","25.0070166666667","6500300","中和區"
"235018","640-BX","2018/03/08 13:39:39","新北市中和區莒光路101號","121.472415","25.0028883333333","6500300","中和區"
"235024","647-TV","2018/03/08 13:39:32","新北市中和區員山路457號","121.480523333333","25.0043316666667","6500300","中和區"
"235011","732-UM","2018/03/08 13:39:29","新北市中和區興南路一段164號","121.508055","24.986635","6500300","中和區"
"235026","800-TS","2018/03/08 13:39:32","新北市中和區中山路二段312巷19號","121.495538333333","25.0036466666667","6500300","中和區"
"235021","801-TS","2018/03/08 13:39:22","新北市中和區員山路327巷31號","121.479876666667","25.0019466666667","6500300","中和區"
"235016","805-TS","2018/03/08 13:39:35","新北市中和區興南路三段52巷6-2號","121.49366","24.976225","6500300","中和區"
"235012","896-TW","2018/03/08 13:39:37","新北市中和區中正路75號","121.500938333333","24.99342","6500300","中和區"
"235017","900-TW","2018/03/08 13:39:23","新北市中和區民德路266號","121.468073333333","24.9965566666667","6500300","中和區"
"235034","911-UM","2018/03/08 13:39:40","新北市中和區南華路57號","121.504381666667","24.9969366666667","6500300","中和區"
"235015","157-BY","2018/03/08 13:39:32","新北市中和區華新街143巷106弄30號","121.506173333333","24.9787066666667","6500300","中和區"
"235001","AAC-213","2018/03/08 13:39:25","新北市中和區景新街383巷68號","121.514718333333","24.990235","6500300","中和區"
"235023","AAC-215","2018/03/08 13:39:35","新北市中和區中正路637巷52弄1號","121.485585","24.9936383333333","6500300","中和區"
"220016","013-TV","2018/03/08 13:39:37","新北市板橋區民生路二段120號","121.470333333333","25.0197","6500100","板橋區"
"220013","072-UY","2018/03/08 13:39:39","新北市板橋區縣民大道二段106號","121.46712","25.0151116666667","6500100","板橋區"
"220034","073-UY","2018/03/08 13:39:39","新北市板橋區大智街71巷28弄22號","121.45237","25.014985","6500100","板橋區"
"220017","AAD-861","2018/03/08 13:39:29","新北市板橋區華東街1-10號","121.448298333333","24.9950666666667","6500100","板橋區"
"220039","120-SR","2018/03/08 13:39:33","新北市板橋區民生路二段120號","121.470375","25.0198166666667","6500100","板橋區"
"247009","341-TH","2018/03/08 13:39:35","新北市五股區成洲五路38號","121.453503333333","25.10139","6501400","蘆洲區"
"247005","336-TH","2018/03/08 13:39:40","新北市五股區工商路8號","121.440385","25.082385","6501400","蘆洲區"
"247007","056-VK","2018/03/08 13:39:27","新北市五股區中興路一段140巷17-1號","121.464585","25.0754766666667","6501400","蘆洲區"
"247019","053-VK","2018/03/08 13:39:37","新北市五股區成洲五路38號","121.453263333333","25.10137","6501400","蘆洲區"
"247015","007-UY","2018/03/08 13:39:38","新北市五股區新城三路61號","121.449455","25.09432","6501400","蘆洲區"
"235005","251-BX","2018/03/08 13:39:33","新北市中和區中和路400巷21號","121.511626666667","25.0023333333333","6500300","中和區"
"228005","097-TW","2018/03/08 13:39:26","新北市貢寮區美豐里文秀坑8號","121.902486666667","25.050315","6502600","貢寮區"
"228004","212-TW","2018/03/08 13:37:48","新北市貢寮區龍崗里石壁坑街30-2號","121.911185","24.999425","6502600","貢寮區"
"253003","6232-TK","2018/03/08 13:39:27","新北市石門區中山路60-44號","121.567713333333","25.2885466666667","6502200","石門區"
"253001","6251-TK","2018/03/08 13:39:41","新北市三芝區新庄里新庄子51-30號","121.508113333333","25.2782466666667","6502200","石門區"
"253002","637-UY","2018/03/08 13:39:37","新北市石門區九芎林36-1號","121.565933333333","25.2527766666667","6502200","石門區"
"253004","8270-PC","2018/03/08 13:37:02","新北市石門區竹子湖13號","121.617055","25.2560916666667","6502200","石門區"
"207002","749-BX","2018/03/08 13:39:35","新北市萬里區崁腳里崁腳路166號","121.645103333333","25.1558133333333","6502800","萬里區"
"252005","073-UM","2018/03/08 13:39:29","新北市三芝區圓山里內柑宅25號","121.538996666667","25.2189016666667","6502100","三芝區"
"207001","662-BX","2018/03/08 13:39:23","新北市萬里區磺潭里公館崙36號","121.63141","25.2099516666667","6502800","萬里區"
"252005","702-TV","2018/03/08 13:39:30","新北市三芝區圓山里木屐寮40號","121.532853333333","25.223175","6502100","三芝區"
"236076","166-UM","2018/03/08 13:39:27","新北市土城區城林路6巷80號","121.43847","24.9796216666667","6501300","土城區"
"236028","253-BX","2018/03/08 13:39:41","新北市土城區城林路6巷80號","121.438791666667","24.9797116666667","6501300","土城區"
"236012","270-VK","2018/03/08 13:39:28","新北市土城區城林路6巷80號","121.438761666667","24.9796066666667","6501300","土城區"
"236033","271-VK","2018/03/08 13:39:29","新北市土城區城林路6巷80號","121.43874","24.9797133333333","6501300","土城區"
"236018","401-BY","2018/03/08 13:39:29","新北市土城區城林路6巷80號","121.43881","24.979695","6501300","土城區"
"236005","498-BY","2018/03/08 13:39:30","新北市土城區慶祥街76號","121.43623","24.97356","6501300","土城區"
"236047","913-UM","2018/03/08 13:39:25","新北市土城區城林路6巷80號","121.438758333333","24.97966","6501300","土城區"
"221032","280-BY","2018/03/08 13:39:30","新北市汐止區秀峰路57號","121.65971","25.065095","6501100","汐止區"
"221031","353-TW","2018/03/08 13:39:25","新北市汐止區水源路二段72巷31弄9號","121.655886666667","25.054815","6501100","汐止區"
"220027","145-BY","2018/03/08 13:39:32","新北市板橋區漢生西路89巷4弄2號","121.461023333333","25.0191016666667","6500100","板橋區"
"220028","200-UY","2018/03/08 13:39:23","新北市板橋區大觀路二段265巷76弄36號","121.441093333333","24.9968016666667","6500100","板橋區"
"220030","610-BX","2018/03/08 13:39:39","新北市板橋區篤行路一段33號","121.431985","24.9943216666667","6500100","板橋區"
"220004","276-BY","2018/03/08 13:39:32","新北市板橋區四川路二段140巷20號","121.449211666667","24.9934133333333","6500100","板橋區"
"220020","277-BY","2018/03/08 13:39:25","新北市板橋區大觀路三段68號","121.433105","24.994985","6500100","板橋區"
"220019","283-VK","2018/03/08 13:39:40","新北市板橋區四川路二段140巷20號","121.449221666667","24.9934033333333","6500100","板橋區"
"220001","285-VK","2018/03/08 13:39:39","新北市板橋區民生路二段161巷1號","121.470245","25.0199266666667","6500100","板橋區"
"220031","286-VK","2018/03/08 13:39:34","新北市板橋區大觀路二段109巷1號","121.447318333333","25.0012516666667","6500100","板橋區"
"220029","287-VK","2018/03/08 13:39:27","新北市板橋區大觀路二段101巷27號","121.447151666667","25.00133","6500100","板橋區"
"220032","296-UM","2018/03/08 13:39:33","新北市板橋區大觀路二段力行1巷3弄2號","121.445386666667","24.99916","6500100","板橋區"
"220023","303-R5","2018/03/08 13:39:24","新北市板橋區華東街260號","121.452611666667","25.0016016666667","6500100","板橋區"
"220010","305-R5","2018/03/08 13:39:25","新北市板橋區民生路二段120號","121.47038","25.0197116666667","6500100","板橋區"
"220041","307-R5","2018/03/08 13:39:39","新北市板橋區民生路三段27號","121.466845","25.0241333333333","6500100","板橋區"
"220047","317-R6","2018/03/08 13:38:53","新北市板橋區民生路二段89-6號","121.47059","25.0192883333333","6500100","板橋區"
"220012","486-VK","2018/03/08 13:39:28","新北市板橋區縣民大道二段82號","121.465375","25.01437","6500100","板橋區"
"220104","560-BX","2018/03/08 13:39:25","新北市板橋區南雅西路二段145巷6號","121.4516","25.0118033333333","6500100","板橋區"
"220052","561-BX","2018/03/08 13:39:30","新北市板橋區民生路二段161巷5號","121.470096666667","25.019665","6500100","板橋區"
"220003","568-UM","2018/03/08 13:39:28","新北市板橋區華東街1-9號","121.44812","24.99499","6500100","板橋區"
"220011","609-BX","2018/03/08 13:39:38","新北市板橋區民生路二段175號","121.46997","25.0202616666667","6500100","板橋區"
"220005","686-BX","2018/03/08 13:39:37","新北市板橋區華東街1-9號","121.448231666667","24.99491","6500100","板橋區"
"220025","687-BX","2018/03/08 13:39:40","新北市板橋區沙崙街37號","121.430485","24.99461","6500100","板橋區"
"220002","741-BX","2018/03/08 13:39:37","新北市板橋區華東街1-9號","121.448131666667","24.99494","6500100","板橋區"
"220014","830-TW","2018/03/08 13:39:34","新北市板橋區民生路二段120號","121.47042","25.0194766666667","6500100","板橋區"
"220022","895-R6","2018/03/08 13:39:39","新北市板橋區南雅南路一段51號","121.455996666667","25.006105","6500100","板橋區"
"220021","985-R7","2018/03/08 13:39:41","新北市板橋區南雅南路二段116號","121.453225","25.00025","6500100","板橋區"
"220018","AAC-253","2018/03/08 13:39:36","新北市板橋區南雅南路二段120-24號","121.451725","24.9988283333333","6500100","板橋區"
