"lineid","car","time","location","longitude","latitude","cityid","cityname"
"231028","046-UY","2018/03/08 15:39:42","新北市新店區安康路二段382號","121.500425","24.957125","6500600","新店區"
"231030","047-UY","2018/03/08 15:39:32","新北市新店區新和街91號","121.520935","24.9865733333333","6500600","新店區"
"231029","106-UY","2018/03/08 15:39:38","新北市新店區安康路三段30號","121.493055","24.95311","6500600","新店區"
"231018","107-UY","2018/03/08 15:39:37","新北市新店區民生路156巷12號","121.528568333333","24.9811316666667","6500600","新店區"
"231035","110-UY","2018/03/08 15:39:34","新北市新店區安興路83-3號","121.515261666667","24.9754933333333","6500600","新店區"
"231021","187-VK","2018/03/08 15:39:42","新北市新店區新烏路一段9-1號","121.546965","24.9514916666667","6500600","新店區"
"231017","KEA-2219","2018/03/08 15:39:40","新北市新店區北宜路一段276號","121.546201666667","24.95283","6500600","新店區"
"231026","256-BX","2018/03/08 15:39:40","新北市新店區三民路75巷4弄2號","121.535516666667","24.9709483333333","6500600","新店區"
"231046","278-BY","2018/03/08 15:39:43","新北市新店區安華路28-1號","121.519453333333","24.961025","6500600","新店區"
"231024","4716-K9","2018/03/08 15:38:54","新北市新店區薏仁坑路2-1號","121.500736666667","24.9581933333333","6500600","新店區"
"231038","4715-K9","2018/03/08 15:39:29","新北市新店區安康路一段355號","121.519866666667","24.9637916666667","6500600","新店區"
"231036","512-UM","2018/03/08 15:39:35","新北市新店區安祥路63號","121.484","24.96035","6500600","新店區"
"231023","513-UM","2018/03/08 15:39:33","新北市新店區中興路一段271號","121.545096666667","24.9680516666667","6500600","新店區"
"231003","641-BX","2018/03/08 15:39:38","新北市新店區寶興路49-1號","121.549443333333","24.9730016666667","6500600","新店區"
"231034","645-TV","2018/03/08 15:39:43","新北市新店區玫瑰路58巷2號","121.495401666667","24.9466066666667","6500600","新店區"
"231039","718-UY","2018/03/08 15:39:42","新北市新店區寶元路二段64巷1號","121.547256666667","24.9810566666667","6500600","新店區"
"231013","719-UM","2018/03/08 15:39:50","新北市新店區永業路81巷5弄8號","121.530448333333","24.94918","6500600","新店區"
"231011","719-UY","2018/03/08 15:39:41","新北市新店區寶元路一段105號","121.545403333333","24.983035","6500600","新店區"
"231031","720-UM","2018/03/08 15:39:43","新北市新店區雙城路133號","121.497795","24.9389966666667","6500600","新店區"
"231005","897-TW","2018/03/08 15:39:50","新北市新店區建國路132號","121.53909","24.9788383333333","6500600","新店區"
"231004","899-TW","2018/03/08 15:39:47","新北市新店區民族路108號","121.538206666667","24.9773783333333","6500600","新店區"
"231037","AKT-0513","2018/03/08 15:39:30","新北市新店區安興路105-1號","121.514633333333","24.9777116666667","6500600","新店區"
"241011","013-R5","2018/03/08 15:39:37","新北市三重區龍濱路285號","121.50106","25.0735033333333","6500200","三重區"
"241028","022-UY","2018/03/08 15:37:56","新北市三重區重新路四段121號","121.484755","25.05253","6500200","三重區"
"241015","062-VK","2018/03/08 15:39:44","新北市三重區重新路四段121號","121.485115","25.0520666666667","6500200","三重區"
"241020","156-TC","2018/03/08 15:39:33","新北市三重區忠孝路二段160號","121.482133333333","25.0678733333333","6500200","三重區"
"241005","262-UM","2018/03/08 15:39:29","新北市三重區成功路112-4號","121.486025","25.052045","6500200","三重區"
"241013","270-UM","2018/03/08 15:39:35","新北市三重區正義北路291號","121.494826666667","25.0705883333333","6500200","三重區"
"241007","398-BY","2018/03/08 15:39:35","新北市三重區重新路四段121號","121.48523","25.052","6500200","三重區"
"241026","887-TS","2018/03/08 15:38:26","新北市三重區重新路四段121號","121.4848","25.051995","6500200","三重區"
"241012","941-UM","2018/03/08 15:39:48","新北市三重區自強路一段66號","121.497145","25.0665783333333","6500200","三重區"
"241029","942-UM","2018/03/08 15:39:32","新北市三重區大同南路153-2號","121.496618333333","25.056735","6500200","三重區"
"241033","AAC-255","2018/03/08 15:39:34","新北市三重區中興南街62號","121.47057","25.04412","6500200","三重區"
"235033","4980-A6","2018/03/08 15:39:47","新北市中和區員山路365號","121.48103","25.00208","6500300","中和區"
"235026","800-TS","2018/03/08 15:39:32","新北市中和區中山路二段478號","121.487951666667","25.0047966666667","6500300","中和區"
"235034","911-UM","2018/03/08 15:39:40","新北市中和區中正路294號","121.494465","24.994095","6500300","中和區"
"235023","AAC-215","2018/03/08 15:39:35","新北市中和區員山路31-4號","121.480533333333","24.987655","6500300","中和區"
"220017","AAD-861","2018/03/08 15:39:49","新北市八里區中山路三段132號","121.385276666667","25.1452266666667","6500100","板橋區"
"247009","341-TH","2018/03/08 15:39:35","新北市五股區新城三路45號","121.448701666667","25.0933033333333","6501400","蘆洲區"
"247006","336-TH","2018/03/08 15:38:32","新北市五股區中興路三段163號","121.449233333333","25.0805983333333","6501400","蘆洲區"
"224007","275-VK","2018/03/08 15:39:32","新北市瑞芳區傑魚坑路324-2號","121.785983333333","25.104145","6501200","瑞芳區"
"227004","400-TW","2018/03/08 15:39:33","新北市雙溪區牡丹里頂坪5-1號","121.862776666667","25.03871","6502500","雙溪區"
"227010","030-BX","2018/03/08 15:39:33","新北市雙溪區牡丹里中正路46號","121.864943333333","25.0388433333333","6502500","雙溪區"
"236066","105-UM","2018/03/08 15:39:37","新北市土城區中央路二段346巷11號","121.439673333333","24.9721633333333","6501300","土城區"
"236040","107-UM","2018/03/08 15:39:43","新北市土城區學享街49號","121.451793333333","24.98714","6501300","土城區"
"236076","166-UM","2018/03/08 15:39:27","新北市土城區中央路四段321巷26號","121.411295","24.9513216666667","6501300","土城區"
"236028","253-BX","2018/03/08 15:39:48","新北市土城區裕民路32巷2號","121.447758333333","24.9882516666667","6501300","土城區"
"236024","269-VK","2018/03/08 15:39:41","新北市土城區裕生路83巷16弄2號","121.447241666667","24.9841116666667","6501300","土城區"
"236012","270-VK","2018/03/08 15:39:47","新北市土城區廣明街90巷20號","121.455488333333","24.9945316666667","6501300","土城區"
"236018","401-BY","2018/03/08 15:39:49","新北市土城區延吉街92號","121.4706","24.98635","6501300","土城區"
"236056","912-UM","2018/03/08 15:39:41","新北市土城區中央路一段269-5號","121.444763333333","24.98504","6501300","土城區"
"236047","913-UM","2018/03/08 15:39:45","新北市土城區金城路三段188號","121.468225","24.9880316666667","6501300","土城區"
"236060","915-UM","2018/03/08 15:39:37","新北市土城區延和路12巷13號","121.464551666667","24.9873733333333","6501300","土城區"
"236052","AAC-216","2018/03/08 15:39:47","新北市土城區學府路一段8號","121.459466666667","24.9884933333333","6501300","土城區"
"238002","755-BX","2018/03/08 15:39:46","新北市樹林區日新街109號","121.421403333333","24.989825","6500700","樹林區"
"238010","601-UM","2018/03/08 15:39:50","新北市樹林區三福街77號","121.407408333333","25.0163516666667","6500700","樹林區"
"238006","599-UM","2018/03/08 15:39:35","新北市樹林區八德街170號","121.421601666667","24.9777533333333","6500700","樹林區"
"238005","571-TV","2018/03/08 15:39:45","新北市樹林區中華路211號","121.41965","24.98141","6500700","樹林區"
"238011","5061-A6","2018/03/08 15:39:45","新北市樹林區中山路三段135號","121.396273333333","24.9732183333333","6500700","樹林區"
"238009","KEA-2213","2018/03/08 15:39:39","新北市樹林區中華路187巷15號","121.420823333333","24.981025","6500700","樹林區"
"238008","KEA-2539","2018/03/08 15:39:35","新北市樹林區柑園街一段168號","121.396976666667","24.9567916666667","6500700","樹林區"
"238012","303-VK","2018/03/08 15:39:38","新北市樹林區鎮前街433號","121.413441666667","24.9828233333333","6500700","樹林區"
"238001","283-BY","2018/03/08 15:39:48","新北市樹林區保安街二段325巷27號","121.411675","25.006065","6500700","樹林區"
"238001","282-BY","2018/03/08 15:39:37","新北市樹林區潭興街107巷2弄1號","121.42474","24.9992633333333","6500700","樹林區"
"238007","268-VK","2018/03/08 15:38:54","新北市樹林區俊英街176號","121.426248333333","25.0075083333333","6500700","樹林區"
"238013","172-UY","2018/03/08 15:39:48","新北市樹林區中洲街52號","121.396833333333","24.9708716666667","6500700","樹林區"
"220050","245-BX","2018/03/08 15:39:51","新北市板橋區漢生東路83巷1號","121.4664","25.01591","6500100","板橋區"
"220038","487-VK","2018/03/08 15:39:45","新北市板橋區四維路296號","121.462723333333","25.029325","6500100","板橋區"
"220052","561-BX","2018/03/08 15:39:51","新北市板橋區漢生東路53巷17號","121.466465","25.01725","6500100","板橋區"
