"lineid","car","time","location","longitude","latitude","cityid","cityname"
"231030","047-UY","2018/03/08 15:49:32","新北市新店區永安街30號","121.517628333333","24.98664","6500600","新店區"
"231018","107-UY","2018/03/08 15:49:17","新北市新店區中正路663巷7弄15號","121.532916666667","24.9901233333333","6500600","新店區"
"231035","110-UY","2018/03/08 15:49:15","新北市新店區安興路83-3號","121.515241666667","24.9755016666667","6500600","新店區"
"231021","187-VK","2018/03/08 15:49:23","新北市新店區安康路一段48號","121.53049","24.961135","6500600","新店區"
"231017","KEA-2219","2018/03/08 15:49:20","新北市新店區中華路117巷4弄4號","121.538041666667","24.9688933333333","6500600","新店區"
"231026","256-BX","2018/03/08 15:49:20","新北市新店區中正路541-1號","121.53322","24.9868516666667","6500600","新店區"
"231046","278-BY","2018/03/08 15:49:23","新北市新店區安華路28-1號","121.519671666667","24.9610983333333","6500600","新店區"
"231024","4716-K9","2018/03/08 15:49:34","新北市新店區薏仁坑路自強巷1號","121.4978","24.957865","6500600","新店區"
"231038","4715-K9","2018/03/08 15:49:29","新北市新店區安康路二段152-1號","121.512333333333","24.9611083333333","6500600","新店區"
"231003","641-BX","2018/03/08 15:49:18","新北市新店區寶興路60巷4號","121.549848333333","24.9718916666667","6500600","新店區"
"231034","645-TV","2018/03/08 15:49:23","新北市新店區玫瑰路57巷34號","121.496848333333","24.9463216666667","6500600","新店區"
"231013","719-UM","2018/03/08 15:49:35","新北市新店區華潭街24號","121.529168333333","24.9530533333333","6500600","新店區"
"231011","719-UY","2018/03/08 15:49:15","新北市新店區文化路22-1號","121.543563333333","24.979695","6500600","新店區"
"231031","720-UM","2018/03/08 15:49:23","新北市新店區雙城路60巷2號","121.492146666667","24.947795","6500600","新店區"
"231005","897-TW","2018/03/08 15:49:29","新北市新店區安興路105號","121.515035","24.9779483333333","6500600","新店區"
"231037","AKT-0513","2018/03/08 15:49:30","新北市新店區安民街121巷19號","121.515148333333","24.9684666666667","6500600","新店區"
"241011","013-R5","2018/03/08 15:49:17","新北市三重區三和路二段228號","121.497538333333","25.0696366666667","6500200","三重區"
"241028","022-UY","2018/03/08 15:49:16","新北市三重區重新路三段94號","121.492576666667","25.0609733333333","6500200","三重區"
"241015","062-VK","2018/03/08 15:49:24","新北市三重區重新路四段121號","121.485123333333","25.05202","6500200","三重區"
"241017","063-VK","2018/03/08 15:49:20","新北市三重區大仁街42號","121.491716666667","25.0643583333333","6500200","三重區"
"241024","065-VK","2018/03/08 15:49:24","新北市三重區重新路四段121號","121.484913333333","25.0519833333333","6500200","三重區"
"241020","156-TC","2018/03/08 15:49:33","新北市三重區忠孝路二段61號","121.485073333333","25.070525","6500200","三重區"
"241005","262-UM","2018/03/08 15:49:29","新北市三重區仁義街241巷18號","121.496588333333","25.0831616666667","6500200","三重區"
"241016","265-UM","2018/03/08 15:49:24","新北市三重區重新路四段121號","121.485188333333","25.05204","6500200","三重區"
"241022","267-UM","2018/03/08 15:49:15","新北市三重區成功路112-3號","121.486468333333","25.05201","6500200","三重區"
"241013","270-UM","2018/03/08 15:49:15","新北市三重區三和路三段42號","121.495776666667","25.070765","6500200","三重區"
"241007","398-BY","2018/03/08 15:49:15","新北市三重區成功路108巷8號","121.48662","25.05069","6500200","三重區"
"241014","543-UM","2018/03/08 15:49:28","新北市三重區重新路四段121號","121.48508","25.0520183333333","6500200","三重區"
"241023","545-UM","2018/03/08 15:49:15","新北市三重區名源街37巷4號","121.480311666667","25.0601283333333","6500200","三重區"
"241006","AAD-863","2018/03/08 15:43:55","新北市三重區重新路四段121號","121.484568333333","25.05223","6500200","三重區"
"241026","887-TS","2018/03/08 15:49:26","新北市三重區大同南路65號","121.495926666667","25.0597783333333","6500200","三重區"
"241012","941-UM","2018/03/08 15:49:28","新北市三重區文化北路83巷2-2號","121.498421666667","25.0669283333333","6500200","三重區"
"241029","942-UM","2018/03/08 15:49:32","新北市三重區大同南路242號","121.496941666667","25.055945","6500200","三重區"
"241033","AAC-255","2018/03/08 15:49:14","新北市三重區光復路一段42號","121.472011666667","25.04783","6500200","三重區"
"235033","4980-A6","2018/03/08 15:49:28","新北市中和區連城路469巷31號","121.483543333333","24.9947633333333","6500300","中和區"
"235026","800-TS","2018/03/08 15:49:32","新北市中和區橋和路88-12號","121.490106666667","25.0051983333333","6500300","中和區"
"235023","AAC-215","2018/03/08 15:49:35","新北市中和區員山路59號","121.480875","24.99326","6500300","中和區"
"220017","AAD-861","2018/03/08 15:46:29","新北市林口區太平里180號","121.366648333333","25.133975","6500100","板橋區"
"247009","341-TH","2018/03/08 15:49:15","新北市五股區工商路8號","121.440536666667","25.0823916666667","6501400","蘆洲區"
"247006","336-TH","2018/03/08 15:48:05","新北市五股區中興路三段163號","121.44935","25.0806","6501400","蘆洲區"
"224007","275-VK","2018/03/08 15:49:32","新北市瑞芳區大寮路356-1號","121.78478","25.1032316666667","6501200","瑞芳區"
"227004","400-TW","2018/03/08 15:49:33","新北市雙溪區平林里外平林44號","121.852928333333","25.0363633333333","6502500","雙溪區"
"227010","030-BX","2018/03/08 15:49:33","新北市雙溪區牡丹里中正路46號","121.864955","25.0388016666667","6502500","雙溪區"
"236066","105-UM","2018/03/08 15:49:17","新北市土城區大安路136號","121.433595","24.9706716666667","6501300","土城區"
"236076","166-UM","2018/03/08 15:49:31","新北市土城區福安街57號","121.418446666667","24.964485","6501300","土城區"
"236024","269-VK","2018/03/08 15:49:21","新北市土城區裕生路82巷16號","121.446851666667","24.9858966666667","6501300","土城區"
"236012","270-VK","2018/03/08 15:49:27","新北市土城區廣明街70號","121.455038333333","24.9937316666667","6501300","土城區"
"236018","401-BY","2018/03/08 15:49:32","新北市土城區延吉街20號","121.47213","24.9874833333333","6501300","土城區"
"236056","912-UM","2018/03/08 15:49:21","新北市土城區中央路一段269號","121.444956666667","24.985265","6501300","土城區"
"236047","913-UM","2018/03/08 15:49:25","新北市土城區金城路三段75號","121.4666","24.9871516666667","6501300","土城區"
"236052","AAC-216","2018/03/08 15:49:23","新北市土城區中華路一段50號","121.446141666667","24.9890666666667","6501300","土城區"
"238002","755-BX","2018/03/08 15:49:22","新北市樹林區啟智街44巷1號","121.420546666667","24.9928116666667","6500700","樹林區"
"238010","601-UM","2018/03/08 15:49:26","新北市樹林區龍興街13巷7號","121.403395","25.016545","6500700","樹林區"
"238006","599-UM","2018/03/08 15:49:15","新北市樹林區水源街32巷51號","121.425405","24.9803033333333","6500700","樹林區"
"238005","571-TV","2018/03/08 15:49:24","新北市樹林區中華路68號","121.42009","24.9816216666667","6500700","樹林區"
"238011","5061-A6","2018/03/08 15:49:26","新北市樹林區山佳街57號","121.392943333333","24.9725083333333","6500700","樹林區"
"238009","KEA-2213","2018/03/08 15:49:25","新北市樹林區太順街62巷6號","121.417598333333","24.9797233333333","6500700","樹林區"
"238008","KEA-2539","2018/03/08 15:49:35","新北市樹林區柑園街二段57號","121.387083333333","24.9553016666667","6500700","樹林區"
"238012","303-VK","2018/03/08 15:49:18","新北市樹林區保安二街67號","121.424691666667","24.9947833333333","6500700","樹林區"
"238001","283-BY","2018/03/08 15:49:28","新北市樹林區光華街14巷1號","121.413383333333","25.00309","6500700","樹林區"
"238001","282-BY","2018/03/08 15:49:17","新北市樹林區保安二街31號","121.424833333333","24.9939283333333","6500700","樹林區"
"238007","268-VK","2018/03/08 15:49:14","新北市樹林區三俊街221號","121.421335","25.0150066666667","6500700","樹林區"
"238013","172-UY","2018/03/08 15:49:28","新北市樹林區佳園路一段22號","121.392745","24.9714733333333","6500700","樹林區"
