"lineid","car","time","location","longitude","latitude","cityid","cityname"
"234026","9371-KE","2018/03/08 17:39:31","新北市永和區豫溪街55號","121.517211666667","25.0099533333333","6500400","永和區"
"249005","172-UM","2018/03/08 17:39:25","新北市八里區荖阡坑路28-5號","121.40289","25.1298016666667","6502300","八里區"
"249001","173-UM","2018/03/08 17:39:39","新北市八里區龍米路二段150號","121.436288333333","25.1563366666667","6502300","八里區"
"249004","303-UY","2018/03/08 17:39:25","新北市八里區大崁一街9號","121.420151666667","25.1584233333333","6502300","八里區"
"249002","305-UY","2018/03/08 17:39:21","新北市八里區石壁腳9-5號","121.444978333333","25.1345616666667","6502300","八里區"
"249003","593-UM","2018/03/08 17:39:36","新北市八里區中山路二段312號","121.404396666667","25.1499216666667","6502300","八里區"
"232011","375-UM","2018/03/08 17:39:34","新北市坪林區水柳腳34-1號","121.710315","24.93534","6502000","坪林區"
"244013","069-UM","2018/03/08 17:39:36","新北市林口區中正路555號","121.381156666667","25.076885","6501700","林口區"
"244007","080-UY","2018/03/08 17:39:23","新北市林口區林口路247號","121.3866","25.0840916666667","6501700","林口區"
"244019","402-UM","2018/03/08 17:39:32","新北市林口區文化一路一段105號","121.372891666667","25.0710133333333","6501700","林口區"
"244025","742-UY","2018/03/08 17:39:31","新北市林口區文化三路一段385號","121.365753333333","25.073185","6501700","林口區"
"244023","483-VK","2018/03/08 17:39:43","新北市林口區東明二街101號","121.388793333333","25.070705","6501700","林口區"
"244017","485-VK","2018/03/08 17:39:30","新北市林口區忠孝路377號","121.36933","25.07162","6501700","林口區"
"244009","656-BX","2018/03/08 17:39:26","新北市林口區中北三街266號","121.38204","25.08237","6501700","林口區"
"244011","701-TV","2018/03/08 17:39:33","新北市林口區佳林路154號","121.384216666667","25.0770766666667","6501700","林口區"
"244021","838-TS","2018/03/08 17:39:31","新北市林口區醒吾新村1號","121.396456666667","25.0788816666667","6501700","林口區"
"222002","659-BX","2018/03/08 17:39:34","新北市深坑區埔新街100號","121.618676666667","25.0022616666667","6501800","深坑區"
"231046","278-BY","2018/03/08 17:39:42","新北市新店區直潭路92號","121.53092","24.937605","6500600","新店區"
"231058","3712-VJ","2018/03/08 17:39:39","新北市新店區安華路28-1號","121.519276666667","24.960625","6500600","新店區"
"241011","013-R5","2018/03/08 17:39:37","新北市三重區龍濱路257號","121.501528333333","25.072815","6500200","三重區"
"241017","063-VK","2018/03/08 17:39:39","新北市三重區大同北路34巷36號","121.49423","25.0623216666667","6500200","三重區"
"241020","156-TC","2018/03/08 17:39:33","新北市三重區忠孝路三段99巷4號","121.480125","25.0642916666667","6500200","三重區"
"241005","262-UM","2018/03/08 17:39:29","新北市三重區碧華街61號","121.484873333333","25.081365","6500200","三重區"
"241016","265-UM","2018/03/08 17:39:24","新北市三重區正義北路15-4號","121.497725","25.0630683333333","6500200","三重區"
"241007","398-BY","2018/03/08 17:39:35","新北市三重區三和路四段145巷62號","121.485696666667","25.0789616666667","6500200","三重區"
"241014","543-UM","2018/03/08 17:37:08","新北市三重區長壽街196號","121.504066666667","25.069015","6500200","三重區"
"241023","545-UM","2018/03/08 17:39:35","新北市三重區中華路101號","121.483683333333","25.0632533333333","6500200","三重區"
"241019","KEA-2593","2018/03/08 17:39:29","新北市三重區六張街219號","121.488205","25.0685933333333","6500200","三重區"
"241012","941-UM","2018/03/08 17:39:28","新北市三重區仁興街39巷35號","121.499691666667","25.07595","6500200","三重區"
"241033","AAC-255","2018/03/08 17:39:34","新北市三重區光復路一段49號","121.472186666667","25.0487766666667","6500200","三重區"
"235061","378-QA","2018/03/08 17:19:14","新北市中和區員山路36巷16-2號","121.485183333333","24.9917316666667","6500300","中和區"
"247014","546-UM","2018/03/08 17:39:40","新北市蘆洲區中正路24號","121.471423333333","25.082245","6501400","蘆洲區"
"247022","500-BY","2018/03/08 17:39:41","新北市蘆洲區三民路285-1號","121.467015","25.0900383333333","6501400","蘆洲區"
"247010","341-TH","2018/03/08 17:39:29","新北市蘆洲區中山一路56號","121.47921","25.0809316666667","6501400","蘆洲區"
"247012","339-TH","2018/03/08 17:39:35","新北市蘆洲區民權路34號","121.476355","25.0862383333333","6501400","蘆洲區"
"247004","337-TH","2018/03/08 17:39:39","新北市蘆洲區長安街170號","121.459158333333","25.0832533333333","6501400","蘆洲區"
"247006","336-TH","2018/03/08 17:39:40","新北市蘆洲區長安街44號","121.463496666667","25.07963","6501400","蘆洲區"
"247024","335-TH","2018/03/08 17:39:21","新北市蘆洲區長樂路125-1號","121.462111666667","25.0881083333333","6501400","蘆洲區"
"247018","057-VK","2018/03/08 17:39:40","新北市蘆洲區民權路81號","121.473305","25.088645","6501400","蘆洲區"
"247008","056-VK","2018/03/08 17:39:31","新北市蘆洲區民生街76號","121.472731666667","25.0792066666667","6501400","蘆洲區"
"247020","053-VK","2018/03/08 17:39:30","新北市蘆洲區民族路446-1號","121.472968333333","25.0919933333333","6501400","蘆洲區"
"247016","007-UY","2018/03/08 17:39:33","新北市蘆洲區中正路185巷31弄48號","121.467306666667","25.083015","6501400","蘆洲區"
"247002","002-UY","2018/03/08 17:39:31","新北市蘆洲區永平街62號","121.457413333333","25.091715","6501400","蘆洲區"
"228003","097-TW","2018/03/08 17:39:32","新北市貢寮區仁理村仁和路33號","121.923965","25.0538466666667","6502600","貢寮區"
"228001","212-TW","2018/03/08 17:39:36","新北市貢寮區仁理村仁愛路95-1號","121.927666666667","25.0555133333333","6502600","貢寮區"
"228002","585-TW","2018/03/08 17:39:42","新北市貢寮區福隆里外隆林街15號","121.958803333333","25.0036533333333","6502600","貢寮區"
"224010","AGQ-8101","2018/03/08 17:39:37","新北市瑞芳區岳王路130號","121.809503333333","25.1112816666667","6501200","瑞芳區"
"224006","676-BX","2018/03/08 17:39:29","新北市瑞芳區中山路326號","121.79644","25.1101866666667","6501200","瑞芳區"
"224002","639-TC","2018/03/08 17:31:59","新北市瑞芳區明燈路二段48-1號","121.809668333333","25.1079933333333","6501200","瑞芳區"
"224008","285-BY","2018/03/08 17:39:26","新北市瑞芳區明燈路一段18巷16號","121.822546666667","25.1077366666667","6501200","瑞芳區"
"224007","275-VK","2018/03/08 17:39:32","新北市平溪區新寮里五分寮10-3號","121.79712","25.0773683333333","6501200","瑞芳區"
"224009","273-VK","2018/03/08 17:39:41","新北市瑞芳區崙頂路3-1號","121.846543333333","25.105155","6501200","瑞芳區"
"224005","271-BY","2018/03/08 17:39:29","新北市瑞芳區籠山路26號","121.832343333333","25.1230733333333","6501200","瑞芳區"
"227004","400-TW","2018/03/08 17:34:50","新北市雙溪區三貂里定福路1-2號","121.850766666667","25.06347","6502500","雙溪區"
"251009","008-UM","2018/03/08 17:39:36","新北市淡水區中正路13-1號","121.443018333333","25.1696266666667","6501000","淡水區"
"251004","009-UM","2018/03/08 17:39:38","新北市淡水區中正東路二段88巷37-28號","121.459546666667","25.1430816666667","6501000","淡水區"
"251005","010-UM","2018/03/08 17:39:38","新北市淡水區鄧公路33巷3號","121.451548333333","25.1711283333333","6501000","淡水區"
"251013","179-VK","2018/03/08 17:39:36","新北市淡水區演戲埔腳7號","121.471443333333","25.194105","6501000","淡水區"
"251014","180-VK","2018/03/08 17:39:32","新北市淡水區公埔子16-6號","121.479985","25.225485","6501000","淡水區"
"251008","181-VK","2018/03/08 17:39:28","新北市淡水區八勢路一段48號","121.466128333333","25.1549983333333","6501000","淡水區"
"251015","182-VK","2018/03/08 17:39:34","新北市淡水區糞箕湖1-8號","121.483456666667","25.1708633333333","6501000","淡水區"
"251010","413-VK","2018/03/08 17:39:24","新北市淡水區淡海路280巷16號","121.419913333333","25.1893483333333","6501000","淡水區"
"251012","441-VK","2018/03/08 17:39:29","新北市淡水區北新路218號","121.451781666667","25.179845","6501000","淡水區"
"251016","442-VK","2018/03/08 17:39:30","新北市淡水區埤島39-15號","121.452748333333","25.1958933333333","6501000","淡水區"
"251006","561-UM","2018/03/08 17:39:37","新北市淡水區大信街6號","121.441685","25.1763166666667","6501000","淡水區"
"251007","577-R6","2018/03/08 17:39:27","新北市淡水區民族路33巷2號","121.464366666667","25.137405","6501000","淡水區"
"251011","650-BX","2018/03/08 17:39:34","新北市淡水區小坪頂13-3號","121.486631666667","25.1561783333333","6501000","淡水區"
"251002","672-BX","2018/03/08 17:39:41","新北市淡水區清水街250號","121.440606666667","25.172325","6501000","淡水區"
"251003","766-UM","2018/03/08 17:39:33","新北市淡水區中山北路一段38號","121.441661666667","25.17529","6501000","淡水區"
"207003","550-UM","2018/03/08 17:39:25","新北市萬里區龜吼里漁澳路25-1號","121.686271666667","25.19481","6502800","萬里區"
"207004","225-TW","2018/03/08 17:39:41","新北市萬里區中幅里中福路8-1號","121.685976666667","25.164835","6502800","萬里區"
"252002","178-VK","2018/03/08 17:39:33","新北市三芝區智成街78號","121.504941666667","25.2557883333333","6502100","三芝區"
"252001","292-VK","2018/03/08 17:39:36","新北市三芝區淡金路一段83號","121.502116666667","25.25894","6502100","三芝區"
"237008","302-VK","2018/03/08 17:39:30","新北市三峽區中山路333-5號","121.359505","24.93756","6500900","三峽區"
"237006","5529-G3","2018/03/08 17:39:33","新北市三峽區介壽路一段552巷15號","121.387701666667","24.932425","6500900","三峽區"
"237011","KEA-2596","2018/03/08 17:39:39","新北市三峽區民族街53號","121.369681666667","24.929835","6500900","三峽區"
"237010","706-TV","2018/03/08 17:39:22","新北市三峽區中山路138-1號","121.36519","24.9362533333333","6500900","三峽區"
"236042","107-UM","2018/03/08 17:39:26","新北市土城區城林路6巷80號","121.438765","24.97967","6501300","土城區"
"236078","166-UM","2018/03/08 17:39:37","新北市土城區城林路6巷80號","121.438506666667","24.97968","6501300","土城區"
"242034","AAC-296","2018/03/08 17:39:43","新北市新莊區新莊路613號","121.445903333333","25.032895","6500500","新莊區"
"242058","986-R7","2018/03/08 17:39:37","新北市新莊區中正路600號","121.426605","25.030215","6500500","新莊區"
"242053","751-BX","2018/03/08 17:39:17","新北市新莊區新樹路452號","121.431608333333","25.0011166666667","6500500","新莊區"
"242027","615-BX","2018/03/08 17:39:38","新北市新莊區福壽街140號","121.457788333333","25.0518666666667","6500500","新莊區"
"242025","613-BX","2018/03/08 17:39:35","新北市新莊區思源路296巷18號","121.460203333333","25.0501566666667","6500500","新莊區"
"242029","612-BX","2018/03/08 17:39:37","新北市新莊區復興路一段141號","121.45019","25.0433033333333","6500500","新莊區"
"242041","566-BX","2018/03/08 17:39:32","新北市泰山區台麗街32號","121.428353333333","25.0357933333333","6500500","新莊區"
"242046","497-BY","2018/03/08 17:39:35","新北市新莊區福營路103號","121.433835","25.0322866666667","6500500","新莊區"
"242051","441-UM","2018/03/08 17:39:30","新北市新莊區西盛街193號","121.428231666667","25.0173116666667","6500500","新莊區"
"242056","440-UM","2018/03/08 17:39:38","新北市新莊區新莊路543巷9弄28號","121.448328333333","25.031885","6500500","新莊區"
"242036","415-TV","2018/03/08 17:39:32","新北市新莊區建福路59巷46號","121.428816666667","25.0277583333333","6500500","新莊區"
"242007","413-TV","2018/03/08 17:39:38","新北市新莊區福樂街73號","121.456873333333","25.04786","6500500","新莊區"
"242044","400-BY","2018/03/08 17:39:40","新北市新莊區中正路871巷9弄45號","121.419975","25.0267116666667","6500500","新莊區"
"242023","362-BY","2018/03/08 17:39:40","新北市新莊區公園路129-10號","121.457515","25.040905","6500500","新莊區"
"242061","353-BY","2018/03/08 17:39:30","新北市新莊區瓊林南路103巷8弄20號","121.435166666667","25.011235","6500500","新莊區"
"242009","132-UY","2018/03/08 17:39:31","新北市新莊區昌明街14巷10號","121.457476666667","25.0532583333333","6500500","新莊區"
"242039","133-UY","2018/03/08 17:39:34","新北市新莊區民安東路41號","121.428961666667","25.0209033333333","6500500","新莊區"
"242031","135-UY","2018/03/08 17:39:37","新北市新莊區新泰路361巷11號","121.44325","25.04297","6500500","新莊區"
"242048","172-VK","2018/03/08 17:39:33","新北市新莊區萬安街145號","121.420526666667","25.0217383333333","6500500","新莊區"
"242011","173-VK","2018/03/08 17:39:40","新北市新莊區中港路中慶巷15號","121.450488333333","25.0536916666667","6500500","新莊區"
"242004","176-VK","2018/03/08 17:39:39","新北市新莊區自立街178號","121.455976666667","25.0453633333333","6500500","新莊區"
"242015","346-TH","2018/03/08 17:39:34","新北市新莊區新泰路343號","121.444801666667","25.0420133333333","6500500","新莊區"
"242021","348-TH","2018/03/08 17:39:28","新北市新莊區中華路一段118號","121.452586666667","25.0405216666667","6500500","新莊區"
"242002","349-TH","2018/03/08 17:39:43","新北市新莊區新莊路254號","121.452158333333","25.0340566666667","6500500","新莊區"
"242019","350-TH","2018/03/08 17:39:33","新北市新莊區中港路165號","121.455036666667","25.04102","6500500","新莊區"
"242013","351-TH","2018/03/08 17:39:26","新北市新莊區中誠街120號","121.449331666667","25.0477016666667","6500500","新莊區"
"238015","755-BX","2018/03/08 17:39:38","新北市樹林區長壽街21巷6號","121.421185","24.9941216666667","6500700","樹林區"
"238023","601-UM","2018/03/08 17:39:25","新北市樹林區三福街114號","121.406461666667","25.0163716666667","6500700","樹林區"
"238019","599-UM","2018/03/08 17:39:35","新北市樹林區太順街13號","121.419653333333","24.98003","6500700","樹林區"
"238018","571-TV","2018/03/08 17:39:28","新北市樹林區鎮前街63號","121.42499","24.9909683333333","6500700","樹林區"
"238024","5061-A6","2018/03/08 17:39:26","新北市樹林區八德街584號","121.398645","24.9693233333333","6500700","樹林區"
"238022","KEA-2213","2018/03/08 17:39:38","新北市樹林區中華路185-1號","121.420356666667","24.9817716666667","6500700","樹林區"
"238021","KEA-2539","2018/03/08 17:39:41","新北市樹林區柑園街一段345號","121.390553333333","24.9563783333333","6500700","樹林區"
"238025","303-VK","2018/03/08 17:39:43","新北市樹林區保安街二段269號","121.41296","25.0053516666667","6500700","樹林區"
"238017","283-BY","2018/03/08 17:39:41","新北市樹林區三德街30巷16弄35號","121.413825","25.0119283333333","6500700","樹林區"
"238014","282-BY","2018/03/08 17:39:37","新北市樹林區保安街一段294巷29號","121.41993","24.9982116666667","6500700","樹林區"
"238020","268-VK","2018/03/08 17:25:54","新北市樹林區中正路22-1號","121.427906666667","24.99933","6500700","樹林區"
"238026","172-UY","2018/03/08 17:39:30","新北市樹林區新興街19巷36弄5號","121.402521666667","24.9733383333333","6500700","樹林區"
"239007","AAC-297","2018/03/08 17:39:21","新北市鶯歌區國光街72號","121.341523333333","24.958035","6500800","鶯歌區"
"239006","891-R6","2018/03/08 17:39:38","新北市鶯歌區永和街34巷10弄2號","121.333391666667","24.9672866666667","6500800","鶯歌區"
"239008","527-UM","2018/03/08 17:39:23","新北市鶯歌區大湖路732巷15弄4號","121.332791666667","24.9779016666667","6500800","鶯歌區"
"239005","526-UM","2018/03/08 17:39:26","新北市鶯歌區福隆二街69號","121.324086666667","24.971545","6500800","鶯歌區"
"239001","417-VK","2018/03/08 17:39:32","新北市鶯歌區中正三路228號","121.331253333333","24.9373816666667","6500800","鶯歌區"
"239003","360-BY","2018/03/08 17:39:26","新北市鶯歌區鶯桃路206巷40號","121.337976666667","24.959935","6500800","鶯歌區"
"239002","359-BY","2018/03/08 17:39:37","新北市鶯歌區育智路90號","121.345081666667","24.9542566666667","6500800","鶯歌區"
"239004","292-BY","2018/03/08 17:39:34","新北市鶯歌區三鶯路62巷1號","121.357505","24.942525","6500800","鶯歌區"
"221008","489-VK","2018/03/08 17:39:44","新北市汐止區康寧街901號","121.65136","25.07507","6501100","汐止區"
"221010","269-BY","2018/03/08 17:39:27","新北市汐止區汐萬路一段418巷25號","121.650065","25.078895","6501100","汐止區"
"221032","280-BY","2018/03/08 17:39:22","新北市汐止區汐萬路一段333巷23號","121.64812","25.07625","6501100","汐止區"
"221033","647-BX","2018/03/08 17:39:10","新北市汐止區林森街124-1號","121.62466","25.0405166666667","6501100","汐止區"
"242017","281-VK","2018/03/08 17:39:25","新北市新莊區復興路一段149巷21弄19號","121.449236666667","25.0439416666667","6500500","新莊區"
