"lineid","car","time","location","longitude","latitude","cityid","cityname"
"234026","9371-KE","2018/03/08 17:49:30","新北市永和區保福路一段35巷2號","121.512756666667","25.0090633333333","6500400","永和區"
"249005","172-UM","2018/03/08 17:49:25","新北市八里區荖阡坑路34-3號","121.40228","25.1319816666667","6502300","八里區"
"249001","173-UM","2018/03/08 17:49:19","新北市八里區龍米路二段135號","121.444783333333","25.14812","6502300","八里區"
"249004","303-UY","2018/03/08 17:49:25","新北市八里區中華路一段309巷53-6號","121.415728333333","25.1551216666667","6502300","八里區"
"249002","305-UY","2018/03/08 17:49:21","新北市八里區龍形五街37巷2號","121.44869","25.13265","6502300","八里區"
"249003","593-UM","2018/03/08 17:49:16","新北市八里區中山路二段123號","121.405493333333","25.1518916666667","6502300","八里區"
"248006","077-UY","2018/03/08 17:49:27","新北市五股區中興路二段83巷26-6號","121.460061666667","25.0750566666667","6501500","五股區"
"232011","375-UM","2018/03/08 17:49:34","新北市坪林區北宜路八段145號","121.706735","24.9345433333333","6502000","坪林區"
"244013","069-UM","2018/03/08 17:49:16","新北市林口區中正路432號","121.384103333333","25.07776","6501700","林口區"
"244007","080-UY","2018/03/08 17:49:23","新北市林口區竹林路159號","121.388671666667","25.0799683333333","6501700","林口區"
"244019","402-UM","2018/03/08 17:49:32","新北市林口區忠孝路533號","121.371868333333","25.0692366666667","6501700","林口區"
"244025","742-UY","2018/03/08 17:49:31","新北市林口區忠孝三路42號","121.360206666667","25.070335","6501700","林口區"
"244023","483-VK","2018/03/08 17:49:22","新北市林口區東湖一街1號","121.387425","25.0730616666667","6501700","林口區"
"244017","485-VK","2018/03/08 17:49:30","新北市林口區文化二路一段230巷17號","121.370918333333","25.07222","6501700","林口區"
"244009","656-BX","2018/03/08 17:49:26","新北市林口區文化一路二段285-1號","121.384876666667","25.0843733333333","6501700","林口區"
"244011","701-TV","2018/03/08 17:49:13","新北市林口區佳林路253號","121.38276","25.0761733333333","6501700","林口區"
"244021","838-TS","2018/03/08 17:49:32","新北市林口區仁愛路一段139巷18號","121.397875","25.07172","6501700","林口區"
"222003","436-BY","2018/03/08 17:49:28","新北市深坑區文山路三段110號","121.608461666667","24.9991766666667","6501800","深坑區"
"222002","659-BX","2018/03/08 17:49:34","新北市深坑區平埔街22巷8號","121.614961666667","25.0010066666667","6501800","深坑區"
"221015","KEA-2785","2018/03/08 17:49:22","新北市汐止區長江街190號","121.660301666667","25.076235","6501100","汐止區"
"231046","278-BY","2018/03/08 17:49:23","新北市新店區下石厝路1號","121.531178333333","24.92988","6500600","新店區"
"231058","3712-VJ","2018/03/08 17:49:19","新北市新店區安華路28-1號","121.519291666667","24.9606516666667","6500600","新店區"
"241017","063-VK","2018/03/08 17:49:19","新北市三重區新北大道一段6號","121.488843333333","25.0614016666667","6500200","三重區"
"241005","262-UM","2018/03/08 17:49:29","新北市三重區碧華街378號","121.490906666667","25.084265","6500200","三重區"
"241016","265-UM","2018/03/08 17:49:24","新北市三重區新北大道一段3-1號","121.49034","25.06144","6500200","三重區"
"241024","743-BX","2018/03/08 17:49:30","新北市三重區力行路二段9巷10號","121.482898333333","25.0723566666667","6500200","三重區"
"241012","941-UM","2018/03/08 17:49:28","新北市三重區龍門路242號","121.50075","25.0737266666667","6500200","三重區"
"241033","AAC-255","2018/03/08 17:49:34","新北市三重區光復路一段1號","121.472243333333","25.046895","6500200","三重區"
"235064","005-UY","2018/03/08 17:49:29","新北市中和區員山路36巷16-3號","121.484981666667","24.9913033333333","6500300","中和區"
"235063","006-UY","2018/03/08 17:49:31","新北市中和區員山路36巷16-3號","121.484993333333","24.9913783333333","6500300","中和區"
"247014","546-UM","2018/03/08 17:49:20","新北市蘆洲區保和街69巷18號","121.469638333333","25.0852416666667","6501400","蘆洲區"
"247022","500-BY","2018/03/08 17:49:21","新北市蘆洲區中正路284-1號","121.464996666667","25.0902616666667","6501400","蘆洲區"
"247010","341-TH","2018/03/08 17:49:30","新北市蘆洲區民族路46號","121.476878333333","25.0844766666667","6501400","蘆洲區"
"247012","339-TH","2018/03/08 17:49:32","新北市蘆洲區復興路69號","121.476055","25.08728","6501400","蘆洲區"
"247004","337-TH","2018/03/08 17:49:19","新北市蘆洲區永安南路二段334號","121.456753333333","25.083005","6501400","蘆洲區"
"247006","336-TH","2018/03/08 17:49:20","新北市蘆洲區九芎街90巷8號","121.46566","25.0803466666667","6501400","蘆洲區"
"247024","335-TH","2018/03/08 17:49:21","新北市蘆洲區光榮路70號","121.463278333333","25.0887716666667","6501400","蘆洲區"
"247018","057-VK","2018/03/08 17:49:20","新北市蘆洲區復興路227巷2弄12號","121.480535","25.0902166666667","6501400","蘆洲區"
"247008","056-VK","2018/03/08 17:49:31","新北市蘆洲區中山一路269號","121.472383333333","25.0799133333333","6501400","蘆洲區"
"247020","053-VK","2018/03/08 17:49:30","新北市蘆洲區民義街71巷24號","121.472508333333","25.0907483333333","6501400","蘆洲區"
"247016","007-UY","2018/03/08 17:49:33","新北市蘆洲區中正路185巷62號","121.466528333333","25.08499","6501400","蘆洲區"
"247002","002-UY","2018/03/08 17:49:31","新北市蘆洲區永平街32巷21弄34號","121.457753333333","25.0924633333333","6501400","蘆洲區"
"228003","097-TW","2018/03/08 17:49:32","新北市貢寮區真理里美艷山街11-6號","121.927833333333","25.060195","6502600","貢寮區"
"228001","212-TW","2018/03/08 17:49:16","新北市貢寮區仁理村仁愛路95-1號","121.92766","25.0554883333333","6502600","貢寮區"
"228002","585-TW","2018/03/08 17:49:22","新北市貢寮區福隆里龜壽谷街13號","121.95735","25.00541","6502600","貢寮區"
"224010","AGQ-8101","2018/03/08 17:49:17","新北市瑞芳區明燈路二段56-1號","121.809795","25.1075316666667","6501200","瑞芳區"
"224006","676-BX","2018/03/08 17:49:09","新北市瑞芳區傑魚坑路183號","121.788473333333","25.1082983333333","6501200","瑞芳區"
"224002","639-TC","2018/03/08 17:31:59","新北市瑞芳區明燈路二段48-1號","121.809668333333","25.1079933333333","6501200","瑞芳區"
"224008","285-BY","2018/03/08 17:49:26","新北市瑞芳區明燈路一段167號","121.819316666667","25.1074983333333","6501200","瑞芳區"
"224007","275-VK","2018/03/08 17:49:12","新北市瑞芳區靜安路四段35巷1號","121.795183333333","25.0979716666667","6501200","瑞芳區"
"224009","273-VK","2018/03/08 17:49:28","新北市瑞芳區新山路179-1號","121.851616666667","25.1091133333333","6501200","瑞芳區"
"224005","271-BY","2018/03/08 17:49:29","新北市瑞芳區建基路一段54號","121.817443333333","25.127375","6501200","瑞芳區"
"227004","400-TW","2018/03/08 17:34:50","新北市雙溪區三貂里定福路1-2號","121.850766666667","25.06347","6502500","雙溪區"
"253006","295-VK","2018/03/08 17:49:17","新北市石門區中山路64-1號","121.567595","25.2903433333333","6502200","石門區"
"222001","KEA-2212","2018/03/08 17:49:19","新北市深坑區文山路三段110號","121.608613333333","24.999415","6501800","深坑區"
"208002","KEA-2872","2018/03/08 17:49:26","新北市金山區磺清路135號","121.639406666667","25.22766","6502700","金山區"
"208003","665-BX","2018/03/08 17:49:18","新北市金山區磺清路135號","121.639438333333","25.227855","6502700","金山區"
"251009","008-UM","2018/03/08 17:49:15","新北市淡水區長興街29號","121.443946666667","25.171145","6501000","淡水區"
"251004","009-UM","2018/03/08 17:49:18","新北市淡水區民權一街17巷16號","121.45965","25.1364866666667","6501000","淡水區"
"251005","010-UM","2018/03/08 17:49:18","新北市淡水區學府路102巷16號","121.451041666667","25.17187","6501000","淡水區"
"251001","011-UM","2018/03/08 17:49:19","新北市淡水區自強路201巷39號","121.46221","25.12675","6501000","淡水區"
"251013","179-VK","2018/03/08 17:49:16","新北市淡水區泉洲厝31號","121.479625","25.1910516666667","6501000","淡水區"
"251014","180-VK","2018/03/08 17:49:32","新北市淡水區公埔子16-6號","121.481018333333","25.2246133333333","6501000","淡水區"
"251008","181-VK","2018/03/08 17:49:28","新北市淡水區八勢路一段149號","121.467563333333","25.1570233333333","6501000","淡水區"
"251015","182-VK","2018/03/08 17:49:14","新北市淡水區興福寮6號","121.492116666667","25.1653266666667","6501000","淡水區"
"251010","413-VK","2018/03/08 17:49:24","新北市淡水區中正路二段96號","121.417465","25.1860266666667","6501000","淡水區"
"251012","441-VK","2018/03/08 17:49:29","新北市淡水區北新路二段58號","121.478413333333","25.1856783333333","6501000","淡水區"
"251016","442-VK","2018/03/08 17:49:30","新北市淡水區埤島39-15號","121.452746666667","25.19589","6501000","淡水區"
"251006","561-UM","2018/03/08 17:49:17","新北市淡水區中山北路一段53號","121.44124","25.17591","6501000","淡水區"
"251007","577-R6","2018/03/08 17:49:27","新北市淡水區民生路52巷5號","121.462138333333","25.1376366666667","6501000","淡水區"
"251011","650-BX","2018/03/08 17:47:53","新北市淡水區吳(仔)厝70號","121.4796","25.149685","6501000","淡水區"
"251002","672-BX","2018/03/08 17:49:21","新北市淡水區中山路46號","121.444228333333","25.17013","6501000","淡水區"
"251003","766-UM","2018/03/08 17:49:12","新北市淡水區大忠街5巷4號","121.443233333333","25.1764333333333","6501000","淡水區"
"207003","550-UM","2018/03/08 17:49:25","新北市萬里區野柳里東澳路66號","121.692805","25.2009966666667","6502800","萬里區"
"207004","225-TW","2018/03/08 17:49:21","新北市萬里區萬里里瑪鋉頂街61號","121.68838","25.1804816666667","6502800","萬里區"
"252002","178-VK","2018/03/08 17:49:33","新北市三芝區民生街30號","121.503658333333","25.2566916666667","6502100","三芝區"
"252001","292-VK","2018/03/08 17:49:25","新北市三芝區中興街一段8號","121.497465","25.2594666666667","6502100","三芝區"
"237004","KEA-2597","2018/03/08 17:49:24","新北市三峽區中山路120號","121.365695","24.93596","6500900","三峽區"
"237009","210-TH","2018/03/08 17:49:23","新北市三峽區大勇路27號","121.3672","24.9363716666667","6500900","三峽區"
"237013","252-BX","2018/03/08 17:49:29","新北市三峽區愛國路33-8號","121.374535","24.93332","6500900","三峽區"
"237008","302-VK","2018/03/08 17:49:30","新北市三峽區中園街175號","121.36711","24.9216433333333","6500900","三峽區"
"237014","433-BY","2018/03/08 17:49:30","新北市三峽區文化路120巷7號","121.370985","24.9365283333333","6500900","三峽區"
"237006","5529-G3","2018/03/08 17:49:33","新北市三峽區介壽路二段136巷106弄16號","121.39181","24.9333066666667","6500900","三峽區"
"237011","KEA-2596","2018/03/08 17:49:18","新北市三峽區永安街81號","121.375016666667","24.92934","6500900","三峽區"
"237010","706-TV","2018/03/08 17:49:22","新北市三峽區文化路152號","121.370295","24.9362166666667","6500900","三峽區"
"237005","AKY-6261","2018/03/08 17:49:14","新北市三峽區文化路210巷5號","121.368713333333","24.9365216666667","6500900","三峽區"
"236071","105-UM","2018/03/08 17:49:20","新北市土城區學士路79號","121.451921666667","24.9807016666667","6501300","土城區"
"236042","107-UM","2018/03/08 17:49:26","新北市土城區城林路6巷80號","121.438758333333","24.9796866666667","6501300","土城區"
"236078","166-UM","2018/03/08 17:49:17","新北市土城區中央路三段194號","121.430425","24.96489","6501300","土城區"
"236030","253-BX","2018/03/08 17:49:34","新北市土城區城林路6巷80號","121.438666666667","24.97974","6501300","土城區"
"236026","269-VK","2018/03/08 17:49:30","新北市土城區中華路二段129號","121.439011666667","24.97646","6501300","土城區"
"236014","270-VK","2018/03/08 17:49:20","新北市土城區城林路6巷80號","121.438653333333","24.9796816666667","6501300","土城區"
"236037","271-VK","2018/03/08 17:49:31","新北市土城區城林路6巷80號","121.438776666667","24.9796733333333","6501300","土城區"
"236058","912-UM","2018/03/08 17:49:18","新北市土城區城林路6巷80號","121.438155","24.9796733333333","6501300","土城區"
"242034","AAC-296","2018/03/08 17:49:23","新北市新莊區新莊路682號","121.441165","25.0327483333333","6500500","新莊區"
"242058","986-R7","2018/03/08 17:49:16","新北市新莊區中正路879-15號","121.417533333333","25.025975","6500500","新莊區"
"242053","751-BX","2018/03/08 17:49:17","新北市新莊區新樹路571號","121.432858333333","25.0070733333333","6500500","新莊區"
"242027","615-BX","2018/03/08 17:49:31","新北市新莊區福壽街208號","121.458095","25.0538683333333","6500500","新莊區"
"242025","613-BX","2018/03/08 17:49:35","新北市三重區新北大道二段37號","121.470926666667","25.0612766666667","6500500","新莊區"
"242029","612-BX","2018/03/08 17:49:18","新北市新莊區復興路一段29號","121.446375","25.0418266666667","6500500","新莊區"
"242041","566-BX","2018/03/08 17:49:32","新北市新莊區中正路618號","121.423765","25.029365","6500500","新莊區"
"242046","497-BY","2018/03/08 17:49:14","新北市新莊區福營路97巷25號","121.435226666667","25.03182","6500500","新莊區"
"242051","441-UM","2018/03/08 17:49:30","新北市新莊區西盛街311巷7號","121.428305","25.0152766666667","6500500","新莊區"
"242056","440-UM","2018/03/08 17:49:26","新北市新莊區瓊林路40巷34號","121.446556666667","25.030225","6500500","新莊區"
"242036","415-TV","2018/03/08 17:49:32","新北市新莊區建福路70號","121.426778333333","25.02688","6500500","新莊區"
"242007","413-TV","2018/03/08 17:49:18","新北市新莊區福樂街108巷2號","121.457548333333","25.0477366666667","6500500","新莊區"
"242044","400-BY","2018/03/08 17:49:32","新北市新莊區雙鳳路12號","121.417105","25.0268516666667","6500500","新莊區"
"242023","362-BY","2018/03/08 17:49:20","新北市新莊區福樂街54號","121.457728333333","25.0459983333333","6500500","新莊區"
"242061","353-BY","2018/03/08 17:49:30","新北市新莊區新樹路601號","121.43326","25.0058516666667","6500500","新莊區"
"242009","132-UY","2018/03/08 17:49:35","新北市新莊區昌明街58號","121.455698333333","25.0523283333333","6500500","新莊區"
"242039","133-UY","2018/03/08 17:49:34","新北市新莊區民安路158號","121.424633333333","25.0246316666667","6500500","新莊區"
"242031","135-UY","2018/03/08 17:49:17","新北市新莊區新泰路321巷31號","121.443268333333","25.04115","6500500","新莊區"
"242048","172-VK","2018/03/08 17:49:32","新北市新莊區萬安街60巷3號","121.420628333333","25.023575","6500500","新莊區"
"242011","173-VK","2018/03/08 17:49:20","新北市新莊區中港路685號","121.450721666667","25.05645","6500500","新莊區"
"242004","176-VK","2018/03/08 17:49:34","新北市新莊區自立街251號","121.458885","25.0456183333333","6500500","新莊區"
"242015","346-TH","2018/03/08 17:49:34","新北市新莊區新泰路502巷42弄1號","121.443751666667","25.0463516666667","6500500","新莊區"
"242021","348-TH","2018/03/08 17:49:28","新北市新莊區永寧街34巷2號","121.452966666667","25.0394983333333","6500500","新莊區"
"242002","349-TH","2018/03/08 17:49:23","新北市新莊區景德路162號","121.450638333333","25.0342466666667","6500500","新莊區"
"242019","350-TH","2018/03/08 17:49:33","新北市新莊區復興路二段31號","121.454348333333","25.0440666666667","6500500","新莊區"
"242013","351-TH","2018/03/08 17:49:26","新北市新莊區中誠街168號","121.448125","25.047435","6500500","新莊區"
"238015","755-BX","2018/03/08 17:49:19","新北市樹林區長壽街70巷1弄2號","121.42105","24.994745","6500700","樹林區"
"238023","601-UM","2018/03/08 17:49:25","新北市樹林區龍興街13巷17號","121.403591666667","25.0165916666667","6500700","樹林區"
"238019","599-UM","2018/03/08 17:49:15","新北市樹林區太平路243號","121.41869","24.97564","6500700","樹林區"
"238018","571-TV","2018/03/08 17:49:28","新北市樹林區鎮前街86巷2號","121.425421666667","24.9919366666667","6500700","樹林區"
"238022","KEA-2213","2018/03/08 17:49:19","新北市樹林區太順街62巷3弄29號","121.416686666667","24.9792466666667","6500700","樹林區"
"238021","KEA-2539","2018/03/08 17:49:21","新北市樹林區柑園街一段142-2號","121.399033333333","24.9569016666667","6500700","樹林區"
"238025","303-VK","2018/03/08 17:49:23","新北市樹林區三俊街81巷2號","121.415655","25.0154316666667","6500700","樹林區"
"238017","283-BY","2018/03/08 17:49:28","新北市樹林區三德街30巷3號","121.414538333333","25.0130016666667","6500700","樹林區"
"238014","282-BY","2018/03/08 17:49:17","新北市樹林區保安街一段313巷7號","121.417601666667","24.9976516666667","6500700","樹林區"
"238020","268-VK","2018/03/08 17:25:54","新北市樹林區中正路22-1號","121.427906666667","24.99933","6500700","樹林區"
"238026","172-UY","2018/03/08 17:49:30","新北市樹林區中洲街51巷2號","121.396785","24.9709916666667","6500700","樹林區"
"239007","AAC-297","2018/03/08 17:49:24","新北市鶯歌區鶯桃路永富巷1號","121.338826666667","24.9545183333333","6500800","鶯歌區"
"239006","891-R6","2018/03/08 17:49:18","新北市鶯歌區鳳鳴路5號","121.333276666667","24.9648666666667","6500800","鶯歌區"
"239008","527-UM","2018/03/08 17:49:23","新北市鶯歌區國際一路171號","121.335953333333","24.9782633333333","6500800","鶯歌區"
"239005","526-UM","2018/03/08 17:49:26","新北市鶯歌區鳳吉四街51號","121.327613333333","24.9732833333333","6500800","鶯歌區"
"239001","417-VK","2018/03/08 17:49:32","新北市鶯歌區中正三路460-3號","121.321508333333","24.9344433333333","6500800","鶯歌區"
"239003","360-BY","2018/03/08 17:49:26","新北市鶯歌區鶯桃路285巷33號","121.334063333333","24.9586616666667","6500800","鶯歌區"
"239002","359-BY","2018/03/08 17:49:17","新北市鶯歌區光明街176號","121.344381666667","24.9558133333333","6500800","鶯歌區"
"239004","292-BY","2018/03/08 17:49:34","新北市鶯歌區文化路393巷7號","121.352808333333","24.9506916666667","6500800","鶯歌區"
"221008","489-VK","2018/03/08 17:49:24","新北市汐止區康寧街901號","121.651356666667","25.0750866666667","6501100","汐止區"
"221036","130-UY","2018/03/08 17:49:30","新北市汐止區長江街73號","121.657078333333","25.07208","6501100","汐止區"
"221010","269-BY","2018/03/08 17:49:27","新北市汐止區汐萬路二段104號","121.648221666667","25.0841566666667","6501100","汐止區"
"221012","278-VK","2018/03/08 17:49:23","新北市汐止區長江街57巷1號","121.65623","25.0714983333333","6501100","汐止區"
"221023","279-VK","2018/03/08 17:49:30","新北市汐止區民族一街14號","121.63507","25.0711033333333","6501100","汐止區"
"221032","280-BY","2018/03/08 17:49:22","新北市汐止區大同路一段150號","121.631811666667","25.0558","6501100","汐止區"
"221027","281-BY","2018/03/08 17:49:21","新北市汐止區汐萬路一段312號","121.650606666667","25.0754183333333","6501100","汐止區"
"221029","298-VK","2018/03/08 17:49:18","新北市汐止區康寧街901號","121.65154","25.0749216666667","6501100","汐止區"
"221021","299-VK","2018/03/08 17:49:26","新北市汐止區水源路一段31號","121.657151666667","25.0664583333333","6501100","汐止區"
"221031","353-TW","2018/03/08 17:49:13","新北市汐止區工建路161-5號","121.637326666667","25.0630383333333","6501100","汐止區"
"221035","622-UM","2018/03/08 17:49:26","新北市汐止區汐萬路一段211巷10號","121.651373333333","25.0718416666667","6501100","汐止區"
"221025","623-UM","2018/03/08 17:49:32","新北市汐止區仁愛路1號","121.658515","25.0642466666667","6501100","汐止區"
"221038","646-BX","2018/03/08 17:49:15","新北市汐止區汐萬路一段158號","121.652693333333","25.0712616666667","6501100","汐止區"
"221033","647-BX","2018/03/08 17:49:10","新北市汐止區林森街78號","121.623883333333","25.0407133333333","6501100","汐止區"
"221002","707-TV","2018/03/08 17:49:20","新北市汐止區康寧街901號","121.65149","25.0750016666667","6501100","汐止區"
"221018","753-BX","2018/03/08 17:49:21","新北市汐止區汐萬路一段18號","121.656048333333","25.0675233333333","6501100","汐止區"
"242017","281-VK","2018/03/08 17:49:25","新北市新莊區永安街64號","121.451113333333","25.0447","6500500","新莊區"
