"lineid","car","time","location","longitude","latitude","cityid","cityname"
"234046","148-BY","2018/03/08 18:39:36","新北市永和區永元路68號","121.522516666667","25.0015833333333","6500400","永和區"
"234007","207-UY","2018/03/08 18:39:35","新北市永和區環河西路二段185號","121.502273333333","25.0112216666667","6500400","永和區"
"234081","298-R6","2018/03/08 18:39:30","新北市永和區林森路74號","121.523761666667","25.0038766666667","6500400","永和區"
"234064","337-UY","2018/03/08 18:39:29","新北市永和區福和路1號","121.526605","25.010235","6500400","永和區"
"234086","338-UY","2018/03/08 18:39:40","新北市中和區安和路15號","121.511215","24.9938616666667","6500400","永和區"
"234017","745-BX","2018/03/08 18:39:25","新北市永和區福和路1號","121.52633","25.009665","6500400","永和區"
"234030","746-BX","2018/03/08 18:39:25","新北市永和區得和路376號","121.524681666667","24.9992983333333","6500400","永和區"
"234013","KEA-2591","2018/03/08 18:39:37","新北市永和區保福路二段105號","121.51023","25.01339","6500400","永和區"
"234061","AAD-866","2018/03/08 18:39:40","新北市永和區環河東路二段90號","121.524403333333","25.0106866666667","6500400","永和區"
"234050","863-TW","2018/03/08 18:39:24","新北市永和區福和路1號","121.526411666667","25.0096883333333","6500400","永和區"
"234026","9371-KE","2018/03/08 18:39:31","新北市永和區永貞路403號","121.507668333333","25.0090633333333","6500400","永和區"
"234011","9373-KE","2018/03/08 18:39:38","新北市永和區文化路9巷22弄20號","121.51477","25.0145816666667","6500400","永和區"
"249005","172-UM","2018/03/08 18:39:25","新北市八里區中華路三段232號","121.388556666667","25.1247883333333","6502300","八里區"
"249001","173-UM","2018/03/08 18:39:39","新北市八里區龍米路一段382號","121.451533333333","25.1318066666667","6502300","八里區"
"249004","303-UY","2018/03/08 18:39:25","新北市八里區中山路一段172號","121.417143333333","25.159455","6502300","八里區"
"249002","305-UY","2018/03/08 18:39:41","新北市八里區龍形一街18號","121.44968","25.1305216666667","6502300","八里區"
"248014","025-BX","2018/03/08 18:39:38","新北市五股區蓬萊路24號","121.434215","25.0798166666667","6501500","五股區"
"248016","026-BX","2018/03/08 18:39:40","新北市五股區凌雲路一段133巷27-3號","121.448641666667","25.10088","6501500","五股區"
"248008","095-VK","2018/03/08 18:39:24","新北市五股區中興路一段150巷13-1號","121.464645","25.0746083333333","6501500","五股區"
"248020","225-UY","2018/03/08 18:39:06","新北市五股區孝義路102號","121.445368333333","25.1196083333333","6501500","五股區"
"248012","247-BX","2018/03/08 18:39:28","新北市五股區成泰路三段6號","121.441116666667","25.0875683333333","6501500","五股區"
"248004","677-BX","2018/03/08 18:39:38","新北市五股區民義路一段310-1號","121.42446","25.09381","6501500","五股區"
"248002","678-BX","2018/03/08 18:39:31","新北市五股區西雲路172號","121.44695","25.0948233333333","6501500","五股區"
"248010","682-TV","2018/03/08 18:39:43","新北市五股區水碓三路143號","121.431728333333","25.073635","6501500","五股區"
"234023","9380-KE","2018/03/08 18:39:31","新北市永和區福和路10巷2號","121.524746666667","25.0087916666667","6500400","永和區"
"234077","969-R7","2018/03/08 18:39:45","新北市永和區中正路586號","121.517101666667","25.0066966666667","6500400","永和區"
"234067","AAC-212","2018/03/08 18:39:32","新北市永和區中正路606號","121.517096666667","25.0070916666667","6500400","永和區"
"232011","375-UM","2018/03/08 18:20:58","新北市坪林區坪雙路一段43號","121.711718333333","24.9424716666667","6502000","坪林區"
"244013","069-UM","2018/03/08 18:39:36","新北市林口區中山路267號","121.385093333333","25.0796016666667","6501700","林口區"
"244007","080-UY","2018/03/08 18:39:24","新北市林口區湖北里55號","121.38496","25.1066766666667","6501700","林口區"
"244019","402-UM","2018/03/08 18:39:32","新北市林口區忠孝路622巷1弄1號","121.377828333333","25.0679616666667","6501700","林口區"
"244025","742-UY","2018/03/08 18:39:31","新北市林口區南勢六街248-1號","121.355926666667","25.0749883333333","6501700","林口區"
"244023","483-VK","2018/03/08 18:39:43","新北市林口區民享路70號","121.380838333333","25.0811016666667","6501700","林口區"
"244017","485-VK","2018/03/08 18:39:30","新北市林口區文化二路一段68巷2號","121.366148333333","25.0687733333333","6501700","林口區"
"244009","656-BX","2018/03/08 18:39:25","新北市林口區文化一路二段285-1號","121.385056666667","25.0845766666667","6501700","林口區"
"244011","701-TV","2018/03/08 18:39:33","新北市林口區興林路17巷3弄2號","121.390338333333","25.0770416666667","6501700","林口區"
"244021","838-TS","2018/03/08 18:39:31","新北市林口區工六路2號","121.397575","25.079385","6501700","林口區"
"243012","AAD-798","2018/03/08 18:39:36","新北市泰山區泰林路二段73巷29號","121.434425","25.0578316666667","6501600","泰山區"
"243013","646-TV","2018/03/08 18:29:26","新北市泰山區明志路三段206巷3號","121.423256666667","25.0379483333333","6501600","泰山區"
"222003","436-BY","2018/03/08 18:39:28","新北市深坑區翠谷街37巷1號","121.626466666667","25.0094483333333","6501800","深坑區"
"222002","659-BX","2018/03/08 18:39:34","新北市深坑區雲鄉路41號","121.622033333333","24.9995116666667","6501800","深坑區"
"231041","002-UM","2018/03/08 18:39:34","新北市新店區安華路28-1號","121.519561666667","24.96094","6500600","新店區"
"231059","046-UY","2018/03/08 18:39:34","新北市新店區安華路28-1號","121.519575","24.960855","6500600","新店區"
"231061","047-UY","2018/03/08 18:39:34","新北市新店區安華路28-1號","121.519101666667","24.9609716666667","6500600","新店區"
"231060","106-UY","2018/03/08 18:39:41","新北市新店區安華路28-1號","121.519603333333","24.960845","6500600","新店區"
"231051","107-UY","2018/03/08 18:39:40","新北市新店區環河路29巷1號","121.536823333333","24.9613466666667","6500600","新店區"
"231064","110-UY","2018/03/08 18:39:33","新北市新店區安華路28-1號","121.519285","24.9611683333333","6500600","新店區"
"231052","187-VK","2018/03/08 18:39:33","新北市新店區永興路38號","121.543395","24.9387083333333","6500600","新店區"
"231050","KEA-2219","2018/03/08 18:39:27","新北市新店區安華路28-1號","121.519846666667","24.9613","6500600","新店區"
"221015","KEA-2785","2018/03/08 18:39:41","新北市汐止區鄉友街1號","121.667878333333","25.0807533333333","6501100","汐止區"
"231057","256-BX","2018/03/08 18:39:34","新北市新店區新烏路一段201號","121.548158333333","24.9312633333333","6500600","新店區"
"231046","278-BY","2018/03/08 18:39:23","新北市新店區直潭二街1號","121.535533333333","24.9432083333333","6500600","新店區"
"231058","3712-VJ","2018/03/08 18:39:39","新北市新店區北宜路一段168號","121.540386666667","24.9529633333333","6500600","新店區"
"231056","3713-VJ","2018/03/08 18:39:43","新北市新店區民族路106號","121.538963333333","24.9779816666667","6500600","新店區"
"231055","4716-K9","2018/03/08 18:39:27","新北市新店區中華路68號","121.539258333333","24.96922","6500600","新店區"
"231067","4772-VM","2018/03/08 18:39:43","新北市新店區安康路一段74號","121.528323333333","24.9619966666667","6500600","新店區"
"231065","512-UM","2018/03/08 18:39:26","新北市新店區安華路28-1號","121.519258333333","24.96109","6500600","新店區"
"231054","513-UM","2018/03/08 18:39:35","新北市新店區安華路28-1號","121.5197","24.961285","6500600","新店區"
"231040","619-UM","2018/03/08 18:39:27","新北市新店區安華路28-1號","121.519598333333","24.9608916666667","6500600","新店區"
"231042","641-BX","2018/03/08 18:39:39","新北市新店區安華路28-1號","121.519643333333","24.9606733333333","6500600","新店區"
"231063","645-TV","2018/03/08 18:39:24","新北市新店區安華路28-1號","121.519421666667","24.96066","6500600","新店區"
"231049","719-UM","2018/03/08 18:39:31","新北市新店區安康路一段82號","121.528131666667","24.9618816666667","6500600","新店區"
"231047","719-UY","2018/03/08 18:39:37","新北市新店區安康路一段105號","121.528948333333","24.9615833333333","6500600","新店區"
"231062","720-UM","2018/03/08 18:39:40","新北市新店區安華路28-1號","121.519205","24.96137","6500600","新店區"
"231044","897-TW","2018/03/08 18:39:31","新北市新店區光明街163號","121.539461666667","24.9625816666667","6500600","新店區"
"231045","898-TW","2018/03/08 18:39:42","新北市新店區安華路28-1號","121.51932","24.9609333333333","6500600","新店區"
"231043","899-TW","2018/03/08 18:39:25","新北市新店區安華路28-1號","121.519153333333","24.9608683333333","6500600","新店區"
"231066","AKT-0513","2018/03/08 18:39:32","新北市新店區安華路28-1號","121.519468333333","24.9606366666667","6500600","新店區"
"235066","003-UY","2018/03/08 18:39:36","新北市中和區水源路39號","121.504621666667","25.0035983333333","6500300","中和區"
"235064","005-UY","2018/03/08 18:39:29","新北市中和區連勝街38巷24號","121.498023333333","24.998275","6500300","中和區"
"235063","006-UY","2018/03/08 18:39:30","新北市中和區連城路347巷4弄6-1號","121.487963333333","24.9956133333333","6500300","中和區"
"235056","096-UM","2018/03/08 18:39:38","新北市中和區員山路611巷1號","121.4779","25.0113716666667","6500300","中和區"
"235039","097-UM","2018/03/08 18:39:39","新北市中和區安樂路123號","121.513816666667","24.9962233333333","6500300","中和區"
"235065","098-UM","2018/03/08 18:39:45","新北市中和區莊敬路33巷36弄4號","121.500211666667","25.0064733333333","6500300","中和區"
"235040","150-BY","2018/03/08 18:39:31","新北市中和區宜安路41號","121.511905","24.9963383333333","6500300","中和區"
"235058","151-BY","2018/03/08 18:39:40","新北市中和區員山路98號","121.480941666667","24.99463","6500300","中和區"
"235055","183-VK","2018/03/08 18:39:31","新北市中和區中山路三段229巷45號","121.469346666667","25.0055516666667","6500300","中和區"
"235038","185-VK","2018/03/08 18:39:35","新北市中和區立人街14巷26號","121.51953","24.9954","6500300","中和區"
"235049","186-VK","2018/03/08 18:39:25","新北市中和區景新街170號","121.505898333333","24.9965466666667","6500300","中和區"
"235067","255-BX","2018/03/08 18:39:36","新北市中和區新生街3號","121.483278333333","25.0046366666667","6500300","中和區"
"235044","293-VK","2018/03/08 18:39:27","新北市中和區復興路268號","121.502925","24.9903966666667","6500300","中和區"
"235072","301-VK","2018/03/08 18:39:33","新北市中和區中山路二段132號","121.502328333333","25.0033233333333","6500300","中和區"
"235043","352-BY","2018/03/08 18:39:23","新北市中和區景平路157號","121.513185","24.9922716666667","6500300","中和區"
"235068","377-QA","2018/03/08 18:39:29","新北市中和區中興街118巷8號","121.499881666667","24.99355","6500300","中和區"
"235061","378-QA","2018/03/08 18:39:26","新北市中和區民享街114巷11號","121.474065","24.9993083333333","6500300","中和區"
"235071","269-TV","2018/03/08 18:39:29","新北市中和區員山路36巷16-3號","121.484941666667","24.99124","6500300","中和區"
"235050","4979-A6","2018/03/08 18:39:24","新北市中和區忠孝街113巷2號","121.512626666667","24.9874433333333","6500300","中和區"
"235069","4980-A6","2018/03/08 18:39:28","新北市中和區連城路89巷14號","121.497135","24.999275","6500300","中和區"
"235042","551-UM","2018/03/08 18:39:22","新北市中和區景平路64巷14弄1號","121.522618333333","24.9913283333333","6500300","中和區"
"235045","565-BX","2018/03/08 18:39:39","新北市中和區南山路236巷55號","121.504655","24.9882083333333","6500300","中和區"
"235054","640-BX","2018/03/08 18:39:10","新北市中和區民享街86巷4號","121.474218333333","25.000925","6500300","中和區"
"235060","647-TV","2018/03/08 18:39:38","新北市中和區中山路三段18號","121.479381666667","25.0061033333333","6500300","中和區"
"235047","732-UM","2018/03/08 18:39:27","新北市中和區南山路320巷10弄21號","121.506811666667","24.9867216666667","6500300","中和區"
"235046","733-UM","2018/03/08 18:39:24","新北市中和區捷運路3號","121.50969","24.9894233333333","6500300","中和區"
"235062","800-TS","2018/03/08 18:39:39","新北市中和區景平路703巷3號","121.496196666667","25.0033483333333","6500300","中和區"
"235057","801-TS","2018/03/08 18:39:40","新北市中和區民安街4號","121.480846666667","25.0009733333333","6500300","中和區"
"235052","805-TS","2018/03/08 18:39:28","新北市中和區興南路三段52-1號","121.494135","24.9756416666667","6500300","中和區"
"235048","896-TW","2018/03/08 18:39:29","新北市中和區南山路218號","121.506293333333","24.99035","6500300","中和區"
"235053","900-TW","2018/03/08 18:39:35","新北市中和區民德路258號","121.467731666667","24.9970583333333","6500300","中和區"
"235070","911-UM","2018/03/08 18:39:34","新北市中和區南華路32號","121.503523333333","24.9961216666667","6500300","中和區"
"235051","157-BY","2018/03/08 18:39:35","新北市中和區興南路二段114巷10弄12號","121.504031666667","24.98496","6500300","中和區"
"235037","AAC-213","2018/03/08 18:39:28","新北市中和區景平路151巷47號","121.5149","24.99036","6500300","中和區"
"235059","AAC-215","2018/03/08 18:39:27","新北市中和區錦和路354巷3號","121.490371666667","24.9914733333333","6500300","中和區"
"220068","013-TV","2018/03/08 18:39:32","新北市板橋區民生路二段120號","121.470395","25.019825","6500100","板橋區"
"220065","072-UY","2018/03/08 18:39:31","新北市板橋區民族路61號","121.464878333333","25.00868","6500100","板橋區"
"220086","073-UY","2018/03/08 18:39:28","新北市板橋區大智街71巷28弄22號","121.452406666667","25.0149916666667","6500100","板橋區"
"220069","AAD-861","2018/03/08 18:39:31","新北市板橋區華東街1-10號","121.448298333333","24.9951183333333","6500100","板橋區"
"226004","205-ST","2018/03/08 18:39:41","新北市平溪區石底里公園街18-3號","121.733371666667","25.02571","6502400","平溪區"
"235041","251-BX","2018/03/08 18:39:26","新北市中和區宜安路174號","121.50875","24.9992116666667","6500300","中和區"
"228003","097-TW","2018/03/08 18:39:32","新北市貢寮區和美里龍洞街5-1號","121.918451666667","25.111835","6502600","貢寮區"
"228001","212-TW","2018/03/08 18:39:36","新北市貢寮區仁理村研海街12-1號","121.923781666667","25.0516983333333","6502600","貢寮區"
"228002","585-TW","2018/03/08 18:39:41","新北市貢寮區福隆里東興街6-11號","121.950741666667","25.0210933333333","6502600","貢寮區"
"224010","AGQ-8101","2018/03/08 18:34:57","新北市瑞芳區烏勢巷147號","121.846846666667","25.1077016666667","6501200","瑞芳區"
"224006","676-BX","2018/03/08 18:39:29","新北市瑞芳區明燈路三段90號","121.805453333333","25.1083216666667","6501200","瑞芳區"
"224002","639-TC","2018/03/08 18:39:25","新北市瑞芳區中山路307-2號","121.794028333333","25.1095016666667","6501200","瑞芳區"
"224008","285-BY","2018/03/08 18:39:38","新北市瑞芳區瑞芳街1號","121.806918333333","25.110035","6501200","瑞芳區"
"224007","275-VK","2018/03/08 18:39:32","新北市瑞芳區大埔路67巷3-1號","121.764458333333","25.1015366666667","6501200","瑞芳區"
"224009","273-VK","2018/03/08 18:39:32","新北市瑞芳區祈堂路40號","121.858805","25.1104333333333","6501200","瑞芳區"
"224005","271-BY","2018/03/08 18:39:37","新北市瑞芳區建基路一段8號","121.820353333333","25.12087","6501200","瑞芳區"
"227004","400-TW","2018/03/08 18:39:36","新北市雙溪區魚行里坤溪14號","121.873236666667","25.0233283333333","6502500","雙溪區"
"227010","030-BX","2018/03/08 18:39:41","新北市雙溪區牡丹里下坑11號","121.850976666667","25.0561966666667","6502500","雙溪區"
"253005","032-BX","2018/03/08 18:39:34","新北市石門區石門街39號","121.566311666667","25.2904683333333","6502200","石門區"
"253006","295-VK","2018/03/08 18:39:37","新北市石門區楓林37-6號","121.540658333333","25.2898116666667","6502200","石門區"
"222001","KEA-2212","2018/03/08 18:39:39","新北市深坑區北深路一段80號","121.63642","25.0107033333333","6501800","深坑區"
"208002","KEA-2872","2018/03/08 18:39:25","新北市金山區忠孝一路15巷11號","121.638405","25.2186233333333","6502700","金山區"
"208003","665-BX","2018/03/08 18:39:38","新北市金山區中山路403號","121.633091666667","25.2254283333333","6502700","金山區"
"208001","761-BX","2018/03/08 18:39:25","新北市金山區文化三路38號","121.635515","25.2247866666667","6502700","金山區"
"251004","009-UM","2018/03/08 18:39:38","新北市淡水區中正東路二段143巷6弄3號","121.461321666667","25.147095","6501000","淡水區"
"251001","011-UM","2018/03/08 18:39:38","新北市淡水區自強路415巷2號","121.465543333333","25.1342783333333","6501000","淡水區"
"251013","179-VK","2018/03/08 18:39:36","新北市淡水區雲廣坑5號","121.472773333333","25.2130766666667","6501000","淡水區"
"251014","180-VK","2018/03/08 18:39:32","新北市淡水區崙頂12-8號","121.495576666667","25.217255","6501000","淡水區"
"251008","181-VK","2018/03/08 18:39:28","新北市淡水區北投子65號","121.4545","25.1814183333333","6501000","淡水區"
"251015","182-VK","2018/03/08 18:39:34","新北市淡水區興福寮66巷28號","121.486116666667","25.162545","6501000","淡水區"
"251010","413-VK","2018/03/08 18:39:24","新北市淡水區沙崙路118號","121.423218333333","25.1827133333333","6501000","淡水區"
"251012","441-VK","2018/03/08 18:39:29","新北市淡水區北新路117號","121.44886","25.1785783333333","6501000","淡水區"
"251016","442-VK","2018/03/08 18:39:30","新北市淡水區下圭柔山76號","121.442803333333","25.2053183333333","6501000","淡水區"
"251006","561-UM","2018/03/08 18:39:37","新北市淡水區中山北路二段375號","121.444196666667","25.187325","6501000","淡水區"
"251011","650-BX","2018/03/08 18:39:34","新北市淡水區鄧公路278巷1號","121.461288333333","25.1688766666667","6501000","淡水區"
"251002","672-BX","2018/03/08 18:39:40","新北市淡水區中正東路一段3巷14弄1號","121.450908333333","25.1642416666667","6501000","淡水區"
"251003","766-UM","2018/03/08 18:39:32","新北市淡水區北新路69巷26號","121.446726666667","25.1801133333333","6501000","淡水區"
"207003","550-UM","2018/03/08 18:39:25","新北市萬里區野柳里八斗60號","121.666731666667","25.2046316666667","6502800","萬里區"
"207004","225-TW","2018/03/08 18:39:41","新北市萬里區萬里里獅頭路10-1號","121.692098333333","25.1787666666667","6502800","萬里區"
"252002","178-VK","2018/03/08 18:39:33","新北市三芝區民生街64巷11號","121.503656666667","25.255095","6502100","三芝區"
"252003","249-BX","2018/03/08 18:39:30","新北市三芝區後厝里土地公坑73-8號","121.46028","25.2473633333333","6502100","三芝區"
"252001","292-VK","2018/03/08 18:39:36","新北市三芝區中興街二段260號","121.50183","25.2529833333333","6502100","三芝區"
"237004","KEA-2597","2018/03/08 18:39:24","新北市三峽區插角1號","121.39856","24.8733733333333","6500900","三峽區"
"237007","153-BY","2018/03/08 18:39:26","新北市三峽區柑樹路2巷3號","121.362163333333","24.9055633333333","6500900","三峽區"
"237009","210-TH","2018/03/08 18:39:43","新北市三峽區大同路280號","121.364836666667","24.9252733333333","6500900","三峽區"
"237013","252-BX","2018/03/08 18:39:29","新北市三峽區光明路69巷25號","121.376618333333","24.929295","6500900","三峽區"
"237012","275-BY","2018/03/08 18:39:33","新北市樹林區佳園路三段486號","121.382846666667","24.9439816666667","6500900","三峽區"
"237008","302-VK","2018/03/08 18:39:30","新北市三峽區白雞77號","121.402425","24.9102216666667","6500900","三峽區"
"237014","433-BY","2018/03/08 18:39:30","新北市三峽區和平街67號","121.37012","24.936865","6500900","三峽區"
"237006","5529-G3","2018/03/08 18:39:33","新北市三峽區溪東路315巷37號","121.4118","24.930915","6500900","三峽區"
"237011","KEA-2596","2018/03/08 18:39:39","新北市三峽區溪東路1號","121.399191666667","24.93526","6500900","三峽區"
"237010","706-TV","2018/03/08 18:39:22","新北市三峽區復興路295號","121.365778333333","24.938875","6500900","三峽區"
"237005","AKY-6261","2018/03/08 18:39:34","新北市三峽區新興街4號","121.37248","24.9358883333333","6500900","三峽區"
"236071","105-UM","2018/03/08 18:39:39","新北市土城區永豐路157巷29弄1號","121.468686666667","24.98155","6501300","土城區"
"236042","107-UM","2018/03/08 18:39:26","新北市土城區學成路106號","121.449918333333","24.98927","6501300","土城區"
"236078","166-UM","2018/03/08 18:39:37","新北市土城區中央路四段52巷40弄2號","121.419461666667","24.96074","6501300","土城區"
"236030","253-BX","2018/03/08 18:39:34","新北市土城區福仁街60巷1號","121.439441666667","24.9746583333333","6501300","土城區"
"236026","269-VK","2018/03/08 18:39:29","新北市土城區千歲路3巷6弄14號","121.441623333333","24.9699133333333","6501300","土城區"
"236014","270-VK","2018/03/08 18:39:40","新北市土城區清水路207巷11號","121.459863333333","24.98232","6501300","土城區"
"236037","271-VK","2018/03/08 18:39:31","新北市土城區明德路一段291巷11弄20號","121.4609","24.97603","6501300","土城區"
"236021","401-BY","2018/03/08 18:39:36","新北市土城區延吉街262號","121.466038333333","24.9845416666667","6501300","土城區"
"236058","912-UM","2018/03/08 18:39:38","新北市土城區中央路四段27巷1號","121.424271666667","24.9623566666667","6501300","土城區"
"236051","913-UM","2018/03/08 18:39:30","新北市土城區金城路三段8號","121.464691666667","24.9859916666667","6501300","土城區"
"236062","915-UM","2018/03/08 18:39:36","新北市土城區延壽路55巷9弄5號","121.469846666667","24.99138","6501300","土城區"
"236053","AAC-216","2018/03/08 18:39:41","新北市土城區中華路一段23號","121.446901666667","24.98919","6501300","土城區"
"242058","986-R7","2018/03/08 18:39:36","新北市新莊區中正路887-6號","121.416631666667","25.024525","6500500","新莊區"
"242053","751-BX","2018/03/08 18:39:37","新北市樹林區樹新路120巷13號","121.430498333333","24.9969483333333","6500500","新莊區"
"242027","615-BX","2018/03/08 18:21:31","新北市新莊區新泰路255巷83號","121.44219","25.038885","6500500","新莊區"
"242025","613-BX","2018/03/08 18:39:35","新北市新莊區幸福路914號","121.44217","25.0489316666667","6500500","新莊區"
"242046","497-BY","2018/03/08 18:39:35","新北市新莊區富國路77巷23號","121.420356666667","25.0265416666667","6500500","新莊區"
"242021","348-TH","2018/03/08 18:39:28","新北市新莊區新泰路357巷3弄57號","121.442146666667","25.0396216666667","6500500","新莊區"
"242002","349-TH","2018/03/08 18:39:23","新北市新莊區環河路636-7號","121.437441666667","25.0117616666667","6500500","新莊區"
"242013","351-TH","2018/03/08 18:39:26","新北市樹林區民和街1號","121.385356666667","24.96807","6500500","新莊區"
"238023","601-UM","2018/03/08 18:39:25","新北市樹林區三福街114號","121.406325","25.0163366666667","6500700","樹林區"
"238019","599-UM","2018/03/08 18:39:35","新北市樹林區東陽街13號","121.412963333333","24.98186","6500700","樹林區"
"238018","571-TV","2018/03/08 18:39:38","新北市樹林區樹新路135號","121.428333333333","24.9963183333333","6500700","樹林區"
"238024","5061-A6","2018/03/08 18:39:25","新北市樹林區大安路593號","121.411593333333","24.9830166666667","6500700","樹林區"
"238025","303-VK","2018/03/08 18:39:43","新北市樹林區中山路三段125-9號","121.3979","24.973845","6500700","樹林區"
"238020","268-VK","2018/03/08 18:38:54","新北市樹林區俊興街257號","121.418083333333","25.0162483333333","6500700","樹林區"
"238026","172-UY","2018/03/08 18:39:30","新北市樹林區信和街49巷1號","121.387483333333","24.9732316666667","6500700","樹林區"
"239007","AAC-297","2018/03/08 18:39:41","新北市鶯歌區中正一路235號","121.354321666667","24.9570466666667","6500800","鶯歌區"
"239008","527-UM","2018/03/08 18:39:43","新北市鶯歌區國際一路14號","121.336195","24.9765566666667","6500800","鶯歌區"
"239005","526-UM","2018/03/08 18:39:26","新北市鶯歌區鳳七路101巷20號","121.329428333333","24.9707216666667","6500800","鶯歌區"
"239001","417-VK","2018/03/08 18:39:33","新北市鶯歌區二橋街42-1號","121.336508333333","24.9391816666667","6500800","鶯歌區"
"239003","360-BY","2018/03/08 18:39:26","新北市鶯歌區永和街176號","121.336125","24.9704883333333","6500800","鶯歌區"
"239004","292-BY","2018/03/08 18:39:34","新北市鶯歌區黃厝街7巷12號","121.343821666667","24.9462366666667","6500800","鶯歌區"
"221008","489-VK","2018/03/08 18:30:44","新北市汐止區康寧街901號","121.65134","25.0750633333333","6501100","汐止區"
"221036","130-UY","2018/03/08 18:39:30","新北市汐止區南昌街13號","121.66345","25.0694666666667","6501100","汐止區"
"221010","269-BY","2018/03/08 18:39:38","新北市汐止區汐萬路三段262號","121.64375","25.1051733333333","6501100","汐止區"
"221012","278-VK","2018/03/08 18:39:23","新北市汐止區長興街二段6號","121.672308333333","25.0807933333333","6501100","汐止區"
"221023","279-VK","2018/03/08 18:39:30","新北市汐止區湖前街21號","121.632508333333","25.0691683333333","6501100","汐止區"
"221032","280-BY","2018/03/08 18:39:42","新北市汐止區福山街60巷14號","121.61814","25.046265","6501100","汐止區"
"221027","281-BY","2018/03/08 18:39:41","新北市汐止區和平街84號","121.661356666667","25.0707283333333","6501100","汐止區"
"221029","298-VK","2018/03/08 18:39:38","新北市汐止區樟樹一路152巷13號","121.642676666667","25.0651083333333","6501100","汐止區"
"221021","299-VK","2018/03/08 18:39:26","新北市汐止區新台五路一段159號","121.654085","25.06254","6501100","汐止區"
"221031","353-TW","2018/03/08 18:39:33","新北市汐止區福德一路274號","121.632158333333","25.063985","6501100","汐止區"
"221035","622-UM","2018/03/08 18:39:26","新北市汐止區大同路二段124-1號","121.651161666667","25.0638316666667","6501100","汐止區"
"221025","623-UM","2018/03/08 18:39:32","新北市汐止區仁愛路119巷11號","121.662305","25.0639933333333","6501100","汐止區"
"221038","646-BX","2018/03/08 18:39:35","新北市汐止區汐萬路一段125號","121.654038333333","25.07122","6501100","汐止區"
"221033","647-BX","2018/03/08 18:39:30","新北市汐止區南勢街1巷1號","121.627056666667","25.03744","6501100","汐止區"
"221002","707-TV","2018/03/08 18:39:40","新北市汐止區中興路23號","121.636965","25.0595616666667","6501100","汐止區"
"221018","753-BX","2018/03/08 18:39:41","新北市汐止區茄苳路224巷3弄18號","121.671105","25.0680783333333","6501100","汐止區"
"220079","145-BY","2018/03/08 18:39:41","新北市板橋區大觀路一段31號","121.449836666667","25.0084866666667","6500100","板橋區"
"220080","200-UY","2018/03/08 18:39:38","新北市板橋區大觀路二段265巷76弄30號","121.441348333333","24.996755","6500100","板橋區"
"220082","610-BX","2018/03/08 18:39:42","新北市板橋區篤行路一段10號","121.432133333333","24.9954983333333","6500100","板橋區"
"220056","276-BY","2018/03/08 18:39:29","新北市板橋區四川路二段119號","121.451233333333","24.9943316666667","6500100","板橋區"
"220072","277-BY","2018/03/08 18:39:09","新北市板橋區大觀路三段52號","121.432331666667","24.9959833333333","6500100","板橋區"
"220094","280-UM","2018/03/08 18:39:33","新北市板橋區民生路二段150號","121.471806666667","25.0195133333333","6500100","板橋區"
"220071","283-VK","2018/03/08 18:39:23","新北市板橋區四川路二段橋頭6號","121.448288333333","24.9940633333333","6500100","板橋區"
"220053","285-VK","2018/03/08 18:39:37","新北市板橋區民生路二段120號","121.470655","25.0201683333333","6500100","板橋區"
"220083","286-VK","2018/03/08 18:39:44","新北市板橋區大觀路288號","121.449401666667","24.9984216666667","6500100","板橋區"
"220081","287-VK","2018/03/08 18:39:28","新北市板橋區大觀路二段153巷51號","121.447168333333","25.000905","6500100","板橋區"
"220084","296-UM","2018/03/08 18:39:36","新北市板橋區大觀路二段205號","121.44518","24.9992383333333","6500100","板橋區"
"220075","303-R5","2018/03/08 18:39:42","新北市板橋區華東街328號","121.452805","25.0034183333333","6500100","板橋區"
"220064","486-VK","2018/03/08 18:39:25","新北市板橋區縣民大道一段314號","121.461651666667","25.01084","6500100","板橋區"
"220055","568-UM","2018/03/08 18:39:29","新北市板橋區華東街1-9號","121.448108333333","24.9949516666667","6500100","板橋區"
"220057","686-BX","2018/03/08 18:39:28","新北市板橋區華東街1-9號","121.448213333333","24.994985","6500100","板橋區"
"220077","687-BX","2018/03/08 18:39:40","新北市板橋區大觀路二段174巷114弄4號","121.440931666667","25.00166","6500100","板橋區"
"220074","895-R6","2018/03/08 18:39:37","新北市板橋區南雅南路二段138號","121.45206","24.9964133333333","6500100","板橋區"
"220073","985-R7","2018/03/08 18:39:22","新北市板橋區南雅南路二段138號","121.452106666667","24.99644","6500100","板橋區"
"220070","AAC-253","2018/03/08 18:39:27","新北市板橋區華東街11號","121.450461666667","24.9976183333333","6500100","板橋區"
