"lineid","car","time","location","longitude","latitude","cityid","cityname"
"234046","148-BY","2018/03/08 19:59:36","新北市永和區成功路一段89號","121.526875","25.0029666666667","6500400","永和區"
"234007","207-UY","2018/03/08 19:59:35","新北市永和區中山路一段240號","121.507475","25.0078116666667","6500400","永和區"
"234081","298-R6","2018/03/08 19:59:34","新北市永和區林森路112巷12弄2號","121.522501666667","25.00447","6500400","永和區"
"234038","336-UY","2018/03/08 19:59:33","新北市永和區成功路二段131號","121.526635","24.998175","6500400","永和區"
"234064","337-UY","2018/03/08 19:59:30","新北市永和區中正路412巷20弄7號","121.518601666667","25.0019533333333","6500400","永和區"
"234086","338-UY","2018/03/08 19:59:20","新北市永和區福和路63號","121.52283","25.007945","6500400","永和區"
"234070","552-UM","2018/03/08 19:59:32","新北市永和區國光路16號","121.519025","25.0084083333333","6500400","永和區"
"234017","745-BX","2018/03/08 19:59:34","新北市永和區文化路53號","121.514306666667","25.0150583333333","6500400","永和區"
"234030","746-BX","2018/03/08 19:59:36","新北市永和區民生路22巷13號","121.521731666667","24.9971366666667","6500400","永和區"
"234054","KEA-2590","2018/03/08 19:59:24","新北市永和區環河東路一段122號","121.520625","25.0155066666667","6500400","永和區"
"234013","KEA-2591","2018/03/08 19:59:17","新北市永和區保生路55號","121.504648333333","25.010605","6500400","永和區"
"234061","AAD-866","2018/03/08 19:59:20","新北市永和區得和路47號","121.516695","25.0002933333333","6500400","永和區"
"234042","862-TW","2018/03/08 19:59:32","新北市永和區中和路421巷12號","121.508775","25.001195","6500400","永和區"
"234050","863-TW","2018/03/08 19:59:18","新北市永和區保安路268號","121.505693333333","25.01228","6500400","永和區"
"234026","9371-KE","2018/03/08 19:59:31","新北市永和區水源街33巷3號","121.510805","25.004285","6500400","永和區"
"249005","172-UM","2018/03/08 19:59:39","新北市八里區楓林路4號","121.381916666667","25.1299616666667","6502300","八里區"
"249001","173-UM","2018/03/08 19:59:24","新北市八里區中華路二段312號","121.40372","25.1483833333333","6502300","八里區"
"249004","303-UY","2018/03/08 19:59:24","新北市八里區中華路一段333-1號","121.413155","25.1540366666667","6502300","八里區"
"249002","305-UY","2018/03/08 19:59:23","新北市八里區頂寮二街1號","121.45102","25.123865","6502300","八里區"
"248014","025-BX","2018/03/08 19:59:27","新北市五股區五福路14巷5號","121.434655","25.08874","6501500","五股區"
"248016","026-BX","2018/03/08 19:59:25","新北市五股區成泰路三段577巷80弄25號","121.449568333333","25.1045633333333","6501500","五股區"
"248008","095-VK","2018/03/08 19:59:24","新北市五股區四維路30巷17號","121.467901666667","25.0715133333333","6501500","五股區"
"248020","225-UY","2018/03/08 19:59:25","新北市五股區中直路24號","121.42505","25.1127483333333","6501500","五股區"
"248012","247-BX","2018/03/08 19:59:28","新北市五股區民義路一段128號","121.43469","25.0859966666667","6501500","五股區"
"248004","677-BX","2018/03/08 19:59:38","新北市五股區成泰路一段32巷60號","121.43494","25.06698","6501500","五股區"
"248002","678-BX","2018/03/08 19:59:31","新北市五股區成泰路三段487號","121.450775","25.0992883333333","6501500","五股區"
"248010","682-TV","2018/03/08 19:59:26","新北市五股區登林路79-2號","121.427848333333","25.070295","6501500","五股區"
"234023","9380-KE","2018/03/08 19:59:31","新北市永和區中正路700號","121.516371666667","25.009865","6500400","永和區"
"234077","969-R7","2018/03/08 19:59:24","新北市永和區民有街7號","121.516138333333","24.9970283333333","6500400","永和區"
"234074","AAC-211","2018/03/08 19:59:35","新北市永和區豫溪街207巷14號","121.523545","25.009995","6500400","永和區"
"234067","AAC-212","2018/03/08 19:59:32","新北市永和區永貞路325號","121.50983","25.0068166666667","6500400","永和區"
"234003","AAC-295","2018/03/08 19:59:34","新北市永和區中正路605號","121.51643","25.009645","6500400","永和區"
"243012","AAD-798","2018/03/08 19:59:36","新北市泰山區全興路111號","121.433871666667","25.0566633333333","6501600","泰山區"
"243011","297-R6","2018/03/08 19:59:27","新北市泰山區明志路三段182巷18號","121.423583333333","25.0392433333333","6501600","泰山區"
"243015","380-SR","2018/03/08 19:59:25","新北市泰山區明志路二段214巷16弄15號","121.426763333333","25.0496733333333","6501600","泰山區"
"243014","421-VK","2018/03/08 19:59:33","新北市泰山區泰林路二段114號","121.434636666667","25.0592366666667","6501600","泰山區"
"243010","KEA-2215","2018/03/08 19:59:23","新北市泰山區中華街1巷2號","121.428136666667","25.0523066666667","6501600","泰山區"
"243009","KEA-2216","2018/03/08 19:59:33","新北市泰山區泰林路二段164巷30號","121.434496666667","25.06111","6501600","泰山區"
"243013","646-TV","2018/03/08 19:59:34","新北市泰山區應化街7號","121.42397","25.0436633333333","6501600","泰山區"
"243016","680-BX","2018/03/08 19:58:57","新北市泰山區明志路三段521衖519號","121.421388333333","25.0317383333333","6501600","泰山區"
"222003","436-BY","2018/03/08 19:59:26","新北市深坑區埔新街14號","121.62073","25.003945","6501800","深坑區"
"222002","659-BX","2018/03/08 19:59:33","新北市深坑區北深路二段81巷8弄3號","121.618275","25.0029283333333","6501800","深坑區"
"231041","002-UM","2018/03/08 19:59:34","新北市新店區中正路352號","121.535941666667","24.97547","6500600","新店區"
"231059","046-UY","2018/03/08 19:59:34","新北市新店區安康路二段147號","121.511171666667","24.9598983333333","6500600","新店區"
"231061","047-UY","2018/03/08 19:59:34","新北市新店區安民街299號","121.517563333333","24.9736016666667","6500600","新店區"
"231060","106-UY","2018/03/08 19:59:21","新北市新店區安康路二段426號","121.496046666667","24.9550416666667","6500600","新店區"
"231051","107-UY","2018/03/08 19:59:20","新北市新店區中央路208號","121.530156666667","24.97401","6500600","新店區"
"231064","110-UY","2018/03/08 19:59:33","新北市新店區光華街22號","121.516976666667","24.9692866666667","6500600","新店區"
"231052","187-VK","2018/03/08 19:59:33","新北市新店區新烏路三段寶島巷4號","121.551365","24.8993983333333","6500600","新店區"
"231050","KEA-2219","2018/03/08 19:59:27","新北市新店區北宜路二段60號","121.549421666667","24.9514366666667","6500600","新店區"
"221015","KEA-2785","2018/03/08 19:59:21","新北市汐止區橋東街13號","121.666605","25.07581","6501100","汐止區"
"231057","256-BX","2018/03/08 19:59:36","新北市新店區花園二路一段11號","121.555463333333","24.9324416666667","6500600","新店區"
"231046","278-BY","2018/03/08 19:59:22","新北市新店區光華街38巷16號","121.516008333333","24.9704016666667","6500600","新店區"
"231058","3712-VJ","2018/03/08 19:59:19","新北市新店區薏仁坑路自強巷1號","121.497496666667","24.95775","6500600","新店區"
"231056","3713-VJ","2018/03/08 19:59:23","新北市新店區民權路30號","121.540895","24.9828883333333","6500600","新店區"
"231055","4716-K9","2018/03/08 19:59:27","新北市新店區力行路5號","121.539443333333","24.9645666666667","6500600","新店區"
"231067","4772-VM","2018/03/08 19:59:22","新北市新店區秀山路11巷12弄25號","121.531065","24.9596866666667","6500600","新店區"
"231065","512-UM","2018/03/08 19:59:26","新北市新店區安祥路106巷6弄1號","121.478946666667","24.9625666666667","6500600","新店區"
"231054","513-UM","2018/03/08 19:59:35","新北市新店區光明街151號","121.539591666667","24.962255","6500600","新店區"
"231040","619-UM","2018/03/08 19:59:27","新北市新店區北新路一段126巷23號","121.54292","24.9702516666667","6500600","新店區"
"231042","641-BX","2018/03/08 19:59:39","新北市新店區中興路二段89號","121.547025","24.97139","6500600","新店區"
"231063","645-TV","2018/03/08 19:59:36","新北市新店區黎明路52巷9號","121.502028333333","24.9487383333333","6500600","新店區"
"231068","718-UY","2018/03/08 19:59:34","新北市新店區安華路28-1號","121.519015","24.9608533333333","6500600","新店區"
"231049","719-UM","2018/03/08 19:59:31","新北市新店區明德路75巷2號","121.5414","24.9780116666667","6500600","新店區"
"231047","719-UY","2018/03/08 19:59:29","新北市新店區中興路二段226號","121.54796","24.975185","6500600","新店區"
"231062","720-UM","2018/03/08 19:59:19","新北市新店區安康路一段111-1號","121.528616666667","24.961735","6500600","新店區"
"231044","897-TW","2018/03/08 19:59:31","新北市新店區復興路27號","121.539038333333","24.9867233333333","6500600","新店區"
"231045","898-TW","2018/03/08 19:59:22","新北市新店區北宜路二段82-12號","121.554651666667","24.9535383333333","6500600","新店區"
"231043","899-TW","2018/03/08 19:59:05","新北市新店區中正路263-3號","121.538388333333","24.9737983333333","6500600","新店區"
"231066","AKT-0513","2018/03/08 19:59:32","新北市新店區柴埕路59號","121.513625","24.964995","6500600","新店區"
"241011","013-R5","2018/03/08 19:59:25","新北市三重區三和路二段165號","121.497948333333","25.0696533333333","6500200","三重區"
"241028","022-UY","2018/03/08 19:59:27","新北市三重區中正南路14號","121.493506666667","25.0604883333333","6500200","三重區"
"241008","059-VK","2018/03/08 19:59:38","新北市三重區永福街179巷28號","121.478008333333","25.07476","6500200","三重區"
"241009","060-VK","2018/03/08 19:59:28","新北市三重區三和路四段390巷11號","121.481365","25.0789516666667","6500200","三重區"
"241031","061-VK","2018/03/08 19:59:23","新北市三重區重新路四段184巷16號","121.487045","25.0549433333333","6500200","三重區"
"241015","062-VK","2018/03/08 19:59:27","新北市三重區三和路二段13號","121.50142","25.0667566666667","6500200","三重區"
"241017","063-VK","2018/03/08 19:59:19","新北市三重區自強路一段306號","121.491318333333","25.06844","6500200","三重區"
"241024","065-VK","2018/03/08 19:59:24","新北市三重區力行路一段178巷12號","121.48156","25.0713933333333","6500200","三重區"
"241003","091-VK","2018/03/08 19:59:31","新北市三重區仁愛街445巷29號","121.490763333333","25.08287","6500200","三重區"
"241020","156-TC","2018/03/08 19:59:33","新北市三重區忠孝路一段101號","121.489601666667","25.072235","6500200","三重區"
"241016","265-UM","2018/03/08 19:59:23","新北市三重區正義北路32-1號","121.497461666667","25.0634316666667","6500200","三重區"
"241022","267-UM","2018/03/08 19:59:21","新北市三重區過圳街31巷2號","121.48912","25.0605533333333","6500200","三重區"
"241018","268-UM","2018/03/08 19:59:20","新北市三重區正義北路244巷51號","121.494358333333","25.06782","6500200","三重區"
"241032","269-UM","2018/03/08 19:59:27","新北市三重區朝陽街46號","121.483345","25.0570466666667","6500200","三重區"
"241013","270-UM","2018/03/08 19:59:23","新北市三重區三和路三段125巷40號","121.49396","25.0737633333333","6500200","三重區"
"241025","271-UM","2018/03/08 19:59:36","新北市三重區頂崁街210巷16號","121.476511666667","25.0677666666667","6500200","三重區"
"241007","398-BY","2018/03/08 19:59:35","新北市三重區溪尾街150號","121.489003333333","25.0799583333333","6500200","三重區"
"241035","462-BY","2018/03/08 19:59:30","新北市三重區大榮街9號","121.498248333333","25.063135","6500200","三重區"
"241004","475-VK","2018/03/08 19:59:23","新北市三重區五華街74號","121.493403333333","25.082","6500200","三重區"
"241001","478-VK","2018/03/08 19:59:38","新北市三重區仁愛街283巷40號","121.494501666667","25.0800466666667","6500200","三重區"
"241030","480-VK","2018/03/08 19:59:33","新北市三重區重新路四段242-1號","121.485756666667","25.0536466666667","6500200","三重區"
"241014","543-UM","2018/03/08 19:59:35","新北市三重區三和路二段115號","121.4992","25.0687366666667","6500200","三重區"
"241023","545-UM","2018/03/08 19:59:35","新北市三重區頂崁街172號","121.477585","25.06594","6500200","三重區"
"241019","KEA-2593","2018/03/08 19:59:25","新北市三重區重陽路四段18號","121.490911666667","25.0691116666667","6500200","三重區"
"241006","AAD-863","2018/03/08 19:59:35","新北市三重區力行路二段90號","121.48198","25.0745266666667","6500200","三重區"
"241026","887-TS","2018/03/08 19:59:31","新北市三重區中央南路1號","121.501261666667","25.0630716666667","6500200","三重區"
"241012","941-UM","2018/03/08 19:59:28","新北市三重區仁厚街43號","121.500231666667","25.0765","6500200","三重區"
"241029","942-UM","2018/03/08 19:59:33","新北市三重區重安街8號","121.490218333333","25.0582933333333","6500200","三重區"
"241033","AAC-255","2018/03/08 19:59:34","新北市三重區中興北街77號","121.469496666667","25.047725","6500200","三重區"
"235066","003-UY","2018/03/08 19:59:35","新北市永和區保平路292巷13弄16號","121.50656","25.0056016666667","6500300","中和區"
"235056","096-UM","2018/03/08 19:59:40","新北市中和區中山路三段170巷2弄1號","121.472921666667","25.0066666666667","6500300","中和區"
"235039","097-UM","2018/03/08 19:59:39","新北市中和區景平路278巷14弄14號","121.514685","24.9930016666667","6500300","中和區"
"235065","098-UM","2018/03/08 19:59:25","新北市中和區福祥路116號","121.499006666667","25.0064016666667","6500300","中和區"
"235040","150-BY","2018/03/08 19:59:24","新北市中和區保健路19巷10-5號","121.508743333333","24.998685","6500300","中和區"
"235058","151-BY","2018/03/08 19:59:20","新北市中和區員山路150巷2弄33號","121.481736666667","24.99763","6500300","中和區"
"235055","183-VK","2018/03/08 19:59:33","新北市中和區民生街23巷3弄1號","121.47098","25.005125","6500300","中和區"
"235049","186-VK","2018/03/08 19:59:25","新北市中和區南華路11號","121.502281666667","24.9956116666667","6500300","中和區"
"235067","255-BX","2018/03/08 19:59:16","新北市中和區中正路751巷3弄3號","121.484455","24.999565","6500300","中和區"
"235044","293-VK","2018/03/08 19:59:27","新北市中和區中正路91號","121.500436666667","24.9935233333333","6500300","中和區"
"235043","352-BY","2018/03/08 19:59:23","新北市中和區興南路二段159巷1號","121.505346666667","24.9832883333333","6500300","中和區"
"235068","377-QA","2018/03/08 19:59:29","新北市中和區莊敬路16巷2號","121.49993","25.0042083333333","6500300","中和區"
"235050","4979-A6","2018/03/08 19:59:24","新北市中和區景平路257號","121.508523333333","24.992935","6500300","中和區"
"235069","4980-A6","2018/03/08 19:59:28","新北市中和區圓通路144號","121.498213333333","24.995755","6500300","中和區"
"235042","551-UM","2018/03/08 19:59:22","新北市中和區中和路378巷14弄19號","121.511076666667","25.001275","6500300","中和區"
"235054","640-BX","2018/03/08 19:59:30","新北市中和區莒光路175-4號","121.472676666667","24.9993716666667","6500300","中和區"
"235047","732-UM","2018/03/08 19:59:27","新北市中和區和平街126號","121.506736666667","24.991705","6500300","中和區"
"235046","733-UM","2018/03/08 19:59:24","新北市中和區興南路一段93巷85號","121.51061","24.9862216666667","6500300","中和區"
"235052","805-TS","2018/03/08 19:59:36","新北市中和區華新街50巷5弄30號","121.507533333333","24.9833066666667","6500300","中和區"
"235048","896-TW","2018/03/08 19:59:29","新北市中和區景新街397號","121.512463333333","24.9899283333333","6500300","中和區"
"235053","900-TW","2018/03/08 19:59:14","新北市中和區民德路244號","121.468125","24.9972933333333","6500300","中和區"
"235070","911-UM","2018/03/08 19:59:34","新北市中和區景平路479號","121.500315","24.9974083333333","6500300","中和區"
"235051","157-BY","2018/03/08 19:59:35","新北市中和區中興街233巷10號","121.501423333333","24.9894616666667","6500300","中和區"
"235037","AAC-213","2018/03/08 19:59:27","新北市中和區自立路159號","121.522783333333","24.9927083333333","6500300","中和區"
"235059","AAC-215","2018/03/08 19:59:27","新北市中和區圓通路337號","121.491623333333","24.99056","6500300","中和區"
"220068","013-TV","2018/03/08 19:59:32","新北市板橋區光復街172巷14號","121.485608333333","25.01902","6500100","板橋區"
"220065","072-UY","2018/03/08 19:59:36","新北市板橋區民族路69巷5號","121.465541666667","25.0092466666667","6500100","板橋區"
"220069","AAD-861","2018/03/08 19:59:31","新北市板橋區大明街13號","121.458938333333","25.0025683333333","6500100","板橋區"
"247024","893-R6","2018/03/08 19:59:22","新北市蘆洲區光榮路120巷8弄21號","121.46505","25.0882066666667","6501400","蘆洲區"
"247014","546-UM","2018/03/08 19:59:32","新北市蘆洲區成功路96號","121.472615","25.082015","6501400","蘆洲區"
"247010","341-TH","2018/03/08 19:59:22","新北市三重區集賢路188號","121.483965","25.0880516666667","6501400","蘆洲區"
"247012","339-TH","2018/03/08 19:59:35","新北市蘆洲區民族路226號","121.479555","25.0880566666667","6501400","蘆洲區"
"247004","337-TH","2018/03/08 19:59:39","新北市蘆洲區永康街33號","121.457476666667","25.0851616666667","6501400","蘆洲區"
"247006","336-TH","2018/03/08 19:59:32","新北市蘆洲區九芎街86號","121.466016666667","25.0797366666667","6501400","蘆洲區"
"247018","057-VK","2018/03/08 19:59:34","新北市蘆洲區民族路282號","121.478165","25.0894683333333","6501400","蘆洲區"
"247008","056-VK","2018/03/08 19:59:24","新北市蘆洲區中山一路135巷8號","121.475786666667","25.0810933333333","6501400","蘆洲區"
"247020","053-VK","2018/03/08 19:59:20","新北市蘆洲區民義街80號","121.47342","25.0903366666667","6501400","蘆洲區"
"247016","007-UY","2018/03/08 19:59:38","新北市蘆洲區中正路85號","121.47","25.08365","6501400","蘆洲區"
"247002","002-UY","2018/03/08 19:59:31","新北市蘆洲區長安街276號","121.457255","25.0870483333333","6501400","蘆洲區"
"235041","251-BX","2018/03/08 19:59:26","新北市中和區中安街192號","121.511366666667","24.9993233333333","6500300","中和區"
"228003","097-TW","2018/03/08 19:59:32","新北市貢寮區仁理村仁和路98號","121.922823333333","25.0505866666667","6502600","貢寮區"
"224010","AGQ-8101","2018/03/08 19:53:37","新北市瑞芳區金光路372號","121.848676666667","25.110545","6501200","瑞芳區"
"227004","400-TW","2018/03/08 19:59:36","新北市雙溪區雙溪里長安街16號","121.86496","25.03472","6502500","雙溪區"
"227010","030-BX","2018/03/08 19:59:21","新北市雙溪區新基里新基南街24號","121.86627","25.0381716666667","6502500","雙溪區"
"222001","KEA-2212","2018/03/08 19:59:39","新北市深坑區北深路三段165-1號","121.602146666667","25.0033033333333","6501800","深坑區"
"208002","KEA-2872","2018/03/08 19:59:26","新北市金山區環金路59號","121.638276666667","25.217325","6502700","金山區"
"208003","665-BX","2018/03/08 19:59:38","新北市金山區永興里忠義路3號","121.632455","25.260125","6502700","金山區"
"208001","761-BX","2018/03/08 19:59:35","新北市金山區南勢湖1-3號","121.622983333333","25.2195583333333","6502700","金山區"
"251009","008-UM","2018/03/08 19:59:35","新北市淡水區英專路28巷20號","121.445921666667","25.1698033333333","6501000","淡水區"
"251004","009-UM","2018/03/08 19:59:27","新北市淡水區民權路177巷9號","121.460756666667","25.13543","6501000","淡水區"
"251005","010-UM","2018/03/08 19:59:38","新北市淡水區學府路136巷24號","121.451401666667","25.1727266666667","6501000","淡水區"
"251001","011-UM","2018/03/08 19:59:18","新北市淡水區淡金路一段166-6號","121.453915","25.1801533333333","6501000","淡水區"
"251013","179-VK","2018/03/08 19:59:36","新北市淡水區奎柔山路63號","121.451706666667","25.2061916666667","6501000","淡水區"
"251014","180-VK","2018/03/08 19:59:32","新北市淡水區石頭厝9-3號","121.458256666667","25.2366566666667","6501000","淡水區"
"251008","181-VK","2018/03/08 19:59:36","新北市淡水區中正路一段132巷7弄6號","121.422475","25.179955","6501000","淡水區"
"251015","182-VK","2018/03/08 19:59:34","新北市淡水區商工路198巷3號","121.451748333333","25.1877366666667","6501000","淡水區"
"251010","413-VK","2018/03/08 19:59:24","新北市淡水區崁頂128號","121.432016666667","25.2043533333333","6501000","淡水區"
"251012","441-VK","2018/03/08 19:59:29","新北市淡水區下圭柔山110-10號","121.439563333333","25.2119216666667","6501000","淡水區"
"251016","442-VK","2018/03/08 19:59:30","新北市淡水區淡金路四段215號","121.451786666667","25.2222883333333","6501000","淡水區"
"251006","561-UM","2018/03/08 19:59:37","新北市淡水區水碓街40巷1號","121.444466666667","25.1772716666667","6501000","淡水區"
"251007","577-R6","2018/03/08 19:59:27","新北市淡水區學府路45號","121.447968333333","25.1692116666667","6501000","淡水區"
"251011","650-BX","2018/03/08 19:59:18","新北市淡水區崁頂57號","121.442723333333","25.1971883333333","6501000","淡水區"
"251002","672-BX","2018/03/08 19:59:20","新北市淡水區淡海路100號","121.422581666667","25.18229","6501000","淡水區"
"207003","550-UM","2018/03/08 19:59:25","新北市萬里區磺潭里公館崙5號","121.641876666667","25.2142333333333","6502800","萬里區"
"207004","225-TW","2018/03/08 19:59:21","新北市萬里區北基里忠二街35號","121.685625","25.175775","6502800","萬里區"
"252002","178-VK","2018/03/08 19:59:33","新北市三芝區三民街39巷5號","121.50543","25.2576883333333","6502100","三芝區"
"252001","292-VK","2018/03/08 19:59:36","新北市三芝區公正街9號","121.499736666667","25.2575883333333","6502100","三芝區"
"237004","KEA-2597","2018/03/08 19:59:24","新北市三峽區添福7-1號","121.37114","24.9079","6500900","三峽區"
"237007","153-BY","2018/03/08 19:59:26","新北市三峽區麻園46號","121.363606666667","24.9214316666667","6500900","三峽區"
"237009","210-TH","2018/03/08 19:59:23","新北市三峽區民族街28巷7號","121.368826666667","24.9306966666667","6500900","三峽區"
"237012","275-BY","2018/03/08 19:59:33","新北市三峽區中華路3巷8-1號","121.37492","24.9311833333333","6500900","三峽區"
"237008","302-VK","2018/03/08 19:59:30","新北市三峽區安溪路344號","121.370043333333","24.9263983333333","6500900","三峽區"
"237014","433-BY","2018/03/08 19:59:30","新北市三峽區添福11-6號","121.373303333333","24.9071333333333","6500900","三峽區"
"237006","5529-G3","2018/03/08 19:59:33","新北市三峽區正義街2號","121.369895","24.9199233333333","6500900","三峽區"
"237016","649-BX","2018/03/08 19:56:25","新北市三峽區介壽路二段138巷1弄21號","121.396541666667","24.9335233333333","6500900","三峽區"
"237005","AKY-6261","2018/03/08 19:59:34","新北市三峽區三樹路44巷14號","121.378355","24.93755","6500900","三峽區"
"236071","105-UM","2018/03/08 19:59:19","新北市土城區忠義路77號","121.44296","24.9651333333333","6501300","土城區"
"236042","107-UM","2018/03/08 19:59:34","新北市土城區學府路一段143巷9號","121.453945","24.9858116666667","6501300","土城區"
"236078","166-UM","2018/03/08 19:59:37","新北市土城區福安街104號","121.417386666667","24.9639883333333","6501300","土城區"
"236030","253-BX","2018/03/08 19:59:34","新北市土城區中央路一段242巷15號","121.443758333333","24.9852183333333","6501300","土城區"
"236026","269-VK","2018/03/08 19:59:29","新北市土城區員林街1號","121.44226","24.97827","6501300","土城區"
"236014","270-VK","2018/03/08 19:59:20","新北市土城區廣福街123號","121.456205","24.99289","6501300","土城區"
"236037","271-VK","2018/03/08 19:59:31","新北市土城區國際路57號","121.466696666667","24.9768566666667","6501300","土城區"
"236021","401-BY","2018/03/08 19:59:36","新北市土城區延吉街137巷12弄8號","121.470613333333","24.985485","6501300","土城區"
"236058","912-UM","2018/03/08 19:59:38","新北市土城區中央路一段245號","121.445426666667","24.9861133333333","6501300","土城區"
"236051","913-UM","2018/03/08 19:59:30","新北市土城區金城路三段260號","121.473973333333","24.99082","6501300","土城區"
"236062","915-UM","2018/03/08 19:59:22","新北市土城區金城路三段73巷4弄1號","121.466273333333","24.98783","6501300","土城區"
"236053","AAC-216","2018/03/08 19:59:21","新北市土城區立德路31-1號","121.462143333333","24.98797","6501300","土城區"
"242034","AAC-296","2018/03/08 19:59:37","新北市新莊區建中街93號","121.446595","25.03652","6500500","新莊區"
"242058","986-R7","2018/03/08 19:59:22","新北市新莊區八德街109號","121.424243333333","25.0209916666667","6500500","新莊區"
"242053","751-BX","2018/03/08 19:59:17","新北市新莊區西盛街421號","121.427271666667","25.01221","6500500","新莊區"
"242027","615-BX","2018/03/08 19:59:21","新北市新莊區幸福路902號","121.443083333333","25.0493866666667","6500500","新莊區"
"242025","613-BX","2018/03/08 19:59:40","新北市新莊區五工一路86號","121.46134","25.067425","6500500","新莊區"
"242029","612-BX","2018/03/08 19:59:36","新北市新莊區中榮街168巷31號","121.445326666667","25.05359","6500500","新莊區"
"242042","566-BX","2018/03/08 19:59:27","新北市新莊區青山路一段179號","121.40042","25.030205","6500500","新莊區"
"242046","497-BY","2018/03/08 19:59:34","新北市新莊區裕民街19巷4號","121.41964","25.0251916666667","6500500","新莊區"
"242051","441-UM","2018/03/08 19:59:30","新北市新莊區西盛街182號","121.428181666667","25.018685","6500500","新莊區"
"242056","440-UM","2018/03/08 19:59:38","新北市新莊區中正路347巷19號","121.44718","25.034185","6500500","新莊區"
"242036","415-TV","2018/03/08 19:59:31","新北市新莊區建安街39號","121.429063333333","25.0254716666667","6500500","新莊區"
"242007","413-TV","2018/03/08 19:59:38","新北市新莊區思源路585號","121.45969","25.0594433333333","6500500","新莊區"
"242044","400-BY","2018/03/08 19:59:38","新北市新莊區中正路742-5號","121.413118333333","25.02265","6500500","新莊區"
"242023","362-BY","2018/03/08 19:59:34","新北市新莊區化成路159號","121.465748333333","25.0492783333333","6500500","新莊區"
"242061","353-BY","2018/03/08 19:59:30","新北市新莊區瓊泰路21號","121.444276666667","25.0285983333333","6500500","新莊區"
"242039","133-UY","2018/03/08 19:59:34","新北市新莊區民安路285-1號","121.429098333333","25.0225716666667","6500500","新莊區"
"242031","135-UY","2018/03/08 19:59:33","新北市新莊區公園一路41號","121.443251666667","25.0356766666667","6500500","新莊區"
"242048","172-VK","2018/03/08 19:59:25","新北市新莊區民安路209號","121.426406666667","25.022365","6500500","新莊區"
"242011","173-VK","2018/03/08 19:59:36","新北市新莊區中港路531巷31號","121.45016","25.0514733333333","6500500","新莊區"
"242005","176-VK","2018/03/08 19:59:19","新北市新莊區化成路424號","121.465951666667","25.0511133333333","6500500","新莊區"
"242015","346-TH","2018/03/08 19:59:30","新北市新莊區中平路6巷13號","121.445298333333","25.0426833333333","6500500","新莊區"
"242021","348-TH","2018/03/08 19:59:34","新北市新莊區建中街32巷20號","121.44874","25.0383833333333","6500500","新莊區"
"242002","349-TH","2018/03/08 19:59:23","新北市新莊區新泰路76號","121.449038333333","25.0349833333333","6500500","新莊區"
"242019","350-TH","2018/03/08 19:59:24","新北市新莊區長青街35巷7號","121.45688","25.0418333333333","6500500","新莊區"
"242013","351-TH","2018/03/08 19:59:26","新北市新莊區幸福路672號","121.45088","25.04943","6500500","新莊區"
"238015","755-BX","2018/03/08 19:59:30","新北市樹林區中山路三段206-2號","121.382926666667","24.96644","6500700","樹林區"
"238021","KEA-2539","2018/03/08 19:59:21","新北市樹林區佳園路三段181巷83號","121.390823333333","24.9482966666667","6500700","樹林區"
"238014","282-BY","2018/03/08 19:59:37","新北市樹林區中正路97號","121.425801666667","25.0007233333333","6500700","樹林區"
"239006","891-R6","2018/03/08 19:59:38","新北市鶯歌區重慶街13號","121.351866666667","24.9527083333333","6500800","鶯歌區"
"239004","292-BY","2018/03/08 19:59:34","新北市鶯歌區二甲路83-5號","121.339935","24.93216","6500800","鶯歌區"
"221008","489-VK","2018/03/08 19:59:31","台北市內湖區東湖路163號","121.617663333333","25.0677583333333","6501100","汐止區"
"221036","130-UY","2018/03/08 19:59:30","新北市汐止區忠孝東路258巷11弄7號","121.664015","25.0675133333333","6501100","汐止區"
"221010","269-BY","2018/03/08 19:59:27","新北市汐止區連峰街270號","121.644275","25.0814283333333","6501100","汐止區"
"221012","278-VK","2018/03/08 19:59:23","新北市汐止區大同路三段439號","121.678241666667","25.071305","6501100","汐止區"
"221023","279-VK","2018/03/08 19:59:30","新北市汐止區明峰街185號","121.62826","25.0696716666667","6501100","汐止區"
"221032","280-BY","2018/03/08 19:59:22","新北市汐止區橫科路18巷9弄1號","121.617945","25.050795","6501100","汐止區"
"221027","281-BY","2018/03/08 19:59:21","新北市汐止區中正路90號","121.66144","25.0694766666667","6501100","汐止區"
"221029","298-VK","2018/03/08 19:59:38","新北市汐止區樟樹一路137巷26號","121.640978333333","25.0660083333333","6501100","汐止區"
"221021","299-VK","2018/03/08 19:59:40","新北市汐止區新台五路一段201-1號","121.656231666667","25.0633533333333","6501100","汐止區"
"221031","353-TW","2018/03/08 19:59:33","新北市汐止區福德一路258號","121.633323333333","25.0645233333333","6501100","汐止區"
"221035","622-UM","2018/03/08 19:59:21","新北市汐止區長江街39巷10號","121.655503333333","25.0718183333333","6501100","汐止區"
"221025","623-UM","2018/03/08 19:59:32","新北市汐止區秀峰路107號","121.660201666667","25.0634366666667","6501100","汐止區"
"221038","646-BX","2018/03/08 19:59:34","新北市汐止區忠孝東路491-1號","121.666316666667","25.074285","6501100","汐止區"
"221033","647-BX","2018/03/08 19:59:30","新北市汐止區東勢街201巷102號","121.633591666667","25.0430366666667","6501100","汐止區"
"221018","753-BX","2018/03/08 19:59:26","新北市汐止區茄苳路223號","121.67087","25.0687566666667","6501100","汐止區"
"220079","145-BY","2018/03/08 19:59:40","新北市板橋區南雅西路二段183號","121.451943333333","25.0127383333333","6500100","板橋區"
"220080","200-UY","2018/03/08 19:59:38","新北市板橋區大觀路二段169巷23號","121.446776666667","24.99975","6500100","板橋區"
"220106","KEA-2550","2018/03/08 19:59:33","新北市板橋區民治街52巷20號","121.47884","25.03286","6500100","板橋區"
"220101","245-BX","2018/03/08 19:59:34","新北市板橋區縣民大道三段35號","121.473886666667","25.02073","6500100","板橋區"
"220072","277-BY","2018/03/08 19:59:32","新北市板橋區篤行路二段77巷9弄1號","121.432241666667","24.991835","6500100","板橋區"
"220094","280-UM","2018/03/08 19:59:33","新北市板橋區雨農路11號","121.462278333333","25.0247083333333","6500100","板橋區"
"220071","283-VK","2018/03/08 19:59:26","新北市板橋區五權街32巷18號","121.464228333333","24.992945","6500100","板橋區"
"220053","285-VK","2018/03/08 19:59:17","新北市板橋區永豐街73號","121.473746666667","25.0187366666667","6500100","板橋區"
"220083","286-VK","2018/03/08 19:59:24","新北市板橋區僑中二街38號","121.44541","25.0108166666667","6500100","板橋區"
"220081","287-VK","2018/03/08 19:59:33","新北市板橋區僑中一街80巷5弄2-4號","121.447868333333","25.0125533333333","6500100","板橋區"
"220090","288-VK","2018/03/08 19:59:30","新北市板橋區新海路135巷1號","121.460641666667","25.023285","6500100","板橋區"
"220061","293-UM","2018/03/08 19:59:30","新北市板橋區觀光街79巷2號","121.469346666667","25.0170066666667","6500100","板橋區"
"220084","296-UM","2018/03/08 19:59:37","新北市板橋區溪崑二街112巷4號","121.42621","24.98877","6500100","板橋區"
"242017","281-VK","2018/03/08 19:59:35","新北市新莊區中安街38號","121.452981666667","25.0463883333333","6500500","新莊區"
"220075","303-R5","2018/03/08 19:59:21","新北市板橋區金華街10巷46號","121.456871666667","25.02015","6500100","板橋區"
"220062","305-R5","2018/03/08 19:59:33","新北市板橋區萬安街85巷1弄12號","121.484381666667","25.0250983333333","6500100","板橋區"
"220092","307-R5","2018/03/08 19:59:34","新北市板橋區英士路59號","121.460591666667","25.02427","6500100","板橋區"
"220098","317-R6","2018/03/08 19:59:23","新北市板橋區新海路72巷61號","121.461611666667","25.023645","6500100","板橋區"
"220064","486-VK","2018/03/08 19:59:37","新北市板橋區區運路8號","121.465073333333","25.0090816666667","6500100","板橋區"
"220089","487-VK","2018/03/08 19:59:26","新北市板橋區龍泉街55巷12號","121.457366666667","25.025505","6500100","板橋區"
"220088","491-VK","2018/03/08 19:59:35","新北市板橋區懷德街191巷2號","121.480103333333","25.0294283333333","6500100","板橋區"
"220035","560-BX","2018/03/08 19:59:20","新北市板橋區新生街53巷20號","121.457673333333","25.0217516666667","6500100","板橋區"
"220103","561-BX","2018/03/08 19:59:17","新北市板橋區陽明街29巷1弄8號","121.464813333333","25.0215783333333","6500100","板橋區"
"220055","568-UM","2018/03/08 19:59:29","新北市板橋區仁愛路49巷1號","121.459881666667","24.9994883333333","6500100","板橋區"
"220063","609-BX","2018/03/08 19:59:28","新北市板橋區三民路一段147號","121.479186666667","25.0197383333333","6500100","板橋區"
"220091","637-BX","2018/03/08 19:59:35","新北市板橋區文聖街89巷27號","121.47851","25.0306333333333","6500100","板橋區"
"220057","686-BX","2018/03/08 19:59:28","新北市板橋區信義路16-1號","121.45702","24.995935","6500100","板橋區"
"220093","689-BX","2018/03/08 19:59:30","新北市板橋區長江路三段120號","121.47517","25.0344033333333","6500100","板橋區"
"220054","741-BX","2018/03/08 19:59:33","新北市板橋區實踐路93巷10號","121.464503333333","25.00548","6500100","板橋區"
"220102","KEA-2699","2018/03/08 19:59:23","新北市板橋區仁化街42巷3號","121.475365","25.0313016666667","6500100","板橋區"
"220067","830-TW","2018/03/08 19:59:36","新北市板橋區漢生東路161巷3號","121.469656666667","25.012665","6500100","板橋區"
"220096","831-TW","2018/03/08 19:59:19","新北市板橋區莒光路16巷5號","121.46964","25.0243283333333","6500100","板橋區"
"220074","895-R6","2018/03/08 19:59:37","新北市板橋區縣民大道一段285號","121.460663333333","25.0100816666667","6500100","板橋區"
"220073","985-R7","2018/03/08 19:59:22","新北市板橋區南雅西路二段130號","121.451973333333","25.012655","6500100","板橋區"
"220097","AAC-210","2018/03/08 19:59:23","新北市板橋區光正街16巷12號","121.463203333333","25.0173966666667","6500100","板橋區"
"220070","AAC-253","2018/03/08 19:59:27","新北市板橋區成都街7號","121.460281666667","25.0047966666667","6500100","板橋區"
