"lineid","car","time","location","longitude","latitude","cityid","cityname"
"248005","653-BX","2018/03/09 07:09:29","新北市五股區新五路二段69-1號","121.436646666667","25.0733783333333","6501500","五股區"
"232003","290-BY","2018/03/09 07:09:19","新北市坪林區大粗坑29號","121.707785","24.968705","6502000","坪林區"
"232015","291-BY","2018/03/09 07:09:26","新北市坪林區黃舉皮寮3號","121.687943333333","24.9375766666667","6502000","坪林區"
"232019","705-BZ","2018/03/09 07:09:26","新北市坪林區九芎坑3-3號","121.727743333333","24.9629833333333","6502000","坪林區"
"232008","758-BX","2018/03/09 07:09:18","新北市坪林區鶯子瀨12-1號","121.713081666667","24.91073","6502000","坪林區"
"244005","248-BX","2018/03/09 07:09:29","新北市林口區文化一路二段202號","121.383155","25.08079","6501700","林口區"
"222005","289-BY","2018/03/09 06:54:30","新北市深坑區深坑街75號","121.614728333333","25.001285","6501800","深坑區"
"235001","611-BX","2018/03/09 07:09:29","新北市中和區圓通路367巷2號","121.49131","24.9893233333333","6500300","中和區"
"226005","5620-A6","2018/03/09 07:09:33","新北市平溪區菁桐里菁桐街117號","121.724148333333","25.0238516666667","6502400","平溪區"
"226001","7418-A5","2018/03/09 07:09:22","新北市平溪區石底里石筍尖3號","121.736668333333","25.0257216666667","6502400","平溪區"
"226003","AGD-0702","2018/03/09 07:09:35","新北市平溪區靜安路二段520號","121.744016666667","25.027005","6502400","平溪區"
"223006","022-BY","2018/03/09 07:09:25","新北市石碇區崩山3-2號","121.67573","24.9740833333333","6501900","石碇區"
"223001","205-TH","2018/03/09 07:09:15","新北市石碇區烏塗窟20號","121.656533333333","24.9748816666667","6501900","石碇區"
"223008","406-TH","2018/03/09 07:09:23","新北市石碇區藤寮坑5-1號","121.701106666667","25.010925","6501900","石碇區"
"223001","592-UM","2018/03/09 07:09:22","新北市石碇區烏塗窟17號","121.65625","24.9748566666667","6501900","石碇區"
"223004","660-BX","2018/03/09 07:09:33","新北市石碇區碇坪路一段18號","121.65169","25.0057416666667","6501900","石碇區"
"223007","661-BX","2018/03/09 07:09:31","新北市石碇區番子坑9-2號","121.683868333333","24.9976633333333","6501900","石碇區"
"223005","677-TV","2018/03/09 07:09:02","新北市石碇區碇坪路一段18號","121.651493333333","25.0030516666667","6501900","石碇區"
"227005","282-VK","2018/03/09 07:09:36","新北市雙溪區新基里自強路5-1號","121.866355","25.0391416666667","6502500","雙溪區"
"236010","165-UM","2018/03/09 07:09:18","新北市土城區中華路二段157號","121.438843333333","24.97568","6501300","土城區"
"236004","339-SR","2018/03/09 07:09:29","新北市土城區永平街51號","121.427763333333","24.95917","6501300","土城區"
"220027","461-BY","2018/03/09 07:06:47","新北市板橋區國光路49巷2號","121.458015","25.0181083333333","6500100","板橋區"
