"lineid","car","time","location","longitude","latitude","cityid","cityname"
"232001","290-BY","2018/03/01 06:49:33","新北市坪林區北宜路八段301號","121.711155","24.9337716666667","6502000","坪林區"
"232014","291-BY","2018/03/01 06:49:17","新北市坪林區水柳腳39號","121.709696666667","24.9351233333333","6502000","坪林區"
"232018","705-BZ","2018/03/01 06:49:12","新北市坪林區魚堀55-8號","121.708415","24.928415","6502000","坪林區"
"232007","758-BX","2018/03/01 06:49:35","新北市坪林區魚堀51號","121.704833333333","24.9321966666667","6502000","坪林區"
"244003","248-BX","2018/03/01 06:49:20","新北市林口區粉寮路一段55號","121.396938333333","25.0778183333333","6501700","林口區"
"235044","293-VK","2018/03/01 06:49:32","新北市中和區和平街29-1號","121.50741","24.9910066666667","6500300","中和區"
"235001","611-BX","2018/03/01 06:49:22","新北市中和區圓通路335巷33弄51號","121.494255","24.9886","6500300","中和區"
"223006","022-BY","2018/03/01 06:49:14","新北市石碇區新興坑33號","121.646608333333","25.01533","6501900","石碇區"
"223001","205-TH","2018/03/01 06:49:27","新北市石碇區石崁40-9號","121.660556666667","24.99599","6501900","石碇區"
"223008","406-TH","2018/03/01 06:49:20","新北市石碇區碇坪路一段18號","121.651651666667","25.00578","6501900","石碇區"
"223001","592-UM","2018/03/01 06:49:18","新北市石碇區石崁40-9號","121.660118333333","24.996275","6501900","石碇區"
"223004","660-BX","2018/03/01 06:49:29","新北市石碇區碇坪路一段101號","121.663298333333","24.989245","6501900","石碇區"
"223007","661-BX","2018/03/01 06:49:28","新北市石碇區靜安路一段102號","121.648075","25.008905","6501900","石碇區"
"223005","677-TV","2018/03/01 06:49:17","新北市石碇區碇坪路一段109號","121.66401","24.9884866666667","6501900","石碇區"
"227007","282-VK","2018/03/01 06:49:34","新北市雙溪區新基里自強路5號","121.866361666667","25.03905","6502500","雙溪區"
"237001","159-UY","2018/03/01 06:49:31","新北市三峽區中山路459巷163-1號","121.349303333333","24.9333933333333","6500900","三峽區"
"236009","165-UM","2018/03/01 06:49:17","新北市土城區永平街51號","121.428001666667","24.959145","6501300","土城區"
"220057","282-UM","2018/03/01 06:49:17","新北市板橋區國光路67巷14號","121.459013333333","25.0187233333333","6500100","板橋區"
