"lineid","car","time","location","longitude","latitude","cityid","cityname"
"248005","653-BX","2018/03/01 07:09:12","新北市五股區成泰路一段104號","121.43582","25.0716283333333","6501500","五股區"
"232001","290-BY","2018/03/01 07:09:32","新北市坪林區桶盤嶼9號","121.708266666667","24.9580833333333","6502000","坪林區"
"232014","291-BY","2018/03/01 07:09:17","新北市坪林區金瓜寮10-2號","121.68121","24.9170933333333","6502000","坪林區"
"232018","705-BZ","2018/03/01 07:09:32","新北市坪林區九芎坑3-3號","121.728035","24.96346","6502000","坪林區"
"232007","758-BX","2018/03/01 07:09:15","新北市坪林區魚堀52號","121.705225","24.930815","6502000","坪林區"
"244003","248-BX","2018/03/01 07:09:20","新北市林口區頭湖92-5號","121.367845","25.080715","6501700","林口區"
"235044","293-VK","2018/03/01 07:09:32","新北市中和區和平街29-1號","121.507426666667","24.9910766666667","6500300","中和區"
"235001","611-BX","2018/03/01 07:09:22","新北市中和區圓通路367巷4號","121.49144","24.9893216666667","6500300","中和區"
"226005","5620-A6","2018/03/01 07:09:27","新北市平溪區菁桐里菁桐街103號","121.725048333333","25.0239716666667","6502400","平溪區"
"226002","7418-A5","2018/03/01 07:09:17","新北市平溪區石底里石筍尖8-2號","121.735691666667","25.0255916666667","6502400","平溪區"
"226003","AGD-0702","2018/03/01 07:09:21","新北市平溪區靜安路二段520號","121.744176666667","25.0270316666667","6502400","平溪區"
"223006","022-BY","2018/03/01 07:09:14","新北市石碇區新興坑3號","121.654616666667","25.0166916666667","6501900","石碇區"
"223001","205-TH","2018/03/01 07:09:27","新北市石碇區烏塗窟14號","121.65598","24.974995","6501900","石碇區"
"223008","406-TH","2018/03/01 07:09:20","新北市石碇區十八重溪67號","121.673781666667","25.01333","6501900","石碇區"
"223001","592-UM","2018/03/01 07:09:18","新北市石碇區烏塗窟3號","121.654795","24.9766316666667","6501900","石碇區"
"223004","660-BX","2018/03/01 07:09:29","新北市石碇區石崁1號","121.651413333333","25.0026816666667","6501900","石碇區"
"223007","661-BX","2018/03/01 07:09:25","新北市石碇區十八重溪45號","121.675366666667","25.0127183333333","6501900","石碇區"
"223005","677-TV","2018/03/01 07:09:17","新北市石碇區石崁1號","121.651856666667","25.001375","6501900","石碇區"
"227007","282-VK","2018/03/01 07:09:34","新北市雙溪區新基里自強路5號","121.866348333333","25.0390633333333","6502500","雙溪區"
"252004","249-BX","2018/03/01 07:09:31","新北市三芝區錫板里小坑子11號","121.503491666667","25.2374833333333","6502100","三芝區"
"252007","AAC-283","2018/03/01 07:09:12","新北市三芝區福德里埔尾27號","121.50238","25.2402966666667","6502100","三芝區"
"237001","159-UY","2018/03/01 07:09:31","新北市三峽區中山路459巷163-1號","121.349306666667","24.9333916666667","6500900","三峽區"
"236009","165-UM","2018/03/01 07:09:17","新北市土城區中華路二段221號","121.437666666667","24.9731183333333","6501300","土城區"
"236003","339-SR","2018/03/01 07:09:17","新北市土城區金城路一段16號","121.439303333333","24.9688266666667","6501300","土城區"
"220057","282-UM","2018/03/01 07:09:17","新北市板橋區國光路49巷2號","121.458101666667","25.0180383333333","6500100","板橋區"
