"lineid","car","time","location","longitude","latitude","cityid","cityname"
"248005","653-BX","2018/03/01 07:19:32","新北市五股區明德路12巷6號","121.433341666667","25.0718316666667","6501500","五股區"
"232001","290-BY","2018/03/01 07:19:32","新北市坪林區桶盤嶼8-2號","121.706523333333","24.9565633333333","6502000","坪林區"
"232014","291-BY","2018/03/01 07:19:17","新北市坪林區金瓜寮16號","121.682581666667","24.917115","6502000","坪林區"
"232018","705-BZ","2018/03/01 07:19:32","新北市坪林區樟空子4號","121.726655","24.9679883333333","6502000","坪林區"
"232007","758-BX","2018/03/01 07:19:15","新北市坪林區魚堀40-3號","121.700311666667","24.9321216666667","6502000","坪林區"
"244003","248-BX","2018/03/01 07:19:20","新北市林口區南勢里87-1號","121.351146666667","25.07849","6501700","林口區"
"222006","289-BY","2018/03/01 07:19:15","新北市深坑區平埔街7號","121.615511666667","25.0009616666667","6501800","深坑區"
"235044","293-VK","2018/03/01 07:19:32","新北市中和區和平街29-1號","121.507511666667","24.9910833333333","6500300","中和區"
"235001","611-BX","2018/03/01 07:19:22","新北市中和區圓通路367巷6號","121.491433333333","24.9892383333333","6500300","中和區"
"226005","5620-A6","2018/03/01 07:18:27","新北市平溪區菁桐里二坑路1號","121.721188333333","25.02428","6502400","平溪區"
"226002","7418-A5","2018/03/01 07:19:31","新北市平溪區靜安路三段52巷16號","121.763275","25.033415","6502400","平溪區"
"226003","AGD-0702","2018/03/01 07:19:21","新北市平溪區嶺腳里嶺腳寮68-1號","121.748038333333","25.0319266666667","6502400","平溪區"
"223006","022-BY","2018/03/01 07:19:34","新北市石碇區碇坪路一段18號","121.651616666667","25.00585","6501900","石碇區"
"223001","205-TH","2018/03/01 07:19:33","新北市石碇區蓬菜寮11號","121.650738333333","24.9734733333333","6501900","石碇區"
"223008","406-TH","2018/03/01 07:19:20","新北市石碇區番子坑26號","121.67737","25.00168","6501900","石碇區"
"223001","592-UM","2018/03/01 07:19:18","新北市石碇區蓬菜寮10號","121.651616666667","24.9735616666667","6501900","石碇區"
"223004","660-BX","2018/03/01 07:19:29","新北市石碇區新興坑1-1號","121.653971666667","25.0136183333333","6501900","石碇區"
"223007","661-BX","2018/03/01 07:19:18","新北市石碇區番子坑22號","121.678926666667","25.000705","6501900","石碇區"
"223005","677-TV","2018/03/01 07:19:17","新北市石碇區新興坑1號","121.652141666667","25.0145516666667","6501900","石碇區"
"227007","282-VK","2018/03/01 07:19:13","新北市雙溪區新基里自強路5號","121.86633","25.0390883333333","6502500","雙溪區"
"252004","249-BX","2018/03/01 07:19:18","新北市三芝區福德里大湖9號","121.504366666667","25.2243166666667","6502100","三芝區"
"252007","AAC-283","2018/03/01 07:19:32","新北市三芝區錫板里海尾17-1號","121.479068333333","25.2568233333333","6502100","三芝區"
"237001","159-UY","2018/03/01 07:19:31","新北市三峽區中山路459巷163-1號","121.349313333333","24.9333866666667","6500900","三峽區"
"236009","165-UM","2018/03/01 07:19:37","新北市土城區中央路一段7-1號","121.449096666667","24.99178","6501300","土城區"
"236003","339-SR","2018/03/01 07:19:30","新北市土城區和平路109號","121.450028333333","24.96791","6501300","土城區"
"242049","751-BX","2018/03/01 07:19:21","新北市新莊區新泰路255巷83號","121.442191666667","25.039145","6500500","新莊區"
"242059","362-BY","2018/03/01 07:19:13","新北市新莊區新泰路255巷83號","121.442353333333","25.03883","6500500","新莊區"
"220057","282-UM","2018/03/01 07:14:46","新北市板橋區國光路49巷2號","121.458103333333","25.018045","6500100","板橋區"
