"lineid","car","time","location","longitude","latitude","cityid","cityname"
"244005","248-BX","2018/12/08 08:09:20","新北市林口區下福里97號","121.288815","25.117515","6501700","林口區"
"222004","289-BY","2018/12/08 08:09:31","新北市深坑區文山路二段31號","121.615845","24.998645","6501800","深坑區"
"231007","189-VK","2018/12/08 08:09:14","新北市新店區新潭路一段32號","121.523268333333","24.942355","6500600","新店區"
"231008","192-VK","2018/12/08 08:09:31","新北市新店區新烏路一段58-2號","121.54613","24.9473433333333","6500600","新店區"
"235001","611-BX","2018/12/08 08:09:12","新北市中和區圓通路367巷33弄72號","121.495505","24.9841633333333","6500300","中和區"
"226005","5620-A6","2018/12/08 08:09:08","新北市平溪區望古里灰3-1號","121.756936666667","25.029575","6502400","平溪區"
"226007","7418-A5","2018/12/08 08:09:27","新北市平溪區十分里姜仔坑2號","121.766483333333","25.03524","6502400","平溪區"
"226003","AGD-0702","2018/12/08 08:09:17","新北市平溪區十分里十分街302號","121.776356666667","25.0446116666667","6502400","平溪區"
"223006","022-BY","2018/12/08 08:07:59","新北市石碇區北宜路五段1號","121.624551666667","24.9536066666667","6501900","石碇區"
"223003","205-TH","2018/12/08 08:03:18","新北市石碇區樟空子10-1號","121.666828333333","24.9627416666667","6501900","石碇區"
"223008","406-TH","2018/12/08 08:09:26","新北市石碇區蚯蚓坑22-1號","121.688815","25.006535","6501900","石碇區"
"223004","437-BY","2018/12/08 08:09:13","新北市石碇區外按11-5號","121.651961666667","24.999035","6501900","石碇區"
"223001","592-UM","2018/12/08 08:03:17","新北市石碇區樟空子10-2號","121.666888333333","24.9622916666667","6501900","石碇區"
"223005","677-TV","2018/12/08 08:09:14","新北市石碇區外按18-2號","121.651048333333","24.999125","6501900","石碇區"
"227006","030-BX","2018/12/08 08:09:18","新北市雙溪區牡丹里聖南14號","121.858098333333","25.0525133333333","6502500","雙溪區"
"252004","249-BX","2018/12/08 08:09:13","新北市三芝區興華里車埕31-3號","121.503361666667","25.1947166666667","6502100","三芝區"
"252007","AAC-283","2018/12/08 08:09:10","新北市三芝區後厝里大片頭87-1號","121.456291666667","25.2456116666667","6502100","三芝區"
"237001","361-BY","2018/12/08 08:08:46","新北市三峽區大德路123號","121.375978333333","24.9442966666667","6500900","三峽區"
