"lineid","car","time","location","longitude","latitude","cityid","cityname"
"222004","289-BY","2018/12/08 09:19:50","新北市深坑區向天湖11-2號","121.622943333333","24.9844283333333","6501800","深坑區"
"231007","189-VK","2018/12/08 09:19:54","新北市新店區新潭路三段215巷25號","121.50798","24.90398","6500600","新店區"
"231008","192-VK","2018/12/08 09:19:11","新北市新店區平廣路一段125-1號","121.526876666667","24.89391","6500600","新店區"
"235001","611-BX","2018/12/08 09:19:52","新北市中和區莒光路47號","121.472128333333","25.0047116666667","6500300","中和區"
"226003","AGD-0702","2018/12/08 09:19:57","新北市平溪區平溪里三坑路1-2號","121.741436666667","25.0288583333333","6502400","平溪區"
"223006","022-BY","2018/12/08 09:12:23","新北市石碇區八分寮47-1號","121.64321","25.0137033333333","6501900","石碇區"
"223003","205-TH","2018/12/08 09:11:50","新北市石碇區二格路10號","121.625211666667","24.9630383333333","6501900","石碇區"
"223008","406-TH","2018/12/08 09:19:52","新北市石碇區蚯蚓坑22-1號","121.688638333333","25.0066966666667","6501900","石碇區"
"223001","592-UM","2018/12/08 09:19:51","新北市石碇區北宜路四段28號","121.623373333333","24.9599366666667","6501900","石碇區"
"227006","030-BX","2018/12/08 09:19:58","新北市雙溪區長源里土地公山2號","121.797255","25.0117483333333","6502500","雙溪區"
"252004","249-BX","2018/12/08 09:19:59","新北市三芝區興華里楓子林45-2號","121.501588333333","25.2045766666667","6502100","三芝區"
"252007","AAC-283","2018/12/08 09:19:50","新北市三芝區埔坪里埔頭坑107號","121.504425","25.2614783333333","6502100","三芝區"
"237001","361-BY","2018/12/08 09:19:46","新北市三峽區國際一街19號","121.373841666667","24.9427366666667","6500900","三峽區"
