"lineid","car","time","location","longitude","latitude","cityid","cityname"
"231007","189-VK","2018/12/08 09:49:14","新北市新店區新潭路三段215巷25號","121.507968333333","24.903985","6500600","新店區"
"231008","192-VK","2018/12/08 09:49:31","新北市新店區平廣路一段22號","121.537165","24.9054816666667","6500600","新店區"
"223006","022-BY","2018/12/08 09:49:15","新北市深坑區文山路一段64號","121.624061666667","25.00075","6501900","石碇區"
"223003","205-TH","2018/12/08 09:48:31","新北市石碇區小粗坑(潭邊里)9-1號","121.678305","24.9852483333333","6501900","石碇區"
"227006","030-BX","2018/12/08 09:49:18","新北市雙溪區長源里柑腳18號","121.804701666667","25.01426","6502500","雙溪區"
"252004","249-BX","2018/12/08 09:49:13","新北市三芝區福德里大水堀32-1號","121.510768333333","25.2180166666667","6502100","三芝區"
"252007","AAC-283","2018/12/08 09:49:30","新北市三芝區新庄里新庄子56-2號","121.505283333333","25.2758566666667","6502100","三芝區"
"237001","361-BY","2018/12/08 09:49:26","新北市三峽區隆恩街243號","121.357821666667","24.9411116666667","6500900","三峽區"
