"lineid","car","time","location","longitude","latitude","cityid","cityname"
"231007","189-VK","2018/12/08 10:59:22","新北市新店區新潭路一段212號","121.529221666667","24.9295133333333","6500600","新店區"
"231008","192-VK","2018/12/08 10:59:31","新北市新店區頂石厝路72號","121.535306666667","24.9184633333333","6500600","新店區"
"235029","911-UM","2018/12/08 10:39:09","新北市中和區員山路36巷16-2號","121.485218333333","24.991775","6500300","中和區"
"226003","AGD-0702","2018/12/08 10:52:33","新北市平溪區石底里公園街18-3號","121.734515","25.0255116666667","6502400","平溪區"
"227006","030-BX","2018/12/08 10:59:18","新北市雙溪區魚行里魚杭4號","121.882611666667","25.026495","6502500","雙溪區"
