"lineid","car","time","location","longitude","latitude","cityid","cityname"
"234044","148-BY","2018/12/08 12:39:30","新北市永和區永元路94號","121.522445","25.0017533333333","6500400","永和區"
"234036","336-UY","2018/12/08 12:39:19","新北市永和區福和路1號","121.526608333333","25.010015","6500400","永和區"
"234062","337-UY","2018/12/08 12:39:23","新北市永和區福和路1號","121.526568333333","25.01003","6500400","永和區"
"234078","553-UM","2018/12/08 12:39:18","新北市永和區林森路62號","121.524046666667","25.0041333333333","6500400","永和區"
"234015","745-BX","2018/12/08 12:39:30","新北市永和區福和路1號","121.526291666667","25.00958","6500400","永和區"
"234028","746-BX","2018/12/08 12:39:34","新北市永和區成功路一段82號","121.526735","25.0030466666667","6500400","永和區"
"234084","748-BX","2018/12/08 12:39:28","新北市中和區安樂路73-1號","121.512671666667","24.9940416666667","6500400","永和區"
"234040","862-TW","2018/12/08 12:39:17","新北市永和區永貞路304號","121.511995","25.0048433333333","6500400","永和區"
"234010","9373-KE","2018/12/08 12:39:28","新北市永和區竹林路112-1號","121.519748333333","25.011745","6500400","永和區"
"234076","969-R7","2018/12/08 12:39:22","新北市永和區保平路93巷4弄6號","121.511548333333","25.0064216666667","6500400","永和區"
"234066","AAC-212","2018/12/08 12:39:14","新北市永和區永貞路84號","121.520025","25.0050383333333","6500400","永和區"
"234001","AAC-295","2018/12/08 12:39:21","新北市永和區福和路1號","121.526486666667","25.0099833333333","6500400","永和區"
"231036","512-UM","2018/12/08 12:39:12","新北市新店區安一路一段1-1號","121.519383333333","24.96129","6500600","新店區"
"235028","005-UY","2018/12/08 12:39:26","新北市中和區員山路36巷16-3號","121.485118333333","24.991385","6500300","中和區"
"235031","255-BX","2018/12/08 12:39:22","新北市中和區新生街288號","121.483633333333","24.9964816666667","6500300","中和區"
"235001","611-BX","2018/12/08 12:39:22","新北市中和區員山路100號","121.480915","24.9947116666667","6500300","中和區"
"235029","911-UM","2018/12/08 12:39:28","新北市中和區和城路一段271巷1號","121.48542","24.9917466666667","6500300","中和區"
"228005","097-TW","2018/12/08 12:39:25","新北市貢寮區福連里蓬萊街15號","121.993953333333","25.0012083333333","6502600","貢寮區"
"228004","212-TW","2018/12/08 12:39:36","新北市貢寮區吉林里枋腳街6-1號","121.887218333333","25.0047166666667","6502600","貢寮區"
"207002","749-BX","2018/12/08 12:39:27","新北市萬里區雙興里太和路7-2號","121.658503333333","25.1742466666667","6502800","萬里區"
"221023","279-VK","2018/12/08 12:39:19","新北市汐止區福德二路52號","121.634125","25.0672066666667","6501100","汐止區"
