"lineid","car","time","location","longitude","latitude","cityid","cityname"
"234044","148-BY","2018/12/08 12:49:24","新北市永和區秀朗路二段128號","121.524835","25.0013916666667","6500400","永和區"
"234005","207-UY","2018/12/08 12:49:19","新北市永和區文化路32號","121.515045","25.0150283333333","6500400","永和區"
"234036","336-UY","2018/12/08 12:49:19","新北市永和區成功路二段79號","121.52683","24.99934","6500400","永和區"
"234062","337-UY","2018/12/08 12:49:23","新北市永和區福和路1號","121.526571666667","25.0100216666667","6500400","永和區"
"234078","553-UM","2018/12/08 12:49:18","新北市永和區永利路83-1號","121.521361666667","25.0035116666667","6500400","永和區"
"234015","745-BX","2018/12/08 12:49:29","新北市永和區永和路二段299號","121.515971666667","25.0161166666667","6500400","永和區"
"234028","746-BX","2018/12/08 12:49:34","新北市永和區得和路328號","121.52333","24.99955","6500400","永和區"
"234052","KEA-2590","2018/12/08 12:49:32","新北市永和區福和路1號","121.525631666667","25.0093816666667","6500400","永和區"
"234012","KEA-2591","2018/12/08 12:49:23","新北市永和區仁愛路202巷26號","121.50881","25.012965","6500400","永和區"
"234060","AAD-866","2018/12/08 12:49:30","新北市永和區福和路307號","121.516205","25.0071266666667","6500400","永和區"
"234084","748-BX","2018/12/08 12:49:28","新北市中和區宜安路2號","121.513648333333","24.99548","6500400","永和區"
"234040","862-TW","2018/12/08 12:49:17","新北市永和區永貞路267號","121.511855","25.0047433333333","6500400","永和區"
"234048","863-TW","2018/12/08 12:49:19","新北市永和區福和路1號","121.526191666667","25.009675","6500400","永和區"
"234025","9371-KE","2018/12/08 12:49:32","新北市永和區竹林路155號","121.520491666667","25.0103016666667","6500400","永和區"
"234010","9373-KE","2018/12/08 12:49:28","新北市永和區保福路二段158巷1號","121.509083333333","25.0150466666667","6500400","永和區"
"234022","9380-KE","2018/12/08 12:48:50","新北市永和區竹林路119巷22弄1號","121.521415","25.011595","6500400","永和區"
"234076","969-R7","2018/12/08 12:49:22","新北市永和區保生路24號","121.506611666667","25.0077533333333","6500400","永和區"
"234066","AAC-212","2018/12/08 12:49:34","新北市永和區中和路625號","121.51302","25.0049516666667","6500400","永和區"
"234001","AAC-295","2018/12/08 12:49:21","新北市永和區中正路742-1號","121.515095","25.0103366666667","6500400","永和區"
"231005","001-UM","2018/12/08 12:49:29","新北市新店區安華路28-1號","121.519513333333","24.9609883333333","6500600","新店區"
"231010","107-UY","2018/12/08 12:49:23","新北市新店區安一路一段1-1號","121.519585","24.96162","6500600","新店區"
"231003","268-BY","2018/12/08 12:49:29","新北市新店區安一路一段1-1號","121.51977","24.9611766666667","6500600","新店區"
"231018","278-BY","2018/12/08 12:49:20","新北市新店區安一路一段1-1號","121.519575","24.9612333333333","6500600","新店區"
"231017","AAD-862","2018/12/08 12:49:18","新北市新店區安華路3號","121.519278333333","24.959665","6500600","新店區"
"231036","512-UM","2018/12/08 12:49:33","新北市新店區安一路一段1-1號","121.519488333333","24.96118","6500600","新店區"
"231013","513-UM","2018/12/08 12:49:35","新北市新店區安一路一段1-1號","121.519756666667","24.9611633333333","6500600","新店區"
"231030","619-UM","2018/12/08 12:49:23","新北市新店區安華路28-1號","121.519813333333","24.9609533333333","6500600","新店區"
"235028","005-UY","2018/12/08 12:49:26","新北市中和區員山路36巷16-2號","121.48515","24.9914166666667","6500300","中和區"
"235002","185-VK","2018/12/08 12:49:24","新北市中和區中正路559號","121.487013333333","24.9941883333333","6500300","中和區"
"235031","255-BX","2018/12/08 12:49:21","新北市中和區中山路二段568巷32號","121.482363333333","25.0066483333333","6500300","中和區"
"235001","611-BX","2018/12/08 12:49:22","新北市中和區民利街46號","121.479418333333","24.9988433333333","6500300","中和區"
"235018","640-BX","2018/12/08 12:49:24","新北市中和區和城路一段271巷1號","121.485416666667","24.991985","6500300","中和區"
"235021","801-TS","2018/12/08 12:49:16","新北市中和區員山路36巷16-3號","121.484916666667","24.991605","6500300","中和區"
"235029","911-UM","2018/12/08 12:49:28","新北市中和區錦和路168號","121.489868333333","24.9957433333333","6500300","中和區"
"228005","097-TW","2018/12/08 12:49:25","新北市貢寮區福連里福連街37號","121.988701666667","25.0111016666667","6502600","貢寮區"
"228004","212-TW","2018/12/08 12:48:56","新北市貢寮區吉林里內寮街20-1號","121.890041666667","24.9947533333333","6502600","貢寮區"
"207002","749-BX","2018/12/08 12:49:27","新北市萬里區雙興里二坪路28-1號","121.644613333333","25.1687833333333","6502800","萬里區"
"207001","662-BX","2018/12/08 12:49:33","新北市萬里區萬里里獅頭路23號","121.693458333333","25.1783316666667","6502800","萬里區"
"221010","269-BY","2018/12/08 12:49:18","新北市汐止區康寧街399號","121.629756666667","25.0678983333333","6501100","汐止區"
"221023","279-VK","2018/12/08 12:49:19","新北市汐止區中興路150巷20號","121.633688333333","25.0651683333333","6501100","汐止區"
