"lineid","car","time","location","longitude","latitude","cityid","cityname"
"234044","148-BY","2018/12/08 13:19:23","新北市永和區得和路373巷6弄1號","121.52477","24.9997716666667","6500400","永和區"
"234005","207-UY","2018/12/08 13:19:19","新北市永和區中山路一段326號","121.506288333333","25.0066183333333","6500400","永和區"
"234036","336-UY","2018/12/08 13:19:36","新北市永和區民樂街49號","121.527515","24.998775","6500400","永和區"
"234062","337-UY","2018/12/08 13:19:23","新北市永和區永元路17巷7弄2號","121.521261666667","25.0005816666667","6500400","永和區"
"234068","552-UM","2018/12/08 13:19:35","新北市永和區豫溪街37號","121.516643333333","25.009905","6500400","永和區"
"234078","553-UM","2018/12/08 13:19:38","新北市永和區福和路7巷7號","121.525313333333","25.0077816666667","6500400","永和區"
"234015","745-BX","2018/12/08 13:19:30","新北市永和區環河西路一段95巷19弄3號","121.511821666667","25.01712","6500400","永和區"
"234028","746-BX","2018/12/08 13:19:34","新北市永和區厚德街91號","121.523891666667","24.99881","6500400","永和區"
"234052","KEA-2590","2018/12/08 13:19:38","新北市永和區中興街20號","121.516071666667","25.0118","6500400","永和區"
"234012","KEA-2591","2018/12/08 13:19:23","新北市永和區信義路56號","121.51301","25.012545","6500400","永和區"
"234060","AAD-866","2018/12/08 13:19:30","新北市永和區秀朗路一段175號","121.516951666667","25.003715","6500400","永和區"
"234084","748-BX","2018/12/08 13:19:28","新北市永和區永利路40號","121.518655","25.0054416666667","6500400","永和區"
"234040","862-TW","2018/12/08 13:19:17","新北市永和區保平路151巷3號","121.510145","25.0055933333333","6500400","永和區"
"234048","863-TW","2018/12/08 13:19:19","新北市永和區保福路二段94巷17號","121.51088","25.0139383333333","6500400","永和區"
"234025","9371-KE","2018/12/08 13:19:32","新北市永和區豫溪街28巷22號","121.514983333333","25.0089633333333","6500400","永和區"
"234010","9373-KE","2018/12/08 13:19:28","新北市永和區忠孝街34巷18號","121.514475","25.016815","6500400","永和區"
"248017","225-UY","2018/12/08 13:19:34","新北市五股區御史路160號","121.430133333333","25.10287","6501500","五股區"
"234022","9380-KE","2018/12/08 13:19:22","新北市永和區竹林路109巷8號","121.520286666667","25.0119316666667","6500400","永和區"
"234076","969-R7","2018/12/08 13:04:22","台北市萬華區東園街177-1號","121.497735","25.0241","6500400","永和區"
"234072","AAC-211","2018/12/08 13:19:32","新北市永和區復興街91號","121.517746666667","25.014225","6500400","永和區"
"234066","AAC-212","2018/12/08 13:19:34","新北市永和區保平路95號","121.511466666667","25.006995","6500400","永和區"
"234001","AAC-295","2018/12/08 13:19:21","新北市永和區保福路一段86號","121.512221666667","25.0102883333333","6500400","永和區"
"231005","001-UM","2018/12/08 13:19:29","新北市新店區安華路28-1號","121.5195","24.96099","6500600","新店區"
"231002","002-UM","2018/12/08 13:19:31","新北市新店區安華路28-1號","121.519681666667","24.9608233333333","6500600","新店區"
"231027","0293-UT","2018/12/08 13:19:17","新北市新店區安康路一段259號","121.52442","24.9633683333333","6500600","新店區"
"231028","046-UY","2018/12/08 13:19:14","新北市新店區安華路28-1號","121.519508333333","24.9608133333333","6500600","新店區"
"231001","047-UY","2018/12/08 13:19:25","新北市新店區安華路28-1號","121.519345","24.960865","6500600","新店區"
"231010","107-UY","2018/12/08 13:19:23","新北市新店區安康路一段35-1號","121.532103333333","24.9606216666667","6500600","新店區"
"231020","108-UY","2018/12/08 13:19:22","新北市新店區安華路28-1號","121.519231666667","24.9609483333333","6500600","新店區"
"231023","KEA-2219","2018/12/08 13:19:19","新北市新店區安一路一段1-1號","121.519725","24.9612833333333","6500600","新店區"
"231026","256-BX","2018/12/08 13:19:30","新北市新店區安一路一段1-1號","121.519596666667","24.9611983333333","6500600","新店區"
"231003","268-BY","2018/12/08 13:19:29","新北市新店區安一路一段1-1號","121.519671666667","24.961145","6500600","新店區"
"231018","278-BY","2018/12/08 13:19:20","新北市新店區中央路183-3號","121.536241666667","24.96875","6500600","新店區"
"231017","AAD-862","2018/12/08 13:19:18","新北市新店區秀山路72號","121.531425","24.9608816666667","6500600","新店區"
"231029","355-BY","2018/12/08 13:19:26","新北市新店區安一路一段1-1號","121.519338333333","24.9610133333333","6500600","新店區"
"231038","3712-VJ","2018/12/08 13:19:22","新北市新店區安華路28-1號","121.519283333333","24.96054","6500600","新店區"
"231037","4716-K9","2018/12/08 13:19:23","新北市新店區安華路28-1號","121.519596666667","24.9607033333333","6500600","新店區"
"231025","4715-K9","2018/12/08 13:19:33","新北市新店區中央五街55號","121.527775","24.9754766666667","6500600","新店區"
"231036","512-UM","2018/12/08 13:19:33","新北市新店區安忠路205巷8號","121.509901666667","24.9552333333333","6500600","新店區"
"231013","513-UM","2018/12/08 13:19:15","新北市新店區安一路一段1-1號","121.519595","24.96112","6500600","新店區"
"231034","616-UM","2018/12/08 13:19:30","新北市新店區安華路28-1號","121.519446666667","24.96054","6500600","新店區"
"231030","619-UM","2018/12/08 13:19:23","新北市新店區安華路28-1號","121.519481666667","24.96084","6500600","新店區"
"231035","719-UM","2018/12/08 13:19:18","新北市新店區安一路一段1-1號","121.519428333333","24.961215","6500600","新店區"
"231012","719-UY","2018/12/08 13:19:31","新北市新店區安康路一段241號","121.525021666667","24.963265","6500600","新店區"
"231033","720-UM","2018/12/08 13:19:24","新北市新店區安一路一段1-1號","121.51937","24.9612933333333","6500600","新店區"
"231006","898-TW","2018/12/08 13:19:17","新北市新店區安華路28-1號","121.519373333333","24.961005","6500600","新店區"
"231004","899-TW","2018/12/08 13:19:34","新北市新店區安華路28-1號","121.51931","24.9608433333333","6500600","新店區"
"231024","AKT-0513","2018/12/08 13:19:14","新北市新店區環河路16號","121.537513333333","24.9614883333333","6500600","新店區"
"235030","003-UY","2018/12/08 13:19:30","新北市中和區中山路二段122號","121.502596666667","25.003815","6500300","中和區"
"235028","005-UY","2018/12/08 13:19:26","新北市中和區圓通路160號","121.497723333333","24.9955266666667","6500300","中和區"
"235027","006-UY","2018/12/08 13:19:36","新北市中和區中正路464號","121.490131666667","24.9942666666667","6500300","中和區"
"235020","096-UM","2018/12/08 13:19:28","新北市中和區員山路36巷16號","121.484393333333","24.99141","6500300","中和區"
"235003","097-UM","2018/12/08 13:19:14","新北市中和區安平路59號","121.509673333333","24.9949933333333","6500300","中和區"
"235022","151-BY","2018/12/08 13:19:15","新北市中和區圓通路367巷18-5號","121.491933333333","24.98861","6500300","中和區"
"235019","183-VK","2018/12/08 13:19:27","新北市中和區中正路637巷52弄1號","121.485396666667","24.9934033333333","6500300","中和區"
"235002","185-VK","2018/12/08 13:19:24","新北市中和區大智街111號","121.52348","24.9925533333333","6500300","中和區"
"235013","186-VK","2018/12/08 13:19:14","新北市中和區員山路36巷16-8號","121.485416666667","24.9922933333333","6500300","中和區"
"235031","255-BX","2018/12/08 13:19:22","新北市中和區民樂路71號","121.4842","25.0013916666667","6500300","中和區"
"235036","301-VK","2018/12/08 13:19:19","新北市中和區連城路218號","121.491458333333","24.99649","6500300","中和區"
"235007","352-BY","2018/12/08 13:19:31","新北市中和區中正路2號","121.503316666667","24.9938283333333","6500300","中和區"
"235006","KEA-2878","2018/12/08 13:19:31","新北市中和區景平路159巷23弄6號","121.512941666667","24.991375","6500300","中和區"
"235014","4979-A6","2018/12/08 13:19:35","新北市中和區捷運路61巷3號","121.508795","24.9895916666667","6500300","中和區"
"235005","551-UM","2018/12/08 13:19:28","新北市中和區景安路68號","121.505891666667","24.9967066666667","6500300","中和區"
"235034","558-UM","2018/12/08 13:19:26","新北市中和區景平路477號","121.50024","24.997115","6500300","中和區"
"235009","565-BX","2018/12/08 13:19:23","新北市中和區景安路200巷5號","121.503511666667","24.9915483333333","6500300","中和區"
"235018","640-BX","2018/12/08 13:19:24","新北市中和區國光街112巷1弄5號","121.469503333333","25.0009266666667","6500300","中和區"
"235024","647-TV","2018/12/08 13:19:30","新北市中和區員山路36巷16-3號","121.484893333333","24.9917133333333","6500300","中和區"
"235011","732-UM","2018/12/08 13:19:18","新北市中和區連城路222巷8弄2號","121.490668333333","24.9981816666667","6500300","中和區"
"235035","783-BX","2018/12/08 13:19:29","新北市中和區中板路15巷11號","121.484383333333","25.0110083333333","6500300","中和區"
"235026","800-TS","2018/12/08 13:19:26","新北市中和區景平路997巷2號","121.495656666667","25.0058183333333","6500300","中和區"
"235021","801-TS","2018/12/08 13:19:16","新北市中和區員山路153號","121.481103333333","24.9964216666667","6500300","中和區"
"235016","805-TS","2018/12/08 13:19:23","新北市中和區興南路二段96號","121.505188333333","24.9842916666667","6500300","中和區"
"235012","896-TW","2018/12/08 13:19:32","新北市中和區員山路36巷16-3號","121.484966666667","24.9919","6500300","中和區"
"235017","900-TW","2018/12/08 13:19:33","新北市中和區員山路36巷16-2號","121.485108333333","24.9916216666667","6500300","中和區"
"235029","911-UM","2018/12/08 13:19:28","新北市中和區莊敬路49巷20弄22號","121.502751666667","25.0057466666667","6500300","中和區"
"235015","157-BY","2018/12/08 13:19:29","新北市中和區華新街95號","121.50877","24.98309","6500300","中和區"
"235001","AAC-213","2018/12/08 13:19:24","新北市中和區景德街61號","121.517283333333","24.9914283333333","6500300","中和區"
"235023","AAC-215","2018/12/08 13:19:37","新北市中和區員山路36巷16-3號","121.484963333333","24.9913183333333","6500300","中和區"
"228005","097-TW","2018/12/08 13:19:25","新北市貢寮區美豐里丹裡街18-1號","121.912675","25.05724","6502600","貢寮區"
"228004","212-TW","2018/12/08 13:19:15","新北市貢寮區吉林里內寮街35號","121.900173333333","24.9809866666667","6502600","貢寮區"
"253003","6232-TK","2018/12/08 13:19:32","新北市石門區內石門81號","121.566686666667","25.265585","6502200","石門區"
"253004","6251-TK","2018/12/08 13:19:27","新北市石門區竹子湖8號","121.617713333333","25.2601533333333","6502200","石門區"
"253002","637-UY","2018/12/08 13:19:16","新北市石門區大溪墘9號","121.553505","25.2725016666667","6502200","石門區"
"253001","KEC-0718","2018/12/08 13:19:33","新北市石門區崁子腳1-1號","121.531918333333","25.2880783333333","6502200","石門區"
"207002","749-BX","2018/12/08 13:19:27","新北市萬里區崁腳里崁腳路166號","121.64509","25.1559816666667","6502800","萬里區"
"252005","073-UM","2018/12/08 13:19:24","新北市三芝區八賢里八連溪87號","121.520275","25.2293583333333","6502100","三芝區"
"207001","662-BX","2018/12/08 13:19:33","新北市萬里區龜吼里玉田路29號","121.680805","25.19492","6502800","萬里區"
"242007","176-VK","2018/12/08 13:19:33","新北市新莊區中信街66-14號","121.449123333333","25.0516716666667","6500500","新莊區"
"221010","269-BY","2018/12/08 13:19:18","台北市內湖區大湖山莊街87-1號","121.601778333333","25.08569","6501100","汐止區"
"221023","279-VK","2018/12/08 13:19:19","新北市汐止區福德一路159巷1號","121.636593333333","25.0664233333333","6501100","汐止區"
"220021","985-R7","2018/12/08 13:06:46","新北市板橋區華東街1-10號","121.448275","24.99498","6500100","板橋區"
"235032","KEA-2873","2018/12/08 13:19:23","新北市中和區員山路36巷16-3號","121.485011666667","24.9913783333333","6500300","中和區"
"235025","KEA-2875","2018/12/08 13:19:20","新北市中和區民享街95-5號","121.475088333333","24.9999916666667","6500300","中和區"
