"lineid","car","time","location","longitude","latitude","cityid","cityname"
"234044","148-BY","2018/12/08 13:39:23","新北市永和區秀朗路二段97號","121.523318333333","25.001785","6500400","永和區"
"234005","207-UY","2018/12/08 13:39:19","新北市永和區永和路一段69號","121.513183333333","25.00711","6500400","永和區"
"234036","336-UY","2018/12/08 13:39:19","新北市永和區環河東路四段2號","121.528288333333","25.0003733333333","6500400","永和區"
"234062","337-UY","2018/12/08 13:39:23","新北市永和區秀朗路一段192巷6弄14號","121.51909","25.0022916666667","6500400","永和區"
"234068","552-UM","2018/12/08 13:39:24","新北市永和區永和路二段233號","121.515591666667","25.0141566666667","6500400","永和區"
"234078","553-UM","2018/12/08 13:39:26","新北市永和區林森路20巷24號","121.525663333333","25.0059933333333","6500400","永和區"
"234015","745-BX","2018/12/08 13:39:29","新北市永和區永和路二段299號","121.515931666667","25.0163283333333","6500400","永和區"
"234028","746-BX","2018/12/08 13:39:34","新北市永和區民權路1巷6號","121.520453333333","24.9984483333333","6500400","永和區"
"234052","KEA-2590","2018/12/08 13:39:32","新北市永和區竹林路39巷24弄22號","121.51927","25.0139383333333","6500400","永和區"
"234012","KEA-2591","2018/12/08 13:39:28","新北市永和區永平路238巷7號","121.509156666667","25.0115116666667","6500400","永和區"
"234060","AAD-866","2018/12/08 13:39:30","新北市永和區中正路456號","121.517535","25.0029116666667","6500400","永和區"
"234084","748-BX","2018/12/08 13:39:28","新北市永和區永亨路165巷1-4號","121.526178333333","25.0042516666667","6500400","永和區"
"234040","862-TW","2018/12/08 13:39:35","新北市永和區中和路305巷2弄1號","121.506621666667","25.0000933333333","6500400","永和區"
"234048","863-TW","2018/12/08 13:39:19","新北市永和區保福路二段162巷2號","121.50901","25.0152733333333","6500400","永和區"
"234025","9371-KE","2018/12/08 13:39:32","新北市永和區中山路一段17巷4弄5號","121.513743333333","25.0101266666667","6500400","永和區"
"234010","9373-KE","2018/12/08 13:39:28","新北市永和區保福路二段23巷6號","121.510585","25.0112816666667","6500400","永和區"
"248017","225-UY","2018/12/08 13:39:34","新北市五股區民義路二段43號","121.410496666667","25.10434","6501500","五股區"
"234022","9380-KE","2018/12/08 13:39:30","新北市永和區中正路704號","121.516236666667","25.010015","6500400","永和區"
"234076","969-R7","2018/12/08 13:39:22","新北市永和區民權路22號","121.520311666667","24.999325","6500400","永和區"
"234072","AAC-211","2018/12/08 13:39:32","新北市永和區竹林路213巷30號","121.522431666667","25.00898","6500400","永和區"
"234066","AAC-212","2018/12/08 13:39:34","新北市永和區中山路一段191巷4號","121.509415","25.0085116666667","6500400","永和區"
"234001","AAC-295","2018/12/08 13:39:21","新北市永和區福和路379號","121.514395","25.0074583333333","6500400","永和區"
"231005","001-UM","2018/12/08 13:39:29","新北市新店區寶中路51號","121.547391666667","24.97884","6500600","新店區"
"231002","002-UM","2018/12/08 13:39:31","新北市新店區中央三街127號","121.524126666667","24.9768966666667","6500600","新店區"
"231027","0293-UT","2018/12/08 13:39:17","新北市新店區新店後街44號","121.537841666667","24.953685","6500600","新店區"
"231028","046-UY","2018/12/08 13:39:35","新北市新店區安和路一段45號","121.517391666667","24.96569","6500600","新店區"
"231001","047-UY","2018/12/08 13:39:25","新北市新店區中正路429-1號","121.534136666667","24.9782266666667","6500600","新店區"
"231010","107-UY","2018/12/08 13:39:28","新北市新店區平等街46巷15號","121.53576","24.973465","6500600","新店區"
"231020","108-UY","2018/12/08 13:39:22","新北市新店區永興路88-1號","121.544","24.933775","6500600","新店區"
"231023","KEA-2219","2018/12/08 13:39:18","新北市新店區新店路137號","121.537068333333","24.95459","6500600","新店區"
"231026","256-BX","2018/12/08 13:39:30","新北市新店區北新路一段225號","121.540583333333","24.9653116666667","6500600","新店區"
"231003","268-BY","2018/12/08 13:39:29","新北市新店區中正路53號","121.54463","24.9699666666667","6500600","新店區"
"231018","278-BY","2018/12/08 13:39:20","新北市新店區百忍街17巷1號","121.534481666667","24.975645","6500600","新店區"
"231017","AAD-862","2018/12/08 13:39:32","新北市新店區竹林路30號","121.552508333333","24.95134","6500600","新店區"
"231029","355-BY","2018/12/08 13:39:26","新北市新店區安康路二段330號","121.503945","24.9578016666667","6500600","新店區"
"231038","3712-VJ","2018/12/08 13:39:22","新北市新店區安華路1-1號","121.519173333333","24.96051","6500600","新店區"
"231037","4716-K9","2018/12/08 13:38:43","新北市新店區薏仁坑路53-1號","121.491131666667","24.9636866666667","6500600","新店區"
"231025","4715-K9","2018/12/08 13:39:33","新北市新店區中央六街62號","121.527691666667","24.97592","6500600","新店區"
"231036","512-UM","2018/12/08 13:39:33","新北市新店區安祥路142號","121.474103333333","24.95555","6500600","新店區"
"231013","513-UM","2018/12/08 13:39:15","新北市新店區中正路454-5號","121.53445","24.9790633333333","6500600","新店區"
"231034","616-UM","2018/12/08 13:39:32","新北市新店區車子路117號","121.505316666667","24.9517983333333","6500600","新店區"
"231030","619-UM","2018/12/08 13:39:23","新北市新店區安康路一段226-2號","121.523381666667","24.963705","6500600","新店區"
"231035","719-UM","2018/12/08 13:39:18","新北市新店區安忠路56巷6號","121.512915","24.9594783333333","6500600","新店區"
"231012","719-UY","2018/12/08 13:39:31","新北市新店區德正街30號","121.54408","24.971865","6500600","新店區"
"231033","720-UM","2018/12/08 13:39:24","新北市新店區安康路一段261號","121.52429","24.9634083333333","6500600","新店區"
"231006","898-TW","2018/12/08 13:39:17","新北市新店區光明街1-1號","121.538081666667","24.9591316666667","6500600","新店區"
"231004","899-TW","2018/12/08 13:39:34","新北市新店區北新路二段18號","121.542913333333","24.9713","6500600","新店區"
"231024","AKT-0513","2018/12/08 13:39:33","新北市新店區中華路47巷2弄2號","121.539741666667","24.9676383333333","6500600","新店區"
"235030","003-UY","2018/12/08 13:39:30","新北市中和區水源路30號","121.504545","25.0035366666667","6500300","中和區"
"235028","005-UY","2018/12/08 13:39:26","新北市中和區連勝街24號","121.498386666667","24.99801","6500300","中和區"
"235027","006-UY","2018/12/08 13:39:16","新北市中和區錦和路99號","121.490078333333","24.9954916666667","6500300","中和區"
"235020","096-UM","2018/12/08 13:39:28","新北市中和區員山路466巷15號","121.480641666667","25.006765","6500300","中和區"
"235003","097-UM","2018/12/08 13:39:34","新北市中和區景平路278巷14弄2號","121.514188333333","24.9929383333333","6500300","中和區"
"235004","150-BY","2018/12/08 13:34:05","新北市中和區保健路50巷68號","121.509313333333","24.994985","6500300","中和區"
"235022","151-BY","2018/12/08 13:39:34","新北市中和區圓通路369巷39號","121.489713333333","24.9859166666667","6500300","中和區"
"235019","183-VK","2018/12/08 13:39:27","新北市中和區民德路95號","121.468981666667","25.00109","6500300","中和區"
"235002","185-VK","2018/12/08 13:39:24","新北市永和區民有街73號","121.51829","24.9957266666667","6500300","中和區"
"235013","186-VK","2018/12/08 13:39:34","新北市中和區明義街11巷12弄2號","121.503695","24.9946233333333","6500300","中和區"
"235031","255-BX","2018/12/08 13:39:21","新北市中和區新生街220巷4號","121.482896666667","24.99864","6500300","中和區"
"235008","293-VK","2018/12/08 13:39:37","新北市中和區復興路280巷15號","121.502241666667","24.991295","6500300","中和區"
"235036","301-VK","2018/12/08 13:39:19","新北市中和區安邦街55號","121.49653","24.9973","6500300","中和區"
"235007","352-BY","2018/12/08 13:39:31","新北市中和區景平路167號","121.512225","24.9925516666667","6500300","中和區"
"235006","KEA-2878","2018/12/08 13:39:22","新北市中和區秀朗路三段175巷11號","121.525176666667","24.9915116666667","6500300","中和區"
"235014","4979-A6","2018/12/08 13:39:34","新北市中和區忠孝街124巷10號","121.512755","24.9859416666667","6500300","中和區"
"235005","551-UM","2018/12/08 13:39:28","新北市中和區中安街80號","121.512335","25.0018083333333","6500300","中和區"
"235034","558-UM","2018/12/08 13:39:26","新北市中和區景平路594號","121.500941666667","24.9961766666667","6500300","中和區"
"235009","565-BX","2018/12/08 13:39:23","新北市中和區南山路236巷20弄2號","121.506101666667","24.9892433333333","6500300","中和區"
"235018","640-BX","2018/12/08 13:39:24","新北市中和區莒光路74號","121.472248333333","25.00302","6500300","中和區"
"235024","647-TV","2018/12/08 13:39:30","新北市中和區中山路二段648號","121.480813333333","25.0056966666667","6500300","中和區"
"235011","732-UM","2018/12/08 13:39:18","新北市中和區南山路320巷10弄21號","121.506818333333","24.9866633333333","6500300","中和區"
"235035","783-BX","2018/12/08 13:39:29","新北市中和區立德街12號","121.490188333333","25.0065766666667","6500300","中和區"
"235026","800-TS","2018/12/08 13:39:22","新北市中和區中山路二段312巷35號","121.495128333333","25.0038383333333","6500300","中和區"
"235021","801-TS","2018/12/08 13:39:36","新北市中和區員山路327巷25號","121.480083333333","25.0018866666667","6500300","中和區"
"235016","805-TS","2018/12/08 13:39:31","新北市中和區興南路三段52巷2-5號","121.494555","24.975905","6500300","中和區"
"235012","896-TW","2018/12/08 13:39:32","新北市中和區中正路83號","121.500668333333","24.9935283333333","6500300","中和區"
"235017","900-TW","2018/12/08 13:39:33","新北市中和區民德路264號","121.46808","24.996585","6500300","中和區"
"235029","911-UM","2018/12/08 13:39:28","新北市中和區莊敬路33巷48號","121.500493333333","25.00704","6500300","中和區"
"235015","157-BY","2018/12/08 13:39:29","新北市中和區華新街143巷106弄30號","121.506166666667","24.978675","6500300","中和區"
"235001","AAC-213","2018/12/08 13:39:24","新北市中和區景德街60號","121.517211666667","24.9915333333333","6500300","中和區"
"235023","AAC-215","2018/12/08 13:39:17","新北市中和區中正路637巷52弄1號","121.485441666667","24.9933866666667","6500300","中和區"
"220013","072-UY","2018/12/08 13:39:24","新北市板橋區成都街101號","121.463426666667","25.005305","6500100","板橋區"
"220034","073-UY","2018/12/08 13:39:18","新北市板橋區館前西路168-1號","121.451865","25.0088166666667","6500100","板橋區"
"220105","075-UY","2018/12/08 13:39:33","新北市板橋區民生路二段161巷1號","121.47018","25.0198233333333","6500100","板橋區"
"220017","AAD-861","2018/12/08 13:39:20","新北市板橋區縣民大道一段64巷2號","121.455235","25.0041566666667","6500100","板橋區"
"247009","056-VK","2018/12/08 13:39:17","新北市五股區中興路三段163號","121.449365","25.0804783333333","6501400","蘆洲區"
"247021","001-UY","2018/12/08 13:39:23","新北市五股區中興路三段2巷10號","121.449236666667","25.0808033333333","6501400","蘆洲區"
"228005","097-TW","2018/12/08 13:39:25","新北市貢寮區美豐里文秀坑5-3號","121.90349","25.052175","6502600","貢寮區"
"228004","212-TW","2018/12/08 13:39:35","新北市貢寮區龍崗里嵩陽街41號","121.906793333333","25.0116083333333","6502600","貢寮區"
"253003","6232-TK","2018/12/08 13:39:27","新北市石門區尖子鹿5-1號","121.571333333333","25.281235","6502200","石門區"
"253004","6251-TK","2018/12/08 13:38:35","新北市石門區草埔尾34-3號","121.602926666667","25.265205","6502200","石門區"
"253002","637-UY","2018/12/08 13:39:16","新北市石門區尖山湖3-1號","121.56454","25.241285","6502200","石門區"
"253001","KEC-0718","2018/12/08 13:39:33","新北市三芝區新庄里新庄子57-45號","121.508545","25.2792283333333","6502200","石門區"
"207002","749-BX","2018/12/08 13:39:27","新北市萬里區崁腳里崁腳路166號","121.64508","25.1558733333333","6502800","萬里區"
"252005","073-UM","2018/12/08 13:39:24","新北市三芝區圓山里木屐寮38-2號","121.530715","25.2281133333333","6502100","三芝區"
"207001","662-BX","2018/12/08 13:39:33","新北市萬里區大鵬里萬里加投46-1號","121.641855","25.2111066666667","6502800","萬里區"
"236040","KED-0685","2018/12/08 13:39:24","新北市土城區城林路6巷80號","121.438483333333","24.97979","6501300","土城區"
"236074","166-UM","2018/12/08 13:39:22","新北市土城區城林路6巷80號","121.438598333333","24.9797316666667","6501300","土城區"
"242050","172-VK","2018/12/08 13:39:29","新北市新莊區環河路636-7號","121.43705","25.01097","6500500","新莊區"
"242007","176-VK","2018/12/08 13:39:33","新北市新莊區自由街32號","121.455953333333","25.0466266666667","6500500","新莊區"
"221010","269-BY","2018/12/08 13:39:18","新北市汐止區長青路210巷80號","121.616236666667","25.1151316666667","6501100","汐止區"
"220028","200-UY","2018/12/08 13:39:31","新北市板橋區大觀路二段265巷76弄37號","121.441048333333","24.9967683333333","6500100","板橋區"
"220030","610-BX","2018/12/08 13:39:31","新北市板橋區大觀路三段191號","121.431921666667","24.9936616666667","6500100","板橋區"
"220004","276-BY","2018/12/08 13:39:28","新北市板橋區四川路一段55號","121.459621666667","25.0062866666667","6500100","板橋區"
"220020","277-BY","2018/12/08 13:39:32","新北市板橋區大觀路三段68號","121.43308","24.995015","6500100","板橋區"
"220019","283-VK","2018/12/08 13:39:17","新北市板橋區四川路二段14號","121.456196666667","24.9962266666667","6500100","板橋區"
"220043","285-UM","2018/12/08 13:39:18","新北市板橋區民生路二段161巷5號","121.470205","25.0197516666667","6500100","板橋區"
"220031","286-VK","2018/12/08 13:39:35","新北市板橋區大觀路二段101巷27號","121.447243333333","25.0012783333333","6500100","板橋區"
"220029","287-VK","2018/12/08 13:39:16","新北市板橋區館前西路168-1號","121.45225","25.0086133333333","6500100","板橋區"
"220039","288-VK","2018/12/08 13:39:35","新北市板橋區民生路二段120號","121.47032","25.0197016666667","6500100","板橋區"
"220009","293-UM","2018/12/08 13:39:36","新北市板橋區民生路二段89-6號","121.470713333333","25.0189833333333","6500100","板橋區"
"220032","296-UM","2018/12/08 13:39:20","新北市板橋區大觀路二段11-12號","121.447928333333","24.9965083333333","6500100","板橋區"
"220041","299-UM","2018/12/08 13:39:28","新北市板橋區民生路二段120號","121.470336666667","25.0196216666667","6500100","板橋區"
"220023","303-R5","2018/12/08 13:39:27","新北市板橋區館前西路168-1號","121.451961666667","25.008275","6500100","板橋區"
"220010","305-R5","2018/12/08 13:39:29","新北市板橋區民生路二段120號","121.470365","25.0197916666667","6500100","板橋區"
"220047","317-R6","2018/12/08 13:39:33","新北市板橋區民生路二段120號","121.470323333333","25.01965","6500100","板橋區"
"220038","487-VK","2018/12/08 13:39:25","新北市板橋區民生路二段171號","121.469851666667","25.0201066666667","6500100","板橋區"
"220037","491-VK","2018/12/08 13:39:29","新北市板橋區民生路二段188號","121.470088333333","25.0202633333333","6500100","板橋區"
"220104","560-BX","2018/12/08 13:39:30","新北市板橋區南雅西路二段145巷6號","121.451621666667","25.011855","6500100","板橋區"
"220052","561-BX","2018/12/08 13:39:25","新北市板橋區民生路二段161巷1號","121.470241666667","25.0199483333333","6500100","板橋區"
"220027","568-UM","2018/12/08 13:39:20","新北市板橋區館前西路166-1號","121.452391666667","25.008605","6500100","板橋區"
"220011","609-BX","2018/12/08 13:39:37","新北市板橋區民生路二段161巷1號","121.469998333333","25.019885","6500100","板橋區"
"220040","637-BX","2018/12/08 13:39:22","新北市板橋區民生路二段161巷1號","121.469933333333","25.0198783333333","6500100","板橋區"
"220005","686-BX","2018/12/08 13:39:22","新北市板橋區板城路407號","121.447395","24.9952166666667","6500100","板橋區"
"220025","687-BX","2018/12/08 13:39:34","新北市板橋區大觀路三段212巷70號","121.429805","24.99356","6500100","板橋區"
"220002","741-BX","2018/12/08 13:39:26","新北市板橋區南雅南路二段122-1號","121.451585","24.998625","6500100","板橋區"
"220003","827-TW","2018/12/08 13:39:24","新北市板橋區四川路一段387號","121.457571666667","24.9989233333333","6500100","板橋區"
"220014","831-TW","2018/12/08 13:39:00","新北市板橋區民生路二段120號","121.470305","25.01975","6500100","板橋區"
"220022","895-R6","2018/12/08 13:39:24","新北市板橋區南雅南路一段8-5號","121.456053333333","25.0065483333333","6500100","板橋區"
"220021","985-R7","2018/12/08 13:39:20","新北市板橋區南雅南路二段17號","121.453771666667","24.9982916666667","6500100","板橋區"
"220012","AAC-253","2018/12/08 13:39:29","新北市板橋區民權路45號","121.462013333333","25.011435","6500100","板橋區"
"235032","KEA-2873","2018/12/08 13:39:23","新北市中和區中正路211巷22號","121.496913333333","24.9931016666667","6500300","中和區"
"235025","KEA-2875","2018/12/08 13:39:18","新北市中和區民享街52號","121.474031666667","25.002495","6500300","中和區"
