"lineid","car","time","location","longitude","latitude","cityid","cityname"
"234044","148-BY","2018/12/08 13:59:23","新北市永和區林森路65號","121.524193333333","25.004095","6500400","永和區"
"234005","207-UY","2018/12/08 13:59:20","新北市中和區中和路236號","121.506985","24.9995633333333","6500400","永和區"
"234036","336-UY","2018/12/08 13:59:19","新北市永和區成功路二段86號","121.526563333333","24.998625","6500400","永和區"
"234062","337-UY","2018/12/08 13:59:23","新北市永和區中正路412巷20弄14號","121.518833333333","25.00153","6500400","永和區"
"234068","552-UM","2018/12/08 13:59:24","新北市永和區國光路14號","121.519115","25.00837","6500400","永和區"
"234078","553-UM","2018/12/08 13:59:22","新北市永和區永亨路98號","121.52296","25.0047716666667","6500400","永和區"
"234015","745-BX","2018/12/08 13:59:29","新北市永和區文化路50號","121.514576666667","25.0151666666667","6500400","永和區"
"234028","746-BX","2018/12/08 13:59:33","新北市永和區民生路67巷53號","121.525486666667","24.997625","6500400","永和區"
"234052","KEA-2590","2018/12/08 13:59:32","新北市永和區環河東路一段122號","121.520641666667","25.0155316666667","6500400","永和區"
"234012","KEA-2591","2018/12/08 13:59:23","新北市永和區保生路55號","121.504728333333","25.0106283333333","6500400","永和區"
"234060","AAD-866","2018/12/08 13:59:30","新北市永和區中正路151巷14號","121.515588333333","24.9987933333333","6500400","永和區"
"234084","748-BX","2018/12/08 13:59:28","新北市永和區福和路196號","121.519953333333","25.0079666666667","6500400","永和區"
"234040","862-TW","2018/12/08 13:59:17","新北市永和區雙和街18-1號","121.509471666667","25.0021083333333","6500400","永和區"
"234048","863-TW","2018/12/08 13:59:19","新北市永和區保安路228號","121.507128333333","25.0134033333333","6500400","永和區"
"234010","9373-KE","2018/12/08 13:59:28","新北市永和區仁愛路352巷112弄17號","121.50111","25.008645","6500400","永和區"
"248017","225-UY","2018/12/08 13:59:34","新北市五股區民義路一段287巷3號","121.425106666667","25.0921083333333","6501500","五股區"
"234022","9380-KE","2018/12/08 13:59:22","新北市永和區永和路二段170號","121.515363333333","25.0131116666667","6500400","永和區"
"234076","969-R7","2018/12/08 13:59:22","新北市永和區民治街29號","121.51966","24.9977233333333","6500400","永和區"
"234072","AAC-211","2018/12/08 13:59:32","新北市永和區豫溪街185號","121.522523333333","25.01039","6500400","永和區"
"234066","AAC-212","2018/12/08 13:59:34","新北市永和區中山路一段283號","121.507091666667","25.0068966666667","6500400","永和區"
"234001","AAC-295","2018/12/08 13:59:21","新北市永和區福和路345號","121.515341666667","25.0070966666667","6500400","永和區"
"231005","001-UM","2018/12/08 13:59:29","新北市新店區中興路三段232號","121.543295","24.9833783333333","6500600","新店區"
"231002","002-UM","2018/12/08 13:59:31","新北市新店區中正路630號","121.533905","24.9890566666667","6500600","新店區"
"231027","0293-UT","2018/12/08 13:59:17","新北市新店區中興路一段24-2號","121.538543333333","24.9583866666667","6500600","新店區"
"231028","046-UY","2018/12/08 13:59:34","新北市新店區安和路三段7號","121.518125","24.98056","6500600","新店區"
"231001","047-UY","2018/12/08 13:59:25","新北市新店區三民路43號","121.537196666667","24.970935","6500600","新店區"
"231010","107-UY","2018/12/08 13:59:23","新北市新店區環河路119號","121.532968333333","24.9703783333333","6500600","新店區"
"231020","108-UY","2018/12/08 13:59:33","新北市新店區屈尺路75號","121.54573","24.9227183333333","6500600","新店區"
"231023","KEA-2219","2018/12/08 13:59:18","新北市新店區文中路45號","121.539558333333","24.9566966666667","6500600","新店區"
"231026","256-BX","2018/12/08 13:59:30","新北市新店區環河路18號","121.53696","24.9616866666667","6500600","新店區"
"231003","268-BY","2018/12/08 13:59:29","新北市新店區中興路一段112-1號","121.540613333333","24.9614566666667","6500600","新店區"
"231018","278-BY","2018/12/08 13:59:20","新北市新店區中央路133巷2號","121.530498333333","24.9735783333333","6500600","新店區"
"231017","AAD-862","2018/12/08 13:59:18","新北市新店區郵政路1巷6號","121.557356666667","24.9521483333333","6500600","新店區"
"231029","355-BY","2018/12/08 13:59:26","新北市新店區安康路二段4號","121.51639","24.9638766666667","6500600","新店區"
"231038","3712-VJ","2018/12/08 13:59:22","新北市新店區安華路30巷1號","121.519553333333","24.9592366666667","6500600","新店區"
"231037","4716-K9","2018/12/08 13:59:23","新北市新店區安康路三段355巷35號","121.48497","24.94965","6500600","新店區"
"231025","4715-K9","2018/12/08 13:59:33","新北市新店區中正路328巷42弄14號","121.538566666667","24.9758433333333","6500600","新店區"
"231036","512-UM","2018/12/08 13:59:33","新北市新店區安祥路110巷59號","121.47361","24.9570266666667","6500600","新店區"
"231013","513-UM","2018/12/08 13:59:35","新北市新店區明德路111號","121.541495","24.9794783333333","6500600","新店區"
"231034","616-UM","2018/12/08 13:59:30","新北市新店區達觀路27-1號","121.503881666667","24.9387033333333","6500600","新店區"
"231030","619-UM","2018/12/08 13:59:23","新北市新店區安康路一段302-6號","121.517918333333","24.964085","6500600","新店區"
"231035","719-UM","2018/12/08 13:59:18","新北市新店區安康路二段106號","121.51343","24.9629133333333","6500600","新店區"
"231012","719-UY","2018/12/08 13:59:31","新北市新店區中興路二段81號","121.546878333333","24.9711216666667","6500600","新店區"
"231033","720-UM","2018/12/08 13:59:24","新北市新店區莒光路87巷15號","121.525306666667","24.953145","6500600","新店區"
"231006","898-TW","2018/12/08 13:59:37","新北市新店區北宜路二段219號","121.55334","24.9534583333333","6500600","新店區"
"231004","899-TW","2018/12/08 13:59:34","新北市新店區北新路二段163號","121.542838333333","24.9762033333333","6500600","新店區"
"231024","AKT-0513","2018/12/08 13:59:33","新北市新店區中央二街56號","121.526635","24.97418","6500600","新店區"
"235030","003-UY","2018/12/08 13:59:30","新北市中和區中山路二段131巷5弄5號","121.50283","25.002925","6500300","中和區"
"235028","005-UY","2018/12/08 13:59:26","新北市中和區連城路47巷3號","121.498375","25.0016566666667","6500300","中和區"
"235027","006-UY","2018/12/08 13:59:36","新北市中和區連城路249巷10弄1號","121.493776666667","24.9964116666667","6500300","中和區"
"235020","096-UM","2018/12/08 13:59:28","新北市板橋區三民路二段204號","121.478866666667","25.012205","6500300","中和區"
"235003","097-UM","2018/12/08 13:59:34","新北市中和區秀朗路三段179號","121.524383333333","24.990705","6500300","中和區"
"235004","150-BY","2018/12/08 13:49:15","新北市中和區安平路59號","121.509448333333","24.9950333333333","6500300","中和區"
"235022","151-BY","2018/12/08 13:59:34","新北市中和區連城路575號","121.478845","24.994265","6500300","中和區"
"235019","183-VK","2018/12/08 13:59:27","新北市中和區中山路三段218號","121.471346666667","25.0065683333333","6500300","中和區"
"235002","185-VK","2018/12/08 13:59:24","新北市中和區立人街24-4號","121.518888333333","24.994245","6500300","中和區"
"235013","186-VK","2018/12/08 13:59:35","新北市中和區景安路167巷31號","121.50688","24.994985","6500300","中和區"
"235031","255-BX","2018/12/08 13:59:21","新北市中和區連城路340巷14弄1號","121.48336","24.9971416666667","6500300","中和區"
"235008","293-VK","2018/12/08 13:59:17","新北市中和區中興街178號","121.499621666667","24.9909566666667","6500300","中和區"
"235036","301-VK","2018/12/08 13:59:19","新北市中和區中山路二段41號","121.504641666667","25.0051816666667","6500300","中和區"
"235007","352-BY","2018/12/08 13:59:31","新北市中和區秀朗路三段103號","121.526481666667","24.9947366666667","6500300","中和區"
"235006","KEA-2878","2018/12/08 13:59:22","新北市中和區秀朗路三段50巷2弄8號","121.526215","24.9959783333333","6500300","中和區"
"247011","KEA-2869","2018/12/08 13:59:32","新北市蘆洲區中興街13號","121.480506666667","25.086985","6501400","蘆洲區"
"247005","KED-0682","2018/12/08 13:59:20","新北市蘆洲區永安南路二段50號","121.466033333333","25.0776383333333","6501400","蘆洲區"
"235014","4979-A6","2018/12/08 13:59:34","新北市中和區忠孝街1號","121.508928333333","24.9829883333333","6500300","中和區"
"235005","551-UM","2018/12/08 13:59:28","新北市中和區中安街18號","121.51339","25.0031766666667","6500300","中和區"
"235034","558-UM","2018/12/08 13:59:26","新北市中和區安和路217號","121.505983333333","24.9995533333333","6500300","中和區"
"235009","565-BX","2018/12/08 13:59:23","新北市中和區景新街467巷20弄21號","121.515111666667","24.9873216666667","6500300","中和區"
"235018","640-BX","2018/12/08 13:59:24","新北市中和區民享街30巷1號","121.474028333333","25.0034566666667","6500300","中和區"
"235024","647-TV","2018/12/08 13:59:30","新北市中和區民治街22號","121.475123333333","25.0042733333333","6500300","中和區"
"235011","732-UM","2018/12/08 13:59:18","新北市中和區興南路二段54巷8號","121.505963333333","24.985625","6500300","中和區"
"235010","733-UM","2018/12/08 13:59:30","新北市中和區興南路二段11號","121.508145","24.9861633333333","6500300","中和區"
"235035","783-BX","2018/12/08 13:59:29","新北市中和區建六路57號","121.486541666667","25.0022366666667","6500300","中和區"
"235026","800-TS","2018/12/08 13:59:21","新北市中和區中山路二段366巷23號","121.491576666667","25.0051066666667","6500300","中和區"
"235021","801-TS","2018/12/08 13:59:37","新北市中和區民利街100巷4弄2號","121.47722","24.9981916666667","6500300","中和區"
"235016","805-TS","2018/12/08 13:59:23","新北市中和區興南路二段261巷6-3號","121.502486666667","24.9795316666667","6500300","中和區"
"235012","896-TW","2018/12/08 13:59:32","新北市中和區華新街2-6號","121.50744","24.9851266666667","6500300","中和區"
"235017","900-TW","2018/12/08 13:59:33","新北市中和區和平路200巷35弄1號","121.465316666667","24.99459","6500300","中和區"
"235029","911-UM","2018/12/08 13:59:28","新北市中和區中山路二段2巷81弄1號","121.501058333333","25.0075716666667","6500300","中和區"
"235015","157-BY","2018/12/08 13:59:29","新北市中和區忠孝街19巷17號","121.50985","24.9841233333333","6500300","中和區"
"235001","AAC-213","2018/12/08 13:59:24","新北市中和區秀朗路三段10巷16弄3號","121.523521666667","24.9960366666667","6500300","中和區"
"235023","AAC-215","2018/12/08 13:59:17","新北市中和區圓通路367巷18-5號","121.491865","24.98853","6500300","中和區"
"220013","072-UY","2018/12/08 13:59:24","新北市板橋區漢生東路311號","121.471828333333","25.008005","6500100","板橋區"
"220034","073-UY","2018/12/08 13:56:25","新北市板橋區民權路209-1號","121.457823333333","25.0148233333333","6500100","板橋區"
"220105","075-UY","2018/12/08 13:59:33","新北市板橋區雙十路三段10巷10號","121.472031666667","25.030685","6500100","板橋區"
"220017","AAD-861","2018/12/08 13:59:20","新北市板橋區華興街17號","121.458841666667","25.0046516666667","6500100","板橋區"
"247015","336-TH","2018/12/08 13:59:30","新北市蘆洲區光華路40號","121.468943333333","25.0831366666667","6501400","蘆洲區"
"247019","057-VK","2018/12/08 13:59:37","新北市蘆洲區民族路422巷88-1號","121.473406666667","25.0938433333333","6501400","蘆洲區"
"247009","056-VK","2018/12/08 13:59:17","新北市蘆洲區集賢路224巷23號","121.481548333333","25.0869466666667","6501400","蘆洲區"
"247017","007-UY","2018/12/08 13:59:27","新北市蘆洲區民族路327巷73號","121.475278333333","25.0896833333333","6501400","蘆洲區"
"247003","002-UY","2018/12/08 13:59:16","新北市蘆洲區長榮路1號","121.463711666667","25.081775","6501400","蘆洲區"
"247021","001-UY","2018/12/08 13:59:23","新北市蘆洲區中正路263巷2號","121.467366666667","25.0874366666667","6501400","蘆洲區"
"228005","097-TW","2018/12/08 13:59:25","新北市貢寮區美豐里雞母嶺街52-1號","121.888543333333","25.0685333333333","6502600","貢寮區"
"228004","212-TW","2018/12/08 13:59:15","新北市貢寮區龍崗里嵩陽街40號","121.905926666667","25.0153616666667","6502600","貢寮區"
"253003","6232-TK","2018/12/08 13:59:27","新北市石門區尖子鹿53-2號","121.580838333333","25.27139","6502200","石門區"
"253004","6251-TK","2018/12/08 13:59:27","新北市石門區阿里磅77號","121.588583333333","25.2691716666667","6502200","石門區"
"253002","637-UY","2018/12/08 13:59:36","新北市石門區大溪墘6-2號","121.551033333333","25.2776783333333","6502200","石門區"
"253001","KEC-0718","2018/12/08 13:59:33","新北市石門區八甲75號","121.529878333333","25.2631683333333","6502200","石門區"
"207002","749-BX","2018/12/08 13:59:27","新北市萬里區溪底里富士坪路1-2號","121.6308","25.1501416666667","6502800","萬里區"
"252005","073-UM","2018/12/08 13:59:24","新北市三芝區圓山里二坪頂79號","121.53999","25.24476","6502100","三芝區"
"207001","662-BX","2018/12/08 13:59:33","新北市萬里區磺潭里清水2-2號","121.641311666667","25.2025816666667","6502800","萬里區"
"236068","105-UM","2018/12/08 13:59:22","新北市土城區金城路一段70號","121.443541666667","24.97237","6501300","土城區"
"236040","KED-0685","2018/12/08 13:59:24","新北市土城區城林路6巷80號","121.438513333333","24.9797816666667","6501300","土城區"
"236074","166-UM","2018/12/08 13:59:35","新北市土城區中央路三段92-2號","121.43585","24.9666983333333","6501300","土城區"
"236024","269-VK","2018/12/08 13:59:30","新北市土城區中央路三段42號","121.43743","24.9678483333333","6501300","土城區"
"236013","270-VK","2018/12/08 13:59:21","新北市土城區城林路6巷80號","121.438643333333","24.9797716666667","6501300","土城區"
"236032","271-VK","2018/12/08 13:59:21","新北市土城區城林路6巷80號","121.438568333333","24.9798333333333","6501300","土城區"
"247007","KED-0683","2018/12/08 13:59:20","新北市蘆洲區重陽街42-1號","121.481048333333","25.0825383333333","6501400","蘆洲區"
"236017","401-BY","2018/12/08 13:59:19","新北市土城區城林路6巷80號","121.438498333333","24.9798216666667","6501300","土城區"
"236057","912-UM","2018/12/08 13:59:25","新北市土城區中央路三段248-1號","121.427706666667","24.9642233333333","6501300","土城區"
"236045","913-UM","2018/12/08 13:58:22","新北市土城區中央路二段280號","121.440771666667","24.9740583333333","6501300","土城區"
"236060","915-UM","2018/12/08 13:59:19","新北市土城區中華路二段2號","121.438853333333","24.9796383333333","6501300","土城區"
"236054","AAC-216","2018/12/08 13:59:21","新北市土城區城林路6巷80號","121.438355","24.9798233333333","6501300","土城區"
"242050","172-VK","2018/12/08 13:59:29","新北市新莊區瓊林路13-3號","121.448846666667","25.03087","6500500","新莊區"
"242007","176-VK","2018/12/08 13:59:33","新北市新莊區瓊林南路77-41號","121.437326666667","25.0124016666667","6500500","新莊區"
"221010","269-BY","2018/12/08 13:59:18","新北市汐止區長青路210巷188號","121.61628","25.1132983333333","6501100","汐止區"
"220028","200-UY","2018/12/08 13:59:31","新北市板橋區大觀路二段265巷3弄1號","121.442918333333","24.998415","6500100","板橋區"
"220030","610-BX","2018/12/08 13:59:31","新北市板橋區溪崑一街112號","121.429265","24.9887266666667","6500100","板橋區"
"220050","245-BX","2018/12/08 13:59:26","新北市板橋區民生路二段226巷46號","121.471791666667","25.0222933333333","6500100","板橋區"
"220004","276-BY","2018/12/08 13:59:28","新北市板橋區信義路148號","121.458948333333","24.9917666666667","6500100","板橋區"
"220020","277-BY","2018/12/08 13:59:28","新北市板橋區金門街377號","121.428108333333","24.9844933333333","6500100","板橋區"
"220019","283-VK","2018/12/08 13:59:37","新北市板橋區重慶路245巷33號","121.464805","25.0011016666667","6500100","板橋區"
"220043","285-UM","2018/12/08 13:59:38","新北市板橋區吳鳳路81巷33號","121.465641666667","25.0308266666667","6500100","板橋區"
"220001","285-VK","2018/12/08 13:59:26","新北市板橋區太和街6巷1號","121.47375","25.020025","6500100","板橋區"
"220031","286-VK","2018/12/08 13:59:35","新北市板橋區大觀路一段38巷184號","121.441423333333","25.0047383333333","6500100","板橋區"
"220029","287-VK","2018/12/08 13:59:35","新北市板橋區光華街44巷2-1號","121.453765","25.0128966666667","6500100","板橋區"
"220039","288-VK","2018/12/08 13:59:15","新北市板橋區裕民街45巷2號","121.461525","25.02843","6500100","板橋區"
"220009","293-UM","2018/12/08 13:59:36","新北市板橋區懷仁街77巷2號","121.47765","25.0185083333333","6500100","板橋區"
"220032","296-UM","2018/12/08 13:59:21","新北市板橋區龍興街63巷7號","121.44267","25.0014083333333","6500100","板橋區"
"220041","299-UM","2018/12/08 13:59:28","新北市板橋區文化路二段225巷60弄55號","121.469053333333","25.029705","6500100","板橋區"
"220023","303-R5","2018/12/08 13:59:27","新北市板橋區大智街78-3號","121.453728333333","25.0156233333333","6500100","板橋區"
"220010","305-R5","2018/12/08 13:59:30","新北市板橋區三民路二段245巷29號","121.480271666667","25.0125983333333","6500100","板橋區"
"220047","317-R6","2018/12/08 13:59:32","新北市板橋區莊敬路146巷18號","121.470371666667","25.0227433333333","6500100","板橋區"
"220038","487-VK","2018/12/08 13:59:25","新北市板橋區文化路二段325號","121.472345","25.030205","6500100","板橋區"
"220037","491-VK","2018/12/08 13:59:30","新北市板橋區莊敬路56號","121.472715","25.026905","6500100","板橋區"
"220104","560-BX","2018/12/08 13:59:30","新北市板橋區中正路343號","121.454783333333","25.0204466666667","6500100","板橋區"
"220052","561-BX","2018/12/08 13:59:25","新北市板橋區文化路一段188巷7弄36號","121.468055","25.0194233333333","6500100","板橋區"
"220027","568-UM","2018/12/08 13:59:33","新北市板橋區中正路135巷12弄1號","121.455705","25.0156283333333","6500100","板橋區"
"220011","609-BX","2018/12/08 13:59:17","新北市板橋區三民路二段67號","121.479323333333","25.017135","6500100","板橋區"
"220040","637-BX","2018/12/08 13:59:22","新北市板橋區大同街26巷4號","121.478016666667","25.0271166666667","6500100","板橋區"
"220005","686-BX","2018/12/08 13:59:23","新北市板橋區重慶路224號","121.462785","25.00181","6500100","板橋區"
"220025","687-BX","2018/12/08 13:59:34","新北市板橋區大觀路二段174巷149號","121.441435","25.0026583333333","6500100","板橋區"
"220042","689-BX","2018/12/08 13:59:33","新北市板橋區民生路三段153號","121.465826666667","25.0266333333333","6500100","板橋區"
"220002","741-BX","2018/12/08 13:59:26","新北市板橋區重慶路93巷47號","121.463388333333","25.0060283333333","6500100","板橋區"
"220051","KEA-2699","2018/12/08 13:59:32","新北市板橋區田單街2巷37號","121.482253333333","25.0277983333333","6500100","板橋區"
"220003","827-TW","2018/12/08 13:59:23","新北市板橋區中山路一段140號","121.463488333333","25.0108916666667","6500100","板橋區"
"220016","830-TW","2018/12/08 13:59:28","新北市板橋區中山路二段465巷25號","121.48144","25.0211283333333","6500100","板橋區"
"220014","831-TW","2018/12/08 13:59:20","新北市板橋區三民路二段154巷11號","121.478745","25.0149133333333","6500100","板橋區"
"220022","895-R6","2018/12/08 13:59:24","新北市板橋區新興路4號","121.456368333333","25.0072216666667","6500100","板橋區"
"220021","985-R7","2018/12/08 13:59:20","新北市板橋區館前西路219號","121.454703333333","25.008615","6500100","板橋區"
"220046","AAC-210","2018/12/08 13:59:37","新北市板橋區新海路135巷29號","121.460116666667","25.0229883333333","6500100","板橋區"
"220012","AAC-253","2018/12/08 13:59:31","新北市板橋區長安街236號","121.47527","25.0125","6500100","板橋區"
"235032","KEA-2873","2018/12/08 13:59:23","新北市中和區圓通路162巷4號","121.496918333333","24.9953133333333","6500300","中和區"
"235025","KEA-2875","2018/12/08 13:59:16","新北市中和區員山路394巷12弄1號","121.481291666667","25.0042883333333","6500300","中和區"
