"lineid","car","time","location","longitude","latitude","cityid","cityname"
"234044","148-BY","2018/12/08 14:09:23","新北市永和區成功路一段146號","121.52679","25.0016666666667","6500400","永和區"
"234005","207-UY","2018/12/08 14:09:19","新北市永和區永和路二段28號","121.514763333333","25.0103633333333","6500400","永和區"
"234036","336-UY","2018/12/08 14:09:19","新北市永和區成功路一段47巷21弄2號","121.52802","25.0040366666667","6500400","永和區"
"234062","337-UY","2018/12/08 14:09:23","新北市永和區永利路152號","121.522445","25.00278","6500400","永和區"
"234068","552-UM","2018/12/08 14:09:24","新北市永和區福和路216號","121.519461666667","25.00772","6500400","永和區"
"234078","553-UM","2018/12/08 14:09:36","新北市永和區國中路109巷4弄3號","121.523801666667","25.00559","6500400","永和區"
"234015","745-BX","2018/12/08 14:09:29","新北市永和區仁愛路99號","121.512833333333","25.012945","6500400","永和區"
"234028","746-BX","2018/12/08 14:09:34","新北市永和區民生路22巷32號","121.521045","24.997045","6500400","永和區"
"234052","KEA-2590","2018/12/08 14:09:32","新北市永和區博愛街21巷1號","121.517743333333","25.0158616666667","6500400","永和區"
"234012","KEA-2591","2018/12/08 14:09:35","新北市永和區仁愛路279號","121.505753333333","25.009665","6500400","永和區"
"234060","AAD-866","2018/12/08 14:09:30","新北市中和區安平路222號","121.514006666667","25.00007","6500400","永和區"
"234084","748-BX","2018/12/08 14:09:28","新北市永和區中正路614號","121.51712","25.00755","6500400","永和區"
"234040","862-TW","2018/12/08 14:09:38","新北市永和區雙和街5號","121.509733333333","25.0016866666667","6500400","永和區"
"234048","863-TW","2018/12/08 14:09:26","新北市永和區新生路160巷3弄16號","121.505965","25.0140416666667","6500400","永和區"
"234025","9371-KE","2018/12/08 14:09:32","新北市永和區安樂路453號","121.5143","25.00499","6500400","永和區"
"234010","9373-KE","2018/12/08 14:09:28","新北市永和區仁愛路352巷122弄11號","121.50056","25.0089983333333","6500400","永和區"
"248017","225-UY","2018/12/08 14:09:34","新北市五股區民義路一段228號","121.429055","25.0910266666667","6501500","五股區"
"234022","9380-KE","2018/12/08 14:09:22","新北市永和區光復街2巷16弄17號","121.517788333333","25.0163083333333","6500400","永和區"
"234076","969-R7","2018/12/08 14:09:22","新北市永和區民族街67巷7號","121.518813333333","24.9972366666667","6500400","永和區"
"234072","AAC-211","2018/12/08 14:09:32","新北市永和區竹林路201巷24弄3號","121.522451666667","25.0097083333333","6500400","永和區"
"234066","AAC-212","2018/12/08 14:09:34","新北市永和區保平路236巷15弄2號","121.508483333333","25.0063666666667","6500400","永和區"
"234001","AAC-295","2018/12/08 14:09:21","新北市永和區中正路664號","121.516925","25.0089066666667","6500400","永和區"
"231005","001-UM","2018/12/08 14:09:29","新北市新店區中興路三段293號","121.542293333333","24.9849633333333","6500600","新店區"
"231002","002-UM","2018/12/08 14:09:31","新北市新店區中正路487號","121.533706666667","24.9821183333333","6500600","新店區"
"231027","0293-UT","2018/12/08 14:09:37","新北市新店區中興路一段24-2號","121.538535","24.95832","6500600","新店區"
"231028","046-UY","2018/12/08 14:09:25","新北市新店區安和路三段89號","121.517816666667","24.984005","6500600","新店區"
"231001","047-UY","2018/12/08 14:09:25","新北市新店區中華路38號","121.539985","24.9680983333333","6500600","新店區"
"231010","107-UY","2018/12/08 14:09:23","新北市新店區安康路一段258號","121.520243333333","24.9639766666667","6500600","新店區"
"231020","108-UY","2018/12/08 14:09:22","新北市新店區頂石厝路26號","121.537565","24.9187683333333","6500600","新店區"
"231023","KEA-2219","2018/12/08 14:09:18","新北市新店區文中路45號","121.539578333333","24.9566133333333","6500600","新店區"
"231003","268-BY","2018/12/08 14:09:29","新北市新店區中興路一段57-1號","121.53995","24.9605516666667","6500600","新店區"
"231018","278-BY","2018/12/08 14:09:20","新北市新店區中央五街46號","121.528108333333","24.9750983333333","6500600","新店區"
"231017","AAD-862","2018/12/08 14:09:18","新北市新店區中生路170巷18號","121.571033333333","24.9486216666667","6500600","新店區"
"231029","355-BY","2018/12/08 14:09:26","新北市新店區安康路二段204號","121.510298333333","24.9595216666667","6500600","新店區"
"231038","3712-VJ","2018/12/08 14:09:23","新北市新店區安康路一段321巷3號","121.521735","24.962795","6500600","新店區"
"231037","4716-K9","2018/12/08 14:09:23","新北市新店區安康路三段207巷5號","121.487975","24.951055","6500600","新店區"
"231025","4715-K9","2018/12/08 14:09:33","新北市新店區二十張路129巷1弄1號","121.53604","24.9791466666667","6500600","新店區"
"231036","512-UM","2018/12/08 14:09:33","新北市新店區安祥路109巷3弄38號","121.47659","24.9604616666667","6500600","新店區"
"231013","513-UM","2018/12/08 14:09:35","新北市新店區北新路三段65巷34弄6號","121.54007","24.98137","6500600","新店區"
"231034","616-UM","2018/12/08 14:09:30","新北市新店區車子路16號","121.505026666667","24.9537433333333","6500600","新店區"
"231030","619-UM","2018/12/08 14:09:23","新北市新店區安民街115巷28號","121.515216666667","24.9676033333333","6500600","新店區"
"231035","719-UM","2018/12/08 14:09:18","新北市新店區安和路一段52巷2-1號","121.517735","24.9664516666667","6500600","新店區"
"231012","719-UY","2018/12/08 14:09:31","新北市新店區五峰路157號","121.544886666667","24.9656433333333","6500600","新店區"
"231033","720-UM","2018/12/08 14:09:24","新北市新店區永業路6號","121.533945","24.9562166666667","6500600","新店區"
"231006","898-TW","2018/12/08 14:09:17","新北市新店區北宜路二段317號","121.556853333333","24.9539716666667","6500600","新店區"
"231004","899-TW","2018/12/08 14:09:34","新北市新店區北新路二段128號","121.543071666667","24.9749416666667","6500600","新店區"
"235030","003-UY","2018/12/08 14:09:30","新北市中和區廣福路36號","121.504506666667","25.002215","6500300","中和區"
"235028","005-UY","2018/12/08 14:09:26","新北市中和區連城路23巷20號","121.499108333333","25.001465","6500300","中和區"
"235027","006-UY","2018/12/08 14:09:36","新北市中和區連勝街121巷7號","121.495221666667","24.9945866666667","6500300","中和區"
"235020","096-UM","2018/12/08 14:09:28","新北市中和區中山路二段648號","121.480885","25.0056966666667","6500300","中和區"
"235003","097-UM","2018/12/08 14:09:34","新北市中和區秀峰街119巷4弄1號","121.519773333333","24.9902366666667","6500300","中和區"
"235004","150-BY","2018/12/08 14:09:36","新北市中和區保健路46巷1號","121.509733333333","24.9969983333333","6500300","中和區"
"235022","151-BY","2018/12/08 14:09:34","新北市中和區連城路428巷7-3號","121.479938333333","24.9953333333333","6500300","中和區"
"235019","183-VK","2018/12/08 14:09:27","新北市中和區德光路70號","121.469343333333","25.0038283333333","6500300","中和區"
"235002","185-VK","2018/12/08 14:09:24","新北市中和區大仁街10巷9弄29號","121.519241666667","24.9928383333333","6500300","中和區"
"235013","186-VK","2018/12/08 14:09:34","新北市中和區南華路46號","121.503968333333","24.9965383333333","6500300","中和區"
"235031","255-BX","2018/12/08 14:09:21","新北市中和區中正路711號","121.48446","24.9985516666667","6500300","中和區"
"235008","293-VK","2018/12/08 14:09:17","新北市中和區中興街202巷2號","121.499466666667","24.9902166666667","6500300","中和區"
"235036","301-VK","2018/12/08 14:09:19","新北市中和區中山路二段187號","121.500293333333","25.0027633333333","6500300","中和區"
"235007","352-BY","2018/12/08 14:09:31","新北市中和區景平路120號","121.51931","24.9916933333333","6500300","中和區"
"235006","KEA-2878","2018/12/08 14:09:22","新北市中和區立人街1號","121.52199","24.9938416666667","6500300","中和區"
"247011","KEA-2869","2018/12/08 14:09:32","新北市蘆洲區信義路276號","121.477913333333","25.0870083333333","6501400","蘆洲區"
"247005","KED-0682","2018/12/08 14:09:20","新北市蘆洲區永安南路二段16巷17弄4號","121.467611666667","25.077975","6501400","蘆洲區"
"235014","4979-A6","2018/12/08 14:09:34","新北市中和區南山路429號","121.50764","24.989325","6500300","中和區"
"235005","551-UM","2018/12/08 14:09:29","新北市中和區中安街178巷1號","121.510906666667","24.999375","6500300","中和區"
"235034","558-UM","2018/12/08 14:09:26","新北市中和區中和路51號","121.500418333333","25.00124","6500300","中和區"
"235009","565-BX","2018/12/08 14:09:23","新北市中和區景新街435號","121.513233333333","24.9890383333333","6500300","中和區"
"235018","640-BX","2018/12/08 14:09:24","新北市中和區國光街107巷2弄32號","121.469305","24.9990333333333","6500300","中和區"
"235024","647-TV","2018/12/08 14:09:30","新北市中和區民有街45號","121.475888333333","25.0048216666667","6500300","中和區"
"235011","732-UM","2018/12/08 14:09:18","新北市中和區興南路一段106號","121.509671666667","24.9887916666667","6500300","中和區"
"235010","733-UM","2018/12/08 14:09:30","新北市中和區忠孝街1巷63號","121.508241666667","24.9846","6500300","中和區"
"235035","783-BX","2018/12/08 14:09:29","新北市中和區建康路7號","121.485775","25.0001783333333","6500300","中和區"
"235026","800-TS","2018/12/08 14:09:22","新北市中和區中山路二段394號","121.490295","25.0036266666667","6500300","中和區"
"235021","801-TS","2018/12/08 14:09:36","新北市中和區民利街44號","121.479483333333","24.9988466666667","6500300","中和區"
"235016","805-TS","2018/12/08 14:09:23","新北市中和區興南路二段142巷19弄38號","121.502593333333","24.9835033333333","6500300","中和區"
"235012","896-TW","2018/12/08 14:09:32","新北市中和區華新街113巷4弄14號","121.507321666667","24.98109","6500300","中和區"
"235017","900-TW","2018/12/08 14:09:33","新北市中和區華福街71巷21號","121.46743","24.99701","6500300","中和區"
"235029","911-UM","2018/12/08 14:09:28","新北市中和區中山路二段64巷12弄15號","121.504105","25.0057","6500300","中和區"
"235015","157-BY","2018/12/08 14:09:29","新北市中和區和平街2巷3號","121.510095","24.9903266666667","6500300","中和區"
"235001","AAC-213","2018/12/08 14:09:24","新北市中和區秀朗路三段58號","121.526131666667","24.9951783333333","6500300","中和區"
"235023","AAC-215","2018/12/08 14:09:17","新北市中和區圓通路294巷13號","121.488658333333","24.99009","6500300","中和區"
"220013","072-UY","2018/12/08 14:09:38","新北市板橋區民族路151巷77號","121.469555","25.0086433333333","6500100","板橋區"
"220034","073-UY","2018/12/08 14:09:38","新北市板橋區中正路236巷57號","121.45821","25.0195783333333","6500100","板橋區"
"220105","075-UY","2018/12/08 14:09:33","新北市板橋區長江路二段280-8號","121.470088333333","25.0328666666667","6500100","板橋區"
"220017","AAD-861","2018/12/08 14:09:28","新北市板橋區華興街37號","121.458196666667","25.004695","6500100","板橋區"
"247001","893-R6","2018/12/08 14:09:29","新北市蘆洲區永平街30號","121.458815","25.0908333333333","6501400","蘆洲區"
"247023","500-BY","2018/12/08 14:09:14","新北市蘆洲區光榮路100號","121.464163333333","25.0893666666667","6501400","蘆洲區"
"247015","336-TH","2018/12/08 14:09:31","新北市蘆洲區中正路185巷13弄2號","121.467615","25.0848","6501400","蘆洲區"
"247019","057-VK","2018/12/08 14:09:19","新北市蘆洲區民族路426巷19號","121.472971666667","25.09321","6501400","蘆洲區"
"247009","056-VK","2018/12/08 14:09:37","新北市蘆洲區信義路172號","121.479396666667","25.0839533333333","6501400","蘆洲區"
"247013","053-VK","2018/12/08 14:09:17","新北市蘆洲區三民路135號","121.472065","25.0864666666667","6501400","蘆洲區"
"247017","007-UY","2018/12/08 14:09:27","新北市蘆洲區民族路203號","121.47819","25.08927","6501400","蘆洲區"
"247003","002-UY","2018/12/08 14:09:16","新北市蘆洲區長安街108巷27號","121.461976666667","25.0824816666667","6501400","蘆洲區"
"247021","001-UY","2018/12/08 14:09:23","新北市蘆洲區三民路120號","121.471201666667","25.0872333333333","6501400","蘆洲區"
"228005","097-TW","2018/12/08 14:09:25","新北市貢寮區美豐里土地公嶺10號","121.88907","25.058625","6502600","貢寮區"
"228004","212-TW","2018/12/08 14:09:15","新北市貢寮區雙玉里下雙溪街8號","121.916401666667","25.015905","6502600","貢寮區"
"253003","6232-TK","2018/12/08 14:09:27","新北市石門區尖子鹿62-1號","121.578573333333","25.2656366666667","6502200","石門區"
"253004","6251-TK","2018/12/08 14:09:27","新北市石門區內阿里磅14號","121.593116666667","25.2495516666667","6502200","石門區"
"253002","637-UY","2018/12/08 14:09:16","新北市石門區七股9-1號","121.547838333333","25.2652133333333","6502200","石門區"
"253001","KEC-0718","2018/12/08 14:09:33","新北市石門區八甲66號","121.528878333333","25.2733383333333","6502200","石門區"
"207002","749-BX","2018/12/08 14:09:27","新北市萬里區溪底里瑞泉路10號","121.603813333333","25.145935","6502800","萬里區"
"252005","073-UM","2018/12/08 14:09:24","新北市三芝區橫山里橫山52號","121.533383333333","25.2564716666667","6502100","三芝區"
"207001","662-BX","2018/12/08 14:09:33","新北市萬里區磺潭里清水18號","121.63784","25.1976366666667","6502800","萬里區"
"236068","105-UM","2018/12/08 14:09:22","新北市土城區青雲路322巷2弄4號","121.45815","24.9772933333333","6501300","土城區"
"236040","KED-0685","2018/12/08 14:09:23","新北市土城區城林路6巷80號","121.438508333333","24.9797666666667","6501300","土城區"
"236074","166-UM","2018/12/08 14:09:20","新北市土城區永寧路32巷8號","121.429036666667","24.960695","6501300","土城區"
"236030","253-BX","2018/12/08 14:09:24","新北市土城區城林路6巷80號","121.438435","24.97958","6501300","土城區"
"236024","269-VK","2018/12/08 14:09:30","新北市土城區承天路18號","121.439368333333","24.9634683333333","6501300","土城區"
"236013","270-VK","2018/12/08 14:09:21","新北市土城區裕民路172號","121.452483333333","24.9854833333333","6501300","土城區"
"236032","271-VK","2018/12/08 14:09:21","新北市土城區城林路6巷80號","121.438246666667","24.9799333333333","6501300","土城區"
"247007","KED-0683","2018/12/08 14:09:20","新北市五股區國道路三段20號","121.468495","25.0753","6501400","蘆洲區"
"236017","401-BY","2018/12/08 14:09:19","新北市土城區城林路6巷80號","121.43848","24.979805","6501300","土城區"
"236057","912-UM","2018/12/08 14:09:23","新北市土城區中央路四段170號","121.416783333333","24.95806","6501300","土城區"
"236045","913-UM","2018/12/08 14:09:26","新北市土城區明德路一段365-1號","121.453546666667","24.9790733333333","6501300","土城區"
"236060","915-UM","2018/12/08 14:09:20","新北市土城區中正路75號","121.445215","24.9757166666667","6501300","土城區"
"236054","AAC-216","2018/12/08 14:09:32","新北市土城區中華路二段62號","121.43892","24.97669","6501300","土城區"
"242050","172-VK","2018/12/08 14:04:28","新北市新莊區瓊林路13-4號","121.448865","25.030565","6500500","新莊區"
"242007","176-VK","2018/12/08 14:09:33","新北市樹林區太平路277號","121.418506666667","24.9725716666667","6500500","新莊區"
"221010","269-BY","2018/12/08 14:09:18","新北市汐止區長青路210巷188號","121.616285","25.11325","6501100","汐止區"
"220028","200-UY","2018/12/08 14:09:31","新北市板橋區大觀路二段5-1號","121.447175","25.0039683333333","6500100","板橋區"
"220030","610-BX","2018/12/08 14:09:31","新北市板橋區溪崑二街27號","121.428575","24.9912766666667","6500100","板橋區"
"220050","245-BX","2018/12/08 14:09:26","新北市板橋區雙十路二段55號","121.476381666667","25.0263816666667","6500100","板橋區"
"220004","276-BY","2018/12/08 14:09:35","新北市板橋區信義路74巷1弄5-2號","121.457355","24.9930116666667","6500100","板橋區"
"220020","277-BY","2018/12/08 14:09:28","新北市板橋區金門街302號","121.428988333333","24.9855","6500100","板橋區"
"220019","283-VK","2018/12/08 14:09:37","新北市板橋區重慶路353巷7號","121.464871666667","24.9980983333333","6500100","板橋區"
"220043","285-UM","2018/12/08 14:09:18","新北市板橋區光武街136巷7號","121.465668333333","25.03015","6500100","板橋區"
"220001","285-VK","2018/12/08 14:09:26","新北市板橋區懷仁街25巷8號","121.476743333333","25.0199166666667","6500100","板橋區"
"220031","286-VK","2018/12/08 14:09:35","新北市板橋區大觀路二段174巷173弄12號","121.441216666667","25.0039183333333","6500100","板橋區"
"220029","287-VK","2018/12/08 14:09:15","新北市板橋區南雅西路二段156巷2號","121.451818333333","25.0134233333333","6500100","板橋區"
"220039","288-VK","2018/12/08 14:09:36","新北市板橋區長江路一段106巷13弄20號","121.460855","25.0295","6500100","板橋區"
"220009","293-UM","2018/12/08 14:09:36","新北市板橋區中山路二段326-1號","121.481076666667","25.0195116666667","6500100","板橋區"
"220032","296-UM","2018/12/08 14:09:20","新北市板橋區篤行路一段16-1號","121.431316666667","24.9955316666667","6500100","板橋區"
"220041","299-UM","2018/12/08 14:09:28","新北市板橋區松江街72巷13號","121.469196666667","25.0279266666667","6500100","板橋區"
"220023","303-R5","2018/12/08 14:09:27","新北市板橋區府中路126-2號","121.455208333333","25.0094683333333","6500100","板橋區"
"220010","305-R5","2018/12/08 14:09:30","新北市板橋區三民路二段居仁巷1-2號","121.479403333333","25.0132966666667","6500100","板橋區"
"220047","317-R6","2018/12/08 14:09:35","新北市板橋區民有街27號","121.466036666667","25.025255","6500100","板橋區"
"220038","487-VK","2018/12/08 14:09:26","新北市板橋區文化路一段289號","121.464873333333","25.01871","6500100","板橋區"
"220037","491-VK","2018/12/08 14:09:30","新北市板橋區雙十路二段227號","121.472915","25.0292666666667","6500100","板橋區"
"220104","560-BX","2018/12/08 14:09:31","新北市板橋區中正路379巷34號","121.453141666667","25.0220566666667","6500100","板橋區"
"220052","561-BX","2018/12/08 14:09:25","新北市板橋區文化路一段280-1號","121.467188333333","25.0210933333333","6500100","板橋區"
"220027","568-UM","2018/12/08 14:09:20","新北市板橋區民權路202巷3弄2號","121.45977","25.0144233333333","6500100","板橋區"
"220011","609-BX","2018/12/08 14:09:37","新北市板橋區三民路二段241號","121.478988333333","25.0125666666667","6500100","板橋區"
"220040","637-BX","2018/12/08 14:09:21","新北市板橋區縣民大道三段221號","121.480498333333","25.0253666666667","6500100","板橋區"
"220005","686-BX","2018/12/08 14:09:23","新北市板橋區國慶路256號","121.463583333333","24.99821","6500100","板橋區"
"220025","687-BX","2018/12/08 14:09:34","新北市板橋區龍興街65巷4號","121.44354","25.0014916666667","6500100","板橋區"
"220042","689-BX","2018/12/08 14:09:32","新北市板橋區漢生西路97號","121.462578333333","25.0199","6500100","板橋區"
"220002","741-BX","2018/12/08 14:09:26","新北市板橋區後埔街79號","121.4606","25.0054083333333","6500100","板橋區"
"220051","KEA-2699","2018/12/08 14:09:35","新北市板橋區田單街32號","121.482435","25.028285","6500100","板橋區"
"220003","827-TW","2018/12/08 14:09:24","新北市板橋區中山路一段143號","121.464013333333","25.01131","6500100","板橋區"
"220016","830-TW","2018/12/08 14:09:25","新北市板橋區翠華街6巷42號","121.48152","25.024655","6500100","板橋區"
"220014","831-TW","2018/12/08 14:09:25","新北市板橋區中山路二段90巷41號","121.476321666667","25.0147316666667","6500100","板橋區"
"220022","895-R6","2018/12/08 14:09:24","新北市板橋區林園街39號","121.45377","25.00993","6500100","板橋區"
"220021","985-R7","2018/12/08 14:09:20","新北市板橋區民權路220號","121.458766666667","25.0142216666667","6500100","板橋區"
"220046","AAC-210","2018/12/08 14:09:33","新北市板橋區幸福路58號","121.461105","25.020235","6500100","板橋區"
"220012","AAC-253","2018/12/08 14:09:29","新北市板橋區漢生東路83巷2號","121.466973333333","25.0158483333333","6500100","板橋區"
"235032","KEA-2873","2018/12/08 14:09:23","新北市中和區景平路545巷1弄13號","121.498761666667","24.9988683333333","6500300","中和區"
"235025","KEA-2875","2018/12/08 14:09:16","新北市中和區連城路456巷9號","121.478665","24.9952433333333","6500300","中和區"
