"lineid","car","time","location","longitude","latitude","cityid","cityname"
"234025","9371-KE","2018/12/08 15:09:32","新北市永和區永貞路267號","121.511791666667","25.0048","6500400","永和區"
"248017","225-UY","2018/12/08 15:09:40","新北市五股區登林路126號","121.410125","25.078095","6501500","五股區"
"231005","001-UM","2018/12/08 15:09:29","新北市新店區北新路三段97號","121.541543333333","24.98187","6500600","新店區"
"231002","002-UM","2018/12/08 15:09:31","新北市新店區中正路539-5號","121.533513333333","24.9866333333333","6500600","新店區"
"231028","046-UY","2018/12/08 15:09:38","新北市新店區僑愛七路39號","121.5012","24.944585","6500600","新店區"
"231001","047-UY","2018/12/08 15:09:25","新北市新店區中正路276號","121.538863333333","24.97361","6500600","新店區"
"231020","108-UY","2018/12/08 15:09:22","新北市新店區永福路54-2號","121.558095","24.9287366666667","6500600","新店區"
"231023","KEA-2219","2018/12/08 15:09:18","新北市新店區檳榔路109號","121.544511666667","24.9616816666667","6500600","新店區"
"231026","256-BX","2018/12/08 15:09:20","新北市新店區建興街9巷1號","121.53992","24.9763666666667","6500600","新店區"
"231003","268-BY","2018/12/08 15:09:31","新北市新店區寶橋路103號","121.548235","24.9768416666667","6500600","新店區"
"231018","278-BY","2018/12/08 15:09:20","新北市新店區溪園路437號","121.524548333333","24.97786","6500600","新店區"
"231017","AAD-862","2018/12/08 15:09:18","新北市新店區明山路29號","121.564966666667","24.9568016666667","6500600","新店區"
"231029","355-BY","2018/12/08 15:09:26","新北市新店區安康路三段738號","121.473848333333","24.942115","6500600","新店區"
"231038","3712-VJ","2018/12/08 15:09:22","新北市新店區安一路一段1-1號","121.519803333333","24.9611783333333","6500600","新店區"
"231037","4716-K9","2018/12/08 15:09:23","新北市新店區安德街60巷35號","121.511","24.9637266666667","6500600","新店區"
"231025","4715-K9","2018/12/08 15:09:33","新北市新店區中央路238號","121.529208333333","24.972235","6500600","新店區"
"231036","512-UM","2018/12/08 15:09:33","新北市新店區安祥路104巷43號","121.482586666667","24.963445","6500600","新店區"
"231034","616-UM","2018/12/08 15:09:30","新北市新店區玫瑰路4-1號","121.493658333333","24.9513666666667","6500600","新店區"
"231030","619-UM","2018/12/08 15:09:22","新北市新店區安民街341-1號","121.516728333333","24.974865","6500600","新店區"
"231039","718-UY","2018/12/08 15:09:30","新北市新店區寶安街33號","121.541971666667","24.9824266666667","6500600","新店區"
"231035","719-UM","2018/12/08 15:09:38","新北市新店區永安街34巷9號","121.517995","24.985945","6500600","新店區"
"231012","719-UY","2018/12/08 15:09:31","新北市新店區寶元路一段61號","121.542215","24.98588","6500600","新店區"
"231033","720-UM","2018/12/08 15:09:24","新北市新店區安泰路60巷55弄125號","121.48451","24.9464433333333","6500600","新店區"
"231006","898-TW","2018/12/08 15:09:37","新北市新店區新坡一街16號","121.54889","24.96185","6500600","新店區"
"231004","899-TW","2018/12/08 15:09:33","新北市新店區建國路33巷2號","121.540301666667","24.9742","6500600","新店區"
"231024","AKT-0513","2018/12/08 15:09:33","新北市新店區中華路1號","121.541221666667","24.9671816666667","6500600","新店區"
"241013","270-UM","2018/12/08 15:09:31","新北市三重區重新路四段121號","121.485043333333","25.05209","6500200","三重區"
"235030","003-UY","2018/12/08 15:09:30","新北市中和區水源路89號","121.506908333333","25.00355","6500300","中和區"
"235004","150-BY","2018/12/08 15:08:56","新北市中和區中和路262號","121.508528333333","24.99946","6500300","中和區"
"235036","301-VK","2018/12/08 15:09:19","新北市中和區連城路144巷4弄11號","121.495708333333","24.9988683333333","6500300","中和區"
"235007","352-BY","2018/12/08 15:09:31","新北市中和區興南路二段159巷7號","121.505283333333","24.9832083333333","6500300","中和區"
"235014","4979-A6","2018/12/08 15:09:37","新北市中和區安樂路8-1號","121.511763333333","24.9918533333333","6500300","中和區"
"235034","558-UM","2018/12/08 15:09:26","新北市中和區中正路366號","121.493483333333","24.9941833333333","6500300","中和區"
"235010","733-UM","2018/12/08 15:09:29","新北市中和區忠孝街31巷13號","121.51033","24.983385","6500300","中和區"
"235026","800-TS","2018/12/08 15:09:22","新北市中和區建八路143號","121.490358333333","24.9986433333333","6500300","中和區"
"235012","896-TW","2018/12/08 15:09:32","新北市中和區興南路一段142-6號","121.508491666667","24.987215","6500300","中和區"
"235015","157-BY","2018/12/08 15:09:29","新北市中和區四維街17號","121.513123333333","24.9871566666667","6500300","中和區"
"235001","AAC-213","2018/12/08 15:09:24","新北市中和區立人街61號","121.520176666667","24.9942283333333","6500300","中和區"
"235023","AAC-215","2018/12/08 15:09:37","新北市中和區圓通路335巷37弄2號","121.493863333333","24.9892216666667","6500300","中和區"
"220013","072-UY","2018/12/08 15:09:24","新北市板橋區館前東路65號","121.46411","25.00785","6500100","板橋區"
"220105","075-UY","2018/12/08 15:09:33","新北市板橋區長江路二段313號","121.470868333333","25.0342516666667","6500100","板橋區"
"228004","212-TW","2018/12/08 15:09:35","新北市貢寮區雙玉里田寮洋街17號","121.921853333333","25.0248433333333","6502600","貢寮區"
"253003","6232-TK","2018/12/08 15:09:27","新北市石門區尖子鹿103-3號","121.580726666667","25.293585","6502200","石門區"
"253004","6251-TK","2018/12/08 15:09:27","新北市石門區小坑9號","121.594416666667","25.2891516666667","6502200","石門區"
"253002","637-UY","2018/12/08 15:08:56","新北市石門區小坑9號","121.59433","25.288415","6502200","石門區"
"253001","KEC-0718","2018/12/08 15:09:33","新北市石門區小坑9號","121.594406666667","25.28841","6502200","石門區"
"207002","749-BX","2018/12/08 15:09:26","新北市萬里區崁腳里內中福路64號","121.65505","25.167285","6502800","萬里區"
"207001","662-BX","2018/12/08 15:09:33","新北市萬里區雙興里麗水路7-2號","121.650355","25.1862383333333","6502800","萬里區"
"236068","105-UM","2018/12/08 15:09:22","新北市土城區學成路138號","121.448986666667","24.9895833333333","6501300","土城區"
"236040","KED-0685","2018/12/08 15:09:31","新北市土城區裕民路267-1號","121.455255","24.9823266666667","6501300","土城區"
"236074","166-UM","2018/12/08 15:09:35","新北市土城區中央路四段138號","121.417468333333","24.958575","6501300","土城區"
"236029","253-BX","2018/12/08 15:09:31","新北市土城區福祥街97號","121.441373333333","24.98134","6501300","土城區"
"236024","269-VK","2018/12/08 15:09:37","新北市土城區員林街1號","121.442273333333","24.9782366666667","6501300","土城區"
"236013","270-VK","2018/12/08 15:09:28","新北市土城區學府路一段99巷2號","121.456545","24.9871566666667","6501300","土城區"
"236032","271-VK","2018/12/08 15:09:21","新北市土城區國際路86號","121.46698","24.9760333333333","6501300","土城區"
"247008","KED-0683","2018/12/08 14:58:51","新北市五股區中興路三段2巷10號","121.44929","25.0810616666667","6501400","蘆洲區"
"236017","401-BY","2018/12/08 15:09:30","新北市土城區延峰街17號","121.468953333333","24.9861216666667","6501300","土城區"
"236057","912-UM","2018/12/08 15:09:23","新北市土城區金城路一段25-1號","121.439963333333","24.96925","6501300","土城區"
"236045","913-UM","2018/12/08 15:09:29","新北市土城區清水路237號","121.461343333333","24.9830333333333","6501300","土城區"
"236054","AAC-216","2018/12/08 15:09:21","新北市土城區學府路一段276號","121.449918333333","24.9830166666667","6501300","土城區"
"220030","610-BX","2018/12/08 15:09:34","新北市板橋區存德街81號","121.431896666667","24.991155","6500100","板橋區"
"220050","245-BX","2018/12/08 15:09:26","新北市板橋區雙十路二段47巷2弄16號","121.47576","25.0266233333333","6500100","板橋區"
"220020","277-BY","2018/12/08 15:09:28","新北市樹林區八德街824號","121.394465","24.9688033333333","6500100","板橋區"
"220031","286-VK","2018/12/08 15:09:35","新北市板橋區僑中二街100巷14號","121.445373333333","25.00856","6500100","板橋區"
"220029","287-VK","2018/12/08 15:09:35","新北市板橋區僑中一街102巷7弄4號","121.446681666667","25.0129916666667","6500100","板橋區"
"220009","293-UM","2018/12/08 15:09:36","新北市板橋區四川路一段288號","121.458518333333","25.0007866666667","6500100","板橋區"
"220038","487-VK","2018/12/08 15:09:25","新北市板橋區四維路290-3號","121.462896666667","25.029105","6500100","板橋區"
"220037","491-VK","2018/12/08 15:09:30","新北市板橋區民治街85號","121.479466666667","25.032095","6500100","板橋區"
"220052","561-BX","2018/12/08 15:09:25","新北市板橋區漢生東路73巷27號","121.467236666667","25.0170733333333","6500100","板橋區"
"220040","637-BX","2018/12/08 15:09:23","新北市板橋區民治街119巷7號","121.47858","25.0307083333333","6500100","板橋區"
"220005","686-BX","2018/12/08 15:09:22","新北市板橋區四川路二段245巷111號","121.45351","24.992965","6500100","板橋區"
"220025","687-BX","2018/12/08 15:09:34","新北市板橋區僑中一街124巷46-3號","121.446468333333","25.0151333333333","6500100","板橋區"
"220042","689-BX","2018/12/08 15:09:32","新北市板橋區長江路一段19號","121.458236666667","25.0289616666667","6500100","板橋區"
"220003","827-TW","2018/12/08 15:09:23","新北市板橋區忠孝路48巷11弄2號","121.461441666667","24.999775","6500100","板橋區"
"220022","895-R6","2018/12/08 15:09:24","新北市板橋區館前西路92號","121.457365","25.0072416666667","6500100","板橋區"
"220012","AAC-253","2018/12/08 15:09:28","新北市板橋區長安街331巷5號","121.474203333333","25.01224","6500100","板橋區"
