"lineid","car","time","location","longitude","latitude","cityid","cityname"
"234025","9371-KE","2018/12/08 15:19:32","新北市永和區保生路55-1號","121.504518333333","25.0109316666667","6500400","永和區"
"248017","225-UY","2018/12/08 15:19:20","新北市五股區成泰路一段126號","121.4355","25.0740983333333","6501500","五股區"
"231005","001-UM","2018/12/08 15:19:28","新北市新店區建國路233號","121.537441666667","24.9818483333333","6500600","新店區"
"231002","002-UM","2018/12/08 15:19:31","新北市新店區中正路700巷1號","121.533895","24.9912633333333","6500600","新店區"
"231028","046-UY","2018/12/08 15:19:34","新北市新店區僑信路74巷5號","121.499233333333","24.9484383333333","6500600","新店區"
"231001","047-UY","2018/12/08 15:19:36","新北市新店區北新路一段235號","121.540706666667","24.9656933333333","6500600","新店區"
"231020","108-UY","2018/12/08 15:19:22","新北市新店區永福路36-8號","121.561713333333","24.928665","6500600","新店區"
"231023","KEA-2219","2018/12/08 15:19:18","新北市新店區北新路一段64巷37號","121.54221","24.965705","6500600","新店區"
"231026","256-BX","2018/12/08 15:19:19","新北市新店區中正路265巷21號","121.537726666667","24.973145","6500600","新店區"
"231003","268-BY","2018/12/08 15:19:29","新北市新店區寶橋路230號","121.551508333333","24.97893","6500600","新店區"
"231018","278-BY","2018/12/08 15:19:19","新北市新店區中央八街67號","121.52801","24.97671","6500600","新店區"
"231017","AAD-862","2018/12/08 15:19:18","新北市新店區明山路45號","121.5638","24.95589","6500600","新店區"
"231029","355-BY","2018/12/08 15:19:26","新北市新店區安康路三段716號","121.473943333333","24.9420716666667","6500600","新店區"
"231038","3712-VJ","2018/12/08 15:19:22","新北市新店區安一路一段1-1號","121.51982","24.96118","6500600","新店區"
"231037","4716-K9","2018/12/08 15:19:23","新北市新店區安民街341-1號","121.51663","24.9750133333333","6500600","新店區"
"231025","4715-K9","2018/12/08 15:19:33","新北市新店區安康路一段156號","121.526255","24.9629916666667","6500600","新店區"
"231036","512-UM","2018/12/08 15:19:33","新北市新店區安祥路69巷51號","121.482415","24.9599","6500600","新店區"
"231034","616-UM","2018/12/08 15:19:30","新北市新店區如意街1巷2號","121.495753333333","24.9495066666667","6500600","新店區"
"231030","619-UM","2018/12/08 15:19:22","新北市新店區安民街341-1號","121.516818333333","24.97488","6500600","新店區"
"231039","718-UY","2018/12/08 15:19:30","新北市新店區寶元路一段63巷8號","121.542251666667","24.985875","6500600","新店區"
"231035","719-UM","2018/12/08 15:19:18","新北市新店區永平街23巷9號","121.516746666667","24.9829616666667","6500600","新店區"
"231012","719-UY","2018/12/08 15:19:31","新北市新店區寶慶街84號","121.541315","24.9867883333333","6500600","新店區"
"231033","720-UM","2018/12/08 15:19:24","新北市新店區雙城路2巷1號","121.491273333333","24.9512116666667","6500600","新店區"
"231006","898-TW","2018/12/08 15:19:37","新北市新店區北新路一段183號","121.540123333333","24.9643583333333","6500600","新店區"
"231004","899-TW","2018/12/08 15:19:33","新北市新店區建國路31號","121.540225","24.97411","6500600","新店區"
"231024","AKT-0513","2018/12/08 15:19:33","新北市新店區安康路一段218號","121.523895","24.9635583333333","6500600","新店區"
"241011","013-R5","2018/12/08 15:19:38","新北市三重區重新路四段121號","121.484991666667","25.0520183333333","6500200","三重區"
"241013","270-UM","2018/12/08 15:19:31","新北市三重區重新路四段121號","121.484981666667","25.0520466666667","6500200","三重區"
"235030","003-UY","2018/12/08 15:19:30","新北市中和區光華街31巷49號","121.505938333333","25.0050033333333","6500300","中和區"
"235014","4979-A6","2018/12/08 15:19:34","新北市中和區景平路464巷2弄2號","121.505836666667","24.993865","6500300","中和區"
"235026","800-TS","2018/12/08 15:19:21","新北市中和區連城路222巷9號","121.49074","24.9978883333333","6500300","中和區"
"235012","896-TW","2018/12/08 15:19:32","新北市中和區景新街377號","121.51225","24.9903766666667","6500300","中和區"
"235023","AAC-215","2018/12/08 15:19:17","新北市中和區圓通路435巷2-3號","121.486701666667","24.9867483333333","6500300","中和區"
"220013","072-UY","2018/12/08 15:19:23","新北市板橋區四川路二段140巷16弄13號","121.448645","24.99365","6500100","板橋區"
"253003","6232-TK","2018/12/08 15:19:27","新北市石門區小坑9號","121.59428","25.288735","6502200","石門區"
"253004","6251-TK","2018/12/08 15:19:27","新北市石門區小坑9號","121.594416666667","25.2883966666667","6502200","石門區"
"253002","637-UY","2018/12/08 15:19:16","新北市石門區小坑9號","121.594283333333","25.288525","6502200","石門區"
"253001","KEC-0718","2018/12/08 15:19:33","新北市石門區小坑9號","121.594385","25.288345","6502200","石門區"
"207002","749-BX","2018/12/08 15:19:33","新北市萬里區崁腳里內中福路2-1號","121.668858333333","25.1653616666667","6502800","萬里區"
"207001","662-BX","2018/12/08 15:19:33","新北市萬里區大鵬里萬里加投15-2號","121.650405","25.20927","6502800","萬里區"
"236068","105-UM","2018/12/08 15:19:22","新北市土城區裕民路185巷36弄10號","121.454336666667","24.9845716666667","6501300","土城區"
"236040","KED-0685","2018/12/08 15:19:25","新北市土城區學府路一段143巷5號","121.453896666667","24.9859833333333","6501300","土城區"
"236074","166-UM","2018/12/08 15:19:35","新北市土城區中州路27巷1號","121.413851666667","24.9576716666667","6501300","土城區"
"236029","253-BX","2018/12/08 15:19:24","新北市土城區中央路一段252號","121.444256666667","24.9846533333333","6501300","土城區"
"236024","269-VK","2018/12/08 15:19:29","新北市土城區員林街1號","121.442236666667","24.9781833333333","6501300","土城區"
"236013","270-VK","2018/12/08 15:19:21","新北市土城區廣福街68巷20號","121.45817","24.9904","6501300","土城區"
"236032","271-VK","2018/12/08 15:19:21","新北市土城區國際路52號","121.46648","24.97834","6501300","土城區"
"247008","KED-0683","2018/12/08 14:58:51","新北市五股區中興路三段2巷10號","121.44929","25.0810616666667","6501400","蘆洲區"
"236017","401-BY","2018/12/08 15:19:38","新北市土城區峰廷街3號","121.469038333333","24.9873283333333","6501300","土城區"
"236057","912-UM","2018/12/08 15:19:23","新北市土城區中央路二段246號","121.441776666667","24.974855","6501300","土城區"
"236045","913-UM","2018/12/08 15:19:26","新北市土城區明德路一段78號","121.465038333333","24.9800366666667","6501300","土城區"
"236060","915-UM","2018/12/08 15:19:39","新北市土城區延和路105巷7弄1號","121.4672","24.9913883333333","6501300","土城區"
"236054","AAC-216","2018/12/08 15:19:21","新北市土城區立德路32號","121.463356666667","24.9875416666667","6501300","土城區"
"220050","245-BX","2018/12/08 15:19:25","新北市板橋區民生路二段161巷9號","121.47018","25.0193716666667","6500100","板橋區"
"220020","277-BY","2018/12/08 15:19:28","新北市樹林區中山路三段214號","121.380021666667","24.96773","6500100","板橋區"
"220031","286-VK","2018/12/08 15:19:35","新北市板橋區僑中二街106巷27號","121.444623333333","25.0077616666667","6500100","板橋區"
"220029","287-VK","2018/12/08 15:19:35","新北市板橋區僑中一街84號","121.447358333333","25.01161","6500100","板橋區"
"220005","686-BX","2018/12/08 15:19:22","新北市板橋區四川路二段130巷1-2號","121.449941666667","24.99383","6500100","板橋區"
"220025","687-BX","2018/12/08 15:19:34","新北市板橋區大觀路一段29巷131弄125號","121.451745","25.0056383333333","6500100","板橋區"
"220003","827-TW","2018/12/08 15:19:23","新北市板橋區仁愛路45號","121.459488333333","24.9994333333333","6500100","板橋區"
"220022","895-R6","2018/12/08 15:19:24","新北市板橋區僑中一街124巷86-4號","121.448023333333","25.0183","6500100","板橋區"
