"lineid","car","time","location","longitude","latitude","cityid","cityname"
"231046","107-UY","2018/12/08 16:29:23","新北市新店區灣潭路3-3號","121.53824","24.9508183333333","6500600","新店區"
"241011","013-R5","2018/12/08 16:29:37","新北市三重區秀江街59巷3號","121.50088","25.072715","6500200","三重區"
"241028","022-UY","2018/12/08 16:29:22","新北市三重區中正南路186號","121.493976666667","25.0563316666667","6500200","三重區"
"241008","059-VK","2018/12/08 16:29:32","新北市三重區力行路二段136巷45弄12號","121.479135","25.0753916666667","6500200","三重區"
"241022","060-VK","2018/12/08 16:29:33","新北市三重區重陽路二段10號","121.486585","25.0620783333333","6500200","三重區"
"241031","061-VK","2018/12/08 16:29:19","新北市三重區重陽路一段59號","121.4867","25.0585233333333","6500200","三重區"
"241015","062-VK","2018/12/08 16:29:30","新北市三重區信義街78號","121.50171","25.065305","6500200","三重區"
"241017","063-VK","2018/12/08 16:29:27","新北市三重區重新路二段99號","121.495553333333","25.0619283333333","6500200","三重區"
"241024","065-VK","2018/12/08 16:29:34","新北市三重區中正北路207號","121.476571666667","25.0700683333333","6500200","三重區"
"241002","090-VK","2018/12/08 16:29:29","新北市三重區五華街7巷47號","121.496053333333","25.080515","6500200","三重區"
"241003","091-VK","2018/12/08 16:29:21","新北市三重區五華街71巷89號","121.4943","25.0838666666667","6500200","三重區"
"241005","262-UM","2018/12/08 16:29:34","新北市三重區溪尾街300-2號","121.487505","25.0836733333333","6500200","三重區"
"241016","265-UM","2018/12/08 16:29:33","新北市三重區自強路一段160巷2弄42號","121.494556666667","25.0657566666667","6500200","三重區"
"241009","267-UM","2018/12/08 16:29:36","新北市三重區三和路四段191巷68號","121.483831666667","25.0796266666667","6500200","三重區"
"241018","268-UM","2018/12/08 16:29:30","新北市三重區正義北路364巷23號","121.493075","25.0710433333333","6500200","三重區"
"241032","269-UM","2018/12/08 16:29:24","新北市三重區三陽路100巷3弄13號","121.482998333333","25.0581716666667","6500200","三重區"
"241013","270-UM","2018/12/08 16:29:31","新北市三重區仁愛街73號","121.496036666667","25.0728433333333","6500200","三重區"
"241025","271-UM","2018/12/08 16:29:37","新北市三重區中正北路560巷100弄17-1號","121.47273","25.068225","6500200","三重區"
"241007","398-BY","2018/12/08 16:29:22","新北市三重區三和路四段167巷141號","121.48797","25.0802816666667","6500200","三重區"
"241004","475-VK","2018/12/08 16:29:20","新北市三重區仁愛街377巷15號","121.492338333333","25.080805","6500200","三重區"
"241020","478-VK","2018/12/08 16:29:22","新北市三重區車路頭街36號","121.483838333333","25.0717016666667","6500200","三重區"
"241030","480-VK","2018/12/08 16:29:17","新北市三重區成功路96號","121.487691666667","25.051315","6500200","三重區"
"241014","543-UM","2018/12/08 16:29:36","新北市三重區河邊北街70-3號","121.50433","25.0684033333333","6500200","三重區"
"241023","545-UM","2018/12/08 16:29:29","新北市三重區中華路134號","121.483393333333","25.0641566666667","6500200","三重區"
"241001","547-UM","2018/12/08 16:29:35","新北市三重區福隆路30號","121.491733333333","25.07808","6500200","三重區"
"241019","KEA-2593","2018/12/08 16:29:17","新北市三重區重陽路三段61號","121.489773333333","25.0674083333333","6500200","三重區"
"241026","743-BX","2018/12/08 16:29:21","新北市三重區中央南路95巷25-3號","121.500376666667","25.06049","6500200","三重區"
"241006","887-TS","2018/12/08 16:29:32","新北市三重區力行路二段182-3號","121.483365","25.0776333333333","6500200","三重區"
"241012","941-UM","2018/12/08 16:29:21","新北市三重區仁興街3巷59號","121.501881666667","25.07446","6500200","三重區"
"241029","942-UM","2018/12/08 16:29:25","新北市三重區集美街126巷16號","121.489595","25.0537033333333","6500200","三重區"
"235065","911-UM","2018/12/08 16:29:28","新北市中和區員山路36巷16-2號","121.48531","24.9918433333333","6500300","中和區"
"224007","275-VK","2018/12/08 16:29:37","新北市瑞芳區大埔路23巷62號","121.763623333333","25.1020833333333","6501200","瑞芳區"
"224005","271-BY","2018/12/08 16:29:33","新北市瑞芳區中正路2號","121.809358333333","25.1071283333333","6501200","瑞芳區"
"227002","642-TC","2018/12/08 16:29:29","新北市雙溪區上林里內平林113號","121.825491666667","25.0267266666667","6502500","雙溪區"
"227010","400-TW","2018/12/08 16:29:38","新北市雙溪區三港里雙澳路12號","121.869641666667","25.04849","6502500","雙溪區"
"251013","KEA-2871","2018/12/08 16:29:32","新北市淡水區北新路三段162號","121.492403333333","25.1914916666667","6501000","淡水區"
"251016","179-VK","2018/12/08 16:29:20","新北市淡水區中正路二段31號","121.419615","25.1812133333333","6501000","淡水區"
"251008","181-VK","2018/12/08 16:29:37","新北市淡水區大同路2-1號","121.461126666667","25.1405316666667","6501000","淡水區"
"252002","178-VK","2018/12/08 16:29:25","新北市三芝區埔坪里埔頭坑41號","121.504745","25.2642483333333","6502100","三芝區"
"247008","KED-0683","2018/12/08 16:29:27","新北市五股區中興路三段2巷10號","121.449333333333","25.0808133333333","6501400","蘆洲區"
