"lineid","car","time","location","longitude","latitude","cityid","cityname"
"249005","172-UM","2018/12/08 16:59:36","新北市八里區渡船頭3-19號","121.433966666667","25.1518233333333","6502300","八里區"
"249001","173-UM","2018/12/08 16:59:37","新北市八里區中山路三段106號","121.391435","25.1424766666667","6502300","八里區"
"249004","303-UY","2018/12/08 16:59:28","新北市八里區博物館路15號","121.415108333333","25.1635166666667","6502300","八里區"
"249002","305-UY","2018/12/08 16:59:23","新北市八里區牛寮埔19-3號","121.432073333333","25.1431266666667","6502300","八里區"
"249003","593-UM","2018/12/08 16:59:33","新北市八里區中山路二段378號","121.40082","25.147915","6502300","八里區"
"244025","837-TS","2018/12/08 16:59:23","新北市林口區粉寮69號","121.40511","25.0907833333333","6501700","林口區"
"244021","838-TS","2018/12/08 16:59:40","新北市林口區粉寮路二段42號","121.403436666667","25.086835","6501700","林口區"
"231046","107-UY","2018/12/08 16:59:23","新北市新店區直潭一街82號","121.535291666667","24.93974","6500600","新店區"
"241011","013-R5","2018/12/08 16:59:37","新北市三重區仁愛街53巷72號","121.497988333333","25.0724483333333","6500200","三重區"
"241028","022-UY","2018/12/08 16:59:22","新北市三重區中正南路41巷1號","121.493863333333","25.0598533333333","6500200","三重區"
"241008","059-VK","2018/12/08 16:59:32","新北市三重區永福街179巷42號","121.47737","25.0747433333333","6500200","三重區"
"241022","060-VK","2018/12/08 16:59:41","新北市三重區中華路88號","121.483485","25.0628683333333","6500200","三重區"
"241031","061-VK","2018/12/08 16:59:25","新北市三重區重新路三段115巷4號","121.490546666667","25.0601016666667","6500200","三重區"
"241015","062-VK","2018/12/08 16:59:30","新北市三重區三和路二段1-4號","121.501666666667","25.066475","6500200","三重區"
"241017","063-VK","2018/12/08 16:59:27","新北市三重區國隆路12巷3號","121.492776666667","25.0637166666667","6500200","三重區"
"241024","065-VK","2018/12/08 16:59:40","新北市三重區國道路一段57號","121.481228333333","25.0728666666667","6500200","三重區"
"241002","090-VK","2018/12/08 16:59:29","新北市三重區五華街1巷96號","121.497406666667","25.0804666666667","6500200","三重區"
"241003","091-VK","2018/12/08 16:59:21","新北市三重區五華街141巷58號","121.493545","25.086775","6500200","三重區"
"251014","742-BX","2018/12/08 16:59:24","新北市淡水區淡金路四段476號","121.452383333333","25.223885","6501000","淡水區"
"241005","262-UM","2018/12/08 16:59:34","新北市三重區仁華街69-1號","121.484496666667","25.082785","6500200","三重區"
"241016","265-UM","2018/12/08 16:59:33","新北市三重區大同北路97-3號","121.494355","25.06381","6500200","三重區"
"241009","267-UM","2018/12/08 16:59:36","新北市三重區仁美街108巷13號","121.484973333333","25.080645","6500200","三重區"
"241018","268-UM","2018/12/08 16:59:30","新北市三重區六張街126巷2弄12號","121.492356666667","25.069445","6500200","三重區"
"241032","269-UM","2018/12/08 16:59:23","新北市三重區重陽路一段120巷16號","121.485971666667","25.0600983333333","6500200","三重區"
"241013","270-UM","2018/12/08 16:59:31","新北市三重區仁福街70號","121.498186666667","25.0747483333333","6500200","三重區"
"241025","271-UM","2018/12/08 16:59:37","新北市三重區中正北路508巷9號","121.472688333333","25.0711466666667","6500200","三重區"
"241007","398-BY","2018/12/08 16:59:22","新北市三重區三和路四段181巷250號","121.488","25.0806066666667","6500200","三重區"
"241004","475-VK","2018/12/08 16:59:40","新北市三重區五華街102號","121.49244","25.0824533333333","6500200","三重區"
"241020","478-VK","2018/12/08 16:59:21","新北市三重區後竹圍街175巷27號","121.485636666667","25.072935","6500200","三重區"
"241030","480-VK","2018/12/08 16:59:37","新北市三重區重新路四段121號","121.484725","25.0522366666667","6500200","三重區"
"241014","543-UM","2018/12/08 16:59:36","新北市三重區三和路二段173巷145號","121.501066666667","25.070675","6500200","三重區"
"241023","545-UM","2018/12/08 16:59:29","新北市三重區新北大道一段252號","121.479946666667","25.0617716666667","6500200","三重區"
"241001","547-UM","2018/12/08 16:59:35","新北市三重區仁愛街192巷1號","121.49402","25.0772066666667","6500200","三重區"
"241019","KEA-2593","2018/12/08 16:59:37","新北市三重區自強路二段74巷19號","121.487965","25.0699083333333","6500200","三重區"
"241026","743-BX","2018/12/08 16:59:21","新北市三重區光興街13號","121.50004","25.0603516666667","6500200","三重區"
"241006","887-TS","2018/12/08 16:59:32","新北市三重區車路頭街115號","121.484361666667","25.0752883333333","6500200","三重區"
"241012","941-UM","2018/12/08 16:59:21","新北市三重區仁和街82號","121.499251666667","25.0745766666667","6500200","三重區"
"241029","942-UM","2018/12/08 16:59:25","新北市三重區中正南路216號","121.493726666667","25.0551883333333","6500200","三重區"
"247006","KED-0682","2018/12/08 16:59:19","新北市蘆洲區長安街99巷34號","121.460813333333","25.0798383333333","6501400","蘆洲區"
"235046","733-UM","2018/12/08 16:39:17","新北市中和區員山路36巷13號","121.48417","24.9908116666667","6500300","中和區"
"235065","911-UM","2018/12/08 16:53:00","新北市中和區員山路36巷16-2號","121.485323333333","24.9917916666667","6500300","中和區"
"247024","500-BY","2018/12/08 16:59:31","新北市蘆洲區長興路255號","121.460488333333","25.0875016666667","6501400","蘆洲區"
"247016","336-TH","2018/12/08 16:59:33","新北市蘆洲區正和街17-1號","121.470203333333","25.0824316666667","6501400","蘆洲區"
"247020","057-VK","2018/12/08 16:59:31","新北市蘆洲區民族路422巷48弄13號","121.474221666667","25.0935733333333","6501400","蘆洲區"
"247010","056-VK","2018/12/08 16:59:41","新北市蘆洲區三民路26巷69號","121.47864","25.0832633333333","6501400","蘆洲區"
"247014","053-VK","2018/12/08 16:59:32","新北市蘆洲區得勝街69巷16號","121.473961666667","25.08348","6501400","蘆洲區"
"247018","007-UY","2018/12/08 16:59:30","新北市蘆洲區民族路227巷24弄1號","121.476438333333","25.0887933333333","6501400","蘆洲區"
"247004","002-UY","2018/12/08 16:59:25","新北市蘆洲區中原路13-5號","121.460725","25.083095","6501400","蘆洲區"
"247022","001-UY","2018/12/08 16:59:37","新北市蘆洲區三民路128巷166-1號","121.468415","25.09251","6501400","蘆洲區"
"228003","097-TW","2018/12/08 16:59:18","新北市貢寮區福隆里興隆街36號","121.942015","25.0167516666667","6502600","貢寮區"
"228001","212-TW","2018/12/08 16:59:28","新北市貢寮區貢寮里朝陽街1-2號","121.912186666667","25.0212933333333","6502600","貢寮區"
"228002","585-TW","2018/12/08 16:59:38","新北市貢寮區貢寮里朝陽街124號","121.907838333333","25.0223516666667","6502600","貢寮區"
"224006","676-BX","2018/12/08 16:59:28","新北市瑞芳區大寮路356號","121.78464","25.1030416666667","6501200","瑞芳區"
"224008","285-BY","2018/12/08 16:59:39","新北市瑞芳區明燈路一段211號","121.818388333333","25.1080216666667","6501200","瑞芳區"
"224007","275-VK","2018/12/08 16:59:37","新北市瑞芳區頂埔巷19號","121.765885","25.102985","6501200","瑞芳區"
"224009","273-VK","2018/12/08 16:59:33","新北市瑞芳區濱二路25號","121.836605","25.1123816666667","6501200","瑞芳區"
"224005","271-BY","2018/12/08 16:59:33","新北市瑞芳區明里路54號","121.86848","25.12218","6501200","瑞芳區"
"227002","642-TC","2018/12/08 16:59:29","新北市雙溪區長源里柑腳41-2號","121.802501666667","25.0127616666667","6502500","雙溪區"
"227010","400-TW","2018/12/08 16:59:32","新北市雙溪區牡丹里聖南31-1號","121.856258333333","25.0536266666667","6502500","雙溪區"
"251009","008-UM","2018/12/08 16:59:23","新北市淡水區中正路一段87巷1號","121.421723333333","25.179305","6501000","淡水區"
"251004","009-UM","2018/12/08 16:59:34","新北市淡水區中正路二段31號","121.41919","25.1817033333333","6501000","淡水區"
"251005","010-UM","2018/12/08 16:59:41","新北市淡水區中正路437號","121.431975","25.1748016666667","6501000","淡水區"
"251013","KEA-2871","2018/12/08 16:59:32","新北市淡水區泉洲厝32號","121.489273333333","25.19256","6501000","淡水區"
"251016","179-VK","2018/12/08 16:59:40","新北市淡水區瓦坑3號","121.477601666667","25.1806666666667","6501000","淡水區"
"251015","180-VK","2018/12/08 16:59:30","新北市淡水區忠愛街5-2號","121.460668333333","25.1716433333333","6501000","淡水區"
"251008","181-VK","2018/12/08 16:59:37","新北市淡水區樹梅坑9號","121.472738333333","25.1426783333333","6501000","淡水區"
"251010","413-VK","2018/12/08 16:59:33","新北市淡水區中正路二段31號","121.419431666667","25.1814916666667","6501000","淡水區"
"251012","441-VK","2018/12/08 16:59:34","新北市淡水區沙崙路216巷72號","121.426101666667","25.1850716666667","6501000","淡水區"
"251007","442-VK","2018/12/08 16:59:32","新北市淡水區中正東路一段113號","121.454101666667","25.1597433333333","6501000","淡水區"
"251006","561-UM","2018/12/08 16:59:30","新北市淡水區中正路二段31號","121.419653333333","25.1821366666667","6501000","淡水區"
"252002","178-VK","2018/12/08 16:59:25","新北市三芝區忠孝街156號","121.506198333333","25.2587466666667","6502100","三芝區"
"252001","292-VK","2018/12/08 16:59:28","新北市三芝區淡金路二段47-2號","121.503673333333","25.2605483333333","6502100","三芝區"
"247008","KED-0683","2018/12/08 16:59:27","新北市蘆洲區中山一路197巷6弄1號","121.474725","25.0803833333333","6501400","蘆洲區"
"242056","751-BX","2018/12/08 16:59:28","新北市新莊區新泰路255巷83號","121.442311666667","25.03875","6500500","新莊區"
"242027","615-BX","2018/12/08 16:59:37","新北市新莊區新泰路357巷3弄57號","121.44214","25.0392483333333","6500500","新莊區"
"242029","612-BX","2018/12/08 16:59:30","新北市新莊區新泰路357巷3弄57號","121.442268333333","25.0393383333333","6500500","新莊區"
"242044","566-BX","2018/12/08 16:59:23","新北市新莊區三和路12-21號","121.442305","25.0384333333333","6500500","新莊區"
"242048","497-BY","2018/12/08 16:59:35","新北市新莊區三和路12-10號","121.442195","25.03682","6500500","新莊區"
"242053","415-TV","2018/12/08 16:59:19","新北市新莊區新泰路255巷83號","121.442333333333","25.0389766666667","6500500","新莊區"
"242009","413-TV","2018/12/08 16:59:33","新北市新莊區新泰路357巷3弄57號","121.442221666667","25.0397533333333","6500500","新莊區"
"242046","400-BY","2018/12/08 16:59:33","新北市新莊區新泰路357巷3弄57號","121.442043333333","25.039725","6500500","新莊區"
"242019","175-VK","2018/12/08 16:59:28","新北市新莊區三和路12-21號","121.441936666667","25.03867","6500500","新莊區"
"242017","233-RS","2018/12/08 16:59:21","新北市新莊區三和路12-21號","121.442215","25.0381116666667","6500500","新莊區"
"242007","346-TH","2018/12/08 16:59:33","新北市新莊區三和路12-21號","121.44204","25.0382766666667","6500500","新莊區"
"242004","349-TH","2018/12/08 16:59:28","新北市新莊區三和路12-21號","121.442308333333","25.0383983333333","6500500","新莊區"
"242015","351-TH","2018/12/08 16:59:30","新北市新莊區新泰路357巷3弄57號","121.442103333333","25.0394816666667","6500500","新莊區"
"238015","755-BX","2018/12/08 16:59:40","新北市樹林區育德街78-1號","121.387938333333","24.9681283333333","6500700","樹林區"
"238023","601-UM","2018/12/08 16:59:40","新北市樹林區育德街78-1號","121.388018333333","24.9682816666667","6500700","樹林區"
"238019","599-UM","2018/12/08 16:59:35","新北市樹林區育德街78號","121.38767","24.96842","6500700","樹林區"
"238025","303-VK","2018/12/08 16:59:29","新北市樹林區育德街78號","121.387765","24.9683566666667","6500700","樹林區"
"238017","283-BY","2018/12/08 16:59:30","新北市樹林區育德街78號","121.387885","24.9683166666667","6500700","樹林區"
"238014","282-BY","2018/12/08 16:59:39","新北市樹林區育德街78-1號","121.387771666667","24.96814","6500700","樹林區"
"239007","AAC-297","2018/12/08 16:59:18","新北市鶯歌區二甲路13-16號","121.345393333333","24.9352133333333","6500800","鶯歌區"
"239006","891-R6","2018/12/08 16:59:29","新北市鶯歌區二甲路13-16號","121.345271666667","24.93518","6500800","鶯歌區"
"239001","417-VK","2018/12/08 16:59:32","新北市鶯歌區環河路177-3號","121.346096666667","24.9350433333333","6500800","鶯歌區"
