"lineid","car","time","location","longitude","latitude","cityid","cityname"
"234026","9371-KE","2018/12/08 17:39:25","新北市永和區永和路184-1號","121.514276666667","25.0091416666667","6500400","永和區"
"249005","172-UM","2018/12/08 17:39:39","新北市八里區荖阡坑路34-1號","121.402715","25.12988","6502300","八里區"
"249001","173-UM","2018/12/08 17:39:37","新北市八里區龍米路二段150號","121.4359","25.156625","6502300","八里區"
"249004","303-UY","2018/12/08 17:39:28","新北市八里區賢二街39號","121.418965","25.1577966666667","6502300","八里區"
"249002","305-UY","2018/12/08 17:39:23","新北市八里區石壁腳19號","121.441815","25.13537","6502300","八里區"
"249003","593-UM","2018/12/08 17:39:37","新北市八里區中山路二段181號","121.404763333333","25.150155","6502300","八里區"
"248004","677-BX","2018/12/08 17:39:32","新北市五股區中興路二段37巷28號","121.460168333333","25.074825","6501500","五股區"
"232011","375-UM","2018/12/08 17:39:38","新北市坪林區北宜路八段25號","121.703036666667","24.9361766666667","6502000","坪林區"
"244023","069-UM","2018/12/08 17:39:36","新北市林口區興林路221巷9號","121.38893","25.0716033333333","6501700","林口區"
"244007","080-UY","2018/12/08 17:39:31","新北市林口區林口路272巷8號","121.386833333333","25.0845166666667","6501700","林口區"
"244019","402-UM","2018/12/08 17:39:26","新北市林口區忠孝路563-6號","121.373368333333","25.0680216666667","6501700","林口區"
"244013","KEA-2802","2018/12/08 17:39:22","新北市林口區中正路506號","121.382083333333","25.07719","6501700","林口區"
"244017","485-VK","2018/12/08 17:39:23","新北市林口區忠孝路371-1號","121.369108333333","25.07183","6501700","林口區"
"244009","656-BX","2018/12/08 17:39:33","新北市林口區文化一路二段226號","121.384103333333","25.0825283333333","6501700","林口區"
"244011","701-TV","2018/12/08 17:39:28","新北市林口區佳林路154號","121.384175","25.0771183333333","6501700","林口區"
"244025","837-TS","2018/12/08 17:39:37","新北市林口區忠孝一路33-99號","121.363198333333","25.073105","6501700","林口區"
"244021","838-TS","2018/12/08 17:39:39","新北市林口區仁愛路一段139巷21號","121.39772","25.0716583333333","6501700","林口區"
"231046","107-UY","2018/12/08 17:39:23","新北市新店區直潭路107號","121.531521666667","24.93677","6500600","新店區"
"241015","062-VK","2018/12/08 17:39:30","新北市三重區長壽街136號","121.502588333333","25.06884","6500200","三重區"
"241017","063-VK","2018/12/08 17:39:27","新北市三重區大同北路30號","121.495331666667","25.062505","6500200","三重區"
"241024","065-VK","2018/12/08 17:39:34","新北市三重區大勇街19號","121.483051666667","25.0715616666667","6500200","三重區"
"241003","091-VK","2018/12/08 17:39:41","新北市五股區成泰路三段544-1號","121.453861666667","25.1021733333333","6500200","三重區"
"251014","742-BX","2018/12/08 17:39:24","新北市淡水區公埔子16-6號","121.479758333333","25.2255766666667","6501000","淡水區"
"241005","262-UM","2018/12/08 17:39:34","新北市三重區碧華街91號","121.48543","25.08157","6500200","三重區"
"241016","265-UM","2018/12/08 17:39:37","新北市三重區重新路二段27號","121.49793","25.0623133333333","6500200","三重區"
"241007","398-BY","2018/12/08 17:39:22","新北市三重區車路頭街77號","121.484495","25.073975","6500200","三重區"
"241004","475-VK","2018/12/08 17:38:40","新北市五股區中直路17-4號","121.422586666667","25.1114133333333","6500200","三重區"
"241030","480-VK","2018/12/08 17:39:37","新北市三重區中正南路252巷5號","121.493378333333","25.05256","6500200","三重區"
"241014","543-UM","2018/12/08 17:39:16","新北市三重區長元街98巷21弄22號","121.503266666667","25.06782","6500200","三重區"
"241023","545-UM","2018/12/08 17:39:29","新北市三重區中華路48號","121.483405","25.0615283333333","6500200","三重區"
"241019","KEA-2593","2018/12/08 17:39:37","新北市三重區六張街239號","121.487875","25.0684466666667","6500200","三重區"
"235064","005-UY","2018/12/08 17:39:24","新北市中和區員山路36巷16-2號","121.485195","24.991305","6500300","中和區"
"247012","KEA-2869","2018/12/08 17:39:34","新北市蘆洲區民權路31巷11號","121.475446666667","25.085825","6501400","蘆洲區"
"247006","KED-0682","2018/12/08 17:39:39","新北市蘆洲區長安街68巷22號","121.463931666667","25.080935","6501400","蘆洲區"
"235065","911-UM","2018/12/08 17:39:35","新北市中和區員山路36巷16-2號","121.485213333333","24.99177","6500300","中和區"
"247002","893-R6","2018/12/08 17:39:41","新北市蘆洲區環堤大道212號","121.457533333333","25.0920133333333","6501400","蘆洲區"
"247024","500-BY","2018/12/08 17:39:31","新北市蘆洲區長樂路125-1號","121.462121666667","25.08809","6501400","蘆洲區"
"247016","336-TH","2018/12/08 17:39:40","新北市蘆洲區光華路68號","121.468055","25.0828616666667","6501400","蘆洲區"
"247020","057-VK","2018/12/08 17:39:34","新北市蘆洲區民族路331-19號","121.473413333333","25.0919033333333","6501400","蘆洲區"
"247010","056-VK","2018/12/08 17:39:21","新北市蘆洲區集賢路412號","121.479876666667","25.08141","6501400","蘆洲區"
"247014","053-VK","2018/12/08 17:39:32","新北市蘆洲區中正路20號","121.471335","25.0821366666667","6501400","蘆洲區"
"247018","007-UY","2018/12/08 17:39:30","新北市蘆洲區三民路110巷45號","121.472793333333","25.088005","6501400","蘆洲區"
"247004","002-UY","2018/12/08 17:39:25","新北市蘆洲區永安南路二段306號","121.457273333333","25.0823283333333","6501400","蘆洲區"
"247022","001-UY","2018/12/08 17:39:37","新北市蘆洲區中正路315號","121.466288333333","25.0885916666667","6501400","蘆洲區"
"228003","097-TW","2018/12/08 17:39:38","新北市貢寮區仁理村仁和路41號","121.923958333333","25.0540016666667","6502600","貢寮區"
"228001","212-TW","2018/12/08 17:39:28","新北市貢寮區真理里新港街26巷28-6號","121.927676666667","25.0553966666667","6502600","貢寮區"
"228002","585-TW","2018/12/08 17:39:38","新北市貢寮區福隆里龜壽谷街12號","121.956093333333","25.0062316666667","6502600","貢寮區"
"224010","AGQ-8101","2018/12/08 17:39:33","新北市瑞芳區逢甲路91號","121.807341666667","25.1096383333333","6501200","瑞芳區"
"224006","676-BX","2018/12/08 17:39:28","新北市瑞芳區中山路326號","121.796498333333","25.1101216666667","6501200","瑞芳區"
"224008","285-BY","2018/12/08 17:39:39","新北市瑞芳區瑞柑新村2號","121.829093333333","25.10627","6501200","瑞芳區"
"224009","273-VK","2018/12/08 17:39:33","新北市瑞芳區金光路376號","121.8501","25.1112316666667","6501200","瑞芳區"
"224005","271-BY","2018/12/08 17:39:33","新北市瑞芳區海濱路8-6號","121.83168","25.1261716666667","6501200","瑞芳區"
"227002","642-TC","2018/12/08 17:39:29","新北市雙溪區共和里東榮街52號","121.86629","25.0336633333333","6502500","雙溪區"
"251009","008-UM","2018/12/08 17:39:23","新北市淡水區中正路32號","121.443903333333","25.1691833333333","6501000","淡水區"
"251004","009-UM","2018/12/08 17:39:21","新北市淡水區中正東路二段88巷37號","121.459258333333","25.1464183333333","6501000","淡水區"
"251005","010-UM","2018/12/08 17:39:41","新北市淡水區鄧公路33巷9號","121.451823333333","25.1709766666667","6501000","淡水區"
"251002","012-UM","2018/12/08 17:39:38","新北市淡水區文化路57號","121.438841666667","25.172825","6501000","淡水區"
"251013","KEA-2871","2018/12/08 17:39:32","新北市淡水區演戲埔腳11號","121.469285","25.1944933333333","6501000","淡水區"
"251016","179-VK","2018/12/08 17:39:40","新北市淡水區埤島39-15號","121.452755","25.1958766666667","6501000","淡水區"
"251015","180-VK","2018/12/08 17:39:30","新北市淡水區糞箕湖1-2號","121.482313333333","25.1705166666667","6501000","淡水區"
"251008","181-VK","2018/12/08 17:39:37","新北市淡水區八勢路一段110號","121.467173333333","25.15599","6501000","淡水區"
"251010","413-VK","2018/12/08 17:39:33","新北市淡水區淡海路280巷16號","121.419818333333","25.1896816666667","6501000","淡水區"
"251012","441-VK","2018/12/08 17:39:34","新北市淡水區北新路200巷8號","121.451768333333","25.179775","6501000","淡水區"
"251007","442-VK","2018/12/08 17:39:32","新北市淡水區民生路124巷30號","121.464133333333","25.1375683333333","6501000","淡水區"
"251006","561-UM","2018/12/08 17:39:30","新北市淡水區大信街32號","121.442046666667","25.177075","6501000","淡水區"
"251011","650-BX","2018/12/08 17:39:25","新北市淡水區小坪頂12-2號","121.486955","25.15593","6501000","淡水區"
"251003","673-BX","2018/12/08 17:39:36","新北市淡水區中山北路一段71號","121.441973333333","25.1758166666667","6501000","淡水區"
"207003","550-UM","2018/12/08 17:39:40","新北市萬里區龜吼里漁澳路64-3號","121.687885","25.1959666666667","6502800","萬里區"
"207004","225-TW","2018/12/08 17:39:31","新北市萬里區中幅里中福路18號","121.683726666667","25.1643933333333","6502800","萬里區"
"252002","178-VK","2018/12/08 17:39:25","新北市三芝區中正路二段21號","121.504366666667","25.255295","6502100","三芝區"
"252001","292-VK","2018/12/08 17:39:28","新北市三芝區淡金路二段15號","121.50243","25.25917","6502100","三芝區"
"237009","210-TH","2018/12/08 17:39:25","新北市三峽區中山路333-5號","121.359746666667","24.9376516666667","6500900","三峽區"
"237012","275-BY","2018/12/08 17:39:22","新北市三峽區中山路459巷163-3號","121.349133333333","24.9333533333333","6500900","三峽區"
"237006","5529-G3","2018/12/08 17:39:38","新北市三峽區介壽路一段552巷11號","121.38772","24.9326633333333","6500900","三峽區"
"237016","649-BX","2018/12/08 17:39:32","新北市三峽區白雞26號","121.36869","24.912425","6500900","三峽區"
"237010","706-TV","2018/12/08 17:39:24","新北市三峽區中山路157號","121.364703333333","24.9363966666667","6500900","三峽區"
"236070","105-UM","2018/12/08 17:39:40","新北市土城區中華路二段2號","121.439391666667","24.9796066666667","6501300","土城區"
"236042","KED-0685","2018/12/08 17:39:31","新北市土城區城林路6巷80號","121.438696666667","24.979675","6501300","土城區"
"236079","166-UM","2018/12/08 17:39:34","新北市土城區城林路6巷80號","121.438556666667","24.9797416666667","6501300","土城區"
"236026","269-VK","2018/12/08 17:39:26","新北市土城區城林路6巷80號","121.438543333333","24.9796066666667","6501300","土城區"
"247008","KED-0683","2018/12/08 17:39:27","新北市蘆洲區民生街127號","121.472656666667","25.07899","6501400","蘆洲區"
"242036","AAC-296","2018/12/08 17:38:51","新北市新莊區建福路69巷45號","121.428836666667","25.0276816666667","6500500","新莊區"
"242058","986-R7","2018/12/08 17:39:29","新北市新莊區中正路596號","121.42675","25.0302333333333","6500500","新莊區"
"242056","751-BX","2018/12/08 17:39:28","新北市新莊區泰豐街21號","121.448331666667","25.031715","6500500","新莊區"
"242027","615-BX","2018/12/08 17:39:37","新北市新莊區福壽街107號","121.457918333333","25.0508066666667","6500500","新莊區"
"242025","613-BX","2018/12/08 17:39:39","新北市新莊區思源路98號","121.460193333333","25.0460016666667","6500500","新莊區"
"242029","612-BX","2018/12/08 17:39:30","新北市新莊區復興路一段123號","121.449623333333","25.0431666666667","6500500","新莊區"
"242044","566-BX","2018/12/08 17:39:23","新北市新莊區富國路18號","121.418443333333","25.026395","6500500","新莊區"
"242048","497-BY","2018/12/08 17:39:34","新北市新莊區萬安街112號","121.4205","25.02216","6500500","新莊區"
"242039","442-UM","2018/12/08 17:39:24","新北市新莊區民安東路2號","121.427833333333","25.0208666666667","6500500","新莊區"
"242002","440-UM","2018/12/08 17:39:27","新北市新莊區新莊路401號","121.451028333333","25.0336933333333","6500500","新莊區"
"242053","415-TV","2018/12/08 17:39:39","新北市新莊區新樹路699巷41號","121.432991666667","25.0011766666667","6500500","新莊區"
"242009","413-TV","2018/12/08 17:39:32","新北市新莊區昌明街14巷26號","121.457355","25.0537","6500500","新莊區"
"242046","400-BY","2018/12/08 17:39:33","新北市新莊區福營路58號","121.438703333333","25.0325633333333","6500500","新莊區"
"242023","362-BY","2018/12/08 17:39:24","新北市新莊區公園路129-11號","121.457575","25.04087","6500500","新莊區"
"242061","353-BY","2018/12/08 17:39:32","新北市新莊區瓊林南路171-3號","121.433886666667","25.0112","6500500","新莊區"
"242011","132-UY","2018/12/08 17:39:37","新北市新莊區中港路599號","121.451388333333","25.052945","6500500","新莊區"
"242034","135-UY","2018/12/08 17:39:35","新北市新莊區新莊路621號","121.445605","25.03287","6500500","新莊區"
"242051","172-VK","2018/12/08 17:39:22","新北市新莊區西盛街189號","121.428878333333","25.0171683333333","6500500","新莊區"
"242013","173-VK","2018/12/08 17:39:32","新北市新莊區中誠街71號","121.450603333333","25.0477616666667","6500500","新莊區"
"242017","233-RS","2018/12/08 17:39:32","新北市新莊區復興路一段149巷21弄1號","121.450215","25.0440233333333","6500500","新莊區"
"242007","346-TH","2018/12/08 17:39:33","新北市新莊區福樂街120號","121.457065","25.0478016666667","6500500","新莊區"
"242042","347-TH","2018/12/08 17:39:26","新北市新莊區建國一路21號","121.433871666667","25.0315333333333","6500500","新莊區"
"242031","348-TH","2018/12/08 17:39:30","新北市新莊區新泰路370號","121.444228333333","25.0430066666667","6500500","新莊區"
"242004","349-TH","2018/12/08 17:39:28","新北市新莊區自立街202號","121.456783333333","25.0455266666667","6500500","新莊區"
"242021","350-TH","2018/12/08 17:39:32","新北市新莊區中華路一段118號","121.452538333333","25.0406166666667","6500500","新莊區"
"242015","351-TH","2018/12/08 17:39:30","新北市新莊區新泰路330號","121.44488","25.041905","6500500","新莊區"
"238015","755-BX","2018/12/08 17:39:40","新北市樹林區樹德街123號","121.419548333333","24.992565","6500700","樹林區"
"238023","601-UM","2018/12/08 17:39:40","新北市樹林區三福街68號","121.404905","25.0163566666667","6500700","樹林區"
"238019","599-UM","2018/12/08 17:39:35","新北市樹林區太順街34號","121.419106666667","24.9801383333333","6500700","樹林區"
"238018","571-TV","2018/12/08 17:21:44","新北市樹林區鎮前街261-1號","121.420378333333","24.9862716666667","6500700","樹林區"
"238024","5061-A6","2018/12/08 17:39:35","新北市樹林區忠孝街67巷48號","121.42535","24.9819033333333","6500700","樹林區"
"238022","KEA-2213","2018/12/08 17:39:24","新北市樹林區中華路185-1號","121.420391666667","24.981715","6500700","樹林區"
"238021","KEA-2539","2018/12/08 17:39:28","新北市樹林區柑園街一段253巷37號","121.397033333333","24.9533383333333","6500700","樹林區"
"238025","303-VK","2018/12/08 17:39:29","新北市樹林區保安街三段71-3號","121.412583333333","25.0122983333333","6500700","樹林區"
"238017","283-BY","2018/12/08 17:39:30","新北市樹林區三德街30巷16弄25號","121.413605","25.0123583333333","6500700","樹林區"
"238014","282-BY","2018/12/08 17:39:39","新北市樹林區保安街一段360巷1號","121.417865","24.998625","6500700","樹林區"
"238026","172-UY","2018/12/08 17:39:35","新北市樹林區新興街19巷36弄2號","121.40235","24.9734433333333","6500700","樹林區"
"239007","AAC-297","2018/12/08 17:39:18","新北市鶯歌區國光街62號","121.340823333333","24.95821","6500800","鶯歌區"
"239006","891-R6","2018/12/08 17:39:29","新北市鶯歌區永和街34巷12號","121.333421666667","24.9672333333333","6500800","鶯歌區"
"239008","527-UM","2018/12/08 17:39:41","新北市鶯歌區大湖路732巷33號","121.333385","24.9781266666667","6500800","鶯歌區"
"239005","526-UM","2018/12/08 17:37:00","桃園市桃園區大仁路101巷9號","121.323838333333","24.9713183333333","6500800","鶯歌區"
"239001","417-VK","2018/12/08 17:39:32","新北市鶯歌區中正三路238號","121.330183333333","24.9367766666667","6500800","鶯歌區"
"239003","360-BY","2018/12/08 17:39:33","新北市鶯歌區鶯桃路206巷54號","121.338075","24.960195","6500800","鶯歌區"
"239002","359-BY","2018/12/08 17:39:24","新北市鶯歌區育英街15號","121.346758333333","24.9552316666667","6500800","鶯歌區"
"239004","193-VK","2018/12/08 17:39:33","新北市鶯歌區三鶯路74號","121.357945","24.9428866666667","6500800","鶯歌區"
"221008","489-VK","2018/12/08 17:39:40","新北市汐止區康寧街901號","121.651291666667","25.0749733333333","6501100","汐止區"
"221015","131-UY","2018/12/08 17:39:36","新北市汐止區康寧街901號","121.650898333333","25.075245","6501100","汐止區"
"221010","269-BY","2018/12/08 17:39:33","新北市汐止區汐萬路一段418巷30號","121.650015","25.07883","6501100","汐止區"
"221032","280-BY","2018/12/08 17:39:21","新北市汐止區樟樹二路262號","121.6408","25.0679583333333","6501100","汐止區"
"221021","299-VK","2018/12/08 17:39:26","新北市汐止區汐萬路一段312號","121.650428333333","25.0752416666667","6501100","汐止區"
"221031","353-TW","2018/12/08 17:39:38","新北市汐止區汐萬路一段312號","121.650533333333","25.0753833333333","6501100","汐止區"
"221033","647-BX","2018/12/08 17:39:28","新北市汐止區橫科路407巷25弄17-5號","121.627911666667","25.0505366666667","6501100","汐止區"
"235061","KEA-2875","2018/12/08 17:17:17","新北市中和區員山路36巷16-2號","121.485273333333","24.991635","6500300","中和區"
