"lineid","car","time","location","longitude","latitude","cityid","cityname"
"234086","748-BX","2018/12/08 18:09:30","新北市永和區福和路1號","121.52638","25.009925","6500400","永和區"
"234026","9371-KE","2018/12/08 18:09:25","新北市永和區秀朗路一段10巷21號","121.51326","25.006205","6500400","永和區"
"249005","172-UM","2018/12/08 18:09:36","新北市八里區荖阡坑路15-40號","121.401671666667","25.139865","6502300","八里區"
"249001","173-UM","2018/12/08 18:09:37","新北市八里區龍米路二段26號","121.448848333333","25.1392866666667","6502300","八里區"
"249004","303-UY","2018/12/08 18:09:28","新北市八里區龍米路二段158號","121.435225","25.1578266666667","6502300","八里區"
"249002","305-UY","2018/12/08 18:09:23","新北市八里區龍米路一段356巷46號","121.45215","25.1301966666667","6502300","八里區"
"249003","593-UM","2018/12/08 18:09:33","新北市八里區松子腳4-3號","121.403","25.14421","6502300","八里區"
"248006","077-UY","2018/12/08 18:09:24","新北市五股區中興路二段81號","121.460808333333","25.0772316666667","6501500","五股區"
"248008","095-VK","2018/12/08 18:09:41","新北市蘆洲區中原路90號","121.457321666667","25.0815716666667","6501500","五股區"
"248020","225-UY","2018/12/08 18:09:29","新北市五股區成泰路三段544-1號","121.454713333333","25.1023","6501500","五股區"
"248014","261-SL","2018/12/08 18:09:43","新北市五股區成泰路一段231-13號","121.435468333333","25.0777716666667","6501500","五股區"
"248004","677-BX","2018/12/08 18:09:32","新北市五股區中興路四段39號","121.438186666667","25.0824516666667","6501500","五股區"
"248002","678-BX","2018/12/08 18:09:34","新北市五股區新五路三段2號","121.443688333333","25.0869316666667","6501500","五股區"
"248010","682-TV","2018/12/08 18:09:35","新北市五股區成泰路一段219-19號","121.434521666667","25.0776916666667","6501500","五股區"
"232011","375-UM","2018/12/08 18:09:38","新北市坪林區坪雙路一段43號","121.711795","24.9423916666667","6502000","坪林區"
"244023","069-UM","2018/12/08 18:09:25","新北市林口區隆林街139巷18號","121.383988333333","25.073855","6501700","林口區"
"244007","080-UY","2018/12/08 18:09:31","新北市林口區竹林路77號","121.388266666667","25.07924","6501700","林口區"
"244019","402-UM","2018/12/08 18:09:26","新北市林口區忠孝路581巷7號","121.374881666667","25.0689116666667","6501700","林口區"
"244013","KEA-2802","2018/12/08 18:09:22","新北市林口區林口路68巷18弄7號","121.391775","25.079765","6501700","林口區"
"244017","485-VK","2018/12/08 18:09:23","新北市林口區八德路20巷15號","121.367555","25.06775","6501700","林口區"
"244009","656-BX","2018/12/08 18:09:34","新北市林口區福林路115號","121.377571666667","25.0893166666667","6501700","林口區"
"244011","701-TV","2018/12/08 18:09:28","新北市林口區粉寮路一段53號","121.396708333333","25.0778083333333","6501700","林口區"
"244025","837-TS","2018/12/08 18:09:23","新北市林口區南勢二街152-5號","121.35879","25.0731616666667","6501700","林口區"
"244021","838-TS","2018/12/08 18:09:39","新北市林口區自強八街1號","121.400613333333","25.0765183333333","6501700","林口區"
"243013","AAD-798","2018/12/08 18:09:39","新北市泰山區南林路99巷1-1號","121.415495","25.051135","6501600","泰山區"
"222003","436-BY","2018/12/08 18:09:36","新北市深坑區阿柔洋43號","121.612426666667","24.9980183333333","6501800","深坑區"
"222002","659-BX","2018/12/08 18:09:28","新北市深坑區文化街37號","121.619108333333","25.0015683333333","6501800","深坑區"
"231041","002-UM","2018/12/08 18:09:38","新北市新店區安華路28-1號","121.519616666667","24.9608166666667","6500600","新店區"
"231059","046-UY","2018/12/08 18:09:43","新北市新店區安華路28-1號","121.519601666667","24.960855","6500600","新店區"
"231040","047-UY","2018/12/08 18:09:31","新北市新店區安華路28-1號","121.519176666667","24.9608966666667","6500600","新店區"
"231046","107-UY","2018/12/08 18:09:22","新北市新店區直潭七街60號","121.532255","24.9397916666667","6500600","新店區"
"231052","108-UY","2018/12/08 18:09:36","新北市新店區安華路28-1號","121.519516666667","24.960885","6500600","新店區"
"231054","KEA-2219","2018/12/08 18:09:30","新北市新店區安一路一段1-1號","121.519893333333","24.961145","6500600","新店區"
"231050","AAD-862","2018/12/08 18:09:29","新北市新店區安華路28-1號","121.52013","24.9610166666667","6500600","新店區"
"231060","355-BY","2018/12/08 18:09:22","新北市新店區安一路一段1-1號","121.518826666667","24.9611383333333","6500600","新店區"
"231058","3713-VJ","2018/12/08 18:09:20","新北市新店區安華路28-1號","121.519208333333","24.96066","6500600","新店區"
"231066","4716-K9","2018/12/08 18:09:32","新北市新店區安一路一段1-1號","121.51931","24.9612183333333","6500600","新店區"
"231056","4715-K9","2018/12/08 18:09:24","新北市新店區安康路一段96號","121.527546666667","24.9622383333333","6500600","新店區"
"231065","512-UM","2018/12/08 18:09:24","新北市新店區安一路一段1-1號","121.519123333333","24.9611783333333","6500600","新店區"
"231049","513-UM","2018/12/08 18:09:43","新北市新店區安一路一段1-1號","121.519606666667","24.9612133333333","6500600","新店區"
"231063","616-UM","2018/12/08 18:09:35","新北市新店區安華路1-1號","121.519458333333","24.960305","6500600","新店區"
"231064","719-UM","2018/12/08 18:09:29","新北市新店區安一路一段1-1號","121.51936","24.96126","6500600","新店區"
"231048","719-UY","2018/12/08 18:09:38","新北市新店區安一路一段1-1號","121.519721666667","24.9613583333333","6500600","新店區"
"231062","720-UM","2018/12/08 18:09:22","新北市新店區安一路一段1-1號","121.519245","24.96119","6500600","新店區"
"231045","898-TW","2018/12/08 18:09:32","新北市新店區安華路28-1號","121.519248333333","24.960715","6500600","新店區"
"231043","899-TW","2018/12/08 18:09:35","新北市新店區安一路一段1-1號","121.519036666667","24.9609733333333","6500600","新店區"
"231055","AKT-0513","2018/12/08 18:09:35","新北市新店區安華路1-1號","121.519538333333","24.9604166666667","6500600","新店區"
"241024","065-VK","2018/12/08 18:09:34","新北市三重區中正北路193巷28號","121.475906666667","25.0707333333333","6500200","三重區"
"251014","742-BX","2018/12/08 18:09:24","新北市淡水區南平15號","121.488491666667","25.2189866666667","6501000","淡水區"
"241033","557-UM","2018/12/08 17:58:34","新北市三重區重新路五段509-1號","121.471781666667","25.04639","6500200","三重區"
"235064","005-UY","2018/12/08 18:09:23","新北市中和區中正路133號","121.499583333333","24.9935516666667","6500300","中和區"
"235056","096-UM","2018/12/08 18:09:22","新北市中和區中正路637巷52弄1號","121.485398333333","24.9933683333333","6500300","中和區"
"235039","097-UM","2018/12/08 18:09:25","新北市中和區員山路36巷16-2號","121.48535","24.99181","6500300","中和區"
"235058","151-BY","2018/12/08 18:09:32","新北市中和區圓通路367巷33弄6-1號","121.493053333333","24.9856016666667","6500300","中和區"
"235038","185-VK","2018/12/08 18:09:38","新北市中和區景平路103號","121.517088333333","24.9919516666667","6500300","中和區"
"235067","255-BX","2018/12/08 17:47:27","新北市中和區和城路一段271巷1號","121.485646666667","24.9918483333333","6500300","中和區"
"235042","KEA-2878","2018/12/08 18:09:26","新北市中和區圓通路141巷48弄15號","121.498181666667","24.9937583333333","6500300","中和區"
"247012","KEA-2869","2018/12/08 18:09:34","新北市蘆洲區中山二路237號","121.470138333333","25.0800416666667","6501400","蘆洲區"
"235050","4979-A6","2018/12/08 18:09:32","新北市中和區錦和路350-1號","121.490181666667","24.993575","6500300","中和區"
"235070","558-UM","2018/12/08 18:09:35","新北市中和區圓通路207號","121.496988333333","24.99439","6500300","中和區"
"235045","565-BX","2018/12/08 18:09:25","新北市中和區中正路277號","121.495273333333","24.993655","6500300","中和區"
"235054","640-BX","2018/12/08 18:09:27","新北市中和區莒光路185號","121.472576666667","24.99901","6500300","中和區"
"235060","647-TV","2018/12/08 18:09:34","新北市中和區員山路72號","121.480948333333","24.9936533333333","6500300","中和區"
"235047","732-UM","2018/12/08 18:09:24","新北市中和區錦和路350-1號","121.49014","24.9935266666667","6500300","中和區"
"235046","733-UM","2018/12/08 18:09:26","新北市中和區員山路36巷13號","121.484103333333","24.9909616666667","6500300","中和區"
"235062","800-TS","2018/12/08 18:09:30","新北市中和區中山路二段369號","121.487505","25.0048283333333","6500300","中和區"
"235057","801-TS","2018/12/08 18:09:36","新北市中和區連城路314號","121.483533333333","24.9961966666667","6500300","中和區"
"235052","805-TS","2018/12/08 18:09:28","新北市中和區錦和路350-1號","121.490445","24.9935616666667","6500300","中和區"
"235065","911-UM","2018/12/08 18:09:35","新北市中和區莊敬路49巷18號","121.501693333333","25.0061583333333","6500300","中和區"
"235051","157-BY","2018/12/08 18:09:26","新北市中和區中正路169號","121.498126666667","24.9935933333333","6500300","中和區"
"235037","AAC-213","2018/12/08 18:09:16","新北市中和區景平路149號","121.513913333333","24.99207","6500300","中和區"
"247002","893-R6","2018/12/08 18:09:28","新北市蘆洲區永平街32巷69弄31號","121.458753333333","25.0938433333333","6501400","蘆洲區"
"226004","312-R5","2018/12/08 18:09:36","新北市平溪區白石里白石腳21號","121.720568333333","25.0216633333333","6502400","平溪區"
"228003","097-TW","2018/12/08 18:09:38","新北市貢寮區真理里美艷山街6-2號","121.928878333333","25.0606483333333","6502600","貢寮區"
"228001","212-TW","2018/12/08 18:09:28","新北市貢寮區真理里新港街26巷55弄2-1號","121.927363333333","25.0528533333333","6502600","貢寮區"
"228002","585-TW","2018/12/08 18:09:38","新北市貢寮區福連里馬崗街4-1號","121.999836666667","25.01298","6502600","貢寮區"
"224006","676-BX","2018/12/08 18:09:39","新北市瑞芳區中山路174號","121.801751666667","25.106575","6501200","瑞芳區"
"224008","285-BY","2018/12/08 18:09:39","新北市瑞芳區國中新村27號","121.81703","25.1075816666667","6501200","瑞芳區"
"224007","275-VK","2018/12/08 18:09:37","新北市瑞芳區四腳亭坑路2-4號","121.77601","25.109325","6501200","瑞芳區"
"224009","273-VK","2018/12/08 18:09:32","新北市瑞芳區金光路115號","121.853573333333","25.106255","6501200","瑞芳區"
"224005","271-BY","2018/12/08 18:09:33","新北市瑞芳區深澳路11號","121.816611666667","25.12899","6501200","瑞芳區"
"227002","642-TC","2018/12/08 18:09:29","新北市雙溪區共和里東榮街29號","121.866051666667","25.0336033333333","6502500","雙溪區"
"253006","032-BX","2018/12/08 18:09:24","新北市石門區老梅路52巷21號","121.546438333333","25.2885583333333","6502200","石門區"
"253005","295-VK","2018/12/08 18:09:29","新北市石門區福安街39號","121.568533333333","25.2920816666667","6502200","石門區"
"222001","KEA-2212","2018/12/08 18:09:40","新北市深坑區北深路二段190號","121.613831666667","25.0023166666667","6501800","深坑區"
"208002","KEA-2872","2018/12/08 18:09:41","新北市金山區三界壇路99巷5號","121.621963333333","25.2288083333333","6502700","金山區"
"208003","665-BX","2018/12/08 18:09:32","新北市金山區磺港里磺港路171-1號","121.64368","25.2236566666667","6502700","金山區"
"208001","761-BX","2018/12/08 18:09:38","新北市金山區磺港里磺港路114號","121.646178333333","25.2266233333333","6502700","金山區"
"251009","008-UM","2018/12/08 18:09:23","新北市淡水區大忠街34巷10號","121.443465","25.1755416666667","6501000","淡水區"
"251004","009-UM","2018/12/08 18:09:20","新北市淡水區民權路187巷69號","121.461288333333","25.134385","6501000","淡水區"
"251005","010-UM","2018/12/08 18:09:21","新北市淡水區水源街一段139號","121.447151666667","25.1719166666667","6501000","淡水區"
"251001","011-UM","2018/12/08 18:09:28","新北市淡水區自立路10號","121.463066666667","25.1298083333333","6501000","淡水區"
"251002","012-UM","2018/12/08 18:09:38","新北市淡水區中正東路一段87-2號","121.452955","25.1618833333333","6501000","淡水區"
"251013","KEA-2871","2018/12/08 18:09:32","新北市淡水區口湖子6號","121.476213333333","25.191405","6501000","淡水區"
"251016","179-VK","2018/12/08 18:09:20","新北市淡水區下圭柔山15號","121.453188333333","25.2022233333333","6501000","淡水區"
"251015","180-VK","2018/12/08 18:09:30","新北市淡水區興福寮88巷1號","121.485348333333","25.1648966666667","6501000","淡水區"
"251008","181-VK","2018/12/08 18:09:37","新北市淡水區淡金路12-3號","121.458216666667","25.1604283333333","6501000","淡水區"
"251010","413-VK","2018/12/08 18:09:33","新北市淡水區中正路二段50巷10號","121.41987","25.1833816666667","6501000","淡水區"
"251012","441-VK","2018/12/08 18:09:34","新北市淡水區北新路三段167號","121.490055","25.190695","6501000","淡水區"
"251006","561-UM","2018/12/08 18:09:30","新北市淡水區新民街79號","121.438208333333","25.17678","6501000","淡水區"
"251011","650-BX","2018/12/08 18:09:25","新北市淡水區三空泉9-1號","121.47409","25.1617166666667","6501000","淡水區"
"251003","673-BX","2018/12/08 18:09:36","新北市淡水區大忠街113巷24號","121.447395","25.1774566666667","6501000","淡水區"
"207003","550-UM","2018/12/08 18:09:40","新北市萬里區野柳里港西路70-3號","121.685438333333","25.204705","6502800","萬里區"
"207004","225-TW","2018/12/08 18:09:39","新北市萬里區中幅里中福路100號","121.675366666667","25.16988","6502800","萬里區"
"252002","178-VK","2018/12/08 18:09:25","新北市三芝區中山路二段38號","121.502951666667","25.25518","6502100","三芝區"
"252003","249-BX","2018/12/08 18:09:23","新北市三芝區埔頭里埔頭37號","121.498436666667","25.26032","6502100","三芝區"
"252001","292-VK","2018/12/08 18:09:28","新北市三芝區中興街二段2號","121.498428333333","25.2566266666667","6502100","三芝區"
"237004","KEA-2597","2018/12/08 18:09:25","新北市三峽區大埔路317號","121.36819","24.9011966666667","6500900","三峽區"
"237007","153-BY","2018/12/08 18:09:29","新北市三峽區中正路二段370巷75號","121.364403333333","24.9114516666667","6500900","三峽區"
"237009","210-TH","2018/12/08 18:09:36","新北市三峽區大仁路50巷22號","121.365506666667","24.9383183333333","6500900","三峽區"
"237013","252-BX","2018/12/08 18:09:24","新北市三峽區長泰街78巷3號","121.376658333333","24.9336333333333","6500900","三峽區"
"237012","275-BY","2018/12/08 18:09:22","新北市三峽區民生街1巷6-8號","121.377191666667","24.935795","6500900","三峽區"
"237008","302-VK","2018/12/08 18:09:33","新北市三峽區白雞58-2號","121.383786666667","24.910495","6500900","三峽區"
"237006","5529-G3","2018/12/08 18:09:38","新北市三峽區溪東路34巷19號","121.400321666667","24.934215","6500900","三峽區"
"237011","KEA-2596","2018/12/08 18:09:42","新北市三峽區大同路11-1號","121.377263333333","24.928825","6500900","三峽區"
"237016","649-BX","2018/12/08 18:09:32","新北市三峽區紫新路36巷1號","121.42202","24.922205","6500900","三峽區"
"237010","706-TV","2018/12/08 18:09:24","新北市三峽區民族街158號","121.368891666667","24.9281283333333","6500900","三峽區"
"237005","AKY-6261","2018/12/08 18:09:28","新北市三峽區忠孝街3號","121.370756666667","24.934605","6500900","三峽區"
"236070","105-UM","2018/12/08 18:09:40","新北市土城區青雲路454號","121.459386666667","24.9700533333333","6501300","土城區"
"236042","KED-0685","2018/12/08 18:09:31","新北市土城區城林路6巷80號","121.438695","24.979685","6501300","土城區"
"236079","166-UM","2018/12/08 18:09:34","新北市土城區永寧路35號","121.430276666667","24.9623183333333","6501300","土城區"
"236030","253-BX","2018/12/08 18:09:32","新北市土城區城林路6巷80號","121.43864","24.9796233333333","6501300","土城區"
"236026","269-VK","2018/12/08 18:09:26","新北市土城區承天路20號","121.439565","24.963405","6501300","土城區"
"236014","270-VK","2018/12/08 18:09:26","新北市土城區員福街20號","121.441531666667","24.9786","6501300","土城區"
"236038","271-VK","2018/12/08 18:09:33","新北市土城區青雲路449號","121.458923333333","24.975065","6501300","土城區"
"236021","401-BY","2018/12/08 18:09:40","新北市土城區城林路6巷80號","121.43867","24.9796933333333","6501300","土城區"
"236059","912-UM","2018/12/08 18:09:25","新北市土城區中央路四段246號","121.415206666667","24.9569733333333","6501300","土城區"
"236049","913-UM","2018/12/08 18:09:20","新北市土城區金城路二段10號","121.449088333333","24.9771766666667","6501300","土城區"
"236063","915-UM","2018/12/08 18:09:39","新北市土城區金城路二段48號","121.451283333333","24.9788783333333","6501300","土城區"
"236055","AAC-216","2018/12/08 18:09:37","新北市土城區城林路6巷80號","121.438346666667","24.97956","6501300","土城區"
"242036","AAC-296","2018/12/08 18:09:38","新北市新莊區後港一路49巷3弄2號","121.425698333333","25.0269283333333","6500500","新莊區"
"242058","986-R7","2018/12/08 18:09:29","新北市新莊區新北大道七段239號","121.412961666667","25.0296983333333","6500500","新莊區"
"242056","751-BX","2018/12/08 18:09:28","新北市新莊區豐年街55-4號","121.446636666667","25.0311133333333","6500500","新莊區"
"242027","615-BX","2018/12/08 18:09:37","新北市新莊區幸福路515號","121.455633333333","25.0492933333333","6500500","新莊區"
"242025","613-BX","2018/12/08 18:09:37","新北市新莊區五工二路94巷26號","121.460163333333","25.0674466666667","6500500","新莊區"
"242029","612-BX","2018/12/08 18:09:30","新北市新莊區中平路202-1號","121.444841666667","25.0488183333333","6500500","新莊區"
"242044","566-BX","2018/12/08 18:09:23","新北市新莊區雙鳳路82號","121.414948333333","25.0276766666667","6500500","新莊區"
"242048","497-BY","2018/12/08 18:09:34","新北市新莊區富國路156號","121.423256666667","25.0249016666667","6500500","新莊區"
"242039","442-UM","2018/12/08 18:09:24","新北市新莊區民安東路51號","121.429696666667","25.0208066666667","6500500","新莊區"
"242002","440-UM","2018/12/08 18:09:27","新北市新莊區新莊路203號","121.45558","25.0355566666667","6500500","新莊區"
"242053","415-TV","2018/12/08 18:09:39","新北市新莊區民安西路329號","121.427685","25.0110566666667","6500500","新莊區"
"242009","413-TV","2018/12/08 18:09:33","新北市新莊區昌平街71巷13號","121.453851666667","25.05344","6500500","新莊區"
"242046","400-BY","2018/12/08 18:09:33","新北市新莊區福營路233號","121.429901666667","25.0297666666667","6500500","新莊區"
"242061","353-BY","2018/12/08 18:09:30","新北市新莊區新樹路79號","121.437763333333","25.0275183333333","6500500","新莊區"
"242011","132-UY","2018/12/08 18:09:37","新北市新莊區中信街101號","121.447736666667","25.05358","6500500","新莊區"
"242034","135-UY","2018/12/08 18:09:35","新北市新莊區中正路377巷8號","121.446191666667","25.03418","6500500","新莊區"
"242051","172-VK","2018/12/08 18:09:08","新北市新莊區民本街11巷2弄34號","121.429366666667","25.0199016666667","6500500","新莊區"
"242017","233-RS","2018/12/08 18:09:32","新北市新莊區中港路307號","121.452783333333","25.04468","6500500","新莊區"
"242007","346-TH","2018/12/08 18:09:33","新北市新莊區自重街2號","121.453398333333","25.047495","6500500","新莊區"
"242042","347-TH","2018/12/08 18:09:26","新北市新莊區明志路19號","121.420065","25.0291733333333","6500500","新莊區"
"242031","348-TH","2018/12/08 18:09:30","新北市新莊區新泰路277巷46號","121.443668333333","25.0401516666667","6500500","新莊區"
"242004","349-TH","2018/12/08 18:09:28","新北市新莊區自立街80號","121.454488333333","25.0453316666667","6500500","新莊區"
"242021","350-TH","2018/12/08 18:09:35","新北市新莊區新興街112號","121.450645","25.0392416666667","6500500","新莊區"
"242015","351-TH","2018/12/08 18:09:30","新北市新莊區中平路152巷45號","121.446698333333","25.0474716666667","6500500","新莊區"
"238015","755-BX","2018/12/08 18:09:20","新北市樹林區文化街120巷21號","121.416285","24.9902733333333","6500700","樹林區"
"238023","601-UM","2018/12/08 18:09:20","新北市樹林區三福街62號","121.40506","25.0162433333333","6500700","樹林區"
"238019","599-UM","2018/12/08 18:09:35","新北市樹林區水源街32巷76號","121.424803333333","24.9802116666667","6500700","樹林區"
"238018","571-TV","2018/12/08 18:08:20","新北市樹林區樹新路109號","121.428028333333","24.9958616666667","6500700","樹林區"
"238022","KEA-2213","2018/12/08 18:09:24","新北市樹林區太平路150巷19號","121.417671666667","24.9775933333333","6500700","樹林區"
"238021","KEA-2539","2018/12/08 18:09:28","新北市樹林區柑園街二段149巷2號","121.382231666667","24.95377","6500700","樹林區"
"238025","303-VK","2018/12/08 18:09:29","新北市樹林區保安街一段327-2號","121.417561666667","24.9984566666667","6500700","樹林區"
"238017","283-BY","2018/12/08 18:09:30","新北市樹林區中正路654號","121.40973","25.01654","6500700","樹林區"
"238014","282-BY","2018/12/08 18:09:39","新北市樹林區潭興街22號","121.4252","24.9988616666667","6500700","樹林區"
"238020","268-VK","2018/12/08 18:09:42","新北市樹林區三俊街129號","121.418091666667","25.0155416666667","6500700","樹林區"
"238026","172-UY","2018/12/08 18:09:35","新北市樹林區佳園路一段50號","121.39285","24.970665","6500700","樹林區"
"238016","169-UY","2018/12/08 18:08:45","新北市樹林區文化街10巷23號","121.420618333333","24.9879266666667","6500700","樹林區"
"239007","AAC-297","2018/12/08 18:09:38","新北市鶯歌區尖山埔路102號","121.347336666667","24.95116","6500800","鶯歌區"
"239006","891-R6","2018/12/08 18:09:35","新北市鶯歌區鶯桃路383號","121.333535","24.963595","6500800","鶯歌區"
"239008","527-UM","2018/12/08 18:09:21","新北市鶯歌區國際一路179號","121.336258333333","24.9765333333333","6500800","鶯歌區"
"239005","526-UM","2018/12/08 18:09:40","新北市鶯歌區鶯桃路668巷74-1號","121.329993333333","24.9717283333333","6500800","鶯歌區"
"239001","417-VK","2018/12/08 18:09:32","新北市鶯歌區高職東街3巷62號","121.3408","24.9427383333333","6500800","鶯歌區"
"239003","360-BY","2018/12/08 18:09:33","新北市鶯歌區福安街58號","121.335565","24.96524","6500800","鶯歌區"
"239002","359-BY","2018/12/08 18:09:24","新北市鶯歌區光明街96號","121.346255","24.9558183333333","6500800","鶯歌區"
"239004","193-VK","2018/12/08 18:09:38","新北市鶯歌區尖山路164-2號","121.345828333333","24.948145","6500800","鶯歌區"
"221008","489-VK","2018/12/08 18:09:40","新北市汐止區康寧街362號","121.628515","25.06766","6501100","汐止區"
"221036","130-UY","2018/12/08 18:09:40","新北市汐止區長安路5號","121.667693333333","25.0775383333333","6501100","汐止區"
"221015","131-UY","2018/12/08 18:09:36","新北市汐止區鄉長路二段90號","121.666471666667","25.08499","6501100","汐止區"
"221010","269-BY","2018/12/08 18:09:33","新北市汐止區汐萬路二段275巷1弄2號","121.64556","25.0888433333333","6501100","汐止區"
"221012","278-VK","2018/12/08 18:09:20","新北市汐止區保長路37巷42號","121.674166666667","25.0798616666667","6501100","汐止區"
"221023","279-VK","2018/12/08 18:09:37","新北市汐止區明峰街183號","121.6284","25.069865","6501100","汐止區"
"221032","280-BY","2018/12/08 18:09:41","新北市汐止區力行街15號","121.617083333333","25.050875","6501100","汐止區"
"221027","281-BY","2018/12/08 18:09:36","新北市汐止區大同路二段585號","121.663638333333","25.0702633333333","6501100","汐止區"
"221029","298-VK","2018/12/08 18:09:40","新北市汐止區樟樹二路134號","121.639841666667","25.0656866666667","6501100","汐止區"
"221021","299-VK","2018/12/08 18:09:26","新北市汐止區龍安路204號","121.652628333333","25.0630833333333","6501100","汐止區"
"221031","353-TW","2018/12/08 18:09:38","新北市汐止區中興路142號","121.632756666667","25.06441","6501100","汐止區"
"221035","622-UM","2018/12/08 18:09:39","新北市汐止區大同路二段316號","121.65571","25.06691","6501100","汐止區"
"221025","623-UM","2018/12/08 18:09:32","新北市汐止區秀峰路151巷1號","121.660853333333","25.06195","6501100","汐止區"
"221038","646-BX","2018/12/08 18:09:39","新北市汐止區復興路119號","121.65968","25.0608433333333","6501100","汐止區"
"221033","647-BX","2018/12/08 18:09:28","新北市汐止區林森街3號","121.621171666667","25.0410016666667","6501100","汐止區"
"221002","707-TV","2018/12/08 18:09:38","新北市汐止區福德一路201巷2號","121.635398333333","25.06544","6501100","汐止區"
"221018","753-BX","2018/12/08 18:09:37","新北市汐止區忠孝東路390號","121.665625","25.0704133333333","6501100","汐止區"
"224002","257-TC","2018/12/08 18:09:27","新北市瑞芳區三爪子坑路149巷22-12號","121.811561666667","25.1059466666667","6501200","瑞芳區"
"242019","280-VK","2018/12/08 18:09:32","新北市新莊區明中街45-2號","121.457453333333","25.0392933333333","6500500","新莊區"
"235068","KEA-2873","2018/12/08 18:09:20","新北市中和區員山路36巷16-3號","121.485128333333","24.9911833333333","6500300","中和區"
"235061","KEA-2875","2018/12/08 18:09:18","新北市中和區莒光路213號","121.469015","24.9946366666667","6500300","中和區"
