"lineid","car","time","location","longitude","latitude","cityid","cityname"
"234038","336-UY","2018/12/08 20:19:39","新北市永和區民樂街31巷19弄1號","121.528555","25.0022816666667","6500400","永和區"
"234064","337-UY","2018/12/08 20:19:35","新北市永和區得和路164號","121.519386666667","25.000125","6500400","永和區"
"234070","552-UM","2018/12/08 20:19:37","新北市永和區永寧街115巷1號","121.518306666667","25.006165","6500400","永和區"
"234081","553-UM","2018/12/08 20:19:37","新北市永和區福和路7巷10弄7號","121.524871666667","25.0075383333333","6500400","永和區"
"234017","745-BX","2018/12/08 20:19:37","新北市永和區仁愛路9號","121.514746666667","25.0134466666667","6500400","永和區"
"234030","746-BX","2018/12/08 20:19:30","新北市永和區民有街25巷10號","121.51745","24.9965066666667","6500400","永和區"
"234054","KEA-2590","2018/12/08 20:19:42","新北市永和區光復街2巷29號","121.517358333333","25.0167016666667","6500400","永和區"
"234013","KEA-2591","2018/12/08 20:19:45","新北市永和區中山路一段275號","121.507118333333","25.0071083333333","6500400","永和區"
"234061","AAD-866","2018/12/08 20:19:32","新北市永和區得和路11號","121.515266666667","25.000655","6500400","永和區"
"234086","748-BX","2018/12/08 20:19:30","新北市永和區永和路二段168號","121.515395","25.013055","6500400","永和區"
"234042","862-TW","2018/12/08 20:19:08","新北市永和區雙和街20巷1號","121.509166666667","25.002175","6500400","永和區"
"234050","863-TW","2018/12/08 20:19:39","新北市永和區文化路187號","121.509555","25.0170683333333","6500400","永和區"
"249001","173-UM","2018/12/08 20:19:27","新北市八里區中華路二段538-1號","121.399085","25.1450083333333","6502300","八里區"
"249004","303-UY","2018/12/08 20:19:40","新北市八里區中山路一段129巷19-1號","121.414015","25.1586466666667","6502300","八里區"
"249002","305-UY","2018/12/08 20:19:43","新北市八里區龍米路一段348-2號","121.451491666667","25.13095","6502300","八里區"
"249003","593-UM","2018/12/08 20:19:32","新北市八里區中山路二段447巷7號","121.396923333333","25.1455183333333","6502300","八里區"
"248016","026-BX","2018/12/08 20:19:31","新北市五股區凌雲路一段158巷18號","121.448406666667","25.103455","6501500","五股區"
"248012","247-BX","2018/12/08 20:19:44","新北市五股區六合街21號","121.431073333333","25.0886483333333","6501500","五股區"
"248014","261-SL","2018/12/08 20:19:38","新北市八里區中山路三段112號","121.387178333333","25.1461116666667","6501500","五股區"
"248002","678-BX","2018/12/08 20:17:54","新北市五股區成泰路三段169號","121.445246666667","25.0918816666667","6501500","五股區"
"234023","9380-KE","2018/12/08 20:19:38","新北市永和區中正路654巷17號","121.517278333333","25.0086116666667","6500400","永和區"
"234077","969-R7","2018/12/08 20:19:39","新北市永和區中正路102號","121.514368333333","24.9958416666667","6500400","永和區"
"234074","AAC-211","2018/12/08 20:19:25","新北市永和區豫溪街160巷1號","121.523295","25.00956","6500400","永和區"
"234067","AAC-212","2018/12/08 20:19:36","新北市永和區保平路232號","121.509343333333","25.00556","6500400","永和區"
"234003","AAC-295","2018/12/08 20:19:43","新北市永和區自強街6巷1弄1號","121.514345","25.008","6500400","永和區"
"243013","AAD-798","2018/12/08 20:19:40","新北市泰山區新民路28號","121.426805","25.0445833333333","6501600","泰山區"
"243009","297-R6","2018/12/08 20:19:30","新北市泰山區福泰街13號","121.432683333333","25.0603216666667","6501600","泰山區"
"243016","KEA-2801","2018/12/08 20:19:43","新北市泰山區明志路三段22號","121.424731666667","25.0430566666667","6501600","泰山區"
"243015","421-VK","2018/12/08 20:19:26","新北市泰山區仁德路133號","121.432386666667","25.055975","6501600","泰山區"
"243011","KEA-2215","2018/12/08 20:19:31","新北市泰山區壽山路134巷18號","121.418311666667","25.031025","6501600","泰山區"
"243010","KEA-2216","2018/12/08 20:19:36","新北市泰山區明志路二段255巷10號","121.427718333333","25.0473433333333","6501600","泰山區"
"243012","646-TV","2018/12/08 20:19:35","新北市泰山區楓江路83巷1號","121.436811666667","25.0635516666667","6501600","泰山區"
"243014","680-BX","2018/12/08 20:19:33","新北市泰山區泰林路二段262號","121.431645","25.0623466666667","6501600","泰山區"
"222003","436-BY","2018/12/08 20:19:41","新北市深坑區文化街43號","121.617493333333","25.0018916666667","6501800","深坑區"
"222002","659-BX","2018/12/08 20:19:36","新北市深坑區萬福路75巷28號","121.598941666667","25.0097316666667","6501800","深坑區"
"231044","001-UM","2018/12/08 20:19:24","新北市新店區北新路三段126號","121.54166","24.981755","6500600","新店區"
"231041","002-UM","2018/12/08 20:19:38","新北市新店區民權路42-1號","121.540355","24.9828916666667","6500600","新店區"
"231059","046-UY","2018/12/08 20:19:22","新北市新店區安德街62號","121.510681666667","24.9620283333333","6500600","新店區"
"231040","047-UY","2018/12/08 20:19:31","新北市新店區中正路218號","121.540361666667","24.972545","6500600","新店區"
"231052","108-UY","2018/12/08 20:19:36","新北市新店區松林路6-6號","121.546928333333","24.9111616666667","6500600","新店區"
"231054","KEA-2219","2018/12/08 20:19:30","新北市新店區檳榔路55號","121.543325","24.9628166666667","6500600","新店區"
"231057","256-BX","2018/12/08 20:19:42","新北市新店區花園七路一段14號","121.553998333333","24.934905","6500600","新店區"
"231042","268-BY","2018/12/08 20:19:39","新北市新店區中興路二段100巷2號","121.547351666667","24.9712666666667","6500600","新店區"
"231051","278-BY","2018/12/08 20:19:41","新北市新店區溪園路459號","121.52521","24.9773","6500600","新店區"
"231050","AAD-862","2018/12/08 20:19:29","新北市新店區博愛街21號","121.541323333333","24.9735966666667","6500600","新店區"
"231060","355-BY","2018/12/08 20:19:42","新北市新店區錦秀路3號","121.479213333333","24.94517","6500600","新店區"
"231058","3713-VJ","2018/12/08 20:19:40","新北市新店區中正路438號","121.53414","24.9782916666667","6500600","新店區"
"231066","4716-K9","2018/12/08 20:19:32","新北市新店區安德街60巷21號","121.51049","24.9634433333333","6500600","新店區"
"231056","4715-K9","2018/12/08 20:19:43","新北市新店區中正路302巷14號","121.538028333333","24.9751733333333","6500600","新店區"
"231065","512-UM","2018/12/08 20:19:44","新北市新店區安祥路104巷6弄36號","121.483116666667","24.96298","6500600","新店區"
"231049","513-UM","2018/12/08 20:19:23","新北市新店區北新路二段1號","121.542638333333","24.971135","6500600","新店區"
"231063","616-UM","2018/12/08 20:19:35","新北市新店區車子路1-1號","121.50478","24.9578133333333","6500600","新店區"
"231061","619-UM","2018/12/08 20:19:41","新北市新店區安興路33-1號","121.515836666667","24.9704266666667","6500600","新店區"
"231068","718-UY","2018/12/08 20:19:43","新北市新店區寶安街30號","121.542058333333","24.9823266666667","6500600","新店區"
"231064","719-UM","2018/12/08 20:19:29","新北市新店區安利街30號","121.519093333333","24.97477","6500600","新店區"
"231048","719-UY","2018/12/08 20:19:38","新北市新店區中興路三段254號","121.542763333333","24.98416","6500600","新店區"
"231062","720-UM","2018/12/08 20:19:43","新北市新店區安泰路7巷16號","121.485668333333","24.951","6500600","新店區"
"231045","898-TW","2018/12/08 20:19:32","新北市新店區五峰路145巷7號","121.546291666667","24.964645","6500600","新店區"
"231043","899-TW","2018/12/08 20:19:35","新北市新店區建國路133號","121.539355","24.97824","6500600","新店區"
"231055","AKT-0513","2018/12/08 20:19:35","新北市新店區安康路一段166號","121.525873333333","24.96306","6500600","新店區"
"241011","013-R5","2018/12/08 20:19:37","新北市三重區龍門路150號","121.498531666667","25.0730883333333","6500200","三重區"
"241028","022-UY","2018/12/08 20:19:36","新北市三重區大同南路83-5號","121.496055","25.0592866666667","6500200","三重區"
"241008","059-VK","2018/12/08 20:19:42","新北市三重區永福街213號","121.479925","25.0742983333333","6500200","三重區"
"241022","060-VK","2018/12/08 20:19:41","新北市三重區新北大道一段36號","121.488171666667","25.0614566666667","6500200","三重區"
"241031","061-VK","2018/12/08 20:19:39","新北市三重區三寧街22號","121.489491666667","25.059905","6500200","三重區"
"241015","062-VK","2018/12/08 20:19:27","新北市三重區重新路一段122號","121.500311666667","25.063015","6500200","三重區"
"241017","063-VK","2018/12/08 20:19:27","新北市三重區自強路一段236號","121.493218333333","25.0670783333333","6500200","三重區"
"241024","065-VK","2018/12/08 20:19:41","新北市三重區中正北路238號","121.481918333333","25.0679983333333","6500200","三重區"
"241002","090-VK","2018/12/08 20:19:42","新北市三重區五華街22號","121.49472","25.0804016666667","6500200","三重區"
"241003","091-VK","2018/12/08 20:19:26","新北市三重區富華街78號","121.490741666667","25.0832783333333","6500200","三重區"
"251014","742-BX","2018/12/08 20:19:24","新北市淡水區石頭厝1號","121.458683333333","25.2355083333333","6501000","淡水區"
"241005","262-UM","2018/12/08 20:19:34","新北市三重區分子尾街85號","121.488858333333","25.0825833333333","6500200","三重區"
"241016","265-UM","2018/12/08 20:19:33","新北市三重區大同北路91號","121.494708333333","25.0636166666667","6500200","三重區"
"241009","267-UM","2018/12/08 20:19:36","新北市三重區三和路四段177-1號","121.482791666667","25.07886","6500200","三重區"
"241018","268-UM","2018/12/08 20:19:30","新北市三重區自強路一段157號","121.493456666667","25.0671283333333","6500200","三重區"
"241013","270-UM","2018/12/08 20:19:33","新北市三重區三和路三段167巷23號","121.492803333333","25.074265","6500200","三重區"
"241025","271-UM","2018/12/08 20:19:33","新北市三重區頂崁街187巷8號","121.477926666667","25.0663783333333","6500200","三重區"
"241007","398-BY","2018/12/08 20:19:42","新北市三重區溪尾街108巷30號","121.48825","25.0783533333333","6500200","三重區"
"241035","KEA-2210","2018/12/08 20:19:35","新北市三重區正義北路33巷25號","121.498288333333","25.0637883333333","6500200","三重區"
"241030","462-BY","2018/12/08 20:19:43","新北市三重區重新路四段244巷10號","121.486288333333","25.0535316666667","6500200","三重區"
"241004","475-VK","2018/12/08 20:19:33","新北市三重區仁政街198號","121.490578333333","25.0803816666667","6500200","三重區"
"241020","478-VK","2018/12/08 20:19:26","新北市三重區三和路三段172-1號","121.49242","25.0730166666667","6500200","三重區"
"241014","543-UM","2018/12/08 20:19:36","新北市三重區長榮路131號","121.503976666667","25.0694316666667","6500200","三重區"
"241023","545-UM","2018/12/08 20:19:29","新北市三重區忠孝路三段99巷11號","121.480075","25.06457","6500200","三重區"
"241001","547-UM","2018/12/08 20:19:41","新北市三重區自強路四段39號","121.48916","25.07696","6500200","三重區"
"241033","557-UM","2018/12/08 20:12:47","新北市三重區光復路一段61巷27號","121.473526666667","25.0492383333333","6500200","三重區"
"241019","KEA-2593","2018/12/08 20:19:38","新北市三重區大智街218號","121.490228333333","25.0716066666667","6500200","三重區"
"241026","743-BX","2018/12/08 20:19:43","新北市三重區福德南路3號","121.502465","25.063485","6500200","三重區"
"241012","941-UM","2018/12/08 20:19:28","新北市三重區河邊北街262號","121.501638333333","25.0764683333333","6500200","三重區"
"241029","942-UM","2018/12/08 20:19:25","新北市三重區集美街225號","121.491958333333","25.0551533333333","6500200","三重區"
"235066","003-UY","2018/12/08 20:19:30","新北市中和區保平路326巷20號","121.506421666667","25.0047916666667","6500300","中和區"
"235039","097-UM","2018/12/08 20:19:44","新北市中和區大勇街29巷1號","121.51608","24.994285","6500300","中和區"
"247012","KEA-2869","2018/12/08 20:19:34","新北市蘆洲區中興街38號","121.481303333333","25.0870616666667","6501400","蘆洲區"
"247006","KED-0682","2018/12/08 20:19:34","新北市蘆洲區九芎街136號","121.465056666667","25.0791166666667","6501400","蘆洲區"
"235050","4979-A6","2018/12/08 20:19:32","新北市中和區景平路470號","121.505518333333","24.9935733333333","6500300","中和區"
"235054","640-BX","2018/12/08 20:19:27","新北市五股區凌雲路三段24巷10號","121.435578333333","25.1071033333333","6500300","中和區"
"235026","800-TS","2018/12/08 20:05:27","新北市中和區員山路36巷16-3號","121.484831666667","24.991745","6500300","中和區"
"235065","911-UM","2018/12/08 20:19:34","新北市中和區永和路128巷28號","121.497648333333","25.0068183333333","6500300","中和區"
"235059","AAC-215","2018/12/08 20:19:33","新北市中和區圓通路395號","121.489611666667","24.9892","6500300","中和區"
"247002","893-R6","2018/12/08 20:19:43","新北市蘆洲區長安街313巷6弄12號","121.456881666667","25.0866066666667","6501400","蘆洲區"
"247024","500-BY","2018/12/08 20:19:38","新北市蘆洲區光明路112巷29弄13號","121.464181666667","25.0876333333333","6501400","蘆洲區"
"247016","336-TH","2018/12/08 20:19:24","新北市蘆洲區中正路185巷94號","121.465325","25.0838116666667","6501400","蘆洲區"
"247020","057-VK","2018/12/08 20:19:34","新北市蘆洲區仁愛街57號","121.471881666667","25.0933066666667","6501400","蘆洲區"
"247010","056-VK","2018/12/08 20:19:36","新北市蘆洲區信義路265號","121.478968333333","25.0848716666667","6501400","蘆洲區"
"247014","053-VK","2018/12/08 20:19:34","新北市蘆洲區成功路60號","121.472525","25.0805016666667","6501400","蘆洲區"
"247004","002-UY","2018/12/08 20:19:24","新北市蘆洲區長安街297號","121.458081666667","25.08489","6501400","蘆洲區"
"247022","001-UY","2018/12/08 20:19:26","新北市蘆洲區三民路202號","121.469165","25.0889533333333","6501400","蘆洲區"
"222001","KEA-2212","2018/12/08 20:19:39","新北市深坑區北深路三段243巷8號","121.599148333333","25.003985","6501800","深坑區"
"251009","008-UM","2018/12/08 20:19:43","新北市淡水區中正路38-1號","121.443736666667","25.1692916666667","6501000","淡水區"
"251004","009-UM","2018/12/08 20:19:30","新北市淡水區民族路29巷24-1號","121.461616666667","25.1366966666667","6501000","淡水區"
"251001","011-UM","2018/12/08 20:19:28","新北市淡水區淡金路二段15號","121.446091666667","25.189205","6501000","淡水區"
"251002","012-UM","2018/12/08 20:19:38","新北市淡水區中正路135-1號","121.439241666667","25.1704816666667","6501000","淡水區"
"251013","KEA-2871","2018/12/08 20:19:31","新北市淡水區相公山2號","121.474615","25.2065366666667","6501000","淡水區"
"251016","179-VK","2018/12/08 20:19:40","新北市淡水區淡金路五段20號","121.45305","25.23241","6501000","淡水區"
"251015","180-VK","2018/12/08 20:19:30","新北市淡水區淡金路三段446號","121.45068","25.2142133333333","6501000","淡水區"
"251008","181-VK","2018/12/08 20:19:37","新北市淡水區淡海路180巷13號","121.421125","25.1846216666667","6501000","淡水區"
"251010","413-VK","2018/12/08 20:19:33","新北市淡水區新民街一段134號","121.427651666667","25.1889183333333","6501000","淡水區"
"251012","441-VK","2018/12/08 20:19:34","新北市淡水區淡金路三段426號","121.450508333333","25.2122266666667","6501000","淡水區"
"251006","561-UM","2018/12/08 20:19:29","新北市淡水區北新路169巷4號","121.450276666667","25.1794933333333","6501000","淡水區"
"251011","650-BX","2018/12/08 20:19:40","新北市淡水區下圭柔山90-8號","121.431306666667","25.2101783333333","6501000","淡水區"
"251003","673-BX","2018/12/08 20:19:36","新北市淡水區中山北路一段229號","121.444435","25.1794733333333","6501000","淡水區"
"207004","225-TW","2018/12/08 20:19:31","新北市萬里區北基里仁二街2號","121.682598333333","25.1756316666667","6502800","萬里區"
"252002","178-VK","2018/12/08 20:19:25","新北市三芝區中正路一段40號","121.503336666667","25.25828","6502100","三芝區"
"252001","292-VK","2018/12/08 20:19:28","新北市三芝區中山路一段14號","121.500746666667","25.2580833333333","6502100","三芝區"
"237009","210-TH","2018/12/08 20:19:45","新北市鶯歌區中正一路423號","121.361145","24.95709","6500900","三峽區"
"237006","5529-G3","2018/12/08 20:19:38","新北市三峽區中正路二段85號","121.366471666667","24.9174433333333","6500900","三峽區"
"236070","105-UM","2018/12/08 20:19:40","新北市土城區福安街70巷17號","121.417916666667","24.9652016666667","6501300","土城區"
"236030","253-BX","2018/12/08 20:19:32","新北市土城區中央路一段45巷18號","121.448958333333","24.990085","6501300","土城區"
"236026","269-VK","2018/12/08 20:19:29","新北市土城區裕生路86巷8號","121.446755","24.985345","6501300","土城區"
"236014","270-VK","2018/12/08 20:19:35","新北市土城區四川路1號","121.456253333333","24.99578","6501300","土城區"
"247008","KED-0683","2018/12/08 20:19:39","新北市蘆洲區集賢路225號","121.48248","25.086265","6501400","蘆洲區"
"236059","912-UM","2018/12/08 20:19:25","新北市土城區大安路2號","121.432668333333","24.9655483333333","6501300","土城區"
"242036","AAC-296","2018/12/08 20:19:34","新北市新莊區建安街76巷3弄2號","121.426218333333","25.0249216666667","6500500","新莊區"
"242058","986-R7","2018/12/08 20:19:29","新北市新莊區龍安路266巷4號","121.421638333333","25.0191283333333","6500500","新莊區"
"242056","751-BX","2018/12/08 20:19:28","新北市新莊區豐年街28巷20號","121.445366666667","25.032335","6500500","新莊區"
"242027","615-BX","2018/12/08 20:19:31","新北市新莊區幸福路550號","121.45499","25.0493716666667","6500500","新莊區"
"242025","613-BX","2018/12/08 20:19:25","新北市新莊區五工一路80巷6號","121.461498333333","25.0671183333333","6500500","新莊區"
"242029","612-BX","2018/12/08 20:19:33","新北市新莊區中原路112號","121.450476666667","25.05431","6500500","新莊區"
"242044","566-BX","2018/12/08 20:19:33","新北市新莊區中正路新建巷28弄83號","121.413485","25.0213416666667","6500500","新莊區"
"242048","497-BY","2018/12/08 20:19:34","新北市新莊區四維路297號","121.421103333333","25.0196866666667","6500500","新莊區"
"242039","442-UM","2018/12/08 20:19:40","新北市新莊區成功街9號","121.425786666667","25.02174","6500500","新莊區"
"242002","440-UM","2018/12/08 20:19:41","新北市新莊區化成路7-2號","121.464945","25.0430283333333","6500500","新莊區"
"242053","415-TV","2018/12/08 20:19:25","新北市新莊區西盛街364號","121.427938333333","25.013605","6500500","新莊區"
"242009","413-TV","2018/12/08 20:19:37","新北市新莊區昌盛街35巷4弄15號","121.454863333333","25.0505783333333","6500500","新莊區"
"242046","400-BY","2018/12/08 20:19:40","新北市新莊區中正路新生巷11號","121.417015","25.0240066666667","6500500","新莊區"
"242023","362-BY","2018/12/08 20:19:29","新北市新莊區化成路968號","121.465126666667","25.0635533333333","6500500","新莊區"
"242061","353-BY","2018/12/08 20:19:39","新北市新莊區新樹路208號","121.433963333333","25.0205483333333","6500500","新莊區"
"242011","132-UY","2018/12/08 20:19:37","新北市新莊區中信街35號","121.450348333333","25.0507533333333","6500500","新莊區"
"242034","135-UY","2018/12/08 20:19:35","新北市新莊區建中街90巷7弄2號","121.446763333333","25.0377783333333","6500500","新莊區"
"242013","173-VK","2018/12/08 20:19:31","新北市新莊區中和街155巷24弄18號","121.44675","25.0503466666667","6500500","新莊區"
"242017","233-RS","2018/12/08 20:19:30","新北市新莊區中港一街71號","121.449906666667","25.04538","6500500","新莊區"
"242007","346-TH","2018/12/08 20:19:32","新北市新莊區福壽街112巷24號","121.459305","25.0505783333333","6500500","新莊區"
"242042","347-TH","2018/12/08 20:19:26","新北市新莊區壽山路57號","121.412788333333","25.0311966666667","6500500","新莊區"
"242031","348-TH","2018/12/08 20:19:30","新北市新莊區中正路418號","121.441065","25.033815","6500500","新莊區"
"242004","349-TH","2018/12/08 20:19:27","新北市新莊區頭前路60-4號","121.466758333333","25.0526716666667","6500500","新莊區"
"242021","350-TH","2018/12/08 20:19:39","新北市新莊區新泰路203號","121.446995","25.0382066666667","6500500","新莊區"
"242015","351-TH","2018/12/08 20:19:42","新北市新莊區永樂街202號","121.447193333333","25.0445216666667","6500500","新莊區"
"238023","601-UM","2018/12/08 20:19:31","新北市樹林區東和街7號","121.403861666667","24.9789216666667","6500700","樹林區"
"221008","489-VK","2018/12/08 20:19:40","新北市汐止區康寧街519-1號","121.633268333333","25.0687233333333","6501100","汐止區"
"221036","130-UY","2018/12/08 20:19:40","新北市汐止區福安街37巷6號","121.663171666667","25.065005","6501100","汐止區"
"221015","131-UY","2018/12/08 20:19:36","新北市汐止區建成路142巷19弄12號","121.662015","25.07399","6501100","汐止區"
"221010","269-BY","2018/12/08 20:19:32","新北市汐止區八連路二段494號","121.628968333333","25.106115","6501100","汐止區"
"221012","278-VK","2018/12/08 20:19:39","新北市汐止區保新街267號","121.691023333333","25.068175","6501100","汐止區"
"221023","279-VK","2018/12/08 20:19:32","新北市汐止區明峰街92號","121.631143333333","25.07113","6501100","汐止區"
"221032","280-BY","2018/12/08 20:19:41","新北市汐止區民權街二段30號","121.619413333333","25.0498283333333","6501100","汐止區"
"221027","281-BY","2018/12/08 20:19:45","新北市汐止區大同路二段355號","121.657053333333","25.0672333333333","6501100","汐止區"
"221029","298-VK","2018/12/08 20:19:40","新北市汐止區工建路48號","121.641171666667","25.0631783333333","6501100","汐止區"
"221021","299-VK","2018/12/08 20:19:26","新北市汐止區水源路一段291巷1號","121.654355","25.05839","6501100","汐止區"
"221031","353-TW","2018/12/08 20:19:38","新北市汐止區中興路150巷15-1號","121.633053333333","25.0651233333333","6501100","汐止區"
"221035","622-UM","2018/12/08 20:19:39","新北市汐止區長江街101-5號","121.658663333333","25.0731883333333","6501100","汐止區"
"221025","623-UM","2018/12/08 20:19:39","新北市汐止區水源路二段88巷2弄8號","121.655791666667","25.0561483333333","6501100","汐止區"
"221038","646-BX","2018/12/08 20:19:39","新北市汐止區忠孝東路450號","121.666143333333","25.0727066666667","6501100","汐止區"
"221033","647-BX","2018/12/08 20:19:28","新北市汐止區東勢街190巷1號","121.633826666667","25.0418216666667","6501100","汐止區"
"221002","707-TV","2018/12/08 20:19:38","新北市汐止區福德三路18號","121.637271666667","25.0694066666667","6501100","汐止區"
"221018","753-BX","2018/12/08 20:19:37","新北市汐止區茄安路14號","121.673126666667","25.0678266666667","6501100","汐止區"
"220072","277-BY","2018/12/08 20:19:37","新北市五股區新五路二段119-10號","121.438386666667","25.078645","6500100","板橋區"
"220083","286-VK","2018/12/08 20:19:36","新北市板橋區僑中二街92巷31號","121.444678333333","25.00912","6500100","板橋區"
"220081","287-VK","2018/12/08 20:19:40","新北市板橋區僑中一街80巷10弄1號","121.448011666667","25.0128616666667","6500100","板橋區"
"220061","293-UM","2018/12/08 20:19:34","新北市板橋區四川路一段286巷26號","121.457905","25.0012733333333","6500100","板橋區"
"220089","487-VK","2018/12/08 20:19:22","新北市三重區五谷王北街181-1號","121.477823333333","25.054345","6500100","板橋區"
"242019","280-VK","2018/12/08 20:19:33","新北市新莊區銘德街27號","121.458645","25.043735","6500500","新莊區"
"220103","561-BX","2018/12/08 20:19:43","新北市板橋區漢生東路73巷25號","121.467135","25.0169866666667","6500100","板橋區"
"220057","686-BX","2018/12/08 20:19:28","新北市板橋區四川路二段140巷16弄4號","121.449495","24.9938383333333","6500100","板橋區"
"220055","827-TW","2018/12/08 20:19:29","新北市板橋區重慶路290巷50號","121.461331666667","24.9987166666667","6500100","板橋區"
"220074","895-R6","2018/12/08 20:19:31","新北市板橋區南門街10號","121.457433333333","25.0090916666667","6500100","板橋區"
"220064","AAC-253","2018/12/08 20:19:42","新北市板橋區海山路3號","121.4694","25.0095483333333","6500100","板橋區"
