"lineid","car","time","location","longitude","latitude","cityid","cityname"
"249004","303-UY","2018/12/08 20:49:40","新北市八里區中山路一段63號","121.41834","25.1594016666667","6502300","八里區"
"249003","593-UM","2018/12/08 20:49:32","新北市林口區汕頭32號","121.366511666667","25.1350033333333","6502300","八里區"
"234023","9380-KE","2018/12/08 20:49:38","新北市永和區竹林路30號","121.51713","25.014725","6500400","永和區"
"234074","AAC-211","2018/12/08 20:49:45","新北市永和區竹林路91巷60弄70號","121.522873333333","25.0122133333333","6500400","永和區"
"222003","436-BY","2018/12/08 20:49:37","新北市深坑區文山路三段48-1號","121.609928333333","24.9984983333333","6501800","深坑區"
"222002","659-BX","2018/12/08 20:49:43","新北市深坑區北深路三段93巷47號","121.604373333333","25.000415","6501800","深坑區"
"231044","001-UM","2018/12/08 20:49:44","新北市新店區中正路432號","121.534198333333","24.9781683333333","6500600","新店區"
"231059","046-UY","2018/12/08 20:49:42","新北市新店區僑信路120巷40號","121.499318333333","24.9459683333333","6500600","新店區"
"231040","047-UY","2018/12/08 20:49:31","新北市新店區中正路255號","121.538915","24.9734933333333","6500600","新店區"
"231052","108-UY","2018/12/08 20:49:36","新北市新店區新烏路一段100號","121.544623333333","24.9377616666667","6500600","新店區"
"231054","KEA-2219","2018/12/08 20:49:30","新北市新店區北新路一段88巷7-1號","121.542525","24.9674116666667","6500600","新店區"
"231057","256-BX","2018/12/08 20:49:28","新北市新店區新烏路一段2號","121.547358333333","24.9518416666667","6500600","新店區"
"231042","268-BY","2018/12/08 20:49:36","新北市新店區寶高路120巷1號","121.554571666667","24.9760633333333","6500600","新店區"
"231051","278-BY","2018/12/08 20:49:41","新北市新店區中正路663巷1弄31號","121.532385","24.9896533333333","6500600","新店區"
"231050","AAD-862","2018/12/08 20:49:29","新北市新店區三民路35巷2號","121.537433333333","24.9706766666667","6500600","新店區"
"231060","355-BY","2018/12/08 20:49:42","新北市新店區安康路三段583號","121.472931666667","24.9413116666667","6500600","新店區"
"231058","3713-VJ","2018/12/08 20:49:40","新北市新店區平等街48巷1號","121.535763333333","24.973075","6500600","新店區"
"231066","4716-K9","2018/12/08 20:49:32","新北市新店區安興路112號","121.514681666667","24.9776416666667","6500600","新店區"
"231065","512-UM","2018/12/08 20:49:44","新北市新店區安祥路104巷6弄22號","121.482253333333","24.9624283333333","6500600","新店區"
"231049","513-UM","2018/12/08 20:49:43","新北市新店區華城路18-1號","121.529061666667","24.9570483333333","6500600","新店區"
"231063","616-UM","2018/12/08 20:49:35","新北市新店區富貴街11巷34號","121.49497","24.9483333333333","6500600","新店區"
"231061","619-UM","2018/12/08 20:49:41","新北市新店區新和街77號","121.5206","24.9861016666667","6500600","新店區"
"231068","718-UY","2018/12/08 20:49:43","新北市新店區寶元路二段4號","121.545668333333","24.98275","6500600","新店區"
"231064","719-UM","2018/12/08 20:49:40","新北市新店區安民街379巷20號","121.515848333333","24.9761483333333","6500600","新店區"
"231048","719-UY","2018/12/08 20:49:38","新北市新店區寶元路一段109號","121.545743333333","24.983115","6500600","新店區"
"231062","720-UM","2018/12/08 20:49:43","新北市新店區和成街15巷2號","121.487763333333","24.9472316666667","6500600","新店區"
"231045","898-TW","2018/12/08 20:49:32","新北市新店區北新路一段123號","121.539316666667","24.9624716666667","6500600","新店區"
"231043","899-TW","2018/12/08 20:49:35","新北市新店區建國路94號","121.5401","24.977575","6500600","新店區"
"241011","013-R5","2018/12/08 20:49:37","新北市三重區龍濱路235號","121.501621666667","25.0723133333333","6500200","三重區"
"241028","022-UY","2018/12/08 20:49:35","新北市三重區中正南路41巷1號","121.493826666667","25.0599016666667","6500200","三重區"
"241008","059-VK","2018/12/08 20:49:22","新北市三重區永福街72巷11號","121.479408333333","25.07674","6500200","三重區"
"241022","060-VK","2018/12/08 20:49:41","新北市三重區過圳街27-5號","121.488031666667","25.0624216666667","6500200","三重區"
"241031","061-VK","2018/12/08 20:49:39","新北市三重區重陽路一段113巷2弄2號","121.487495","25.0598533333333","6500200","三重區"
"241015","062-VK","2018/12/08 20:49:27","新北市三重區自強路一段8號","121.498821666667","25.0682966666667","6500200","三重區"
"241017","063-VK","2018/12/08 20:49:27","新北市三重區民生街18號","121.492008333333","25.0673916666667","6500200","三重區"
"241024","065-VK","2018/12/08 20:49:41","新北市三重區中正北路193巷37號","121.475801666667","25.0708116666667","6500200","三重區"
"241002","090-VK","2018/12/08 20:49:29","新北市三重區仁義街157巷74號","121.498573333333","25.0818366666667","6500200","三重區"
"241003","091-VK","2018/12/08 20:49:26","新北市三重區五華街141巷58號","121.493571666667","25.0867633333333","6500200","三重區"
"251014","742-BX","2018/12/08 20:49:44","新北市淡水區公埔子32-8號","121.461651666667","25.23236","6501000","淡水區"
"241005","262-UM","2018/12/08 20:49:34","新北市三重區五華街141巷27號","121.492105","25.0854633333333","6500200","三重區"
"241016","265-UM","2018/12/08 20:49:33","新北市三重區正義北路159號","121.496491666667","25.06726","6500200","三重區"
"241009","267-UM","2018/12/08 20:49:36","新北市三重區三和路四段388-2號","121.482081666667","25.0791566666667","6500200","三重區"
"241018","268-UM","2018/12/08 20:49:30","新北市三重區正義北路235號","121.495898333333","25.06909","6500200","三重區"
"241013","270-UM","2018/12/08 20:49:33","新北市三重區仁賢街4號","121.495613333333","25.0748533333333","6500200","三重區"
"241025","271-UM","2018/12/08 20:49:33","新北市三重區貴陽街20號","121.48418","25.062","6500200","三重區"
"241007","398-BY","2018/12/08 20:49:42","新北市三重區慈愛街1號","121.484603333333","25.078355","6500200","三重區"
"241035","KEA-2210","2018/12/08 20:49:35","新北市三重區三和路三段36號","121.496203333333","25.070715","6500200","三重區"
"241030","462-BY","2018/12/08 20:49:43","新北市三重區成功路73巷11號","121.489468333333","25.0519366666667","6500200","三重區"
"241004","475-VK","2018/12/08 20:49:33","新北市三重區分子尾街29號","121.48946","25.0813483333333","6500200","三重區"
"241020","478-VK","2018/12/08 20:49:26","新北市三重區忠孝路一段101號","121.489518333333","25.072145","6500200","三重區"
"241014","543-UM","2018/12/08 20:49:36","新北市三重區長壽街120巷60號","121.501748333333","25.070305","6500200","三重區"
"241023","545-UM","2018/12/08 20:49:29","新北市三重區忠孝路三段84巷5號","121.480185","25.0644483333333","6500200","三重區"
"241001","547-UM","2018/12/08 20:49:37","新北市三重區三和路四段122號","121.489388333333","25.0749933333333","6500200","三重區"
"241019","KEA-2593","2018/12/08 20:49:38","新北市三重區自強路二段74巷19號","121.487995","25.06992","6500200","三重區"
"241026","743-BX","2018/12/08 20:49:42","新北市三重區和平街1號","121.500046666667","25.0623083333333","6500200","三重區"
"241006","887-TS","2018/12/08 20:49:42","新北市三重區車路頭街139巷14號","121.484293333333","25.0762066666667","6500200","三重區"
"241012","941-UM","2018/12/08 20:49:28","新北市三重區仁信街27號","121.501298333333","25.0755333333333","6500200","三重區"
"241029","942-UM","2018/12/08 20:49:45","新北市三重區重安街14號","121.490246666667","25.058175","6500200","三重區"
"247012","KEA-2869","2018/12/08 20:49:34","新北市蘆洲區集賢路224巷25號","121.481686666667","25.0870383333333","6501400","蘆洲區"
"247006","KED-0682","2018/12/08 20:49:34","新北市蘆洲區永安南路二段16巷5號","121.467773333333","25.0771316666667","6501400","蘆洲區"
"247002","893-R6","2018/12/08 20:49:42","新北市蘆洲區長安街242號","121.457615","25.0860833333333","6501400","蘆洲區"
"247024","500-BY","2018/12/08 20:49:38","新北市蘆洲區長樂路136號","121.462091666667","25.0900633333333","6501400","蘆洲區"
"247016","336-TH","2018/12/08 20:49:44","新北市蘆洲區正和街3號","121.470411666667","25.082665","6501400","蘆洲區"
"247020","057-VK","2018/12/08 20:49:34","新北市蘆洲區仁愛街75號","121.47141","25.0938616666667","6501400","蘆洲區"
"247010","056-VK","2018/12/08 20:49:35","新北市蘆洲區鷺江街76號","121.476911666667","25.083845","6501400","蘆洲區"
"247014","053-VK","2018/12/08 20:49:33","新北市蘆洲區三民路95號","121.474006666667","25.0849033333333","6501400","蘆洲區"
"247004","002-UY","2018/12/08 20:49:24","新北市蘆洲區長安街101號","121.461595","25.08083","6501400","蘆洲區"
"247022","001-UY","2018/12/08 20:49:46","新北市蘆洲區民權路131巷10號","121.47129","25.0898833333333","6501400","蘆洲區"
"222001","KEA-2212","2018/12/08 20:49:40","新北市深坑區北深路三段129號","121.604066666667","25.0024866666667","6501800","深坑區"
"251001","011-UM","2018/12/08 20:49:28","新北市淡水區淡金路218號","121.46054","25.167195","6501000","淡水區"
"251002","012-UM","2018/12/08 20:49:38","新北市淡水區中正東路6號","121.447098333333","25.1672183333333","6501000","淡水區"
"251013","KEA-2871","2018/12/08 20:49:31","新北市淡水區行忠路100號","121.45193","25.198355","6501000","淡水區"
"251016","179-VK","2018/12/08 20:49:40","新北市淡水區興仁路160號","121.451491666667","25.2203066666667","6501000","淡水區"
"251015","180-VK","2018/12/08 20:49:30","新北市淡水區淡金路四段542巷17號","121.452763333333","25.2270916666667","6501000","淡水區"
"251010","413-VK","2018/12/08 20:49:33","新北市淡水區沙崙路145號","121.423401666667","25.18309","6501000","淡水區"
"251012","441-VK","2018/12/08 20:49:34","新北市淡水區淡金路四段526-6號","121.452003333333","25.226305","6501000","淡水區"
"251007","442-VK","2018/12/08 20:49:38","新北市淡水區鄧公路29巷1號","121.4516","25.17012","6501000","淡水區"
"251011","650-BX","2018/12/08 20:49:40","新北市淡水區新民街一段13-1號","121.432988333333","25.1845333333333","6501000","淡水區"
"251003","673-BX","2018/12/08 20:49:36","新北市淡水區中山北路一段207巷42號","121.442756666667","25.1793483333333","6501000","淡水區"
"252002","178-VK","2018/12/08 20:49:25","新北市三芝區淡金路二段76-2號","121.504053333333","25.2609383333333","6502100","三芝區"
"247008","KED-0683","2018/12/08 20:49:39","新北市蘆洲區中山一路6號","121.48071","25.080265","6501400","蘆洲區"
"242036","AAC-296","2018/12/08 20:49:34","新北市新莊區中正路516-5號","121.433298333333","25.032255","6500500","新莊區"
"242044","566-BX","2018/12/08 20:49:33","新北市新莊區龍安路108號","121.41833","25.0204066666667","6500500","新莊區"
"242053","415-TV","2018/12/08 20:49:25","新北市新莊區龍安路261號","121.420025","25.019985","6500500","新莊區"
"242009","413-TV","2018/12/08 20:49:32","新北市新莊區思源路63號","121.459903333333","25.040375","6500500","新莊區"
"242046","400-BY","2018/12/08 20:49:33","新北市新莊區中正路新雅巷2弄6號","121.417856666667","25.0252733333333","6500500","新莊區"
"242023","362-BY","2018/12/08 20:49:29","新北市五股區成洲一路25號","121.44967","25.0950033333333","6500500","新莊區"
"242011","132-UY","2018/12/08 20:49:37","新北市五股區新五路二段2巷2-1號","121.4381","25.0658766666667","6500500","新莊區"
"242017","233-RS","2018/12/08 20:49:30","新北市新莊區中平路110巷19號","121.446293333333","25.046165","6500500","新莊區"
"242042","347-TH","2018/12/08 20:49:26","新北市新莊區中正路877-5號","121.417941666667","25.026535","6500500","新莊區"
"242031","348-TH","2018/12/08 20:49:30","新北市新莊區中正路535-11號","121.437518333333","25.032975","6500500","新莊區"
"242004","349-TH","2018/12/08 20:49:27","新北市八里區荖阡坑路41-3號","121.400391666667","25.1316066666667","6500500","新莊區"
"242015","351-TH","2018/12/08 20:49:33","新北市新莊區中平路142號","121.44485","25.04695","6500500","新莊區"
"221027","281-BY","2018/12/08 20:49:24","新北市汐止區大同路二段364號","121.657568333333","25.0671533333333","6501100","汐止區"
"221029","298-VK","2018/12/08 20:49:40","新北市汐止區樟樹二路339巷16-1號","121.641645","25.07102","6501100","汐止區"
"221021","299-VK","2018/12/08 20:49:26","新北市汐止區新台五路一段210-1號","121.655676666667","25.0630266666667","6501100","汐止區"
"221035","622-UM","2018/12/08 20:49:39","新北市汐止區汐萬路一段256巷1號","121.651878333333","25.07477","6501100","汐止區"
"221038","646-BX","2018/12/08 20:49:39","新北市汐止區汐萬路一段256巷1號","121.65204","25.0747333333333","6501100","汐止區"
"221033","647-BX","2018/12/08 20:49:28","新北市汐止區合順街18巷8弄5號","121.62035","25.0419383333333","6501100","汐止區"
"221002","707-TV","2018/12/08 20:49:38","新北市汐止區中興路135號","121.63162","25.0654583333333","6501100","汐止區"
"221018","753-BX","2018/12/08 20:49:37","新北市汐止區大同路二段431號","121.658928333333","25.0672683333333","6501100","汐止區"
"220081","287-VK","2018/12/08 20:49:40","新北市板橋區大觀路二段443-2號","121.439531666667","24.9952133333333","6500100","板橋區"
"220064","AAC-253","2018/12/08 20:49:37","新北市八里區商港路105巷15-1號","121.393143333333","25.149615","6500100","板橋區"
