"lineid","car","time","location","longitude","latitude","cityid","cityname"
"249003","593-UM","2018/12/08 20:59:32","新北市八里區中山路三段409號","121.368628333333","25.1348283333333","6502300","八里區"
"231059","046-UY","2018/12/08 20:59:42","新北市新店區僑信路106號","121.500126666667","24.9471083333333","6500600","新店區"
"231040","047-UY","2018/12/08 20:59:31","新北市新店區中正路139號","121.54169","24.971485","6500600","新店區"
"231052","108-UY","2018/12/08 20:59:36","新北市新店區安康路一段231號","121.525318333333","24.9631783333333","6500600","新店區"
"231054","KEA-2219","2018/12/08 20:59:30","新北市新店區北新路一段96巷23號","121.54293","24.96873","6500600","新店區"
"231042","268-BY","2018/12/08 20:59:36","新北市新店區寶高路102巷20號","121.55246","24.9739466666667","6500600","新店區"
"231051","278-BY","2018/12/08 20:59:41","新北市新店區復興路108-1號","121.53188","24.9894983333333","6500600","新店區"
"231050","AAD-862","2018/12/08 20:59:29","新北市新店區三民路49號","121.537016666667","24.9709516666667","6500600","新店區"
"231060","355-BY","2018/12/08 20:59:42","新北市新店區安康路三段387號","121.483516666667","24.9502066666667","6500600","新店區"
"231058","3713-VJ","2018/12/08 20:59:40","新北市新店區安民街133巷26號","121.515525","24.96965","6500600","新店區"
"231066","4716-K9","2018/12/08 20:59:32","新北市新店區吉安街10號","121.516791666667","24.9657383333333","6500600","新店區"
"231065","512-UM","2018/12/08 20:59:44","新北市新店區安祥路67巷50弄1號","121.484803333333","24.95899","6500600","新店區"
"231063","616-UM","2018/12/08 20:59:35","新北市新店區如意街1巷4號","121.496015","24.9496883333333","6500600","新店區"
"231061","619-UM","2018/12/08 20:59:41","新北市新店區永安街109巷7號","121.521221666667","24.9858483333333","6500600","新店區"
"231068","718-UY","2018/12/08 20:59:43","新北市新店區寶中路69號","121.547401666667","24.9804883333333","6500600","新店區"
"231064","719-UM","2018/12/08 20:57:48","新北市新店區安民街303巷9弄2號","121.516916666667","24.9733083333333","6500600","新店區"
"231048","719-UY","2018/12/08 20:59:38","新北市新店區寶元路一段109號","121.545745","24.9831166666667","6500600","新店區"
"231062","720-UM","2018/12/08 20:59:43","新北市新店區裕合街143號","121.489075","24.9492066666667","6500600","新店區"
"231043","899-TW","2018/12/08 20:59:35","新北市新店區溪園路511號","121.523713333333","24.9771016666667","6500600","新店區"
"241011","013-R5","2018/12/08 20:59:37","新北市三重區秀江街117號","121.49976","25.0721833333333","6500200","三重區"
"241028","022-UY","2018/12/08 20:59:35","新北市三重區正義南路38號","121.49819","25.0609983333333","6500200","三重區"
"241008","059-VK","2018/12/08 20:59:42","新北市三重區永福街188號","121.481608333333","25.07429","6500200","三重區"
"241022","060-VK","2018/12/08 20:59:41","新北市三重區過圳街27-5號","121.487998333333","25.062415","6500200","三重區"
"241031","061-VK","2018/12/08 20:59:39","新北市三重區重陽路一段113巷2弄2號","121.48751","25.05987","6500200","三重區"
"241015","062-VK","2018/12/08 20:59:27","新北市三重區福德北路59號","121.502083333333","25.06544","6500200","三重區"
"241017","063-VK","2018/12/08 20:59:27","新北市三重區國隆路30-1號","121.492121666667","25.0644683333333","6500200","三重區"
"241024","065-VK","2018/12/08 20:59:41","新北市三重區大勇街49號","121.481315","25.0719916666667","6500200","三重區"
"241002","090-VK","2018/12/08 20:59:29","新北市三重區五華街1巷16號","121.496008333333","25.079895","6500200","三重區"
"241003","091-VK","2018/12/08 20:59:26","新北市三重區進安街198號","121.493851666667","25.086005","6500200","三重區"
"251014","742-BX","2018/12/08 20:59:24","新北市淡水區溪口26號","121.455595","25.2365716666667","6501000","淡水區"
"241005","262-UM","2018/12/08 20:59:34","新北市三重區五華街170號","121.48894","25.0861083333333","6500200","三重區"
"241016","265-UM","2018/12/08 20:59:33","新北市三重區自強路一段184號","121.494933333333","25.06638","6500200","三重區"
"241009","267-UM","2018/12/08 20:59:36","新北市三重區三和路四段364號","121.482986666667","25.0786466666667","6500200","三重區"
"241018","268-UM","2018/12/08 20:59:30","新北市三重區雙園街97號","121.493823333333","25.0672866666667","6500200","三重區"
"241013","270-UM","2018/12/08 20:59:33","新北市三重區仁賢街6號","121.495646666667","25.0748016666667","6500200","三重區"
"241025","271-UM","2018/12/08 20:59:33","新北市三重區貴陽街20號","121.484211666667","25.0619683333333","6500200","三重區"
"241007","398-BY","2018/12/08 20:59:42","新北市三重區三和路四段145巷85號","121.486433333333","25.0787583333333","6500200","三重區"
"241030","462-BY","2018/12/08 20:59:43","新北市三重區環河南路220-8號","121.493276666667","25.0526916666667","6500200","三重區"
"241004","475-VK","2018/12/08 20:59:33","新北市三重區仁愛街423-1號","121.490335","25.0814566666667","6500200","三重區"
"241020","478-VK","2018/12/08 20:59:26","新北市三重區忠孝路二段34號","121.485763333333","25.0710183333333","6500200","三重區"
"241014","543-UM","2018/12/08 20:59:36","新北市三重區長壽街120巷11號","121.50253","25.0691283333333","6500200","三重區"
"241023","545-UM","2018/12/08 20:59:29","新北市三重區洛陽街45巷11號","121.482361666667","25.0637483333333","6500200","三重區"
"241001","547-UM","2018/12/08 20:59:37","新北市三重區自強路三段87巷21號","121.488248333333","25.074955","6500200","三重區"
"241019","KEA-2593","2018/12/08 20:59:38","新北市三重區自強路二段74巷21號","121.487938333333","25.0698833333333","6500200","三重區"
"241026","743-BX","2018/12/08 20:59:23","新北市三重區文化南路45號","121.500283333333","25.061305","6500200","三重區"
"241006","887-TS","2018/12/08 20:59:41","新北市三重區永福街89號","121.479741666667","25.0775316666667","6500200","三重區"
"241012","941-UM","2018/12/08 20:59:28","新北市三重區仁信街6號","121.501323333333","25.07551","6500200","三重區"
"241029","942-UM","2018/12/08 20:59:45","新北市三重區正義南路107號","121.49825","25.0585416666667","6500200","三重區"
"247012","KEA-2869","2018/12/08 20:59:34","新北市蘆洲區民權路5號","121.476551666667","25.08577","6501400","蘆洲區"
"247006","KED-0682","2018/12/08 20:59:34","新北市蘆洲區永安南路二段16巷18號","121.467965","25.0777783333333","6501400","蘆洲區"
"247002","893-R6","2018/12/08 20:59:42","新北市蘆洲區永樂街38巷8號","121.458215","25.0888516666667","6501400","蘆洲區"
"247024","500-BY","2018/12/08 20:59:38","新北市蘆洲區長興路213號","121.461118333333","25.0863216666667","6501400","蘆洲區"
"247016","336-TH","2018/12/08 20:59:44","新北市蘆洲區正和街94號","121.468133333333","25.0807883333333","6501400","蘆洲區"
"247020","057-VK","2018/12/08 20:59:34","新北市蘆洲區民族路488號","121.471115","25.0913033333333","6501400","蘆洲區"
"247010","056-VK","2018/12/08 20:59:35","新北市蘆洲區鷺江街76號","121.476991666667","25.083875","6501400","蘆洲區"
"247014","053-VK","2018/12/08 20:59:34","新北市蘆洲區中央路58號","121.473361666667","25.0837783333333","6501400","蘆洲區"
"247018","007-UY","2018/12/08 20:59:30","新北市蘆洲區民權路99號","121.472773333333","25.0891083333333","6501400","蘆洲區"
"247004","002-UY","2018/12/08 20:59:44","新北市蘆洲區永安南路二段268號","121.45868","25.0807483333333","6501400","蘆洲區"
"247022","001-UY","2018/12/08 20:59:26","新北市蘆洲區三民路226號","121.468591666667","25.0893833333333","6501400","蘆洲區"
"251005","010-UM","2018/12/08 20:59:41","新北市淡水區學府路73巷2弄1號","121.447951666667","25.1700716666667","6501000","淡水區"
"251001","011-UM","2018/12/08 20:59:28","新北市淡水區淡金路二段147號","121.449503333333","25.1829433333333","6501000","淡水區"
"251002","012-UM","2018/12/08 20:59:38","新北市淡水區英專路69號","121.445685","25.1712516666667","6501000","淡水區"
"251013","KEA-2871","2018/12/08 20:59:38","新北市淡水區行忠路332號","121.461968333333","25.19955","6501000","淡水區"
"251016","179-VK","2018/12/08 20:59:40","新北市淡水區牛埔子10-1號","121.450078333333","25.2184233333333","6501000","淡水區"
"251015","180-VK","2018/12/08 20:59:30","新北市淡水區淡金路四段542巷17號","121.452753333333","25.227085","6501000","淡水區"
"251010","413-VK","2018/12/08 20:59:33","新北市淡水區淡海路22號","121.423956666667","25.1786916666667","6501000","淡水區"
"251012","441-VK","2018/12/08 20:59:34","新北市淡水區淡金路五段116-1號","121.456521666667","25.23697","6501000","淡水區"
"251007","442-VK","2018/12/08 20:59:38","新北市淡水區仁愛街2巷33號","121.446518333333","25.17127","6501000","淡水區"
"251011","650-BX","2018/12/08 20:59:40","新北市淡水區新民街298號","121.43507","25.1825633333333","6501000","淡水區"
"251003","673-BX","2018/12/08 20:59:36","新北市淡水區新春街125巷51號","121.440521666667","25.1828983333333","6501000","淡水區"
"247008","KED-0683","2018/12/08 20:59:39","新北市蘆洲區民生街76號","121.472868333333","25.07907","6501400","蘆洲區"
"242053","415-TV","2018/12/08 20:59:25","新北市新莊區富國路22巷19號","121.418383333333","25.0258116666667","6500500","新莊區"
"242046","400-BY","2018/12/08 20:59:33","新北市新莊區中正路新雅巷3號","121.417938333333","25.0255566666667","6500500","新莊區"
"221029","298-VK","2018/12/08 20:59:40","新北市汐止區康寧街901號","121.651676666667","25.0749133333333","6501100","汐止區"
"221035","622-UM","2018/12/08 20:59:39","新北市汐止區汐萬路一段256巷3號","121.652038333333","25.0747883333333","6501100","汐止區"
"220064","AAC-253","2018/12/08 20:59:37","新北市八里區中山路三段409號","121.368743333333","25.1343016666667","6500100","板橋區"
