"lineid","car","time","location","longitude","latitude","cityid","cityname"
"243001","297-R6","2018/12/08 21:12:21","新北市泰山區黎明路25號","121.421873333333","25.060875","6501600","泰山區"
"251014","742-BX","2018/12/08 21:39:44","新北市淡水區淡金路四段9-1號","121.450441666667","25.2153016666667","6501000","淡水區"
"241005","262-UM","2018/12/08 21:39:34","新北市三重區碧華街1號","121.48353","25.081105","6500200","三重區"
"241019","KEA-2593","2018/12/08 21:39:38","新北市八里區商港路120號","121.392148333333","25.1498216666667","6500200","三重區"
"247012","KEA-2869","2018/12/08 21:38:14","新北市五股區中直路15-2號","121.42328","25.1110933333333","6501400","蘆洲區"
"251009","008-UM","2018/12/08 21:39:32","新北市淡水區民族路29巷2弄6號","121.46252","25.137065","6501000","淡水區"
"251005","010-UM","2018/12/08 21:39:41","新北市淡水區學府路88號","121.44907","25.17098","6501000","淡水區"
"251001","011-UM","2018/12/08 21:39:28","新北市淡水區崁頂二路250號","121.435841666667","25.196805","6501000","淡水區"
"251002","012-UM","2018/12/08 21:39:38","新北市淡水區學府路175號","121.446383333333","25.17446","6501000","淡水區"
"251013","KEA-2871","2018/12/08 21:39:36","新北市淡水區埤島40-2號","121.452671666667","25.1974316666667","6501000","淡水區"
"251016","179-VK","2018/12/08 21:39:40","新北市淡水區崁頂57-12號","121.443238333333","25.1971966666667","6501000","淡水區"
"251008","181-VK","2018/12/08 21:39:37","新北市淡水區水源街二段14號","121.44953","25.1736416666667","6501000","淡水區"
"251010","413-VK","2018/12/08 21:39:33","新北市淡水區沙崙路216巷15號","121.4262","25.1841666666667","6501000","淡水區"
"251012","441-VK","2018/12/08 21:39:34","新北市淡水區淡金路四段197號","121.451631666667","25.2219","6501000","淡水區"
"251007","442-VK","2018/12/08 21:39:38","新北市淡水區水源街二段177巷16號","121.455071666667","25.1762783333333","6501000","淡水區"
"251006","561-UM","2018/12/08 21:39:29","新北市淡水區中正路107號","121.43996","25.16955","6501000","淡水區"
"251011","650-BX","2018/12/08 21:39:40","新北市淡水區新民街322巷1號","121.435578333333","25.1837966666667","6501000","淡水區"
"251003","673-BX","2018/12/08 21:39:36","新北市淡水區新春街26號","121.436575","25.1811533333333","6501000","淡水區"
"220064","AAC-253","2018/12/08 21:39:37","新北市板橋區大觀路二段1巷60-4號","121.45198","25.0033383333333","6500100","板橋區"
