"lineid","car","time","location","longitude","latitude","cityid","cityname"
"248005","653-BX","2018/01/04 07:59:47","新北市五股區明德路12巷8號","121.43342","25.0719733333333","6501500","五股區"
"232001","290-BY","2018/01/04 07:57:50","新北市坪林區坪雙路一段88號","121.71851","24.9449283333333","6502000","坪林區"
"232014","291-BY","2018/01/04 07:59:40","新北市坪林區金瓜寮24-3號","121.680131666667","24.9093683333333","6502000","坪林區"
"232010","375-UM","2018/01/04 07:59:38","新北市坪林區厚德岡坑8-5號","121.73318","24.9409016666667","6502000","坪林區"
"232018","705-BZ","2018/01/04 07:53:02","新北市坪林區坪雙路一段25號","121.711578333333","24.942405","6502000","坪林區"
"232007","758-BX","2018/01/04 07:59:42","新北市坪林區九芎林24-2號","121.704035","24.9250466666667","6502000","坪林區"
"244012","069-UM","2018/01/04 07:59:48","新北市林口區粉寮69號","121.405058333333","25.0908083333333","6501700","林口區"
"244003","248-BX","2018/01/04 07:59:48","新北市林口區嘉溪雅坑5-8號","121.344891666667","25.1004833333333","6501700","林口區"
"244022","483-VK","2018/01/04 07:59:33","新北市林口區粉寮路二段66-1號","121.404051666667","25.08776","6501700","林口區"
"244008","837-TS","2018/01/04 07:59:39","新北市林口區粉寮路二段221號","121.404178333333","25.09056","6501700","林口區"
"244020","838-TS","2018/01/04 07:59:40","新北市林口區粉寮69號","121.404923333333","25.0908483333333","6501700","林口區"
"222006","289-BY","2018/01/04 07:59:33","新北市深坑區文化街45號","121.61696","25.0017416666667","6501800","深坑區"
"231069","189-VK","2018/01/04 07:59:40","新北市新店區華潭街52號","121.528436666667","24.9547333333333","6500600","新店區"
"231008","192-VK","2018/01/04 07:59:38","新北市新店區安華路28-1號","121.519675","24.9613483333333","6500600","新店區"
"226005","5620-A6","2018/01/04 07:59:34","新北市平溪區嶺腳里嶺腳寮74-1號","121.747666666667","25.0325","6502400","平溪區"
"226002","7418-A5","2018/01/04 07:59:36","新北市平溪區十分里姜仔坑13號","121.770093333333","25.0390333333333","6502400","平溪區"
"226003","AGD-0702","2018/01/04 07:59:39","新北市平溪區嶺腳里嶺腳寮74號","121.747601666667","25.0322716666667","6502400","平溪區"
"223006","022-BY","2018/01/04 07:59:39","新北市石碇區八分寮47-1號","121.64312","25.0137583333333","6501900","石碇區"
"223002","198-BX","2018/01/04 07:59:42","新北市石碇區北宜路五段80號","121.646573333333","24.9518216666667","6501900","石碇區"
"223008","406-TH","2018/01/04 07:59:48","新北市石碇區靜安路一段269號","121.694158333333","25.0069933333333","6501900","石碇區"
"223001","437-BY","2018/01/04 07:59:39","新北市石碇區北宜路五段80號","121.646373333333","24.9516816666667","6501900","石碇區"
"223004","660-BX","2018/01/04 07:59:33","新北市石碇區楓子林54-3號","121.643035","25.0085166666667","6501900","石碇區"
"223007","661-BX","2018/01/04 07:59:37","新北市石碇區靜安路一段273號","121.6943","25.0070133333333","6501900","石碇區"
"223005","677-TV","2018/01/04 07:59:43","新北市石碇區楓子林36-3號","121.642346666667","25.0095866666667","6501900","石碇區"
"227007","282-VK","2018/01/04 07:59:48","新北市雙溪區平林里梅竹蹊16號","121.861995","25.0359533333333","6502500","雙溪區"
"252004","249-BX","2018/01/04 07:59:33","新北市三芝區店子里店子72-2號","121.50669","25.2022966666667","6502100","三芝區"
"252007","AAC-283","2018/01/04 07:59:42","新北市三芝區後厝里芝麻三街2號","121.474803333333","25.2452216666667","6502100","三芝區"
"237001","159-UY","2018/01/04 07:59:34","新北市三峽區大學路45-1號","121.376941666667","24.9406283333333","6500900","三峽區"
"236009","165-UM","2018/01/04 07:59:37","新北市土城區永豐路252號","121.468531666667","24.9801533333333","6501300","土城區"
"236003","339-SR","2018/01/04 07:57:50","新北市土城區龍泉路89-3號","121.447008333333","24.9434066666667","6501300","土城區"
"242030","AAC-296","2018/01/04 07:59:35","新北市新莊區新泰路401巷25號","121.442636666667","25.043935","6500500","新莊區"
"242028","986-R7","2018/01/04 07:59:45","新北市新莊區復興路二段194號","121.45926","25.0444583333333","6500500","新莊區"
"242049","751-BX","2018/01/04 07:59:36","新北市新莊區新樹路445號","121.433041666667","25.0135916666667","6500500","新莊區"
"242024","615-BX","2018/01/04 07:59:46","新北市新莊區中港路281號","121.45316","25.0438283333333","6500500","新莊區"
"242022","613-BX","2018/01/04 07:59:46","新北市新莊區公園路148號","121.453108333333","25.0400716666667","6500500","新莊區"
"242026","612-BX","2018/01/04 07:59:49","新北市新莊區思源路157號","121.459608333333","25.0445566666667","6500500","新莊區"
"242038","566-BX","2018/01/04 07:59:33","新北市新莊區民安西路42號","121.427338333333","25.021075","6500500","新莊區"
"242043","442-UM","2018/01/04 07:59:42","新北市新莊區富國路60號","121.419136666667","25.0261883333333","6500500","新莊區"
"242047","441-UM","2018/01/04 07:59:41","新北市新莊區四維路210號","121.421311666667","25.0200883333333","6500500","新莊區"
"242052","440-UM","2018/01/04 07:59:43","新北市新莊區瓊林南路305巷5弄1號","121.43496","25.00569","6500500","新莊區"
"242033","415-TV","2018/01/04 07:59:32","新北市新莊區瓊林路13-2號","121.449011666667","25.031115","6500500","新莊區"
"242040","400-BY","2018/01/04 07:59:31","新北市新莊區新樹路115號","121.437388333333","25.0265966666667","6500500","新莊區"
"242059","362-BY","2018/01/04 07:59:43","新北市新莊區瓊林路170-1號","121.441285","25.02363","6500500","新莊區"
"242057","353-BY","2018/01/04 07:59:38","新北市新莊區中正路400號","121.441938333333","25.0342233333333","6500500","新莊區"
"242006","132-UY","2018/01/04 07:59:35","新北市新莊區自信街57號","121.455123333333","25.0482916666667","6500500","新莊區"
"242035","133-UY","2018/01/04 07:59:43","新北市新莊區建國二路5-3號","121.434856666667","25.0236783333333","6500500","新莊區"
"242020","135-UY","2018/01/04 07:59:29","新北市新莊區中華路一段18號","121.452013333333","25.03712","6500500","新莊區"
"242045","172-VK","2018/01/04 07:09:28","新北市新莊區新泰路255巷83號","121.442368333333","25.0388983333333","6500500","新莊區"
"242008","173-VK","2018/01/04 07:59:43","新北市新莊區中原路189-1號","121.452523333333","25.0543816666667","6500500","新莊區"
"242014","175-VK","2018/01/04 07:59:36","新北市新莊區新泰路207號","121.447026666667","25.038345","6500500","新莊區"
"242001","176-VK","2018/01/04 07:59:50","新北市新莊區瓊林路118號","121.4424","25.0255833333333","6500500","新莊區"
"242012","346-TH","2018/01/04 07:59:41","新北市新莊區中誠街102號","121.449785","25.04774","6500500","新莊區"
"242018","348-TH","2018/01/04 07:59:38","新北市新莊區中港路89號","121.455383333333","25.039195","6500500","新莊區"
"242016","350-TH","2018/01/04 07:59:44","新北市新莊區德豐街2號","121.45165","25.04393","6500500","新莊區"
"242010","351-TH","2018/01/04 07:59:46","新北市新莊區中港路408號","121.452206666667","25.05016","6500500","新莊區"
"220064","282-UM","2018/01/04 07:59:42","新北市板橋區華東街330號","121.45322","25.00376","6500100","板橋區"
"242003","281-VK","2018/01/04 07:59:34","新北市新莊區復興路一段220號","121.453001666667","25.043745","6500500","新莊區"
"242055","280-VK","2018/01/04 07:59:27","新北市新莊區新泰路61號","121.44949","25.0341016666667","6500500","新莊區"
