"lineid","car","time","location","longitude","latitude","cityid","cityname"
"248005","653-BX","2018/01/04 09:07:27","新北市五股區水碓路19號","121.43332","25.07261","6501500","五股區"
"244012","069-UM","2018/01/04 09:07:28","新北市林口區中山路258-1號","121.385133333333","25.0797416666667","6501700","林口區"
"244003","248-BX","2018/01/04 09:07:28","新北市林口區頂福里6鄰32號","121.360703333333","25.0971116666667","6501700","林口區"
"244018","403-UM","2018/01/04 09:07:43","新北市林口區麗園路121號","121.371551666667","25.0675266666667","6501700","林口區"
"244024","742-UY","2018/01/04 09:07:45","新北市林口區仁愛二路101-1號","121.367806666667","25.07518","6501700","林口區"
"244022","483-VK","2018/01/04 09:07:33","新北市林口區東湖路153巷135號","121.382196666667","25.0735166666667","6501700","林口區"
"244016","485-VK","2018/01/04 09:07:37","新北市林口區文化二路一段68巷31號","121.366916666667","25.068945","6501700","林口區"
"244010","656-BX","2018/01/04 09:07:41","新北市林口區中正路41巷1弄2號","121.3959","25.077115","6501700","林口區"
"244008","837-TS","2018/01/04 09:07:39","新北市林口區民生路46號","121.376478333333","25.0869383333333","6501700","林口區"
"222006","289-BY","2018/01/04 09:07:33","新北市深坑區土庫尖路75-1號","121.631913333333","25.0180666666667","6501800","深坑區"
"231069","189-VK","2018/01/04 09:07:40","新北市新店區新潭路三段215巷25號","121.508085","24.9040933333333","6500600","新店區"
"231008","192-VK","2018/01/04 09:07:38","新北市新店區廣興路66巷3號","121.538858333333","24.9136533333333","6500600","新店區"
"226005","5620-A6","2018/01/04 09:07:34","新北市平溪區十分里十分街238號","121.778023333333","25.0441416666667","6502400","平溪區"
"226002","7418-A5","2018/01/04 09:07:34","新北市平溪區東勢里芊蓁坑22號","121.735153333333","24.9840183333333","6502400","平溪區"
"226003","AGD-0702","2018/01/04 09:07:39","新北市平溪區十分里十分街236號","121.778096666667","25.0440333333333","6502400","平溪區"
"223008","406-TH","2018/01/04 09:07:08","新北市石碇區光明路耳空龜巷18-3號","121.691706666667","25.0349233333333","6501900","石碇區"
"223001","437-BY","2018/01/04 09:07:39","新北市石碇區北宜路四段30號","121.624491666667","24.956625","6501900","石碇區"
"223004","592-UM","2018/01/04 09:07:41","新北市石碇區崩山53號","121.682376666667","24.9688683333333","6501900","石碇區"
"223007","661-BX","2018/01/04 09:01:57","新北市石碇區光明路16-1號","121.686206666667","25.03299","6501900","石碇區"
"223005","677-TV","2018/01/04 09:07:32","新北市石碇區崩山53-1號","121.68243","24.967155","6501900","石碇區"
"252004","249-BX","2018/01/04 09:07:33","新北市三芝區興華里田心子28號","121.494295","25.1990066666667","6502100","三芝區"
"252007","AAC-283","2018/01/04 09:07:42","新北市三芝區古庄里四棧橋24號","121.486943333333","25.2604716666667","6502100","三芝區"
"237001","159-UY","2018/01/04 09:07:34","新北市樹林區中山路三段210-2號","121.38125","24.9651866666667","6500900","三峽區"
"236009","165-UM","2018/01/04 09:07:37","新北市土城區金城路二段46巷1-24號","121.45371","24.9754583333333","6501300","土城區"
"236015","270-VK","2018/01/04 09:07:40","新北市鶯歌區中正一路461-5號","121.363405","24.956395","6501300","土城區"
"236003","339-SR","2018/01/04 09:07:30","新北市土城區慶安街57號","121.440881666667","24.973025","6501300","土城區"
"236005","498-BY","2018/01/04 09:07:37","新北市土城區承天路1號","121.435845","24.9662516666667","6501300","土城區"
"242030","AAC-296","2018/01/04 09:07:35","新北市新莊區仁愛街73號","121.444021666667","25.0377833333333","6500500","新莊區"
"242028","986-R7","2018/01/04 09:07:24","新北市新莊區中華路二段181號","121.45252","25.0521816666667","6500500","新莊區"
"242049","751-BX","2018/01/04 09:07:36","新北市新莊區西盛街258巷2號","121.427908333333","25.0158933333333","6500500","新莊區"
"242024","615-BX","2018/01/04 09:07:46","新北市新莊區五工二路70號","121.46022","25.065825","6500500","新莊區"
"242022","613-BX","2018/01/04 09:07:26","新北市新莊區化成路846號","121.464796666667","25.0604516666667","6500500","新莊區"
"242026","612-BX","2018/01/04 09:07:29","新北市新莊區幸福路606號","121.45197","25.0492516666667","6500500","新莊區"
"242038","566-BX","2018/01/04 09:07:33","新北市新莊區龍安路473號","121.425161666667","25.0183566666667","6500500","新莊區"
"242043","442-UM","2018/01/04 09:07:42","新北市新莊區中正路929巷15號","121.410941666667","25.0204966666667","6500500","新莊區"
"242047","441-UM","2018/01/04 09:07:41","新北市新莊區四維路186巷9號","121.421511666667","25.0212066666667","6500500","新莊區"
"242052","440-UM","2018/01/04 09:07:46","新北市新莊區民安西路253號","121.426258333333","25.0133866666667","6500500","新莊區"
"242033","415-TV","2018/01/04 09:07:32","新北市新莊區建中街141號","121.445058333333","25.0365066666667","6500500","新莊區"
"242040","400-BY","2018/01/04 09:07:26","新北市新莊區天祥街57號","121.416336666667","25.0290583333333","6500500","新莊區"
"242059","362-BY","2018/01/04 09:07:43","新北市新莊區瓊泰路1號","121.445088333333","25.02863","6500500","新莊區"
"242057","353-BY","2018/01/04 09:07:40","新北市新莊區八德街19號","121.42518","25.0226166666667","6500500","新莊區"
"242006","132-UY","2018/01/04 09:07:35","新北市新莊區思源路287巷1弄29號","121.459403333333","25.0471066666667","6500500","新莊區"
"242035","133-UY","2018/01/04 09:07:43","新北市新莊區建安街25巷7號","121.429468333333","25.0261683333333","6500500","新莊區"
"242020","135-UY","2018/01/04 09:07:29","新北市新莊區復興路一段8號","121.445673333333","25.0414583333333","6500500","新莊區"
"242045","172-VK","2018/01/04 09:07:28","新北市新莊區裕民街105號","121.41828","25.023015","6500500","新莊區"
"242008","173-VK","2018/01/04 09:07:43","新北市新莊區昌盛街38號","121.454346666667","25.0498683333333","6500500","新莊區"
"242014","175-VK","2018/01/04 09:07:36","新北市新莊區永樂街259號","121.445521666667","25.04433","6500500","新莊區"
"242001","176-VK","2018/01/04 09:07:30","新北市三重區重新路五段635-1號","121.467215","25.04361","6500500","新莊區"
"242012","346-TH","2018/01/04 09:07:41","新北市新莊區中平路292巷1弄3號","121.44567","25.05159","6500500","新莊區"
"242018","348-TH","2018/01/04 09:07:38","新北市新莊區博愛路9巷1號","121.456045","25.0440716666667","6500500","新莊區"
"242016","350-TH","2018/01/04 09:07:43","新北市新莊區中平路63-2號","121.444661666667","25.044695","6500500","新莊區"
"242010","351-TH","2018/01/04 09:07:46","新北市新莊區中信街18號","121.45088","25.0508616666667","6500500","新莊區"
"220064","282-UM","2018/01/04 09:07:42","新北市板橋區大觀路一段28巷132-5號","121.449723333333","25.0144333333333","6500100","板橋區"
"220094","285-UM","2018/01/04 09:07:32","新北市鶯歌區鶯桃路38號","121.341985","24.9527516666667","6500100","板橋區"
"242003","281-VK","2018/01/04 09:07:34","新北市新莊區思源路94巷21號","121.461501666667","25.0459083333333","6500500","新莊區"
"242055","280-VK","2018/01/04 09:07:27","新北市新莊區新莊路496-1號","121.446348333333","25.0334383333333","6500500","新莊區"
