"lineid","car","time","location","longitude","latitude","cityid","cityname"
"248005","653-BX","2018/01/04 09:49:46","新北市五股區成泰路一段241巷22號","121.43562","25.0811783333333","6501500","五股區"
"244012","069-UM","2018/01/04 09:49:48","新北市林口區麗園一街4巷1號","121.376405","25.0713183333333","6501700","林口區"
"244018","403-UM","2018/01/04 09:49:43","新北市林口區忠孝路648號","121.37908","25.0685466666667","6501700","林口區"
"244024","742-UY","2018/01/04 09:33:30","新北市林口區粉寮路二段160巷28號","121.405178333333","25.0907766666667","6501700","林口區"
"244022","483-VK","2018/01/04 09:49:52","新北市林口區文林六街62巷46號","121.371341666667","25.0821633333333","6501700","林口區"
"222006","289-BY","2018/01/04 09:49:53","新北市深坑區大崙腳2-1號","121.614451666667","24.9942516666667","6501800","深坑區"
"231069","189-VK","2018/01/04 09:49:40","新北市新店區新潭路三段215巷25號","121.508148333333","24.9040283333333","6500600","新店區"
"231008","192-VK","2018/01/04 09:47:50","新北市新店區平廣路一段256號","121.507791666667","24.8882666666667","6500600","新店區"
"223004","592-UM","2018/01/04 09:49:40","新北市石碇區小粗坑(潭邊里)1-6號","121.672275","24.98273","6501900","石碇區"
"223005","677-TV","2018/01/04 09:49:39","新北市石碇區小粗坑(潭邊里)1-6號","121.672153333333","24.9827183333333","6501900","石碇區"
"252004","249-BX","2018/01/04 09:46:53","新北市三芝區圓山里石曹子坑64-28號","121.524428333333","25.21081","6502100","三芝區"
"252007","AAC-283","2018/01/04 09:49:42","新北市三芝區陽明路2號","121.518551666667","25.2635333333333","6502100","三芝區"
"237001","159-UY","2018/01/04 09:49:54","新北市三峽區國學街35號","121.372803333333","24.9424266666667","6500900","三峽區"
"236009","165-UM","2018/01/04 09:49:37","新北市土城區中央路四段464號","121.409791666667","24.95045","6501300","土城區"
"236005","498-BY","2018/01/04 09:49:37","新北市土城區千歲路13號","121.441041666667","24.96963","6501300","土城區"
"242030","AAC-296","2018/01/04 09:49:56","新北市新莊區三泰路46號","121.437658333333","25.0353833333333","6500500","新莊區"
"242047","441-UM","2018/01/04 09:49:40","新北市新莊區環漢路四段1號","121.435093333333","25.000365","6500500","新莊區"
"242059","362-BY","2018/01/04 09:49:43","新北市新莊區瓊林南路12-2號","121.436378333333","25.0190766666667","6500500","新莊區"
"242057","353-BY","2018/01/04 09:49:38","新北市新莊區四維路117號","121.423143333333","25.0232016666667","6500500","新莊區"
"242035","133-UY","2018/01/04 09:49:43","新北市新莊區瓊林路59-66號","121.441371666667","25.0226366666667","6500500","新莊區"
"220094","285-UM","2018/01/04 09:49:52","新北市板橋區館前西路49號","121.457831666667","25.0066766666667","6500100","板橋區"
"242003","281-VK","2018/01/04 09:49:54","新北市新莊區化成路746巷3弄1號","121.465901666667","25.05777","6500500","新莊區"
