"lineid","car","time","location","longitude","latitude","cityid","cityname"
"248005","653-BX","2018/01/04 10:07:26","新北市五股區中興路二段37巷24號","121.460706666667","25.0749833333333","6501500","五股區"
"244018","403-UM","2018/01/04 10:07:43","新北市林口區麗園二街81號","121.38225","25.0676683333333","6501700","林口區"
"244024","742-UY","2018/01/04 09:33:30","新北市林口區粉寮路二段160巷28號","121.405178333333","25.0907766666667","6501700","林口區"
"244022","483-VK","2018/01/04 10:07:33","新北市林口區文化三路一段486號","121.370328333333","25.0755366666667","6501700","林口區"
"222006","289-BY","2018/01/04 10:07:33","新北市深坑區大崙尾1-1號","121.615703333333","24.9752033333333","6501800","深坑區"
"231069","189-VK","2018/01/04 10:07:40","新北市新店區新潭路三段215巷25號","121.508123333333","24.904075","6500600","新店區"
"231008","192-VK","2018/01/04 10:05:58","新北市新店區平廣路一段151號","121.52184","24.8911733333333","6500600","新店區"
"252004","249-BX","2018/01/04 10:07:33","新北市三芝區福德里埔尾22號","121.504925","25.243745","6502100","三芝區"
"252007","AAC-283","2018/01/04 10:07:42","新北市三芝區新庄里新庄子51-16號","121.50731","25.27786","6502100","三芝區"
"237001","159-UY","2018/01/04 10:07:34","新北市樹林區學勤路199號","121.376875","24.9476266666667","6500900","三峽區"
"236005","498-BY","2018/01/04 10:07:37","新北市土城區城林路6巷80號","121.438721666667","24.9797283333333","6501300","土城區"
"242059","362-BY","2018/01/04 10:07:43","新北市新莊區瓊林路13-2號","121.449363333333","25.0310533333333","6500500","新莊區"
"242003","281-VK","2018/01/04 10:07:34","新北市新莊區思源路45號","121.460061666667","25.0399616666667","6500500","新莊區"
