"lineid","car","time","location","longitude","latitude","cityid","cityname"
"244018","403-UM","2018/01/04 10:59:12","新北市林口區粉寮69號","121.405063333333","25.0907916666667","6501700","林口區"
"244024","742-UY","2018/01/04 09:33:30","新北市林口區粉寮路二段160巷28號","121.405178333333","25.0907766666667","6501700","林口區"
"222006","289-BY","2018/01/04 10:59:33","新北市深坑區文山路二段31號","121.615696666667","24.9987266666667","6501800","深坑區"
"231069","189-VK","2018/01/04 10:59:40","新北市新店區新潭路一段202號","121.528925","24.9300916666667","6500600","新店區"
"231008","192-VK","2018/01/04 10:34:18","新北市新店區小坑一路41-1號","121.526985","24.9097933333333","6500600","新店區"
"237001","159-UY","2018/01/04 10:59:34","新北市三峽區中山路459巷163-3號","121.349161666667","24.93338","6500900","三峽區"
