"lineid","car","time","location","longitude","latitude","cityid","cityname"
"244018","403-UM","2018/01/04 10:59:12","新北市林口區粉寮69號","121.405063333333","25.0907916666667","6501700","林口區"
"244024","742-UY","2018/01/04 09:33:30","新北市林口區粉寮路二段160巷28號","121.405178333333","25.0907766666667","6501700","林口區"
"231069","189-VK","2018/01/04 11:05:40","新北市新店區新潭路一段140巷11號","121.527838333333","24.934755","6500600","新店區"
"231008","192-VK","2018/01/04 10:34:18","新北市新店區小坑一路41-1號","121.526985","24.9097933333333","6500600","新店區"
"237001","159-UY","2018/01/04 11:05:34","新北市三峽區中山路459巷163-3號","121.34916","24.9333933333333","6500900","三峽區"
