"lineid","car","time","location","longitude","latitude","cityid","cityname"
"244018","403-UM","2018/01/04 10:59:12","新北市林口區粉寮69號","121.405063333333","25.0907916666667","6501700","林口區"
"244024","742-UY","2018/01/04 09:33:30","新北市林口區粉寮路二段160巷28號","121.405178333333","25.0907766666667","6501700","林口區"
"243003","297-R6","2018/01/04 11:54:50","新北市泰山區黎明路37-6號","121.421956666667","25.059605","6501600","泰山區"
"231008","192-VK","2018/01/04 10:34:18","新北市新店區小坑一路41-1號","121.526985","24.9097933333333","6500600","新店區"
"235031","255-BX","2018/01/04 11:41:11","新北市中和區和城路一段271巷1號","121.485706666667","24.9918683333333","6500300","中和區"
"237001","159-UY","2018/01/04 11:59:34","新北市三峽區三樹路76號","121.37789","24.9386066666667","6500900","三峽區"
"221012","276-VK","2018/01/04 11:59:36","新北市汐止區康寧街901號","121.651073333333","25.0751266666667","6501100","汐止區"
