"lineid","car","time","location","longitude","latitude","cityid","cityname"
"234005","207-UY","2018/01/04 14:51:46","新北市永和區安樂路208-1號","121.514928333333","25.00208","6500400","永和區"
"234025","9371-KE","2018/01/04 14:51:47","新北市永和區水源街33巷4號","121.510816666667","25.0041266666667","6500400","永和區"
"248015","026-BX","2018/01/04 14:51:50","新北市五股區成泰路三段577巷80弄72號","121.448916666667","25.1047583333333","6501500","五股區"
"248007","095-VK","2018/01/04 14:51:38","新北市五股區四維路171巷13號","121.467166666667","25.0752533333333","6501500","五股區"
"248017","225-UY","2018/01/04 14:24:54","新北市五股區壟路16號","121.415355","25.0858583333333","6501500","五股區"
"248011","247-BX","2018/01/04 14:51:52","新北市五股區六合街86號","121.431821666667","25.09022","6501500","五股區"
"248013","261-SL","2018/01/04 14:51:34","新北市五股區五福路14巷29號","121.435443333333","25.0889383333333","6501500","五股區"
"248009","272-BY","2018/01/04 14:51:35","新北市五股區成泰路一段42號","121.43542","25.0688","6501500","五股區"
"248003","677-BX","2018/01/04 14:51:42","新北市五股區成泰路一段48-1號","121.435373333333","25.0691583333333","6501500","五股區"
"248001","678-BX","2018/01/04 14:51:44","新北市五股區成泰路三段152號","121.444895","25.0913333333333","6501500","五股區"
"234072","AAC-211","2018/01/04 14:51:44","新北市永和區環河西路二段167號","121.505135","25.013765","6500400","永和區"
"244003","248-BX","2018/01/04 14:48:20","新北市林口區林口路76號","121.389713333333","25.0807216666667","6501700","林口區"
"244018","403-UM","2018/01/04 10:59:12","新北市林口區粉寮69號","121.405063333333","25.0907916666667","6501700","林口區"
"244024","742-UY","2018/01/04 09:33:30","新北市林口區粉寮路二段160巷28號","121.405178333333","25.0907766666667","6501700","林口區"
"243004","AAD-798","2018/01/04 14:51:47","新北市泰山區楓江路89號","121.436995","25.0636666666667","6501600","泰山區"
"243003","297-R6","2018/01/04 14:51:48","新北市新莊區丹鳳街36號","121.4216","25.0295933333333","6501600","泰山區"
"243007","380-SR","2018/01/04 14:51:50","新北市泰山區明志路一段472號","121.430463333333","25.055055","6501600","泰山區"
"243006","421-VK","2018/01/04 14:51:48","新北市泰山區明志路一段24號","121.433575","25.065455","6501600","泰山區"
"243002","KEA-2215","2018/01/04 14:51:47","新北市泰山區明志路二段273巷16弄25號","121.427813333333","25.04648","6501600","泰山區"
"243001","KEA-2216","2018/01/04 14:51:33","新北市泰山區泰林路二段292巷11號","121.431501666667","25.06352","6501600","泰山區"
"243005","646-TV","2018/01/04 14:51:43","新北市泰山區新民路14巷1號","121.426571666667","25.0446383333333","6501600","泰山區"
"243008","680-BX","2018/01/04 14:51:49","新北市泰山區明志路三段413號","121.421108333333","25.0337916666667","6501600","泰山區"
"231025","0291-UT","2018/01/04 14:51:43","新北市新店區民族路163號","121.537645","24.976675","6500600","新店區"
"231037","0293-UT","2018/01/04 14:51:34","新北市新店區柴埕路60巷1-1號","121.510316666667","24.9633666666667","6500600","新店區"
"231028","046-UY","2018/01/04 14:51:44","新北市新店區安康路二段354號","121.502276666667","24.9574316666667","6500600","新店區"
"231030","047-UY","2018/01/04 14:51:49","新北市新店區安民街382號","121.516278333333","24.976605","6500600","新店區"
"231029","106-UY","2018/01/04 14:51:41","新北市新店區錦秀路11巷79號","121.480391666667","24.944645","6500600","新店區"
"231018","107-UY","2018/01/04 14:51:41","新北市新店區中央六街6號","121.530253333333","24.9744266666667","6500600","新店區"
"231011","108-UY","2018/01/04 14:51:47","新北市新店區永華街35號","121.543965","24.97619","6500600","新店區"
"231039","110-UY","2018/01/04 14:51:42","新北市新店區寶高路102巷20號","121.553136666667","24.9727983333333","6500600","新店區"
"231021","187-VK","2018/01/04 14:51:47","新北市新店區永福路36-1號","121.55258","24.9296833333333","6500600","新店區"
"231017","KEA-2219","2018/01/04 14:51:39","新北市新店區雙峰路16-1號","121.581211666667","24.9502866666667","6500600","新店區"
"231026","256-BX","2018/01/04 14:51:42","新北市新店區環河路1-1號","121.53803","24.9616033333333","6500600","新店區"
"231023","AAD-862","2018/01/04 14:51:34","新北市新店區檳榔路109號","121.544346666667","24.9616983333333","6500600","新店區"
"231002","355-BY","2018/01/04 14:51:46","新北市新店區民權路85號","121.538143333333","24.982855","6500600","新店區"
"231024","4716-K9","2018/01/04 14:51:38","新北市新店區新生街3巷4號","121.540285","24.9656116666667","6500600","新店區"
"231036","512-UM","2018/01/04 14:51:30","新北市新店區安祥路106巷2號","121.479003333333","24.9620933333333","6500600","新店區"
"231035","515-UM","2018/01/04 14:51:36","新北市新店區安和路二段192號","121.519165","24.9745833333333","6500600","新店區"
"231001","619-UM","2018/01/04 14:51:33","新北市新店區三民路79號","121.535858333333","24.9715416666667","6500600","新店區"
"231003","641-BX","2018/01/04 14:51:47","新北市新店區中興路一段298號","121.546186666667","24.9694583333333","6500600","新店區"
"231034","645-TV","2018/01/04 14:51:49","新北市新店區安康路二段373號","121.495253333333","24.954685","6500600","新店區"
"231013","719-UM","2018/01/04 14:51:44","新北市新店區北新路一段329號","121.54176","24.9684516666667","6500600","新店區"
"231031","720-UM","2018/01/04 14:51:42","新北市新店區安泰路22號","121.485501666667","24.94837","6500600","新店區"
"231005","897-TW","2018/01/04 14:51:48","新北市新店區復興路131-1號","121.531996666667","24.9884683333333","6500600","新店區"
"231006","898-TW","2018/01/04 14:51:37","新北市新店區北宜路一段107-2號","121.53955","24.95507","6500600","新店區"
"231004","899-TW","2018/01/04 14:51:51","新北市新店區建國路131號","121.539421666667","24.97814","6500600","新店區"
"235030","003-UY","2018/01/04 14:51:38","新北市中和區南工路30號","121.505771666667","25.0010416666667","6500300","中和區"
"235027","006-UY","2018/01/04 14:51:33","新北市中和區連城路263巷12號","121.49244","24.9951033333333","6500300","中和區"
"235010","031-BX","2018/01/04 14:51:41","新北市中和區興南路一段61號","121.51045","24.9896383333333","6500300","中和區"
"235020","096-UM","2018/01/04 14:51:41","新北市中和區中山路三段114巷3號","121.47534","25.007465","6500300","中和區"
"235003","097-UM","2018/01/04 14:51:34","新北市中和區安樂路243巷2號","121.513921666667","24.9996966666667","6500300","中和區"
"235004","150-BY","2018/01/04 14:51:35","新北市中和區景安路79巷21號","121.50702","24.9967266666667","6500300","中和區"
"235022","151-BY","2018/01/04 14:50:29","新北市中和區員山路173號","121.481163333333","24.997015","6500300","中和區"
"235019","183-VK","2018/01/04 14:51:34","新北市中和區民德路9號","121.468853333333","25.003065","6500300","中和區"
"235002","185-VK","2018/01/04 14:51:32","新北市中和區自立路15巷1號","121.522505","24.9963333333333","6500300","中和區"
"235013","186-VK","2018/01/04 14:51:51","新北市中和區中興街41號","121.500615","24.9942783333333","6500300","中和區"
"235031","255-BX","2018/01/04 14:51:39","新北市中和區員山路148巷23弄7號","121.48221","24.9976483333333","6500300","中和區"
"235008","293-VK","2018/01/04 14:51:34","新北市中和區南山路257號","121.50378","24.9927366666667","6500300","中和區"
"235036","301-VK","2018/01/04 14:51:49","新北市中和區連城路125號","121.496061666667","24.9992533333333","6500300","中和區"
"235007","352-BY","2018/01/04 14:51:45","新北市中和區安樂路11號","121.511723333333","24.992175","6500300","中和區"
"235032","377-QA","2018/01/04 14:51:53","新北市中和區福美路301巷44號","121.497693333333","25.0034566666667","6500300","中和區"
"235014","4979-A6","2018/01/04 14:51:38","新北市中和區景平路241巷64弄1號","121.50759","24.9924116666667","6500300","中和區"
"235033","4980-A6","2018/01/04 14:50:19","新北市中和區景平路630巷18號","121.500838333333","24.9982883333333","6500300","中和區"
"235034","558-UM","2018/01/04 14:50:33","新北市中和區景平路591-1號","121.497158333333","25.0003583333333","6500300","中和區"
"235018","640-BX","2018/01/04 14:51:43","新北市中和區莒光路200號","121.472116666667","24.9985233333333","6500300","中和區"
"235024","647-TV","2018/01/04 14:51:32","新北市中和區新生街30巷21號","121.482375","25.0037483333333","6500300","中和區"
"235011","732-UM","2018/01/04 14:51:39","新北市中和區和平街74號","121.507805","24.99102","6500300","中和區"
"235026","800-TS","2018/01/04 14:51:41","新北市中和區中山路二段389號","121.4868","25.004865","6500300","中和區"
"235021","801-TS","2018/01/04 14:51:37","新北市中和區員山路187號","121.481213333333","24.9971683333333","6500300","中和區"
"235016","805-TS","2018/01/04 14:51:44","新北市中和區華新街50巷5弄30號","121.507493333333","24.9833016666667","6500300","中和區"
"235012","896-TW","2018/01/04 14:51:40","新北市中和區忠孝街2-7號","121.509166666667","24.982965","6500300","中和區"
"235017","900-TW","2018/01/04 14:51:37","新北市中和區國光街215巷6弄1號","121.466541666667","25.001475","6500300","中和區"
"235029","911-UM","2018/01/04 14:51:40","新北市中和區永和路90巷13號","121.49788","25.0060416666667","6500300","中和區"
"235015","157-BY","2018/01/04 14:51:50","新北市中和區復興路332號","121.500521666667","24.9903533333333","6500300","中和區"
"235001","AAC-213","2018/01/04 14:51:47","新北市中和區自立路189號","121.523958333333","24.99133","6500300","中和區"
"235023","AAC-215","2018/01/04 14:51:35","新北市中和區圓通路305巷5弄12號","121.493973333333","24.9902033333333","6500300","中和區"
"220013","072-UY","2018/01/04 14:51:50","新北市板橋區國泰街39巷4弄2號","121.468483333333","25.00609","6500100","板橋區"
"220105","075-UY","2018/01/04 14:51:40","新北市板橋區仁化街221號","121.478941666667","25.0346266666667","6500100","板橋區"
"220017","AAD-861","2018/01/04 14:51:41","新北市板橋區南雅南路二段11-1號","121.454251666667","25.0026783333333","6500100","板橋區"
"220045","120-SR","2018/01/04 14:51:38","新北市板橋區民生路二段234巷77號","121.470336666667","25.0226","6500100","板橋區"
"247021","893-R6","2018/01/04 14:51:50","新北市蘆洲區中正路472號","121.462315","25.09547","6501400","蘆洲區"
"247007","341-TH","2018/01/04 14:51:34","新北市蘆洲區中山二路300巷2號","121.4687","25.0770083333333","6501400","蘆洲區"
"247001","337-TH","2018/01/04 14:51:32","新北市蘆洲區長安街246巷25號","121.45843","25.08644","6501400","蘆洲區"
"247003","336-TH","2018/01/04 14:51:40","新北市蘆洲區長安街285巷5弄1號","121.457926666667","25.084245","6501400","蘆洲區"
"247015","057-VK","2018/01/04 14:51:34","新北市蘆洲區和平路209號","121.465913333333","25.0817816666667","6501400","蘆洲區"
"247013","007-UY","2018/01/04 14:51:50","新北市蘆洲區成功路115號","121.472565","25.0819816666667","6501400","蘆洲區"
"247023","002-UY","2018/01/04 14:51:41","新北市五股區四維路185巷33號","121.464695","25.0777833333333","6501400","蘆洲區"
"228004","212-TW","2018/01/04 14:51:43","新北市貢寮區福隆里裕隆街1號","121.947946666667","25.0159216666667","6502600","貢寮區"
"253003","6232-TK","2018/01/04 14:51:47","新北市石門區尖子鹿103-1號","121.579505","25.29439","6502200","石門區"
"253001","6251-TK","2018/01/04 14:51:41","新北市石門區崁子腳37號","121.537555","25.268635","6502200","石門區"
"253002","637-UY","2018/01/04 14:51:38","新北市石門區七股12-1號","121.546188333333","25.2682416666667","6502200","石門區"
"253004","8270-PC","2018/01/04 14:51:32","新北市石門區茂林社區227-1號","121.59165","25.2703666666667","6502200","石門區"
"208004","AAC-292","2018/01/04 14:51:42","新北市金山區兩湖里倒照湖21-1號","121.594226666667","25.2390316666667","6502700","金山區"
"207002","749-BX","2018/01/04 14:51:49","新北市萬里區崁腳里崁腳路73號","121.647581666667","25.1595483333333","6502800","萬里區"
"252005","073-UM","2018/01/04 14:51:41","新北市三芝區茂長里陳厝坑64-1號","121.511526666667","25.25475","6502100","三芝區"
"207001","662-BX","2018/01/04 14:50:53","新北市萬里區雙興里豐稟路8號","121.646496666667","25.18241","6502800","萬里區"
"236066","105-UM","2018/01/04 14:51:41","新北市土城區金城路二段235號","121.45564","24.9824666666667","6501300","土城區"
"236040","107-UM","2018/01/04 14:51:44","新北市土城區裕民路136巷29號","121.45066","24.9851333333333","6501300","土城區"
"236076","166-UM","2018/01/04 14:51:42","新北市土城區中央路四段165巷13號","121.416096666667","24.9558816666667","6501300","土城區"
"236028","253-BX","2018/01/04 14:51:36","新北市土城區忠義路38號","121.440446666667","24.9697783333333","6501300","土城區"
"236024","269-VK","2018/01/04 14:51:47","新北市土城區慶安街8號","121.441935","24.9734616666667","6501300","土城區"
"236012","270-VK","2018/01/04 14:51:34","新北市土城區清水路261巷3弄1號","121.46284","24.9845733333333","6501300","土城區"
"236033","271-VK","2018/01/04 14:51:37","新北市土城區仁愛路54巷9號","121.462145","24.9784366666667","6501300","土城區"
"236018","401-BY","2018/01/04 14:51:35","新北市土城區德峰街39號","121.467371666667","24.9856716666667","6501300","土城區"
"236056","912-UM","2018/01/04 14:51:36","新北市土城區永安街2號","121.434568333333","24.9656133333333","6501300","土城區"
"236047","913-UM","2018/01/04 14:51:51","新北市土城區青雲路26號","121.46","24.9887416666667","6501300","土城區"
"236060","915-UM","2018/01/04 14:51:37","新北市土城區金城路三段149巷14號","121.46816","24.988845","6501300","土城區"
"236047","970-R7","2018/01/04 14:51:32","新北市土城區裕民路160巷13號","121.451826666667","24.985165","6501300","土城區"
"236052","AAC-216","2018/01/04 14:51:44","新北市土城區裕民路191號","121.453585","24.98429","6501300","土城區"
"238004","283-BY","2018/01/04 14:51:33","新北市樹林區育德街78號","121.387456666667","24.96842","6500700","樹林區"
"221012","276-VK","2018/01/04 13:41:14","新北市汐止區汐萬路一段256巷3號","121.65344","25.0746466666667","6501100","汐止區"
"220027","145-BY","2018/01/04 14:51:37","新北市板橋區中正路189號","121.45642","25.0169266666667","6500100","板橋區"
"220028","200-UY","2018/01/04 14:51:43","新北市板橋區大觀路二段69巷16號","121.447123333333","25.002145","6500100","板橋區"
"220030","610-BX","2018/01/04 14:51:43","新北市板橋區大觀路三段261號","121.429261666667","24.9921833333333","6500100","板橋區"
"220020","277-BY","2018/01/04 14:51:47","新北市板橋區金門街151巷36號","121.433416666667","24.9903283333333","6500100","板橋區"
"220050","280-UM","2018/01/04 14:51:43","新北市板橋區莊敬路259號","121.473753333333","25.0215366666667","6500100","板橋區"
"220019","283-VK","2018/01/04 14:51:43","新北市板橋區五權街30巷14號","121.464286666667","24.99332","6500100","板橋區"
"220043","285-UM","2018/01/04 14:51:47","新北市板橋區溪頭街2號","121.457488333333","25.0288983333333","6500100","板橋區"
"220001","285-VK","2018/01/04 14:51:40","新北市板橋區中山路二段60巷1弄23號","121.475083333333","25.015755","6500100","板橋區"
"220031","286-VK","2018/01/04 14:51:44","新北市板橋區僑中二街8巷19號","121.446248333333","25.0112916666667","6500100","板橋區"
"220029","287-VK","2018/01/04 14:51:50","新北市板橋區大觀路一段28巷101號","121.45018","25.011845","6500100","板橋區"
"220039","288-VK","2018/01/04 14:51:39","新北市板橋區綠堤街25號","121.455853333333","25.026515","6500100","板橋區"
"220009","293-UM","2018/01/04 14:51:51","新北市板橋區觀光街79巷2號","121.469388333333","25.0169033333333","6500100","板橋區"
"220032","296-UM","2018/01/04 14:51:51","新北市板橋區溪崑二街96巷8號","121.426643333333","24.989315","6500100","板橋區"
"220023","297-UM","2018/01/04 14:51:48","新北市板橋區大勇街3巷1號","121.45506","25.0174416666667","6500100","板橋區"
"220010","305-R5","2018/01/04 14:51:14","新北市板橋區三民路二段35巷27-1號","121.481228333333","25.0179516666667","6500100","板橋區"
"220041","307-R5","2018/01/04 14:51:31","新北市板橋區四維路259巷27號","121.461923333333","25.02742","6500100","板橋區"
"220047","317-R6","2018/01/04 14:51:51","新北市板橋區新海路385巷18號","121.458248333333","25.0257416666667","6500100","板橋區"
"220012","486-VK","2018/01/04 14:51:52","新北市板橋區公園街62號","121.462125","25.0077033333333","6500100","板橋區"
"220038","487-VK","2018/01/04 14:51:33","新北市板橋區英士路192-1號","121.458401666667","25.023645","6500100","板橋區"
"220037","491-VK","2018/01/04 14:51:46","新北市板橋區民治街28號","121.477988333333","25.034265","6500100","板橋區"
"220104","560-BX","2018/01/04 14:51:47","新北市板橋區新生街29巷2弄7號","121.45691","25.0214666666667","6500100","板橋區"
"220052","561-BX","2018/01/04 14:51:46","新北市板橋區陽明街29巷30號","121.463828333333","25.0225966666667","6500100","板橋區"
"220011","609-BX","2018/01/04 14:51:31","新北市板橋區三民路一段31巷87弄5號","121.481421666667","25.023335","6500100","板橋區"
"220004","630-UY","2018/01/04 14:51:48","新北市板橋區四川路二段47巷4弄1號","121.454185","24.9945666666667","6500100","板橋區"
"220040","637-BX","2018/01/04 14:51:47","新北市板橋區懷德街127巷32-3號","121.479921666667","25.03135","6500100","板橋區"
"220005","686-BX","2018/01/04 14:51:37","新北市板橋區廣和街60號","121.462","24.993895","6500100","板橋區"
"220025","687-BX","2018/01/04 14:51:34","新北市板橋區僑中二街106巷2號","121.445936666667","25.007615","6500100","板橋區"
"220042","689-BX","2018/01/04 14:51:30","新北市板橋區長江路二段59號","121.464595","25.03143","6500100","板橋區"
"220002","741-BX","2018/01/04 14:51:31","新北市板橋區忠孝路201巷97號","121.46458","25.0049716666667","6500100","板橋區"
"220005","806-UM","2018/01/04 14:51:43","新北市板橋區僑中一街124巷70-5號","121.448985","25.015925","6500100","板橋區"
"220003","827-TW","2018/01/04 14:51:34","新北市板橋區仁愛路64號","121.459893333333","24.99944","6500100","板橋區"
"220014","829-TW","2018/01/04 14:51:44","新北市板橋區長安街331巷19弄9號","121.473486666667","25.01228","6500100","板橋區"
"220051","830-TW","2018/01/04 14:51:46","新北市板橋區文化路二段410巷17號","121.47465","25.0309416666667","6500100","板橋區"
"220022","895-R6","2018/01/04 14:51:47","新北市板橋區文化路一段32巷21弄14號","121.460313333333","25.011415","6500100","板橋區"
"220021","985-R7","2018/01/04 14:51:47","新北市板橋區南雅西路二段98-4號","121.45234","25.01152","6500100","板橋區"
"220046","AAC-210","2018/01/04 14:51:39","新北市板橋區文化路一段285巷1弄4號","121.464203333333","25.01872","6500100","板橋區"
"220018","AAC-253","2018/01/04 14:51:35","新北市板橋區民族路278號","121.469998333333","25.0069983333333","6500100","板橋區"
