"lineid","car","time","location","longitude","latitude","cityid","cityname"
"248003","677-BX","2018/01/04 15:49:42","新北市八里區中山路三段409號","121.368323333333","25.1347483333333","6501500","五股區"
"244018","403-UM","2018/01/04 10:59:12","新北市林口區粉寮69號","121.405063333333","25.0907916666667","6501700","林口區"
"244024","742-UY","2018/01/04 09:33:30","新北市林口區粉寮路二段160巷28號","121.405178333333","25.0907766666667","6501700","林口區"
"243016","680-BX","2018/01/04 15:49:22","新北市泰山區犁頭窠3-1號","121.422271666667","25.0606166666667","6501600","泰山區"
"231037","0293-UT","2018/01/04 15:49:34","新北市新店區安興路105-1號","121.514596666667","24.97768","6500600","新店區"
"231030","047-UY","2018/01/04 15:49:29","新北市新店區永安街22-1號","121.517326666667","24.9865116666667","6500600","新店區"
"231018","107-UY","2018/01/04 15:49:40","新北市新店區中正路663巷7弄15號","121.532893333333","24.9900533333333","6500600","新店區"
"231011","108-UY","2018/01/04 15:49:47","新北市新店區文化路22-1號","121.543563333333","24.9796666666667","6500600","新店區"
"231021","187-VK","2018/01/04 15:49:47","新北市新店區新烏路一段85巷6-6號","121.549693333333","24.9427116666667","6500600","新店區"
"231017","KEA-2219","2018/01/04 15:49:39","新北市新店區中華路117巷6弄2號","121.537818333333","24.9687716666667","6500600","新店區"
"231026","256-BX","2018/01/04 15:49:42","新北市新店區中正路546號","121.533533333333","24.98652","6500600","新店區"
"231046","278-BY","2018/01/04 15:49:46","新北市新店區安華路28-1號","121.519335","24.9611716666667","6500600","新店區"
"231023","AAD-862","2018/01/04 15:49:34","新北市新店區大新街7巷16號","121.543708333333","24.9681766666667","6500600","新店區"
"231038","4715-K9","2018/01/04 15:49:33","新北市新店區安康路二段125-1號","121.512365","24.9611166666667","6500600","新店區"
"231035","515-UM","2018/01/04 15:49:36","新北市新店區安民街379巷12號","121.515941666667","24.9762483333333","6500600","新店區"
"231003","641-BX","2018/01/04 15:49:47","新北市新店區寶興路60巷4號","121.549838333333","24.97188","6500600","新店區"
"231034","645-TV","2018/01/04 15:49:49","新北市新店區玫瑰路57巷1號","121.495701666667","24.946275","6500600","新店區"
"231013","719-UM","2018/01/04 15:49:48","新北市新店區永業路81巷3弄20號","121.530523333333","24.9496433333333","6500600","新店區"
"241011","013-R5","2018/01/04 15:49:49","新北市三重區文化北路141號","121.497631666667","25.06934","6500200","三重區"
"241028","022-UY","2018/01/04 15:49:33","新北市三重區重新路三段94號","121.492796666667","25.060665","6500200","三重區"
"241015","062-VK","2018/01/04 15:49:34","新北市三重區重新路四段121號","121.485176666667","25.0520616666667","6500200","三重區"
"241017","063-VK","2018/01/04 15:49:47","新北市三重區大仁街38號","121.491615","25.06429","6500200","三重區"
"241024","065-VK","2018/01/04 15:49:35","新北市三重區新北大道一段250號","121.4799","25.0612816666667","6500200","三重區"
"241026","066-VK","2018/01/04 15:49:33","新北市三重區光興街105號","121.497061666667","25.05995","6500200","三重區"
"241003","091-VK","2018/01/04 15:46:39","新北市三重區自強路四段32-2號","121.488998333333","25.0770566666667","6500200","三重區"
"241005","262-UM","2018/01/04 15:49:50","新北市三重區仁義街143巷116號","121.499573333333","25.0816266666667","6500200","三重區"
"241016","266-UM","2018/01/04 15:49:41","新北市三重區重新路四段121號","121.485176666667","25.052045","6500200","三重區"
"241022","267-UM","2018/01/04 15:49:50","新北市三重區成功路108巷8號","121.48657","25.0506266666667","6500200","三重區"
"241018","268-UM","2018/01/04 15:49:49","新北市三重區重新路四段6-1號","121.489166666667","25.0581583333333","6500200","三重區"
"241013","270-UM","2018/01/04 15:49:46","新北市三重區六張街23號","121.495256666667","25.07061","6500200","三重區"
"241007","398-BY","2018/01/04 15:49:38","新北市三重區重新路四段121號","121.48519","25.05064","6500200","三重區"
"241020","413-TH","2018/01/04 15:49:42","新北市三重區忠孝路二段54號","121.485035","25.0703616666667","6500200","三重區"
"241014","543-UM","2018/01/04 15:49:54","新北市三重區重新路四段121號","121.485091666667","25.052085","6500200","三重區"
"241023","545-UM","2018/01/04 15:49:48","新北市三重區朝陽街26巷1弄2號","121.482248333333","25.056315","6500200","三重區"
"241006","AAD-863","2018/01/04 15:49:43","新北市三重區重新路四段121號","121.48463","25.0521516666667","6500200","三重區"
"241012","941-UM","2018/01/04 15:49:40","新北市三重區文化北路132巷1號","121.498423333333","25.06687","6500200","三重區"
"241029","942-UM","2018/01/04 15:49:53","新北市三重區大同南路242號","121.496885","25.055885","6500200","三重區"
"241033","AAC-255","2018/01/04 15:49:37","新北市三重區五谷王北街58巷47號","121.474113333333","25.052025","6500200","三重區"
"235033","4980-A6","2018/01/04 15:49:38","新北市中和區連城路469巷40號","121.48352","24.994675","6500300","中和區"
"235026","800-TS","2018/01/04 15:49:41","新北市中和區中山路二段437號","121.484745","25.0048316666667","6500300","中和區"
"235023","AAC-215","2018/01/04 15:49:49","新北市中和區員山路43號","121.481586666667","24.991805","6500300","中和區"
"247004","336-TH","2018/01/04 15:44:07","新北市五股區中興路三段163號","121.449051666667","25.0806666666667","6501400","蘆洲區"
"224007","272-VK","2018/01/04 15:49:44","新北市瑞芳區大寮路356-1號","121.784778333333","25.1032566666667","6501200","瑞芳區"
"227004","400-TW","2018/01/04 15:49:52","新北市雙溪區平林里外平林44號","121.852921666667","25.0363366666667","6502500","雙溪區"
"227010","030-BX","2018/01/04 15:49:33","新北市雙溪區新基里中華路46號","121.866183333333","25.0391583333333","6502500","雙溪區"
"236066","105-UM","2018/01/04 15:49:41","新北市土城區中山路38號","121.425243333333","24.9641716666667","6501300","土城區"
"236076","166-UM","2018/01/04 15:49:43","新北市土城區民族街68號","121.418111666667","24.9643133333333","6501300","土城區"
"236024","269-VK","2018/01/04 15:49:42","新北市土城區裕生路84巷2號","121.447388333333","24.985485","6501300","土城區"
"236012","270-VK","2018/01/04 15:49:34","新北市土城區廣明街61號","121.455015","24.99367","6501300","土城區"
"236018","401-BY","2018/01/04 15:49:35","新北市土城區延吉街111巷12弄10號","121.471665","24.985705","6501300","土城區"
"236056","912-UM","2018/01/04 15:49:36","新北市土城區中央路一段271號","121.444728333333","24.9848816666667","6501300","土城區"
"236047","913-UM","2018/01/04 15:49:31","新北市土城區裕民路285號","121.456036666667","24.9816966666667","6501300","土城區"
"236052","AAC-216","2018/01/04 15:49:44","新北市土城區中華路一段41-1號","121.445871666667","24.9886516666667","6501300","土城區"
"238002","755-BX","2018/01/04 15:49:50","新北市樹林區樹德街95號","121.420206666667","24.992195","6500700","樹林區"
"238010","601-UM","2018/01/04 15:49:44","桃園市龜山區龍興街12巷7號","121.402096666667","25.016185","6500700","樹林區"
"238006","599-UM","2018/01/04 15:49:48","新北市樹林區中華路27號","121.424063333333","24.9836066666667","6500700","樹林區"
"238005","571-TV","2018/01/04 15:49:38","新北市樹林區中華路213號","121.419491666667","24.981315","6500700","樹林區"
"238011","5061-A6","2018/01/04 15:49:51","新北市樹林區山佳街57-1號","121.392946666667","24.9724483333333","6500700","樹林區"
"238008","KEA-2217","2018/01/04 15:49:34","新北市樹林區柑園街二段1號","121.388201666667","24.955825","6500700","樹林區"
"238009","KEA-2213","2018/01/04 15:49:32","新北市樹林區太順街52號","121.418178333333","24.9793566666667","6500700","樹林區"
"238012","303-VK","2018/01/04 15:49:45","新北市樹林區中山路一段141號","121.422321666667","24.98964","6500700","樹林區"
"238004","283-BY","2018/01/04 15:49:33","新北市樹林區光榮街20號","121.41198","25.0037216666667","6500700","樹林區"
"238001","282-BY","2018/01/04 15:49:50","新北市樹林區千歲街61巷52號","121.425313333333","24.9987166666667","6500700","樹林區"
"238007","268-VK","2018/01/04 15:49:40","新北市樹林區三俊街199巷10-7號","121.420126666667","25.0163233333333","6500700","樹林區"
"238013","172-UY","2018/01/04 15:49:39","新北市樹林區佳園路一段4號","121.392696666667","24.971555","6500700","樹林區"
"238003","169-UY","2018/01/04 15:49:50","新北市樹林區復興路381號","121.416791666667","24.98679","6500700","樹林區"
"221012","276-VK","2018/01/04 13:41:14","新北市汐止區汐萬路一段256巷3號","121.65344","25.0746466666667","6501100","汐止區"
"220050","280-UM","2018/01/04 15:49:43","新北市五股區五工一路115號","121.455071666667","25.0723916666667","6500100","板橋區"
"220038","487-VK","2018/01/04 15:49:33","新北市板橋區長江路一段156巷9弄19號","121.46208","25.0303633333333","6500100","板橋區"
"220018","AAC-253","2018/01/04 15:49:35","新北市板橋區華東街1-9號","121.448236666667","24.9948616666667","6500100","板橋區"
