"lineid","car","time","location","longitude","latitude","cityid","cityname"
"244018","403-UM","2018/01/04 10:59:12","新北市林口區粉寮69號","121.405063333333","25.0907916666667","6501700","林口區"
"244024","742-UY","2018/01/04 09:33:30","新北市林口區粉寮路二段160巷28號","121.405178333333","25.0907766666667","6501700","林口區"
"243016","680-BX","2018/01/04 15:49:22","新北市泰山區犁頭窠3-1號","121.422271666667","25.0606166666667","6501600","泰山區"
"231046","278-BY","2018/01/04 16:29:46","新北市新店區灣潭路3-3號","121.538215","24.9507733333333","6500600","新店區"
"241011","013-R5","2018/01/04 16:29:48","新北市三重區龍濱路168-1號","121.501155","25.0726","6500200","三重區"
"241028","022-UY","2018/01/04 16:29:53","新北市三重區中正南路190號","121.49389","25.0560816666667","6500200","三重區"
"241008","059-VK","2018/01/04 16:29:46","新北市三重區力行路二段136巷45弄12號","121.47925","25.0754016666667","6500200","三重區"
"241009","060-VK","2018/01/04 16:29:47","新北市三重區三和路四段181巷118號","121.48509","25.079995","6500200","三重區"
"241031","061-VK","2018/01/04 16:29:50","新北市三重區重陽路一段51號","121.486683333333","25.05838","6500200","三重區"
"241015","062-VK","2018/01/04 16:29:54","新北市三重區信義街79號","121.501736666667","25.0651716666667","6500200","三重區"
"241017","063-VK","2018/01/04 16:29:55","新北市三重區重新路三段7號","121.495306666667","25.0615233333333","6500200","三重區"
"241024","065-VK","2018/01/04 16:29:35","新北市三重區中正北路315巷20號","121.474963333333","25.0714133333333","6500200","三重區"
"241026","066-VK","2018/01/04 16:29:42","新北市三重區光興街1號","121.50033","25.0603866666667","6500200","三重區"
"241002","090-VK","2018/01/04 16:29:36","新北市三重區五華街6號","121.495121666667","25.0799583333333","6500200","三重區"
"241003","091-VK","2018/01/04 16:29:53","新北市三重區仁義街230巷2號","121.494676666667","25.0850516666667","6500200","三重區"
"241005","262-UM","2018/01/04 16:29:51","新北市三重區碧華街177號","121.48726","25.08237","6500200","三重區"
"241016","266-UM","2018/01/04 16:29:42","新北市三重區自強路一段160巷2弄46號","121.494441666667","25.0656916666667","6500200","三重區"
"241022","267-UM","2018/01/04 16:29:50","新北市三重區新北大道一段86巷5號","121.486076666667","25.0618516666667","6500200","三重區"
"241018","268-UM","2018/01/04 16:29:49","新北市三重區重陽路四段77號","121.49246","25.070795","6500200","三重區"
"241032","269-UM","2018/01/04 16:29:44","新北市三重區三陽路100巷3弄13號","121.482975","25.05804","6500200","三重區"
"241013","270-UM","2018/01/04 16:29:46","新北市三重區龍門路78號","121.496991666667","25.072805","6500200","三重區"
"241025","271-UM","2018/01/04 16:29:50","新北市三重區中正北路560巷100弄17-1號","121.472663333333","25.0684433333333","6500200","三重區"
"241007","398-BY","2018/01/04 16:29:38","新北市三重區三和路四段167巷141號","121.487965","25.0803","6500200","三重區"
"241020","413-TH","2018/01/04 16:29:47","新北市三重區後竹圍街207號","121.48489","25.0718333333333","6500200","三重區"
"241004","475-VK","2018/01/04 16:29:44","新北市三重區自強路五段1號","121.492133333333","25.0801466666667","6500200","三重區"
"241019","478-VK","2018/01/04 16:29:44","新北市三重區重陽路三段180號","121.490126666667","25.0680583333333","6500200","三重區"
"241030","480-VK","2018/01/04 16:29:38","新北市三重區成功路96號","121.487693333333","25.05153","6500200","三重區"
"241014","543-UM","2018/01/04 16:29:54","新北市三重區河邊北街70-2號","121.504318333333","25.0683366666667","6500200","三重區"
"241023","545-UM","2018/01/04 16:29:48","新北市三重區忠孝路三段50巷96號","121.48328","25.0642983333333","6500200","三重區"
"241001","547-UM","2018/01/04 16:29:53","新北市三重區福隆路34號","121.492188333333","25.0782416666667","6500200","三重區"
"241006","AAD-863","2018/01/04 16:29:43","新北市三重區力行路二段170號","121.48316","25.0769133333333","6500200","三重區"
"241012","941-UM","2018/01/04 16:29:40","新北市三重區河邊北街254號","121.501755","25.0762383333333","6500200","三重區"
"241029","942-UM","2018/01/04 16:29:53","新北市三重區集美街126巷16號","121.489561666667","25.0536833333333","6500200","三重區"
"241033","AAC-255","2018/01/04 16:29:36","新北市三重區重新路五段406-1號","121.476203333333","25.0478266666667","6500200","三重區"
"235026","800-TS","2018/01/04 16:29:41","新北市中和區建八路141號","121.49028","24.99863","6500300","中和區"
"235065","911-UM","2018/01/04 16:29:39","新北市中和區員山路36巷16-3號","121.485066666667","24.9911833333333","6500300","中和區"
"247004","336-TH","2018/01/04 15:54:54","新北市五股區中興路三段163號","121.448951666667","25.0806383333333","6501400","蘆洲區"
"224006","676-BX","2018/01/04 16:29:52","新北市瑞芳區明燈路二段66號","121.80943","25.1074266666667","6501200","瑞芳區"
"224007","272-VK","2018/01/04 16:29:44","新北市瑞芳區瑞竹路36巷43號","121.764273333333","25.1043433333333","6501200","瑞芳區"
"224005","271-BY","2018/01/04 16:29:40","新北市瑞芳區阿美家園53號","121.820941666667","25.11747","6501200","瑞芳區"
"227004","400-TW","2018/01/04 16:29:52","新北市雙溪區上林里內平林120-2號","121.82448","25.02625","6502500","雙溪區"
"227010","030-BX","2018/01/04 16:29:53","新北市雙溪區三港里雙澳路2號","121.868888333333","25.04739","6502500","雙溪區"
"251013","179-VK","2018/01/04 16:29:50","新北市淡水區大溪6-1號","121.49495","25.1911216666667","6501000","淡水區"
"251008","181-VK","2018/01/04 16:29:36","新北市淡水區民生路62號","121.46223","25.1379666666667","6501000","淡水區"
"251015","182-VK","2018/01/04 16:29:36","新北市淡水區中正路二段30號","121.419673333333","25.182195","6501000","淡水區"
"251016","442-VK","2018/01/04 16:29:37","新北市淡水區新民街322巷1號","121.43513","25.1838466666667","6501000","淡水區"
"238002","755-BX","2018/01/04 16:28:50","新北市樹林區中山路三段214號","121.379945","24.9678283333333","6500700","樹林區"
"238006","599-UM","2018/01/04 16:29:48","新北市樹林區東華街73號","121.41565","24.9808833333333","6500700","樹林區"
"238004","283-BY","2018/01/04 16:29:33","新北市樹林區中正路433-2號","121.414921666667","25.0082416666667","6500700","樹林區"
"238001","282-BY","2018/01/04 16:29:50","新北市樹林區中正路22-1號","121.427768333333","24.9995166666667","6500700","樹林區"
"238007","268-VK","2018/01/04 16:29:40","新北市樹林區三俊街304號","121.422998333333","25.0140633333333","6500700","樹林區"
"239005","526-UM","2018/01/04 16:23:46","新北市鶯歌區環河路177-3號","121.345946666667","24.935285","6500800","鶯歌區"
"221012","276-VK","2018/01/04 13:41:14","新北市汐止區汐萬路一段256巷3號","121.65344","25.0746466666667","6501100","汐止區"
"220050","280-UM","2018/01/04 16:29:43","新北市五股區中直路3-19號","121.427675","25.10909","6500100","板橋區"
