"lineid","car","time","location","longitude","latitude","cityid","cityname"
"249005","172-UM","2018/01/04 17:09:43","新北市八里區華富山6-1號","121.419116666667","25.14235","6502300","八里區"
"249001","173-UM","2018/01/04 17:09:38","新北市八里區中華路二段269-8號","121.401676666667","25.1464416666667","6502300","八里區"
"249004","303-UY","2018/01/04 17:09:37","新北市八里區忠孝路133號","121.423885","25.1606683333333","6502300","八里區"
"249002","305-UY","2018/01/04 17:09:38","新北市八里區龍米路二段147巷2號","121.443385","25.1494","6502300","八里區"
"249003","593-UM","2018/01/04 17:09:39","新北市八里區中山路二段486號","121.39858","25.1469933333333","6502300","八里區"
"244013","069-UM","2018/01/04 17:09:25","新北市林口區粉寮69號","121.405021666667","25.0908416666667","6501700","林口區"
"244007","080-UY","2018/01/04 17:09:45","新北市林口區菁埔25-8號","121.37707","25.0965316666667","6501700","林口區"
"244019","403-UM","2018/01/04 17:09:34","新北市林口區仁愛路二段190號","121.38053","25.0738933333333","6501700","林口區"
"244025","742-UY","2018/01/04 17:09:45","新北市林口區粉寮路二段1-1號","121.400436666667","25.0838","6501700","林口區"
"244023","483-VK","2018/01/04 17:09:38","新北市林口區粉寮路一段53號","121.396678333333","25.0778216666667","6501700","林口區"
"244017","485-VK","2018/01/04 17:09:46","新北市林口區粉寮69號","121.405005","25.0908816666667","6501700","林口區"
"244009","837-TS","2018/01/04 17:09:46","新北市林口區林口路296號","121.385833333333","25.0855083333333","6501700","林口區"
"244021","838-TS","2018/01/04 17:09:44","新北市林口區粉寮一街150-1號","121.403795","25.0867716666667","6501700","林口區"
"243016","680-BX","2018/01/04 15:49:22","新北市泰山區犁頭窠3-1號","121.422271666667","25.0606166666667","6501600","泰山區"
"231046","278-BY","2018/01/04 17:09:46","新北市新店區直潭路93號","121.532221666667","24.9400083333333","6500600","新店區"
"241011","013-R5","2018/01/04 17:09:48","新北市三重區仁愛街57號","121.496463333333","25.0719966666667","6500200","三重區"
"241028","022-UY","2018/01/04 17:09:33","新北市三重區重新路三段110號","121.492273333333","25.0603066666667","6500200","三重區"
"241008","059-VK","2018/01/04 17:09:46","新北市三重區力行路二段134號","121.48218","25.0756483333333","6500200","三重區"
"241009","060-VK","2018/01/04 17:09:47","新北市三重區三和路四段211-26號","121.482573333333","25.0799683333333","6500200","三重區"
"241031","061-VK","2018/01/04 17:09:46","新北市三重區重陽路一段113巷1弄2號","121.487581666667","25.0595033333333","6500200","三重區"
"241015","062-VK","2018/01/04 17:09:34","新北市三重區長生街35號","121.499735","25.06642","6500200","三重區"
"241017","063-VK","2018/01/04 17:09:47","新北市三重區國隆路2巷1號","121.493598333333","25.0635333333333","6500200","三重區"
"241024","065-VK","2018/01/04 17:09:35","新北市三重區中正北路346號","121.477845","25.06937","6500200","三重區"
"241026","066-VK","2018/01/04 17:09:53","新北市三重區重新路二段54號","121.498196666667","25.0622633333333","6500200","三重區"
"241002","090-VK","2018/01/04 17:09:36","新北市三重區五華街35巷73號","121.496268333333","25.0819533333333","6500200","三重區"
"241003","091-VK","2018/01/04 17:09:42","新北市三重區富福街107號","121.49345","25.0855666666667","6500200","三重區"
"241005","262-UM","2018/01/04 17:09:50","新北市三重區仁愛街715號","121.482255","25.0806333333333","6500200","三重區"
"241016","266-UM","2018/01/04 17:09:41","新北市三重區中正北路25巷25弄5號","121.49338","25.0626916666667","6500200","三重區"
"241022","267-UM","2018/01/04 17:09:50","新北市三重區重陽路二段24巷10號","121.486195","25.0627083333333","6500200","三重區"
"241018","268-UM","2018/01/04 17:09:49","新北市三重區六張街85號","121.493055","25.0700216666667","6500200","三重區"
"241032","269-UM","2018/01/04 17:09:44","新北市三重區三陽路13巷10號","121.485978333333","25.0595133333333","6500200","三重區"
"241013","270-UM","2018/01/04 17:09:46","新北市三重區仁福街64巷2號","121.497815","25.074685","6500200","三重區"
"241025","271-UM","2018/01/04 17:09:50","新北市三重區中正北路560巷89號","121.470983333333","25.068795","6500200","三重區"
"241007","398-BY","2018/01/04 17:09:38","新北市三重區三和路四段163巷77號","121.485908333333","25.079315","6500200","三重區"
"241020","413-TH","2018/01/04 17:09:42","新北市三重區自強路三段30號","121.486785","25.0724366666667","6500200","三重區"
"241004","475-VK","2018/01/04 17:09:44","新北市三重區五華街98巷25-1號","121.491453333333","25.081745","6500200","三重區"
"241019","478-VK","2018/01/04 17:09:44","新北市三重區力行路一段153巷33號","121.486261666667","25.0690733333333","6500200","三重區"
"241030","480-VK","2018/01/04 17:09:49","新北市三重區成功路91號","121.48844","25.0513366666667","6500200","三重區"
"241014","543-UM","2018/01/04 17:09:33","新北市三重區龍濱路211號","121.501856666667","25.0717066666667","6500200","三重區"
"241023","545-UM","2018/01/04 17:09:48","新北市三重區忠孝路三段84巷1號","121.480221666667","25.0644433333333","6500200","三重區"
"241001","547-UM","2018/01/04 17:09:32","新北市三重區仁愛街253號","121.493276666667","25.0781833333333","6500200","三重區"
"241006","AAD-863","2018/01/04 17:09:42","新北市三重區三和路四段264巷15號","121.484903333333","25.0767933333333","6500200","三重區"
"241012","941-UM","2018/01/04 17:09:40","新北市三重區仁壽街203號","121.50044","25.07457","6500200","三重區"
"241029","942-UM","2018/01/04 17:09:33","新北市三重區中正南路262號","121.493225","25.05284","6500200","三重區"
"241033","AAC-255","2018/01/04 17:09:37","新北市三重區中興北街271號","121.46914","25.0606133333333","6500200","三重區"
"235065","911-UM","2018/01/04 16:52:18","新北市中和區員山路36巷16-3號","121.485123333333","24.9911116666667","6500300","中和區"
"247022","893-R6","2018/01/04 17:09:49","新北市蘆洲區民族路510號","121.469315","25.0901533333333","6501400","蘆洲區"
"247012","546-UM","2018/01/04 17:09:34","新北市蘆洲區信義路292巷6號","121.478026666667","25.08768","6501400","蘆洲區"
"247020","500-BY","2018/01/04 17:09:35","新北市蘆洲區仁愛街62巷22號","121.472088333333","25.0942833333333","6501400","蘆洲區"
"247008","341-TH","2018/01/04 17:09:33","新北市蘆洲區信義路30巷62號","121.474726666667","25.0779866666667","6501400","蘆洲區"
"247010","339-TH","2018/01/04 17:09:29","新北市蘆洲區民族路20號","121.47602","25.08406","6501400","蘆洲區"
"247002","337-TH","2018/01/04 17:09:32","新北市蘆洲區永樂街102號","121.456205","25.0888316666667","6501400","蘆洲區"
"247004","336-TH","2018/01/04 17:09:47","新北市蘆洲區長安街193巷31號","121.459511666667","25.0813066666667","6501400","蘆洲區"
"247016","057-VK","2018/01/04 17:09:36","新北市蘆洲區光華路65巷23號","121.468835","25.0821183333333","6501400","蘆洲區"
"247006","056-VK","2018/01/04 17:09:35","新北市蘆洲區中華街6巷5號","121.46237","25.0825616666667","6501400","蘆洲區"
"247014","007-UY","2018/01/04 17:09:47","新北市蘆洲區中央路37巷15-15號","121.473196666667","25.0825216666667","6501400","蘆洲區"
"247024","002-UY","2018/01/04 17:09:47","新北市蘆洲區長興路21號","121.46397","25.08305","6501400","蘆洲區"
"247018","001-UY","2018/01/04 17:09:46","新北市蘆洲區復興路109-1號","121.477226666667","25.0879583333333","6501400","蘆洲區"
"228003","097-TW","2018/01/04 17:09:50","新北市貢寮區福隆里東興街11-4號","121.950541666667","25.0185933333333","6502600","貢寮區"
"228001","212-TW","2018/01/04 17:09:41","新北市貢寮區仁理村研海街62-2號","121.925716666667","25.0445616666667","6502600","貢寮區"
"228002","585-TW","2018/01/04 17:09:49","新北市貢寮區龍崗里嵩陽街55號","121.907636666667","25.01658","6502600","貢寮區"
"224010","AGQ-8101","2018/01/04 09:00:04","新北市瑞芳區明燈路二段48號","121.809518333333","25.1080816666667","6501200","瑞芳區"
"224006","676-BX","2018/01/04 17:09:44","新北市瑞芳區大寮路108號","121.781483333333","25.097855","6501200","瑞芳區"
"224009","285-BY","2018/01/04 17:09:44","新北市瑞芳區街頂巷36號","121.843548333333","25.110545","6501200","瑞芳區"
"224008","275-VK","2018/01/04 17:09:36","新北市瑞芳區柴寮路199號","121.826158333333","25.0852016666667","6501200","瑞芳區"
"224007","272-VK","2018/01/04 17:09:44","新北市瑞芳區粗坑口路21號","121.760855","25.09903","6501200","瑞芳區"
"224005","271-BY","2018/01/04 17:09:40","新北市瑞芳區南雅路1號","121.896623333333","25.11939","6501200","瑞芳區"
"227004","400-TW","2018/01/04 17:09:32","新北市雙溪區外柑里外柑腳71號","121.807076666667","25.0175633333333","6502500","雙溪區"
"227010","030-BX","2018/01/04 17:09:33","新北市雙溪區三貂里子崙坑1-6號","121.849903333333","25.0574833333333","6502500","雙溪區"
"251009","008-UM","2018/01/04 17:09:45","新北市淡水區三民街20號","121.439015","25.1717683333333","6501000","淡水區"
"251004","009-UM","2018/01/04 17:09:43","新北市淡水區中正東路一段135-5號","121.456575","25.158785","6501000","淡水區"
"251005","010-UM","2018/01/04 17:09:45","新北市淡水區水源街一段130號","121.447566666667","25.1716966666667","6501000","淡水區"
"251013","179-VK","2018/01/04 17:09:46","新北市淡水區大埤頭5-2號","121.483793333333","25.1959116666667","6501000","淡水區"
"251014","180-VK","2018/01/04 17:09:38","新北市淡水區八里堆9-8號","121.464328333333","25.2233533333333","6501000","淡水區"
"251008","181-VK","2018/01/04 17:09:35","新北市淡水區樹梅坑17號","121.470953333333","25.1440683333333","6501000","淡水區"
"251015","182-VK","2018/01/04 17:09:36","新北市淡水區樹林口42-8號","121.467185","25.168385","6501000","淡水區"
"251010","413-VK","2018/01/04 17:09:30","新北市淡水區新市五路二段75號","121.431278333333","25.19828","6501000","淡水區"
"251012","441-VK","2018/01/04 17:09:35","新北市淡水區中山北路一段156號","121.443926666667","25.1779666666667","6501000","淡水區"
"251016","442-VK","2018/01/04 17:09:37","新北市淡水區社厝坑3-11號","121.47517","25.1888216666667","6501000","淡水區"
"251006","561-UM","2018/01/04 17:09:29","新北市淡水區馬偕街28號","121.437655","25.1729633333333","6501000","淡水區"
"251007","577-R6","2018/01/04 17:09:44","新北市淡水區中正東路二段141號","121.459628333333","25.14811","6501000","淡水區"
"251011","650-BX","2018/01/04 17:09:49","新北市淡水區坪頂路46號","121.457673333333","25.162395","6501000","淡水區"
"251003","766-UM","2018/01/04 17:09:34","新北市淡水區中正路二段31號","121.419398333333","25.1815233333333","6501000","淡水區"
"252002","178-VK","2018/01/04 17:09:29","新北市三芝區忠孝街1-19號","121.505723333333","25.2534566666667","6502100","三芝區"
"252001","292-VK","2018/01/04 17:09:33","新北市三芝區埔頭里埔頭43-3號","121.500028333333","25.2614016666667","6502100","三芝區"
"242031","AAC-296","2018/01/04 11:10:09","新北市新莊區新泰路357巷3弄57號","121.442183333333","25.0394916666667","6500500","新莊區"
"242051","751-BX","2018/01/04 17:09:44","新北市新莊區新莊路771巷10號","121.44204","25.031795","6500500","新莊區"
"242025","615-BX","2018/01/04 17:09:38","新北市新莊區新泰路255巷83號","121.442235","25.0388833333333","6500500","新莊區"
"242023","613-BX","2018/01/04 17:09:45","新北市新莊區新泰路255巷83號","121.442248333333","25.0391616666667","6500500","新莊區"
"242027","612-BX","2018/01/04 17:09:33","新北市新莊區新泰路357巷3弄57號","121.441961666667","25.0392","6500500","新莊區"
"242039","566-BX","2018/01/04 17:09:33","新北市新莊區新泰路357巷3弄57號","121.442066666667","25.0397666666667","6500500","新莊區"
"242044","442-UM","2018/01/04 17:09:51","新北市新莊區富國路105號","121.422686666667","25.0259433333333","6500500","新莊區"
"242048","441-UM","2018/01/04 17:09:44","新北市新莊區中正路539-1號","121.435445","25.03276","6500500","新莊區"
"242053","440-UM","2018/01/04 17:09:45","新北市新莊區三和路10號","121.4419","25.0362166666667","6500500","新莊區"
"242034","415-TV","2018/01/04 17:09:46","新北市新莊區新泰路357巷3弄57號","121.442156666667","25.0392","6500500","新莊區"
"242042","400-BY","2018/01/04 17:09:38","新北市新莊區新泰路255巷83號","121.442185","25.0389","6500500","新莊區"
"242061","362-BY","2018/01/04 17:09:38","新北市新莊區三和路12-21號","121.442145","25.0385216666667","6500500","新莊區"
"242058","353-BY","2018/01/04 17:09:48","新北市新莊區新泰路255巷83號","121.442271666667","25.03875","6500500","新莊區"
"242007","132-UY","2018/01/04 17:09:41","新北市新莊區三和路12-21號","121.441965","25.0387033333333","6500500","新莊區"
"242036","133-UY","2018/01/04 17:09:50","新北市新莊區中正路384-1號","121.441983333333","25.03538","6500500","新莊區"
"242021","135-UY","2018/01/04 17:09:47","新北市新莊區三和路12-21號","121.441896666667","25.038665","6500500","新莊區"
"242046","172-VK","2018/01/04 15:06:08","新北市新莊區三和路12-21號","121.441991666667","25.03869","6500500","新莊區"
"242009","173-VK","2018/01/04 10:26:33","新北市新莊區三和路12-21號","121.442048333333","25.0386116666667","6500500","新莊區"
"242015","175-VK","2018/01/04 17:09:45","新北市新莊區三和路12-21號","121.44189","25.0386533333333","6500500","新莊區"
"242002","176-VK","2018/01/04 17:09:38","新北市新莊區三和路12-21號","121.441915","25.038375","6500500","新莊區"
"242013","346-TH","2018/01/04 17:09:40","新北市新莊區三和路12-15號","121.441786666667","25.0373533333333","6500500","新莊區"
"242019","348-TH","2018/01/04 17:09:43","新北市新莊區三和路12-21號","121.442103333333","25.0381183333333","6500500","新莊區"
"242017","350-TH","2018/01/04 17:09:29","新北市新莊區三和路12-21號","121.442153333333","25.0384883333333","6500500","新莊區"
"242011","351-TH","2018/01/04 17:09:34","新北市新莊區新泰路357巷3弄57號","121.442041666667","25.0394116666667","6500500","新莊區"
"238023","601-UM","2018/01/04 17:09:44","新北市樹林區保安街一段312號","121.41862","24.9975633333333","6500700","樹林區"
"238019","599-UM","2018/01/04 17:09:36","新北市樹林區八德街450-1號","121.400793333333","24.97031","6500700","樹林區"
"238018","571-TV","2018/01/04 17:09:37","新北市樹林區水源街54號","121.425731666667","24.9810833333333","6500700","樹林區"
"238022","KEA-2213","2018/01/04 17:09:32","新北市樹林區八德街263-1號","121.419246666667","24.9738","6500700","樹林區"
"238025","303-VK","2018/01/04 17:09:52","新北市樹林區中正路22-1號","121.427788333333","24.9993516666667","6500700","樹林區"
"238017","283-BY","2018/01/04 17:09:33","新北市樹林區光武街7-3號","121.415718333333","25.0053333333333","6500700","樹林區"
"238001","282-BY","2018/01/04 17:09:30","新北市樹林區中正路22-1號","121.427803333333","24.9995433333333","6500700","樹林區"
"238020","268-VK","2018/01/04 17:09:40","新北市樹林區東佳路18號","121.4084","24.9812566666667","6500700","樹林區"
"238016","169-UY","2018/01/04 17:09:44","新北市樹林區中山路二段10號","121.41754","24.9849933333333","6500700","樹林區"
"239007","AAC-297","2018/01/04 17:09:40","新北市鶯歌區建國路79號","121.35339","24.9541416666667","6500800","鶯歌區"
"239006","891-R6","2018/01/04 17:09:40","新北市鶯歌區八德路2巷18弄2號","121.336851666667","24.94718","6500800","鶯歌區"
"239008","527-UM","2018/01/04 17:09:46","新北市鶯歌區尖山路88號","121.348353333333","24.94924","6500800","鶯歌區"
"239005","526-UM","2018/01/04 17:09:46","新北市鶯歌區鶯桃路311號","121.333846666667","24.96077","6500800","鶯歌區"
"239001","417-VK","2018/01/04 17:09:42","新北市鶯歌區尖山路140巷12弄5號","121.34643","24.949495","6500800","鶯歌區"
"239003","360-BY","2018/01/04 17:09:44","新北市鶯歌區八德路50號","121.330465","24.955495","6500800","鶯歌區"
"239002","359-BY","2018/01/04 17:09:46","新北市鶯歌區建國路211號","121.34909","24.95341","6500800","鶯歌區"
"239004","193-VK","2018/01/04 17:09:30","新北市鶯歌區文化路324巷1-10號","121.351121666667","24.9451666666667","6500800","鶯歌區"
"221012","276-VK","2018/01/04 13:41:14","新北市汐止區汐萬路一段256巷3號","121.65344","25.0746466666667","6501100","汐止區"
"242004","281-VK","2018/01/04 17:09:48","新北市新莊區三和路12-16號","121.442003333333","25.0373933333333","6500500","新莊區"
"242056","280-VK","2018/01/04 17:09:41","新北市新莊區三和路12-21號","121.442055","25.0381533333333","6500500","新莊區"
