"lineid","car","time","location","longitude","latitude","cityid","cityname"
"234007","207-UY","2018/01/04 18:29:55","新北市永和區環河西路二段209巷23號","121.50176","25.0100433333333","6500400","永和區"
"234026","9371-KE","2018/01/04 18:29:38","新北市永和區永貞路417巷31號","121.505771666667","25.00899","6500400","永和區"
"234011","9373-KE","2018/01/04 18:29:48","新北市永和區保福路二段158巷1號","121.509128333333","25.01505","6500400","永和區"
"249005","172-UM","2018/01/04 18:29:43","新北市八里區中華路三段98-1號","121.392556666667","25.137035","6502300","八里區"
"249001","173-UM","2018/01/04 18:29:37","新北市八里區龍米路一段142號","121.452985","25.125685","6502300","八里區"
"249004","303-UY","2018/01/04 18:29:50","新北市八里區觀海大道53號","121.428135","25.1617433333333","6502300","八里區"
"249002","305-UY","2018/01/04 18:29:38","新北市八里區龍形三街15巷2號","121.449685","25.1315483333333","6502300","八里區"
"248016","026-BX","2018/01/04 18:29:40","新北市五股區凌雲路一段83巷22弄1號","121.449856666667","25.1007616666667","6501500","五股區"
"248006","077-UY","2018/01/04 18:29:51","新北市五股區四維路55號","121.467166666667","25.07161","6501500","五股區"
"248008","095-VK","2018/01/04 18:29:50","新北市五股區四維路185巷36號","121.464471666667","25.0778216666667","6501500","五股區"
"248020","225-UY","2018/01/04 18:29:48","新北市五股區天乙路114號","121.446975","25.1132683333333","6501500","五股區"
"248012","247-BX","2018/01/04 18:29:53","新北市五股區御成路101號","121.441311666667","25.0939516666667","6501500","五股區"
"248014","261-SL","2018/01/04 18:29:37","新北市五股區自強路93號","121.432378333333","25.0714466666667","6501500","五股區"
"248010","272-BY","2018/01/04 18:29:41","新北市五股區水碓路16巷3-1號","121.433806666667","25.072705","6501500","五股區"
"248004","677-BX","2018/01/04 18:29:48","新北市五股區工商路134號","121.435528333333","25.0862833333333","6501500","五股區"
"248002","678-BX","2018/01/04 18:29:51","新北市五股區西雲路167-1號","121.446851666667","25.0948066666667","6501500","五股區"
"232011","375-UM","2018/01/04 18:29:48","新北市坪林區坪雙路一段43號","121.71187","24.9424366666667","6502000","坪林區"
"244013","069-UM","2018/01/04 18:29:25","新北市林口區中山路299號","121.384175","25.0802233333333","6501700","林口區"
"244007","080-UY","2018/01/04 18:29:45","新北市林口區文化一路二段398號","121.385951666667","25.0858433333333","6501700","林口區"
"244019","403-UM","2018/01/04 18:29:54","新北市林口區麗園路77號","121.374036666667","25.06917","6501700","林口區"
"244025","742-UY","2018/01/04 18:29:45","新北市林口區南勢四街228號","121.356518333333","25.074185","6501700","林口區"
"244023","483-VK","2018/01/04 18:29:38","新北市林口區四維路156-2號","121.381101666667","25.075615","6501700","林口區"
"244017","485-VK","2018/01/04 18:29:46","新北市林口區文化二路一段289號","121.36818","25.0715533333333","6501700","林口區"
"244011","656-BX","2018/01/04 18:29:35","新北市林口區中山路73號","121.392891666667","25.0784766666667","6501700","林口區"
"244009","837-TS","2018/01/04 18:29:46","新北市林口區民生路138號","121.378965","25.0880616666667","6501700","林口區"
"244021","838-TS","2018/01/04 18:29:43","新北市林口區自強三街23號","121.397993333333","25.0775183333333","6501700","林口區"
"243012","AAD-798","2018/01/04 18:29:36","新北市泰山區泰林路二段387號","121.427448333333","25.0642566666667","6501600","泰山區"
"243015","380-SR","2018/01/04 15:45:07","新北市泰山區犁頭窠3-1號","121.422158333333","25.06049","6501600","泰山區"
"243013","646-TV","2018/01/04 18:29:49","新北市泰山區明志路三段206巷1號","121.423308333333","25.03787","6501600","泰山區"
"222003","436-BY","2018/01/04 18:29:48","新北市深坑區北深路一段229巷1號","121.629621666667","25.0068433333333","6501800","深坑區"
"222002","659-BX","2018/01/04 18:29:41","新北市深坑區雲鄉路133號","121.622713333333","24.9980783333333","6501800","深坑區"
"222001","696-SL","2018/01/04 18:29:49","新北市深坑區北深路一段185號","121.63149","25.0101766666667","6501800","深坑區"
"231066","0293-UT","2018/01/04 18:29:52","新北市新店區安華路1-1號","121.519528333333","24.9604583333333","6500600","新店區"
"231059","046-UY","2018/01/04 18:29:48","新北市新店區安華路28-1號","121.51956","24.9608116666667","6500600","新店區"
"231061","047-UY","2018/01/04 18:29:50","新北市新店區安華路28-1號","121.518983333333","24.9610333333333","6500600","新店區"
"231060","106-UY","2018/01/04 18:29:50","新北市新店區安華路28-1號","121.51968","24.9606933333333","6500600","新店區"
"231051","107-UY","2018/01/04 18:29:41","新北市新店區安華路28-1號","121.519326666667","24.9611683333333","6500600","新店區"
"231047","108-UY","2018/01/04 18:29:40","新北市新店區安華路28-1號","121.519428333333","24.9611116666667","6500600","新店區"
"231068","110-UY","2018/01/04 18:29:43","新北市新店區安華路28-1號","121.51921","24.9612","6500600","新店區"
"231052","187-VK","2018/01/04 18:29:41","新北市新店區新烏路一段50-23號","121.545748333333","24.9494383333333","6500600","新店區"
"231050","KEA-2219","2018/01/04 18:29:47","新北市新店區安華路28-1號","121.519645","24.9612333333333","6500600","新店區"
"231057","256-BX","2018/01/04 18:29:47","新北市新店區北新路一段89號","121.538536666667","24.961635","6500600","新店區"
"231046","278-BY","2018/01/04 18:29:46","新北市新店區直潭七街60號","121.532261666667","24.939795","6500600","新店區"
"231054","AAD-862","2018/01/04 18:29:46","新北市新店區安華路28-1號","121.519688333333","24.96115","6500600","新店區"
"231041","355-BY","2018/01/04 18:29:50","新北市新店區安華路28-1號","121.51927","24.96086","6500600","新店區"
"231058","3712-VJ","2018/01/04 18:29:41","新北市新店區新店後街78號","121.537613333333","24.95458","6500600","新店區"
"231056","3713-VJ","2018/01/04 18:29:46","新北市新店區二十張路105巷22號","121.536845","24.97894","6500600","新店區"
"231055","4716-K9","2018/01/04 18:29:53","新北市新店區中正路128巷17號","121.542606666667","24.9724266666667","6500600","新店區"
"231067","4772-VM","2018/01/04 18:29:49","新北市新店區安華路28-1號","121.519153333333","24.9605883333333","6500600","新店區"
"231065","512-UM","2018/01/04 18:29:51","新北市新店區安華路28-1號","121.51918","24.9612533333333","6500600","新店區"
"231064","515-UM","2018/01/04 18:29:54","新北市新店區安華路28-1號","121.519446666667","24.9608766666667","6500600","新店區"
"231040","619-UM","2018/01/04 18:29:42","新北市新店區安華路28-1號","121.51939","24.9607666666667","6500600","新店區"
"231042","641-BX","2018/01/04 18:29:44","新北市新店區安華路1-1號","121.519523333333","24.9604016666667","6500600","新店區"
"231063","645-TV","2018/01/04 18:29:42","新北市新店區安華路1-1號","121.519285","24.9605383333333","6500600","新店區"
"231049","719-UM","2018/01/04 16:20:04","新北市新店區安康路一段355-3號","121.519685","24.9615483333333","6500600","新店區"
"231062","720-UM","2018/01/04 18:29:33","新北市新店區安華路28-1號","121.519345","24.9611683333333","6500600","新店區"
"231044","897-TW","2018/01/04 18:29:55","新北市新店區安華路28-1號","121.519536666667","24.9605483333333","6500600","新店區"
"231045","898-TW","2018/01/04 18:21:05","新北市新店區安華路28-1號","121.51933","24.9607533333333","6500600","新店區"
"231043","899-TW","2018/01/04 18:29:51","新北市新店區安華路28-1號","121.519036666667","24.9609733333333","6500600","新店區"
"235066","003-UY","2018/01/04 18:29:48","新北市中和區中山路二段120號","121.502646666667","25.0037666666667","6500300","中和區"
"235064","005-UY","2018/01/04 18:29:57","新北市中和區連城路139巷63號","121.496911666667","24.99714","6500300","中和區"
"235063","006-UY","2018/01/04 18:29:40","新北市中和區連城路389巷20號","121.48656","24.995165","6500300","中和區"
"235056","096-UM","2018/01/04 18:29:52","新北市中和區員山路611巷1號","121.477863333333","25.011285","6500300","中和區"
"235039","097-UM","2018/01/04 18:29:52","新北市中和區宜安路60號","121.511616666667","24.9969766666667","6500300","中和區"
"235040","150-BY","2018/01/04 18:29:34","新北市中和區安平路38號","121.509796666667","24.9949316666667","6500300","中和區"
"235058","151-BY","2018/01/04 18:29:49","新北市中和區圓通路369巷30弄100號","121.487776666667","24.9842766666667","6500300","中和區"
"235055","183-VK","2018/01/04 18:29:51","新北市中和區莒光路101號","121.47237","25.0028583333333","6500300","中和區"
"235038","185-VK","2018/01/04 18:29:51","新北市中和區自強路50號","121.520163333333","24.994875","6500300","中和區"
"235049","186-VK","2018/01/04 18:29:52","新北市中和區景平路353號","121.504766666667","24.9932283333333","6500300","中和區"
"235067","255-BX","2018/01/04 18:29:38","新北市中和區連城路467-5號","121.483638333333","24.9960466666667","6500300","中和區"
"235044","293-VK","2018/01/04 18:29:49","新北市中和區復興路301巷15號","121.501531666667","24.9898416666667","6500300","中和區"
"235072","301-VK","2018/01/04 18:29:41","新北市中和區連城路169號","121.495353333333","24.99842","6500300","中和區"
"235043","352-BY","2018/01/04 18:29:52","新北市中和區景平路293-1號","121.507058333333","24.9931383333333","6500300","中和區"
"235068","377-QA","2018/01/04 18:29:51","新北市中和區圓通路333號","121.49205","24.9906616666667","6500300","中和區"
"235061","378-QA","2018/01/04 18:29:47","新北市中和區民享街97巷12號","121.475195","24.9996","6500300","中和區"
"235050","4979-A6","2018/01/04 18:29:47","新北市中和區景新街410巷18弄12號","121.511996666667","24.9895683333333","6500300","中和區"
"235069","4980-A6","2018/01/04 18:29:43","新北市中和區連城路103號","121.496403333333","24.99974","6500300","中和區"
"235042","551-UM","2018/01/04 18:29:49","新北市中和區自立路193號","121.524191666667","24.9913066666667","6500300","中和區"
"235070","558-UM","2018/01/04 18:26:24","新北市中和區圓通路121巷6號","121.499611666667","24.9957","6500300","中和區"
"235045","565-BX","2018/01/04 18:29:54","新北市中和區南山路236巷22弄19號","121.50513","24.9892383333333","6500300","中和區"
"235054","640-BX","2018/01/04 18:29:52","新北市中和區民享街86巷1號","121.474468333333","25.0008983333333","6500300","中和區"
"235060","647-TV","2018/01/04 18:29:54","新北市中和區員山路276號","121.481261666667","25.002025","6500300","中和區"
"235047","732-UM","2018/01/04 18:29:51","新北市中和區南山路300號","121.507911666667","24.9870416666667","6500300","中和區"
"235062","800-TS","2018/01/04 18:29:40","新北市中和區景平路677巷3號","121.496363333333","25.0026883333333","6500300","中和區"
"235057","801-TS","2018/01/04 18:29:42","新北市中和區民享街97巷21號","121.47534","24.99953","6500300","中和區"
"235041","802-TS","2018/01/04 18:29:44","新北市中和區景安路34號","121.507171666667","24.998335","6500300","中和區"
"235052","805-TS","2018/01/04 18:29:56","新北市中和區興南路二段96號","121.505111666667","24.9841133333333","6500300","中和區"
"235048","896-TW","2018/01/04 18:29:41","新北市中和區中正路83號","121.500621666667","24.9935116666667","6500300","中和區"
"235053","900-TW","2018/01/04 18:29:39","新北市中和區民享街463號","121.469938333333","24.9926383333333","6500300","中和區"
"235065","911-UM","2018/01/04 18:29:49","新北市中和區莊敬路49巷20弄16號","121.502455","25.0057133333333","6500300","中和區"
"235051","157-BY","2018/01/04 18:29:35","新北市中和區興南路二段142巷19弄15號","121.502643333333","24.98343","6500300","中和區"
"235037","AAC-213","2018/01/04 18:29:45","新北市中和區景新街383巷50號","121.514485","24.9908983333333","6500300","中和區"
"235059","AAC-215","2018/01/04 18:29:51","新北市中和區員山路36巷16-3號","121.485111666667","24.991195","6500300","中和區"
"220065","072-UY","2018/01/04 18:29:47","新北市板橋區縣民大道一段108號","121.456988333333","25.00571","6500100","板橋區"
"220086","073-UY","2018/01/04 18:29:45","新北市板橋區華東街1-10號","121.44829","24.9950366666667","6500100","板橋區"
"226004","312-R5","2018/01/04 18:29:43","新北市平溪區靜安路二段271號","121.725903333333","25.0221416666667","6502400","平溪區"
"228003","097-TW","2018/01/04 18:29:50","新北市貢寮區和美里和美街44-2號","121.916546666667","25.096705","6502600","貢寮區"
"228001","212-TW","2018/01/04 18:29:49","新北市貢寮區仁理村仁和路60號","121.922928333333","25.0498","6502600","貢寮區"
"228002","585-TW","2018/01/04 18:29:49","新北市貢寮區福連里香蘭街16-1號","121.983836666667","25.0215316666667","6502600","貢寮區"
"224010","AGQ-8101","2018/01/04 18:28:39","新北市瑞芳區崙頂路49號","121.844443333333","25.1072716666667","6501200","瑞芳區"
"224006","676-BX","2018/01/04 18:29:44","新北市瑞芳區逢甲路1號","121.81032","25.10835","6501200","瑞芳區"
"224002","639-TC","2018/01/04 18:29:54","新北市瑞芳區三爪子坑路29巷40號","121.8137","25.1067066666667","6501200","瑞芳區"
"224009","285-BY","2018/01/04 18:29:44","新北市瑞芳區祈堂路239號","121.856243333333","25.1090683333333","6501200","瑞芳區"
"224008","275-VK","2018/01/04 18:29:56","新北市瑞芳區逢甲路163號","121.805445","25.1104033333333","6501200","瑞芳區"
"224007","272-VK","2018/01/04 18:29:44","新北市瑞芳區大埔路國宅新村26號","121.764763333333","25.1003033333333","6501200","瑞芳區"
"224005","271-BY","2018/01/04 18:29:40","新北市瑞芳區建基新村1-1號","121.813653333333","25.130605","6501200","瑞芳區"
"227004","400-TW","2018/01/04 18:29:52","新北市雙溪區魚行里坤溪21-1號","121.871033333333","25.0271533333333","6502500","雙溪區"
"227010","030-BX","2018/01/04 18:29:53","新北市雙溪區牡丹里牡丹113號","121.850971666667","25.0597016666667","6502500","雙溪區"
"253005","032-BX","2018/01/04 18:29:47","新北市石門區老崩山10-1號","121.552886666667","25.2911316666667","6502200","石門區"
"253006","741-TV","2018/01/04 18:29:47","新北市石門區公地20號","121.545793333333","25.2902","6502200","石門區"
"208002","742-BX","2018/01/04 18:29:49","新北市金山區磺港里青年路1號","121.639731666667","25.225485","6502700","金山區"
"208003","665-BX","2018/01/04 18:29:43","新北市金山區中山路192號","121.637895","25.22149","6502700","金山區"
"208001","761-BX","2018/01/04 18:29:46","新北市金山區文化二路6號","121.63682","25.2246166666667","6502700","金山區"
"251004","009-UM","2018/01/04 18:00:43","新北市淡水區民權路30號","121.45962","25.1375166666667","6501000","淡水區"
"251005","010-UM","2018/01/04 18:29:45","新北市淡水區中山路8號","121.445065","25.1687783333333","6501000","淡水區"
"251001","011-UM","2018/01/04 18:29:46","新北市淡水區自強路122巷1號","121.464506666667","25.1331566666667","6501000","淡水區"
"251013","179-VK","2018/01/04 18:29:45","新北市淡水區椿子林5-1號","121.481538333333","25.204145","6501000","淡水區"
"251014","180-VK","2018/01/04 18:29:53","新北市淡水區南平20號","121.494065","25.2170833333333","6501000","淡水區"
"251008","181-VK","2018/01/04 18:29:36","新北市淡水區水源街二段346巷1弄1號","121.464346666667","25.1755183333333","6501000","淡水區"
"251015","182-VK","2018/01/04 18:29:55","新北市淡水區興福寮88巷216號","121.485926666667","25.1666516666667","6501000","淡水區"
"251010","413-VK","2018/01/04 18:29:50","新北市淡水區沙崙路181巷2-2號","121.424185","25.1841833333333","6501000","淡水區"
"251012","441-VK","2018/01/04 18:29:35","新北市淡水區北新路一段129-1號","121.457653333333","25.1821116666667","6501000","淡水區"
"251016","442-VK","2018/01/04 18:29:37","新北市淡水區下圭柔山115-10號","121.446268333333","25.212535","6501000","淡水區"
"251006","561-UM","2018/01/04 18:29:49","新北市淡水區新生街51巷26號","121.440646666667","25.175645","6501000","淡水區"
"251011","650-BX","2018/01/04 18:29:49","新北市淡水區中正東路8-1號","121.447791666667","25.1668066666667","6501000","淡水區"
"251002","672-BX","2018/01/04 18:29:38","新北市淡水區中正東路一段21巷12號","121.452456666667","25.164225","6501000","淡水區"
"251003","766-UM","2018/01/04 18:29:54","新北市淡水區北新路69巷26號","121.446795","25.1800766666667","6501000","淡水區"
"207003","550-UM","2018/01/04 18:29:49","新北市萬里區野柳里港東路162-15號","121.690465","25.204215","6502800","萬里區"
"207004","225-TW","2018/01/04 18:29:51","新北市萬里區萬里里瑪鋉路272-1號","121.688906666667","25.1808416666667","6502800","萬里區"
"252003","249-BX","2018/01/04 18:29:53","新北市三芝區後厝里北勢子45-33號","121.470363333333","25.2514133333333","6502100","三芝區"
"252001","292-VK","2018/01/04 18:29:53","新北市三芝區中興街二段2號","121.498361666667","25.2566316666667","6502100","三芝區"
"237004","078-UY","2018/01/04 18:29:39","新北市三峽區五寮81號","121.35954","24.8585016666667","6500900","三峽區"
"237007","153-BY","2018/01/04 18:29:48","新北市三峽區中正路三段170巷34號","121.352686666667","24.9045783333333","6500900","三峽區"
"237009","210-TH","2018/01/04 18:29:47","新北市三峽區民族街6號","121.368915","24.9315016666667","6500900","三峽區"
"237013","252-BX","2018/01/04 18:29:39","新北市三峽區永安街9巷9號","121.376136666667","24.929575","6500900","三峽區"
"237012","275-BY","2018/01/04 18:29:35","新北市三峽區三樹路110號","121.378398333333","24.93921","6500900","三峽區"
"237008","302-VK","2018/01/04 18:29:49","新北市三峽區白雞68-159號","121.390103333333","24.90862","6500900","三峽區"
"237014","433-BY","2018/01/04 18:29:55","新北市三峽區信義街2號","121.37068","24.9361083333333","6500900","三峽區"
"237006","5529-G3","2018/01/04 18:29:36","新北市三峽區溪東路473巷59號","121.415268333333","24.9286466666667","6500900","三峽區"
"237011","572-TV","2018/01/04 12:59:11","新北市三峽區中山路459巷163-3號","121.348653333333","24.9330233333333","6500900","三峽區"
"237016","649-BX","2018/01/04 18:22:05","新北市三峽區竹崙路35號","121.429823333333","24.9224883333333","6500900","三峽區"
"237010","706-TV","2018/01/04 18:29:50","新北市三峽區復興路449號","121.36253","24.9383633333333","6500900","三峽區"
"237005","AKY-6261","2018/01/04 18:29:53","新北市三峽區民族街5巷59號","121.369743333333","24.9322066666667","6500900","三峽區"
"236071","105-UM","2018/01/04 18:29:40","新北市土城區永豐路255巷27弄7號","121.476043333333","24.9729516666667","6501300","土城區"
"236042","107-UM","2018/01/04 18:29:47","新北市土城區裕民路61巷12號","121.44963","24.98825","6501300","土城區"
"236078","166-UM","2018/01/04 17:56:03","新北市土城區永寧路36-1號","121.42889","24.9589066666667","6501300","土城區"
"236030","253-BX","2018/01/04 18:29:48","新北市土城區水源街81巷18號","121.439381666667","24.9759016666667","6501300","土城區"
"236026","269-VK","2018/01/04 18:29:44","新北市土城區南天母路91巷2號","121.447425","24.9562166666667","6501300","土城區"
"236014","270-VK","2018/01/04 18:29:38","新北市土城區青雲路39巷7號","121.46029","24.9874283333333","6501300","土城區"
"236037","271-VK","2018/01/04 18:29:55","新北市土城區青雲路449號","121.45894","24.9750966666667","6501300","土城區"
"236021","401-BY","2018/01/04 18:29:44","新北市土城區永豐路202巷7-1號","121.466256666667","24.9832016666667","6501300","土城區"
"236058","912-UM","2018/01/04 18:29:51","新北市土城區中央路四段273號","121.412885","24.9543333333333","6501300","土城區"
"236051","913-UM","2018/01/04 18:29:35","新北市土城區青雲路368號","121.458708333333","24.9737766666667","6501300","土城區"
"236062","915-UM","2018/01/04 18:29:55","新北市土城區延壽路75巷19號","121.468696666667","24.9924033333333","6501300","土城區"
"236053","AAC-216","2018/01/04 18:29:42","新北市土城區中華路二段1號","121.439555","24.9788816666667","6501300","土城區"
"242031","AAC-296","2018/01/04 18:29:43","新北市新莊區新泰路277巷43弄6號","121.443891666667","25.0399166666667","6500500","新莊區"
"242053","440-UM","2018/01/04 18:29:45","新北市板橋區大觀路三段50巷53號","121.43198","24.9958933333333","6500500","新莊區"
"242042","400-BY","2018/01/04 18:29:38","新北市新莊區天祥街92巷14號","121.41558","25.0300266666667","6500500","新莊區"
"242061","362-BY","2018/01/04 18:29:38","新北市新莊區民安路186號","121.425326666667","25.0235866666667","6500500","新莊區"
"242058","353-BY","2018/01/04 18:29:48","新北市新莊區中正路895-1號","121.412333333333","25.0220416666667","6500500","新莊區"
"242046","172-VK","2018/01/04 18:29:39","新北市新莊區福營路302號","121.422481666667","25.0273933333333","6500500","新莊區"
"242011","351-TH","2018/01/04 18:29:34","新北市新莊區幸福路914號","121.442445","25.04911","6500500","新莊區"
"238015","755-BX","2018/01/04 18:29:51","新北市樹林區啟智街173巷2號","121.415705","24.9875833333333","6500700","樹林區"
"238023","601-UM","2018/01/04 18:29:43","新北市樹林區忠信街7號","121.40876","25.0149116666667","6500700","樹林區"
"238019","599-UM","2018/01/04 18:29:35","新北市樹林區中華路190-16號","121.411733333333","24.9806333333333","6500700","樹林區"
"238018","571-TV","2018/01/04 18:29:57","新北市樹林區樹新路34巷12號","121.427728333333","24.9944116666667","6500700","樹林區"
"238024","5061-A6","2018/01/04 18:29:51","新北市樹林區中山路一段31號","121.424735","24.99287","6500700","樹林區"
"238025","303-VK","2018/01/04 18:29:52","新北市樹林區大安路202號","121.420648333333","24.9958983333333","6500700","樹林區"
"238017","283-BY","2018/01/04 18:29:52","新北市樹林區光榮街79號","121.412116666667","25.002925","6500700","樹林區"
"238020","268-VK","2018/01/04 18:29:54","新北市樹林區三龍街21號","121.413228333333","25.01902","6500700","樹林區"
"238026","172-UY","2018/01/04 18:29:37","新北市樹林區八德街626號","121.397018333333","24.9696883333333","6500700","樹林區"
"238016","169-UY","2018/01/04 18:29:44","新北市樹林區文化街28號","121.419293333333","24.98777","6500700","樹林區"
"239007","AAC-297","2018/01/04 18:29:39","新北市鶯歌區育英街55號","121.347111666667","24.95261","6500800","鶯歌區"
"239008","527-UM","2018/01/04 18:29:46","新北市鶯歌區國際一路179號","121.336233333333","24.9764833333333","6500800","鶯歌區"
"239005","526-UM","2018/01/04 18:29:46","桃園市八德區桃鶯路114號","121.328171666667","24.969995","6500800","鶯歌區"
"239001","417-VK","2018/01/04 18:29:42","新北市鶯歌區國中街195號","121.338298333333","24.9391783333333","6500800","鶯歌區"
"239003","360-BY","2018/01/04 18:29:43","新北市鶯歌區福安街7巷2號","121.335008333333","24.9647816666667","6500800","鶯歌區"
"239002","359-BY","2018/01/04 18:29:46","新北市鶯歌區中正一路127巷8號","121.352143333333","24.9555766666667","6500800","鶯歌區"
"239004","193-VK","2018/01/04 18:29:50","新北市鶯歌區尖山路174巷35弄22號","121.343825","24.9483983333333","6500800","鶯歌區"
"221008","489-VK","2018/01/04 18:29:53","新北市汐止區康寧街901號","121.65142","25.0750816666667","6501100","汐止區"
"221036","130-UY","2018/01/04 18:29:51","新北市汐止區長興街一段50號","121.670816666667","25.0797133333333","6501100","汐止區"
"221010","269-BY","2018/01/04 18:29:54","新北市汐止區汐萬路二段321號","121.645158333333","25.090145","6501100","汐止區"
"221012","276-VK","2018/01/04 13:41:14","新北市汐止區汐萬路一段256巷3號","121.65344","25.0746466666667","6501100","汐止區"
"221012","278-VK","2018/01/04 18:29:53","新北市汐止區保長路37巷2號","121.672895","25.0792066666667","6501100","汐止區"
"221023","279-VK","2018/01/04 18:29:50","新北市汐止區康寧街461號","121.631575","25.0683433333333","6501100","汐止區"
"221032","280-BY","2018/01/04 18:29:51","新北市汐止區民權街二段102號","121.618663333333","25.046855","6501100","汐止區"
"221027","281-BY","2018/01/04 18:29:45","新北市汐止區和平街46巷13弄1號","121.662486666667","25.071555","6501100","汐止區"
"221029","298-VK","2018/01/04 18:29:38","新北市汐止區樟樹二路345號","121.64193","25.073405","6501100","汐止區"
"221021","299-VK","2018/01/04 18:29:45","新北市汐止區新台五路一段91號","121.649673333333","25.061755","6501100","汐止區"
"221031","353-TW","2018/01/04 18:29:54","新北市汐止區大同路一段160號","121.63327","25.056975","6501100","汐止區"
"221015","567-BX","2018/01/04 18:29:45","新北市汐止區鄉長路二段18巷1號","121.668421666667","25.0820016666667","6501100","汐止區"
"221035","622-UM","2018/01/04 18:29:51","新北市汐止區大同路二段169巷26號","121.650918333333","25.0650616666667","6501100","汐止區"
"221025","623-UM","2018/01/04 18:29:45","新北市汐止區仁愛路121巷1號","121.66282","25.0639","6501100","汐止區"
"221038","646-BX","2018/01/04 18:29:54","新北市汐止區忠孝東路212號","121.662046666667","25.0665316666667","6501100","汐止區"
"221033","647-BX","2018/01/04 18:29:44","新北市汐止區宜興街30巷2號","121.621761666667","25.0416783333333","6501100","汐止區"
"221002","707-TV","2018/01/04 18:29:43","新北市汐止區福德一路174號","121.635811666667","25.0660833333333","6501100","汐止區"
"221018","753-BX","2018/01/04 18:29:37","新北市汐止區茄苳路213號","121.6707","25.068855","6501100","汐止區"
"220080","200-UY","2018/01/04 18:29:54","新北市板橋區華東街1-9號","121.448191666667","24.9949416666667","6500100","板橋區"
"220084","296-UM","2018/01/04 18:29:46","新北市板橋區華東街1-9號","121.448126666667","24.99492","6500100","板橋區"
"220075","297-UM","2018/01/04 18:29:51","新北市板橋區華東街1-9號","121.448158333333","24.9949466666667","6500100","板橋區"
"220062","305-R5","2018/01/04 18:29:33","新北市板橋區民生路二段161巷9號","121.470285","25.0196233333333","6500100","板橋區"
"220064","486-VK","2018/01/04 18:29:42","新北市板橋區南雅南路二段4巷14號","121.453728333333","25.0036783333333","6500100","板橋區"
"242056","280-VK","2018/01/04 18:29:41","新北市新莊區瓊泰路77巷16號","121.442658333333","25.0289966666667","6500500","新莊區"
"220035","560-BX","2018/01/04 18:29:42","新北市板橋區南雅西路二段145巷10號","121.45156","25.01203","6500100","板橋區"
"220071","568-UM","2018/01/04 18:29:36","新北市板橋區華東街1-10號","121.448683333333","24.9950616666667","6500100","板橋區"
"220054","741-BX","2018/01/04 18:29:49","新北市板橋區華東街1-9號","121.448125","24.9949","6500100","板橋區"
"220074","895-R6","2018/01/04 18:29:46","新北市板橋區華東街1-10號","121.448268333333","24.994945","6500100","板橋區"
"220073","985-R7","2018/01/04 18:29:53","新北市板橋區華東街1-10號","121.448291666667","24.9949633333333","6500100","板橋區"
"220070","AAC-253","2018/01/04 18:29:47","新北市板橋區華東街1-9號","121.448251666667","24.9948483333333","6500100","板橋區"
