"lineid","car","time","location","longitude","latitude","cityid","cityname"
"234046","148-BY","2018/01/04 19:39:41","新北市永和區永元路107號","121.522611666667","25.002475","6500400","永和區"
"234013","149-BY","2018/01/04 19:39:52","新北市永和區永平路220號","121.509068333333","25.0104666666667","6500400","永和區"
"234007","207-UY","2018/01/04 19:39:55","新北市永和區中和路573號","121.511855","25.0035916666667","6500400","永和區"
"234081","298-R6","2018/01/04 19:39:41","新北市永和區林森路24號","121.525865","25.0052166666667","6500400","永和區"
"234038","336-UY","2018/01/04 19:39:52","新北市永和區民樂街26號","121.527596666667","25.0016516666667","6500400","永和區"
"234064","337-UY","2018/01/04 19:39:32","新北市永和區秀朗路一段192巷6弄12號","121.519051666667","25.0022966666667","6500400","永和區"
"234086","338-UY","2018/01/04 19:39:37","新北市永和區永亨路100號","121.5233","25.00467","6500400","永和區"
"234052","553-UM","2018/01/04 19:39:50","新北市永和區竹林路39巷26號","121.519058333333","25.0147983333333","6500400","永和區"
"234017","745-BX","2018/01/04 19:39:44","新北市永和區永和路二段425巷37弄20號","121.51391","25.017325","6500400","永和區"
"234030","746-BX","2018/01/04 19:39:51","新北市永和區民生路37巷9號","121.523785","24.998035","6500400","永和區"
"234061","AAD-866","2018/01/04 19:39:40","新北市永和區永貞路176號","121.516685","25.0043133333333","6500400","永和區"
"234070","847-RS","2018/01/04 19:39:37","新北市永和區永和路二段233號","121.515538333333","25.0141533333333","6500400","永和區"
"234042","862-TW","2018/01/04 19:39:41","新北市永和區中和路305巷2弄1號","121.506696666667","25.0000416666667","6500400","永和區"
"234048","863-TW","2018/01/04 19:39:38","新北市永和區文化路137巷7弄17號","121.50963","25.015695","6500400","永和區"
"234026","9371-KE","2018/01/04 19:39:38","新北市永和區中和路495號","121.510486666667","25.0022816666667","6500400","永和區"
"249004","303-UY","2018/01/04 19:39:46","新北市八里區中山路一段268巷5弄11號","121.414311666667","25.16031","6502300","八里區"
"249002","305-UY","2018/01/04 19:39:38","新北市八里區頂寮二街32號","121.450571666667","25.1254133333333","6502300","八里區"
"249003","593-UM","2018/01/04 19:39:52","新北市八里區中華路二段530號","121.399253333333","25.145815","6502300","八里區"
"248016","026-BX","2018/01/04 19:39:52","新北市五股區成泰路三段579號","121.452368333333","25.1026416666667","6501500","五股區"
"248008","095-VK","2018/01/04 19:39:50","新北市五股區四維路118巷15號","121.469381666667","25.074185","6501500","五股區"
"248012","247-BX","2018/01/04 19:39:53","新北市五股區成泰路二段91巷25號","121.43724","25.0845983333333","6501500","五股區"
"248014","261-SL","2018/01/04 19:39:45","新北市五股區工商路166號","121.433581666667","25.088035","6501500","五股區"
"248010","272-BY","2018/01/04 19:39:41","新北市五股區水碓一路23號","121.430641666667","25.0712633333333","6501500","五股區"
"248004","677-BX","2018/01/04 19:39:48","新北市五股區成泰路二段82號","121.437443333333","25.0822116666667","6501500","五股區"
"248002","678-BX","2018/01/04 19:39:51","新北市五股區成泰路三段577巷52號","121.450751666667","25.1032133333333","6501500","五股區"
"234077","969-R7","2018/01/04 19:39:35","新北市永和區民族街67巷18號","121.519473333333","24.997115","6500400","永和區"
"234074","AAC-211","2018/01/04 19:39:35","新北市永和區福和路152號","121.521776666667","25.0078366666667","6500400","永和區"
"234067","AAC-212","2018/01/04 19:39:51","新北市永和區中山路一段191巷14號","121.509508333333","25.0080966666667","6500400","永和區"
"234003","AAC-295","2018/01/04 19:39:53","新北市永和區自由街49號","121.5139","25.005885","6500400","永和區"
"244019","403-UM","2018/01/04 19:39:34","新北市林口區文化二路一段579號","121.376031666667","25.0787166666667","6501700","林口區"
"244011","656-BX","2018/01/04 19:39:35","新北市林口區瑞樹坑60-2號","121.347145","25.1280166666667","6501700","林口區"
"243012","AAD-798","2018/01/04 19:39:36","新北市泰山區仁愛路100巷58號","121.433815","25.0544033333333","6501600","泰山區"
"243011","297-R6","2018/01/04 19:39:37","新北市泰山區明志路三段204巷1號","121.421451666667","25.038215","6501600","泰山區"
"243015","380-SR","2018/01/04 19:39:47","新北市泰山區民權街77號","121.428733333333","25.0498016666667","6501600","泰山區"
"243014","421-VK","2018/01/04 19:39:42","新北市泰山區泰林路二段33-8號","121.43517","25.05653","6501600","泰山區"
"243010","KEA-2215","2018/01/04 19:39:49","新北市泰山區民生路30號","121.431373333333","25.0518416666667","6501600","泰山區"
"243009","KEA-2216","2018/01/04 19:39:46","新北市泰山區美寧街58號","121.430816666667","25.064755","6501600","泰山區"
"243013","646-TV","2018/01/04 19:39:35","新北市泰山區應化街7號","121.423875","25.0437066666667","6501600","泰山區"
"243016","680-BX","2018/01/04 19:39:54","新北市泰山區新北大道七段97號","121.41785","25.0319416666667","6501600","泰山區"
"222003","436-BY","2018/01/04 19:30:57","新北市深坑區深南路51-1號","121.621305","25.0098133333333","6501800","深坑區"
"222002","659-BX","2018/01/04 19:39:41","新北市深坑區北深路一段177號","121.632516666667","25.010885","6501800","深坑區"
"222001","696-SL","2018/01/04 19:39:49","新北市深坑區北深路二段204號","121.612963333333","25.0015033333333","6501800","深坑區"
"231066","0293-UT","2018/01/04 19:39:52","新北市新店區安康路二段341巷48號","121.496696666667","24.95434","6500600","新店區"
"231059","046-UY","2018/01/04 19:39:48","新北市新店區安和路二段232號","121.51663","24.97734","6500600","新店區"
"231061","047-UY","2018/01/04 19:39:50","新北市新店區安民街196號","121.517146666667","24.971615","6500600","新店區"
"231060","106-UY","2018/01/04 19:39:50","新北市新店區安康路二段161號","121.51011","24.9593216666667","6500600","新店區"
"231051","107-UY","2018/01/04 19:39:41","新北市新店區中央四街36號","121.528338333333","24.9745816666667","6500600","新店區"
"231047","108-UY","2018/01/04 19:39:40","新北市新店區中興路一段288巷7號","121.546445","24.9689683333333","6500600","新店區"
"231052","187-VK","2018/01/04 19:39:34","新北市新店區新烏路二段422號","121.551773333333","24.9090366666667","6500600","新店區"
"231050","KEA-2219","2018/01/04 19:39:47","新北市新店區郵政路4巷47號","121.555936666667","24.9517883333333","6500600","新店區"
"231057","256-BX","2018/01/04 19:39:40","新北市新店區橘園一路11號","121.547995","24.9340333333333","6500600","新店區"
"231046","278-BY","2018/01/04 19:39:46","新北市新店區自由街31號","121.535086666667","24.9741133333333","6500600","新店區"
"231054","AAD-862","2018/01/04 19:39:46","新北市新店區文中路40號","121.539773333333","24.9564833333333","6500600","新店區"
"231041","355-BY","2018/01/04 19:39:50","新北市新店區中正路487號","121.53377","24.982135","6500600","新店區"
"231058","3712-VJ","2018/01/04 19:39:40","新北市新店區中華路83號","121.539395","24.9686816666667","6500600","新店區"
"231056","3713-VJ","2018/01/04 19:39:46","新北市新店區柴埕路59號","121.513581666667","24.9649233333333","6500600","新店區"
"231055","4716-K9","2018/01/04 19:39:53","新北市新店區中華路83巷67號","121.53838","24.9674316666667","6500600","新店區"
"231067","4772-VM","2018/01/04 19:39:49","新北市新店區秀山路53號","121.530666666667","24.96057","6500600","新店區"
"231065","512-UM","2018/01/04 19:39:51","新北市新店區安祥路109巷69號","121.477485","24.9600533333333","6500600","新店區"
"231064","515-UM","2018/01/04 19:39:34","新北市新店區安和路一段52巷2號","121.517638333333","24.9661733333333","6500600","新店區"
"231040","619-UM","2018/01/04 19:39:42","新北市新店區北新路一段96巷23號","121.542983333333","24.9688333333333","6500600","新店區"
"231042","641-BX","2018/01/04 19:39:44","新北市新店區中興路一段216號","121.54399","24.9657516666667","6500600","新店區"
"231063","645-TV","2018/01/04 19:39:42","新北市新店區達觀路41號","121.502818333333","24.9382283333333","6500600","新店區"
"231049","719-UM","2018/01/04 19:39:45","新北市新店區大豐路53號","121.53997","24.979705","6500600","新店區"
"231062","720-UM","2018/01/04 19:39:33","新北市新店區碧潭路41號","121.533983333333","24.9562566666667","6500600","新店區"
"231044","897-TW","2018/01/04 19:39:55","新北市新店區北新路二段268號","121.542731666667","24.978715","6500600","新店區"
"231045","898-TW","2018/01/04 19:39:45","新北市新店區北宜路二段423-1號","121.560505","24.9544216666667","6500600","新店區"
"231043","899-TW","2018/01/04 19:39:51","新北市新店區北新路二段17號","121.542786666667","24.9715133333333","6500600","新店區"
"241011","013-R5","2018/01/04 19:39:49","新北市三重區秀江街160號","121.498388333333","25.07175","6500200","三重區"
"241028","022-UY","2018/01/04 19:39:39","新北市三重區中正南路190號","121.493881666667","25.05605","6500200","三重區"
"241008","059-VK","2018/01/04 19:39:46","新北市三重區永福街74號","121.478888333333","25.0767583333333","6500200","三重區"
"241009","060-VK","2018/01/04 19:39:47","新北市三重區三和路四段406巷20號","121.480436666667","25.07936","6500200","三重區"
"241031","061-VK","2018/01/04 19:39:40","新北市三重區重新路四段248號","121.486143333333","25.0534633333333","6500200","三重區"
"241015","062-VK","2018/01/04 19:39:41","新北市三重區福德北路34號","121.502121666667","25.0651266666667","6500200","三重區"
"241017","063-VK","2018/01/04 19:39:47","新北市三重區大同北路223-1號","121.491335","25.06613","6500200","三重區"
"241026","066-VK","2018/01/04 19:39:53","新北市三重區文化南路65巷18號","121.499428333333","25.0607733333333","6500200","三重區"
"241022","267-UM","2018/01/04 19:39:46","新北市三重區中正北路154號","121.484763333333","25.0658016666667","6500200","三重區"
"241018","268-UM","2018/01/04 19:39:49","新北市三重區大智街61號","121.492716666667","25.06795","6500200","三重區"
"241032","269-UM","2018/01/04 19:39:43","新北市三重區重陽路一段60巷73號","121.484343333333","25.0582333333333","6500200","三重區"
"241013","270-UM","2018/01/04 19:39:46","新北市三重區仁愛街123-3號","121.495911666667","25.075045","6500200","三重區"
"241025","271-UM","2018/01/04 19:39:53","新北市三重區頂崁街168號","121.477601666667","25.06587","6500200","三重區"
"241007","398-BY","2018/01/04 19:39:38","新北市三重區三和路四段125巷68號","121.487093333333","25.0785016666667","6500200","三重區"
"241020","413-TH","2018/01/04 19:39:48","新北市三重區三和路四段20巷32號","121.48977","25.0735666666667","6500200","三重區"
"241035","462-BY","2018/01/04 19:39:46","新北市三重區正義北路61-2號","121.497473333333","25.0645033333333","6500200","三重區"
"241019","478-VK","2018/01/04 19:39:38","新北市三重區六張街194巷1弄1號","121.488495","25.0682533333333","6500200","三重區"
"241030","480-VK","2018/01/04 19:39:37","新北市三重區新興路28巷14號","121.491701666667","25.05284","6500200","三重區"
"241014","543-UM","2018/01/04 19:39:33","新北市三重區河邊北街92巷1號","121.504181666667","25.069465","6500200","三重區"
"241023","545-UM","2018/01/04 19:39:49","新北市三重區忠孝路三段99巷16號","121.479595","25.0642033333333","6500200","三重區"
"241006","AAD-863","2018/01/04 19:39:36","新北市三重區三和路四段160巷67號","121.486168333333","25.0752283333333","6500200","三重區"
"241012","941-UM","2018/01/04 19:39:39","新北市三重區河邊北街256巷37號","121.50044","25.0759233333333","6500200","三重區"
"241029","942-UM","2018/01/04 19:39:41","新北市三重區同安街122號","121.493378333333","25.0560383333333","6500200","三重區"
"235066","003-UY","2018/01/04 19:39:48","新北市中和區中和路196巷6號","121.505073333333","24.9991316666667","6500300","中和區"
"235064","005-UY","2018/01/04 19:39:37","新北市中和區南華路42號","121.503691666667","24.996385","6500300","中和區"
"235063","006-UY","2018/01/04 19:39:40","新北市中和區連城路203巷10弄1號","121.49508","24.9973116666667","6500300","中和區"
"235046","031-BX","2018/01/04 19:39:35","新北市中和區四維街7號","121.513428333333","24.98725","6500300","中和區"
"235056","096-UM","2018/01/04 19:39:52","新北市中和區民富街94號","121.476998333333","25.00866","6500300","中和區"
"235039","097-UM","2018/01/04 19:39:52","新北市中和區秀峰街119巷8弄9號","121.519051666667","24.9899033333333","6500300","中和區"
"235040","150-BY","2018/01/04 19:39:34","新北市中和區宜安路98號","121.510465","24.9976866666667","6500300","中和區"
"235058","151-BY","2018/01/04 19:39:49","新北市中和區員山路124巷5號","121.481615","24.9960266666667","6500300","中和區"
"235055","183-VK","2018/01/04 19:39:51","新北市中和區中山路三段181巷6號","121.472836666667","25.0058666666667","6500300","中和區"
"235038","185-VK","2018/01/04 19:39:51","新北市中和區自立路139巷8號","121.522526666667","24.9937616666667","6500300","中和區"
"235049","186-VK","2018/01/04 19:39:52","新北市中和區安平路17號","121.509148333333","24.9941616666667","6500300","中和區"
"235067","255-BX","2018/01/04 19:39:38","新北市中和區新生街188號","121.483673333333","24.9996266666667","6500300","中和區"
"235044","293-VK","2018/01/04 19:39:49","新北市中和區興南路一段156號","121.508375","24.9868566666667","6500300","中和區"
"235072","301-VK","2018/01/04 19:39:41","新北市中和區錦和路93巷4弄2號","121.490408333333","24.9956933333333","6500300","中和區"
"235043","352-BY","2018/01/04 19:39:52","新北市中和區興南路一段29號","121.511045","24.9905833333333","6500300","中和區"
"235068","377-QA","2018/01/04 19:39:51","新北市中和區泰和街1號","121.499905","25.00095","6500300","中和區"
"235061","378-QA","2018/01/04 19:39:47","新北市中和區民安街2巷23號","121.480196666667","25.0015216666667","6500300","中和區"
"235050","4979-A6","2018/01/04 19:39:47","新北市中和區錦和路350-1號","121.490338333333","24.99355","6500300","中和區"
"235042","551-UM","2018/01/04 19:39:49","新北市中和區宜安路150號","121.509478333333","24.9987216666667","6500300","中和區"
"235070","558-UM","2018/01/04 19:34:24","新北市中和區中和路143號","121.50225","24.9997716666667","6500300","中和區"
"235045","565-BX","2018/01/04 19:39:34","新北市中和區景新街469號","121.513495","24.9880683333333","6500300","中和區"
"235054","640-BX","2018/01/04 19:39:44","新北市中和區國光街60號","121.470551666667","25.000245","6500300","中和區"
"235060","647-TV","2018/01/04 19:39:40","新北市中和區中山路二段523巷2號","121.481641666667","25.004955","6500300","中和區"
"235047","732-UM","2018/01/04 19:39:51","新北市中和區景平路379號","121.504076666667","24.9933816666667","6500300","中和區"
"235057","801-TS","2018/01/04 19:39:41","新北市中和區員山路271-1號","121.481341666667","24.9994683333333","6500300","中和區"
"235041","802-TS","2018/01/04 19:39:44","新北市永和區中和路603號","121.512396666667","25.004355","6500300","中和區"
"235052","805-TS","2018/01/04 19:39:37","新北市中和區華新街206巷13號","121.506253333333","24.9825033333333","6500300","中和區"
"235048","896-TW","2018/01/04 19:39:43","新北市中和區忠孝街1號","121.50893","24.98299","6500300","中和區"
"235053","900-TW","2018/01/04 19:39:39","新北市中和區國光街142巷31號","121.468023333333","25.0021933333333","6500300","中和區"
"235065","911-UM","2018/01/04 19:39:48","新北市中和區永和路1-5號","121.499536666667","25.0031833333333","6500300","中和區"
"235051","157-BY","2018/01/04 19:39:35","新北市中和區板南路190號","121.500218333333","24.99284","6500300","中和區"
"235037","AAC-213","2018/01/04 19:39:45","新北市中和區秀朗路三段10巷29弄5號","121.52504","24.9959666666667","6500300","中和區"
"235059","AAC-215","2018/01/04 19:39:51","新北市中和區圓通路268-1號","121.492573333333","24.9907616666667","6500300","中和區"
"220065","072-UY","2018/01/04 19:39:47","新北市板橋區民族路260號","121.469371666667","25.0069133333333","6500100","板橋區"
"220086","073-UY","2018/01/04 19:39:45","新北市板橋區中正路185號","121.456568333333","25.0167433333333","6500100","板橋區"
"220105","075-UY","2018/01/04 19:39:53","新北市板橋區江寧路三段40號","121.47118","25.0316116666667","6500100","板橋區"
"220069","AAD-861","2018/01/04 19:39:54","新北市板橋區縣民大道一段64巷18號","121.455443333333","25.00372","6500100","板橋區"
"220096","120-SR","2018/01/04 19:39:55","新北市板橋區民生路二段226巷10弄2號","121.470628333333","25.0218416666667","6500100","板橋區"
"247008","341-TH","2018/01/04 19:39:33","新北市蘆洲區中山一路168號","121.474548333333","25.081365","6501400","蘆洲區"
"247004","336-TH","2018/01/04 19:39:52","新北市蘆洲區長安街98巷12號","121.462648333333","25.0815666666667","6501400","蘆洲區"
"226004","312-R5","2018/01/04 19:39:43","新北市平溪區十分里十分街114號","121.776845","25.0431083333333","6502400","平溪區"
"228003","097-TW","2018/01/04 19:39:50","新北市貢寮區真理里美艷山街15-3號","121.92374","25.0679816666667","6502600","貢寮區"
"228001","212-TW","2018/01/04 19:39:41","新北市貢寮區真理里延平街22-9號","121.92466","25.0559166666667","6502600","貢寮區"
"224010","AGQ-8101","2018/01/04 19:39:38","新北市瑞芳區基山街127號","121.844126666667","25.1084466666667","6501200","瑞芳區"
"227004","400-TW","2018/01/04 19:39:52","新北市雙溪區雙溪里太平路6號","121.864048333333","25.0350866666667","6502500","雙溪區"
"227010","030-BX","2018/01/04 19:39:53","新北市雙溪區新基里新基北街19巷14號","121.867181666667","25.038065","6502500","雙溪區"
"208002","742-BX","2018/01/04 19:39:49","新北市金山區三民街7號","121.634585","25.2225116666667","6502700","金山區"
"208003","665-BX","2018/01/04 19:39:42","新北市金山區仁愛路1巷1號","121.638548333333","25.2200266666667","6502700","金山區"
"208001","761-BX","2018/01/04 19:39:48","新北市金山區重和里六股林口14-6號","121.60547","25.2221283333333","6502700","金山區"
"251009","008-UM","2018/01/04 19:39:45","新北市淡水區中山北路一段198巷7號","121.445185","25.1793116666667","6501000","淡水區"
"251004","009-UM","2018/01/04 19:39:50","新北市淡水區民權路12-8號","121.459448333333","25.139035","6501000","淡水區"
"251005","010-UM","2018/01/04 19:39:45","新北市淡水區原德路112號","121.443605","25.1738466666667","6501000","淡水區"
"251001","011-UM","2018/01/04 19:39:46","新北市淡水區民權路51號","121.459791666667","25.1390316666667","6501000","淡水區"
"251013","179-VK","2018/01/04 19:39:45","新北市淡水區店子後9號","121.459931666667","25.2188533333333","6501000","淡水區"
"251014","180-VK","2018/01/04 19:39:38","新北市淡水區北勢子20號","121.476206666667","25.2316666666667","6501000","淡水區"
"251008","181-VK","2018/01/04 19:39:48","新北市淡水區中正路一段8巷1弄11號","121.428378333333","25.1758416666667","6501000","淡水區"
"251015","182-VK","2018/01/04 19:39:35","新北市淡水區北新路三段120號","121.48717","25.1885016666667","6501000","淡水區"
"251010","413-VK","2018/01/04 19:39:50","新北市淡水區崁頂三路135號","121.431433333333","25.200965","6501000","淡水區"
"251012","441-VK","2018/01/04 19:39:35","新北市淡水區中山北路三段138號","121.445611666667","25.195345","6501000","淡水區"
"251016","442-VK","2018/01/04 19:39:37","新北市淡水區淡金路三段350巷18號","121.450775","25.2083583333333","6501000","淡水區"
"251006","561-UM","2018/01/04 19:39:49","新北市淡水區中山北路一段207巷29號","121.443323333333","25.179195","6501000","淡水區"
"251007","577-R6","2018/01/04 19:39:44","新北市淡水區中正東路一段111巷27號","121.455393333333","25.16069","6501000","淡水區"
"251011","650-BX","2018/01/04 19:39:52","新北市淡水區八勢一街46號","121.461318333333","25.1549283333333","6501000","淡水區"
"207003","550-UM","2018/01/04 19:39:49","新北市萬里區大鵬里下社17-4號","121.648235","25.2177016666667","6502800","萬里區"
"207004","225-TW","2018/01/04 19:39:50","新北市萬里區萬里里瑪鋉路5-2號","121.686893333333","25.1752866666667","6502800","萬里區"
"252002","178-VK","2018/01/04 19:39:49","新北市三芝區中正路一段18巷52號","121.504223333333","25.2588666666667","6502100","三芝區"
"252001","292-VK","2018/01/04 19:39:53","新北市三芝區公正街66號","121.499808333333","25.2574783333333","6502100","三芝區"
"237004","078-UY","2018/01/04 19:39:39","新北市三峽區金敏17號","121.391268333333","24.8745066666667","6500900","三峽區"
"237007","153-BY","2018/01/04 19:39:47","新北市三峽區二鬮路134號","121.359901666667","24.907955","6500900","三峽區"
"237009","210-TH","2018/01/04 19:39:54","新北市三峽區中園街36號","121.368233333333","24.9265766666667","6500900","三峽區"
"237013","252-BX","2018/01/04 19:39:39","新北市三峽區介壽路二段36號","121.391071666667","24.9352233333333","6500900","三峽區"
"237012","275-BY","2018/01/04 19:39:35","新北市三峽區民生街3號","121.374676666667","24.9354066666667","6500900","三峽區"
"237008","302-VK","2018/01/04 19:39:49","新北市三峽區永安街95巷6號","121.37481","24.928625","6500900","三峽區"
"237014","433-BY","2018/01/04 19:39:35","新北市三峽區嘉添105號","121.369891666667","24.9095866666667","6500900","三峽區"
"237006","5529-G3","2018/01/04 19:39:36","新北市三峽區中正路一段336巷15弄2號","121.369961666667","24.9249666666667","6500900","三峽區"
"237011","572-TV","2018/01/04 12:59:11","新北市三峽區中山路459巷163-3號","121.348653333333","24.9330233333333","6500900","三峽區"
"237016","649-BX","2018/01/04 19:33:24","新北市三峽區成福路321號","121.430855","24.9238833333333","6500900","三峽區"
"237005","AKY-6261","2018/01/04 19:39:33","新北市三峽區中山路219巷17弄7號","121.3635","24.93625","6500900","三峽區"
"236071","105-UM","2018/01/04 19:39:40","新北市土城區清水路1號","121.452723333333","24.9802683333333","6501300","土城區"
"236042","107-UM","2018/01/04 19:39:47","新北市土城區學士路12巷2號","121.45362","24.9829883333333","6501300","土城區"
"236078","166-UM","2018/01/04 17:56:03","新北市土城區永寧路36-1號","121.42889","24.9589066666667","6501300","土城區"
"236030","253-BX","2018/01/04 19:39:48","新北市土城區福祥街64號","121.441525","24.981565","6501300","土城區"
"236026","269-VK","2018/01/04 19:39:44","新北市土城區中央路二段61巷20號","121.44281","24.97871","6501300","土城區"
"236037","271-VK","2018/01/04 19:39:45","新北市土城區青雲路255號","121.45914","24.9808716666667","6501300","土城區"
"236021","401-BY","2018/01/04 19:39:43","新北市土城區峰廷街3號","121.469005","24.9873783333333","6501300","土城區"
"236058","912-UM","2018/01/04 19:39:51","新北市土城區中央路二段63號","121.44267","24.9789216666667","6501300","土城區"
"236051","913-UM","2018/01/04 19:39:35","新北市土城區明德路一段97號","121.465655","24.9829483333333","6501300","土城區"
"236062","915-UM","2018/01/04 19:39:35","新北市土城區延平街65號","121.46781","24.9927366666667","6501300","土城區"
"236053","AAC-216","2018/01/04 19:39:42","新北市土城區學府路一段166-1號","121.454023333333","24.9866383333333","6501300","土城區"
"242031","AAC-296","2018/01/04 19:39:49","新北市新莊區新泰路213巷37號","121.44457","25.0383133333333","6500500","新莊區"
"242027","612-BX","2018/01/04 19:39:40","新北市新莊區新泰路255巷83號","121.441995","25.03899","6500500","新莊區"
"242044","442-UM","2018/01/04 19:39:51","新北市新莊區中山路三段551號","121.412268333333","25.0268666666667","6500500","新莊區"
"242036","133-UY","2018/01/04 19:39:50","新北市新莊區民安路207巷17號","121.426863333333","25.023075","6500500","新莊區"
"242009","173-VK","2018/01/04 19:39:53","新北市新莊區三和路12-21號","121.442028333333","25.0387283333333","6500500","新莊區"
"242013","346-TH","2018/01/04 19:39:39","新北市新莊區中誠街121巷10號","121.449458333333","25.04693","6500500","新莊區"
"242019","348-TH","2018/01/04 19:39:55","新北市新莊區中環路二段392-1號","121.442383333333","25.04566","6500500","新莊區"
"242017","350-TH","2018/01/04 19:39:41","新北市新莊區三和路12-21號","121.441993333333","25.037915","6500500","新莊區"
"238015","755-BX","2018/01/04 19:39:45","新北市樹林區日新街117號","121.421291666667","24.9896683333333","6500700","樹林區"
"238023","601-UM","2018/01/04 19:39:43","新北市樹林區三福街46號","121.407648333333","25.0163983333333","6500700","樹林區"
"238019","599-UM","2018/01/04 19:39:35","新北市樹林區中山路三段361號","121.389521666667","24.9702116666667","6500700","樹林區"
"238018","571-TV","2018/01/04 19:39:37","新北市樹林區中山路三段214號","121.379468333333","24.967565","6500700","樹林區"
"238024","5061-A6","2018/01/04 19:39:51","新北市樹林區八德街1272號","121.390386666667","24.9693316666667","6500700","樹林區"
"238021","KEA-2217","2018/01/04 19:39:41","新北市樹林區學士路96號","121.38332","24.9475766666667","6500700","樹林區"
"238022","KEA-2213","2018/01/04 19:39:31","新北市樹林區國凱街32-1號","121.41966","24.978415","6500700","樹林區"
"238025","303-VK","2018/01/04 19:39:52","新北市樹林區中山路二段48-1號","121.41657","24.9845916666667","6500700","樹林區"
"238017","283-BY","2018/01/04 19:39:52","新北市樹林區保安街二段107巷1弄5號","121.415088333333","25.0008733333333","6500700","樹林區"
"238014","282-BY","2018/01/04 19:39:49","新北市樹林區千歲街30巷8號","121.426001666667","24.9963083333333","6500700","樹林區"
"238020","268-VK","2018/01/04 19:39:40","新北市樹林區俊英街121巷53號","121.423453333333","25.0093666666667","6500700","樹林區"
"238026","172-UY","2018/01/04 19:39:37","新北市樹林區佳園路二段65巷1號","121.391073333333","24.9608516666667","6500700","樹林區"
"238016","169-UY","2018/01/04 19:39:44","新北市樹林區東和街18巷6號","121.40418","24.9813166666667","6500700","樹林區"
"239007","AAC-297","2018/01/04 19:39:39","新北市鶯歌區大湖路326巷12號","121.346125","24.9701966666667","6500800","鶯歌區"
"239006","891-R6","2018/01/04 19:39:40","新北市鶯歌區文化路124號","121.351821666667","24.9519566666667","6500800","鶯歌區"
"239003","360-BY","2018/01/04 19:37:23","新北市樹林區中山路三段214號","121.380443333333","24.96797","6500800","鶯歌區"
"239002","359-BY","2018/01/04 19:39:46","新北市鶯歌區大湖路283號","121.344975","24.973415","6500800","鶯歌區"
"239004","193-VK","2018/01/04 19:39:50","新北市鶯歌區二甲路46-1號","121.337611666667","24.934805","6500800","鶯歌區"
"221008","489-VK","2018/01/04 19:39:53","新北市汐止區康寧街141巷41號","121.621285","25.0676466666667","6501100","汐止區"
"221036","130-UY","2018/01/04 19:39:51","新北市汐止區康寧街901號","121.651488333333","25.0749166666667","6501100","汐止區"
"221010","269-BY","2018/01/04 19:39:40","新北市汐止區汐萬路一段411號","121.64916","25.07942","6501100","汐止區"
"221012","276-VK","2018/01/04 13:41:14","新北市汐止區汐萬路一段256巷3號","121.65344","25.0746466666667","6501100","汐止區"
"221012","278-VK","2018/01/04 19:39:53","新北市汐止區大同路三段382號","121.681476666667","25.0715266666667","6501100","汐止區"
"221023","279-VK","2018/01/04 19:39:49","新北市汐止區中興路286巷1號","121.628233333333","25.069585","6501100","汐止區"
"221032","280-BY","2018/01/04 19:39:51","新北市汐止區新台五路一段76號","121.644101666667","25.05982","6501100","汐止區"
"221027","281-BY","2018/01/04 19:39:44","新北市汐止區忠孝東路9號","121.658368333333","25.0659766666667","6501100","汐止區"
"221029","298-VK","2018/01/04 19:39:38","新北市汐止區康寧街901號","121.651643333333","25.0749466666667","6501100","汐止區"
"221021","299-VK","2018/01/04 19:39:44","新北市汐止區南興路6巷2號","121.651741666667","25.063305","6501100","汐止區"
"221031","353-TW","2018/01/04 19:39:34","新北市汐止區康寧街901號","121.650893333333","25.0752766666667","6501100","汐止區"
"221015","567-BX","2018/01/04 19:39:45","新北市汐止區康寧街901號","121.65143","25.074965","6501100","汐止區"
"221035","622-UM","2018/01/04 19:39:51","新北市汐止區康寧街901號","121.65111","25.075145","6501100","汐止區"
"221025","623-UM","2018/01/04 19:39:46","新北市汐止區福安街20巷22號","121.661895","25.064655","6501100","汐止區"
"221038","646-BX","2018/01/04 19:39:43","新北市汐止區忠孝東路208號","121.661975","25.066465","6501100","汐止區"
"221033","647-BX","2018/01/04 19:39:44","台北市南港區舊莊街二段10巷1號","121.626556666667","25.037625","6501100","汐止區"
"221002","707-TV","2018/01/04 19:39:43","新北市汐止區大同路一段219巷27號","121.633295","25.0584166666667","6501100","汐止區"
"220079","145-BY","2018/01/04 19:39:32","新北市板橋區建國街56號","121.458816666667","25.0171033333333","6500100","板橋區"
"220080","200-UY","2018/01/04 19:39:34","新北市板橋區大觀路二段37巷276號","121.449751666667","25.0011266666667","6500100","板橋區"
"220082","610-BX","2018/01/04 19:39:44","新北市板橋區大觀路三段263號","121.429176666667","24.9923033333333","6500100","板橋區"
"220072","277-BY","2018/01/04 19:39:44","新北市板橋區金門街287巷35號","121.431978333333","24.9875816666667","6500100","板橋區"
"220101","280-UM","2018/01/04 19:39:45","新北市板橋區縣民大道三段33巷6弄2號","121.474028333333","25.021145","6500100","板橋區"
"220094","285-UM","2018/01/04 19:39:49","新北市板橋區銘傳街41-1號","121.468953333333","25.031305","6500100","板橋區"
"220053","285-VK","2018/01/04 19:39:52","新北市板橋區中山路二段150號","121.476615","25.017055","6500100","板橋區"
"220083","286-VK","2018/01/04 19:39:39","新北市板橋區龍興街71巷28號","121.44261","25.002365","6500100","板橋區"
"220081","287-VK","2018/01/04 19:39:39","新北市板橋區大觀路一段75巷1號","121.447306666667","25.004495","6500100","板橋區"
"220090","288-VK","2018/01/04 19:39:53","新北市板橋區長江路一段48巷1弄2號","121.459026666667","25.0287716666667","6500100","板橋區"
"220061","293-UM","2018/01/04 19:39:40","新北市板橋區中山路一段265巷13號","121.468713333333","25.0147","6500100","板橋區"
"220084","296-UM","2018/01/04 19:39:50","新北市板橋區滿平二街32號","121.425258333333","24.9874683333333","6500100","板橋區"
"220075","297-UM","2018/01/04 19:39:51","新北市板橋區大勇街4巷2號","121.455018333333","25.0174616666667","6500100","板橋區"
"242004","281-VK","2018/01/04 19:39:42","新北市新莊區思源路42巷7號","121.460863333333","25.0439983333333","6500500","新莊區"
"220062","305-R5","2018/01/04 19:39:54","新北市板橋區三民路二段81巷3號","121.479756666667","25.01675","6500100","板橋區"
"220092","307-R5","2018/01/04 19:39:43","新北市板橋區文化路一段387巷28號","121.465963333333","25.02232","6500100","板橋區"
"220098","317-R6","2018/01/04 19:39:48","新北市板橋區四維路269巷39-3號","121.461528333333","25.02751","6500100","板橋區"
"220064","486-VK","2018/01/04 19:39:42","新北市板橋區中山路一段118號","121.462913333333","25.0103233333333","6500100","板橋區"
"220089","487-VK","2018/01/04 19:39:51","新北市板橋區英士路199號","121.458658333333","25.02338","6500100","板橋區"
"220088","491-VK","2018/01/04 19:39:53","新北市板橋區文化路二段474號","121.475041666667","25.032875","6500100","板橋區"
"220035","560-BX","2018/01/04 19:39:42","新北市板橋區金華街85巷19號","121.458265","25.0214666666667","6500100","板橋區"
"220103","561-BX","2018/01/04 19:39:41","新北市板橋區文化路一段288號","121.467383333333","25.0214833333333","6500100","板橋區"
"220071","568-UM","2018/01/04 19:39:36","新北市板橋區信義路130號","121.458608333333","24.992285","6500100","板橋區"
"220063","609-BX","2018/01/04 19:39:43","新北市板橋區中山路二段531巷17弄20號","121.482133333333","25.02204","6500100","板橋區"
"220056","630-UY","2018/01/04 19:39:53","新北市板橋區四川路二段47巷2弄1號","121.454053333333","24.9948933333333","6500100","板橋區"
"220091","637-BX","2018/01/04 19:39:42","新北市板橋區懷德街139巷20弄1號","121.48005","25.0308316666667","6500100","板橋區"
"220057","686-BX","2018/01/04 19:39:47","新北市板橋區和平路182號","121.463641666667","24.9958166666667","6500100","板橋區"
"220077","687-BX","2018/01/04 19:39:28","新北市板橋區僑中一街100號","121.446718333333","25.0116483333333","6500100","板橋區"
"220093","689-BX","2018/01/04 19:39:51","新北市板橋區新海路395號","121.458748333333","25.026545","6500100","板橋區"
"220054","741-BX","2018/01/04 19:39:49","新北市板橋區忠孝路239巷32號","121.46734","25.0034166666667","6500100","板橋區"
"220055","827-TW","2018/01/04 19:39:51","新北市板橋區國慶路149巷13弄1-4號","121.460961666667","24.9971333333333","6500100","板橋區"
"220067","829-TW","2018/01/04 19:39:50","新北市板橋區長安街138巷1弄27號","121.47363","25.0099583333333","6500100","板橋區"
"220102","830-TW","2018/01/04 19:39:47","新北市板橋區文化路二段410巷41號","121.474831666667","25.030255","6500100","板橋區"
"220074","895-R6","2018/01/04 19:39:46","新北市板橋區倉後街1-3號","121.4555","25.0089266666667","6500100","板橋區"
"220073","985-R7","2018/01/04 19:39:53","新北市板橋區國光路49巷17號","121.458998333333","25.01882","6500100","板橋區"
"220097","AAC-210","2018/01/04 19:39:38","新北市板橋區幸福路34號","121.461626666667","25.0202883333333","6500100","板橋區"
"220070","AAC-253","2018/01/04 19:39:47","新北市板橋區民族路248號","121.469165","25.0072166666667","6500100","板橋區"
