"lineid","car","time","location","longitude","latitude","cityid","cityname"
"234046","148-BY","2018/01/04 19:59:41","新北市永和區成功路一段116號","121.526786666667","25.0023833333333","6500400","永和區"
"234013","149-BY","2018/01/04 19:59:52","新北市永和區保生路55號","121.50473","25.01062","6500400","永和區"
"234007","207-UY","2018/01/04 19:59:55","新北市永和區中山路一段240號","121.50742","25.0079","6500400","永和區"
"234081","298-R6","2018/01/04 19:59:48","新北市永和區國中路10號","121.524343333333","25.00476","6500400","永和區"
"234038","336-UY","2018/01/04 19:59:52","新北市永和區成功路二段179-1號","121.526635","24.9966683333333","6500400","永和區"
"234064","337-UY","2018/01/04 19:59:52","新北市永和區中正路412巷20弄7號","121.51864","25.001925","6500400","永和區"
"234086","338-UY","2018/01/04 19:59:43","新北市永和區福和路74號","121.523041666667","25.00805","6500400","永和區"
"234052","553-UM","2018/01/04 19:59:50","新北市永和區環河東路一段122號","121.52065","25.01548","6500400","永和區"
"234017","745-BX","2018/01/04 19:59:44","新北市永和區文化路69號","121.51399","25.0150716666667","6500400","永和區"
"234030","746-BX","2018/01/04 19:59:51","新北市永和區民生路47巷33號","121.525118333333","24.99784","6500400","永和區"
"234061","AAD-866","2018/01/04 19:59:52","新北市永和區中正路283巷7號","121.517023333333","25.00067","6500400","永和區"
"234070","847-RS","2018/01/04 19:59:37","新北市永和區國光路39號","121.519208333333","25.0082983333333","6500400","永和區"
"234042","862-TW","2018/01/04 19:59:41","新北市永和區雙和街14號","121.5096","25.00201","6500400","永和區"
"234048","863-TW","2018/01/04 19:59:38","新北市永和區保安路244號","121.506608333333","25.0127366666667","6500400","永和區"
"234026","9371-KE","2018/01/04 19:59:38","新北市永和區水源街17巷1號","121.511621666667","25.0046816666667","6500400","永和區"
"234011","9373-KE","2018/01/04 19:59:47","新北市永和區仁愛路352巷112弄12號","121.501121666667","25.0085583333333","6500400","永和區"
"249005","172-UM","2018/01/04 19:59:43","新北市八里區楓林路2-2號","121.383616666667","25.1304933333333","6502300","八里區"
"249001","173-UM","2018/01/04 19:59:33","新北市八里區中華路二段310號","121.403801666667","25.1483583333333","6502300","八里區"
"249004","303-UY","2018/01/04 19:59:46","新北市八里區中華路一段333-1號","121.412365","25.1549483333333","6502300","八里區"
"249002","305-UY","2018/01/04 19:59:38","新北市八里區龍米路一段87巷31-12號","121.453475","25.123135","6502300","八里區"
"249003","593-UM","2018/01/04 19:59:52","新北市八里區中華路二段538-4號","121.398746666667","25.14514","6502300","八里區"
"248016","026-BX","2018/01/04 19:59:50","新北市五股區成泰路三段577巷80弄50號","121.449613333333","25.1048066666667","6501500","五股區"
"248008","095-VK","2018/01/04 19:59:51","新北市五股區中興路一段3號","121.469735","25.07205","6501500","五股區"
"248012","247-BX","2018/01/04 19:59:36","新北市五股區民義路一段120號","121.434846666667","25.085755","6501500","五股區"
"248014","261-SL","2018/01/04 19:59:45","新北市五股區五福路22巷2號","121.43448","25.08897","6501500","五股區"
"248010","272-BY","2018/01/04 19:59:41","新北市五股區登林路75號","121.428321666667","25.0698583333333","6501500","五股區"
"248004","677-BX","2018/01/04 19:59:48","新北市五股區成泰路一段32巷62號","121.434985","25.06694","6501500","五股區"
"248002","678-BX","2018/01/04 19:59:51","新北市五股區成泰路三段487號","121.450771666667","25.09926","6501500","五股區"
"234077","969-R7","2018/01/04 19:59:35","新北市永和區民有街23巷1號","121.516816666667","24.9964066666667","6500400","永和區"
"234074","AAC-211","2018/01/04 19:59:35","新北市永和區豫溪街215巷7號","121.523971666667","25.0098366666667","6500400","永和區"
"234067","AAC-212","2018/01/04 19:59:41","新北市永和區永貞路376號","121.509763333333","25.006905","6500400","永和區"
"234003","AAC-295","2018/01/04 19:59:51","新北市永和區中正路672號","121.51689","25.0091633333333","6500400","永和區"
"244019","403-UM","2018/01/04 19:59:54","新北市林口區頂福里6鄰32號","121.363406666667","25.09552","6501700","林口區"
"243012","AAD-798","2018/01/04 19:59:36","新北市泰山區福興三街193號","121.43345","25.0573316666667","6501600","泰山區"
"243011","297-R6","2018/01/04 19:59:37","新北市泰山區明志路三段178號","121.424136666667","25.0389966666667","6501600","泰山區"
"243015","380-SR","2018/01/04 19:59:47","新北市泰山區明志路二段194號","121.427471666667","25.0496683333333","6501600","泰山區"
"243014","421-VK","2018/01/04 19:59:42","新北市泰山區泰林路二段139號","121.43405","25.060015","6501600","泰山區"
"243010","KEA-2215","2018/01/04 19:59:49","新北市泰山區中華街10巷1號","121.427856666667","25.0524966666667","6501600","泰山區"
"243009","KEA-2216","2018/01/04 19:59:46","新北市泰山區泰林路二段164巷18號","121.434625","25.0607966666667","6501600","泰山區"
"243013","646-TV","2018/01/04 19:59:48","新北市泰山區明志路三段74巷28弄6號","121.423231666667","25.0424683333333","6501600","泰山區"
"243016","680-BX","2018/01/04 19:59:34","新北市泰山區新北大道六段476號","121.421588333333","25.0326766666667","6501600","泰山區"
"222003","436-BY","2018/01/04 19:59:36","新北市深坑區埔新街14號","121.62073","25.0039566666667","6501800","深坑區"
"222002","659-BX","2018/01/04 19:59:47","新北市深坑區北深路二段81巷17號","121.6186","25.0025516666667","6501800","深坑區"
"222001","696-SL","2018/01/04 19:59:49","新北市深坑區北深路三段166號","121.602278333333","25.003465","6501800","深坑區"
"231066","0293-UT","2018/01/04 19:59:32","新北市新店區柴埕路34-1號","121.513536666667","24.9650766666667","6500600","新店區"
"231059","046-UY","2018/01/04 19:59:48","新北市新店區安康路二段147號","121.511331666667","24.95984","6500600","新店區"
"231061","047-UY","2018/01/04 19:59:50","新北市新店區安興路33-2號","121.516025","24.9706033333333","6500600","新店區"
"231060","106-UY","2018/01/04 19:59:50","新北市新店區安康路二段454號","121.49438","24.9542633333333","6500600","新店區"
"231051","107-UY","2018/01/04 19:59:41","新北市新店區中央五街30號","121.5288","24.9746333333333","6500600","新店區"
"231047","108-UY","2018/01/04 19:59:54","新北市新店區寶宏路6-2號","121.549138333333","24.9766483333333","6500600","新店區"
"231068","110-UY","2018/01/04 19:59:52","新北市新店區安華路28-1號","121.519426666667","24.9611316666667","6500600","新店區"
"231052","187-VK","2018/01/04 19:59:34","新北市新店區新烏路三段251號","121.546475","24.895685","6500600","新店區"
"231050","KEA-2219","2018/01/04 19:59:47","新北市新店區光明街115號","121.539038333333","24.9615133333333","6500600","新店區"
"231057","256-BX","2018/01/04 19:59:40","新北市新店區花園二路一段11號","121.555493333333","24.9324883333333","6500600","新店區"
"231054","AAD-862","2018/01/04 19:59:46","新北市新店區光明街135號","121.539461666667","24.961955","6500600","新店區"
"231041","355-BY","2018/01/04 19:59:50","新北市新店區民族路192號","121.535981666667","24.9754766666667","6500600","新店區"
"231056","3713-VJ","2018/01/04 19:59:46","新北市新店區北新路三段125號","121.541346666667","24.9825666666667","6500600","新店區"
"231055","4716-K9","2018/01/04 19:59:33","新北市新店區中華路48巷12號","121.540281666667","24.9688266666667","6500600","新店區"
"231067","4772-VM","2018/01/04 19:59:49","新北市新店區秀山路11巷14號","121.531836666667","24.9593266666667","6500600","新店區"
"231065","512-UM","2018/01/04 19:59:51","新北市新店區安祥路108巷3號","121.47518","24.9587316666667","6500600","新店區"
"231064","515-UM","2018/01/04 19:59:34","新北市新店區光華街7巷2號","121.51754","24.969035","6500600","新店區"
"231040","619-UM","2018/01/04 19:59:41","新北市新店區北新路一段96巷27號","121.542836666667","24.9695383333333","6500600","新店區"
"231042","641-BX","2018/01/04 19:59:44","新北市新店區中興路一段292號","121.546011666667","24.969175","6500600","新店區"
"231063","645-TV","2018/01/04 19:59:48","新北市新店區黎明路9號","121.502481666667","24.95031","6500600","新店區"
"231049","719-UM","2018/01/04 19:59:45","新北市新店區明德路30號","121.54146","24.9778066666667","6500600","新店區"
"231062","720-UM","2018/01/04 19:59:53","新北市新店區華城路10巷1-3號","121.528783333333","24.95781","6500600","新店區"
"231044","897-TW","2018/01/04 19:59:55","新北市新店區中正路602號","121.533925","24.9880116666667","6500600","新店區"
"231045","898-TW","2018/01/04 19:59:45","新北市新店區北宜路二段82-12號","121.554658333333","24.9535116666667","6500600","新店區"
"231043","899-TW","2018/01/04 19:59:51","新北市新店區中正路263-2號","121.538453333333","24.9738016666667","6500600","新店區"
"241011","013-R5","2018/01/04 19:59:49","新北市三重區三和路二段210號","121.498218333333","25.0693383333333","6500200","三重區"
"241028","022-UY","2018/01/04 19:59:39","新北市三重區重新路三段86號","121.49318","25.0605816666667","6500200","三重區"
"241008","059-VK","2018/01/04 19:59:46","新北市三重區永福街179巷28號","121.47805","25.0748133333333","6500200","三重區"
"241009","060-VK","2018/01/04 19:59:47","新北市三重區三和路四段390巷19號","121.48106","25.07881","6500200","三重區"
"241031","061-VK","2018/01/04 19:59:40","新北市三重區重新路四段144巷23號","121.487051666667","25.0552583333333","6500200","三重區"
"241015","062-VK","2018/01/04 19:59:42","新北市三重區三和路二段27號","121.501086666667","25.067025","6500200","三重區"
"241017","063-VK","2018/01/04 19:59:47","新北市三重區自強路一段310號","121.491276666667","25.0684616666667","6500200","三重區"
"241024","065-VK","2018/01/04 19:59:44","新北市三重區力行路一段178巷16號","121.48144","25.0713033333333","6500200","三重區"
"241026","066-VK","2018/01/04 19:59:33","新北市三重區福德南路15-1號","121.502553333333","25.0631616666667","6500200","三重區"
"241003","091-VK","2018/01/04 19:59:44","新北市三重區仁愛街445巷41號","121.491006666667","25.08299","6500200","三重區"
"241016","266-UM","2018/01/04 19:59:41","新北市三重區正義北路36巷23號","121.496566666667","25.0633716666667","6500200","三重區"
"241022","267-UM","2018/01/04 19:59:46","新北市三重區過圳街31巷2號","121.489115","25.0605633333333","6500200","三重區"
"241018","268-UM","2018/01/04 19:59:49","新北市三重區雙園街81號","121.494166666667","25.0673716666667","6500200","三重區"
"241032","269-UM","2018/01/04 19:59:43","新北市三重區朝陽街26巷1弄1號","121.483343333333","25.0565283333333","6500200","三重區"
"241013","270-UM","2018/01/04 19:59:46","新北市三重區三和路三段125巷21號","121.493533333333","25.0735416666667","6500200","三重區"
"241025","271-UM","2018/01/04 19:59:32","新北市三重區頂崁街210巷23弄1號","121.47588","25.0680783333333","6500200","三重區"
"241007","398-BY","2018/01/04 19:59:38","新北市三重區溪尾街154號","121.488891666667","25.08004","6500200","三重區"
"241020","413-TH","2018/01/04 19:59:48","新北市三重區大智街183號","121.489501666667","25.0729516666667","6500200","三重區"
"241035","462-BY","2018/01/04 19:59:46","新北市三重區大榮街7號","121.498188333333","25.0631383333333","6500200","三重區"
"241004","475-VK","2018/01/04 19:59:45","新北市三重區五華街86號","121.493111666667","25.082225","6500200","三重區"
"241019","478-VK","2018/01/04 19:59:38","新北市三重區重陽路四段18號","121.490936666667","25.06906","6500200","三重區"
"241030","480-VK","2018/01/04 19:59:37","新北市三重區成功路153號","121.486616666667","25.0522333333333","6500200","三重區"
"241014","543-UM","2018/01/04 19:59:53","新北市三重區三和路二段178號","121.498923333333","25.0689483333333","6500200","三重區"
"241023","545-UM","2018/01/04 19:59:47","新北市三重區大有街1-1號","121.477655","25.0656733333333","6500200","三重區"
"241001","547-UM","2018/01/04 19:59:40","新北市三重區仁愛街283巷17號","121.493578333333","25.079455","6500200","三重區"
"241006","AAD-863","2018/01/04 19:59:36","新北市三重區力行路二段122-1號","121.482158333333","25.0752133333333","6500200","三重區"
"241012","941-UM","2018/01/04 19:59:39","新北市三重區仁厚街53號","121.500466666667","25.0765966666667","6500200","三重區"
"241029","942-UM","2018/01/04 19:59:41","新北市三重區重安街1號","121.489948333333","25.0582666666667","6500200","三重區"
"241033","AAC-255","2018/01/04 19:59:39","新北市三重區中興北街77號","121.469533333333","25.0477333333333","6500200","三重區"
"235066","003-UY","2018/01/04 19:59:48","新北市中和區中山路二段69號","121.503955","25.00442","6500300","中和區"
"235046","031-BX","2018/01/04 19:59:36","新北市中和區興南路一段93巷83號","121.510593333333","24.9863016666667","6500300","中和區"
"235056","096-UM","2018/01/04 19:59:52","新北市中和區中山路三段170巷8弄24號","121.473071666667","25.0076783333333","6500300","中和區"
"235039","097-UM","2018/01/04 19:59:32","新北市中和區大勇街27巷31號","121.516071666667","24.9938833333333","6500300","中和區"
"235040","150-BY","2018/01/04 19:59:34","新北市中和區景安路79巷19弄17號","121.507475","24.9973816666667","6500300","中和區"
"235058","151-BY","2018/01/04 19:59:48","新北市中和區員山路150巷2弄24號","121.481656666667","24.9975216666667","6500300","中和區"
"235055","183-VK","2018/01/04 19:59:51","新北市中和區民生街23巷1弄1號","121.470878333333","25.00534","6500300","中和區"
"235049","186-VK","2018/01/04 19:59:52","新北市中和區中興街18號","121.50111","24.994995","6500300","中和區"
"235067","255-BX","2018/01/04 19:59:38","新北市中和區員山路148巷23弄30號","121.482278333333","24.9979916666667","6500300","中和區"
"235044","293-VK","2018/01/04 19:59:49","新北市中和區板南路166號","121.501485","24.9926866666667","6500300","中和區"
"235043","352-BY","2018/01/04 19:59:52","新北市中和區興南路二段159巷1號","121.505376666667","24.9832833333333","6500300","中和區"
"235068","377-QA","2018/01/04 19:59:51","新北市中和區景平路736巷3弄10號","121.497593333333","25.0036916666667","6500300","中和區"
"235050","4979-A6","2018/01/04 19:59:47","新北市中和區景平路153號","121.513538333333","24.9917816666667","6500300","中和區"
"235069","4980-A6","2018/01/04 19:59:43","新北市中和區景新街34巷18弄1號","121.503353333333","24.99852","6500300","中和區"
"235070","558-UM","2018/01/04 19:59:24","新北市中和區圓通路109巷8號","121.49968","24.9963883333333","6500300","中和區"
"235054","640-BX","2018/01/04 19:59:44","新北市中和區莒光路124號","121.472423333333","25.001685","6500300","中和區"
"235047","732-UM","2018/01/04 19:59:50","新北市中和區和平街164-3號","121.505641666667","24.9921","6500300","中和區"
"235041","802-TS","2018/01/04 19:59:44","新北市中和區安平路107號","121.511566666667","24.9974633333333","6500300","中和區"
"235052","805-TS","2018/01/04 19:59:36","新北市中和區華新街192巷24號","121.506405","24.9831733333333","6500300","中和區"
"235048","896-TW","2018/01/04 19:59:41","新北市中和區景新街397號","121.512601666667","24.989905","6500300","中和區"
"235053","900-TW","2018/01/04 19:59:38","新北市中和區民德路214號","121.468206666667","24.9981766666667","6500300","中和區"
"235065","911-UM","2018/01/04 19:59:48","新北市中和區莊敬路1-6號","121.499443333333","25.0044466666667","6500300","中和區"
"235051","157-BY","2018/01/04 19:59:47","新北市中和區景安路249號","121.5042","24.9905883333333","6500300","中和區"
"235037","AAC-213","2018/01/04 19:59:45","新北市中和區自立路143號","121.522375","24.9932133333333","6500300","中和區"
"235059","AAC-215","2018/01/04 19:59:50","新北市中和區圓通路345號","121.491588333333","24.9903166666667","6500300","中和區"
"220065","072-UY","2018/01/04 19:59:27","新北市板橋區民族路69巷5號","121.465556666667","25.0092683333333","6500100","板橋區"
"220105","075-UY","2018/01/04 19:59:48","新北市板橋區民治街73-1號","121.479615","25.0327283333333","6500100","板橋區"
"220069","AAD-861","2018/01/04 19:59:54","新北市板橋區大明街18-8號","121.458828333333","25.0026166666667","6500100","板橋區"
"220096","120-SR","2018/01/04 19:59:36","新北市板橋區莒光路15巷13號","121.470128333333","25.0254083333333","6500100","板橋區"
"247020","500-BY","2018/01/04 19:59:47","新北市蘆洲區民義街68巷6號","121.472993333333","25.0898533333333","6501400","蘆洲區"
"247008","341-TH","2018/01/04 19:59:53","新北市蘆洲區中山一路61巷34號","121.477401666667","25.0806916666667","6501400","蘆洲區"
"247002","337-TH","2018/01/04 19:59:43","新北市蘆洲區長安街274巷11號","121.458068333333","25.0870766666667","6501400","蘆洲區"
"247004","336-TH","2018/01/04 19:59:52","新北市蘆洲區長安街267巷31號","121.456956666667","25.08298","6501400","蘆洲區"
"247016","057-VK","2018/01/04 19:59:43","新北市蘆洲區中正路109巷1號","121.469671666667","25.0838466666667","6501400","蘆洲區"
"247006","056-VK","2018/01/04 19:59:49","新北市蘆洲區九芎街88號","121.465841666667","25.0798583333333","6501400","蘆洲區"
"247010","053-VK","2018/01/04 19:59:43","新北市蘆洲區集賢路232-1號","121.482218333333","25.08607","6501400","蘆洲區"
"247014","007-UY","2018/01/04 19:59:42","新北市蘆洲區中山二路105號","121.472635","25.0818316666667","6501400","蘆洲區"
"247024","002-UY","2018/01/04 19:59:39","新北市蘆洲區光榮路120巷12號","121.465576666667","25.0882933333333","6501400","蘆洲區"
"226004","312-R5","2018/01/04 19:59:43","新北市平溪區靜安路三段10號","121.750408333333","25.024995","6502400","平溪區"
"228003","097-TW","2018/01/04 19:59:50","新北市貢寮區仁理村仁和路23號","121.923868333333","25.0535816666667","6502600","貢寮區"
"227004","400-TW","2018/01/04 19:59:52","新北市雙溪區雙溪里長安街16號","121.864956666667","25.0346883333333","6502500","雙溪區"
"227010","030-BX","2018/01/04 19:59:33","新北市雙溪區新基里新基南街25號","121.866248333333","25.0381733333333","6502500","雙溪區"
"208002","742-BX","2018/01/04 19:59:49","新北市金山區中山路16號","121.641633333333","25.217485","6502700","金山區"
"208003","665-BX","2018/01/04 19:59:42","新北市金山區永興里跳石11號","121.633353333333","25.2579216666667","6502700","金山區"
"208001","761-BX","2018/01/04 19:59:46","新北市金山區南勢41-1號","121.629231666667","25.2198833333333","6502700","金山區"
"251009","008-UM","2018/01/04 19:59:45","新北市淡水區英專路28巷2弄8-4號","121.445891666667","25.169715","6501000","淡水區"
"251004","009-UM","2018/01/04 19:48:30","新北市淡水區民權路185巷12號","121.459981666667","25.1338883333333","6501000","淡水區"
"251005","010-UM","2018/01/04 19:59:45","新北市淡水區學府路136巷46號","121.452223333333","25.1726266666667","6501000","淡水區"
"251001","011-UM","2018/01/04 19:59:46","新北市淡水區淡金路二段66號","121.450621666667","25.1822466666667","6501000","淡水區"
"251013","179-VK","2018/01/04 19:59:45","新北市淡水區興仁路2號","121.450546666667","25.2146916666667","6501000","淡水區"
"251014","180-VK","2018/01/04 19:59:38","新北市淡水區石頭厝1號","121.459001666667","25.2353233333333","6501000","淡水區"
"251008","181-VK","2018/01/04 19:59:55","新北市淡水區淡海路70號","121.423066666667","25.18095","6501000","淡水區"
"251015","182-VK","2018/01/04 19:59:35","新北市淡水區埤島76-3號","121.451448333333","25.1927033333333","6501000","淡水區"
"251010","413-VK","2018/01/04 19:59:50","新北市淡水區崁頂100號","121.434326666667","25.20379","6501000","淡水區"
"251012","441-VK","2018/01/04 19:59:35","新北市淡水區下圭柔山70巷2號","121.44624","25.2082216666667","6501000","淡水區"
"251016","442-VK","2018/01/04 19:59:37","新北市淡水區番子田16-13號","121.453683333333","25.2317133333333","6501000","淡水區"
"251006","561-UM","2018/01/04 19:59:49","新北市淡水區北新路10號","121.444543333333","25.17749","6501000","淡水區"
"251007","577-R6","2018/01/04 19:59:44","新北市淡水區水源街一段120號","121.447255","25.1718266666667","6501000","淡水區"
"251011","650-BX","2018/01/04 19:59:52","新北市淡水區崁頂57號","121.44266","25.1971683333333","6501000","淡水區"
"207003","550-UM","2018/01/04 19:59:49","新北市萬里區大鵬里萬里加投64號","121.64156","25.2128383333333","6502800","萬里區"
"207004","225-TW","2018/01/04 19:59:50","新北市萬里區北基里忠二街35號","121.685643333333","25.1757516666667","6502800","萬里區"
"252002","178-VK","2018/01/04 19:59:49","新北市三芝區三民街39巷36號","121.505298333333","25.257525","6502100","三芝區"
"252001","292-VK","2018/01/04 19:59:53","新北市三芝區公正街9號","121.499785","25.2575033333333","6502100","三芝區"
"237004","078-UY","2018/01/04 19:59:39","新北市三峽區嘉添179號","121.369561666667","24.91157","6500900","三峽區"
"237007","153-BY","2018/01/04 19:59:47","新北市三峽區二鬮路136巷22弄1號","121.356245","24.9102966666667","6500900","三峽區"
"237009","210-TH","2018/01/04 19:59:47","新北市三峽區民族街78巷2弄6號","121.368496666667","24.92991","6500900","三峽區"
"237012","275-BY","2018/01/04 19:59:35","新北市三峽區愛國路34巷1號","121.374618333333","24.9328","6500900","三峽區"
"237008","302-VK","2018/01/04 19:59:49","新北市三峽區中正路一段292巷27號","121.370361666667","24.92594","6500900","三峽區"
"237014","433-BY","2018/01/04 19:59:35","新北市三峽區光明路48號","121.374545","24.9297383333333","6500900","三峽區"
"237006","5529-G3","2018/01/04 19:59:36","新北市三峽區中正路二段26號","121.367156666667","24.9195433333333","6500900","三峽區"
"237016","649-BX","2018/01/04 19:59:44","新北市三峽區橫溪路99巷58號","121.400363333333","24.9373116666667","6500900","三峽區"
"237005","AKY-6261","2018/01/04 19:59:53","新北市三峽區民生街1巷27-1號","121.379648333333","24.934155","6500900","三峽區"
"236071","105-UM","2018/01/04 19:59:40","新北市土城區忠義路77號","121.443286666667","24.9647083333333","6501300","土城區"
"236042","107-UM","2018/01/04 19:59:47","新北市土城區學府路一段145號","121.45367","24.986065","6501300","土城區"
"236078","166-UM","2018/01/04 17:56:03","新北市土城區永寧路36-1號","121.42889","24.9589066666667","6501300","土城區"
"236030","253-BX","2018/01/04 19:59:48","新北市土城區中央路一段252-1號","121.44441","24.984515","6501300","土城區"
"236026","269-VK","2018/01/04 19:59:44","新北市土城區中央路二段71號","121.44237","24.9786633333333","6501300","土城區"
"236014","270-VK","2018/01/04 19:59:38","新北市土城區廣福街123號","121.456223333333","24.9928933333333","6501300","土城區"
"236037","271-VK","2018/01/04 19:59:34","新北市土城區國際路68號","121.46665","24.9770616666667","6501300","土城區"
"236021","401-BY","2018/01/04 19:59:43","新北市土城區延吉街165巷5號","121.470315","24.9853083333333","6501300","土城區"
"236058","912-UM","2018/01/04 19:59:51","新北市土城區中央路一段141號","121.446663333333","24.98809","6501300","土城區"
"236051","913-UM","2018/01/04 19:59:35","新北市土城區金城路三段313-3號","121.474675","24.99106","6501300","土城區"
"236062","915-UM","2018/01/04 19:59:45","新北市土城區金城路三段73巷9弄1號","121.46616","24.9876283333333","6501300","土城區"
"236053","AAC-216","2018/01/04 19:59:42","新北市土城區延和路11號","121.464015","24.9880233333333","6501300","土城區"
"242031","AAC-296","2018/01/04 19:59:49","新北市新莊區中正路427號","121.44386","25.0341883333333","6500500","新莊區"
"242051","751-BX","2018/01/04 19:59:43","新北市新莊區西盛街145號","121.428178333333","25.0182683333333","6500500","新莊區"
"242025","615-BX","2018/01/04 19:59:36","新北市新莊區五工二路86巷43號","121.460768333333","25.067585","6500500","新莊區"
"242023","613-BX","2018/01/04 19:59:42","新北市新莊區化成路386號","121.46591","25.050235","6500500","新莊區"
"242027","612-BX","2018/01/04 19:59:40","新北市新莊區幸福路904號","121.443056666667","25.0490033333333","6500500","新莊區"
"242039","566-BX","2018/01/04 19:59:48","新北市新莊區民安路287-2號","121.428953333333","25.0229033333333","6500500","新莊區"
"242044","442-UM","2018/01/04 19:59:51","新北市新莊區中正路742-5號","121.41319","25.0227866666667","6500500","新莊區"
"242048","441-UM","2018/01/04 19:59:44","新北市新莊區富國路109巷2號","121.423658333333","25.0250283333333","6500500","新莊區"
"242053","440-UM","2018/01/04 19:59:35","新北市新莊區西盛街423號","121.427286666667","25.0121366666667","6500500","新莊區"
"242034","415-TV","2018/01/04 19:59:45","新北市新莊區建中街91號","121.446695","25.0363683333333","6500500","新莊區"
"242042","400-BY","2018/01/04 19:59:41","新北市新莊區青山路一段200-3號","121.397985","25.031625","6500500","新莊區"
"242061","362-BY","2018/01/04 19:59:51","新北市新莊區瓊泰路3號","121.444941666667","25.0286016666667","6500500","新莊區"
"242058","353-BY","2018/01/04 19:59:34","新北市新莊區八德街120號","121.423973333333","25.020825","6500500","新莊區"
"242036","133-UY","2018/01/04 19:59:50","新北市新莊區建安街41巷16號","121.429181666667","25.0251333333333","6500500","新莊區"
"242021","135-UY","2018/01/04 19:59:50","新北市新莊區中興街73號","121.448966666667","25.0381966666667","6500500","新莊區"
"242046","172-VK","2018/01/04 19:59:38","新北市新莊區裕民街19巷4號","121.419668333333","25.0252283333333","6500500","新莊區"
"242009","173-VK","2018/01/04 19:59:53","新北市新莊區幸福路906號","121.442945","25.04903","6500500","新莊區"
"242015","175-VK","2018/01/04 19:59:49","新北市新莊區泰順街31號","121.44616","25.0425033333333","6500500","新莊區"
"242002","176-VK","2018/01/04 19:59:40","新北市新莊區新泰路111號","121.448846666667","25.0351166666667","6500500","新莊區"
"242013","346-TH","2018/01/04 19:59:42","新北市新莊區幸福路670巷2弄1號","121.451035","25.0496283333333","6500500","新莊區"
"242019","348-TH","2018/01/04 19:59:40","新北市新莊區長青街37巷3號","121.456333333333","25.0419866666667","6500500","新莊區"
"242017","350-TH","2018/01/04 19:59:51","新北市新莊區中安街7號","121.453098333333","25.0456716666667","6500500","新莊區"
"242011","351-TH","2018/01/04 19:59:34","新北市新莊區中港路531巷90號","121.450051666667","25.0518066666667","6500500","新莊區"
"238015","755-BX","2018/01/04 19:59:45","新北市樹林區中山路三段206-1號","121.385028333333","24.9678","6500700","樹林區"
"238023","601-UM","2018/01/04 19:59:43","新北市樹林區中正路347-1號","121.419731666667","25.0059533333333","6500700","樹林區"
"238021","KEA-2217","2018/01/04 19:59:40","新北市樹林區佳園路三段113巷17號","121.38741","24.9502583333333","6500700","樹林區"
"238017","283-BY","2018/01/04 19:59:52","新北市樹林區中華路190-6號","121.41024","24.9806533333333","6500700","樹林區"
"239002","359-BY","2018/01/04 19:59:46","新北市鶯歌區中正一路478號","121.366198333333","24.9567733333333","6500800","鶯歌區"
"221008","489-VK","2018/01/04 19:59:53","台北市內湖區康樂街125巷10號","121.620056666667","25.0733533333333","6501100","汐止區"
"221036","130-UY","2018/01/04 19:59:51","新北市汐止區新台五路二段85巷17號","121.664136666667","25.0673916666667","6501100","汐止區"
"221010","269-BY","2018/01/04 19:59:40","新北市汐止區八連路一段86巷11號","121.643988333333","25.0807366666667","6501100","汐止區"
"221012","276-VK","2018/01/04 13:41:14","新北市汐止區汐萬路一段256巷3號","121.65344","25.0746466666667","6501100","汐止區"
"221012","278-VK","2018/01/04 19:59:53","新北市汐止區大同路三段262-1號","121.676553333333","25.0717983333333","6501100","汐止區"
"221023","279-VK","2018/01/04 19:59:49","新北市汐止區中興路201號","121.629238333333","25.0684316666667","6501100","汐止區"
"221032","280-BY","2018/01/04 19:59:51","新北市汐止區橫科路52巷28號","121.61786","25.0502033333333","6501100","汐止區"
"221027","281-BY","2018/01/04 19:59:52","新北市汐止區中正路68號","121.661736666667","25.069915","6501100","汐止區"
"221029","298-VK","2018/01/04 19:59:38","新北市汐止區樟樹一路137巷26號","121.641016666667","25.0659766666667","6501100","汐止區"
"221021","299-VK","2018/01/04 19:59:41","新北市汐止區青山路8號","121.655768333333","25.0625233333333","6501100","汐止區"
"221031","353-TW","2018/01/04 19:59:34","新北市汐止區福德路52號","121.635508333333","25.06649","6501100","汐止區"
"221015","567-BX","2018/01/04 19:59:45","新北市汐止區鄉長路一段21號","121.66524","25.0744166666667","6501100","汐止區"
"221035","622-UM","2018/01/04 19:59:51","新北市汐止區長江街39巷10號","121.65551","25.0718066666667","6501100","汐止區"
"221025","623-UM","2018/01/04 19:59:35","新北市汐止區秀峰路101號","121.660026666667","25.0636633333333","6501100","汐止區"
"221038","646-BX","2018/01/04 19:59:38","新北市汐止區忠孝東路477號","121.666098333333","25.0731366666667","6501100","汐止區"
"221033","647-BX","2018/01/04 19:59:45","新北市汐止區東勢街201巷98號","121.633715","25.0431233333333","6501100","汐止區"
"221018","753-BX","2018/01/04 19:59:37","新北市汐止區茄苳路66號","121.666551666667","25.0706883333333","6501100","汐止區"
"220079","145-BY","2018/01/04 19:59:51","新北市板橋區南雅西路二段213號","121.451198333333","25.0135733333333","6500100","板橋區"
"220080","200-UY","2018/01/04 19:59:34","新北市板橋區大觀路二段169巷22號","121.446283333333","24.9998133333333","6500100","板橋區"
"220082","610-BX","2018/01/04 19:59:43","新北市板橋區篤行路二段131巷33-4號","121.432138333333","24.9901166666667","6500100","板橋區"
"220072","277-BY","2018/01/04 19:59:44","新北市板橋區金門街151巷13號","121.433595","24.99034","6500100","板橋區"
"220101","280-UM","2018/01/04 19:59:50","新北市板橋區縣民大道三段57號","121.474621666667","25.0210966666667","6500100","板橋區"
"220094","285-UM","2018/01/04 19:59:49","新北市板橋區漢生西路197-1號","121.463211666667","25.0244583333333","6500100","板橋區"
"220053","285-VK","2018/01/04 19:59:52","新北市板橋區永豐街22號","121.47472","25.01702","6500100","板橋區"
"220083","286-VK","2018/01/04 19:59:39","新北市板橋區僑中二街10巷34號","121.445623333333","25.0111316666667","6500100","板橋區"
"220081","287-VK","2018/01/04 19:59:50","新北市板橋區大觀路一段28巷101號","121.450185","25.0118616666667","6500100","板橋區"
"220090","288-VK","2018/01/04 19:59:32","新北市板橋區英士路199號","121.458683333333","25.0234983333333","6500100","板橋區"
"220061","293-UM","2018/01/04 19:59:40","新北市板橋區觀光街57巷15弄1號","121.470296666667","25.0160866666667","6500100","板橋區"
"220084","296-UM","2018/01/04 19:59:46","新北市板橋區溪崑二街112巷42號","121.425503333333","24.98939","6500100","板橋區"
"220075","297-UM","2018/01/04 19:59:51","新北市板橋區金華街10巷97號","121.458763333333","25.0205316666667","6500100","板橋區"
"242004","281-VK","2018/01/04 19:59:42","新北市新莊區化成路205-2號","121.465606666667","25.0510866666667","6500500","新莊區"
"220062","305-R5","2018/01/04 19:59:53","新北市板橋區萬安街85巷2弄12號","121.48444","25.0248916666667","6500100","板橋區"
"220092","307-R5","2018/01/04 19:59:50","新北市板橋區互助街98號","121.460015","25.026195","6500100","板橋區"
"220098","317-R6","2018/01/04 19:59:48","新北市板橋區漢生西路159號","121.46298","25.0235066666667","6500100","板橋區"
"220064","486-VK","2018/01/04 19:59:42","新北市板橋區實踐路43號","121.463748333333","25.006915","6500100","板橋區"
"220089","487-VK","2018/01/04 19:59:51","新北市板橋區龍泉街133號","121.457576666667","25.0238533333333","6500100","板橋區"
"242056","280-VK","2018/01/04 19:59:41","新北市新莊區中正路347巷15號","121.447295","25.03439","6500500","新莊區"
"220088","491-VK","2018/01/04 19:59:46","新北市板橋區懷德街182號","121.479573333333","25.0297916666667","6500100","板橋區"
"220035","560-BX","2018/01/04 19:59:42","新北市板橋區新生街53巷3弄2號","121.457541666667","25.02156","6500100","板橋區"
"220103","561-BX","2018/01/04 19:59:41","新北市板橋區陽明街29-1號","121.465473333333","25.02197","6500100","板橋區"
"220071","568-UM","2018/01/04 19:59:46","新北市板橋區和平路174巷1弄2號","121.464201666667","24.9950016666667","6500100","板橋區"
"220063","609-BX","2018/01/04 19:59:43","新北市板橋區中山路二段68號","121.474348333333","25.0159183333333","6500100","板橋區"
"220091","637-BX","2018/01/04 19:59:42","新北市板橋區文聖街89巷7號","121.477898333333","25.0301833333333","6500100","板橋區"
"220057","686-BX","2018/01/04 19:59:40","新北市板橋區信義路19號","121.456993333333","24.99654","6500100","板橋區"
"220093","689-BX","2018/01/04 19:59:51","新北市板橋區文化路二段604號","121.47701","25.03492","6500100","板橋區"
"220054","741-BX","2018/01/04 19:59:49","新北市板橋區實踐路93巷14號","121.464611666667","25.0054233333333","6500100","板橋區"
"220055","827-TW","2018/01/04 19:59:51","新北市板橋區仁愛路62巷14弄1-3號","121.459948333333","24.998505","6500100","板橋區"
"220067","829-TW","2018/01/04 19:59:48","新北市板橋區長安街331巷93弄9號","121.47217","25.0123883333333","6500100","板橋區"
"220102","830-TW","2018/01/04 19:59:47","新北市板橋區仁化街64巷14號","121.475776666667","25.03153","6500100","板橋區"
"220074","895-R6","2018/01/04 19:59:46","新北市板橋區文化路一段46巷60-3號","121.460888333333","25.0109916666667","6500100","板橋區"
"220073","985-R7","2018/01/04 19:59:33","新北市板橋區南雅西路二段116號","121.452106666667","25.0123116666667","6500100","板橋區"
"220097","AAC-210","2018/01/04 19:59:40","新北市板橋區光正街25號","121.462316666667","25.01719","6500100","板橋區"
"220070","AAC-253","2018/01/04 19:59:47","新北市板橋區成都街10號","121.460346666667","25.0047233333333","6500100","板橋區"
