"lineid","car","time","location","longitude","latitude","cityid","cityname"
"234007","207-UY","2018/01/04 20:29:35","新北市永和區環河西路二段221號","121.501228333333","25.0101016666667","6500400","永和區"
"234081","298-R6","2018/01/04 20:29:58","新北市永和區永貞路82號","121.520196666667","25.0050383333333","6500400","永和區"
"234038","336-UY","2018/01/04 20:29:52","新北市永和區民樂街39巷23號","121.52893","25.0006766666667","6500400","永和區"
"234064","337-UY","2018/01/04 20:29:52","新北市永和區中正路520號","121.51724","25.00492","6500400","永和區"
"234086","338-UY","2018/01/04 20:29:57","新北市永和區光復街21號","121.516498333333","25.0174683333333","6500400","永和區"
"234052","553-UM","2018/01/04 20:29:30","新北市永和區環河東路一段42號","121.518858333333","25.0169866666667","6500400","永和區"
"234030","746-BX","2018/01/04 20:29:51","新北市永和區民有街75巷14號","121.518465","24.9966083333333","6500400","永和區"
"234061","AAD-866","2018/01/04 20:29:34","新北市永和區安樂路194巷6號","121.515735","25.00094","6500400","永和區"
"234070","847-RS","2018/01/04 20:29:37","新北市永和區永亨路7號","121.519425","25.0056666666667","6500400","永和區"
"234042","862-TW","2018/01/04 20:29:41","新北市永和區安樂路348號","121.514453333333","25.006475","6500400","永和區"
"234048","863-TW","2018/01/04 20:29:58","新北市永和區環河西路二段55號","121.507143333333","25.015345","6500400","永和區"
"249001","173-UM","2018/01/04 20:29:53","新北市八里區下罟子5-11號","121.38684","25.14229","6502300","八里區"
"249004","303-UY","2018/01/04 20:29:46","新北市八里區中山路一段129巷31號","121.414118333333","25.15852","6502300","八里區"
"249002","305-UY","2018/01/04 20:29:38","新北市八里區龍米路二段148號","121.437203333333","25.15585","6502300","八里區"
"249003","593-UM","2018/01/04 20:29:52","新北市八里區華峰一街47號","121.398675","25.1462383333333","6502300","八里區"
"248002","678-BX","2018/01/04 20:29:50","新北市五股區新五路二段367號","121.444056666667","25.08798","6501500","五股區"
"234023","9380-KE","2018/01/04 20:29:36","新北市永和區光復街4號","121.516393333333","25.0167516666667","6500400","永和區"
"234074","AAC-211","2018/01/04 20:29:55","新北市永和區福和路8巷3號","121.524806666667","25.0091333333333","6500400","永和區"
"234067","AAC-212","2018/01/04 20:29:40","新北市永和區保平路292巷46弄2號","121.50744","25.0053916666667","6500400","永和區"
"234003","AAC-295","2018/01/04 20:29:53","新北市永和區中正路620號","121.516968333333","25.0078816666667","6500400","永和區"
"244019","403-UM","2018/01/04 20:29:54","新北市八里區中華路三段62號","121.394303333333","25.1407433333333","6501700","林口區"
"243012","AAD-798","2018/01/04 20:29:47","新北市泰山區忠孝街19巷1弄2號","121.427485","25.065735","6501600","泰山區"
"243011","297-R6","2018/01/04 20:29:37","新北市泰山區明志路二段330號","121.426131666667","25.0457033333333","6501600","泰山區"
"243015","380-SR","2018/01/04 20:29:47","新北市泰山區仁德路63號","121.434498333333","25.0567433333333","6501600","泰山區"
"243014","421-VK","2018/01/04 20:29:54","新北市泰山區泰林路二段558號","121.422891666667","25.0636816666667","6501600","泰山區"
"243010","KEA-2215","2018/01/04 20:29:49","新北市泰山區新生路31巷7號","121.42761","25.04582","6501600","泰山區"
"243009","KEA-2216","2018/01/04 20:29:46","新北市泰山區泰林路二段542巷3弄10號","121.423063333333","25.0643333333333","6501600","泰山區"
"243013","646-TV","2018/01/04 20:29:48","新北市泰山區公園路54號","121.42787","25.054945","6501600","泰山區"
"243016","680-BX","2018/01/04 20:29:54","新北市泰山區文程路111號","121.43067","25.04809","6501600","泰山區"
"222003","436-BY","2018/01/04 20:29:36","新北市深坑區深坑街27號","121.616058333333","25.0023166666667","6501800","深坑區"
"222002","659-BX","2018/01/04 20:29:21","新北市深坑區萬福路16巷36-1號","121.611756666667","25.00852","6501800","深坑區"
"222001","696-SL","2018/01/04 20:29:49","新北市深坑區北深路三段329號","121.597206666667","25.005045","6501800","深坑區"
"231066","0293-UT","2018/01/04 20:29:52","新北市新店區安興路112號","121.514601666667","24.9776466666667","6500600","新店區"
"231059","046-UY","2018/01/04 20:29:48","新北市新店區安豐路49號","121.50002","24.954895","6500600","新店區"
"231061","047-UY","2018/01/04 20:29:50","新北市新店區新和街34號","121.519138333333","24.9847733333333","6500600","新店區"
"231060","106-UY","2018/01/04 20:29:50","新北市新店區錦秀路45號","121.47919","24.9436866666667","6500600","新店區"
"231051","107-UY","2018/01/04 20:29:41","新北市新店區中央七街60號","121.527943333333","24.9762666666667","6500600","新店區"
"231047","108-UY","2018/01/04 20:29:40","新北市新店區寶慶街58巷21-1號","121.542005","24.9872283333333","6500600","新店區"
"231068","110-UY","2018/01/04 20:29:52","新北市新店區民權路8號","121.542426666667","24.9829733333333","6500600","新店區"
"231052","187-VK","2018/01/04 20:29:34","新北市新店區松林路30-9號","121.545278333333","24.910455","6500600","新店區"
"231050","KEA-2219","2018/01/04 20:29:47","新北市新店區博愛街23號","121.541391666667","24.9737816666667","6500600","新店區"
"231057","256-BX","2018/01/04 20:29:40","新北市新店區花園五路二段3號","121.553685","24.934185","6500600","新店區"
"231054","AAD-862","2018/01/04 20:29:46","新北市新店區檳榔路109號","121.54445","24.9616983333333","6500600","新店區"
"231041","355-BY","2018/01/04 20:29:50","新北市新店區中正路501-4號","121.533651666667","24.9837983333333","6500600","新店區"
"231058","3712-VJ","2018/01/04 20:29:48","新北市新店區自由街55號","121.534431666667","24.9735983333333","6500600","新店區"
"231056","3713-VJ","2018/01/04 20:29:46","新北市新店區中正路304號","121.537471666667","24.9745083333333","6500600","新店區"
"231055","4716-K9","2018/01/04 20:29:53","新北市新店區安康路二段320巷6號","121.504705","24.9598983333333","6500600","新店區"
"231065","512-UM","2018/01/04 20:29:51","新北市新店區安祥路102巷42弄35號","121.485216666667","24.9634183333333","6500600","新店區"
"231064","515-UM","2018/01/04 20:29:54","新北市新店區永安街74巷9號","121.519595","24.9862016666667","6500600","新店區"
"231040","619-UM","2018/01/04 20:29:30","新北市新店區三民路126號","121.534561666667","24.9746133333333","6500600","新店區"
"231042","641-BX","2018/01/04 20:29:49","新北市新店區寶高路9號","121.551705","24.9776066666667","6500600","新店區"
"231063","645-TV","2018/01/04 20:29:41","新北市新店區玫瑰路4-1號","121.493551666667","24.9513833333333","6500600","新店區"
"231049","719-UM","2018/01/04 20:29:45","新北市新店區永業路81巷16號","121.531083333333","24.9481516666667","6500600","新店區"
"231062","720-UM","2018/01/04 20:29:53","新北市新店區安泰路60巷104號","121.484033333333","24.9450833333333","6500600","新店區"
"231044","897-TW","2018/01/04 20:29:55","新北市新店區建國路134號","121.539038333333","24.9789116666667","6500600","新店區"
"231045","898-TW","2018/01/04 20:29:45","新北市新店區新坡一街4號","121.548671666667","24.96145","6500600","新店區"
"231043","899-TW","2018/01/04 20:29:51","新北市新店區建國路104號","121.539841666667","24.9778533333333","6500600","新店區"
"241011","013-R5","2018/01/04 20:29:49","新北市三重區龍門路26-2號","121.495458333333","25.0720216666667","6500200","三重區"
"241028","022-UY","2018/01/04 20:29:39","新北市三重區光興街91號","121.497391666667","25.0599316666667","6500200","三重區"
"241008","059-VK","2018/01/04 20:29:46","新北市三重區下竹圍街42號","121.48099","25.0748883333333","6500200","三重區"
"241009","060-VK","2018/01/04 20:29:47","新北市三重區永福街46-2號","121.482033333333","25.0781316666667","6500200","三重區"
"241031","061-VK","2018/01/04 20:29:40","新北市三重區三寧街25號","121.489536666667","25.0598616666667","6500200","三重區"
"241015","062-VK","2018/01/04 20:29:42","新北市三重區文化北路41-2號","121.498881666667","25.06526","6500200","三重區"
"241017","063-VK","2018/01/04 20:29:47","新北市三重區自強路一段290號","121.491468333333","25.0683233333333","6500200","三重區"
"241024","065-VK","2018/01/04 20:29:44","新北市三重區忠孝路三段15巷55號","121.479671666667","25.068305","6500200","三重區"
"241026","066-VK","2018/01/04 20:29:53","新北市三重區福德南路24巷11號","121.503343333333","25.0631566666667","6500200","三重區"
"241002","090-VK","2018/01/04 20:29:36","新北市三重區仁義街211巷1號","121.496963333333","25.0818533333333","6500200","三重區"
"241003","091-VK","2018/01/04 20:29:44","新北市三重區富華街202號","121.493241666667","25.085015","6500200","三重區"
"241005","262-UM","2018/01/04 20:29:50","新北市三重區碧華街297號","121.490576666667","25.0839416666667","6500200","三重區"
"241016","266-UM","2018/01/04 20:29:41","新北市三重區正義北路190巷8號","121.496068333333","25.0666866666667","6500200","三重區"
"241022","267-UM","2018/01/04 20:29:46","新北市三重區民生街61巷18弄11號","121.48748","25.0627266666667","6500200","三重區"
"241018","268-UM","2018/01/04 20:29:49","新北市三重區正義北路216巷3號","121.495916666667","25.0675066666667","6500200","三重區"
"241032","269-UM","2018/01/04 20:29:43","新北市三重區重陽路一段120巷37號","121.485033333333","25.0602166666667","6500200","三重區"
"241013","270-UM","2018/01/04 20:29:46","新北市三重區三和路三段167巷55號","121.493905","25.0747133333333","6500200","三重區"
"241025","271-UM","2018/01/04 20:29:52","新北市三重區頂崁街210巷27號","121.475818333333","25.06823","6500200","三重區"
"241007","398-BY","2018/01/04 20:29:38","新北市三重區自強路四段28號","121.488873333333","25.0767833333333","6500200","三重區"
"241020","413-TH","2018/01/04 20:29:48","新北市三重區三和路三段170巷8弄22號","121.492548333333","25.0724066666667","6500200","三重區"
"241035","462-BY","2018/01/04 20:29:46","新北市三重區正義北路104號","121.496996666667","25.0650366666667","6500200","三重區"
"241004","475-VK","2018/01/04 20:29:44","新北市三重區溪尾街191號","121.488691666667","25.0805016666667","6500200","三重區"
"241019","478-VK","2018/01/04 20:29:38","新北市三重區重陽路四段77號","121.492596666667","25.0708866666667","6500200","三重區"
"241030","480-VK","2018/01/04 20:29:37","新北市三重區成功路62號","121.488618333333","25.0509433333333","6500200","三重區"
"241014","543-UM","2018/01/04 20:29:53","新北市三重區長興街88號","121.501561666667","25.06923","6500200","三重區"
"241023","545-UM","2018/01/04 20:29:47","新北市三重區自由街16號","121.479811666667","25.0665466666667","6500200","三重區"
"241001","547-UM","2018/01/04 20:29:40","新北市三重區福隆路12號","121.490283333333","25.07742","6500200","三重區"
"241012","941-UM","2018/01/04 20:29:39","新北市三重區龍濱路269號","121.501371666667","25.0730916666667","6500200","三重區"
"241029","942-UM","2018/01/04 20:29:41","新北市三重區集美街225號","121.492075","25.0551233333333","6500200","三重區"
"241033","AAC-255","2018/01/04 20:29:39","新北市三重區五谷王北街80巷60號","121.47472","25.0527166666667","6500200","三重區"
"235066","003-UY","2018/01/04 20:29:48","新北市中和區中山路二段3巷22弄38號","121.505748333333","25.00403","6500300","中和區"
"235039","097-UM","2018/01/04 20:29:52","新北市中和區大勇街27巷18號","121.516688333333","24.9939716666667","6500300","中和區"
"235050","4979-A6","2018/01/04 20:29:47","新北市中和區南華路77號","121.505248333333","24.9973833333333","6500300","中和區"
"235069","4980-A6","2018/01/04 20:29:43","新北市中和區新生街237號","121.483868333333","24.99899","6500300","中和區"
"235026","800-TS","2018/01/04 20:27:09","新北市中和區員山路36巷16-3號","121.484896666667","24.9915783333333","6500300","中和區"
"235059","AAC-215","2018/01/04 20:29:50","新北市中和區員山路36巷2-1號","121.482795","24.9906116666667","6500300","中和區"
"247022","893-R6","2018/01/04 20:29:40","新北市蘆洲區中正路321號","121.466175","25.0887766666667","6501400","蘆洲區"
"247012","546-UM","2018/01/04 20:29:51","新北市蘆洲區復興路179號","121.478901666667","25.0893616666667","6501400","蘆洲區"
"247020","500-BY","2018/01/04 20:29:47","新北市蘆洲區民族路331-1號","121.47383","25.0915966666667","6501400","蘆洲區"
"247008","341-TH","2018/01/04 20:29:53","新北市蘆洲區重陽街95號","121.482488333333","25.0853833333333","6501400","蘆洲區"
"247002","337-TH","2018/01/04 20:29:42","新北市蘆洲區長安街347巷32號","121.455418333333","25.087085","6501400","蘆洲區"
"247004","336-TH","2018/01/04 20:29:52","新北市蘆洲區長安街299巷25號","121.4569","25.0845566666667","6501400","蘆洲區"
"247016","057-VK","2018/01/04 20:29:43","新北市蘆洲區光華路91號","121.46753","25.082545","6501400","蘆洲區"
"247006","056-VK","2018/01/04 20:29:49","新北市蘆洲區和平路121巷8弄43號","121.465726666667","25.0808716666667","6501400","蘆洲區"
"247010","053-VK","2018/01/04 20:29:43","新北市蘆洲區信義路277號","121.47891","25.0852583333333","6501400","蘆洲區"
"247014","007-UY","2018/01/04 20:29:42","新北市蘆洲區中山二路47號","121.473895","25.0821133333333","6501400","蘆洲區"
"247024","002-UY","2018/01/04 20:29:39","新北市蘆洲區光復路70巷25號","121.464911666667","25.084955","6501400","蘆洲區"
"247018","001-UY","2018/01/04 20:29:48","新北市蘆洲區民族路327巷46號","121.474611666667","25.0908233333333","6501400","蘆洲區"
"251001","011-UM","2018/01/04 20:29:46","新北市淡水區中山北路二段2號","121.444568333333","25.1831","6501000","淡水區"
"251013","179-VK","2018/01/04 20:29:45","新北市淡水區奎柔山路417號","121.463948333333","25.2047716666667","6501000","淡水區"
"251014","180-VK","2018/01/04 20:29:38","新北市淡水區石頭厝9-6號","121.460453333333","25.2376683333333","6501000","淡水區"
"251008","181-VK","2018/01/04 20:29:35","新北市淡水區淡海路178號","121.420455","25.184035","6501000","淡水區"
"251015","182-VK","2018/01/04 20:29:42","新北市淡水區興仁路162號","121.451596666667","25.22065","6501000","淡水區"
"251010","413-VK","2018/01/04 20:29:50","新北市淡水區沙崙路181巷1號","121.424006666667","25.1843383333333","6501000","淡水區"
"251012","441-VK","2018/01/04 20:29:51","新北市淡水區頂田寮路3號","121.453571666667","25.21673","6501000","淡水區"
"251016","442-VK","2018/01/04 20:29:57","新北市淡水區淡金路552-1號","121.451711666667","25.227515","6501000","淡水區"
"251006","561-UM","2018/01/04 20:29:49","新北市淡水區商工路296號","121.460781666667","25.1858583333333","6501000","淡水區"
"251011","650-BX","2018/01/04 20:29:52","新北市淡水區沙崙路二段112號","121.433316666667","25.1986383333333","6501000","淡水區"
"251003","766-UM","2018/01/04 20:29:54","新北市淡水區新民街21號","121.439406666667","25.175305","6501000","淡水區"
"252002","178-VK","2018/01/04 20:29:49","新北市三芝區淡金路二段47-2號","121.503606666667","25.2605816666667","6502100","三芝區"
"252001","292-VK","2018/01/04 20:29:53","新北市三芝區中山路一段14號","121.500711666667","25.258125","6502100","三芝區"
"236014","270-VK","2018/01/04 20:29:38","新北市土城區廣明街63巷11號","121.45446","24.9932466666667","6501300","土城區"
"236021","401-BY","2018/01/04 20:29:43","新北市土城區金城路三段198號","121.468485","24.9881033333333","6501300","土城區"
"242031","AAC-296","2018/01/04 20:29:49","新北市新莊區三和路17-16號","121.439068333333","25.0376533333333","6500500","新莊區"
"242029","986-R7","2018/01/04 20:29:52","新北市新莊區中華路二段149號","121.452878333333","25.051325","6500500","新莊區"
"242051","751-BX","2018/01/04 20:29:43","新北市新莊區民安西路252巷31號","121.4253","25.0136083333333","6500500","新莊區"
"242025","615-BX","2018/01/04 20:29:54","新北市新莊區五工三路7號","121.459731666667","25.06425","6500500","新莊區"
"242023","613-BX","2018/01/04 20:29:42","新北市新莊區化成路537號","121.465081666667","25.0643716666667","6500500","新莊區"
"242027","612-BX","2018/01/04 20:29:40","新北市新莊區思源路307號","121.459841666667","25.0489283333333","6500500","新莊區"
"242039","566-BX","2018/01/04 20:29:53","新北市新莊區八德街15巷21號","121.425918333333","25.0221066666667","6500500","新莊區"
"242044","442-UM","2018/01/04 20:29:57","新北市新莊區中正路新建巷9號","121.414123333333","25.022565","6500500","新莊區"
"242048","441-UM","2018/01/04 20:29:44","新北市新莊區裕民街85巷20號","121.41951","25.0231966666667","6500500","新莊區"
"242053","440-UM","2018/01/04 20:29:35","新北市新莊區民安西路229巷9號","121.426651666667","25.0142233333333","6500500","新莊區"
"242034","415-TV","2018/01/04 20:29:52","新北市新莊區中正路317號","121.447916666667","25.0350883333333","6500500","新莊區"
"242042","400-BY","2018/01/04 20:29:41","新北市新莊區中正路700-8號","121.418101666667","25.027895","6500500","新莊區"
"242061","362-BY","2018/01/04 20:29:51","新北市新莊區新樹路244巷15號","121.43155","25.0182066666667","6500500","新莊區"
"242058","353-BY","2018/01/04 20:29:53","新北市新莊區四維路157號","121.422518333333","25.021865","6500500","新莊區"
"242036","133-UY","2018/01/04 20:29:50","新北市新莊區後港一路76巷3弄2號","121.427338333333","25.02587","6500500","新莊區"
"242021","135-UY","2018/01/04 20:29:53","新北市新莊區公園路58號","121.449348333333","25.039345","6500500","新莊區"
"242046","172-VK","2018/01/04 20:29:38","新北市新莊區裕民街72巷17號","121.417888333333","25.0243116666667","6500500","新莊區"
"242009","173-VK","2018/01/04 20:29:53","新北市新莊區昌盛街81巷2弄1號","121.455506666667","25.0503516666667","6500500","新莊區"
"242015","175-VK","2018/01/04 20:29:48","新北市新莊區中平路46巷32號","121.446016666667","25.043825","6500500","新莊區"
"242002","176-VK","2018/01/04 20:29:36","新北市新莊區中正路147-18號","121.45703","25.0371216666667","6500500","新莊區"
"242013","346-TH","2018/01/04 20:29:39","新北市新莊區中和街155巷24弄79號","121.446211666667","25.0514133333333","6500500","新莊區"
"242019","348-TH","2018/01/04 20:29:55","新北市新莊區民樂街87巷7號","121.45746","25.043225","6500500","新莊區"
"242017","350-TH","2018/01/04 20:29:41","新北市新莊區中港三街7號","121.45116","25.0463933333333","6500500","新莊區"
"242011","351-TH","2018/01/04 20:29:54","新北市新莊區中信街66-3號","121.448591666667","25.0514283333333","6500500","新莊區"
"221008","489-VK","2018/01/04 20:29:53","新北市汐止區康寧街543號","121.634336666667","25.0690983333333","6501100","汐止區"
"221036","130-UY","2018/01/04 20:29:51","新北市汐止區仁愛路151巷30號","121.663251666667","25.0655833333333","6501100","汐止區"
"221010","269-BY","2018/01/04 20:29:40","新北市汐止區八連路二段610巷11-1號","121.626865","25.1092033333333","6501100","汐止區"
"221012","276-VK","2018/01/04 13:41:14","新北市汐止區汐萬路一段256巷3號","121.65344","25.0746466666667","6501100","汐止區"
"221012","278-VK","2018/01/04 20:29:53","新北市汐止區大同路三段241號","121.672681666667","25.07668","6501100","汐止區"
"221023","279-VK","2018/01/04 20:29:49","新北市汐止區湖東街5巷112-1號","121.63527","25.074395","6501100","汐止區"
"221032","280-BY","2018/01/04 20:29:51","新北市汐止區民權街二段79-1號","121.619306666667","25.048525","6501100","汐止區"
"221027","281-BY","2018/01/04 20:29:44","新北市汐止區中正路248號","121.657496666667","25.068685","6501100","汐止區"
"221029","298-VK","2018/01/04 20:29:38","新北市汐止區工建路129巷34弄21號","121.640468333333","25.0653616666667","6501100","汐止區"
"221021","299-VK","2018/01/04 20:29:44","新北市汐止區水源路一段284號","121.654233333333","25.0582683333333","6501100","汐止區"
"221031","353-TW","2018/01/04 20:29:54","新北市汐止區中興路110巷10號","121.633781666667","25.064155","6501100","汐止區"
"221015","567-BX","2018/01/04 20:29:45","新北市汐止區建成路142巷19弄17號","121.66177","25.0739133333333","6501100","汐止區"
"221035","622-UM","2018/01/04 20:29:51","新北市汐止區長江街101-5號","121.658615","25.0733333333333","6501100","汐止區"
"221025","623-UM","2018/01/04 20:29:35","新北市汐止區水源路二段110巷1號","121.656641666667","25.0553766666667","6501100","汐止區"
"221038","646-BX","2018/01/04 20:29:38","新北市汐止區忠孝東路9號","121.65811","25.0658416666667","6501100","汐止區"
"221033","647-BX","2018/01/04 20:29:44","新北市汐止區林森街73巷5號","121.623533333333","25.0409433333333","6501100","汐止區"
"221002","707-TV","2018/01/04 20:29:43","新北市汐止區福德一路6號","121.638958333333","25.0698116666667","6501100","汐止區"
"221018","753-BX","2018/01/04 20:29:44","新北市汐止區茄苳路225巷11弄2號","121.671478333333","25.0693516666667","6501100","汐止區"
"220083","286-VK","2018/01/04 20:29:39","新北市板橋區僑中二街104巷18號","121.445288333333","25.0080133333333","6500100","板橋區"
"220081","287-VK","2018/01/04 20:29:39","新北市板橋區大觀路二段32號","121.444918333333","25.0018216666667","6500100","板橋區"
"242004","281-VK","2018/01/04 20:29:52","新北市新莊區化成路403巷31號","121.463566666667","25.0586716666667","6500500","新莊區"
"220062","305-R5","2018/01/04 20:29:53","新北市林口區太平里180號","121.366608333333","25.1345683333333","6500100","板橋區"
"220089","487-VK","2018/01/04 20:29:50","新北市板橋區四維路253號","121.463516666667","25.0278833333333","6500100","板橋區"
"242056","280-VK","2018/01/04 20:29:41","新北市新莊區瓊泰路126號","121.44325","25.03166","6500500","新莊區"
"220103","561-BX","2018/01/04 20:29:41","新北市板橋區漢生東路33巷43號","121.466106666667","25.0178266666667","6500100","板橋區"
"220102","830-TW","2018/01/04 20:29:47","新北市板橋區文化路一段322-1號","121.467953333333","25.022165","6500100","板橋區"
"220070","AAC-253","2018/01/04 20:29:46","新北市新莊區中正路384號","121.44222","25.0347916666667","6500100","板橋區"
