"lineid","car","time","location","longitude","latitude","cityid","cityname"
"234064","337-UY","2018/01/04 20:39:52","新北市永和區環河西路二段219號","121.501248333333","25.010445","6500400","永和區"
"234086","338-UY","2018/01/04 20:39:37","新北市板橋區文化路二段656號","121.480331666667","25.041485","6500400","永和區"
"234030","746-BX","2018/01/04 20:39:51","新北市中和區安樂路46號","121.512093333333","24.9928883333333","6500400","永和區"
"234061","AAD-866","2018/01/04 20:39:54","新北市永和區秀朗路一段175號","121.516965","25.0036783333333","6500400","永和區"
"249001","173-UM","2018/01/04 20:39:53","新北市八里區中山路三段409號","121.368976666667","25.13602","6502300","八里區"
"249004","303-UY","2018/01/04 20:39:46","新北市八里區中山路一段157巷28號","121.412831666667","25.158075","6502300","八里區"
"234023","9380-KE","2018/01/04 20:39:37","新北市永和區竹林路25巷32號","121.518113333333","25.0149033333333","6500400","永和區"
"234074","AAC-211","2018/01/04 20:39:35","新北市永和區竹林路119巷22弄1號","121.521443333333","25.011575","6500400","永和區"
"244019","403-UM","2018/01/04 20:39:54","新北市八里區長道坑33-2號","121.400296666667","25.096275","6501700","林口區"
"243014","421-VK","2018/01/04 20:39:42","新北市泰山區泰林路三段745巷145號","121.405595","25.0678616666667","6501600","泰山區"
"243010","KEA-2215","2018/01/04 20:39:49","新北市泰山區黎明路3號","121.421191666667","25.06333","6501600","泰山區"
"243016","680-BX","2018/01/04 20:39:54","新北市泰山區泰林路二段599巷1-1號","121.421283333333","25.0634633333333","6501600","泰山區"
"222003","436-BY","2018/01/04 20:39:55","新北市深坑區深坑街162號","121.612803333333","25.0011416666667","6501800","深坑區"
"222002","659-BX","2018/01/04 20:39:41","新北市深坑區萬福路47號","121.599526666667","25.0069183333333","6501800","深坑區"
"222001","696-SL","2018/01/04 20:39:49","新北市深坑區北深路三段234號","121.600648333333","25.0040366666667","6501800","深坑區"
"231066","0293-UT","2018/01/04 20:39:52","新北市新店區安興路112號","121.514591666667","24.9776566666667","6500600","新店區"
"231059","046-UY","2018/01/04 20:39:48","新北市新店區僑愛三路5號","121.499856666667","24.9446466666667","6500600","新店區"
"231061","047-UY","2018/01/04 20:39:50","新北市新店區新和街52號","121.519675","24.9852416666667","6500600","新店區"
"231060","106-UY","2018/01/04 20:39:50","新北市新店區安康路三段738號","121.473916666667","24.9419283333333","6500600","新店區"
"231051","107-UY","2018/01/04 20:39:41","新北市新店區中央八街86號","121.526998333333","24.9773266666667","6500600","新店區"
"231047","108-UY","2018/01/04 20:39:40","新北市新店區寶慶街36號","121.542995","24.9867983333333","6500600","新店區"
"231068","110-UY","2018/01/04 20:39:52","新北市新店區寶元路一段65號","121.542173333333","24.9858316666667","6500600","新店區"
"231052","187-VK","2018/01/04 20:39:54","新北市新店區松林路36號","121.546046666667","24.9106433333333","6500600","新店區"
"231050","KEA-2219","2018/01/04 20:39:47","新北市新店區建安街17號","121.539683333333","24.9754216666667","6500600","新店區"
"231057","256-BX","2018/01/04 20:39:40","新北市新店區花園六路一段1號","121.553391666667","24.93316","6500600","新店區"
"231054","AAD-862","2018/01/04 20:39:46","新北市新店區行政街45號","121.543095","24.965565","6500600","新店區"
"231041","355-BY","2018/01/04 20:39:50","新北市新店區中正路545號","121.533713333333","24.98765","6500600","新店區"
"231058","3712-VJ","2018/01/04 20:39:48","新北市新店區平等街46巷2號","121.53633","24.9731916666667","6500600","新店區"
"231056","3713-VJ","2018/01/04 20:39:46","新北市新店區中央路47號","121.532703333333","24.97755","6500600","新店區"
"231065","512-UM","2018/01/04 20:39:51","新北市新店區安祥路102巷146號","121.486816666667","24.9645316666667","6500600","新店區"
"231064","515-UM","2018/01/04 20:39:35","新北市新店區安和路三段165號","121.516278333333","24.98591","6500600","新店區"
"231040","619-UM","2018/01/04 20:39:42","新北市新店區中正路247巷4弄10號","121.538458333333","24.9733683333333","6500600","新店區"
"231042","641-BX","2018/01/04 20:39:44","新北市新店區寶高路118號","121.554545","24.9759833333333","6500600","新店區"
"231063","645-TV","2018/01/04 20:39:41","新北市新店區玫瑰路4-1號","121.493553333333","24.9513966666667","6500600","新店區"
"231049","719-UM","2018/01/04 20:39:45","新北市新店區永業路81巷1弄17號","121.530651666667","24.9503666666667","6500600","新店區"
"231062","720-UM","2018/01/04 20:39:53","新北市新店區雙城路4巷2號","121.49127","24.9510033333333","6500600","新店區"
"231044","897-TW","2018/01/04 20:39:35","新北市新店區建國路293巷1號","121.536728333333","24.9861683333333","6500600","新店區"
"231045","898-TW","2018/01/04 20:39:45","新北市新店區長春路62號","121.551011666667","24.9579766666667","6500600","新店區"
"231043","899-TW","2018/01/04 20:39:51","新北市新店區建國路12-1號","121.540118333333","24.97373","6500600","新店區"
"241011","013-R5","2018/01/04 20:39:49","新北市三重區龍濱路285號","121.50108","25.0733633333333","6500200","三重區"
"241028","022-UY","2018/01/04 20:39:39","新北市三重區光興街93號","121.497346666667","25.0599283333333","6500200","三重區"
"241008","059-VK","2018/01/04 20:39:46","新北市三重區下竹圍街91號","121.481098333333","25.0748183333333","6500200","三重區"
"241009","060-VK","2018/01/04 20:39:47","新北市三重區碧華街51號","121.484635","25.0812783333333","6500200","三重區"
"241031","061-VK","2018/01/04 20:32:00","新北市三重區過圳街5號","121.489168333333","25.0588116666667","6500200","三重區"
"241015","062-VK","2018/01/04 20:39:42","新北市三重區文化北路103號","121.497838333333","25.068425","6500200","三重區"
"241017","063-VK","2018/01/04 20:39:47","新北市三重區大同北路259號","121.49089","25.0671183333333","6500200","三重區"
"241024","065-VK","2018/01/04 20:39:44","新北市三重區中正北路193巷11弄50號","121.479118333333","25.0707283333333","6500200","三重區"
"241026","066-VK","2018/01/04 20:39:53","新北市三重區文化南路1-2號","121.500015","25.0625","6500200","三重區"
"241002","090-VK","2018/01/04 20:39:36","新北市三重區仁義街167巷35號","121.498086666667","25.082105","6500200","三重區"
"241005","262-UM","2018/01/04 20:39:50","新北市三重區碧華街371號","121.492576666667","25.0852483333333","6500200","三重區"
"241016","266-UM","2018/01/04 20:39:41","新北市三重區長壽西街97號","121.494823333333","25.0669083333333","6500200","三重區"
"241022","267-UM","2018/01/04 20:39:46","新北市三重區民生街61巷6弄3號","121.488578333333","25.0619983333333","6500200","三重區"
"241018","268-UM","2018/01/04 20:39:54","新北市三重區重陽路三段115號","121.490843333333","25.0686616666667","6500200","三重區"
"241032","269-UM","2018/01/04 20:39:43","新北市三重區重陽路一段120巷48號","121.485051666667","25.0601166666667","6500200","三重區"
"241013","270-UM","2018/01/04 20:39:46","新北市三重區三和路四段1號","121.491655","25.0742066666667","6500200","三重區"
"241025","271-UM","2018/01/04 20:39:52","新北市三重區忠孝路三段99巷11號","121.480071666667","25.0645316666667","6500200","三重區"
"241007","398-BY","2018/01/04 20:39:38","新北市三重區三和路四段101巷20號","121.48878","25.0770533333333","6500200","三重區"
"241020","413-TH","2018/01/04 20:39:48","新北市三重區忠孝路一段40號","121.491013333333","25.0719116666667","6500200","三重區"
"241035","462-BY","2018/01/04 20:39:55","新北市三重區正義北路378號","121.493503333333","25.0715533333333","6500200","三重區"
"241004","475-VK","2018/01/04 20:39:44","新北市三重區仁愛街488號","121.488811666667","25.0821066666667","6500200","三重區"
"241019","478-VK","2018/01/04 20:39:38","新北市三重區大智街133號","121.491028333333","25.070395","6500200","三重區"
"241030","480-VK","2018/01/04 20:39:37","新北市三重區成功路73巷12號","121.489356666667","25.0519216666667","6500200","三重區"
"241014","543-UM","2018/01/04 20:39:53","新北市三重區萬壽街22號","121.499781666667","25.0695783333333","6500200","三重區"
"241023","545-UM","2018/01/04 20:39:47","新北市三重區自由街35巷2號","121.478963333333","25.0669216666667","6500200","三重區"
"241001","547-UM","2018/01/04 20:39:40","新北市三重區自強路三段110巷21號","121.486108333333","25.0745533333333","6500200","三重區"
"241012","941-UM","2018/01/04 20:39:39","新北市三重區秀江街26號","121.502448333333","25.0730216666667","6500200","三重區"
"241029","942-UM","2018/01/04 20:39:41","新北市三重區集美街126巷25號","121.490016666667","25.0538266666667","6500200","三重區"
"241033","AAC-255","2018/01/04 20:39:39","新北市三重區光復路二段87巷31弄20號","121.474183333333","25.057215","6500200","三重區"
"235069","4980-A6","2018/01/04 20:39:43","新北市中和區新生街118巷14號","121.48301","25.001705","6500300","中和區"
"235026","800-TS","2018/01/04 20:27:09","新北市中和區員山路36巷16-3號","121.484896666667","24.9915783333333","6500300","中和區"
"247022","893-R6","2018/01/04 20:39:40","新北市蘆洲區中正路243巷7弄7號","121.467405","25.0861166666667","6501400","蘆洲區"
"247012","546-UM","2018/01/04 20:39:51","新北市蘆洲區民族路236巷52號","121.481641666667","25.0889066666667","6501400","蘆洲區"
"247020","500-BY","2018/01/04 20:39:47","新北市蘆洲區民族路331-1號","121.473843333333","25.09163","6501400","蘆洲區"
"247008","341-TH","2018/01/04 20:39:33","新北市蘆洲區集賢路281號","121.481231666667","25.0829283333333","6501400","蘆洲區"
"247002","337-TH","2018/01/04 20:39:42","新北市蘆洲區長安街375巷36號","121.455993333333","25.08805","6501400","蘆洲區"
"247004","336-TH","2018/01/04 20:39:52","新北市蘆洲區長安街297號","121.4581","25.0848233333333","6501400","蘆洲區"
"247016","057-VK","2018/01/04 20:39:43","新北市蘆洲區中山二路195巷7號","121.471163333333","25.08051","6501400","蘆洲區"
"247006","056-VK","2018/01/04 20:39:49","新北市蘆洲區和平路128號","121.467251666667","25.0803616666667","6501400","蘆洲區"
"247010","053-VK","2018/01/04 20:39:43","新北市蘆洲區中山一路124號","121.476643333333","25.0816433333333","6501400","蘆洲區"
"247014","007-UY","2018/01/04 20:39:42","新北市蘆洲區中山二路101號","121.472726666667","25.0817616666667","6501400","蘆洲區"
"247024","002-UY","2018/01/04 20:39:39","新北市蘆洲區長興路50巷31號","121.464421666667","25.0843566666667","6501400","蘆洲區"
"251001","011-UM","2018/01/04 20:39:46","新北市淡水區淡金路65號","121.456156666667","25.1614733333333","6501000","淡水區"
"251013","179-VK","2018/01/04 20:39:45","新北市淡水區奎柔山路258號","121.456885","25.2053733333333","6501000","淡水區"
"251014","180-VK","2018/01/04 20:39:38","新北市淡水區桂竹圍5-2號","121.471885","25.233585","6501000","淡水區"
"251015","182-VK","2018/01/04 20:39:42","新北市淡水區興仁路162號","121.451575","25.22066","6501000","淡水區"
"251010","413-VK","2018/01/04 20:39:50","新北市淡水區沙崙路181巷15號","121.423925","25.1844033333333","6501000","淡水區"
"251012","441-VK","2018/01/04 20:39:35","新北市淡水區興仁路108號","121.451651666667","25.2182133333333","6501000","淡水區"
"251016","442-VK","2018/01/04 20:39:37","新北市淡水區後洲子16-1號","121.449331666667","25.2240166666667","6501000","淡水區"
"251006","561-UM","2018/01/04 20:39:49","新北市淡水區商工路198巷4號","121.451071666667","25.1875083333333","6501000","淡水區"
"251011","650-BX","2018/01/04 20:39:32","新北市淡水區新市一路一段361號","121.43624","25.1861866666667","6501000","淡水區"
"251003","766-UM","2018/01/04 20:39:54","新北市淡水區新民街152巷6弄22號","121.438768333333","25.1785616666667","6501000","淡水區"
"252002","178-VK","2018/01/04 20:39:49","新北市三芝區淡金路二段47-2號","121.50357","25.2607116666667","6502100","三芝區"
"252001","292-VK","2018/01/04 20:39:53","新北市三芝區育英街31號","121.501256666667","25.2572466666667","6502100","三芝區"
"242031","AAC-296","2018/01/04 20:39:49","新北市新莊區三和路13-20號","121.440731666667","25.0367033333333","6500500","新莊區"
"242029","986-R7","2018/01/04 20:39:52","新北市新莊區中華路二段166號","121.45364","25.0514983333333","6500500","新莊區"
"242051","751-BX","2018/01/04 20:39:47","新北市新莊區西盛街278號","121.427973333333","25.0153533333333","6500500","新莊區"
"242025","615-BX","2018/01/04 20:39:36","新北市新莊區化成路579巷1號","121.464283333333","25.0659916666667","6500500","新莊區"
"242023","613-BX","2018/01/04 20:39:42","新北市新莊區復興路三段117號","121.464583333333","25.0445966666667","6500500","新莊區"
"242027","612-BX","2018/01/04 20:39:40","新北市新莊區思源路63號","121.45985","25.04044","6500500","新莊區"
"242039","566-BX","2018/01/04 20:39:53","新北市新莊區民安路333-1號","121.430193333333","25.0228466666667","6500500","新莊區"
"242044","442-UM","2018/01/04 20:39:51","新北市新莊區龍安路90號","121.417671666667","25.0208483333333","6500500","新莊區"
"242048","441-UM","2018/01/04 20:39:44","新北市新莊區中正路715-1號","121.424311666667","25.0294833333333","6500500","新莊區"
"242053","440-UM","2018/01/04 20:39:35","新北市新莊區西盛街324巷18號","121.42722","25.0148766666667","6500500","新莊區"
"242034","415-TV","2018/01/04 20:39:47","新北市新莊區中正路380號","121.443165","25.0341866666667","6500500","新莊區"
"242042","400-BY","2018/01/04 20:39:41","新北市新莊區天祥街42號","121.416955","25.0287966666667","6500500","新莊區"
"242061","362-BY","2018/01/04 20:39:51","新北市新莊區新樹路465號","121.43263","25.01308","6500500","新莊區"
"242058","353-BY","2018/01/04 20:39:53","新北市新莊區民安路138號","121.424175","25.0253533333333","6500500","新莊區"
"242007","132-UY","2018/01/04 20:39:41","新北市新莊區福壽街51號","121.458171666667","25.0488983333333","6500500","新莊區"
"242036","133-UY","2018/01/04 20:39:50","新北市新莊區建安街16巷2號","121.428401666667","25.0264783333333","6500500","新莊區"
"242021","135-UY","2018/01/04 20:39:54","新北市新莊區中華路一段73號","121.45222","25.0399966666667","6500500","新莊區"
"242046","172-VK","2018/01/04 20:39:49","新北市新莊區裕民街18巷11號","121.41856","25.02573","6500500","新莊區"
"242009","173-VK","2018/01/04 20:39:40","新北市新莊區福壽街99巷8弄4號","121.456916666667","25.0506266666667","6500500","新莊區"
"242015","175-VK","2018/01/04 20:39:49","新北市新莊區中和街39號","121.448125","25.04429","6500500","新莊區"
"242002","176-VK","2018/01/04 20:39:36","新北市新莊區中港路15號","121.455006666667","25.03723","6500500","新莊區"
"242013","346-TH","2018/01/04 20:39:39","新北市新莊區中和街175巷11號","121.447185","25.0506066666667","6500500","新莊區"
"242019","348-TH","2018/01/04 20:39:35","新北市新莊區中港路216號","121.454515","25.042585","6500500","新莊區"
"242011","351-TH","2018/01/04 20:39:51","新北市新莊區中榮街122巷1號","121.44656","25.0530616666667","6500500","新莊區"
"221008","489-VK","2018/01/04 20:39:53","新北市汐止區康寧街861巷1號","121.64536","25.0760866666667","6501100","汐止區"
"221036","130-UY","2018/01/04 20:39:51","新北市汐止區新昌路16號","121.662115","25.0673416666667","6501100","汐止區"
"221012","276-VK","2018/01/04 13:41:14","新北市汐止區汐萬路一段256巷3號","121.65344","25.0746466666667","6501100","汐止區"
"221023","279-VK","2018/01/04 20:39:49","新北市汐止區民族二街30巷20號","121.633945","25.0717566666667","6501100","汐止區"
"221032","280-BY","2018/01/04 20:39:51","新北市汐止區橫科路52巷14弄2號","121.618743333333","25.0501166666667","6501100","汐止區"
"221027","281-BY","2018/01/04 20:39:44","新北市汐止區大同路二段497號","121.66105","25.0684983333333","6501100","汐止區"
"221029","298-VK","2018/01/04 20:37:58","新北市汐止區新台五路一段79-13號","121.645195","25.06187","6501100","汐止區"
"221021","299-VK","2018/01/04 20:39:44","新北市汐止區水源路一段284號","121.654196666667","25.0582416666667","6501100","汐止區"
"221031","353-TW","2018/01/04 20:39:34","新北市汐止區中興路27巷21號","121.634083333333","25.060835","6501100","汐止區"
"221015","567-BX","2018/01/04 20:39:45","新北市汐止區建成路25號","121.664225","25.072655","6501100","汐止區"
"221035","622-UM","2018/01/04 20:39:51","新北市汐止區長江街101-5號","121.658685","25.0732333333333","6501100","汐止區"
"221025","623-UM","2018/01/04 20:39:35","新北市汐止區水源路二段283巷2號","121.65922","25.0497083333333","6501100","汐止區"
"221038","646-BX","2018/01/04 20:39:38","新北市汐止區汐萬路一段244-1號","121.651506666667","25.07316","6501100","汐止區"
"221033","647-BX","2018/01/04 20:39:44","新北市汐止區合順街18巷8弄5號","121.620346666667","25.0419116666667","6501100","汐止區"
"221002","707-TV","2018/01/04 20:39:43","新北市汐止區中興路168-1號","121.631933333333","25.0655483333333","6501100","汐止區"
"221018","753-BX","2018/01/04 20:39:37","新北市汐止區茄苳路59號","121.666555","25.0707616666667","6501100","汐止區"
"220083","286-VK","2018/01/04 20:39:51","新北市板橋區僑中二街116巷12號","121.445165","25.006505","6500100","板橋區"
"242004","281-VK","2018/01/04 20:39:42","新北市新莊區中原東路58號","121.463726666667","25.0546","6500500","新莊區"
"220062","305-R5","2018/01/04 20:38:33","新北市八里區荖阡坑路34號","121.401726666667","25.1294483333333","6500100","板橋區"
"220089","487-VK","2018/01/04 20:39:50","新北市板橋區長江路一段188號","121.462173333333","25.030325","6500100","板橋區"
"242056","280-VK","2018/01/04 20:39:48","新北市新莊區瓊泰路80巷45號","121.444938333333","25.0291883333333","6500500","新莊區"
"220103","561-BX","2018/01/04 20:39:41","新北市板橋區漢生東路73巷26號","121.467266666667","25.0169366666667","6500100","板橋區"
"220070","AAC-253","2018/01/04 20:39:46","新北市五股區中直路3-19號","121.427775","25.1092133333333","6500100","板橋區"
