"lineid","car","time","location","longitude","latitude","cityid","cityname"
"248005","653-BX","2018/01/05 07:19:36","新北市五股區明德路12巷6號","121.433351666667","25.0718133333333","6501500","五股區"
"232003","290-BY","2018/01/05 07:14:48","新北市坪林區大粗坑29-2號","121.708468333333","24.9666416666667","6502000","坪林區"
"232015","291-BY","2018/01/05 07:19:50","新北市坪林區嶺腳坑7號","121.69236","24.9445733333333","6502000","坪林區"
"232019","705-BZ","2018/01/05 07:19:20","新北市坪林區九芎坑3號","121.7247","24.9655216666667","6502000","坪林區"
"232008","758-BX","2018/01/05 07:19:31","新北市坪林區石3-4號","121.709736666667","24.9085066666667","6502000","坪林區"
"244004","248-BX","2018/01/05 07:19:42","新北市林口區文化北路一段425號","121.366836666667","25.0787983333333","6501700","林口區"
"222005","289-BY","2018/01/05 07:19:32","新北市深坑區平埔街22巷19號","121.614573333333","25.001055","6501800","深坑區"
"226005","5620-A6","2018/01/05 07:19:39","新北市平溪區靜安路二段232號","121.723933333333","25.0220133333333","6502400","平溪區"
"226001","7418-A5","2018/01/05 07:19:37","新北市平溪區望古里灰4-2號","121.763116666667","25.0295766666667","6502400","平溪區"
"226003","AGD-0702","2018/01/05 07:19:47","新北市平溪區靜安路二段292號","121.730983333333","25.0224783333333","6502400","平溪區"
"223006","022-BY","2018/01/05 07:19:45","新北市石碇區碇坪路二段56號","121.683151666667","24.9701066666667","6501900","石碇區"
"223002","198-BX","2018/01/05 07:19:29","新北市石碇區北宜路六段獅子頭坑巷18號","121.640543333333","24.9311233333333","6501900","石碇區"
"223008","406-TH","2018/01/05 07:19:20","新北市石碇區靜安路一段337號","121.698768333333","25.0146133333333","6501900","石碇區"
"223001","437-BY","2018/01/05 07:19:49","新北市石碇區烏塗窟20-1號","121.656696666667","24.9751016666667","6501900","石碇區"
"223004","592-UM","2018/01/05 07:19:49","新北市石碇區新興坑1號","121.654406666667","25.015765","6501900","石碇區"
"223007","661-BX","2018/01/05 07:19:30","新北市石碇區蚯蚓坑19-7號","121.692205","25.0034583333333","6501900","石碇區"
"223005","677-TV","2018/01/05 07:19:50","新北市石碇區新興坑1-1號","121.653436666667","25.01375","6501900","石碇區"
"227005","282-VK","2018/01/05 07:19:42","新北市雙溪區新基里自強路5號","121.866341666667","25.039045","6502500","雙溪區"
"237001","159-UY","2018/01/05 07:19:36","新北市三峽區中山路459巷163-1號","121.3493","24.933405","6500900","三峽區"
"236010","165-UM","2018/01/05 07:19:39","新北市土城區中華路一段48巷14號","121.445558333333","24.9899533333333","6501300","土城區"
"236004","339-SR","2018/01/05 07:19:44","新北市土城區南天母路111巷20號","121.448456666667","24.9556533333333","6501300","土城區"
"220080","461-BY","2018/01/05 07:03:26","新北市板橋區國光路49巷2號","121.458","25.0181166666667","6500100","板橋區"
