"lineid","car","time","location","longitude","latitude","cityid","cityname"
"232001","290-BY","2018/08/16 07:49:56","新北市坪林區上坑子口21號","121.703726666667","24.9504016666667","6502000","坪林區"
"232014","291-BY","2018/08/16 07:49:46","新北市坪林區九芎根4號","121.666456666667","24.8853566666667","6502000","坪林區"
"232010","375-UM","2018/08/16 07:49:53","新北市坪林區厚德岡坑8-5號","121.733155","24.9409366666667","6502000","坪林區"
"232007","758-BX","2018/08/16 07:49:55","新北市坪林區九芎林19-5號","121.708298333333","24.928195","6502000","坪林區"
"244012","KEA-2802","2018/08/16 07:49:37","新北市林口區粉寮69號","121.404683333333","25.0908483333333","6501700","林口區"
"244022","483-VK","2018/08/16 07:49:51","新北市林口區粉寮69號","121.405103333333","25.0907766666667","6501700","林口區"
"244024","701-TV","2018/08/16 07:49:44","新北市林口區粉寮69號","121.40508","25.09081","6501700","林口區"
"231069","189-VK","2018/08/16 07:49:43","新北市新店區安一路一段1-1號","121.519491666667","24.9612716666667","6500600","新店區"
"231008","192-VK","2018/08/16 07:49:37","新北市新店區安一路一段1-1號","121.519083333333","24.9612916666667","6500600","新店區"
"226005","5620-A6","2018/08/16 07:49:59","新北市平溪區嶺腳里中華街17號","121.739686666667","25.0252383333333","6502400","平溪區"
"226007","7418-A5","2018/08/16 07:49:49","新北市平溪區平湖里坑頭3號","121.783166666667","25.0260166666667","6502400","平溪區"
"226003","AGD-0702","2018/08/16 07:35:04","新北市平溪區嶺腳里嶺腳寮83-2號","121.750123333333","25.0350816666667","6502400","平溪區"
"223006","022-BY","2018/08/16 07:49:47","新北市石碇區靜安路一段296號","121.691863333333","25.00592","6501900","石碇區"
"223002","KEA-2673","2018/08/16 07:49:44","新北市石碇區北宜路五段潭腰巷15-8號","121.635771666667","24.93278","6501900","石碇區"
"223003","205-TH","2018/08/16 07:48:43","新北市石碇區蛇舌子6-3號","121.664856666667","24.9683116666667","6501900","石碇區"
"223001","592-UM","2018/08/16 07:49:39","新北市石碇區蛇舌子7號","121.665363333333","24.9664366666667","6501900","石碇區"
"223004","660-BX","2018/08/16 07:49:43","新北市石碇區楓子林30號","121.64231","25.0095683333333","6501900","石碇區"
"223007","661-BX","2018/08/16 07:36:49","新北市石碇區靜安路一段337號","121.698926666667","25.0145066666667","6501900","石碇區"
"223005","677-TV","2018/08/16 07:49:48","新北市石碇區靜安路一段1號","121.64152","25.0113616666667","6501900","石碇區"
"227007","282-VK","2018/08/16 07:49:46","新北市雙溪區雙溪里太平路54號","121.864835","25.0354766666667","6502500","雙溪區"
"252004","249-BX","2018/08/16 07:49:42","新北市三芝區店子里菜公坑78號","121.509003333333","25.2039416666667","6502100","三芝區"
"252007","AAC-283","2018/08/16 07:49:37","新北市三芝區後厝里北勢子45-33號","121.47038","25.2513716666667","6502100","三芝區"
"237001","159-UY","2018/08/16 07:49:45","新北市三峽區大學路45-1號","121.376891666667","24.9405983333333","6500900","三峽區"
"236009","165-UM","2018/08/16 07:49:36","新北市土城區清水路255號","121.46276","24.984185","6501300","土城區"
"236003","339-SR","2018/08/16 07:49:47","新北市土城區龍泉路153號","121.453388333333","24.9474183333333","6501300","土城區"
"242033","AAC-296","2018/08/16 07:49:54","新北市新莊區新樹路53巷2弄13號","121.440983333333","25.0310633333333","6500500","新莊區"
"242057","986-R7","2018/08/16 07:49:36","新北市新莊區中正路400號","121.441656666667","25.0339166666667","6500500","新莊區"
"242026","615-BX","2018/08/16 07:49:44","新北市新莊區中港路264號","121.45355","25.0438116666667","6500500","新莊區"
"242024","613-BX","2018/08/16 07:49:53","新北市新莊區中港一街141號","121.448026666667","25.0450783333333","6500500","新莊區"
"242040","566-BX","2018/08/16 07:49:43","新北市新莊區新樹路11號","121.4408","25.03305","6500500","新莊區"
"242045","497-BY","2018/08/16 07:49:52","新北市新莊區新樹路65-5號","121.439416666667","25.0308483333333","6500500","新莊區"
"242052","442-UM","2018/08/16 07:49:55","新北市新莊區瓊林路59-66號","121.441416666667","25.0227733333333","6500500","新莊區"
"242049","441-UM","2018/08/16 07:49:39","新北市新莊區瓊林路204號","121.438475","25.0208683333333","6500500","新莊區"
"242055","440-UM","2018/08/16 07:49:37","新北市新莊區新莊路664-2號","121.442165","25.032955","6500500","新莊區"
"242035","415-TV","2018/08/16 07:49:43","新北市新莊區新樹路133號","121.436811666667","25.0256966666667","6500500","新莊區"
"242006","413-TV","2018/08/16 07:49:54","新北市新莊區中誠街175號","121.447871666667","25.0473016666667","6500500","新莊區"
"242043","400-BY","2018/08/16 07:49:38","新北市新莊區中正路685號","121.426001666667","25.02999","6500500","新莊區"
"242022","362-BY","2018/08/16 07:49:55","新北市新莊區中港路330號","121.4523","25.0456733333333","6500500","新莊區"
"242059","353-BY","2018/08/16 07:49:40","新北市新莊區新樹路647-1號","121.435515","25.0028416666667","6500500","新莊區"
"242008","132-UY","2018/08/16 07:49:46","新北市新莊區中誠街173號","121.447996666667","25.0472866666667","6500500","新莊區"
"242038","133-UY","2018/08/16 07:49:55","新北市泰山區磚雅厝3號","121.442021666667","25.0418366666667","6500500","新莊區"
"242030","135-UY","2018/08/16 07:49:43","新北市新莊區三和路12-11號","121.442096666667","25.0369183333333","6500500","新莊區"
"242047","172-VK","2018/08/16 07:49:45","新北市新莊區龍安路252-2號","121.421201666667","25.019535","6500500","新莊區"
"242016","175-VK","2018/08/16 07:49:51","新北市新莊區中港一街18號","121.451485","25.0456483333333","6500500","新莊區"
"242003","176-VK","2018/08/16 07:49:40","新北市新莊區復興路一段91號","121.448725","25.0427216666667","6500500","新莊區"
"242014","346-TH","2018/08/16 07:49:54","新北市新莊區公園一路112號","121.444791666667","25.0376883333333","6500500","新莊區"
"242020","347-TH","2018/08/16 07:49:55","新北市新莊區中環路一段285號","121.442256666667","25.0317283333333","6500500","新莊區"
"242001","349-TH","2018/08/16 07:49:41","新北市新莊區新泰路2-3號","121.449728333333","25.0326616666667","6500500","新莊區"
"242018","350-TH","2018/08/16 07:49:43","新北市新莊區中港路108號","121.455458333333","25.039835","6500500","新莊區"
"242012","280-VK","2018/08/16 07:49:40","新北市新莊區新泰路502巷2號","121.442661666667","25.04632","6500500","新莊區"
