"lineid","car","time","location","longitude","latitude","cityid","cityname"
"244018","403-UM","2018/09/27 10:38:41","新北市林口區粉寮路二段88巷100-12號","121.40964","25.09023","6501700","林口區"
"222006","289-BY","2018/09/27 10:38:47","新北市深坑區大崙腳8-1號","121.61722","24.9938683333333","6501800","深坑區"
"231069","189-VK","2018/09/27 10:38:42","新北市新店區新潭路三段86號","121.503778333333","24.9098383333333","6500600","新店區"
"231008","192-VK","2018/09/27 10:38:50","新北市新店區松林路16巷41號","121.546686666667","24.90802","6500600","新店區"
"223004","660-BX","2018/09/27 10:38:43","新北市石碇區華梵路2號","121.691588333333","24.9771033333333","6501900","石碇區"
"223005","677-TV","2018/09/27 10:38:44","新北市石碇區華梵路2號","121.690818333333","24.9764083333333","6501900","石碇區"
