"lineid","car","time","location","longitude","latitude","cityid","cityname"
"244019","403-UM","2018/09/27 11:54:28","新北市林口區粉寮路二段88巷100-12號","121.409598333333","25.090175","6501700","林口區"
"235029","098-UM","2018/09/27 12:08:59","新北市中和區員山路36巷16-3號","121.485041666667","24.9912366666667","6500300","中和區"
"235031","255-BX","2018/09/27 12:02:01","新北市中和區和城路一段271巷1號","121.485611666667","24.9918283333333","6500300","中和區"
"228005","097-TW","2018/09/27 12:08:47","新北市貢寮區雙玉里田寮洋街25-4號","121.931558333333","25.0198316666667","6502600","貢寮區"
"228004","212-TW","2018/09/27 12:08:19","新北市貢寮區貢寮里貢寮街3號","121.907651666667","25.0189416666667","6502600","貢寮區"
