"lineid","car","time","location","longitude","latitude","cityid","cityname"
"234044","148-BY","2018/09/27 12:58:51","新北市永和區得和路373巷16弄11號","121.525615","25.000085","6500400","永和區"
"234005","207-UY","2018/09/27 12:58:45","新北市永和區永和路二段116號","121.515211666667","25.0121483333333","6500400","永和區"
"234078","298-R6","2018/09/27 12:58:54","新北市永和區福和路57巷14弄1號","121.522718333333","25.006875","6500400","永和區"
"234036","336-UY","2018/09/27 12:58:43","新北市永和區成功路二段207號","121.526588333333","24.9958766666667","6500400","永和區"
"234062","337-UY","2018/09/27 12:58:46","新北市永和區秀朗路一段138號","121.517921666667","25.0033183333333","6500400","永和區"
"234084","338-UY","2018/09/27 12:58:59","新北市永和區中正路393號","121.517336666667","25.0039933333333","6500400","永和區"
"234068","552-UM","2018/09/27 12:58:53","新北市永和區中興街84巷9號","121.51868","25.0115816666667","6500400","永和區"
"234015","745-BX","2018/09/27 12:59:00","新北市永和區永和路二段298號","121.516116666667","25.0158133333333","6500400","永和區"
"234028","746-BX","2018/09/27 12:58:56","新北市永和區得和路422號","121.526261666667","24.9989833333333","6500400","永和區"
"234052","KEA-2590","2018/09/27 12:59:00","新北市永和區竹林路64號","121.51835","25.01346","6500400","永和區"
"234012","KEA-2591","2018/09/27 12:58:49","新北市永和區信義路19號","121.514146666667","25.0119016666667","6500400","永和區"
"234060","AAD-866","2018/09/27 12:58:56","新北市永和區福和路305號","121.516311666667","25.00713","6500400","永和區"
"234040","862-TW","2018/09/27 12:58:47","新北市永和區永貞路267號","121.511776666667","25.0047733333333","6500400","永和區"
"234048","863-TW","2018/09/27 12:58:58","新北市永和區保安路2號","121.510695","25.0175816666667","6500400","永和區"
"234025","9371-KE","2018/09/27 12:58:42","新北市永和區永和路一段23號","121.513028333333","25.0058333333333","6500400","永和區"
"234010","9373-KE","2018/09/27 12:58:46","新北市永和區文化路113巷25號","121.513211666667","25.01396","6500400","永和區"
"248015","026-BX","2018/09/27 12:58:53","新北市五股區新五路二段367號","121.444351666667","25.08805","6501500","五股區"
"248005","077-UY","2018/09/27 12:58:48","新北市五股區中興路二段83巷26-6號","121.4598","25.075345","6501500","五股區"
"248007","095-VK","2018/09/27 12:58:59","新北市五股區中興路二段150號","121.458626666667","25.078565","6501500","五股區"
"248017","225-UY","2018/09/27 12:59:01","新北市五股區中興路二段83巷26-6號","121.460046666667","25.07532","6501500","五股區"
"248013","261-SL","2018/09/27 12:59:03","新北市五股區中興路二段161號","121.457683333333","25.0774233333333","6501500","五股區"
"248003","677-BX","2018/09/27 12:59:00","新北市五股區中興路二段37巷26號","121.460418333333","25.07493","6501500","五股區"
"248001","678-BX","2018/09/27 12:58:55","新北市五股區中興路二段37巷28號","121.460203333333","25.07486","6501500","五股區"
"234022","9380-KE","2018/09/27 12:58:52","新北市永和區竹林路75巷33弄1號","121.520623333333","25.0142733333333","6500400","永和區"
"234076","969-R7","2018/09/27 12:58:43","新北市永和區民享街1巷2號","121.51485","24.9958116666667","6500400","永和區"
"234066","AAC-212","2018/09/27 12:58:44","新北市永和區永和路一段1號","121.513013333333","25.0051766666667","6500400","永和區"
"234001","AAC-295","2018/09/27 12:58:50","新北市永和區永平路20號","121.513428333333","25.0087516666667","6500400","永和區"
"244003","248-BX","2018/09/27 12:58:42","新北市林口區竹林路320巷2號","121.390625","25.082285","6501700","林口區"
"231028","046-UY","2018/09/27 12:58:57","新北市新店區安華路28-1號","121.519495","24.96093","6500600","新店區"
"231001","047-UY","2018/09/27 12:58:43","新北市新店區安華路28-1號","121.519323333333","24.960835","6500600","新店區"
"231005","106-UY","2018/09/27 12:59:01","新北市新店區安華路28-1號","121.51954","24.9608866666667","6500600","新店區"
"231010","107-UY","2018/09/27 12:58:54","新北市新店區安一路一段1-1號","121.519456666667","24.961155","6500600","新店區"
"231011","187-VK","2018/09/27 12:58:59","新北市新店區安一路一段1-1號","121.519506666667","24.96111","6500600","新店區"
"231023","KEA-2219","2018/09/27 12:58:44","新北市新店區安一路一段1-1號","121.519665","24.961325","6500600","新店區"
"231003","268-BY","2018/09/27 12:58:56","新北市新店區安華路28-1號","121.519826666667","24.9608133333333","6500600","新店區"
"231017","AAD-862","2018/09/27 12:58:49","新北市新店區安一路一段1-1號","121.519718333333","24.9611283333333","6500600","新店區"
"231037","4716-K9","2018/09/27 12:58:53","新北市新店區安一路一段1-1號","121.519375","24.9611133333333","6500600","新店區"
"231036","512-UM","2018/09/27 12:58:46","新北市新店區安一路一段1-1號","121.519365","24.96112","6500600","新店區"
"231013","513-UM","2018/09/27 12:58:57","新北市新店區安一路一段1-1號","121.519566666667","24.961135","6500600","新店區"
"231035","719-UM","2018/09/27 12:58:53","新北市新店區安一路一段1-1號","121.519521666667","24.9611566666667","6500600","新店區"
"231031","720-UM","2018/09/27 12:59:03","新北市新店區安一路一段1-1號","121.51941","24.9612666666667","6500600","新店區"
"231029","897-TW","2018/09/27 12:58:45","新北市新店區安華路28-1號","121.519461666667","24.960805","6500600","新店區"
"235028","005-UY","2018/09/27 12:58:47","新北市中和區員山路36巷16-3號","121.484951666667","24.991295","6500300","中和區"
"235027","006-UY","2018/09/27 12:58:57","新北市中和區員山路36巷16-3號","121.48505","24.991175","6500300","中和區"
"235029","098-UM","2018/09/27 12:58:59","新北市中和區橋和路270號","121.495743333333","25.0065066666667","6500300","中和區"
"235004","150-BY","2018/09/27 12:58:54","新北市中和區和城路一段271巷1號","121.485356666667","24.991785","6500300","中和區"
"235022","151-BY","2018/09/27 12:58:55","新北市中和區錦和路350-1號","121.490526666667","24.99353","6500300","中和區"
"235002","185-VK","2018/09/27 12:58:53","新北市中和區成功路40號","121.52612","24.9929816666667","6500300","中和區"
"235031","255-BX","2018/09/27 12:58:48","新北市中和區中山路二段550號","121.483828333333","25.0052466666667","6500300","中和區"
"235018","640-BX","2018/09/27 12:58:55","新北市中和區員山路36巷16-3號","121.484918333333","24.9918783333333","6500300","中和區"
"235011","732-UM","2018/09/27 12:58:47","新北市中和區錦和路350-1號","121.490571666667","24.9936033333333","6500300","中和區"
"235035","783-BX","2018/09/27 12:58:57","新北市中和區連城路469-1號","121.483576666667","24.995685","6500300","中和區"
"235005","802-TS","2018/09/27 12:58:58","新北市中和區和城路一段271巷1號","121.48559","24.991665","6500300","中和區"
"235024","911-UM","2018/09/27 12:58:44","新北市中和區員山路36巷16-2號","121.48519","24.9914416666667","6500300","中和區"
"235015","157-BY","2018/09/27 12:58:50","新北市中和區員山路36巷13號","121.484143333333","24.9911116666667","6500300","中和區"
"235001","AAC-213","2018/09/27 12:58:48","新北市中和區中正路589巷15號","121.485736666667","24.9936533333333","6500300","中和區"
"235007","251-BX","2018/09/27 12:58:44","新北市中和區員山路36巷16-3號","121.485153333333","24.9913933333333","6500300","中和區"
"228005","097-TW","2018/09/27 12:58:47","新北市貢寮區福連里香蘭街2-1號","121.969335","25.023655","6502600","貢寮區"
"228004","212-TW","2018/09/27 12:58:58","新北市貢寮區吉林里內寮街10-1號","121.887281666667","24.988845","6502600","貢寮區"
"207002","749-BX","2018/09/27 12:58:41","新北市萬里區雙興里大坪路23號","121.633415","25.1686016666667","6502800","萬里區"
"207001","662-BX","2018/09/27 12:58:44","新北市萬里區萬里里獅頭路22-1號","121.693031666667","25.178235","6502800","萬里區"
"252005","AAC-283","2018/09/27 12:58:45","新北市三芝區忠孝街68號","121.50585","25.25692","6502100","三芝區"
"242049","172-VK","2018/09/27 12:59:04","新北市新莊區中平路26巷30號","121.446108333333","25.0431066666667","6500500","新莊區"
"242001","233-RS","2018/09/27 12:58:55","新北市新莊區環河路636-7號","121.437408333333","25.0116016666667","6500500","新莊區"
"221036","130-UY","2018/09/27 12:58:49","新北市汐止區忠孝東路397號","121.66569","25.0708233333333","6501100","汐止區"
"221032","280-BY","2018/09/27 12:58:43","新北市汐止區建成路57巷20號","121.66253","25.0727","6501100","汐止區"
"235032","KEA-2873","2018/09/27 12:58:40","新北市中和區員山路36巷16-2號","121.485251666667","24.9913766666667","6500300","中和區"
"235025","KEA-2875","2018/09/27 12:58:53","新北市中和區員山路36巷16-2號","121.485285","24.9917866666667","6500300","中和區"
