"lineid","car","time","location","longitude","latitude","cityid","cityname"
"234015","745-BX","2018/09/27 14:46:40","新北市五股區中直路17-4號","121.422736666667","25.11136","6500400","永和區"
"234025","9371-KE","2018/09/27 14:49:02","新北市永和區雙和街7巷7-1號","121.509505","25.0014366666667","6500400","永和區"
"248015","026-BX","2018/09/27 14:48:52","新北市五股區成泰路三段577巷80弄7號","121.449521666667","25.104295","6501500","五股區"
"248007","095-VK","2018/09/27 14:48:59","新北市五股區四維路116-2號","121.467913333333","25.0745866666667","6501500","五股區"
"248017","225-UY","2018/09/27 14:34:23","新北市五股區外寮路13-1號","121.4248","25.0812316666667","6501500","五股區"
"248011","247-BX","2018/09/27 14:49:06","新北市五股區六合街118號","121.430273333333","25.0908116666667","6501500","五股區"
"248013","261-SL","2018/09/27 14:49:02","新北市五股區五福路32巷26號","121.43505","25.0896433333333","6501500","五股區"
"248009","272-BY","2018/09/27 14:48:50","新北市五股區成泰路一段15號","121.433755","25.066765","6501500","五股區"
"248003","677-BX","2018/09/27 14:49:00","新北市五股區成泰路一段153號","121.435341666667","25.0739016666667","6501500","五股區"
"248001","678-BX","2018/09/27 14:48:55","新北市五股區成泰路三段165號","121.445185","25.0918416666667","6501500","五股區"
"244003","248-BX","2018/09/27 14:49:02","新北市林口區林口路76號","121.38964","25.080685","6501700","林口區"
"243005","AAD-798","2018/09/27 14:48:43","新北市泰山區明志路三段74巷3號","121.424645","25.0416833333333","6501600","泰山區"
"243001","297-R6","2018/09/27 14:48:57","新北市泰山區泰林路二段146號","121.434295","25.0598583333333","6501600","泰山區"
"243008","KEA-2801","2018/09/27 14:48:50","新北市泰山區貴陽街22號","121.422735","25.032575","6501600","泰山區"
"243007","421-VK","2018/09/27 14:49:00","新北市泰山區明志路一段495號","121.43069","25.0549183333333","6501600","泰山區"
"243003","KEA-2215","2018/09/27 14:48:52","新北市泰山區明志路三段196巷41號","121.421406666667","25.0400066666667","6501600","泰山區"
"243002","KEA-2216","2018/09/27 14:48:45","新北市泰山區明志路二段214巷16弄11號","121.426723333333","25.049595","6501600","泰山區"
"243004","646-TV","2018/09/27 14:48:53","新北市泰山區楓江路57號","121.43589","25.0627166666667","6501600","泰山區"
"243006","680-BX","2018/09/27 14:48:50","新北市泰山區明志路一段19巷2號","121.43393","25.06563","6501600","泰山區"
"231002","002-UM","2018/09/27 14:48:55","新北市新店區民權路178號","121.534793333333","24.98277","6500600","新店區"
"231027","0291-UT","2018/09/27 14:48:45","新北市新店區中央一街2號","121.528936666667","24.97239","6500600","新店區"
"231028","046-UY","2018/09/27 14:48:57","新北市新店區安德街62號","121.510706666667","24.962035","6500600","新店區"
"231001","047-UY","2018/09/27 14:49:03","新北市新店區三民路127號","121.534626666667","24.9723983333333","6500600","新店區"
"231005","106-UY","2018/09/27 14:49:01","新北市新店區中正路602號","121.534113333333","24.9880866666667","6500600","新店區"
"231021","110-UY","2018/09/27 14:48:48","新北市新店區桂山路37號","121.560368333333","24.9047366666667","6500600","新店區"
"231011","187-VK","2018/09/27 14:48:59","新北市新店區寶橋路160號","121.549055","24.9771016666667","6500600","新店區"
"231023","KEA-2219","2018/09/27 14:48:44","新北市新店區檳榔路109號","121.544386666667","24.9615233333333","6500600","新店區"
"231003","268-BY","2018/09/27 14:48:56","新北市新店區中興路二段217號","121.548115","24.974235","6500600","新店區"
"231018","278-BY","2018/09/27 14:49:01","新北市新店區中央路97號","121.531091666667","24.9751833333333","6500600","新店區"
"231017","AAD-862","2018/09/27 14:48:49","新北市新店區北宜路三段89號","121.577568333333","24.9515866666667","6500600","新店區"
"231038","3712-VJ","2018/09/27 14:49:01","新北市新店區安康路一段164-1號","121.525986666667","24.963045","6500600","新店區"
"231037","4716-K9","2018/09/27 14:48:53","新北市新店區柴埕路60巷15-3號","121.508031666667","24.9655916666667","6500600","新店區"
"231025","4715-K9","2018/09/27 14:48:51","新北市新店區民族路162號","121.537556666667","24.9767933333333","6500600","新店區"
"231036","512-UM","2018/09/27 14:48:46","新北市新店區安祥路106巷345號","121.472901666667","24.95954","6500600","新店區"
"231013","513-UM","2018/09/27 14:48:57","新北市新店區北新路二段97巷9弄17號","121.542211666667","24.973795","6500600","新店區"
"231034","616-UM","2018/09/27 14:48:50","新北市新店區安康路二段412號","121.496606666667","24.9552916666667","6500600","新店區"
"231030","619-UM","2018/09/27 14:48:46","新北市新店區安民街315號","121.517565","24.974125","6500600","新店區"
"231035","719-UM","2018/09/27 14:45:33","新北市新店區安和路二段166號","121.519738333333","24.97373","6500600","新店區"
"231031","720-UM","2018/09/27 14:48:42","新北市新店區薏仁坑路11號","121.49835","24.959015","6500600","新店區"
"231029","897-TW","2018/09/27 14:48:45","新北市新店區錦秀路11巷94弄2號","121.480208333333","24.94243","6500600","新店區"
"231006","898-TW","2018/09/27 14:49:04","新北市新店區北宜路一段154號","121.540308333333","24.9537016666667","6500600","新店區"
"231004","899-TW","2018/09/27 14:49:01","新北市新店區民族路105號","121.538375","24.9774033333333","6500600","新店區"
"231024","AKT-0513","2018/09/27 14:49:00","新北市新店區中華路83巷67號","121.53832","24.9673016666667","6500600","新店區"
"235030","003-UY","2018/09/27 14:48:56","新北市中和區中和路170號","121.50447","24.999625","6500300","中和區"
"235027","006-UY","2018/09/27 14:48:56","新北市中和區連城路263巷11弄1號","121.492441666667","24.9952883333333","6500300","中和區"
"235020","096-UM","2018/09/27 14:48:56","新北市中和區中山路三段116號","121.476058333333","25.00631","6500300","中和區"
"235003","097-UM","2018/09/27 14:48:50","新北市永和區安樂路68號","121.514776666667","24.998285","6500300","中和區"
"235029","098-UM","2018/09/27 14:48:58","新北市中和區福祥路96號","121.499198333333","25.0059416666667","6500300","中和區"
"235004","150-BY","2018/09/27 14:48:54","新北市中和區安和路39號","121.50966","24.9949183333333","6500300","中和區"
"235022","151-BY","2018/09/27 14:48:55","新北市中和區員山路146巷24號","121.482408333333","24.9968016666667","6500300","中和區"
"235019","183-VK","2018/09/27 14:48:57","新北市中和區民生街85巷1弄2號","121.469005","25.0045933333333","6500300","中和區"
"235002","185-VK","2018/09/27 14:48:53","新北市中和區自立路11號","121.52255","24.9964","6500300","中和區"
"235013","186-VK","2018/09/27 14:48:54","新北市中和區中正路60號","121.501526666667","24.993675","6500300","中和區"
"235031","255-BX","2018/09/27 14:48:48","新北市中和區員山路148巷23弄28號","121.482286666667","24.9977233333333","6500300","中和區"
"235008","293-VK","2018/09/27 14:48:50","新北市中和區南山路176-6號","121.50528","24.9909983333333","6500300","中和區"
"235036","301-VK","2018/09/27 14:48:50","新北市中和區廣福路42號","121.504281666667","25.0021833333333","6500300","中和區"
"247011","KEA-2869","2018/09/27 14:48:51","新北市蘆洲區集賢路224巷28號","121.481458333333","25.08742","6501400","蘆洲區"
"235014","4979-A6","2018/09/27 14:48:57","新北市中和區景平路241巷84弄54號","121.506083333333","24.9924316666667","6500300","中和區"
"235033","4980-A6","2018/09/27 14:48:50","新北市中和區中正路589巷7號","121.485843333333","24.9941383333333","6500300","中和區"
"235034","558-UM","2018/09/27 14:49:04","新北市中和區連勝街45號","121.498173333333","24.9975183333333","6500300","中和區"
"235018","640-BX","2018/09/27 14:48:55","新北市中和區民享街86巷38號","121.472851666667","25.00058","6500300","中和區"
"235011","732-UM","2018/09/27 14:48:47","新北市中和區和平街84號","121.507593333333","24.9911733333333","6500300","中和區"
"235010","733-UM","2018/09/27 14:48:55","新北市中和區仁愛街26號","121.510865","24.9887116666667","6500300","中和區"
"235035","783-BX","2018/09/27 14:48:57","新北市中和區建一路99號","121.488093333333","25.0017783333333","6500300","中和區"
"235026","800-TS","2018/09/27 14:48:56","新北市中和區建二路56號","121.48602","25.0036916666667","6500300","中和區"
"235021","801-TS","2018/09/27 14:48:45","新北市中和區連城路376-1號","121.481091666667","24.9953283333333","6500300","中和區"
"235016","805-TS","2018/09/27 14:48:55","新北市中和區華新街144巷16號","121.507586666667","24.9830916666667","6500300","中和區"
"235012","896-TW","2018/09/27 14:48:57","新北市中和區忠孝街142號","121.51238","24.9871516666667","6500300","中和區"
"235017","900-TW","2018/09/27 14:48:46","新北市中和區國光街215巷10弄2號","121.466753333333","25.00082","6500300","中和區"
"235024","911-UM","2018/09/27 14:48:48","新北市中和區中山路二段523巷10弄4號","121.481415","25.0046833333333","6500300","中和區"
"235015","157-BY","2018/09/27 14:48:50","新北市中和區景安路247巷18號","121.504353333333","24.9905283333333","6500300","中和區"
"235001","AAC-213","2018/09/27 14:48:52","新北市中和區自立路191號","121.524131666667","24.9913916666667","6500300","中和區"
"235023","AAC-215","2018/09/27 14:49:02","新北市中和區圓通路305巷5弄42號","121.494738333333","24.9902466666667","6500300","中和區"
"220016","013-TV","2018/09/27 14:48:57","新北市板橋區中山路二段412巷29弄26號","121.484633333333","25.0202116666667","6500100","板橋區"
"220013","072-UY","2018/09/27 14:48:50","新北市中和區民生街28巷13號","121.469585","25.0058966666667","6500100","板橋區"
"220034","073-UY","2018/09/27 14:48:47","新北市板橋區南雅西路二段7巷25號","121.451923333333","25.0094966666667","6500100","板橋區"
"220105","075-UY","2018/09/27 14:48:55","新北市板橋區文化路二段652號","121.478491666667","25.035645","6500100","板橋區"
"220017","AAD-861","2018/09/27 14:48:52","新北市板橋區南雅南路二段11-23號","121.453953333333","25.0019833333333","6500100","板橋區"
"247001","893-R6","2018/09/27 14:49:03","新北市蘆洲區長安街246巷23號","121.458241666667","25.08628","6501400","蘆洲區"
"247023","500-BY","2018/09/27 14:48:46","新北市蘆洲區和平路79號","121.468888333333","25.0792283333333","6501400","蘆洲區"
"247013","339-TH","2018/09/27 14:49:02","新北市蘆洲區成功路118號","121.472255","25.0825566666667","6501400","蘆洲區"
"247007","336-TH","2018/09/27 14:48:49","新北市蘆洲區中山一路97巷32弄7號","121.475811666667","25.081025","6501400","蘆洲區"
"247019","057-VK","2018/09/27 14:49:00","新北市蘆洲區民義街68巷6號","121.473146666667","25.0898033333333","6501400","蘆洲區"
"247021","001-UY","2018/09/27 14:48:52","新北市蘆洲區中正路476巷5-1號","121.46322","25.09576","6501400","蘆洲區"
"235007","251-BX","2018/09/27 14:48:44","新北市中和區安和路63號","121.508575","24.9950066666667","6500300","中和區"
"228005","097-TW","2018/09/27 14:48:47","新北市貢寮區美豐里丹裡街54號","121.905825","25.0592983333333","6502600","貢寮區"
"228004","212-TW","2018/09/27 14:48:58","新北市貢寮區福隆里裕隆街3-1號","121.946155","25.0159366666667","6502600","貢寮區"
"253003","6232-TK","2018/09/27 14:48:48","新北市石門區尖子鹿10-2號","121.57756","25.2835716666667","6502200","石門區"
"253001","6251-TK","2018/09/27 14:48:57","新北市石門區崁子腳53-2號","121.536706666667","25.2823666666667","6502200","石門區"
"253002","637-UY","2018/09/27 14:44:26","新北市石門區七股68號","121.547913333333","25.2489733333333","6502200","石門區"
"253004","8270-PC","2018/09/27 14:49:03","新北市石門區內阿里磅37-2號","121.582736666667","25.237725","6502200","石門區"
"207002","749-BX","2018/09/27 14:48:41","新北市萬里區崁腳里崁腳路73號","121.647598333333","25.1595733333333","6502800","萬里區"
"207001","662-BX","2018/09/27 14:45:02","新北市萬里區雙興里豐稟路22-2號","121.640191666667","25.1840083333333","6502800","萬里區"
"252005","AAC-283","2018/09/27 14:48:45","新北市三芝區埔坪里埔頭坑164-2號","121.508508333333","25.2489466666667","6502100","三芝區"
"236068","105-UM","2018/09/27 14:48:53","新北市土城區明德路一段371號","121.45299","24.9796866666667","6501300","土城區"
"236040","107-UM","2018/09/27 14:48:49","新北市土城區裕民路138號","121.451586666667","24.9860883333333","6501300","土城區"
"236074","166-UM","2018/09/27 14:48:55","新北市土城區中央路四段125巷9弄3號","121.417055","24.95757","6501300","土城區"
"236029","253-BX","2018/09/27 14:48:47","新北市土城區忠義路26巷10號","121.439803333333","24.9698983333333","6501300","土城區"
"236024","269-VK","2018/09/27 14:49:00","新北市土城區中央路二段237號","121.44023","24.9722466666667","6501300","土城區"
"236012","270-VK","2018/09/27 14:48:56","新北市土城區清水路235巷26號","121.46073","24.9839883333333","6501300","土城區"
"236032","271-VK","2018/09/27 14:49:02","新北市土城區仁愛路42號","121.461768333333","24.9793133333333","6501300","土城區"
"236017","401-BY","2018/09/27 14:48:51","新北市土城區延安街29號","121.46779","24.98477","6501300","土城區"
"236057","912-UM","2018/09/27 14:48:56","新北市土城區金城路一段18號","121.43955","24.968925","6501300","土城區"
"236045","913-UM","2018/09/27 14:49:03","新北市土城區青雲路24號","121.459973333333","24.9887733333333","6501300","土城區"
"236060","915-UM","2018/09/27 14:48:57","新北市土城區延和路215號","121.46985","24.9897383333333","6501300","土城區"
"236054","AAC-216","2018/09/27 14:48:46","新北市土城區裕民路159號","121.452343333333","24.9857533333333","6501300","土城區"
"220027","145-BY","2018/09/27 14:49:06","新北市板橋區復興街116號","121.460433333333","25.017915","6500100","板橋區"
"220028","200-UY","2018/09/27 14:48:46","新北市板橋區大觀路二段37巷40號","121.448633333333","25.002585","6500100","板橋區"
"220030","610-BX","2018/09/27 14:48:58","新北市板橋區大觀路三段160巷36號","121.429971666667","24.9940483333333","6500100","板橋區"
"220050","245-BX","2018/09/27 14:48:53","新北市板橋區莊敬路261號","121.473831666667","25.0215566666667","6500100","板橋區"
"220004","276-BY","2018/09/27 14:48:45","新北市板橋區四川路二段99巷9號","121.452976666667","24.994235","6500100","板橋區"
"220020","277-BY","2018/09/27 14:48:47","新北市板橋區金門街151巷25號","121.434168333333","24.99011","6500100","板橋區"
"220019","283-VK","2018/09/27 14:48:48","新北市板橋區五權街30巷12弄23號","121.463823333333","24.99429","6500100","板橋區"
"220043","285-UM","2018/09/27 14:49:00","新北市板橋區長江路一段124號","121.46017","25.0298883333333","6500100","板橋區"
"220001","285-VK","2018/09/27 14:48:54","新北市板橋區中山路二段60巷13號","121.474378333333","25.015225","6500100","板橋區"
"220031","286-VK","2018/09/27 14:48:58","新北市板橋區僑中二街48巷8號","121.445988333333","25.0103933333333","6500100","板橋區"
"220029","287-VK","2018/09/27 14:48:53","新北市板橋區僑中一街80巷6弄22號","121.448341666667","25.011375","6500100","板橋區"
"220039","288-VK","2018/09/27 14:48:55","新北市板橋區綠堤街25號","121.455925","25.0264066666667","6500100","板橋區"
"220009","293-UM","2018/09/27 14:48:51","新北市板橋區觀光街2-5號","121.472173333333","25.0155466666667","6500100","板橋區"
"220052","295-UM","2018/09/27 14:48:56","新北市板橋區自由路18-3號","121.465493333333","25.0226066666667","6500100","板橋區"
"220023","303-R5","2018/09/27 14:49:01","新北市板橋區金華街1號","121.455501666667","25.020085","6500100","板橋區"
"220010","305-R5","2018/09/27 14:49:01","新北市板橋區中山路二段416巷38弄27-1號","121.481838333333","25.0194283333333","6500100","板橋區"
"220041","307-R5","2018/09/27 14:48:50","新北市板橋區四維路259巷35號","121.461746666667","25.0273483333333","6500100","板橋區"
"220047","317-R6","2018/09/27 14:48:59","新北市板橋區新海路385巷12號","121.458468333333","25.0258316666667","6500100","板橋區"
"220012","486-VK","2018/09/27 14:49:01","新北市板橋區實踐路85號","121.463946666667","25.005655","6500100","板橋區"
"220037","491-VK","2018/09/27 14:49:00","新北市板橋區仁化街189號","121.478316666667","25.0341483333333","6500100","板橋區"
"220104","560-BX","2018/09/27 14:48:49","新北市板橋區新生街20巷9號","121.456293333333","25.0208766666667","6500100","板橋區"
"220032","568-UM","2018/09/27 14:48:59","新北市板橋區溪崑二街92巷9號","121.426158333333","24.9896983333333","6500100","板橋區"
"220011","609-BX","2018/09/27 14:48:51","新北市板橋區三民路二段140號","121.479065","25.01603","6500100","板橋區"
"220040","637-BX","2018/09/27 14:48:59","新北市板橋區懷德街127巷37號","121.48005","25.0315466666667","6500100","板橋區"
"220005","686-BX","2018/09/27 14:48:49","新北市板橋區廣和街79號","121.462651666667","24.9921983333333","6500100","板橋區"
"220025","687-BX","2018/09/27 14:48:55","新北市板橋區僑中二街124巷2號","121.445381666667","25.0053566666667","6500100","板橋區"
"220042","689-BX","2018/09/27 14:49:01","新北市板橋區長江路一段111號","121.459735","25.0297933333333","6500100","板橋區"
"220002","741-BX","2018/09/27 14:48:55","新北市板橋區忠孝路忠義巷17弄2號","121.466318333333","25.0038333333333","6500100","板橋區"
"220051","KEA-2699","2018/09/27 14:48:49","新北市板橋區松柏街31-3號","121.475231666667","25.0302666666667","6500100","板橋區"
"220003","827-TW","2018/09/27 14:49:01","新北市板橋區仁愛路62巷11號","121.459965","24.9987516666667","6500100","板橋區"
"220014","830-TW","2018/09/27 14:48:49","新北市板橋區長安街138巷1弄338號","121.475296666667","25.0112933333333","6500100","板橋區"
"220045","831-TW","2018/09/27 14:48:58","新北市板橋區莊敬路166號","121.471558333333","25.02256","6500100","板橋區"
"220038","833-TW","2018/09/27 14:48:46","新北市板橋區英士路198號","121.457668333333","25.0236566666667","6500100","板橋區"
"220022","895-R6","2018/09/27 14:48:58","新北市板橋區文化路一段44號","121.459675","25.0119866666667","6500100","板橋區"
"220021","985-R7","2018/09/27 14:49:01","新北市板橋區大仁街55號","121.45457","25.016345","6500100","板橋區"
"220046","AAC-210","2018/09/27 14:48:54","新北市板橋區文化路一段307巷3號","121.464751666667","25.019245","6500100","板橋區"
"220018","AAC-253","2018/09/27 14:48:56","新北市板橋區民族路229號","121.469763333333","25.0071633333333","6500100","板橋區"
"235032","KEA-2873","2018/09/27 14:48:40","新北市中和區景平路716號","121.496696666667","25.00284","6500300","中和區"
