"lineid","car","time","location","longitude","latitude","cityid","cityname"
"232010","076-UY","2018/09/27 15:25:14","新北市坪林區北宜路八段558號","121.718276666667","24.909295","6502000","坪林區"
"243014","680-BX","2018/09/27 15:32:12","新北市泰山區黎明路25號","121.422061666667","25.0606516666667","6501600","泰山區"
"231028","046-UY","2018/09/27 15:38:57","新北市新店區僑義路21號","121.500403333333","24.95104","6500600","新店區"
"231005","106-UY","2018/09/27 15:39:01","新北市新店區民族路105號","121.538088333333","24.977165","6500600","新店區"
"231021","110-UY","2018/09/27 15:38:48","新北市新店區湖興路128-8號","121.564153333333","24.9308283333333","6500600","新店區"
"231011","187-VK","2018/09/27 15:38:59","新北市新店區寶元路一段109號","121.545678333333","24.98313","6500600","新店區"
"231023","KEA-2219","2018/09/27 15:39:04","新北市新店區五峰路48巷1號","121.544935","24.968655","6500600","新店區"
"231026","256-BX","2018/09/27 15:38:51","新北市新店區三民路75巷3弄1號","121.535776666667","24.9710133333333","6500600","新店區"
"231003","268-BY","2018/09/27 15:38:56","新北市新店區寶高路102巷20號","121.55274","24.9740616666667","6500600","新店區"
"231018","278-BY","2018/09/27 15:39:01","新北市新店區溪園路87號","121.528855","24.9865416666667","6500600","新店區"
"231017","AAD-862","2018/09/27 15:38:49","新北市新店區北宜路二段171號","121.552308333333","24.953225","6500600","新店區"
"231038","3712-VJ","2018/09/27 15:39:01","新北市新店區安和路一段6-6號","121.517263333333","24.9653083333333","6500600","新店區"
"231037","4716-K9","2018/09/27 15:38:53","新北市新店區安興路112號","121.514578333333","24.9776683333333","6500600","新店區"
"231025","4715-K9","2018/09/27 15:38:50","新北市新店區安康路一段226-2號","121.523373333333","24.9636183333333","6500600","新店區"
"231013","513-UM","2018/09/27 15:38:57","新北市新店區永業路81巷7弄20號","121.531198333333","24.94942","6500600","新店區"
"231034","616-UM","2018/09/27 15:38:50","新北市新店區如意街80號","121.495578333333","24.9469116666667","6500600","新店區"
"231030","619-UM","2018/09/27 15:38:46","新北市新店區新和街97號","121.521163333333","24.98666","6500600","新店區"
"231039","718-UY","2018/09/27 15:38:56","新北市新店區寶元路二段16巷1號","121.546071666667","24.9823566666667","6500600","新店區"
"231035","719-UM","2018/09/27 15:38:33","新北市新店區安興路83-3號","121.515393333333","24.9755316666667","6500600","新店區"
"231031","720-UM","2018/09/27 15:39:02","新北市新店區雙城路156號","121.49624","24.9427566666667","6500600","新店區"
"231029","897-TW","2018/09/27 15:38:45","新北市新店區安康路二段317號","121.499726666667","24.9568666666667","6500600","新店區"
"231004","899-TW","2018/09/27 15:39:01","新北市新店區民族路105號","121.538078333333","24.9772866666667","6500600","新店區"
"241011","013-R5","2018/09/27 15:39:04","新北市三重區文化北路246號","121.497495","25.069835","6500200","三重區"
"241028","022-UY","2018/09/27 15:39:03","新北市三重區環河南路261號","121.490443333333","25.0499466666667","6500200","三重區"
"241008","059-VK","2018/09/27 15:38:52","新北市三重區重新路四段121號","121.485165","25.0523033333333","6500200","三重區"
"241017","063-VK","2018/09/27 15:38:48","新北市三重區大仁街1號","121.491635","25.0636233333333","6500200","三重區"
"241005","262-UM","2018/09/27 15:39:04","新北市三重區重新路四段121號","121.485188333333","25.05232","6500200","三重區"
"241002","265-UM","2018/09/27 15:38:57","新北市三重區忠孝路三段99巷4號","121.480175","25.0643016666667","6500200","三重區"
"241016","266-UM","2018/09/27 15:38:57","新北市三重區重新路四段121號","121.484898333333","25.0527016666667","6500200","三重區"
"241018","268-UM","2018/09/27 15:38:45","新北市三重區重新路四段121號","121.484845","25.0526783333333","6500200","三重區"
"241013","270-UM","2018/09/27 15:38:56","新北市三重區正義北路291號","121.494918333333","25.070475","6500200","三重區"
"241025","271-UM","2018/09/27 15:38:54","新北市三重區重新路四段121號","121.48477","25.0525533333333","6500200","三重區"
"241007","398-BY","2018/09/27 15:39:06","新北市三重區重新路四段121號","121.484886666667","25.0524783333333","6500200","三重區"
"241004","475-VK","2018/09/27 15:39:02","新北市三重區重新路四段121號","121.485195","25.052415","6500200","三重區"
"241020","478-VK","2018/09/27 15:35:34","新北市三重區忠孝路三段52號","121.480661666667","25.0657133333333","6500200","三重區"
"241030","480-VK","2018/09/27 15:39:05","新北市三重區重新路四段121號","121.484618333333","25.0529183333333","6500200","三重區"
"241033","557-UM","2018/09/27 15:38:49","新北市三重區重新路五段328號","121.476548333333","25.048045","6500200","三重區"
"241015","743-BX","2018/09/27 15:39:01","新北市三重區重新路四段121號","121.484826666667","25.0523983333333","6500200","三重區"
"241012","941-UM","2018/09/27 15:39:04","新北市三重區自強路一段66號","121.4971","25.066585","6500200","三重區"
"241029","942-UM","2018/09/27 15:38:56","新北市三重區環河南路220-8號","121.493381666667","25.0527033333333","6500200","三重區"
"247011","KEA-2869","2018/09/27 15:38:45","新北市八里區下罟子1-15號","121.3892","25.1422516666667","6501400","蘆洲區"
"235033","4980-A6","2018/09/27 15:38:50","新北市中和區員山路375號","121.480958333333","25.00229","6500300","中和區"
"235010","733-UM","2018/09/27 15:38:35","新北市新店區安和路二段251號","121.516201666667","24.9774133333333","6500300","中和區"
"235023","AAC-215","2018/09/27 15:39:02","新北市中和區員山路28-25號","121.480993333333","24.98663","6500300","中和區"
"227004","400-TW","2018/09/27 15:39:04","新北市雙溪區牡丹里中正路58巷30號","121.866178333333","25.0419016666667","6502500","雙溪區"
"253004","8270-PC","2018/09/27 15:38:50","新北市石門區小坑9號","121.595013333333","25.2862166666667","6502200","石門區"
"236068","105-UM","2018/09/27 15:38:53","新北市土城區大安路37-1號","121.432758333333","24.9661866666667","6501300","土城區"
"236074","166-UM","2018/09/27 15:38:55","新北市土城區中山路6號","121.412463333333","24.9604","6501300","土城區"
"236029","253-BX","2018/09/27 15:38:47","新北市土城區中央路一段143巷11號","121.447338333333","24.9877483333333","6501300","土城區"
"236024","269-VK","2018/09/27 15:39:00","新北市土城區明德路二段203號","121.446696666667","24.9837216666667","6501300","土城區"
"236012","270-VK","2018/09/27 15:38:51","新北市土城區廣明街63巷21號","121.454165","24.99326","6501300","土城區"
"236017","401-BY","2018/09/27 15:38:51","新北市土城區延吉街111巷12弄15-3號","121.471625","24.9849833333333","6501300","土城區"
"236057","912-UM","2018/09/27 15:38:47","新北市土城區中央路一段294號","121.443553333333","24.9823116666667","6501300","土城區"
"236045","913-UM","2018/09/27 15:39:04","新北市土城區金城路三段115號","121.467738333333","24.987835","6501300","土城區"
"236054","AAC-216","2018/09/27 15:38:46","新北市土城區學府路一段125號","121.455068333333","24.987115","6501300","土城區"
"238002","755-BX","2018/09/27 15:38:57","新北市樹林區日新街69號","121.42208","24.9909733333333","6500700","樹林區"
"238010","601-UM","2018/09/27 15:39:02","新北市樹林區三福街70巷18號","121.404821666667","25.0166866666667","6500700","樹林區"
"238006","599-UM","2018/09/27 15:38:48","新北市樹林區八德街263-1號","121.41893","24.973995","6500700","樹林區"
"238005","571-TV","2018/09/27 15:38:52","新北市樹林區中華路271號","121.417611666667","24.9803733333333","6500700","樹林區"
"238011","5061-A6","2018/09/27 15:39:05","新北市樹林區中山路二段189巷6號","121.405318333333","24.9764916666667","6500700","樹林區"
"238009","KEA-2213","2018/09/27 15:38:48","新北市樹林區中華路187巷1號","121.420485","24.9815766666667","6500700","樹林區"
"238008","KEA-2539","2018/09/27 15:38:58","新北市樹林區柑園街一段349號","121.390501666667","24.9563916666667","6500700","樹林區"
"238012","303-VK","2018/09/27 15:39:03","新北市樹林區中山路一段147號","121.42216","24.9894133333333","6500700","樹林區"
"238004","283-BY","2018/09/27 15:38:49","新北市樹林區保安街二段323號","121.412101666667","25.0063666666667","6500700","樹林區"
"238001","282-BY","2018/09/27 15:39:00","新北市樹林區潭興街141巷2號","121.425616666667","24.99957","6500700","樹林區"
"238007","268-VK","2018/09/27 15:38:55","新北市樹林區俊英街210號","121.425266666667","25.00936","6500700","樹林區"
"238013","172-UY","2018/09/27 15:38:46","新北市樹林區新興街19巷2弄27號","121.401665","24.97304","6500700","樹林區"
"238003","169-UY","2018/09/27 15:38:49","新北市樹林區育英街165巷10號","121.418263333333","24.989185","6500700","樹林區"
"220050","245-BX","2018/09/27 15:38:53","新北市板橋區漢生東路83巷1號","121.466485","25.0158333333333","6500100","板橋區"
"220038","833-TW","2018/09/27 15:39:06","新北市板橋區四維路341號","121.46239","25.0297216666667","6500100","板橋區"
