"lineid","car","time","location","longitude","latitude","cityid","cityname"
"231046","107-UY","2018/09/27 16:19:04","新北市新店區灣潭路3-3號","121.538228333333","24.950785","6500600","新店區"
"231018","278-BY","2018/09/27 16:19:01","新北市新店區中正路700巷82號","121.535913333333","24.9932233333333","6500600","新店區"
"241011","013-R5","2018/09/27 16:19:03","新北市三重區龍濱路196號","121.501061666667","25.0733166666667","6500200","三重區"
"241028","022-UY","2018/09/27 16:19:03","新北市三重區正義南路181巷1號","121.498998333333","25.0571333333333","6500200","三重區"
"241008","059-VK","2018/09/27 16:18:52","新北市三重區力行路二段136巷45弄12號","121.479035","25.075315","6500200","三重區"
"241031","061-VK","2018/09/27 16:18:47","新北市三重區捷運路41號","121.48401","25.0556783333333","6500200","三重區"
"241017","063-VK","2018/09/27 16:18:48","新北市三重區大同北路91號","121.49476","25.0636916666667","6500200","三重區"
"241024","065-VK","2018/09/27 16:18:53","新北市三重區中正北路145巷1弄2號","121.483121666667","25.0675616666667","6500200","三重區"
"241026","066-VK","2018/09/27 16:18:53","新北市三重區正義南路60-1號","121.498228333333","25.0605833333333","6500200","三重區"
"241003","091-VK","2018/09/27 16:17:54","新北市三重區五華街71號","121.492631666667","25.0828083333333","6500200","三重區"
"251014","742-BX","2018/09/27 16:18:56","新北市淡水區中正路二段31號","121.419391666667","25.1816666666667","6501000","淡水區"
"241005","262-UM","2018/09/27 16:19:04","新北市三重區溪尾街305號","121.487528333333","25.0837566666667","6500200","三重區"
"241002","265-UM","2018/09/27 16:18:57","新北市三重區仁義街91號","121.499726666667","25.0797183333333","6500200","三重區"
"241016","266-UM","2018/09/27 16:18:57","新北市三重區大仁街86號","121.492845","25.06548","6500200","三重區"
"241009","267-UM","2018/09/27 16:18:50","新北市三重區仁愛街556號","121.485681666667","25.0816116666667","6500200","三重區"
"241018","268-UM","2018/09/27 16:19:05","新北市三重區重陽路三段37號","121.48929","25.0668666666667","6500200","三重區"
"241032","269-UM","2018/09/27 16:19:04","新北市三重區三陽路100巷3弄13號","121.483001666667","25.0582033333333","6500200","三重區"
"241013","270-UM","2018/09/27 16:18:56","新北市三重區三和路三段83巷3號","121.494966666667","25.072245","6500200","三重區"
"241025","271-UM","2018/09/27 16:18:54","新北市三重區中正北路560巷89號","121.471111666667","25.06833","6500200","三重區"
"241007","398-BY","2018/09/27 16:19:06","新北市三重區三和路四段163巷103號","121.486896666667","25.07965","6500200","三重區"
"241004","475-VK","2018/09/27 16:19:01","新北市三重區五華街74號","121.493458333333","25.081955","6500200","三重區"
"241020","478-VK","2018/09/27 16:18:54","新北市三重區車路頭街17巷20號","121.484423333333","25.0706","6500200","三重區"
"241030","480-VK","2018/09/27 16:18:44","新北市三重區重新路四段121號","121.484836666667","25.05254","6500200","三重區"
"241023","545-UM","2018/09/27 16:18:17","新北市三重區忠孝路二段138號","121.482516666667","25.0682416666667","6500200","三重區"
"241001","547-UM","2018/09/27 16:18:57","新北市三重區自強路四段87號","121.491118333333","25.0793833333333","6500200","三重區"
"241033","557-UM","2018/09/27 16:18:49","新北市三重區重新路五段326巷5號","121.477371666667","25.0476733333333","6500200","三重區"
"241019","KEA-2593","2018/09/27 16:18:59","新北市三重區自強路二段74巷15號","121.4881","25.0699316666667","6500200","三重區"
"241006","AAD-863","2018/09/27 16:19:05","新北市三重區永福街46巷41弄5號","121.481995","25.0771483333333","6500200","三重區"
"241015","743-BX","2018/09/27 16:19:01","新北市三重區福德北路75號","121.501995","25.0658133333333","6500200","三重區"
"241022","887-TS","2018/09/27 16:18:44","新北市三重區新北大道一段7號","121.489733333333","25.0615933333333","6500200","三重區"
"241012","941-UM","2018/09/27 16:19:04","新北市三重區文化北路248號","121.497401666667","25.0699683333333","6500200","三重區"
"241029","942-UM","2018/09/27 16:18:56","新北市三重區中正南路212號","121.49387","25.05566","6500200","三重區"
"235046","733-UM","2018/09/27 15:50:40","新北市中和區員山路36巷13號","121.484171666667","24.9907616666667","6500300","中和區"
"235026","800-TS","2018/09/27 16:18:56","新北市中和區永和路171巷1弄2號","121.492398333333","25.006875","6500300","中和區"
"224007","275-VK","2018/09/27 16:18:49","新北市瑞芳區大埔路110-4號","121.762243333333","25.1016883333333","6501200","瑞芳區"
"224005","271-BY","2018/09/27 16:18:08","新北市瑞芳區中山路180巷5弄17號","121.801138333333","25.10707","6501200","瑞芳區"
"227010","642-TC","2018/09/27 16:18:48","新北市雙溪區三港里雙澳路80號","121.88377","25.05385","6502500","雙溪區"
"227004","400-TW","2018/09/27 16:19:04","新北市雙溪區上林里內平林80號","121.828318333333","25.0279433333333","6502500","雙溪區"
"251008","181-VK","2018/09/27 16:18:51","新北市淡水區中正東路二段48巷20號","121.457165","25.1585083333333","6501000","淡水區"
"238002","755-BX","2018/09/27 16:18:57","新北市樹林區中山路三段182號","121.387761666667","24.9692933333333","6500700","樹林區"
"238010","601-UM","2018/09/27 16:19:02","新北市樹林區忠信街15號","121.407631666667","25.0149883333333","6500700","樹林區"
"238006","599-UM","2018/09/27 16:18:48","新北市樹林區東榮街147巷27弄5號","121.41486","24.9809433333333","6500700","樹林區"
"238009","KEA-2213","2018/09/27 16:18:48","新北市樹林區八德街263-1號","121.419266666667","24.9737916666667","6500700","樹林區"
"238025","303-VK","2018/09/27 16:13:09","新北市樹林區中正路22-1號","121.427793333333","24.9994616666667","6500700","樹林區"
"238004","283-BY","2018/09/27 16:18:49","新北市樹林區中正路433-1號","121.414856666667","25.0081183333333","6500700","樹林區"
"238001","282-BY","2018/09/27 16:19:05","新北市樹林區中正路22-1號","121.42778","24.9996883333333","6500700","樹林區"
"238007","268-VK","2018/09/27 16:18:55","新北市樹林區三龍街94巷19號","121.414448333333","25.017825","6500700","樹林區"
"238013","172-UY","2018/09/27 16:19:01","新北市樹林區佳園路一段75巷10-13號","121.39599","24.9707183333333","6500700","樹林區"
