"lineid","car","time","location","longitude","latitude","cityid","cityname"
"234026","9371-KE","2018/09/27 17:48:54","新北市永和區和平街98號","121.510891666667","25.00996","6500400","永和區"
"249005","172-UM","2018/09/27 17:48:54","新北市八里區荖阡坑路34-1號","121.402776666667","25.1298183333333","6502300","八里區"
"249001","173-UM","2018/09/27 17:48:57","新北市八里區龍米路二段133號","121.445153333333","25.1476133333333","6502300","八里區"
"249004","303-UY","2018/09/27 17:48:55","新北市八里區中華路一段81巷18號","121.419563333333","25.155825","6502300","八里區"
"249002","305-UY","2018/09/27 17:48:50","新北市八里區石壁腳9號","121.444328333333","25.13487","6502300","八里區"
"249003","593-UM","2018/09/27 17:49:06","新北市八里區中山路二段123號","121.405491666667","25.151885","6502300","八里區"
"248016","026-BX","2018/09/27 17:48:46","新北市五股區中興路二段83巷26-6號","121.459883333333","25.0752783333333","6501500","五股區"
"248006","077-UY","2018/09/27 17:48:53","新北市五股區中興路二段83巷26-3號","121.460061666667","25.075335","6501500","五股區"
"248002","095-VK","2018/09/27 17:48:50","新北市五股區中興路二段83巷26-6號","121.460116666667","25.0752083333333","6501500","五股區"
"248014","261-SL","2018/09/27 17:49:05","新北市五股區中興路二段37巷26號","121.460298333333","25.0751966666667","6501500","五股區"
"232011","375-UM","2018/09/27 17:49:02","新北市坪林區北宜路八段240號","121.709163333333","24.93492","6502000","坪林區"
"244023","069-UM","2018/09/27 17:49:06","新北市林口區東湖路52號","121.387911666667","25.074115","6501700","林口區"
"244007","080-UY","2018/09/27 17:48:55","新北市林口區佳林路1號","121.387313333333","25.0824533333333","6501700","林口區"
"244019","403-UM","2018/09/27 17:49:01","新北市林口區忠孝路542巷11弄2號","121.373025","25.0670266666667","6501700","林口區"
"244013","KEA-2802","2018/09/27 17:48:51","新北市林口區中正路525巷26號","121.383141666667","25.0767033333333","6501700","林口區"
"244017","485-VK","2018/09/27 17:48:57","新北市林口區文化二路一段260巷1號","121.371205","25.0734383333333","6501700","林口區"
"244009","656-BX","2018/09/27 17:49:02","新北市林口區中北三街71號","121.384601666667","25.085355","6501700","林口區"
"244011","701-TV","2018/09/27 17:48:49","新北市林口區竹林路35號","121.386775","25.07774","6501700","林口區"
"244025","837-TS","2018/09/27 17:49:02","新北市林口區文化三路一段377-1號","121.365126666667","25.0736316666667","6501700","林口區"
"244021","838-TS","2018/09/27 17:48:50","新北市林口區粉寮路一段1號","121.3963","25.0757916666667","6501700","林口區"
"222003","436-BY","2018/09/27 17:48:59","新北市深坑區阿柔洋60-1號","121.608646666667","24.9985233333333","6501800","深坑區"
"222002","659-BX","2018/09/27 17:49:00","新北市深坑區平埔街22巷8號","121.614908333333","25.000895","6501800","深坑區"
"231046","107-UY","2018/09/27 17:49:04","新北市新店區下石厝路11-5號","121.53116","24.9292933333333","6500600","新店區"
"251014","742-BX","2018/09/27 17:48:56","新北市淡水區公埔子16-6號","121.481005","25.2245783333333","6501000","淡水區"
"241005","262-UM","2018/09/27 17:49:04","新北市三重區仁愛街519號","121.48733","25.0822266666667","6500200","三重區"
"241016","266-UM","2018/09/27 17:48:57","新北市三重區中正北路11號","121.492398333333","25.06129","6500200","三重區"
"241024","KEA-2210","2018/09/27 17:48:54","新北市三重區力行路二段9巷10號","121.482846666667","25.072295","6500200","三重區"
"241033","557-UM","2018/09/27 17:48:51","新北市三重區光復路一段9號","121.472178333333","25.0471266666667","6500200","三重區"
"241012","941-UM","2018/09/27 17:49:04","新北市三重區河邊北街379-1號","121.501711666667","25.0764866666667","6500200","三重區"
"235064","005-UY","2018/09/27 17:49:06","新北市中和區員山路36巷16-3號","121.485113333333","24.9913816666667","6500300","中和區"
"235063","006-UY","2018/09/27 17:48:53","新北市中和區員山路36巷16-3號","121.484968333333","24.9912183333333","6500300","中和區"
"235065","098-UM","2018/09/27 17:49:03","新北市中和區中正路637巷52弄1號","121.485483333333","24.9933816666667","6500300","中和區"
"235058","151-BY","2018/09/27 17:48:55","新北市中和區員山路36巷16-2號","121.485281666667","24.9915816666667","6500300","中和區"
"247012","KEA-2869","2018/09/27 17:48:56","新北市蘆洲區復興路51-2號","121.475846666667","25.0870583333333","6501400","蘆洲區"
"247002","893-R6","2018/09/27 17:49:03","新北市蘆洲區永平街32巷21弄35號","121.457873333333","25.09231","6501400","蘆洲區"
"247016","546-UM","2018/09/27 17:49:08","新北市蘆洲區中正路185巷25弄2號","121.466713333333","25.08432","6501400","蘆洲區"
"247024","500-BY","2018/09/27 17:48:51","新北市蘆洲區光榮路96號","121.463915","25.089085","6501400","蘆洲區"
"247014","339-TH","2018/09/27 17:48:52","新北市蘆洲區中正路156-1號","121.468723333333","25.085615","6501400","蘆洲區"
"247006","337-TH","2018/09/27 17:48:50","新北市蘆洲區長安街22巷43號","121.465273333333","25.0805883333333","6501400","蘆洲區"
"247008","336-TH","2018/09/27 17:48:50","新北市蘆洲區中山一路234號","121.472798333333","25.080365","6501400","蘆洲區"
"247020","057-VK","2018/09/27 17:49:01","新北市蘆洲區民義街71巷31號","121.472148333333","25.0910333333333","6501400","蘆洲區"
"247010","056-VK","2018/09/27 17:49:05","新北市蘆洲區民族路38號","121.476571666667","25.0844366666667","6501400","蘆洲區"
"247018","007-UY","2018/09/27 17:49:04","新北市蘆洲區復興路227巷2弄10號","121.480478333333","25.090135","6501400","蘆洲區"
"247004","002-UY","2018/09/27 17:49:04","新北市蘆洲區中原路12巷20號","121.460965","25.0837083333333","6501400","蘆洲區"
"247022","001-UY","2018/09/27 17:48:49","新北市蘆洲區中正路392號","121.463306666667","25.0932133333333","6501400","蘆洲區"
"228003","097-TW","2018/09/27 17:48:52","新北市貢寮區真理里延平街54-1號","121.924763333333","25.057145","6502600","貢寮區"
"228002","663-BX","2018/09/27 17:49:04","新北市貢寮區福隆里龜壽谷街26號","121.953375","25.00748","6502600","貢寮區"
"224006","676-BX","2018/09/27 17:49:06","新北市瑞芳區傑魚坑路183號","121.788575","25.1083016666667","6501200","瑞芳區"
"224008","285-BY","2018/09/27 17:49:00","新北市瑞芳區明燈路一段17號","121.823106666667","25.107335","6501200","瑞芳區"
"224009","273-VK","2018/09/27 17:48:58","新北市瑞芳區山尖路2號","121.854763333333","25.1160183333333","6501200","瑞芳區"
"224005","271-BY","2018/09/27 17:49:00","新北市瑞芳區海濱路79-1號","121.830871666667","25.12304","6501200","瑞芳區"
"227010","642-TC","2018/09/27 17:48:48","新北市雙溪區三貂里政光路3-1號","121.850756666667","25.0633533333333","6502500","雙溪區"
"253006","032-BX","2018/09/27 17:49:04","新北市石門區中山路64-1號","121.567541666667","25.2907083333333","6502200","石門區"
"208002","KEA-2872","2018/09/27 17:48:54","新北市金山區磺清路135號","121.63938","25.2276666666667","6502700","金山區"
"208001","761-BX","2018/09/27 17:48:51","新北市金山區磺清路135號","121.639378333333","25.227665","6502700","金山區"
"251009","008-UM","2018/09/27 17:49:01","新北市淡水區長興街46號","121.444221666667","25.1716033333333","6501000","淡水區"
"251005","010-UM","2018/09/27 17:48:51","新北市淡水區學府路102巷14號","121.451086666667","25.1717133333333","6501000","淡水區"
"251001","011-UM","2018/09/27 17:48:59","新北市淡水區民權路92巷35-1號","121.462151666667","25.1266183333333","6501000","淡水區"
"251013","KEA-2871","2018/09/27 17:48:55","新北市淡水區泉洲厝31號","121.479621666667","25.19101","6501000","淡水區"
"251016","179-VK","2018/09/27 17:48:57","新北市淡水區埤島39-15號","121.452773333333","25.1958183333333","6501000","淡水區"
"251015","180-VK","2018/09/27 17:49:03","新北市淡水區興福寮25號","121.493383333333","25.1641333333333","6501000","淡水區"
"251008","181-VK","2018/09/27 17:48:51","新北市淡水區八勢路一段156號","121.468141666667","25.1563866666667","6501000","淡水區"
"251010","413-VK","2018/09/27 17:49:05","新北市淡水區淡海路280巷33弄34-2號","121.418711666667","25.188595","6501000","淡水區"
"251012","441-VK","2018/09/27 17:48:55","新北市淡水區商工路388號","121.46973","25.18368","6501000","淡水區"
"251007","442-VK","2018/09/27 17:48:59","新北市淡水區民生路52巷36號","121.462918333333","25.1376783333333","6501000","淡水區"
"251004","443-VK","2018/09/27 17:48:59","新北市淡水區民權一街17巷1號","121.458696666667","25.1367533333333","6501000","淡水區"
"251006","561-UM","2018/09/27 17:49:02","新北市淡水區大信街1巷16號","121.440173333333","25.1768583333333","6501000","淡水區"
"251011","650-BX","2018/09/27 17:46:41","新北市淡水區吳(仔)厝9號","121.479175","25.146745","6501000","淡水區"
"251002","672-BX","2018/09/27 17:48:58","新北市淡水區中山路27號","121.444095","25.1701233333333","6501000","淡水區"
"251003","766-UM","2018/09/27 17:48:52","新北市淡水區大忠街5巷1號","121.44311","25.1765016666667","6501000","淡水區"
"207003","550-UM","2018/09/27 17:48:54","新北市萬里區野柳里東澳路66號","121.692693333333","25.200905","6502800","萬里區"
"207004","225-TW","2018/09/27 17:48:58","新北市萬里區萬里里瑪鋉頂街66號","121.689016666667","25.1799916666667","6502800","萬里區"
"252002","178-VK","2018/09/27 17:48:56","新北市三芝區智成街33號","121.503928333333","25.256555","6502100","三芝區"
"252001","292-VK","2018/09/27 17:49:06","新北市三芝區中興街一段8號","121.497441666667","25.25949","6502100","三芝區"
"237004","KEA-2597","2018/09/27 17:49:05","新北市三峽區中山路167-1號","121.36442","24.9364983333333","6500900","三峽區"
"237007","153-BY","2018/09/27 17:49:00","新北市三峽區中園街227號","121.366908333333","24.919695","6500900","三峽區"
"237009","210-TH","2018/09/27 17:49:02","新北市三峽區大勇路25號","121.367181666667","24.9364116666667","6500900","三峽區"
"237013","252-BX","2018/09/27 17:49:04","新北市三峽區中華路5-1號","121.374521666667","24.9327233333333","6500900","三峽區"
"237012","275-BY","2018/09/27 17:49:01","新北市三峽區文化路208號","121.369268333333","24.9359766666667","6500900","三峽區"
"237014","433-BY","2018/09/27 17:49:03","新北市三峽區文化路120巷3號","121.370983333333","24.9364133333333","6500900","三峽區"
"237006","5529-G3","2018/09/27 17:49:05","新北市三峽區介壽路二段32號","121.390986666667","24.9352366666667","6500900","三峽區"
"237011","KEA-2596","2018/09/27 17:48:51","新北市三峽區大同路217號","121.369741666667","24.9271316666667","6500900","三峽區"
"237016","649-BX","2018/09/27 17:48:59","新北市三峽區白雞149-2號","121.399918333333","24.90506","6500900","三峽區"
"237010","706-TV","2018/09/27 17:48:53","新北市三峽區和平街24-4號","121.37025","24.9364166666667","6500900","三峽區"
"237005","AKY-6261","2018/09/27 17:49:02","新北市三峽區中山路225號","121.363093333333","24.9370266666667","6500900","三峽區"
"236070","105-UM","2018/09/27 17:49:00","新北市土城區青雲路322巷18號","121.457673333333","24.9762333333333","6501300","土城區"
"236042","107-UM","2018/09/27 17:49:01","新北市土城區城林路6巷80號","121.438645","24.9796816666667","6501300","土城區"
"236078","166-UM","2018/09/27 17:48:58","新北市土城區中央路三段128-1號","121.434921666667","24.9659766666667","6501300","土城區"
"236030","253-BX","2018/09/27 17:49:03","新北市土城區城林路6巷80號","121.43866","24.97967","6501300","土城區"
"236026","269-VK","2018/09/27 17:49:09","新北市土城區城林路6巷80號","121.438448333333","24.9795766666667","6501300","土城區"
"236014","270-VK","2018/09/27 17:49:05","新北市土城區城林路6巷80號","121.438535","24.979595","6501300","土城區"
"236038","271-VK","2018/09/27 17:48:51","新北市土城區城林路6巷80號","121.438538333333","24.9796616666667","6501300","土城區"
"236021","401-BY","2018/09/27 17:49:00","新北市土城區城林路6巷80號","121.438515","24.979985","6501300","土城區"
"236059","912-UM","2018/09/27 17:48:57","新北市土城區中華路二段167號","121.438665","24.9754666666667","6501300","土城區"
"236049","913-UM","2018/09/27 17:49:06","新北市土城區城林路6巷80號","121.438731666667","24.97969","6501300","土城區"
"236063","915-UM","2018/09/27 17:48:57","新北市土城區城林路6巷80號","121.438581666667","24.97961","6501300","土城區"
"242036","AAC-296","2018/09/27 17:48:08","新北市新莊區建福路59巷2號","121.426981666667","25.0272266666667","6500500","新莊區"
"242058","986-R7","2018/09/27 17:49:04","新北市新莊區中正路704-1號","121.41735","25.02578","6500500","新莊區"
"242056","751-BX","2018/09/27 17:48:46","新北市新莊區瓊林路40巷17號","121.447076666667","25.030185","6500500","新莊區"
"242029","705-TV","2018/09/27 17:48:55","新北市新莊區復興路一段43號","121.446951666667","25.0420216666667","6500500","新莊區"
"242027","615-BX","2018/09/27 17:48:52","新北市新莊區福壽街171號","121.457933333333","25.0537466666667","6500500","新莊區"
"242025","613-BX","2018/09/27 17:49:02","新北市三重區新北大道二段117號","121.466645","25.0613766666667","6500500","新莊區"
"242044","566-BX","2018/09/27 17:49:03","新北市新莊區富國路87號","121.420515","25.0259366666667","6500500","新莊區"
"242048","497-BY","2018/09/27 17:48:52","新北市新莊區萬安街60巷1號","121.420718333333","25.0235566666667","6500500","新莊區"
"242053","442-UM","2018/09/27 17:49:08","新北市新莊區民安西路415巷4號","121.430845","25.00922","6500500","新莊區"
"242039","415-TV","2018/09/27 17:49:05","新北市新莊區民安路206號","121.425755","25.0230583333333","6500500","新莊區"
"242009","413-TV","2018/09/27 17:48:57","新北市新莊區昌平街59巷11弄5號","121.453866666667","25.0529833333333","6500500","新莊區"
"242046","400-BY","2018/09/27 17:49:05","新北市新莊區建國一路52號","121.434138333333","25.0309433333333","6500500","新莊區"
"242023","362-BY","2018/09/27 17:48:51","新北市新莊區福樂街35號","121.457668333333","25.0468583333333","6500500","新莊區"
"242061","353-BY","2018/09/27 17:48:58","新北市新莊區瓊林南路204號","121.4341","25.0065883333333","6500500","新莊區"
"242011","132-UY","2018/09/27 17:49:03","新北市新莊區中港路695號","121.450718333333","25.0567883333333","6500500","新莊區"
"242042","133-UY","2018/09/27 17:49:09","新北市泰山區新北大道六段347號","121.422985","25.033295","6500500","新莊區"
"242034","135-UY","2018/09/27 17:48:56","新北市新莊區新莊路761號","121.442506666667","25.0326566666667","6500500","新莊區"
"242051","172-VK","2018/09/27 17:49:05","新北市新莊區西盛街231巷6號","121.428448333333","25.0162483333333","6500500","新莊區"
"242019","175-VK","2018/09/27 17:48:58","新北市新莊區復興路二段148號","121.457525","25.044365","6500500","新莊區"
"242017","346-TH","2018/09/27 17:49:09","新北市新莊區中富街96號","121.450161666667","25.05579","6500500","新莊區"
"242031","347-TH","2018/09/27 17:49:07","新北市新莊區新泰路321巷31號","121.443293333333","25.0410983333333","6500500","新莊區"
"242004","349-TH","2018/09/27 17:48:51","新北市新莊區自立街232號","121.458065","25.04533","6500500","新莊區"
"242021","350-TH","2018/09/27 17:49:02","新北市新莊區永寧街35巷2號","121.45286","25.03938","6500500","新莊區"
"242015","351-TH","2018/09/27 17:48:53","新北市新莊區新泰路442號","121.443425","25.044805","6500500","新莊區"
"238015","755-BX","2018/09/27 17:49:02","新北市樹林區復興路72號","121.421961666667","24.9935883333333","6500700","樹林區"
"238023","601-UM","2018/09/27 17:49:02","新北市樹林區龍興街32巷30號","121.401836666667","25.0155883333333","6500700","樹林區"
"238019","599-UM","2018/09/27 17:49:08","新北市樹林區太平路104號","121.418493333333","24.9790133333333","6500700","樹林區"
"238018","571-TV","2018/09/27 17:49:01","新北市樹林區樹新路59號","121.427305","24.9949266666667","6500700","樹林區"
"238022","KEA-2213","2018/09/27 17:48:48","新北市樹林區太順街62巷3弄28號","121.416691666667","24.97929","6500700","樹林區"
"238021","KEA-2539","2018/09/27 17:48:50","新北市樹林區柑園街一段154-1號","121.398011666667","24.9568283333333","6500700","樹林區"
"238025","303-VK","2018/09/27 17:49:00","新北市樹林區俊興街225號","121.417715","25.0148583333333","6500700","樹林區"
"238017","283-BY","2018/09/27 17:49:08","新北市樹林區三德街38號","121.41547","25.013145","6500700","樹林區"
"238014","282-BY","2018/09/27 17:49:05","新北市樹林區保安街一段289巷48號","121.417096666667","24.9965433333333","6500700","樹林區"
"238020","268-VK","2018/09/27 17:48:55","新北市樹林區俊英街123巷1號","121.42457","25.01068","6500700","樹林區"
"238026","172-UY","2018/09/27 17:49:06","新北市樹林區中山路三段27巷3弄12-5號","121.402106666667","24.9735733333333","6500700","樹林區"
"238016","169-UY","2018/09/27 17:46:09","新北市樹林區復興路373巷3弄3號","121.417121666667","24.9868133333333","6500700","樹林區"
"239007","AAC-297","2018/09/27 17:48:58","新北市鶯歌區永利街36號","121.339505","24.9545533333333","6500800","鶯歌區"
"239006","891-R6","2018/09/27 17:49:00","新北市鶯歌區永和街115巷66-1號","121.333708333333","24.9700766666667","6500800","鶯歌區"
"239008","527-UM","2018/09/27 17:49:02","新北市鶯歌區大湖路642號","121.333835","24.9755466666667","6500800","鶯歌區"
"239005","526-UM","2018/09/27 17:49:07","新北市鶯歌區鳳吉五街9號","121.326656666667","24.9723","6500800","鶯歌區"
"239001","417-VK","2018/09/27 17:48:50","新北市鶯歌區中正三路446-3號","121.32356","24.9345133333333","6500800","鶯歌區"
"239003","360-BY","2018/09/27 17:48:57","新北市鶯歌區鶯桃路285巷43號","121.334103333333","24.95779","6500800","鶯歌區"
"239002","359-BY","2018/09/27 17:49:01","新北市鶯歌區育樂街61號","121.343548333333","24.954815","6500800","鶯歌區"
"239004","193-VK","2018/09/27 17:48:55","新北市鶯歌區文化路322-1號","121.352525","24.9460883333333","6500800","鶯歌區"
"221008","489-VK","2018/09/27 17:49:00","新北市汐止區連峰街1巷2號","121.646886666667","25.076165","6501100","汐止區"
"221036","130-UY","2018/09/27 17:49:01","新北市汐止區汐萬路一段266號","121.651048333333","25.0738916666667","6501100","汐止區"
"221015","131-UY","2018/09/27 17:49:03","新北市汐止區長江街213號","121.660988333333","25.0772183333333","6501100","汐止區"
"221010","269-BY","2018/09/27 17:49:04","新北市汐止區汐萬路二段119號","121.648298333333","25.0840016666667","6501100","汐止區"
"221012","278-VK","2018/09/27 17:48:55","新北市汐止區汐萬路一段160號","121.652598333333","25.0714516666667","6501100","汐止區"
"221023","279-VK","2018/09/27 17:48:54","新北市汐止區民族一街18號","121.635001666667","25.07108","6501100","汐止區"
"221032","280-BY","2018/09/27 17:49:00","新北市汐止區大同路一段215-1號","121.633736666667","25.0575316666667","6501100","汐止區"
"221027","281-BY","2018/09/27 17:49:02","新北市汐止區汐萬路一段296號","121.65059","25.0744483333333","6501100","汐止區"
"221029","298-VK","2018/09/27 17:49:04","新北市汐止區汐萬路一段256巷1號","121.651755","25.0747716666667","6501100","汐止區"
"221021","299-VK","2018/09/27 17:49:04","新北市汐止區水源路一段4號","121.657136666667","25.0669816666667","6501100","汐止區"
"221031","353-TW","2018/09/27 17:49:02","新北市汐止區中興路96巷1-3號","121.635408333333","25.0625483333333","6501100","汐止區"
"221025","623-UM","2018/09/27 17:48:55","新北市汐止區汐萬路一段115巷50號","121.653055","25.06997","6501100","汐止區"
"221038","646-BX","2018/09/27 17:49:04","新北市汐止區汐萬路一段284號","121.650751666667","25.074235","6501100","汐止區"
"221002","707-TV","2018/09/27 17:48:49","新北市汐止區康寧街901號","121.651471666667","25.07494","6501100","汐止區"
"221018","753-BX","2018/09/27 17:48:58","新北市汐止區汐萬路一段81號","121.654588333333","25.0702533333333","6501100","汐止區"
"242002","281-VK","2018/09/27 17:48:54","新北市新莊區景德路192號","121.449946666667","25.0341433333333","6500500","新莊區"
"242007","280-VK","2018/09/27 17:49:04","新北市新莊區福樂街63號","121.457365","25.0476283333333","6500500","新莊區"
"235061","KEA-2875","2018/09/27 17:38:37","新北市中和區員山路36巷16-2號","121.485318333333","24.9916783333333","6500300","中和區"
