"lineid","car","time","location","longitude","latitude","cityid","cityname"
"234046","148-BY","2018/09/27 18:38:39","新北市永和區永元路68號","121.522506666667","25.0016083333333","6500400","永和區"
"234007","207-UY","2018/09/27 18:38:45","新北市永和區文化路198號","121.51063","25.0163983333333","6500400","永和區"
"234081","298-R6","2018/09/27 18:38:36","新北市永和區國中路4號","121.524358333333","25.004325","6500400","永和區"
"234064","337-UY","2018/09/27 18:38:32","新北市永和區福和路1號","121.52646","25.01003","6500400","永和區"
"234086","338-UY","2018/09/27 18:38:37","新北市永和區得和路76號","121.51654","25.00008","6500400","永和區"
"234017","745-BX","2018/09/27 18:38:44","新北市永和區福和路1號","121.526301666667","25.0097283333333","6500400","永和區"
"234030","746-BX","2018/09/27 18:38:53","新北市永和區得和路398號","121.525463333333","24.999175","6500400","永和區"
"234054","KEA-2590","2018/09/27 18:38:51","新北市永和區福和路1號","121.526185","25.0094083333333","6500400","永和區"
"234042","862-TW","2018/09/27 18:38:49","新北市永和區永貞路306號","121.511866666667","25.004815","6500400","永和區"
"234050","863-TW","2018/09/27 18:38:33","新北市永和區福和路1號","121.526458333333","25.009855","6500400","永和區"
"234026","9371-KE","2018/09/27 18:38:34","新北市永和區永貞路393號","121.507915","25.0088916666667","6500400","永和區"
"234011","9373-KE","2018/09/27 18:38:39","新北市永和區文化路9巷22弄18號","121.514843333333","25.0145966666667","6500400","永和區"
"249005","172-UM","2018/09/27 18:38:34","新北市八里區中華路三段228號","121.38891","25.125185","6502300","八里區"
"249001","173-UM","2018/09/27 18:38:49","新北市八里區龍米路一段132號","121.45299","25.1254333333333","6502300","八里區"
"249004","303-UY","2018/09/27 18:38:31","新北市八里區忠孝路85號","121.424915","25.1604816666667","6502300","八里區"
"249002","305-UY","2018/09/27 18:38:50","新北市八里區龍形一街33巷1-1號","121.449331666667","25.1300533333333","6502300","八里區"
"248016","026-BX","2018/09/27 18:38:46","新北市五股區凌雲路一段149巷13-1號","121.448613333333","25.1008833333333","6501500","五股區"
"248008","095-VK","2018/09/27 18:38:50","新北市五股區中興路一段150巷6號","121.46468","25.0741916666667","6501500","五股區"
"248020","225-UY","2018/09/27 18:36:25","新北市五股區孝義路73-1號","121.445613333333","25.1195033333333","6501500","五股區"
"248012","247-BX","2018/09/27 18:38:50","新北市五股區成泰路三段43號","121.442175","25.08871","6501500","五股區"
"248014","261-SL","2018/09/27 18:38:44","新北市五股區蓬萊路2巷3號","121.43588","25.0795083333333","6501500","五股區"
"248010","272-BY","2018/09/27 18:38:39","新北市五股區水碓七路168號","121.430773333333","25.0739866666667","6501500","五股區"
"248004","677-BX","2018/09/27 18:38:48","新北市五股區民義路一段304-3號","121.4247","25.0936366666667","6501500","五股區"
"248002","678-BX","2018/09/27 18:38:37","新北市五股區西雲路200號","121.44768","25.095555","6501500","五股區"
"234023","9380-KE","2018/09/27 18:38:49","新北市永和區福和路76巷5弄14號","121.522386666667","25.0084216666667","6500400","永和區"
"234077","969-R7","2018/09/27 18:38:45","新北市永和區福和路278號","121.517896666667","25.0074633333333","6500400","永和區"
"234067","AAC-212","2018/09/27 18:38:39","新北市永和區永貞路118號","121.518725","25.0045033333333","6500400","永和區"
"244023","069-UM","2018/09/27 18:38:41","新北市林口區民享路38號","121.380731666667","25.080765","6501700","林口區"
"244007","080-UY","2018/09/27 18:38:35","新北市林口區後湖23-1號","121.38766","25.0990466666667","6501700","林口區"
"244019","403-UM","2018/09/27 18:38:35","新北市林口區麗園二街36巷1號","121.380506666667","25.0690916666667","6501700","林口區"
"244013","KEA-2802","2018/09/27 18:38:51","新北市林口區中正路438號","121.383838333333","25.0777183333333","6501700","林口區"
"244017","485-VK","2018/09/27 18:38:37","新北市林口區文化二路一段22號","121.364773333333","25.06725","6501700","林口區"
"244009","656-BX","2018/09/27 18:38:42","新北市林口區竹林路278巷2號","121.390398333333","25.0817216666667","6501700","林口區"
"244011","701-TV","2018/09/27 18:38:49","新北市林口區興林路17巷3弄2號","121.390268333333","25.077005","6501700","林口區"
"244025","837-TS","2018/09/27 18:38:42","新北市林口區南勢四街216巷23號","121.356946666667","25.073585","6501700","林口區"
"244021","838-TS","2018/09/27 18:38:50","新北市林口區自強二街9號","121.397708333333","25.0782583333333","6501700","林口區"
"243013","AAD-798","2018/09/27 18:29:54","新北市泰山區明志路三段206巷1號","121.423343333333","25.0379133333333","6501600","泰山區"
"243016","KEA-2801","2018/09/27 18:38:49","新北市泰山區黎明路25號","121.421806666667","25.0609816666667","6501600","泰山區"
"243015","421-VK","2018/09/27 18:38:46","新北市泰山區黎明路25號","121.422033333333","25.0606483333333","6501600","泰山區"
"243011","KEA-2215","2018/09/27 18:38:51","新北市泰山區黎明路31號","121.4218","25.0607783333333","6501600","泰山區"
"243012","646-TV","2018/09/27 18:38:41","新北市泰山區泰林路二段223號","121.432461666667","25.0619216666667","6501600","泰山區"
"222003","436-BY","2018/09/27 18:38:39","新北市深坑區翠谷街37巷1號","121.62651","25.0093566666667","6501800","深坑區"
"222002","659-BX","2018/09/27 18:38:40","新北市深坑區文山路一段62巷7號","121.622566666667","25.0009083333333","6501800","深坑區"
"231059","001-UM","2018/09/27 18:38:39","新北市新店區安華路28-1號","121.519485","24.960565","6500600","新店區"
"231041","002-UM","2018/09/27 18:38:48","新北市新店區安華路28-1號","121.519715","24.9608316666667","6500600","新店區"
"231040","047-UY","2018/09/27 18:38:46","新北市新店區安華路28-1號","121.519158333333","24.9608983333333","6500600","新店區"
"231044","106-UY","2018/09/27 18:38:51","新北市新店區北新路一段89號","121.538476666667","24.9616866666667","6500600","新店區"
"231046","107-UY","2018/09/27 18:38:44","新北市新店區直潭二街1號","121.535508333333","24.9432","6500600","新店區"
"231052","110-UY","2018/09/27 18:38:51","新北市新店區永興路34號","121.543586666667","24.938765","6500600","新店區"
"231047","187-VK","2018/09/27 18:38:45","新北市新店區安康路一段238號","121.521903333333","24.96376","6500600","新店區"
"231054","KEA-2219","2018/09/27 18:38:41","新北市新店區安一路一段1-1號","121.519768333333","24.961235","6500600","新店區"
"231057","256-BX","2018/09/27 18:38:36","新北市新店區新烏路一段73-1號","121.546426666667","24.9422116666667","6500600","新店區"
"231042","268-BY","2018/09/27 18:38:38","新北市新店區安華路28-1號","121.519425","24.9605766666667","6500600","新店區"
"231051","278-BY","2018/09/27 18:38:35","新北市新店區中央路206號","121.530341666667","24.9739266666667","6500600","新店區"
"231050","AAD-862","2018/09/27 18:38:44","新北市新店區安一路一段1-1號","121.519893333333","24.9611133333333","6500600","新店區"
"231058","3713-VJ","2018/09/27 18:38:47","新北市新店區新店路13號","121.540358333333","24.9529083333333","6500600","新店區"
"231066","4716-K9","2018/09/27 18:38:37","新北市新店區安一路一段1-1號","121.519326666667","24.9612133333333","6500600","新店區"
"231056","4715-K9","2018/09/27 18:38:38","新北市新店區自立街52號","121.53804","24.97907","6500600","新店區"
"231067","4772-VM","2018/09/27 18:38:42","新北市新店區安華路1-1號","121.519176666667","24.9604266666667","6500600","新店區"
"231065","512-UM","2018/09/27 18:38:31","新北市新店區安一路一段1-1號","121.519393333333","24.9611283333333","6500600","新店區"
"231049","513-UM","2018/09/27 18:38:32","新北市新店區安一路一段1-1號","121.519606666667","24.96109","6500600","新店區"
"231063","616-UM","2018/09/27 18:38:51","新北市新店區安華路1-1號","121.519508333333","24.9604883333333","6500600","新店區"
"231061","619-UM","2018/09/27 18:38:45","新北市新店區安華路28-1號","121.519555","24.9606983333333","6500600","新店區"
"231064","719-UM","2018/09/27 18:38:44","新北市新店區安一路一段1-1號","121.519713333333","24.9612116666667","6500600","新店區"
"231062","720-UM","2018/09/27 18:38:42","新北市新店區安一路一段1-1號","121.519316666667","24.961185","6500600","新店區"
"231060","897-TW","2018/09/27 18:38:49","新北市新店區安華路28-1號","121.519698333333","24.960655","6500600","新店區"
"231045","898-TW","2018/09/27 18:38:38","新北市新店區安華路28-1號","121.51939","24.9609616666667","6500600","新店區"
"231043","899-TW","2018/09/27 18:38:37","新北市新店區安華路28-1號","121.519245","24.96082","6500600","新店區"
"231055","AKT-0513","2018/09/27 18:38:45","新北市新店區中華路36號","121.540031666667","24.9680316666667","6500600","新店區"
"251014","742-BX","2018/09/27 18:38:36","新北市淡水區崙頂12-8號","121.495553333333","25.2172516666667","6501000","淡水區"
"235066","003-UY","2018/09/27 18:38:40","新北市中和區水源路31號","121.504178333333","25.0035716666667","6500300","中和區"
"235064","005-UY","2018/09/27 18:38:46","新北市中和區連城路109巷33號","121.49699","24.99858","6500300","中和區"
"235063","006-UY","2018/09/27 18:38:33","新北市中和區連城路389巷10弄4號","121.486283333333","24.9956433333333","6500300","中和區"
"235056","096-UM","2018/09/27 18:38:43","新北市中和區員山路611巷5弄5號","121.478076666667","25.0112633333333","6500300","中和區"
"235039","097-UM","2018/09/27 18:38:37","新北市中和區宜安路16號","121.513328333333","24.99576","6500300","中和區"
"235065","098-UM","2018/09/27 18:38:43","新北市中和區莊敬路49巷29弄20號","121.501113333333","25.0065133333333","6500300","中和區"
"235040","150-BY","2018/09/27 18:38:50","新北市中和區安平路59號","121.509451666667","24.9951066666667","6500300","中和區"
"235058","151-BY","2018/09/27 18:38:35","新北市中和區圓通路437-5號","121.485868333333","24.9872916666667","6500300","中和區"
"235055","183-VK","2018/09/27 18:38:36","新北市中和區民生街79號","121.469028333333","25.0047666666667","6500300","中和區"
"235038","185-VK","2018/09/27 18:38:39","新北市中和區大勇街60巷39號","121.519166666667","24.9947466666667","6500300","中和區"
"235049","186-VK","2018/09/27 18:38:51","新北市中和區景安路173號","121.505301666667","24.9944483333333","6500300","中和區"
"235067","255-BX","2018/09/27 18:38:42","新北市中和區新生街114巷1號","121.483488333333","25.0022066666667","6500300","中和區"
"235044","293-VK","2018/09/27 18:38:53","新北市中和區景安路220巷1弄1號","121.503286666667","24.990705","6500300","中和區"
"235072","301-VK","2018/09/27 18:38:47","新北市中和區永和路6號","121.500146666667","25.0027883333333","6500300","中和區"
"235042","KEA-2878","2018/09/27 18:38:41","新北市中和區成功路97巷5弄9號","121.526463333333","24.992055","6500300","中和區"
"235050","4979-A6","2018/09/27 18:38:46","新北市中和區忠孝街160號","121.512661666667","24.9877566666667","6500300","中和區"
"235069","4980-A6","2018/09/27 18:38:40","新北市中和區連城路67號","121.49755","25.0012983333333","6500300","中和區"
"235070","558-UM","2018/09/27 18:38:46","新北市中和區景平路441號","121.500908333333","24.9960616666667","6500300","中和區"
"235045","565-BX","2018/09/27 18:38:38","新北市中和區南山路236巷63弄1號","121.503856666667","24.9875816666667","6500300","中和區"
"235054","640-BX","2018/09/27 18:38:48","新北市中和區民享街91-12號","121.474585","25.0007583333333","6500300","中和區"
"235047","732-UM","2018/09/27 18:38:34","新北市中和區南山路320巷10弄21號","121.506766666667","24.9867183333333","6500300","中和區"
"235046","733-UM","2018/09/27 18:38:53","新北市中和區忠孝街103號","121.512071666667","24.98625","6500300","中和區"
"235062","800-TS","2018/09/27 18:38:32","新北市中和區景平路722-4號","121.496733333333","25.0032133333333","6500300","中和區"
"235057","801-TS","2018/09/27 18:38:49","新北市中和區員山路327巷46號","121.480508333333","25.0017283333333","6500300","中和區"
"235041","802-TS","2018/09/27 18:38:25","新北市中和區宜安路146號","121.50948","24.99858","6500300","中和區"
"235052","805-TS","2018/09/27 18:38:36","新北市中和區興南路三段40號","121.496516666667","24.9778116666667","6500300","中和區"
"235048","896-TW","2018/09/27 18:38:44","新北市中和區南山路160號","121.504511666667","24.9918933333333","6500300","中和區"
"235053","900-TW","2018/09/27 18:38:36","新北市土城區延壽路75巷1號","121.469226666667","24.9926066666667","6500300","中和區"
"235060","911-UM","2018/09/27 18:38:35","新北市中和區中山路二段581號","121.480266666667","25.005805","6500300","中和區"
"235051","157-BY","2018/09/27 18:38:43","新北市中和區華新街113巷4弄16號","121.506943333333","24.9812883333333","6500300","中和區"
"235037","AAC-213","2018/09/27 18:38:41","新北市中和區景德街88號","121.516216666667","24.9914766666667","6500300","中和區"
"235059","AAC-215","2018/09/27 18:38:42","新北市中和區錦和路350-1號","121.490526666667","24.99355","6500300","中和區"
"220068","013-TV","2018/09/27 18:38:38","新北市板橋區民生路二段120號","121.470398333333","25.01955","6500100","板橋區"
"220065","072-UY","2018/09/27 18:38:49","新北市板橋區民族路151巷52號","121.470118333333","25.008455","6500100","板橋區"
"220086","073-UY","2018/09/27 18:38:41","新北市板橋區大智街71巷42弄16號","121.452246666667","25.0147383333333","6500100","板橋區"
"220069","AAD-861","2018/09/27 18:38:42","新北市板橋區華東街1-8號","121.447543333333","24.99509","6500100","板橋區"
"226004","312-R5","2018/09/27 18:38:53","新北市平溪區石底里公園街18-3號","121.733338333333","25.025795","6502400","平溪區"
"235043","251-BX","2018/09/27 18:38:35","新北市中和區景平路147號","121.514031666667","24.9920566666667","6500300","中和區"
"228003","097-TW","2018/09/27 18:38:52","新北市貢寮區和美里龍洞街46號","121.913346666667","25.1124816666667","6502600","貢寮區"
"228001","212-TW","2018/09/27 18:38:35","新北市貢寮區仁理村研海街12-1號","121.923766666667","25.0516533333333","6502600","貢寮區"
"228002","663-BX","2018/09/27 18:38:44","新北市貢寮區福隆里東興街6-11號","121.950761666667","25.0210816666667","6502600","貢寮區"
"224010","AGQ-8101","2018/09/27 18:38:48","新北市瑞芳區烏勢巷116號","121.846258333333","25.10799","6501200","瑞芳區"
"224006","676-BX","2018/09/27 18:38:54","新北市瑞芳區明燈路三段118號","121.80481","25.1084083333333","6501200","瑞芳區"
"224002","639-TC","2018/09/27 18:38:39","新北市瑞芳區三爪子坑路2號","121.810211666667","25.1070516666667","6501200","瑞芳區"
"224008","285-BY","2018/09/27 18:38:47","新北市瑞芳區瑞芳街15號","121.806716666667","25.109805","6501200","瑞芳區"
"224007","275-VK","2018/09/27 18:38:49","新北市瑞芳區大埔路93號","121.76369","25.1013683333333","6501200","瑞芳區"
"224009","273-VK","2018/09/27 18:38:38","新北市瑞芳區祈堂路2號","121.859743333333","25.1117166666667","6501200","瑞芳區"
"224005","271-BY","2018/09/27 18:38:40","新北市瑞芳區瑞濱路34-2號","121.81935","25.119675","6501200","瑞芳區"
"227010","642-TC","2018/09/27 18:38:48","新北市雙溪區牡丹里下坑11號","121.85103","25.0561883333333","6502500","雙溪區"
"227004","400-TW","2018/09/27 18:38:44","新北市雙溪區魚行里坤溪3-5號","121.87621","25.0207266666667","6502500","雙溪區"
"253006","032-BX","2018/09/27 18:38:45","新北市石門區崁子腳28-3號","121.537436666667","25.2893466666667","6502200","石門區"
"253005","295-VK","2018/09/27 18:38:50","新北市石門區石門街39號","121.566355","25.2904433333333","6502200","石門區"
"222001","KEA-2212","2018/09/27 18:38:45","新北市深坑區北深路一段84號","121.636238333333","25.0106516666667","6501800","深坑區"
"208002","KEA-2872","2018/09/27 18:38:35","新北市金山區忠孝一路19巷17號","121.637251666667","25.2175916666667","6502700","金山區"
"208003","665-BX","2018/09/27 18:38:44","新北市金山區中山路230號","121.637136666667","25.2221366666667","6502700","金山區"
"208001","761-BX","2018/09/27 18:38:51","新北市金山區文化三路12巷2-1號","121.636028333333","25.22434","6502700","金山區"
"251001","011-UM","2018/09/27 18:38:39","新北市淡水區自強路166號","121.465548333333","25.1341483333333","6501000","淡水區"
"251013","KEA-2871","2018/09/27 18:38:35","新北市淡水區雲廣坑5-1號","121.474575","25.2123033333333","6501000","淡水區"
"251016","179-VK","2018/09/27 18:38:37","新北市淡水區下圭柔山84號","121.43778","25.2058466666667","6501000","淡水區"
"251015","180-VK","2018/09/27 18:38:43","新北市淡水區興福寮103號","121.485383333333","25.162715","6501000","淡水區"
"251008","181-VK","2018/09/27 18:38:51","新北市淡水區北投子17-1號","121.453931666667","25.183545","6501000","淡水區"
"251010","413-VK","2018/09/27 18:38:44","新北市淡水區沙崙路124號","121.4234","25.1828033333333","6501000","淡水區"
"251012","441-VK","2018/09/27 18:38:35","新北市淡水區北新路117號","121.4489","25.1786","6501000","淡水區"
"251007","442-VK","2018/09/27 18:38:39","新北市淡水區中正東路二段143巷2弄1號","121.460768333333","25.1473816666667","6501000","淡水區"
"251004","443-VK","2018/09/27 18:38:40","新北市淡水區大同路2號","121.461565","25.1407983333333","6501000","淡水區"
"251006","561-UM","2018/09/27 18:38:42","新北市淡水區中山北路二段383號","121.444135","25.18832","6501000","淡水區"
"251011","650-BX","2018/09/27 18:38:41","新北市淡水區鄧公路36巷13號","121.45599","25.16917","6501000","淡水區"
"251002","672-BX","2018/09/27 18:38:38","新北市淡水區中正東路一段3巷14弄1號","121.450965","25.1641666666667","6501000","淡水區"
"251003","766-UM","2018/09/27 18:38:52","新北市淡水區北新路69巷26號","121.446825","25.1799916666667","6501000","淡水區"
"207003","550-UM","2018/09/27 18:38:34","新北市萬里區野柳里港東路160號","121.690025","25.2048016666667","6502800","萬里區"
"207004","225-TW","2018/09/27 18:38:38","新北市萬里區萬里里獅頭路10-1號","121.692113333333","25.1788716666667","6502800","萬里區"
"252002","178-VK","2018/09/27 18:38:36","新北市三芝區民生街64巷13號","121.50368","25.2550583333333","6502100","三芝區"
"252003","249-BX","2018/09/27 18:38:32","新北市三芝區後厝里土地公坑999號","121.464701666667","25.2491583333333","6502100","三芝區"
"252001","292-VK","2018/09/27 18:38:55","新北市三芝區中興街二段260號","121.501895","25.2529166666667","6502100","三芝區"
"237004","KEA-2597","2018/09/27 18:38:45","新北市三峽區五寮1-3號","121.376743333333","24.8720983333333","6500900","三峽區"
"237007","153-BY","2018/09/27 18:38:41","新北市三峽區柑樹路6巷9號","121.36245","24.9049116666667","6500900","三峽區"
"237009","210-TH","2018/09/27 18:38:42","新北市三峽區大同路289號","121.365606666667","24.9252366666667","6500900","三峽區"
"237013","252-BX","2018/09/27 18:38:44","新北市三峽區光明路69巷25號","121.376578333333","24.92917","6500900","三峽區"
"237012","275-BY","2018/09/27 18:38:41","新北市三峽區三樹路278號","121.380073333333","24.9436066666667","6500900","三峽區"
"237008","302-VK","2018/09/27 18:38:43","新北市三峽區白雞141號","121.399226666667","24.9053333333333","6500900","三峽區"
"237014","433-BY","2018/09/27 18:38:43","新北市三峽區和平街68號","121.37043","24.9381166666667","6500900","三峽區"
"237006","5529-G3","2018/09/27 18:38:53","新北市三峽區溪東路313號","121.41049","24.9306333333333","6500900","三峽區"
"237011","KEA-2596","2018/09/27 18:38:51","新北市三峽區溪東路355號","121.411431666667","24.92951","6500900","三峽區"
"237016","649-BX","2018/09/27 18:38:39","新北市三峽區竹崙路68號","121.432198333333","24.9191266666667","6500900","三峽區"
"237010","706-TV","2018/09/27 18:38:33","新北市三峽區復興路485號","121.361318333333","24.938455","6500900","三峽區"
"237005","AKY-6261","2018/09/27 18:38:43","新北市三峽區民生街108號","121.373556666667","24.9353033333333","6500900","三峽區"
"236070","105-UM","2018/09/27 18:38:40","新北市土城區永豐路157巷4號","121.468218333333","24.98153","6501300","土城區"
"236042","107-UM","2018/09/27 18:38:41","新北市土城區學成路130號","121.449158333333","24.98954","6501300","土城區"
"236078","166-UM","2018/09/27 18:38:37","新北市土城區頂埔街57號","121.41726","24.9593","6501300","土城區"
"236030","253-BX","2018/09/27 18:38:45","新北市土城區中央路二段278巷11-2號","121.43964","24.974915","6501300","土城區"
"236026","269-VK","2018/09/27 18:38:49","新北市土城區忠義路53-2號","121.440616666667","24.968575","6501300","土城區"
"236014","270-VK","2018/09/27 18:38:45","新北市土城區青雲路185號","121.45935","24.9826516666667","6501300","土城區"
"236038","271-VK","2018/09/27 18:38:41","新北市土城區青山路2巷1號","121.461065","24.9767816666667","6501300","土城區"
"236021","401-BY","2018/09/27 18:38:40","新北市土城區明德路一段32號","121.465136666667","24.9846566666667","6501300","土城區"
"236059","912-UM","2018/09/27 18:38:45","新北市土城區中央路三段221號","121.429471666667","24.9644216666667","6501300","土城區"
"236049","913-UM","2018/09/27 18:38:46","新北市土城區金城路三段8-2號","121.46451","24.9858316666667","6501300","土城區"
"236063","915-UM","2018/09/27 18:38:39","新北市土城區延壽路13巷34號","121.470125","24.9912583333333","6501300","土城區"
"236055","AAC-216","2018/09/27 18:38:44","新北市土城區裕民路2號","121.446493333333","24.9891433333333","6501300","土城區"
"242058","986-R7","2018/09/27 18:38:43","桃園市龜山區萬壽路一段78號","121.40826","25.0191483333333","6500500","新莊區"
"242025","613-BX","2018/09/27 18:38:42","新北市新莊區中原路399號","121.442045","25.0540916666667","6500500","新莊區"
"242053","442-UM","2018/09/27 18:38:48","新北市樹林區八德街228號","121.413518333333","24.970745","6500500","新莊區"
"242046","400-BY","2018/09/27 18:38:45","新北市新莊區民安路16-24號","121.422235","25.0281233333333","6500500","新莊區"
"242042","133-UY","2018/09/27 18:38:49","新北市新莊區中正路694巷138號","121.415656666667","25.030115","6500500","新莊區"
"238023","601-UM","2018/09/27 18:38:42","新北市樹林區三福街114號","121.406461666667","25.0163266666667","6500700","樹林區"
"238019","599-UM","2018/09/27 18:38:48","新北市樹林區中華路190-16號","121.411735","24.9806266666667","6500700","樹林區"
"238018","571-TV","2018/09/27 18:38:50","新北市樹林區鎮前街18號","121.426123333333","24.9930916666667","6500700","樹林區"
"238024","5061-A6","2018/09/27 18:38:42","新北市樹林區中山路二段162號","121.411981666667","24.9828666666667","6500700","樹林區"
"238025","303-VK","2018/09/27 18:36:00","新北市樹林區中山路三段210-2號","121.38066","24.967495","6500700","樹林區"
"238020","268-VK","2018/09/27 18:38:35","新北市樹林區俊安街68號","121.418428333333","25.0133766666667","6500700","樹林區"
"238026","172-UY","2018/09/27 18:38:46","新北市樹林區八德街1152號","121.390661666667","24.9684883333333","6500700","樹林區"
"238016","169-UY","2018/09/27 18:38:49","新北市樹林區文化街23號","121.41922","24.9875266666667","6500700","樹林區"
"239007","AAC-297","2018/09/27 18:38:38","新北市鶯歌區中正一路阿四巷7-1號","121.368735","24.9576466666667","6500800","鶯歌區"
"239008","527-UM","2018/09/27 18:31:36","新北市鶯歌區國際一路179號","121.336285","24.976395","6500800","鶯歌區"
"239005","526-UM","2018/09/27 18:38:47","新北市鶯歌區鶯桃路668巷29號","121.32899","24.9704233333333","6500800","鶯歌區"
"239001","417-VK","2018/09/27 18:38:50","新北市鶯歌區中正三路193巷11號","121.335988333333","24.9390183333333","6500800","鶯歌區"
"239003","360-BY","2018/09/27 18:38:37","新北市鶯歌區鶯桃路526號","121.331641666667","24.966905","6500800","鶯歌區"
"239002","359-BY","2018/09/27 18:38:37","新北市鶯歌區中正一路434-1號","121.361795","24.957035","6500800","鶯歌區"
"239004","193-VK","2018/09/27 18:38:35","新北市鶯歌區尖山路168巷24號","121.344805","24.9486916666667","6500800","鶯歌區"
"221008","489-VK","2018/09/27 18:38:40","新北市汐止區康寧街901號","121.651465","25.0750716666667","6501100","汐止區"
"221036","130-UY","2018/09/27 18:38:53","新北市汐止區水碓街59號","121.66515","25.068925","6501100","汐止區"
"221015","131-UY","2018/09/27 18:38:41","新北市汐止區鄉友街1號","121.667918333333","25.0806533333333","6501100","汐止區"
"221010","269-BY","2018/09/27 18:38:44","新北市汐止區汐萬路三段256號","121.643908333333","25.1044733333333","6501100","汐止區"
"221012","278-VK","2018/09/27 18:38:35","新北市汐止區保一街39號","121.674225","25.0799366666667","6501100","汐止區"
"221023","279-VK","2018/09/27 18:38:34","新北市汐止區民族二街84號","121.6334","25.07002","6501100","汐止區"
"221032","280-BY","2018/09/27 18:38:40","新北市汐止區福山街58巷18號","121.618005","25.0459983333333","6501100","汐止區"
"221027","281-BY","2018/09/27 18:38:42","新北市汐止區汐萬路一段37號","121.655408333333","25.068605","6501100","汐止區"
"221029","298-VK","2018/09/27 18:38:44","新北市汐止區樟樹一路133巷2號","121.642005","25.065325","6501100","汐止區"
"221021","299-VK","2018/09/27 18:38:44","新北市汐止區新興路61-2號","121.657536666667","25.062545","6501100","汐止區"
"221031","353-TW","2018/09/27 18:38:42","新北市汐止區福德一路274號","121.632125","25.0639733333333","6501100","汐止區"
"221025","623-UM","2018/09/27 18:38:41","新北市汐止區仁愛路119巷2號","121.662701666667","25.0636983333333","6501100","汐止區"
"221038","646-BX","2018/09/27 18:38:43","新北市汐止區汐萬路一段256巷3號","121.653391666667","25.07454","6501100","汐止區"
"221002","707-TV","2018/09/27 18:38:49","新北市汐止區中興路23號","121.636955","25.0596166666667","6501100","汐止區"
"221018","753-BX","2018/09/27 18:38:38","新北市汐止區茄苳路250巷27號","121.67192","25.0676066666667","6501100","汐止區"
"220079","145-BY","2018/09/27 18:38:50","新北市板橋區南雅東路89號","121.45299","25.008615","6500100","板橋區"
"220080","200-UY","2018/09/27 18:38:50","新北市板橋區大觀路二段265巷76弄36號","121.440988333333","24.9968483333333","6500100","板橋區"
"220082","610-BX","2018/09/27 18:38:37","新北市板橋區大觀路三段59巷17弄6-1號","121.435933333333","24.9955066666667","6500100","板橋區"
"220056","276-BY","2018/09/27 18:38:49","新北市板橋區四川路二段橋頭6號","121.448348333333","24.994065","6500100","板橋區"
"220072","277-BY","2018/09/27 18:38:50","新北市板橋區大觀路三段36巷5-2號","121.433403333333","24.99577","6500100","板橋區"
"220071","283-VK","2018/09/27 18:38:47","新北市土城區四川路21號","121.4552","24.9958916666667","6500100","板橋區"
"220094","285-UM","2018/09/27 18:38:46","新北市板橋區民生路二段161巷1號","121.469951666667","25.0198833333333","6500100","板橋區"
"220083","286-VK","2018/09/27 18:38:47","新北市板橋區合安一路77號","121.44791","24.9989316666667","6500100","板橋區"
"220081","287-VK","2018/09/27 18:38:37","新北市板橋區板城路271號","121.449856666667","24.9982133333333","6500100","板橋區"
"220084","296-UM","2018/09/27 18:38:45","新北市板橋區大觀路288號","121.449298333333","24.9983916666667","6500100","板橋區"
"220075","303-R5","2018/09/27 18:38:15","新北市板橋區大觀路二段71號","121.446471666667","25.0023433333333","6500100","板橋區"
"220062","305-R5","2018/09/27 18:38:50","新北市板橋區民生路二段120號","121.470486666667","25.0198516666667","6500100","板橋區"
"220064","486-VK","2018/09/27 18:38:41","新北市板橋區縣民大道一段193號","121.459085","25.0080516666667","6500100","板橋區"
"220035","560-BX","2018/09/27 18:38:48","新北市板橋區南雅西路二段145巷10號","121.451591666667","25.0118966666667","6500100","板橋區"
"220057","686-BX","2018/09/27 18:38:39","新北市板橋區華東街1-9號","121.44823","24.9949416666667","6500100","板橋區"
"220077","687-BX","2018/09/27 18:38:36","新北市板橋區大觀路二段365巷13號","121.44103","24.998055","6500100","板橋區"
"220054","741-BX","2018/09/27 18:38:47","新北市板橋區南雅南路二段122-2號","121.45154","24.9986","6500100","板橋區"
"220089","833-TW","2018/09/27 18:38:37","新北市中和區員山路611巷5弄9號","121.47835","25.0111166666667","6500100","板橋區"
"220074","895-R6","2018/09/27 18:38:47","新北市板橋區南雅南路二段11-1號","121.454171666667","25.0025766666667","6500100","板橋區"
"220073","985-R7","2018/09/27 18:38:37","新北市板橋區南雅南路二段11-21號","121.454473333333","25.001555","6500100","板橋區"
"220097","AAC-210","2018/09/27 18:38:39","新北市板橋區民生路二段161巷9號","121.470163333333","25.0195966666667","6500100","板橋區"
"220070","AAC-253","2018/09/27 18:38:44","新北市板橋區華東街1-9號","121.448251666667","24.99485","6500100","板橋區"
"235068","KEA-2873","2018/09/27 18:38:32","新北市中和區中正路275-5號","121.495496666667","24.9932883333333","6500300","中和區"
"235061","KEA-2875","2018/09/27 18:38:25","新北市中和區民享街114巷27號","121.473448333333","24.9995083333333","6500300","中和區"
