"lineid","car","time","location","longitude","latitude","cityid","cityname"
"234046","148-BY","2018/09/27 18:48:39","新北市永和區秀朗路二段126巷1號","121.524851666667","25.001235","6500400","永和區"
"234007","207-UY","2018/09/27 18:48:45","新北市永和區文化路123號","121.512206666667","25.0153533333333","6500400","永和區"
"234081","298-R6","2018/09/27 18:48:53","新北市永和區永利路73號","121.521406666667","25.003905","6500400","永和區"
"234038","336-UY","2018/09/27 18:48:37","新北市永和區環河東路二段102號","121.52458","25.0105533333333","6500400","永和區"
"234064","337-UY","2018/09/27 18:48:52","新北市永和區福和路1號","121.5254","25.0096766666667","6500400","永和區"
"234086","338-UY","2018/09/27 18:48:37","新北市永和區中正路5號","121.513953333333","24.99553","6500400","永和區"
"234070","552-UM","2018/09/27 18:48:38","新北市永和區竹林路94-1號","121.519498333333","25.0122416666667","6500400","永和區"
"234017","745-BX","2018/09/27 18:48:44","新北市永和區永和路二段405巷3號","121.515318333333","25.0171883333333","6500400","永和區"
"234030","746-BX","2018/09/27 18:48:33","新北市永和區得和路325號","121.523455","24.9996583333333","6500400","永和區"
"234054","KEA-2590","2018/09/27 18:48:51","新北市永和區竹林路64號","121.518241666667","25.0135266666667","6500400","永和區"
"234012","KEA-2591","2018/09/27 18:48:46","新北市永和區永平路284巷45號","121.508653333333","25.0128833333333","6500400","永和區"
"234061","AAD-866","2018/09/27 18:48:41","新北市永和區福和路167號","121.520133333333","25.00768","6500400","永和區"
"234042","862-TW","2018/09/27 18:48:49","新北市永和區永貞路306號","121.51188","25.0048466666667","6500400","永和區"
"234050","863-TW","2018/09/27 18:48:53","新北市永和區環河西路一段51巷1號","121.514043333333","25.0181883333333","6500400","永和區"
"234026","9371-KE","2018/09/27 18:48:54","新北市永和區自由街58號","121.513771666667","25.0059166666667","6500400","永和區"
"234011","9373-KE","2018/09/27 18:48:39","新北市永和區文化路126巷4號","121.513086666667","25.0156083333333","6500400","永和區"
"249005","172-UM","2018/09/27 18:48:34","新北市八里區長道坑16-1號","121.394838333333","25.1167716666667","6502300","八里區"
"249001","173-UM","2018/09/27 18:48:37","新北市八里區龍米路一段360號","121.451568333333","25.1313766666667","6502300","八里區"
"248016","026-BX","2018/09/27 18:48:46","新北市五股區凌雲路一段149巷13-1號","121.448616666667","25.1008716666667","6501500","五股區"
"248006","077-UY","2018/09/27 18:48:33","新北市五股區中興路一段171巷63號","121.465288333333","25.0707683333333","6501500","五股區"
"248008","095-VK","2018/09/27 18:48:50","新北市五股區中興路一段151巷1弄2號","121.465","25.07291","6501500","五股區"
"248020","225-UY","2018/09/27 18:48:45","新北市五股區凌雲路三段41號","121.429585","25.118355","6501500","五股區"
"248012","247-BX","2018/09/27 18:48:50","新北市五股區成泰路二段147巷5-17號","121.437086666667","25.088405","6501500","五股區"
"248014","261-SL","2018/09/27 18:48:44","新北市五股區民義路一段101-3號","121.434136666667","25.0862366666667","6501500","五股區"
"248010","272-BY","2018/09/27 18:48:45","新北市五股區水碓九路22號","121.428128333333","25.0717933333333","6501500","五股區"
"248004","677-BX","2018/09/27 18:48:48","新北市五股區民義路二段52-16號","121.409033333333","25.1056383333333","6501500","五股區"
"248002","678-BX","2018/09/27 18:48:37","新北市五股區西雲路274號","121.449331666667","25.097745","6501500","五股區"
"234023","9380-KE","2018/09/27 18:48:49","新北市永和區竹林路119巷45號","121.521943333333","25.01182","6500400","永和區"
"234077","969-R7","2018/09/27 18:48:45","新北市永和區中正路2巷25號","121.513703333333","24.9934583333333","6500400","永和區"
"234067","AAC-212","2018/09/27 18:48:39","新北市中和區永貞路243號","121.513033333333","25.00391","6500400","永和區"
"232011","375-UM","2018/09/27 18:48:42","新北市坪林區坪林街55號","121.711406666667","24.9375433333333","6502000","坪林區"
"244023","069-UM","2018/09/27 18:48:41","新北市林口區民權路110號","121.373715","25.08286","6501700","林口區"
"244007","080-UY","2018/09/27 18:48:35","新北市林口區後湖60-1號","121.38481","25.1082183333333","6501700","林口區"
"244019","403-UM","2018/09/27 18:48:35","新北市林口區麗園二街87號","121.382695","25.0668616666667","6501700","林口區"
"244013","KEA-2802","2018/09/27 18:48:52","新北市林口區文化一路一段133號","121.373871666667","25.0717883333333","6501700","林口區"
"244017","485-VK","2018/09/27 18:48:49","新北市林口區文化二路一段68巷2號","121.366125","25.0687883333333","6501700","林口區"
"244009","656-BX","2018/09/27 18:48:42","新北市林口區竹林路362巷1號","121.391756666667","25.0846116666667","6501700","林口區"
"244011","701-TV","2018/09/27 18:48:49","新北市林口區中正路57巷12弄18號","121.394835","25.07657","6501700","林口區"
"244025","837-TS","2018/09/27 18:48:42","新北市林口區南勢六街248號","121.356021666667","25.0748416666667","6501700","林口區"
"244021","838-TS","2018/09/27 18:48:50","新北市林口區工六路96號","121.401125","25.0767483333333","6501700","林口區"
"243013","AAD-798","2018/09/27 18:29:54","新北市泰山區明志路三段206巷1號","121.423343333333","25.0379133333333","6501600","泰山區"
"243009","297-R6","2018/09/27 18:48:37","新北市泰山區黎明路25號","121.42206","25.060925","6501600","泰山區"
"243016","KEA-2801","2018/09/27 18:48:49","新北市泰山區明志路一段453-1號","121.430708333333","25.0564266666667","6501600","泰山區"
"243015","421-VK","2018/09/27 18:48:46","新北市泰山區泰林路二段544號","121.423488333333","25.0638166666667","6501600","泰山區"
"243011","KEA-2215","2018/09/27 18:48:51","新北市泰山區公園路4號","121.42994","25.0539716666667","6501600","泰山區"
"243012","646-TV","2018/09/27 18:48:40","新北市泰山區福興三街11號","121.434545","25.0577566666667","6501600","泰山區"
"222003","436-BY","2018/09/27 18:48:39","新北市深坑區深南路1號","121.622231666667","25.005325","6501800","深坑區"
"222002","659-BX","2018/09/27 18:48:40","新北市深坑區文山路一段69號","121.62699","25.0018583333333","6501800","深坑區"
"231059","001-UM","2018/09/27 18:48:40","新北市新店區安華路28-1號","121.519578333333","24.9607316666667","6500600","新店區"
"231041","002-UM","2018/09/27 18:48:48","新北市新店區安華路28-1號","121.519803333333","24.9608716666667","6500600","新店區"
"231040","047-UY","2018/09/27 18:48:46","新北市新店區環河路110號","121.537035","24.9643183333333","6500600","新店區"
"231044","106-UY","2018/09/27 18:48:51","新北市新店區寶中路67號","121.547305","24.98039","6500600","新店區"
"231046","107-UY","2018/09/27 18:48:44","新北市新店區直潭路29號","121.534201666667","24.9427533333333","6500600","新店區"
"231052","110-UY","2018/09/27 18:48:51","新北市新店區新烏路一段245號","121.547791666667","24.930485","6500600","新店區"
"231047","187-VK","2018/09/27 18:48:45","新北市新店區北新路一段72號","121.54135","24.9670433333333","6500600","新店區"
"231054","KEA-2219","2018/09/27 18:48:41","新北市新店區環河路1-2號","121.5381","24.96165","6500600","新店區"
"231057","256-BX","2018/09/27 18:48:36","新北市新店區金興路35號","121.552851666667","24.93145","6500600","新店區"
"231042","268-BY","2018/09/27 18:48:38","新北市新店區安康路一段218號","121.523881666667","24.9635383333333","6500600","新店區"
"231051","278-BY","2018/09/27 18:48:35","新北市新店區中央路63號","121.532683333333","24.9770216666667","6500600","新店區"
"231050","AAD-862","2018/09/27 18:48:44","新北市新店區環河路1-1號","121.537823333333","24.9614966666667","6500600","新店區"
"231058","3713-VJ","2018/09/27 18:48:47","新北市新店區北宜路一段107號","121.539368333333","24.9553583333333","6500600","新店區"
"231066","4716-K9","2018/09/27 18:48:37","新北市新店區安一路一段1-1號","121.519338333333","24.9612533333333","6500600","新店區"
"231056","4715-K9","2018/09/27 18:48:38","新北市新店區大豐路66號","121.539343333333","24.9795433333333","6500600","新店區"
"231067","4772-VM","2018/09/27 18:48:42","新北市新店區安華路1-1號","121.519206666667","24.9605116666667","6500600","新店區"
"231065","512-UM","2018/09/27 18:48:51","新北市新店區安華路16號","121.516953333333","24.95811","6500600","新店區"
"231049","513-UM","2018/09/27 18:48:44","新北市新店區力行路15號","121.537043333333","24.9650766666667","6500600","新店區"
"231063","616-UM","2018/09/27 18:48:51","新北市新店區安華路1-1號","121.51953","24.9604483333333","6500600","新店區"
"231061","619-UM","2018/09/27 18:48:45","新北市新店區安華路28-1號","121.519615","24.9609016666667","6500600","新店區"
"231064","719-UM","2018/09/27 18:48:44","新北市新店區安一路一段1-1號","121.519413333333","24.9610333333333","6500600","新店區"
"231062","720-UM","2018/09/27 18:48:42","新北市新店區安一路一段1-1號","121.51927","24.9611966666667","6500600","新店區"
"231060","897-TW","2018/09/27 18:48:49","新北市新店區安華路28-1號","121.51975","24.960615","6500600","新店區"
"231045","898-TW","2018/09/27 18:48:38","新北市新店區安康路一段78號","121.528165","24.9618866666667","6500600","新店區"
"231043","899-TW","2018/09/27 18:48:38","新北市新店區安華路28-1號","121.519525","24.9610066666667","6500600","新店區"
"231055","AKT-0513","2018/09/27 18:48:45","新北市新店區北新路一段271巷8號","121.540555","24.9667766666667","6500600","新店區"
"251014","742-BX","2018/09/27 18:48:36","新北市淡水區崙頂2號","121.492041666667","25.2239666666667","6501000","淡水區"
"241035","462-BY","2018/09/27 18:48:35","新北市三重區重新路四段121號","121.484683333333","25.05202","6500200","三重區"
"235066","003-UY","2018/09/27 18:48:44","新北市中和區水源路7巷21號","121.503943333333","25.00387","6500300","中和區"
"235064","005-UY","2018/09/27 18:48:46","新北市中和區連城路75巷13號","121.498653333333","24.9983316666667","6500300","中和區"
"235063","006-UY","2018/09/27 18:48:53","新北市中和區連城路355號","121.487858333333","24.996175","6500300","中和區"
"235056","096-UM","2018/09/27 18:48:43","新北市中和區員山路611巷5弄5號","121.478153333333","25.01127","6500300","中和區"
"235039","097-UM","2018/09/27 18:48:37","新北市中和區宜安路52巷23號","121.5126","24.9975016666667","6500300","中和區"
"235065","098-UM","2018/09/27 18:48:43","新北市中和區中山路二段2巷45弄12號","121.502011666667","25.0067033333333","6500300","中和區"
"235040","150-BY","2018/09/27 18:48:50","新北市中和區安平路36巷7號","121.510403333333","24.99471","6500300","中和區"
"235058","151-BY","2018/09/27 18:48:40","新北市中和區連城路593號","121.478506666667","24.99386","6500300","中和區"
"235055","183-VK","2018/09/27 18:48:51","新北市中和區民生街33號","121.470351666667","25.00547","6500300","中和區"
"235038","185-VK","2018/09/27 18:48:39","新北市中和區大勇街48號","121.517703333333","24.9939633333333","6500300","中和區"
"235049","186-VK","2018/09/27 18:48:51","新北市中和區景安路132巷1號","121.504801666667","24.9943333333333","6500300","中和區"
"235067","255-BX","2018/09/27 18:48:42","新北市中和區中正路875號","121.484341666667","25.0040183333333","6500300","中和區"
"235044","293-VK","2018/09/27 18:48:53","新北市中和區中興街115巷9號","121.500486666667","24.9920516666667","6500300","中和區"
"235072","301-VK","2018/09/27 18:48:47","新北市永和區中山路一段320號","121.50658","25.0070683333333","6500300","中和區"
"235042","KEA-2878","2018/09/27 18:48:21","新北市中和區秀朗路三段70巷54號","121.52477","24.994325","6500300","中和區"
"235050","4979-A6","2018/09/27 18:48:46","新北市中和區忠孝街62巷42號","121.513046666667","24.9837566666667","6500300","中和區"
"235069","4980-A6","2018/09/27 18:48:40","新北市中和區南山路111巷3號","121.502596666667","24.9977733333333","6500300","中和區"
"235070","558-UM","2018/09/27 18:48:46","新北市中和區中和路174號","121.504631666667","24.999715","6500300","中和區"
"235045","565-BX","2018/09/27 18:48:38","新北市中和區捷運路102號","121.505568333333","24.9914783333333","6500300","中和區"
"235054","640-BX","2018/09/27 18:48:38","新北市中和區莒光路129巷1弄10號","121.473188333333","25.00235","6500300","中和區"
"235047","732-UM","2018/09/27 18:48:54","新北市中和區興南路二段34巷57弄2號","121.5049","24.9856833333333","6500300","中和區"
"235046","733-UM","2018/09/27 18:48:53","新北市中和區仁愛街36巷34號","121.511105","24.9867283333333","6500300","中和區"
"235062","800-TS","2018/09/27 18:48:52","新北市中和區中山路二段312巷33弄17號","121.494816666667","25.0038733333333","6500300","中和區"
"235057","801-TS","2018/09/27 18:48:49","新北市中和區民安街25巷11號","121.480563333333","25.0003516666667","6500300","中和區"
"235041","802-TS","2018/09/27 18:48:49","新北市中和區宜安路118巷20號","121.510866666667","24.9986216666667","6500300","中和區"
"235052","805-TS","2018/09/27 18:48:49","新北市中和區興南路二段399巷98弄40號","121.498956666667","24.9767533333333","6500300","中和區"
"235048","896-TW","2018/09/27 18:48:44","新北市中和區南山路300號","121.507955","24.9870983333333","6500300","中和區"
"235053","900-TW","2018/09/27 18:48:43","新北市中和區華福街42巷1弄1號","121.466415","24.9963883333333","6500300","中和區"
"235060","911-UM","2018/09/27 18:48:34","新北市中和區中山路三段152-3號","121.473316666667","25.006315","6500300","中和區"
"235051","157-BY","2018/09/27 18:48:43","新北市中和區華新街111號","121.508601666667","24.981445","6500300","中和區"
"235037","AAC-213","2018/09/27 18:48:47","新北市中和區秀朗路三段128巷9弄1號","121.524588333333","24.9931016666667","6500300","中和區"
"235059","AAC-215","2018/09/27 18:48:42","新北市中和區錦和路408號","121.491113333333","24.9897566666667","6500300","中和區"
"220068","013-TV","2018/09/27 18:48:38","新北市板橋區民生路二段89-6號","121.47073","25.0190316666667","6500100","板橋區"
"220065","072-UY","2018/09/27 18:48:49","新北市板橋區民族路247巷5弄42號","121.470153333333","25.0084683333333","6500100","板橋區"
"220086","073-UY","2018/09/27 18:48:41","新北市板橋區大智街71巷3弄1號","121.453503333333","25.0152816666667","6500100","板橋區"
"220106","075-UY","2018/09/27 18:48:50","新北市板橋區民生路二段161巷9號","121.47023","25.019645","6500100","板橋區"
"220069","AAD-861","2018/09/27 18:48:42","新北市板橋區縣民大道一段94巷6號","121.456198333333","25.00483","6500100","板橋區"
"226004","312-R5","2018/09/27 18:48:33","新北市平溪區平溪里三坑路50號","121.733896666667","25.03073","6502400","平溪區"
"235043","251-BX","2018/09/27 18:48:35","新北市中和區成功路139號","121.525826666667","24.9902083333333","6500300","中和區"
"228003","097-TW","2018/09/27 18:48:32","新北市貢寮區和美里龍洞街1-4號","121.918866666667","25.11231","6502600","貢寮區"
"228001","212-TW","2018/09/27 18:48:55","新北市貢寮區仁理村研海街12-1號","121.923768333333","25.0517233333333","6502600","貢寮區"
"228002","663-BX","2018/09/27 18:48:44","新北市貢寮區福隆里東興街6-11號","121.95075","25.0210783333333","6502600","貢寮區"
"224010","AGQ-8101","2018/09/27 18:45:28","新北市瑞芳區烏勢巷145號","121.847395","25.10852","6501200","瑞芳區"
"224006","676-BX","2018/09/27 18:48:47","新北市瑞芳區中正路80-2號","121.805448333333","25.107645","6501200","瑞芳區"
"224002","639-TC","2018/09/27 18:48:39","新北市瑞芳區靜安路四段56巷6號","121.793128333333","25.1021266666667","6501200","瑞芳區"
"224008","285-BY","2018/09/27 18:48:47","新北市瑞芳區裕民新城2號","121.801861666667","25.1119883333333","6501200","瑞芳區"
"224007","275-VK","2018/09/27 18:48:49","新北市瑞芳區大埔路東泰新村2號","121.761305","25.1011916666667","6501200","瑞芳區"
"224009","273-VK","2018/09/27 18:48:38","新北市瑞芳區洞頂路81號","121.863235","25.1186516666667","6501200","瑞芳區"
"224005","271-BY","2018/09/27 18:48:40","新北市瑞芳區濱二路58-1號","121.831678333333","25.1187066666667","6501200","瑞芳區"
"227010","642-TC","2018/09/27 18:48:48","新北市雙溪區牡丹里聖南36號","121.853495","25.0558983333333","6502500","雙溪區"
"227004","400-TW","2018/09/27 18:48:44","新北市雙溪區平林里梅竹蹊28號","121.861658333333","25.0360133333333","6502500","雙溪區"
"253006","032-BX","2018/09/27 18:48:45","新北市石門區下員坑15號","121.511703333333","25.28461","6502200","石門區"
"253005","295-VK","2018/09/27 18:48:50","新北市石門區中山路28-3號","121.565755","25.2898333333333","6502200","石門區"
"222001","KEA-2212","2018/09/27 18:48:45","新北市深坑區松柏街42號","121.638818333333","25.011515","6501800","深坑區"
"208002","KEA-2872","2018/09/27 18:48:34","新北市金山區信義路66號","121.635693333333","25.218885","6502700","金山區"
"208003","665-BX","2018/09/27 18:48:44","新北市金山區中山路352號","121.63324","25.22542","6502700","金山區"
"208001","761-BX","2018/09/27 18:48:31","新北市金山區文化三路66巷2弄1號","121.63431","25.22566","6502700","金山區"
"251009","008-UM","2018/09/27 18:48:41","新北市淡水區重建街226號","121.441343333333","25.174955","6501000","淡水區"
"251001","011-UM","2018/09/27 18:48:39","新北市淡水區自強路299號","121.461655","25.1315566666667","6501000","淡水區"
"251013","KEA-2871","2018/09/27 18:48:35","新北市淡水區安子內5-5號","121.48186","25.2144683333333","6501000","淡水區"
"251016","179-VK","2018/09/27 18:48:37","新北市淡水區下圭柔山71-3號","121.447038333333","25.2062466666667","6501000","淡水區"
"251015","180-VK","2018/09/27 18:48:43","新北市淡水區興福寮88巷17號","121.486628333333","25.164125","6501000","淡水區"
"251010","413-VK","2018/09/27 18:48:44","新北市淡水區沙崙路11號","121.421078333333","25.181295","6501000","淡水區"
"251012","441-VK","2018/09/27 18:48:35","新北市淡水區新興街7號","121.443785","25.1803966666667","6501000","淡水區"
"251007","442-VK","2018/09/27 18:48:39","新北市淡水區中正東路二段143巷2弄1號","121.460736666667","25.1473716666667","6501000","淡水區"
"251011","650-BX","2018/09/27 18:48:41","新北市淡水區學府路9號","121.447468333333","25.1681533333333","6501000","淡水區"
"251002","672-BX","2018/09/27 18:48:38","新北市淡水區學府路19號","121.447671666667","25.1685916666667","6501000","淡水區"
"251003","766-UM","2018/09/27 18:48:52","新北市淡水區中山北路一段212巷38號","121.446155","25.179015","6501000","淡水區"
"207003","550-UM","2018/09/27 18:48:34","新北市萬里區野柳里八斗60號","121.660356666667","25.20719","6502800","萬里區"
"207004","225-TW","2018/09/27 18:48:38","新北市萬里區萬里里獅頭路23號","121.693268333333","25.1782616666667","6502800","萬里區"
"252002","178-VK","2018/09/27 18:48:36","新北市三芝區中正路一段112號","121.504861666667","25.2563666666667","6502100","三芝區"
"252003","249-BX","2018/09/27 18:48:32","新北市三芝區後厝里大片頭83-7號","121.458656666667","25.2432133333333","6502100","三芝區"
"252001","292-VK","2018/09/27 18:48:34","新北市三芝區中正路三段9號","121.502878333333","25.2539616666667","6502100","三芝區"
"237004","KEA-2597","2018/09/27 18:48:45","新北市三峽區插角117號","121.408471666667","24.8704066666667","6500900","三峽區"
"237007","153-BY","2018/09/27 18:48:40","新北市三峽區大埔路159號","121.366586666667","24.9056366666667","6500900","三峽區"
"237009","210-TH","2018/09/27 18:48:42","新北市三峽區弘園街37號","121.36713","24.9276633333333","6500900","三峽區"
"237013","252-BX","2018/09/27 18:48:44","新北市三峽區光明路69巷25號","121.37656","24.9291766666667","6500900","三峽區"
"237012","275-BY","2018/09/27 18:48:41","新北市三峽區三樹路340號","121.383921666667","24.9433833333333","6500900","三峽區"
"237008","302-VK","2018/09/27 18:48:43","新北市三峽區白雞64-10號","121.383425","24.912305","6500900","三峽區"
"237014","433-BY","2018/09/27 18:48:43","新北市三峽區復興路480巷41號","121.359905","24.9401666666667","6500900","三峽區"
"237006","5529-G3","2018/09/27 18:48:44","新北市三峽區溪東路211巷11號","121.405123333333","24.9337183333333","6500900","三峽區"
"237011","KEA-2596","2018/09/27 18:48:51","新北市三峽區溪東路1號","121.399228333333","24.9352366666667","6500900","三峽區"
"237016","649-BX","2018/09/27 18:48:39","新北市三峽區安坑1-12號","121.437893333333","24.9259","6500900","三峽區"
"237010","706-TV","2018/09/27 18:48:53","新北市三峽區復興路447號","121.362661666667","24.9385916666667","6500900","三峽區"
"237005","AKY-6261","2018/09/27 18:48:42","新北市三峽區文化路73號","121.371746666667","24.9360666666667","6500900","三峽區"
"236070","105-UM","2018/09/27 18:48:40","新北市土城區延和路21巷1號","121.464238333333","24.9885333333333","6501300","土城區"
"236042","107-UM","2018/09/27 18:48:41","新北市土城區裕民路92巷25弄6號","121.449683333333","24.9858633333333","6501300","土城區"
"236078","166-UM","2018/09/27 18:48:37","新北市土城區中央路四段67巷6號","121.417701666667","24.9574366666667","6501300","土城區"
"236030","253-BX","2018/09/27 18:48:43","新北市土城區忠義路26巷10號","121.439868333333","24.9699333333333","6501300","土城區"
"236026","269-VK","2018/09/27 18:48:49","新北市土城區和平路7號","121.44275","24.9743283333333","6501300","土城區"
"236014","270-VK","2018/09/27 18:48:45","新北市土城區清水路235巷5弄1號","121.460825","24.9836583333333","6501300","土城區"
"236038","271-VK","2018/09/27 18:48:51","新北市土城區明德路一段156號","121.46305","24.9785383333333","6501300","土城區"
"236021","401-BY","2018/09/27 18:48:40","新北市土城區延吉街253巷5號","121.467765","24.9846016666667","6501300","土城區"
"236059","912-UM","2018/09/27 18:48:37","新北市土城區金城路一段66號","121.443176666667","24.97164","6501300","土城區"
"236049","913-UM","2018/09/27 18:48:46","新北市土城區青雲路37號","121.459833333333","24.987895","6501300","土城區"
"236055","AAC-216","2018/09/27 18:48:44","新北市土城區裕民路165-1號","121.4529","24.9853716666667","6501300","土城區"
"242058","986-R7","2018/09/27 18:48:45","新北市新莊區龍安路2號","121.414086666667","25.02304","6500500","新莊區"
"238023","601-UM","2018/09/27 18:48:42","新北市樹林區工興街14巷1號","121.398845","25.0138366666667","6500700","樹林區"
"238019","599-UM","2018/09/27 18:48:48","新北市樹林區東榮街169號","121.41403","24.9813966666667","6500700","樹林區"
"238024","5061-A6","2018/09/27 18:48:42","新北市樹林區太順街49巷14號","121.418083333333","24.9788833333333","6500700","樹林區"
"238022","KEA-2213","2018/09/27 18:48:47","新北市樹林區中華路379巷78弄15號","121.413003333333","24.9769116666667","6500700","樹林區"
"238025","303-VK","2018/09/27 18:48:40","新北市樹林區中山路三段22號","121.395636666667","24.9729666666667","6500700","樹林區"
"238020","268-VK","2018/09/27 18:48:35","新北市樹林區俊英街282號","121.423731666667","25.0133083333333","6500700","樹林區"
"238026","172-UY","2018/09/27 18:48:46","新北市樹林區中山路三段172號","121.388861666667","24.969995","6500700","樹林區"
"238016","169-UY","2018/09/27 18:47:49","新北市樹林區文化街28號","121.419468333333","24.9878016666667","6500700","樹林區"
"239007","AAC-297","2018/09/27 18:48:38","新北市鶯歌區中正一路建德巷38號","121.364508333333","24.9578133333333","6500800","鶯歌區"
"239008","527-UM","2018/09/27 18:48:42","新北市鶯歌區國際一路179號","121.336226666667","24.9764766666667","6500800","鶯歌區"
"239005","526-UM","2018/09/27 18:48:47","新北市鶯歌區鳳吉三街31巷1號","121.327406666667","24.9739633333333","6500800","鶯歌區"
"239001","417-VK","2018/09/27 18:48:50","新北市鶯歌區鶯桃路96-1號","121.339778333333","24.9536583333333","6500800","鶯歌區"
"239003","360-BY","2018/09/27 18:48:37","新北市鶯歌區鶯桃路658巷135號","121.332788333333","24.9713533333333","6500800","鶯歌區"
"239004","193-VK","2018/09/27 18:48:35","新北市鶯歌區尖山路240巷18號","121.342571666667","24.9471266666667","6500800","鶯歌區"
"221008","489-VK","2018/09/27 18:48:40","新北市汐止區康寧街901號","121.651395","25.0750733333333","6501100","汐止區"
"221036","130-UY","2018/09/27 18:48:41","新北市汐止區忠孝東路314巷19弄6號","121.664605","25.0684166666667","6501100","汐止區"
"221015","131-UY","2018/09/27 18:48:41","新北市汐止區吉祥街12巷12號","121.668873333333","25.0804183333333","6501100","汐止區"
"221010","269-BY","2018/09/27 18:48:44","新北市汐止區汐萬路二段23巷1號","121.649538333333","25.0809083333333","6501100","汐止區"
"221012","278-VK","2018/09/27 18:48:35","新北市汐止區汐萬路一段256巷3號","121.653368333333","25.0745","6501100","汐止區"
"221023","279-VK","2018/09/27 18:48:34","新北市汐止區康寧街901號","121.651233333333","25.075095","6501100","汐止區"
"221032","280-BY","2018/09/27 18:48:40","新北市汐止區橫科路52巷9弄5號","121.61955","25.0502783333333","6501100","汐止區"
"221027","281-BY","2018/09/27 18:48:42","新北市汐止區康寧街901號","121.651446666667","25.0749416666667","6501100","汐止區"
"221029","298-VK","2018/09/27 18:48:44","新北市汐止區樟樹一路87號","121.641785","25.0631183333333","6501100","汐止區"
"221021","299-VK","2018/09/27 18:48:44","新北市汐止區汐萬路一段167-1號","121.65277","25.07098","6501100","汐止區"
"221031","353-TW","2018/09/27 18:48:42","新北市汐止區福德一路300巷23號","121.63065","25.0640983333333","6501100","汐止區"
"221025","623-UM","2018/09/27 18:48:35","新北市汐止區仁愛路87號","121.66151","25.0629833333333","6501100","汐止區"
"221038","646-BX","2018/09/27 18:48:43","新北市汐止區汐萬路一段312號","121.650663333333","25.0752416666667","6501100","汐止區"
"221002","707-TV","2018/09/27 18:48:49","新北市汐止區大同路一段149號","121.632095","25.05613","6501100","汐止區"
"221018","753-BX","2018/09/27 18:48:38","新北市汐止區茄苳路181號","121.670056666667","25.0692166666667","6501100","汐止區"
"220079","145-BY","2018/09/27 18:48:50","新北市板橋區民權路202巷7弄1號","121.459978333333","25.0146416666667","6500100","板橋區"
"220080","200-UY","2018/09/27 18:48:30","新北市板橋區大觀路二段265巷20弄52號","121.441215","24.9980283333333","6500100","板橋區"
"220082","610-BX","2018/09/27 18:48:43","新北市板橋區篤行路三段玉平巷45號","121.428615","24.9868433333333","6500100","板橋區"
"220101","245-BX","2018/09/27 18:48:46","新北市板橋區民生路二段120號","121.4704","25.0196316666667","6500100","板橋區"
"220056","276-BY","2018/09/27 18:48:49","新北市板橋區四川路二段23-3號","121.454655","24.9956816666667","6500100","板橋區"
"220072","277-BY","2018/09/27 18:48:50","新北市板橋區大觀路三段30號","121.434063333333","24.9958066666667","6500100","板橋區"
"220071","283-VK","2018/09/27 18:48:47","新北市板橋區忠孝路196巷27號","121.465548333333","25.00182","6500100","板橋區"
"220094","285-UM","2018/09/27 18:48:47","新北市板橋區民生路二段161巷3號","121.470058333333","25.0197466666667","6500100","板橋區"
"220053","285-VK","2018/09/27 18:48:34","新北市板橋區民生路二段89-6號","121.470643333333","25.0188066666667","6500100","板橋區"
"220083","286-VK","2018/09/27 18:48:47","新北市板橋區僑中二街2號","121.447335","25.0113466666667","6500100","板橋區"
"220081","287-VK","2018/09/27 18:48:37","新北市板橋區光華街13巷32號","121.453131666667","25.0113133333333","6500100","板橋區"
"220090","288-VK","2018/09/27 18:48:41","新北市板橋區民生路二段120號","121.470411666667","25.0196216666667","6500100","板橋區"
"220061","293-UM","2018/09/27 18:48:44","新北市板橋區民生路二段56-6號","121.470711666667","25.0187883333333","6500100","板橋區"
"220103","295-UM","2018/09/27 18:48:35","新北市板橋區民生路二段120號","121.470303333333","25.01978","6500100","板橋區"
"220084","296-UM","2018/09/27 18:48:45","新北市板橋區大觀路二段150巷22號","121.441686666667","24.9995116666667","6500100","板橋區"
"220075","303-R5","2018/09/27 18:48:55","新北市板橋區館前西路221號","121.4543","25.0087216666667","6500100","板橋區"
"220062","305-R5","2018/09/27 18:48:50","新北市板橋區中山路二段25號","121.472488333333","25.0153216666667","6500100","板橋區"
"220098","317-R6","2018/09/27 18:48:49","新北市板橋區民生路二段161巷7號","121.470238333333","25.0196866666667","6500100","板橋區"
"220064","486-VK","2018/09/27 18:48:41","新北市板橋區民生路二段36-1號","121.47212","25.0168066666667","6500100","板橋區"
"220088","491-VK","2018/09/27 18:48:52","新北市板橋區民生路二段171號","121.469843333333","25.02012","6500100","板橋區"
"220035","560-BX","2018/09/27 18:48:48","新北市板橋區中正路325巷41號","121.453438333333","25.01935","6500100","板橋區"
"220063","609-BX","2018/09/27 18:48:41","新北市板橋區民生路二段121號","121.470711666667","25.0185233333333","6500100","板橋區"
"220091","637-BX","2018/09/27 18:48:53","新北市板橋區民生路二段161巷1號","121.469946666667","25.0198716666667","6500100","板橋區"
"220057","686-BX","2018/09/27 18:48:39","新北市板橋區南雅南路二段120-8號","121.452173333333","24.9995266666667","6500100","板橋區"
"220077","687-BX","2018/09/27 18:48:36","新北市板橋區龍興街103巷1號","121.444521666667","25.0033366666667","6500100","板橋區"
"220093","689-BX","2018/09/27 18:48:32","新北市板橋區民生路二段161巷1號","121.470108333333","25.0200833333333","6500100","板橋區"
"220054","741-BX","2018/09/27 18:48:47","新北市板橋區館前西路4-1號","121.459173333333","25.007105","6500100","板橋區"
"220102","KEA-2699","2018/09/27 18:48:43","新北市板橋區民生路二段161巷1號","121.470183333333","25.0200233333333","6500100","板橋區"
"220055","827-TW","2018/09/27 18:48:38","新北市板橋區南雅南路二段120-2號","121.452326666667","24.9997416666667","6500100","板橋區"
"220067","830-TW","2018/09/27 18:48:47","新北市板橋區三民路二段正隆巷56號","121.476768333333","25.0142366666667","6500100","板橋區"
"220089","833-TW","2018/09/27 18:48:39","新北市板橋區三民路二段60號","121.479265","25.0175516666667","6500100","板橋區"
"220074","895-R6","2018/09/27 18:48:47","新北市板橋區館前西路126號","121.456526666667","25.0077983333333","6500100","板橋區"
"220073","985-R7","2018/09/27 18:48:36","新北市板橋區西門街42號","121.454438333333","25.0093866666667","6500100","板橋區"
"220097","AAC-210","2018/09/27 18:48:39","新北市板橋區民生路二段161巷3號","121.470075","25.0197216666667","6500100","板橋區"
"220070","AAC-253","2018/09/27 18:48:43","新北市板橋區華東街270號","121.452698333333","25.0018333333333","6500100","板橋區"
"235068","KEA-2873","2018/09/27 18:48:32","新北市中和區中正路166-1號","121.498325","24.9938733333333","6500300","中和區"
"235061","KEA-2875","2018/09/27 18:48:49","新北市中和區民享街54巷14號","121.473335","25.00238","6500300","中和區"
