"lineid","car","time","location","longitude","latitude","cityid","cityname"
"234046","148-BY","2018/09/27 19:31:18","新北市永和區成功路二段6號","121.526591666667","25.000995","6500400","永和區"
"234007","207-UY","2018/09/27 19:32:25","新北市永和區永和路一段82號","121.51304","25.0065366666667","6500400","永和區"
"234081","298-R6","2018/09/27 19:32:16","新北市永和區福和路5-9號","121.525536666667","25.0083333333333","6500400","永和區"
"234038","336-UY","2018/09/27 19:32:17","新北市永和區成功路二段1巷1號","121.527113333333","25.0014983333333","6500400","永和區"
"234064","337-UY","2018/09/27 19:32:15","新北市永和區中正路368巷1弄65號","121.519981666667","25.0009633333333","6500400","永和區"
"234086","338-UY","2018/09/27 19:32:17","新北市永和區林森路41巷1號","121.525135","25.0047516666667","6500400","永和區"
"234070","552-UM","2018/09/27 19:32:18","新北市永和區竹林路133-3號","121.52022","25.0108066666667","6500400","永和區"
"234017","745-BX","2018/09/27 19:32:05","新北市永和區環河西路一段5-1號","121.515025","25.0180733333333","6500400","永和區"
"234030","746-BX","2018/09/27 19:32:13","新北市永和區民生路83號","121.522578333333","24.9967566666667","6500400","永和區"
"234054","KEA-2590","2018/09/27 19:32:11","新北市永和區竹林路23號","121.517286666667","25.014635","6500400","永和區"
"234013","KEA-2591","2018/09/27 19:32:06","新北市永和區永和路二段32號","121.514706666667","25.0106433333333","6500400","永和區"
"234061","AAD-866","2018/09/27 19:32:21","新北市永和區永貞路155號","121.515483333333","25.003995","6500400","永和區"
"234042","862-TW","2018/09/27 19:32:19","新北市永和區水源街46號","121.510653333333","25.0044166666667","6500400","永和區"
"234050","863-TW","2018/09/27 19:32:13","新北市永和區信義路120號","121.51239","25.0146533333333","6500400","永和區"
"234026","9371-KE","2018/09/27 19:32:14","新北市中和區安樂路215-1號","121.514215","24.99884","6500400","永和區"
"249001","173-UM","2018/09/27 19:24:01","新北市八里區博物館路10-1號","121.41535","25.164175","6502300","八里區"
"249004","303-UY","2018/09/27 19:32:16","新北市八里區博物館路29號","121.41422","25.1629583333333","6502300","八里區"
"249002","305-UY","2018/09/27 19:32:10","新北市八里區龍形一街33巷1-6號","121.449398333333","25.1294316666667","6502300","八里區"
"248016","026-BX","2018/09/27 19:32:12","新北市五股區成泰路三段541號","121.451833333333","25.1016583333333","6501500","五股區"
"248008","095-VK","2018/09/27 19:32:10","新北市五股區中興路一段84號","121.466696666667","25.0731783333333","6501500","五股區"
"248020","225-UY","2018/09/27 19:32:05","新北市五股區凌雲路三段35-1號","121.430743333333","25.117085","6501500","五股區"
"248012","247-BX","2018/09/27 19:32:10","新北市五股區成泰路二段91巷9號","121.437505","25.0842116666667","6501500","五股區"
"248014","261-SL","2018/09/27 19:32:15","新北市五股區民義路一段157-22號","121.431051666667","25.0867566666667","6501500","五股區"
"248010","272-BY","2018/09/27 19:32:19","新北市五股區水碓二路1號","121.430601666667","25.071295","6501500","五股區"
"248004","677-BX","2018/09/27 19:32:08","新北市五股區成泰路二段182號","121.43857","25.0845466666667","6501500","五股區"
"248002","678-BX","2018/09/27 19:32:17","新北市五股區凌雲路一段158巷14-1號","121.447826666667","25.10349","6501500","五股區"
"234077","969-R7","2018/09/27 19:32:05","新北市永和區民族街45號","121.518643333333","24.9984283333333","6500400","永和區"
"234074","AAC-211","2018/09/27 19:32:08","新北市永和區光復街60巷25號","121.517781666667","25.0175066666667","6500400","永和區"
"234067","AAC-212","2018/09/27 19:32:19","新北市永和區永貞路408號","121.508981666667","25.0078416666667","6500400","永和區"
"234003","AAC-295","2018/09/27 19:32:18","新北市永和區自由街3號","121.515063333333","25.007105","6500400","永和區"
"243013","AAD-798","2018/09/27 19:32:19","新北市泰山區貴子路24號","121.425736666667","25.0418883333333","6501600","泰山區"
"243009","297-R6","2018/09/27 19:32:17","新北市泰山區半山雅2號","121.431811666667","25.067375","6501600","泰山區"
"243016","KEA-2801","2018/09/27 19:32:09","新北市泰山區明志路三段352巷10號","121.421231666667","25.0356683333333","6501600","泰山區"
"243015","421-VK","2018/09/27 19:32:06","新北市泰山區民權街17號","121.428441666667","25.0508666666667","6501600","泰山區"
"243011","KEA-2215","2018/09/27 19:32:11","新北市泰山區貴子路140號","121.428815","25.0403966666667","6501600","泰山區"
"243010","KEA-2216","2018/09/27 19:32:11","新北市泰山區民生路17巷38號","121.429411666667","25.05153","6501600","泰山區"
"243012","646-TV","2018/09/27 19:32:20","新北市泰山區全興路285號","121.436793333333","25.05153","6501600","泰山區"
"243014","680-BX","2018/09/27 19:32:07","新北市泰山區仁愛路41號","121.432293333333","25.0551366666667","6501600","泰山區"
"222003","436-BY","2018/09/27 19:32:19","新北市深坑區深南路51-1號","121.621253333333","25.0098016666667","6501800","深坑區"
"222002","659-BX","2018/09/27 19:32:20","新北市深坑區北深路一段177號","121.632448333333","25.0108766666667","6501800","深坑區"
"231059","001-UM","2018/09/27 19:32:20","新北市新店區安和路三段68號","121.517991666667","24.9830683333333","6500600","新店區"
"231041","002-UM","2018/09/27 19:32:19","新北市新店區中正路540-1號","121.53376","24.984475","6500600","新店區"
"231040","047-UY","2018/09/27 19:32:07","新北市新店區北新路一段235號","121.540708333333","24.9657416666667","6500600","新店區"
"231044","106-UY","2018/09/27 19:32:11","新北市新店區北新路二段266號","121.542926666667","24.97835","6500600","新店區"
"231046","107-UY","2018/09/27 19:32:04","新北市新店區北新路二段2號","121.542568333333","24.9707083333333","6500600","新店區"
"231052","110-UY","2018/09/27 19:32:12","新北市新店區新烏路二段385號","121.550866666667","24.9099483333333","6500600","新店區"
"231047","187-VK","2018/09/27 19:32:05","新北市新店區五峰路137號","121.544976666667","24.96575","6500600","新店區"
"231054","KEA-2219","2018/09/27 19:32:21","新北市新店區文中路45號","121.539596666667","24.9566333333333","6500600","新店區"
"231057","256-BX","2018/09/27 19:32:07","新北市新店區花園一路一段33號","121.549873333333","24.9341216666667","6500600","新店區"
"231042","268-BY","2018/09/27 19:32:18","新北市新店區中興路一段136號","121.542033333333","24.9633416666667","6500600","新店區"
"231051","278-BY","2018/09/27 19:32:15","新北市新店區中央五街70號","121.527023333333","24.97575","6500600","新店區"
"231050","AAD-862","2018/09/27 19:32:04","新北市新店區竹林路90號","121.554103333333","24.95015","6500600","新店區"
"231066","4716-K9","2018/09/27 19:32:17","新北市新店區安康路三段438號","121.484998333333","24.9514283333333","6500600","新店區"
"231056","4715-K9","2018/09/27 19:32:18","新北市新店區薏仁坑路自強巷1號","121.496931666667","24.958165","6500600","新店區"
"231067","4772-VM","2018/09/27 19:32:03","新北市新店區薏仁坑路自強巷1號","121.497598333333","24.9577716666667","6500600","新店區"
"231065","512-UM","2018/09/27 19:32:11","新北市新店區安祥路109巷1弄17號","121.476145","24.9598033333333","6500600","新店區"
"231049","513-UM","2018/09/27 19:32:04","新北市新店區北新路三段65巷34弄2號","121.540071666667","24.9812366666667","6500600","新店區"
"231063","616-UM","2018/09/27 19:32:11","新北市新店區達觀路20號","121.501943333333","24.941015","6500600","新店區"
"231061","619-UM","2018/09/27 19:32:05","新北市新店區安康路一段266巷4號","121.520118333333","24.963985","6500600","新店區"
"231064","719-UM","2018/09/27 19:32:04","新北市新店區安忠路23號","121.514411666667","24.9613433333333","6500600","新店區"
"231062","720-UM","2018/09/27 19:32:22","新北市新店區莒光路54號","121.522975","24.9555783333333","6500600","新店區"
"231060","897-TW","2018/09/27 19:32:08","新北市新店區安康路二段51號","121.51427","24.9634233333333","6500600","新店區"
"231045","898-TW","2018/09/27 19:32:18","新北市新店區北宜路二段215號","121.553288333333","24.9534033333333","6500600","新店區"
"231043","899-TW","2018/09/27 19:32:17","新北市新店區北新路二段162號","121.542945","24.9756583333333","6500600","新店區"
"231055","AKT-0513","2018/09/27 19:32:05","新北市新店區力行路14巷14弄1號","121.539196666667","24.9653066666667","6500600","新店區"
"241011","013-R5","2018/09/27 19:32:22","新北市三重區秀江街91號","121.500281666667","25.0723566666667","6500200","三重區"
"241028","022-UY","2018/09/27 19:32:03","新北市三重區中寮街55號","121.492998333333","25.058285","6500200","三重區"
"241008","059-VK","2018/09/27 19:32:17","新北市三重區永福街111巷37弄13號","121.477403333333","25.07654","6500200","三重區"
"241031","061-VK","2018/09/27 19:32:24","新北市三重區集美街69號","121.488608333333","25.05396","6500200","三重區"
"241017","063-VK","2018/09/27 19:32:08","新北市三重區中正北路23號","121.49239","25.0619666666667","6500200","三重區"
"241026","066-VK","2018/09/27 19:32:05","新北市三重區文化南路38-2號","121.500318333333","25.06084","6500200","三重區"
"241003","091-VK","2018/09/27 19:32:22","新北市三重區五華街141巷60號","121.493508333333","25.086705","6500200","三重區"
"251014","742-BX","2018/09/27 19:32:16","新北市淡水區小中寮5號","121.478573333333","25.2345033333333","6501000","淡水區"
"241009","267-UM","2018/09/27 19:32:09","新北市三重區仁美街123號","121.485661666667","25.0813133333333","6500200","三重區"
"241018","268-UM","2018/09/27 19:31:56","新北市三重區大智街65號","121.492516666667","25.0681083333333","6500200","三重區"
"241032","269-UM","2018/09/27 19:32:18","新北市三重區三陽路135號","121.483021666667","25.0588583333333","6500200","三重區"
"241013","270-UM","2018/09/27 19:32:15","新北市三重區仁愛街125巷6號","121.496508333333","25.0754116666667","6500200","三重區"
"241025","271-UM","2018/09/27 19:32:25","新北市三重區頂崁街210巷28弄15號","121.475993333333","25.0668083333333","6500200","三重區"
"241007","398-BY","2018/09/27 19:32:09","新北市三重區慈愛街151號","121.489506666667","25.0794166666667","6500200","三重區"
"241035","462-BY","2018/09/27 19:32:15","新北市三重區長元西街3號","121.498741666667","25.06554","6500200","三重區"
"241020","478-VK","2018/09/27 19:32:18","新北市三重區三和路四段42號","121.49037","25.0744666666667","6500200","三重區"
"241030","480-VK","2018/09/27 19:32:24","新北市三重區環河南路254巷19號","121.49028","25.0510833333333","6500200","三重區"
"241014","543-UM","2018/09/27 19:32:21","新北市三重區長興街63號","121.501171666667","25.0688066666667","6500200","三重區"
"241023","545-UM","2018/09/27 19:32:17","新北市三重區頂崁街139號","121.477678333333","25.0647033333333","6500200","三重區"
"241001","547-UM","2018/09/27 19:32:09","新北市三重區慈愛街151號","121.489526666667","25.0793","6500200","三重區"
"241033","557-UM","2018/09/27 19:23:49","新北市三重區五谷王南街46巷35號","121.475518333333","25.0452133333333","6500200","三重區"
"241019","KEA-2593","2018/09/27 19:32:12","新北市三重區力行路一段89巷4-7號","121.48673","25.0684816666667","6500200","三重區"
"241006","AAD-863","2018/09/27 19:31:24","新北市三重區車路頭街80巷6號","121.483995","25.0737","6500200","三重區"
"241015","743-BX","2018/09/27 19:32:21","新北市三重區三和路一段4號","121.503811666667","25.06441","6500200","三重區"
"241022","887-TS","2018/09/27 19:32:21","新北市三重區忠孝路三段40巷59號","121.48344","25.0653533333333","6500200","三重區"
"241012","941-UM","2018/09/27 19:32:03","新北市三重區河邊北街262號","121.501686666667","25.07643","6500200","三重區"
"241029","942-UM","2018/09/27 19:32:16","新北市三重區大同南路161巷68號","121.49505","25.0551716666667","6500200","三重區"
"235066","003-UY","2018/09/27 19:32:19","新北市中和區景新街130號","121.50532","24.99807","6500300","中和區"
"235063","006-UY","2018/09/27 19:32:13","新北市中和區連勝街131號","121.494885","24.9952733333333","6500300","中和區"
"235056","096-UM","2018/09/27 19:32:03","新北市中和區員山路581巷2號","121.478061666667","25.0095","6500300","中和區"
"235039","097-UM","2018/09/27 19:32:17","新北市中和區秀峰街103巷6弄2號","121.52034","24.9898133333333","6500300","中和區"
"235065","098-UM","2018/09/27 19:32:03","新北市中和區中山路二段2巷5弄4號","121.504388333333","25.0062366666667","6500300","中和區"
"235040","150-BY","2018/09/27 19:31:50","新北市中和區保健路10巷32號","121.50822","24.9964183333333","6500300","中和區"
"235058","151-BY","2018/09/27 19:32:15","新北市中和區中正路637巷52弄1號","121.485431666667","24.9933433333333","6500300","中和區"
"235055","183-VK","2018/09/27 19:32:11","新北市中和區國光街102巷40號","121.471191666667","25.00062","6500300","中和區"
"235038","185-VK","2018/09/27 19:32:19","新北市中和區自立路29巷8號","121.522598333333","24.99576","6500300","中和區"
"235049","186-VK","2018/09/27 19:32:10","新北市中和區景新街273巷14號","121.51005","24.9938983333333","6500300","中和區"
"235067","255-BX","2018/09/27 19:32:22","新北市中和區中正路717號","121.485193333333","24.9986883333333","6500300","中和區"
"235044","293-VK","2018/09/27 19:32:13","新北市中和區捷運路185號","121.505458333333","24.9914233333333","6500300","中和區"
"235050","4979-A6","2018/09/27 19:32:06","新北市中和區中正路458號","121.490521666667","24.9939916666667","6500300","中和區"
"235070","558-UM","2018/09/27 19:32:06","新北市中和區連勝街24號","121.49844","24.9980316666667","6500300","中和區"
"235045","565-BX","2018/09/27 19:32:18","新北市中和區景新街383巷69號","121.514068333333","24.9908716666667","6500300","中和區"
"235054","640-BX","2018/09/27 19:32:18","新北市中和區國光街112巷24弄2號","121.470518333333","25.00245","6500300","中和區"
"235047","732-UM","2018/09/27 19:32:13","新北市中和區景平路259巷34號","121.506941666667","24.9928166666667","6500300","中和區"
"235046","733-UM","2018/09/27 19:32:13","新北市中和區忠孝街37巷30號","121.510798333333","24.98426","6500300","中和區"
"235071","783-BX","2018/09/27 19:32:13","新北市中和區中正路637巷18弄3號","121.484573333333","24.9950516666667","6500300","中和區"
"235057","801-TS","2018/09/27 19:32:09","新北市中和區員山路437-3號","121.48078","25.003925","6500300","中和區"
"235041","802-TS","2018/09/27 19:32:05","新北市中和區中和路400巷12弄2號","121.511415","25.0023833333333","6500300","中和區"
"235052","805-TS","2018/09/27 19:32:16","新北市中和區華新街143巷67弄21號","121.507251666667","24.979145","6500300","中和區"
"235048","896-TW","2018/09/27 19:32:04","新北市中和區忠孝街184號","121.51285","24.988245","6500300","中和區"
"235053","900-TW","2018/09/27 19:32:16","新北市中和區華順街3號","121.46791","24.9987766666667","6500300","中和區"
"235060","911-UM","2018/09/27 19:32:15","新北市中和區新生街45號","121.483403333333","25.00291","6500300","中和區"
"235051","157-BY","2018/09/27 19:32:23","新北市中和區景平路544號","121.502475","24.9946916666667","6500300","中和區"
"235037","AAC-213","2018/09/27 19:32:21","新北市中和區秀朗路三段50巷29弄1號","121.524161666667","24.9951533333333","6500300","中和區"
"235059","AAC-215","2018/09/27 19:32:22","新北市中和區圓通路252巷7號","121.493243333333","24.9915533333333","6500300","中和區"
"220068","013-TV","2018/09/27 19:32:23","新北市板橋區翠華街10巷1號","121.48266","25.0249616666667","6500100","板橋區"
"220065","072-UY","2018/09/27 19:32:09","新北市板橋區國泰街111巷4-2號","121.46572","25.00614","6500100","板橋區"
"220106","075-UY","2018/09/27 19:32:10","新北市板橋區江寧路三段53號","121.47177","25.0320633333333","6500100","板橋區"
"220069","AAD-861","2018/09/27 19:32:06","新北市板橋區貴興路18號","121.457421666667","25.0039883333333","6500100","板橋區"
"247002","893-R6","2018/09/27 19:32:08","新北市五股區凌雲路一段30號","121.452121666667","25.100715","6501400","蘆洲區"
"247014","339-TH","2018/09/27 19:31:52","新北市五股區成泰路三段362號","121.45164","25.0987583333333","6501400","蘆洲區"
"247008","336-TH","2018/09/27 19:31:50","新北市五股區四維路183號","121.46803","25.0753566666667","6501400","蘆洲區"
"247004","002-UY","2018/09/27 19:32:24","新北市蘆洲區長安街191號","121.460353333333","25.0818533333333","6501400","蘆洲區"
"226004","312-R5","2018/09/27 19:32:13","新北市平溪區十分里十分街239號","121.778041666667","25.0441616666667","6502400","平溪區"
"235043","251-BX","2018/09/27 19:32:14","新北市中和區景平路478號","121.505226666667","24.9936966666667","6500300","中和區"
"228003","097-TW","2018/09/27 19:32:12","新北市貢寮區和美里和美街17-1號","121.914065","25.0822183333333","6502600","貢寮區"
"228001","212-TW","2018/09/27 19:32:14","新北市貢寮區真理里延平街68號","121.925373333333","25.05742","6502600","貢寮區"
"224010","AGQ-8101","2018/09/27 19:26:08","新北市瑞芳區烏勢巷145號","121.84725","25.10816","6501200","瑞芳區"
"224002","639-TC","2018/09/27 19:32:19","新北市瑞芳區三爪子坑路13巷22號","121.814141666667","25.1066916666667","6501200","瑞芳區"
"224009","273-VK","2018/09/27 19:32:18","新北市平溪區新寮里五分寮10-3號","121.797348333333","25.0766316666667","6501200","瑞芳區"
"227010","642-TC","2018/09/27 19:32:08","新北市雙溪區新基里新基北街43號","121.868191666667","25.0397116666667","6502500","雙溪區"
"227004","400-TW","2018/09/27 19:32:23","新北市雙溪區雙溪里光復街3號","121.865198333333","25.0354883333333","6502500","雙溪區"
"222001","KEA-2212","2018/09/27 19:32:05","新北市深坑區深坑街10號","121.615931666667","25.0027066666667","6501800","深坑區"
"208002","KEA-2872","2018/09/27 19:32:14","新北市金山區中山路313巷6號","121.635488333333","25.22351","6502700","金山區"
"208003","665-BX","2018/09/27 19:32:04","新北市金山區中山路263巷14號","121.636413333333","25.2216166666667","6502700","金山區"
"208001","761-BX","2018/09/27 19:32:11","新北市金山區環金路462號","121.63024","25.2246533333333","6502700","金山區"
"251009","008-UM","2018/09/27 19:32:21","新北市淡水區水碓街10號","121.443575","25.1769716666667","6501000","淡水區"
"251005","010-UM","2018/09/27 19:32:11","新北市淡水區水源街一段47巷20號","121.443991666667","25.17299","6501000","淡水區"
"251001","011-UM","2018/09/27 19:32:18","新北市淡水區民權路139-1號","121.460076666667","25.1364816666667","6501000","淡水區"
"251013","KEA-2871","2018/09/27 19:32:15","新北市淡水區頂田寮路242號","121.46405","25.2159633333333","6501000","淡水區"
"251016","179-VK","2018/09/27 19:32:16","新北市淡水區下圭柔山119-51號","121.450696666667","25.2084533333333","6501000","淡水區"
"251015","180-VK","2018/09/27 19:32:03","新北市淡水區山子頂22-2號","121.492386666667","25.18857","6501000","淡水區"
"251008","181-VK","2018/09/27 19:32:11","新北市淡水區中正路一段80號","121.424768333333","25.1772983333333","6501000","淡水區"
"251010","413-VK","2018/09/27 19:32:25","新北市淡水區中正路二段214號","121.426541666667","25.1898383333333","6501000","淡水區"
"251012","441-VK","2018/09/27 19:32:15","新北市淡水區崁頂61號","121.439928333333","25.2009283333333","6501000","淡水區"
"251007","442-VK","2018/09/27 19:32:19","新北市淡水區八勢路50巷70號","121.462045","25.14933","6501000","淡水區"
"251006","561-UM","2018/09/27 19:32:02","新北市淡水區大義街27號","121.4426","25.1782983333333","6501000","淡水區"
"251011","650-BX","2018/09/27 19:32:07","新北市淡水區中正東路二段143巷2弄1號","121.460826666667","25.1472916666667","6501000","淡水區"
"251003","766-UM","2018/09/27 19:32:12","新北市淡水區下圭柔山91-4號","121.429661666667","25.208825","6501000","淡水區"
"207003","550-UM","2018/09/27 19:32:14","新北市萬里區大鵬里萬里加投273號","121.644716666667","25.2164666666667","6502800","萬里區"
"207004","225-TW","2018/09/27 19:32:18","新北市萬里區萬里里瑪鋉頂街41號","121.689141666667","25.1787833333333","6502800","萬里區"
"252002","178-VK","2018/09/27 19:32:16","新北市三芝區淡金路二段18-1號","121.502693333333","25.25949","6502100","三芝區"
"252001","292-VK","2018/09/27 19:32:15","新北市三芝區長春街16號","121.49995","25.2565833333333","6502100","三芝區"
"237004","KEA-2597","2018/09/27 19:32:05","新北市三峽區有木206號","121.439073333333","24.85148","6500900","三峽區"
"237007","153-BY","2018/09/27 19:32:20","新北市三峽區二鬮路136巷145號","121.357078333333","24.9106483333333","6500900","三峽區"
"237009","210-TH","2018/09/27 19:32:22","新北市三峽區民權街21號","121.370158333333","24.934325","6500900","三峽區"
"237013","252-BX","2018/09/27 19:32:24","新北市三峽區介壽路一段340號","121.381298333333","24.9302066666667","6500900","三峽區"
"237012","275-BY","2018/09/27 19:32:01","新北市三峽區民生街10號","121.37607","24.936735","6500900","三峽區"
"237008","302-VK","2018/09/27 19:32:23","新北市三峽區大同路154號","121.373131666667","24.9267616666667","6500900","三峽區"
"237014","433-BY","2018/09/27 19:32:03","新北市三峽區中山路63巷6號","121.367028333333","24.9343866666667","6500900","三峽區"
"237006","5529-G3","2018/09/27 19:32:24","新北市三峽區中正路一段336巷15弄2號","121.369961666667","24.924965","6500900","三峽區"
"237011","KEA-2596","2018/09/27 19:32:11","新北市三峽區介壽路一段235號","121.37929","24.930365","6500900","三峽區"
"237016","649-BX","2018/09/27 19:32:19","新北市三峽區安坑35-6號","121.45302","24.9313233333333","6500900","三峽區"
"237005","AKY-6261","2018/09/27 19:32:02","新北市三峽區復興路367巷13號","121.363981666667","24.9376383333333","6500900","三峽區"
"236070","105-UM","2018/09/27 19:32:20","新北市土城區裕民路185巷36弄10號","121.454345","24.9845016666667","6501300","土城區"
"236042","107-UM","2018/09/27 19:32:21","新北市土城區裕民路172號","121.45245","24.9854316666667","6501300","土城區"
"236078","166-UM","2018/09/27 19:32:18","新北市土城區中州路27巷64號","121.412781666667","24.9566733333333","6501300","土城區"
"236030","253-BX","2018/09/27 19:32:03","新北市土城區福祥街42巷11號","121.442123333333","24.98075","6501300","土城區"
"236026","269-VK","2018/09/27 19:32:09","新北市土城區中央路二段61巷22號","121.443221666667","24.978755","6501300","土城區"
"236038","271-VK","2018/09/27 19:32:11","新北市土城區清水路98巷3弄1號","121.45759","24.981355","6501300","土城區"
"236021","401-BY","2018/09/27 19:32:20","新北市土城區峰廷街3號","121.469083333333","24.9873216666667","6501300","土城區"
"236059","912-UM","2018/09/27 19:32:17","新北市土城區中央路二段63號","121.44269","24.978955","6501300","土城區"
"236049","913-UM","2018/09/27 19:32:05","新北市土城區清水路249號","121.462635","24.984115","6501300","土城區"
"236063","915-UM","2018/09/27 19:32:17","新北市土城區延平街22號","121.468283333333","24.9912933333333","6501300","土城區"
"236055","AAC-216","2018/09/27 19:32:04","新北市土城區學府路一段239號","121.450671666667","24.983685","6501300","土城區"
"242036","AAC-296","2018/09/27 19:32:13","新北市新莊區民安西路1號","121.426616666667","25.02205","6500500","新莊區"
"242056","751-BX","2018/09/27 19:32:07","新北市新莊區瓊林路34號","121.448826666667","25.031035","6500500","新莊區"
"242029","705-TV","2018/09/27 19:32:23","新北市新莊區新泰路255巷83號","121.442405","25.0391233333333","6500500","新莊區"
"242048","497-BY","2018/09/27 19:32:25","新北市新莊區後港一路3號","121.42413","25.0263316666667","6500500","新莊區"
"242039","415-TV","2018/09/27 19:32:05","新北市新莊區建國二路108號","121.430833333333","25.02717","6500500","新莊區"
"242023","362-BY","2018/09/27 19:31:36","新北市新莊區中港一街142號","121.446551666667","25.0450083333333","6500500","新莊區"
"242061","353-BY","2018/09/27 19:32:18","新北市新莊區新泰路357巷3弄57號","121.442051666667","25.0391766666667","6500500","新莊區"
"242034","135-UY","2018/09/27 19:32:11","新北市新莊區中正路401號","121.445208333333","25.0342766666667","6500500","新莊區"
"242013","173-VK","2018/09/27 19:32:05","新北市新莊區新泰路502巷57號","121.444463333333","25.0464383333333","6500500","新莊區"
"242031","347-TH","2018/09/27 19:32:06","新北市新莊區新泰路225巷20號","121.445273333333","25.039155","6500500","新莊區"
"242004","349-TH","2018/09/27 19:32:08","新北市新莊區化成路11巷64號","121.462368333333","25.0435333333333","6500500","新莊區"
"238015","755-BX","2018/09/27 19:32:22","新北市樹林區啟智街127巷27號","121.419298333333","24.989955","6500700","樹林區"
"238023","601-UM","2018/09/27 19:32:22","新北市樹林區三福街38號","121.408153333333","25.0165783333333","6500700","樹林區"
"238024","5061-A6","2018/09/27 19:32:22","新北市樹林區福德街48-11號","121.398783333333","24.974795","6500700","樹林區"
"238022","KEA-2213","2018/09/27 19:32:07","新北市樹林區名園街45號","121.419706666667","24.978705","6500700","樹林區"
"238021","KEA-2539","2018/09/27 19:32:21","新北市樹林區學勤路512號","121.382636666667","24.947765","6500700","樹林區"
"238025","303-VK","2018/09/27 19:32:20","新北市樹林區中山路一段163號","121.421713333333","24.9886283333333","6500700","樹林區"
"238017","283-BY","2018/09/27 19:32:08","新北市樹林區光興街8號","121.412523333333","25.0029016666667","6500700","樹林區"
"238014","282-BY","2018/09/27 19:32:04","新北市樹林區保安二街64巷25號","121.424391666667","24.996725","6500700","樹林區"
"238026","172-UY","2018/09/27 19:32:06","新北市樹林區佳園路二段157-1號","121.389846666667","24.95697","6500700","樹林區"
"239006","891-R6","2018/09/27 19:32:20","新北市鶯歌區鶯桃路91巷31弄2衖4號","121.337763333333","24.9518833333333","6500800","鶯歌區"
"239003","360-BY","2018/09/27 19:32:17","新北市鶯歌區中正一路113-1號","121.371011666667","24.958515","6500800","鶯歌區"
"239004","193-VK","2018/09/27 19:32:15","新北市鶯歌區中正三路335巷12號","121.328373333333","24.9349516666667","6500800","鶯歌區"
"221008","489-VK","2018/09/27 19:32:20","新北市汐止區康寧街145號","121.62197","25.0667116666667","6501100","汐止區"
"221036","130-UY","2018/09/27 19:32:21","新北市汐止區康寧街901號","121.651658333333","25.0749166666667","6501100","汐止區"
"221015","131-UY","2018/09/27 19:32:21","新北市汐止區康寧街901號","121.651621666667","25.0749783333333","6501100","汐止區"
"221010","269-BY","2018/09/27 19:32:24","新北市汐止區連峰街1巷1號","121.646405","25.0761866666667","6501100","汐止區"
"221012","278-VK","2018/09/27 19:32:15","新北市汐止區大同路三段451號","121.67868","25.0713033333333","6501100","汐止區"
"221023","279-VK","2018/09/27 19:32:14","新北市汐止區中興路250號","121.629173333333","25.0685716666667","6501100","汐止區"
"221027","281-BY","2018/09/27 19:32:22","新北市汐止區忠孝東路9號","121.65835","25.0659633333333","6501100","汐止區"
"221029","298-VK","2018/09/27 19:32:24","新北市汐止區康寧街901號","121.651516666667","25.074975","6501100","汐止區"
"221021","299-VK","2018/09/27 19:32:04","新北市汐止區康寧街901號","121.651365","25.0750466666667","6501100","汐止區"
"221031","353-TW","2018/09/27 19:32:08","新北市汐止區汐萬路一段256巷3號","121.653343333333","25.07469","6501100","汐止區"
"221035","622-UM","2018/09/27 19:32:13","新北市汐止區康寧街901號","121.651171666667","25.0752333333333","6501100","汐止區"
"221025","623-UM","2018/09/27 19:32:15","新北市汐止區新台五路二段24號","121.660628333333","25.0652266666667","6501100","汐止區"
"221038","646-BX","2018/09/27 19:32:23","新北市汐止區秀峰路60號","121.65945","25.065585","6501100","汐止區"
"221002","707-TV","2018/09/27 19:32:16","新北市汐止區大同路一段333號","121.638406666667","25.0593216666667","6501100","汐止區"
"221018","753-BX","2018/09/27 19:32:18","新北市汐止區康寧街901號","121.650893333333","25.0752633333333","6501100","汐止區"
"220079","145-BY","2018/09/27 19:32:10","新北市板橋區建國街23號","121.458023333333","25.0171416666667","6500100","板橋區"
"220080","200-UY","2018/09/27 19:32:10","新北市板橋區大觀路二段37巷154號","121.449238333333","25.0010933333333","6500100","板橋區"
"220082","610-BX","2018/09/27 19:32:17","新北市板橋區金門街126號","121.432891666667","24.99125","6500100","板橋區"
"220101","245-BX","2018/09/27 19:32:06","新北市板橋區縣民大道三段65號","121.47485","25.02131","6500100","板橋區"
"220056","276-BY","2018/09/27 19:32:18","新北市板橋區信義路1巷26弄44號","121.459115","24.9966633333333","6500100","板橋區"
"220072","277-BY","2018/09/27 19:32:10","新北市板橋區金門街253巷7號","121.43252","24.9885983333333","6500100","板橋區"
"220071","283-VK","2018/09/27 19:32:20","新北市板橋區四川路一段325巷3弄5號","121.45941","25.0004566666667","6500100","板橋區"
"220094","285-UM","2018/09/27 19:32:06","新北市板橋區吳鳳路50巷42弄1號","121.470456666667","25.0303933333333","6500100","板橋區"
"220053","285-VK","2018/09/27 19:32:20","新北市板橋區富山街53巷1弄28號","121.477801666667","25.0201933333333","6500100","板橋區"
"220083","286-VK","2018/09/27 19:32:07","新北市板橋區龍興街65巷21號","121.442955","25.0016433333333","6500100","板橋區"
"220081","287-VK","2018/09/27 19:32:17","新北市板橋區大觀路一段77號","121.447293333333","25.004465","6500100","板橋區"
"220090","288-VK","2018/09/27 19:32:21","新北市板橋區裕民街51號","121.4612","25.0285166666667","6500100","板橋區"
"220061","293-UM","2018/09/27 19:32:04","新北市板橋區成功路6巷16號","121.476495","25.0174566666667","6500100","板橋區"
"220103","295-UM","2018/09/27 19:32:16","新北市板橋區文化路一段288號","121.467395","25.0215983333333","6500100","板橋區"
"220084","296-UM","2018/09/27 19:32:15","新北市板橋區滿平街84巷120弄20號","121.426381666667","24.9857483333333","6500100","板橋區"
"242002","281-VK","2018/09/27 19:32:10","新北市泰山區磚雅厝3號","121.44184","25.0418466666667","6500500","新莊區"
"220075","303-R5","2018/09/27 19:32:15","新北市板橋區南雅西路二段301巷50弄10-2號","121.452348333333","25.0170766666667","6500100","板橋區"
"220062","305-R5","2018/09/27 19:32:10","新北市板橋區三民路二段81巷41號","121.48063","25.01702","6500100","板橋區"
"220092","307-R5","2018/09/27 19:32:22","新北市板橋區光武街4巷14號","121.468286666667","25.0257883333333","6500100","板橋區"
"220098","317-R6","2018/09/27 19:32:09","新北市板橋區民生路三段281巷2弄1號","121.463601666667","25.03","6500100","板橋區"
"220064","486-VK","2018/09/27 19:32:21","新北市板橋區重慶路10號","121.460723333333","25.0080116666667","6500100","板橋區"
"242007","280-VK","2018/09/27 19:32:04","新北市新莊區思源路593巷6弄23號","121.45762","25.05986","6500500","新莊區"
"220088","491-VK","2018/09/27 19:32:12","新北市板橋區雙十路二段227號","121.472961666667","25.0292883333333","6500100","板橋區"
"220035","560-BX","2018/09/27 19:32:08","新北市板橋區中正路332-9號","121.45431","25.02293","6500100","板橋區"
"220063","609-BX","2018/09/27 19:32:21","新北市板橋區萬安街55-1號","121.483836666667","25.023935","6500100","板橋區"
"220091","637-BX","2018/09/27 19:32:13","新北市板橋區文聖街149巷41號","121.480048333333","25.029015","6500100","板橋區"
"220057","686-BX","2018/09/27 19:32:19","新北市板橋區和平路137號","121.462025","24.9947666666667","6500100","板橋區"
"220077","687-BX","2018/09/27 19:32:16","新北市板橋區僑中二街126巷2號","121.445395","25.0052683333333","6500100","板橋區"
"220093","689-BX","2018/09/27 19:32:12","新北市板橋區新海路397號","121.458665","25.0265516666667","6500100","板橋區"
"220054","741-BX","2018/09/27 19:31:28","新北市板橋區忠孝路209號","121.465296666667","25.002765","6500100","板橋區"
"220102","KEA-2699","2018/09/27 19:32:13","新北市板橋區松柏街22巷18-3號","121.474753333333","25.0293533333333","6500100","板橋區"
"220055","827-TW","2018/09/27 19:32:18","新北市板橋區重慶路290巷16號","121.462548333333","24.9988766666667","6500100","板橋區"
"220067","830-TW","2018/09/27 19:32:12","新北市板橋區漢生東路299巷8-2號","121.47212","25.00853","6500100","板橋區"
"220096","831-TW","2018/09/27 19:32:13","新北市板橋區民生路二段226巷46號","121.471593333333","25.0223333333333","6500100","板橋區"
"220089","833-TW","2018/09/27 19:32:19","新北市板橋區公館街252號","121.459966666667","25.021015","6500100","板橋區"
"220074","895-R6","2018/09/27 19:32:07","新北市板橋區北門街5號","121.457645","25.0105033333333","6500100","板橋區"
"220073","985-R7","2018/09/27 19:32:16","新北市板橋區國光路37號","121.457395","25.0177666666667","6500100","板橋區"
"220097","AAC-210","2018/09/27 19:32:19","新北市板橋區新海路2號","121.462728333333","25.0207116666667","6500100","板橋區"
"220070","AAC-253","2018/09/27 19:32:24","新北市板橋區四川路一段140號","121.459895","25.0037266666667","6500100","板橋區"
"235068","KEA-2873","2018/09/27 19:32:02","新北市中和區景平路545巷1弄17號","121.498895","24.9988166666667","6500300","中和區"
"235061","KEA-2875","2018/09/27 19:31:55","新北市中和區民利街31巷2弄12號","121.479696666667","24.9985883333333","6500300","中和區"
