"lineid","car","time","location","longitude","latitude","cityid","cityname"
"247012","KEA-2869","2018/09/27 22:18:11","新北市八里區荖阡坑路28-2號","121.403051666667","25.127685","6501400","蘆洲區"
"251008","181-VK","2018/09/27 22:18:51","新北市淡水區學府路104號","121.449856666667","25.1717783333333","6501000","淡水區"
"251010","413-VK","2018/09/27 22:18:44","新北市淡水區沙崙路200號","121.424728333333","25.18388","6501000","淡水區"
"251007","442-VK","2018/09/27 22:18:39","新北市淡水區北新路180號","121.449475","25.1787983333333","6501000","淡水區"
"251004","443-VK","2018/09/27 22:18:46","新北市淡水區民族路33號","121.462333333333","25.1357233333333","6501000","淡水區"
"251011","650-BX","2018/09/27 22:18:47","新北市淡水區水碓街7號","121.443186666667","25.1771033333333","6501000","淡水區"
