"lineid","car","time","location","longitude","latitude","cityid","cityname"
"248005","653-BX","2018/09/28 07:29:23","新北市五股區明德路8號","121.433378333333","25.0716616666667","6501500","五股區"
"232003","290-BY","2018/09/28 07:29:19","新北市坪林區坪雙路一段82號","121.71737","24.9440683333333","6502000","坪林區"
"232015","291-BY","2018/09/28 07:29:35","新北市坪林區黃舉皮寮3號","121.68797","24.9376183333333","6502000","坪林區"
"232019","705-BZ","2018/09/28 07:29:33","新北市坪林區樟空子10-2號","121.729106666667","24.9745283333333","6502000","坪林區"
"232008","758-BX","2018/09/28 07:29:35","新北市坪林區魚堀9-13號","121.704638333333","24.9066466666667","6502000","坪林區"
"244004","248-BX","2018/09/28 07:29:27","新北市林口區頂福里53-3號","121.34302","25.08741","6501700","林口區"
"222005","289-BY","2018/09/28 07:29:24","新北市深坑區文化街102號","121.616743333333","25.0018366666667","6501800","深坑區"
"231009","192-VK","2018/09/28 07:29:24","新北市新店區安一路一段1-1號","121.51938","24.961315","6500600","新店區"
"235001","611-BX","2018/09/28 07:29:25","新北市中和區圓通路367巷4號","121.491383333333","24.989235","6500300","中和區"
"226005","5620-A6","2018/09/28 07:29:34","新北市平溪區靜安路二段119號","121.72105","25.02384","6502400","平溪區"
"226001","7418-A5","2018/09/28 07:21:18","新北市平溪區望古里灰4-2號","121.763598333333","25.0285016666667","6502400","平溪區"
"226006","AGD-0702","2018/09/28 07:27:42","新北市平溪區嶺腳里嶺腳寮83-2號","121.750281666667","25.0349716666667","6502400","平溪區"
"223006","022-BY","2018/09/28 07:29:22","新北市石碇區崩山15-1號","121.673873333333","24.971635","6501900","石碇區"
"223002","KEA-2673","2018/09/28 07:29:39","新北市石碇區北宜路六段獅子頭坑巷16號","121.642908333333","24.9321316666667","6501900","石碇區"
"223001","592-UM","2018/09/28 07:29:24","新北市石碇區烏塗窟3號","121.654723333333","24.9762033333333","6501900","石碇區"
"223004","660-BX","2018/09/28 07:29:37","新北市石碇區八分寮45-2號","121.641348333333","25.0124916666667","6501900","石碇區"
"223007","661-BX","2018/09/28 07:29:33","新北市石碇區大溪墘8-1號","121.697403333333","25.0075066666667","6501900","石碇區"
"223005","677-TV","2018/09/28 07:29:20","新北市石碇區八分寮55-5號","121.645028333333","25.016415","6501900","石碇區"
"227005","282-VK","2018/09/28 07:29:33","新北市雙溪區新基里中華路115號","121.865861666667","25.0391683333333","6502500","雙溪區"
"237001","159-UY","2018/09/28 07:29:28","新北市三峽區隆恩街245號","121.357695","24.94095","6500900","三峽區"
"242001","233-RS","2018/09/28 07:29:30","新北市新莊區中港路301號","121.452928333333","25.04449","6500500","新莊區"
