"lineid","car","time","location","longitude","latitude","cityid","cityname"
"244005","248-BX","2018/12/01 08:29:18","新北市林口區嘉溪雅坑29號","121.316896666667","25.1196416666667","6501700","林口區"
"222004","289-BY","2018/12/01 08:29:15","新北市深坑區昇高坑路43號","121.629358333333","24.9967716666667","6501800","深坑區"
"231007","189-VK","2018/12/01 08:29:16","新北市新店區新潭路二段120號","121.513458333333","24.9227966666667","6500600","新店區"
"231008","192-VK","2018/12/01 08:29:24","新北市新店區新烏路三段165巷23號","121.55318","24.90193","6500600","新店區"
"235001","611-BX","2018/12/01 08:29:28","新北市中和區民安街42巷36號","121.478986666667","25.0011516666667","6500300","中和區"
"226005","5620-A6","2018/12/01 08:29:26","新北市平溪區南山里六分11-1號","121.797843333333","25.0497916666667","6502400","平溪區"
"226007","7418-A5","2018/12/01 08:29:24","新北市平溪區東勢里芊蓁林47-2號","121.751448333333","25.0119866666667","6502400","平溪區"
"226003","AGD-0702","2018/12/01 08:29:21","新北市平溪區新寮里月桃寮路3-7號","121.786868333333","25.0534083333333","6502400","平溪區"
"223006","022-BY","2018/12/01 08:29:23","新北市石碇區摸乳巷5號","121.65946","24.9845633333333","6501900","石碇區"
"223002","KEA-2673","2018/12/01 08:26:13","新北市深坑區文山路一段8號","121.644308333333","25.0087266666667","6501900","石碇區"
"223003","205-TH","2018/12/01 08:29:33","新北市石碇區北宜路六段塗潭巷15號","121.64985","24.932025","6501900","石碇區"
"223008","406-TH","2018/12/01 08:29:22","新北市石碇區十八重溪6號","121.678133333333","25.0111966666667","6501900","石碇區"
"223004","437-BY","2018/12/01 08:29:14","新北市石碇區崩山3號","121.675975","24.9746983333333","6501900","石碇區"
"223001","592-UM","2018/12/01 08:29:21","新北市石碇區北宜路六段直潭巷6號","121.658745","24.9351083333333","6501900","石碇區"
"223005","677-TV","2018/12/01 08:29:27","新北市石碇區崩山9號","121.676971666667","24.97545","6501900","石碇區"
"227006","282-VK","2018/12/01 08:29:23","新北市雙溪區上林里內平林65號","121.831251666667","25.0275083333333","6502500","雙溪區"
"252004","249-BX","2018/12/01 08:29:32","新北市三芝區興華里車埕2號","121.50118","25.2020466666667","6502100","三芝區"
"252007","AAC-283","2018/12/01 08:29:16","新北市三芝區後厝里番子崙17-3號","121.480963333333","25.2381133333333","6502100","三芝區"
"237001","159-UY","2018/12/01 08:29:21","新北市樹林區學勤路214號","121.377588333333","24.9465433333333","6500900","三峽區"
