"lineid","car","time","location","longitude","latitude","cityid","cityname"
"231007","189-VK","2018/12/01 10:09:16","新北市新店區新潭路三段215巷25號","121.508115","24.9040916666667","6500600","新店區"
"231008","192-VK","2018/12/01 10:03:04","新北市新店區小坑一路71號","121.530681666667","24.9104633333333","6500600","新店區"
"223003","205-TH","2018/12/01 10:09:20","新北市石碇區碇坪路一段57號","121.659636666667","24.9915483333333","6501900","石碇區"
"223008","406-TH","2018/12/01 09:43:48","新北市石碇區小粗坑(潭邊里)9-1號","121.678596666667","24.9853366666667","6501900","石碇區"
"227006","282-VK","2018/12/01 10:09:23","新北市雙溪區長源里柑腳18號","121.804663333333","25.01415","6502500","雙溪區"
"252004","249-BX","2018/12/01 10:09:31","新北市三芝區福德里埔尾10-1號","121.504095","25.244925","6502100","三芝區"
"252007","AAC-283","2018/12/01 10:09:16","新北市三芝區古庄里古庄99-1號","121.493513333333","25.2672066666667","6502100","三芝區"
"237001","159-UY","2018/12/01 09:58:32","新北市三峽區中山路459巷163-1號","121.34929","24.9333983333333","6500900","三峽區"
