"lineid","car","time","location","longitude","latitude","cityid","cityname"
"231007","189-VK","2018/12/01 10:59:16","新北市新店區新潭路二段62巷22號","121.520096666667","24.9276616666667","6500600","新店區"
"231008","192-VK","2018/12/01 10:58:24","新北市新店區松林路19號","121.5476","24.9104883333333","6500600","新店區"
"231042","645-TV","2018/12/01 10:51:21","新北市新店區安康路二段414巷2號","121.496175","24.957845","6500600","新店區"
"227006","282-VK","2018/12/01 10:59:23","新北市雙溪區魚行里坤溪8號","121.866383333333","25.0213366666667","6502500","雙溪區"
"237001","159-UY","2018/12/01 10:59:26","新北市三峽區中山路459巷163-1號","121.34935","24.9335183333333","6500900","三峽區"
