"lineid","car","time","location","longitude","latitude","cityid","cityname"
"231008","192-VK","2018/12/01 11:59:24","新北市新店區薏仁坑路6-1號","121.499931666667","24.9583616666667","6500600","新店區"
"235031","255-BX","2018/12/01 11:43:01","新北市中和區和城路一段271巷1號","121.485933333333","24.9922133333333","6500300","中和區"
"228005","097-TW","2018/12/01 11:59:26","新北市貢寮區貢寮里朝陽街1-2號","121.912326666667","25.0213","6502600","貢寮區"
"228004","212-TW","2018/12/01 11:59:21","新北市貢寮區貢寮里朝陽街1-2號","121.912193333333","25.0213166666667","6502600","貢寮區"
"227006","282-VK","2018/12/01 11:59:23","新北市雙溪區魚行里魚杭1號","121.883806666667","25.0266283333333","6502500","雙溪區"
"237001","159-UY","2018/12/01 11:59:26","新北市三峽區中山路459巷163-1號","121.349295","24.933415","6500900","三峽區"
