"lineid","car","time","location","longitude","latitude","cityid","cityname"
"234040","862-TW","2018/12/01 12:09:18","新北市永和區福和路1號","121.525911666667","25.0096266666667","6500400","永和區"
"235031","255-BX","2018/12/01 11:43:01","新北市中和區和城路一段271巷1號","121.485933333333","24.9922133333333","6500300","中和區"
"228005","097-TW","2018/12/01 12:09:26","新北市貢寮區福隆里興隆街100巷7號","121.934608333333","25.0183533333333","6502600","貢寮區"
"228004","212-TW","2018/12/01 12:09:21","新北市貢寮區貢寮里貢寮街49號","121.90858","25.0195566666667","6502600","貢寮區"
"237001","159-UY","2018/12/01 12:09:26","新北市三峽區中山路459巷163-1號","121.349298333333","24.9334316666667","6500900","三峽區"
