"lineid","car","time","location","longitude","latitude","cityid","cityname"
"234044","148-BY","2018/12/01 12:59:33","新北市永和區得和路373巷31弄9號","121.524771666667","25.00058","6500400","永和區"
"234005","207-UY","2018/12/01 12:59:38","新北市永和區中山路一段27號","121.51344","25.010495","6500400","永和區"
"234078","298-R6","2018/12/01 12:59:25","新北市永和區永亨路80巷2號","121.521391666667","25.0057633333333","6500400","永和區"
"234036","336-UY","2018/12/01 12:59:34","新北市永和區成功路二段199-2號","121.526521666667","24.9960616666667","6500400","永和區"
"234062","337-UY","2018/12/01 12:59:18","新北市永和區秀朗路一段154號","121.518323333333","25.0033633333333","6500400","永和區"
"234068","552-UM","2018/12/01 12:59:37","新北市永和區中興街68巷5弄1號","121.517726666667","25.0115633333333","6500400","永和區"
"234015","745-BX","2018/12/01 12:59:34","新北市永和區永和路二段299號","121.516106666667","25.016165","6500400","永和區"
"234028","746-BX","2018/12/01 12:59:30","新北市永和區秀朗路二段289號","121.526118333333","24.998105","6500400","永和區"
"234012","KEA-2591","2018/12/01 12:59:18","新北市永和區中山路一段60巷10號","121.51323","25.0110733333333","6500400","永和區"
"234060","AAD-866","2018/12/01 12:59:20","新北市永和區福和路316號","121.516161666667","25.007315","6500400","永和區"
"234084","748-BX","2018/12/01 12:59:31","新北市永和區永寧街131巷1號","121.518095","25.0052683333333","6500400","永和區"
"234040","862-TW","2018/12/01 12:59:18","新北市永和區永貞路310號","121.511791666667","25.00487","6500400","永和區"
"234048","863-TW","2018/12/01 12:59:35","新北市永和區保安路2號","121.51077","25.0174766666667","6500400","永和區"
"234022","9372-KE","2018/12/01 12:59:26","新北市永和區竹林路67巷20號","121.519583333333","25.0135483333333","6500400","永和區"
"234025","9371-KE","2018/12/01 12:59:36","新北市永和區秀朗路一段10巷21號","121.513365","25.0062716666667","6500400","永和區"
"234010","9373-KE","2018/12/01 12:59:21","新北市永和區文化路113巷21弄24號","121.513763333333","25.01406","6500400","永和區"
"248017","225-UY","2018/12/01 12:59:28","新北市五股區中興路二段37巷28號","121.460123333333","25.07484","6501500","五股區"
"234076","969-R7","2018/12/01 12:59:29","新北市永和區民享街8號","121.515213333333","24.9954216666667","6500400","永和區"
"234072","AAC-211","2018/12/01 12:59:30","新北市永和區福和路1號","121.526298333333","25.0098183333333","6500400","永和區"
"234066","AAC-212","2018/12/01 12:59:20","新北市永和區自由街38號","121.514028333333","25.0061083333333","6500400","永和區"
"234001","AAC-295","2018/12/01 12:59:28","新北市永和區永平路20號","121.513475","25.0088633333333","6500400","永和區"
"244005","248-BX","2018/12/01 12:59:36","新北市林口區文化一路二段202號","121.383471666667","25.08068","6501700","林口區"
"231005","001-UM","2018/12/01 12:59:07","新北市新店區安華路28-1號","121.519483333333","24.9609433333333","6500600","新店區"
"231028","046-UY","2018/12/01 12:59:31","新北市新店區安華路28-1號","121.519558333333","24.960915","6500600","新店區"
"231001","047-UY","2018/12/01 12:59:20","新北市新店區安華路28-1號","121.51921","24.9608716666667","6500600","新店區"
"231010","107-UY","2018/12/01 12:59:23","新北市新店區安一路一段1-1號","121.519538333333","24.9614616666667","6500600","新店區"
"231020","108-UY","2018/12/01 12:59:37","新北市新店區安華路28-1號","121.51983","24.96086","6500600","新店區"
"231012","187-VK","2018/12/01 12:59:29","新北市新店區安一路一段1-1號","121.51968","24.9611983333333","6500600","新店區"
"231036","260-TV","2018/12/01 12:59:30","新北市新店區安一路一段1-1號","121.519351666667","24.9611866666667","6500600","新店區"
"231003","268-BY","2018/12/01 12:59:32","新北市新店區安華路28-1號","121.519856666667","24.96107","6500600","新店區"
"231017","AAD-862","2018/12/01 12:59:33","新北市新店區安一路一段1-1號","121.519678333333","24.9612766666667","6500600","新店區"
"231025","4715-K9","2018/12/01 12:59:26","新北市新店區安華路28-1號","121.519541666667","24.9605316666667","6500600","新店區"
"231030","619-UM","2018/12/01 12:59:21","新北市新店區安華路28-1號","121.519735","24.96093","6500600","新店區"
"231035","719-UM","2018/12/01 12:59:20","新北市新店區安一路一段1-1號","121.519368333333","24.9613366666667","6500600","新店區"
"231029","897-TW","2018/12/01 12:59:33","新北市新店區安華路28-1號","121.519675","24.96078","6500600","新店區"
"231024","AKT-0513","2018/12/01 12:59:25","新北市新店區安華路28-1號","121.5195","24.96058","6500600","新店區"
"235028","005-UY","2018/12/01 12:59:19","新北市中和區員山路36巷16-3號","121.485015","24.99134","6500300","中和區"
"235027","006-UY","2018/12/01 12:59:20","新北市中和區員山路36巷16-3號","121.484971666667","24.9913733333333","6500300","中和區"
"235029","098-UM","2018/12/01 12:59:18","新北市中和區景平路754號","121.496393333333","25.0044783333333","6500300","中和區"
"235022","151-BY","2018/12/01 12:59:22","新北市中和區圓通路367巷18-5號","121.49185","24.9884616666667","6500300","中和區"
"235002","185-VK","2018/12/01 12:59:23","新北市中和區中正路155號","121.499136666667","24.9936333333333","6500300","中和區"
"235031","255-BX","2018/12/01 12:59:32","新北市中和區中山路二段550號","121.483928333333","25.0053816666667","6500300","中和區"
"235006","551-UM","2018/12/01 12:59:31","新北市中和區員山路36巷16-2號","121.485415","24.9915566666667","6500300","中和區"
"235034","558-UM","2018/12/01 12:59:36","新北市中和區員山路36巷16-2號","121.485168333333","24.9919316666667","6500300","中和區"
"235018","640-BX","2018/12/01 12:59:28","新北市中和區員山路36巷16-3號","121.484725","24.991405","6500300","中和區"
"235035","783-BX","2018/12/01 12:59:35","新北市中和區新生街132號","121.483605","25.00109","6500300","中和區"
"235026","800-TS","2018/12/01 12:59:20","新北市中和區員山路36巷16-3號","121.48483","24.99168","6500300","中和區"
"235016","805-TS","2018/12/01 12:59:21","新北市中和區員山路36巷16號","121.484408333333","24.9914983333333","6500300","中和區"
"235015","157-BY","2018/12/01 12:59:17","新北市中和區和城路一段271巷1號","121.485508333333","24.9919916666667","6500300","中和區"
"235001","AAC-213","2018/12/01 12:59:25","新北市中和區中正路395號","121.48958","24.993535","6500300","中和區"
"228005","097-TW","2018/12/01 12:59:27","新北市貢寮區福隆里東興街31-1號","121.95456","25.02085","6502600","貢寮區"
"228004","212-TW","2018/12/01 12:59:21","新北市貢寮區吉林里內寮街10-1號","121.88728","24.9888733333333","6502600","貢寮區"
"253003","6232-TK","2018/12/01 12:59:37","新北市石門區中山路30-1號","121.566036666667","25.2878683333333","6502200","石門區"
"207002","749-BX","2018/12/01 12:59:32","新北市萬里區雙興里大坪路38-1號","121.627493333333","25.1711166666667","6502800","萬里區"
"252005","073-UM","2018/12/01 12:59:28","新北市三芝區埔坪里埔頭坑107號","121.504608333333","25.2617166666667","6502100","三芝區"
"207001","662-BX","2018/12/01 12:59:29","新北市萬里區萬里里獅頭路23號","121.69318","25.1782283333333","6502800","萬里區"
"237001","159-UY","2018/12/01 12:59:26","新北市三峽區中山路459巷163-1號","121.349321666667","24.9334516666667","6500900","三峽區"
"221010","269-BY","2018/12/01 12:59:31","新北市汐止區忠一街6號","121.62115","25.0729666666667","6501100","汐止區"
"221032","280-BY","2018/12/01 12:59:21","新北市汐止區大同路二段537號","121.66199","25.069235","6501100","汐止區"
"221033","647-BX","2018/12/01 12:59:36","新北市汐止區樟樹一路141巷1號","121.642316666667","25.0662866666667","6501100","汐止區"
"235025","KEA-2875","2018/12/01 12:59:19","新北市中和區員山路36巷16-2號","121.485238333333","24.9916333333333","6500300","中和區"
