"lineid","car","time","location","longitude","latitude","cityid","cityname"
"234044","148-BY","2018/12/01 13:09:33","新北市永和區永元路18巷38弄1號","121.523965","25.0002233333333","6500400","永和區"
"234005","207-UY","2018/12/01 13:09:18","新北市永和區中山路一段215-1號","121.508383333333","25.008085","6500400","永和區"
"234078","298-R6","2018/12/01 13:09:24","新北市永和區永亨路70號","121.521118333333","25.0059933333333","6500400","永和區"
"234036","336-UY","2018/12/01 13:09:34","新北市永和區民樂街84號","121.527316666667","24.9978366666667","6500400","永和區"
"234062","337-UY","2018/12/01 13:09:18","新北市永和區秀朗路二段31號","121.521245","25.002485","6500400","永和區"
"234068","552-UM","2018/12/01 13:09:32","新北市永和區豫溪街137巷1弄11號","121.519175","25.0104133333333","6500400","永和區"
"234015","745-BX","2018/12/01 13:09:34","新北市永和區文化路90巷15號","121.513725","25.0160183333333","6500400","永和區"
"234028","746-BX","2018/12/01 13:09:30","新北市永和區四維街76號","121.523495","24.9983033333333","6500400","永和區"
"234052","KEA-2590","2018/12/01 13:09:33","新北市永和區竹林路78號","121.51924","25.0127416666667","6500400","永和區"
"234012","KEA-2591","2018/12/01 13:09:18","新北市永和區保福路二段6號","121.511006666667","25.0110166666667","6500400","永和區"
"234060","AAD-866","2018/12/01 13:09:20","新北市永和區安樂路342號","121.514508333333","25.00618","6500400","永和區"
"234084","748-BX","2018/12/01 13:09:29","新北市永和區永貞路98號","121.519196666667","25.0045883333333","6500400","永和區"
"234040","862-TW","2018/12/01 13:09:38","新北市永和區永貞路352號","121.510716666667","25.0060233333333","6500400","永和區"
"234048","863-TW","2018/12/01 13:08:39","新北市永和區文化路143號","121.510888333333","25.0159866666667","6500400","永和區"
"234022","9372-KE","2018/12/01 13:09:26","新北市永和區中興街10巷19號","121.515865","25.0112083333333","6500400","永和區"
"234025","9371-KE","2018/12/01 13:09:40","新北市永和區豫溪街28巷3號","121.515308333333","25.00967","6500400","永和區"
"234010","9373-KE","2018/12/01 13:09:21","新北市永和區仁愛路31巷2弄8號","121.513856666667","25.013025","6500400","永和區"
"248017","225-UY","2018/12/01 13:09:28","新北市五股區新城一路12號","121.441226666667","25.0831166666667","6501500","五股區"
"234076","969-R7","2018/12/01 13:09:29","新北市永和區民光街1號","121.515225","24.9964433333333","6500400","永和區"
"234072","AAC-211","2018/12/01 13:09:30","新北市永和區福和路143號","121.520858333333","25.0077016666667","6500400","永和區"
"234066","AAC-212","2018/12/01 13:09:20","新北市永和區永和路一段63號","121.512991666667","25.0069933333333","6500400","永和區"
"234001","AAC-295","2018/12/01 13:09:28","新北市永和區永和路二段35號","121.514416666667","25.0104583333333","6500400","永和區"
"244005","248-BX","2018/12/01 13:09:36","新北市林口區南勢里6鄰77號","121.351346666667","25.07869","6501700","林口區"
"231005","001-UM","2018/12/01 13:09:27","新北市新店區安華路28-1號","121.519496666667","24.9609566666667","6500600","新店區"
"231027","0293-UT","2018/12/01 13:09:26","新北市新店區安華路28-1號","121.519475","24.96052","6500600","新店區"
"231028","046-UY","2018/12/01 13:09:31","新北市新店區安華路28-1號","121.519551666667","24.9608566666667","6500600","新店區"
"231001","047-UY","2018/12/01 13:09:20","新北市新店區安華路28-1號","121.518975","24.9607983333333","6500600","新店區"
"231010","107-UY","2018/12/01 13:09:23","新北市新店區安一路一段1-1號","121.519465","24.961335","6500600","新店區"
"231020","108-UY","2018/12/01 13:09:37","新北市新店區安華路28-1號","121.51977","24.960975","6500600","新店區"
"231012","187-VK","2018/12/01 13:09:29","新北市新店區安一路一段1-1號","121.519553333333","24.9611216666667","6500600","新店區"
"231023","KEA-2219","2018/12/01 13:09:22","新北市新店區安一路一段1-1號","121.51955","24.9610866666667","6500600","新店區"
"231036","260-TV","2018/12/01 13:09:30","新北市新店區安一路一段1-1號","121.519461666667","24.96125","6500600","新店區"
"231003","268-BY","2018/12/01 13:09:32","新北市新店區安華路28-1號","121.519941666667","24.9610633333333","6500600","新店區"
"231017","AAD-862","2018/12/01 13:09:33","新北市新店區安一路一段1-1號","121.519791666667","24.9611433333333","6500600","新店區"
"231037","4716-K9","2018/12/01 13:09:20","新北市新店區安華路28-1號","121.519821666667","24.9606983333333","6500600","新店區"
"231025","4715-K9","2018/12/01 13:09:26","新北市新店區安康路一段113號","121.528556666667","24.9617616666667","6500600","新店區"
"231013","513-UM","2018/12/01 13:09:35","新北市新店區安一路一段1-1號","121.519608333333","24.96114","6500600","新店區"
"231034","616-UM","2018/12/01 13:09:20","新北市新店區安華路28-1號","121.519443333333","24.9605816666667","6500600","新店區"
"231030","619-UM","2018/12/01 13:09:21","新北市新店區安華路28-1號","121.519705","24.9608466666667","6500600","新店區"
"231035","719-UM","2018/12/01 13:09:20","新北市新店區安一路一段1-1號","121.519441666667","24.9611833333333","6500600","新店區"
"231033","720-UM","2018/12/01 13:09:22","新北市新店區安康路一段359-26號","121.518788333333","24.9616816666667","6500600","新店區"
"231029","897-TW","2018/12/01 13:09:33","新北市新店區安華路28-1號","121.519678333333","24.960775","6500600","新店區"
"231006","898-TW","2018/12/01 13:09:22","新北市新店區安華路28-1號","121.5194","24.9608866666667","6500600","新店區"
"231004","899-TW","2018/12/01 13:09:33","新北市新店區安華路28-1號","121.519256666667","24.96086","6500600","新店區"
"231024","AKT-0513","2018/12/01 13:09:25","新北市新店區安華路28-1號","121.519471666667","24.9606083333333","6500600","新店區"
"235030","003-UY","2018/12/01 13:09:21","新北市中和區中山路二段120號","121.502755","25.0036933333333","6500300","中和區"
"235028","005-UY","2018/12/01 13:09:39","新北市中和區中正路277-6號","121.495148333333","24.9937733333333","6500300","中和區"
"235027","006-UY","2018/12/01 13:09:20","新北市中和區員山路36巷16-3號","121.485028333333","24.991325","6500300","中和區"
"235003","097-UM","2018/12/01 13:09:30","新北市中和區中正路637巷60弄61號","121.485446666667","24.9931966666667","6500300","中和區"
"235029","098-UM","2018/12/01 13:09:38","新北市中和區莊敬路49巷20弄20號","121.502668333333","25.00589","6500300","中和區"
"235022","151-BY","2018/12/01 13:09:22","新北市中和區圓通路367巷59弄2號","121.49233","24.9834233333333","6500300","中和區"
"235002","185-VK","2018/12/01 13:09:23","新北市中和區自立路123號","121.521883333333","24.99424","6500300","中和區"
"235031","255-BX","2018/12/01 13:09:32","新北市中和區新生街177巷12號","121.48434","25.0003616666667","6500300","中和區"
"235006","551-UM","2018/12/01 13:09:31","新北市中和區景平路416號","121.508113333333","24.99317","6500300","中和區"
"235034","558-UM","2018/12/01 13:09:36","新北市中和區圓通路176-1號","121.497215","24.994495","6500300","中和區"
"235009","565-BX","2018/12/01 13:09:26","新北市中和區中正路637巷60弄61號","121.485528333333","24.9932316666667","6500300","中和區"
"235018","640-BX","2018/12/01 13:09:28","新北市土城區延壽路55巷1號","121.469816666667","24.9921933333333","6500300","中和區"
"235011","732-UM","2018/12/01 13:09:30","新北市中和區錦和路350-1號","121.490536666667","24.99357","6500300","中和區"
"235035","783-BX","2018/12/01 13:05:55","新北市中和區板南路492-5號","121.485915","25.0075816666667","6500300","中和區"
"235026","800-TS","2018/12/01 13:09:40","新北市中和區錦和路67號","121.48942","24.99826","6500300","中和區"
"235021","801-TS","2018/12/01 13:09:19","新北市中和區員山路36巷16-3號","121.484818333333","24.9916216666667","6500300","中和區"
"235005","802-TS","2018/12/01 13:09:31","新北市中和區錦和路350-1號","121.490486666667","24.993555","6500300","中和區"
"235016","805-TS","2018/12/01 13:09:21","新北市中和區中正路19號","121.502926666667","24.993345","6500300","中和區"
"235012","896-TW","2018/12/01 13:09:25","新北市中和區員山路36巷16-2號","121.48504","24.9918283333333","6500300","中和區"
"235017","900-TW","2018/12/01 13:09:40","新北市中和區員山路36巷16-2號","121.485088333333","24.9918066666667","6500300","中和區"
"235015","157-BY","2018/12/01 13:09:37","新北市中和區興南路一段86號","121.50987","24.9893266666667","6500300","中和區"
"235001","AAC-213","2018/12/01 13:09:25","新北市中和區景平路149號","121.51397","24.992095","6500300","中和區"
"228005","097-TW","2018/12/01 13:09:26","新北市貢寮區仁理村仁和路166號","121.92336","25.0522566666667","6502600","貢寮區"
"228004","212-TW","2018/12/01 13:09:00","新北市貢寮區吉林里內寮街71號","121.892085","24.97308","6502600","貢寮區"
"253003","6232-TK","2018/12/01 13:09:40","新北市石門區石崩山20號","121.566771666667","25.2780216666667","6502200","石門區"
"253004","6251-TK","2018/12/01 13:09:24","新北市石門區阿里荖5號","121.611165","25.2795833333333","6502200","石門區"
"253002","637-UY","2018/12/01 13:09:32","新北市石門區老崩山34-1號","121.556575","25.276205","6502200","石門區"
"253001","KEC-0718","2018/12/01 13:09:27","新北市石門區楓林23-10號","121.538425","25.2920616666667","6502200","石門區"
"207002","749-BX","2018/12/01 13:09:34","新北市萬里區崁腳里內崁路8號","121.64089","25.1596216666667","6502800","萬里區"
"252005","073-UM","2018/12/01 13:09:28","新北市三芝區八賢里八連溪17-2號","121.510783333333","25.2424366666667","6502100","三芝區"
"207001","662-BX","2018/12/01 13:09:29","新北市萬里區萬里里瑪鋉路87-1號","121.6889","25.17714","6502800","萬里區"
"237001","159-UY","2018/12/01 13:09:26","新北市三峽區中山路459巷66號","121.355491666667","24.9363683333333","6500900","三峽區"
"242050","172-VK","2018/12/01 13:08:22","新北市新莊區青山路一段54號","121.409678333333","25.0278066666667","6500500","新莊區"
"221010","269-BY","2018/12/01 13:09:31","新北市汐止區忠三街8號","121.624793333333","25.0784083333333","6501100","汐止區"
"221032","280-BY","2018/12/01 13:09:21","新北市汐止區建成路29號","121.66403","25.0726616666667","6501100","汐止區"
"221033","647-BX","2018/12/01 13:09:17","新北市汐止區工建路208號","121.635803333333","25.06178","6501100","汐止區"
"235025","KEA-2875","2018/12/01 13:09:19","新北市土城區金城路三段259-1號","121.471866666667","24.9901383333333","6500300","中和區"
