"lineid","car","time","location","longitude","latitude","cityid","cityname"
"234044","148-BY","2018/12/01 13:19:40","新北市永和區得和路359號","121.524478333333","24.99953","6500400","永和區"
"234005","207-UY","2018/12/01 13:19:38","新北市永和區中山路一段309號","121.506365","25.0065166666667","6500400","永和區"
"234078","298-R6","2018/12/01 13:19:25","新北市永和區福和路7巷7號","121.525373333333","25.00782","6500400","永和區"
"234036","336-UY","2018/12/01 13:19:34","新北市永和區民樂街53號","121.527465","24.9986066666667","6500400","永和區"
"234062","337-UY","2018/12/01 13:19:39","新北市永和區永元路17巷7弄1號","121.521198333333","25.0004533333333","6500400","永和區"
"234068","552-UM","2018/12/01 13:19:32","新北市永和區中正路603號","121.516433333333","25.0095516666667","6500400","永和區"
"234015","745-BX","2018/12/01 13:19:34","新北市永和區環河西路一段85巷4弄20號","121.511996666667","25.016995","6500400","永和區"
"234028","746-BX","2018/12/01 13:19:30","新北市永和區厚德街91號","121.523915","24.998835","6500400","永和區"
"234052","KEA-2590","2018/12/01 13:19:33","新北市永和區中興街11號","121.515705","25.0120483333333","6500400","永和區"
"234012","KEA-2591","2018/12/01 13:19:38","新北市永和區信義路62號","121.512765","25.0127416666667","6500400","永和區"
"234060","AAD-866","2018/12/01 13:19:20","新北市永和區秀朗路一段173號","121.517073333333","25.0038716666667","6500400","永和區"
"234084","748-BX","2018/12/01 13:19:29","新北市永和區永利路72號","121.520226666667","25.0042383333333","6500400","永和區"
"234040","862-TW","2018/12/01 13:19:18","新北市永和區保平路151巷1弄1號","121.510061666667","25.0056533333333","6500400","永和區"
"234048","863-TW","2018/12/01 13:19:35","新北市永和區仁愛路142號","121.511031666667","25.01339","6500400","永和區"
"234022","9372-KE","2018/12/01 13:19:35","新北市永和區竹林路109巷3號","121.52008","25.0119583333333","6500400","永和區"
"234025","9371-KE","2018/12/01 13:19:36","新北市永和區永和路二段28號","121.514728333333","25.0103216666667","6500400","永和區"
"234010","9373-KE","2018/12/01 13:19:21","新北市永和區忠孝街34巷18號","121.514456666667","25.01685","6500400","永和區"
"248017","225-UY","2018/12/01 13:19:28","新北市五股區御史路160號","121.430016666667","25.10285","6501500","五股區"
"234076","969-R7","2018/12/01 13:19:29","新北市永和區民有街69號","121.517935","24.99577","6500400","永和區"
"234072","AAC-211","2018/12/01 13:19:30","新北市永和區竹林路46號","121.517661666667","25.0142483333333","6500400","永和區"
"234066","AAC-212","2018/12/01 13:19:22","新北市永和區保平路50巷8弄1號","121.511071666667","25.007515","6500400","永和區"
"234001","AAC-295","2018/12/01 13:19:28","新北市永和區中山路一段106號","121.51101","25.0105216666667","6500400","永和區"
"244005","248-BX","2018/12/01 13:19:36","新北市林口區忠孝路53號","121.36516","25.0748733333333","6501700","林口區"
"231005","001-UM","2018/12/01 13:19:27","新北市新店區安華路28-1號","121.519431666667","24.9609766666667","6500600","新店區"
"231002","002-UM","2018/12/01 13:19:35","新北市新店區安華路28-1號","121.519628333333","24.9608516666667","6500600","新店區"
"231027","0293-UT","2018/12/01 13:19:26","新北市新店區安康路一段107-2號","121.528768333333","24.9616783333333","6500600","新店區"
"231028","046-UY","2018/12/01 13:19:31","新北市新店區安華路28-1號","121.519543333333","24.960885","6500600","新店區"
"231001","047-UY","2018/12/01 13:19:20","新北市新店區安一路一段1-1號","121.519173333333","24.961035","6500600","新店區"
"231010","107-UY","2018/12/01 13:19:23","新北市新店區安康路一段355-10號","121.5202","24.963775","6500600","新店區"
"231020","108-UY","2018/12/01 13:19:37","新北市新店區安康路一段227號","121.52568","24.96313","6500600","新店區"
"231012","187-VK","2018/12/01 13:19:29","新北市新店區安一路一段1-1號","121.519526666667","24.96106","6500600","新店區"
"231023","KEA-2219","2018/12/01 13:19:22","新北市新店區安一路一段1-1號","121.519661666667","24.9612516666667","6500600","新店區"
"231026","256-BX","2018/12/01 13:19:22","新北市新店區安一路一段1-1號","121.51961","24.96112","6500600","新店區"
"231036","260-TV","2018/12/01 13:19:30","新北市新店區安一路一段1-1號","121.519601666667","24.96136","6500600","新店區"
"231003","268-BY","2018/12/01 13:19:32","新北市新店區安一路一段1-1號","121.519896666667","24.9611283333333","6500600","新店區"
"231017","AAD-862","2018/12/01 13:19:33","新北市新店區秀山路20號","121.532565","24.9603383333333","6500600","新店區"
"231038","3712-VJ","2018/12/01 13:19:32","新北市新店區安華路28-1號","121.519298333333","24.9605783333333","6500600","新店區"
"231037","4716-K9","2018/12/01 13:19:20","新北市新店區安華路28-1號","121.51963","24.9606533333333","6500600","新店區"
"231025","4715-K9","2018/12/01 13:19:26","新北市新店區中央六街55號","121.527965","24.9758566666667","6500600","新店區"
"231013","513-UM","2018/12/01 13:19:35","新北市新店區安一路一段1-1號","121.519626666667","24.9611483333333","6500600","新店區"
"231034","616-UM","2018/12/01 13:19:40","新北市新店區安華路28-1號","121.519455","24.9606133333333","6500600","新店區"
"231030","619-UM","2018/12/01 13:19:21","新北市新店區安華路28-1號","121.519673333333","24.9606833333333","6500600","新店區"
"231035","719-UM","2018/12/01 13:19:20","新北市新店區安一路一段1-1號","121.519446666667","24.9611883333333","6500600","新店區"
"231018","719-UY","2018/12/01 13:19:34","新北市新店區中央路183-1號","121.536173333333","24.9688183333333","6500600","新店區"
"231033","720-UM","2018/12/01 13:19:22","新北市新店區安一路一段1-1號","121.519246666667","24.9615483333333","6500600","新店區"
"231029","897-TW","2018/12/01 13:19:33","新北市新店區安華路28-1號","121.519651666667","24.9607416666667","6500600","新店區"
"231006","898-TW","2018/12/01 13:19:22","新北市新店區安華路28-1號","121.51943","24.9609483333333","6500600","新店區"
"231004","899-TW","2018/12/01 13:19:33","新北市新店區安華路28-1號","121.519241666667","24.9608","6500600","新店區"
"231024","AKT-0513","2018/12/01 13:19:25","新北市新店區安康路一段3-1號","121.535515","24.9609616666667","6500600","新店區"
"235030","003-UY","2018/12/01 13:19:21","新北市中和區中山路二段120號","121.502696666667","25.0037466666667","6500300","中和區"
"235028","005-UY","2018/12/01 13:19:37","新北市中和區圓通路162-3號","121.497518333333","24.99521","6500300","中和區"
"235027","006-UY","2018/12/01 13:19:40","新北市中和區中正路589巷15號","121.485743333333","24.9936016666667","6500300","中和區"
"235020","096-UM","2018/12/01 13:19:21","新北市中和區員山路36巷13號","121.484328333333","24.99134","6500300","中和區"
"235003","097-UM","2018/12/01 13:19:30","新北市中和區安平路38號","121.509716666667","24.9949333333333","6500300","中和區"
"235029","098-UM","2018/12/01 13:19:38","新北市中和區莊敬路49巷20弄20號","121.50262","25.0057833333333","6500300","中和區"
"235022","151-BY","2018/12/01 13:19:22","新北市中和區圓通路367巷21-1號","121.492395","24.9862733333333","6500300","中和區"
"235019","183-VK","2018/12/01 13:19:28","新北市中和區連城路607號","121.477978333333","24.9931966666667","6500300","中和區"
"235002","185-VK","2018/12/01 13:19:22","新北市中和區大智街42巷32號","121.52274","24.9920416666667","6500300","中和區"
"235013","186-VK","2018/12/01 13:19:17","新北市中和區中正路503號","121.488676666667","24.9935733333333","6500300","中和區"
"235031","255-BX","2018/12/01 13:19:32","新北市中和區員山路146巷19號","121.482516666667","24.9969233333333","6500300","中和區"
"235036","301-VK","2018/12/01 13:19:20","新北市中和區連城路224號","121.491235","24.99646","6500300","中和區"
"235007","352-BY","2018/12/01 13:19:26","新北市中和區中正路271-1號","121.495775","24.9936633333333","6500300","中和區"
"235014","4979-A6","2018/12/01 13:19:34","新北市中和區捷運路61巷5號","121.508826666667","24.9895266666667","6500300","中和區"
"235033","4980-A6","2018/12/01 13:19:22","新北市中和區圓通路284號","121.491506666667","24.990715","6500300","中和區"
"235006","551-UM","2018/12/01 13:19:31","新北市中和區大仁街20巷25弄19號","121.51854","24.9936683333333","6500300","中和區"
"235034","558-UM","2018/12/01 13:19:36","新北市中和區景平路479號","121.500236666667","24.99732","6500300","中和區"
"235009","565-BX","2018/12/01 13:19:26","新北市中和區景安路200巷2弄1號","121.503768333333","24.99154","6500300","中和區"
"235018","640-BX","2018/12/01 13:19:28","新北市中和區民享街86巷28號","121.473316666667","25.000675","6500300","中和區"
"235024","647-TV","2018/12/01 13:19:22","新北市中和區連城路523巷13弄10號","121.481901666667","24.9935433333333","6500300","中和區"
"235011","732-UM","2018/12/01 13:19:30","新北市中和區南山路489號","121.508085","24.9879016666667","6500300","中和區"
"235035","783-BX","2018/12/01 13:19:35","新北市中和區中板路18巷3弄2號","121.483961666667","25.012955","6500300","中和區"
"235026","800-TS","2018/12/01 13:19:20","新北市中和區景平路999巷2號","121.495366666667","25.00601","6500300","中和區"
"235021","801-TS","2018/12/01 13:19:39","新北市中和區員山路169號","121.481171666667","24.9968683333333","6500300","中和區"
"235005","802-TS","2018/12/01 13:19:31","新北市中和區景安路2號","121.50791","24.9991916666667","6500300","中和區"
"235016","805-TS","2018/12/01 13:19:21","新北市中和區興南路二段94號","121.505223333333","24.9842766666667","6500300","中和區"
"235012","896-TW","2018/12/01 13:19:25","新北市中和區員山路36巷16-2號","121.485041666667","24.9919166666667","6500300","中和區"
"235017","900-TW","2018/12/01 13:19:20","新北市中和區員山路36巷16-2號","121.485125","24.99168","6500300","中和區"
"235015","157-BY","2018/12/01 13:19:37","新北市中和區華新街97號","121.508766666667","24.98299","6500300","中和區"
"235001","AAC-213","2018/12/01 13:19:25","新北市中和區景德街74號","121.516725","24.9915","6500300","中和區"
"235023","AAC-215","2018/12/01 13:19:32","新北市中和區員山路36巷16-3號","121.484933333333","24.99134","6500300","中和區"
"247005","337-TH","2018/12/01 13:19:35","新北市五股區中興路三段2巷10號","121.44911","25.08093","6501400","蘆洲區"
"247009","056-VK","2018/12/01 13:19:36","新北市五股區中興路三段2巷10號","121.449095","25.0809733333333","6501400","蘆洲區"
"228005","097-TW","2018/12/01 13:19:36","新北市貢寮區美豐里丹裡街51-6號","121.912875","25.0571983333333","6502600","貢寮區"
"228004","212-TW","2018/12/01 13:19:20","新北市貢寮區吉林里內寮街23號","121.901781666667","24.9839416666667","6502600","貢寮區"
"253003","6232-TK","2018/12/01 13:19:37","新北市石門區內石門85號","121.569311666667","25.2646783333333","6502200","石門區"
"253004","6251-TK","2018/12/01 13:18:44","新北市石門區竹子湖1號","121.612996666667","25.26758","6502200","石門區"
"253002","637-UY","2018/12/01 13:19:32","新北市石門區大溪墘9-7號","121.552795","25.2751333333333","6502200","石門區"
"253001","KEC-0718","2018/12/01 13:19:27","新北市石門區崁子腳18-9號","121.534191666667","25.29001","6502200","石門區"
"207002","749-BX","2018/12/01 13:19:32","新北市萬里區崁腳里崁腳路166號","121.645075","25.1558383333333","6502800","萬里區"
"252005","073-UM","2018/12/01 13:19:28","新北市三芝區八賢里八連溪87號","121.520213333333","25.2293216666667","6502100","三芝區"
"207001","662-BX","2018/12/01 13:19:29","新北市萬里區龜吼里新墾丁路36號","121.679586666667","25.1944","6502800","萬里區"
"237001","159-UY","2018/12/01 13:19:26","新北市三峽區隆恩街158巷42號","121.366931666667","24.9446666666667","6500900","三峽區"
"242050","172-VK","2018/12/01 13:18:42","新北市新莊區中正路新建巷19號","121.414235","25.02229","6500500","新莊區"
"221010","269-BY","2018/12/01 13:19:11","台北市內湖區康樂街235號","121.62285","25.0782966666667","6501100","汐止區"
"221032","280-BY","2018/12/01 13:19:41","新北市汐止區龍安路202巷14號","121.652958333333","25.0631383333333","6501100","汐止區"
"221033","647-BX","2018/12/01 13:19:36","台北市南港區研究院路三段179巷1號","121.61244","25.03086","6501100","汐止區"
"220032","296-UM","2018/12/01 13:19:18","新北市板橋區華東街1-9號","121.448161666667","24.99498","6500100","板橋區"
"220025","687-BX","2018/12/01 13:19:35","新北市板橋區華東街1-10號","121.448416666667","24.9951383333333","6500100","板橋區"
"220012","806-UM","2018/12/01 13:19:39","新北市板橋區華東街1-10號","121.44837","24.99492","6500100","板橋區"
"235032","KEA-2873","2018/12/01 13:19:17","新北市中和區員山路36巷16-3號","121.484981666667","24.99128","6500300","中和區"
"235025","KEA-2875","2018/12/01 13:19:19","新北市中和區莒光路175-2號","121.472735","24.999575","6500300","中和區"
