"lineid","car","time","location","longitude","latitude","cityid","cityname"
"234044","148-BY","2018/12/01 13:59:33","新北市永和區成功路一段2號","121.527041666667","25.005685","6500400","永和區"
"234005","207-UY","2018/12/01 13:59:38","新北市中和區中和路326號","121.509641666667","25.0009766666667","6500400","永和區"
"234078","298-R6","2018/12/01 13:59:25","新北市永和區林森路112巷12弄34號","121.52283","25.00463","6500400","永和區"
"234036","336-UY","2018/12/01 13:59:34","新北市永和區成功路二段98號","121.526595","24.99836","6500400","永和區"
"234062","337-UY","2018/12/01 13:59:19","新北市永和區中正路412巷20弄7號","121.518636666667","25.0018583333333","6500400","永和區"
"234068","552-UM","2018/12/01 13:59:32","新北市永和區國光路51號","121.519005","25.0083016666667","6500400","永和區"
"234015","745-BX","2018/12/01 13:59:34","新北市永和區文化路50號","121.514571666667","25.0151516666667","6500400","永和區"
"234028","746-BX","2018/12/01 13:59:30","新北市永和區民生路47巷44號","121.524906666667","24.99776","6500400","永和區"
"234052","KEA-2590","2018/12/01 13:59:37","新北市永和區竹林路39巷3號","121.51813","25.0143416666667","6500400","永和區"
"234012","KEA-2591","2018/12/01 13:59:38","新北市永和區保生路55號","121.504636666667","25.0106416666667","6500400","永和區"
"234060","AAD-866","2018/12/01 13:59:21","新北市永和區中正路151巷14號","121.515566666667","24.99881","6500400","永和區"
"234084","748-BX","2018/12/01 13:59:29","新北市永和區福和路98號","121.522305","25.008","6500400","永和區"
"234040","862-TW","2018/12/01 13:59:38","新北市永和區中和路335巷18弄17號","121.50791","25.0004833333333","6500400","永和區"
"234048","863-TW","2018/12/01 13:59:16","新北市永和區保安路123號","121.507668333333","25.0137433333333","6500400","永和區"
"234022","9372-KE","2018/12/01 13:59:26","新北市永和區永和路二段168號","121.515385","25.0129666666667","6500400","永和區"
"234025","9371-KE","2018/12/01 13:59:36","新北市永和區安樂路272巷29號","121.515388333333","25.0043033333333","6500400","永和區"
"234010","9373-KE","2018/12/01 13:59:41","新北市永和區仁愛路352巷112弄15號","121.501055","25.0086466666667","6500400","永和區"
"248017","225-UY","2018/12/01 13:59:28","新北市五股區民義路一段220巷32號","121.428425","25.09408","6501500","五股區"
"234076","969-R7","2018/12/01 13:59:29","新北市永和區民權路58巷2弄2號","121.5198","24.99832","6500400","永和區"
"234072","AAC-211","2018/12/01 13:59:30","新北市永和區豫溪街165號","121.52183","25.010485","6500400","永和區"
"234066","AAC-212","2018/12/01 13:59:40","新北市永和區永貞路358號","121.510161666667","25.0065516666667","6500400","永和區"
"234001","AAC-295","2018/12/01 13:59:28","新北市永和區福和路316號","121.51616","25.007335","6500400","永和區"
"231005","001-UM","2018/12/01 13:59:27","新北市新店區中興路三段221-2號","121.543495","24.9825583333333","6500600","新店區"
"231002","002-UM","2018/12/01 13:59:35","新北市新店區中正路630號","121.533895","24.989085","6500600","新店區"
"231027","0293-UT","2018/12/01 13:59:26","新北市新店區中興路一段24-2號","121.538558333333","24.9582533333333","6500600","新店區"
"231028","046-UY","2018/12/01 13:59:31","新北市新店區安和路三段46號","121.517978333333","24.981735","6500600","新店區"
"231001","047-UY","2018/12/01 13:59:20","新北市新店區三民路47號","121.537078333333","24.9709183333333","6500600","新店區"
"231010","107-UY","2018/12/01 13:59:23","新北市新店區環河路66號","121.53681","24.9627883333333","6500600","新店區"
"231020","108-UY","2018/12/01 13:59:37","新北市新店區屈尺路83-2號","121.544453333333","24.9221233333333","6500600","新店區"
"231012","187-VK","2018/12/01 13:59:34","新北市新店區中興路二段57巷8號","121.546096666667","24.9707433333333","6500600","新店區"
"231023","KEA-2219","2018/12/01 13:59:24","新北市新店區文中路54號","121.54012","24.956545","6500600","新店區"
"231026","256-BX","2018/12/01 13:59:22","新北市新店區安康路一段355-3號","121.51958","24.9629833333333","6500600","新店區"
"231036","260-TV","2018/12/01 13:59:30","新北市新店區安祥路147巷27號","121.475895","24.956575","6500600","新店區"
"231003","268-BY","2018/12/01 13:59:32","新北市新店區光明街138巷13弄1號","121.540286666667","24.9611466666667","6500600","新店區"
"231017","AAD-862","2018/12/01 13:59:33","新北市新店區郵政路1巷6號","121.557378333333","24.95211","6500600","新店區"
"231038","3712-VJ","2018/12/01 13:59:32","新北市新店區安華路30巷3號","121.519585","24.9592166666667","6500600","新店區"
"231037","4716-K9","2018/12/01 13:59:20","新北市新店區安康路三段355巷11號","121.484821666667","24.950505","6500600","新店區"
"231025","4715-K9","2018/12/01 13:59:26","新北市新店區中正路328巷40號","121.538086666667","24.9763983333333","6500600","新店區"
"231013","513-UM","2018/12/01 13:59:35","新北市新店區明德路64號","121.541553333333","24.979475","6500600","新店區"
"231034","616-UM","2018/12/01 13:59:20","新北市新店區達觀路40號","121.503778333333","24.938865","6500600","新店區"
"231030","619-UM","2018/12/01 13:59:21","新北市新店區吉安街37-1號","121.515735","24.9661483333333","6500600","新店區"
"231035","719-UM","2018/12/01 13:59:20","新北市新店區安康路二段1-5號","121.517018333333","24.96386","6500600","新店區"
"231018","719-UY","2018/12/01 13:59:33","新北市新店區中央路133巷11號","121.531023333333","24.9735483333333","6500600","新店區"
"231033","720-UM","2018/12/01 13:59:22","新北市新店區青山路399巷2號","121.524801666667","24.9530566666667","6500600","新店區"
"231029","897-TW","2018/12/01 13:59:33","新北市新店區安康路二段90號","121.513813333333","24.96316","6500600","新店區"
"231006","898-TW","2018/12/01 13:59:22","新北市新店區北宜路二段207號","121.553118333333","24.9534566666667","6500600","新店區"
"231004","899-TW","2018/12/01 13:59:33","新北市新店區北新路二段137號","121.542895","24.97561","6500600","新店區"
"231024","AKT-0513","2018/12/01 13:59:25","新北市新店區新生街13巷26號","121.539036666667","24.966505","6500600","新店區"
"235030","003-UY","2018/12/01 13:59:21","新北市中和區中山路二段131巷5弄7號","121.502938333333","25.0029566666667","6500300","中和區"
"235028","005-UY","2018/12/01 13:59:29","新北市中和區泰和街30巷30號","121.49885","25.00143","6500300","中和區"
"235027","006-UY","2018/12/01 13:59:40","新北市中和區中正路538號","121.487548333333","24.9945","6500300","中和區"
"235020","096-UM","2018/12/01 13:59:21","新北市板橋區三民路二段228號","121.47883","25.0113833333333","6500300","中和區"
"235003","097-UM","2018/12/01 13:59:30","新北市中和區秀朗路三段179號","121.524418333333","24.990665","6500300","中和區"
"235029","098-UM","2018/12/01 13:59:38","新北市中和區福祥路133號","121.498411666667","25.0072783333333","6500300","中和區"
"235004","150-BY","2018/12/01 13:59:22","新北市中和區保健路67巷6弄13號","121.510236666667","24.9971766666667","6500300","中和區"
"235022","151-BY","2018/12/01 13:59:22","新北市中和區連城路583巷1號","121.47882","24.9941116666667","6500300","中和區"
"235019","183-VK","2018/12/01 13:59:28","新北市中和區德光路13號","121.471135","25.0044183333333","6500300","中和區"
"235002","185-VK","2018/12/01 13:59:22","新北市中和區立人街20號","121.519085","24.9942133333333","6500300","中和區"
"235013","186-VK","2018/12/01 13:59:36","新北市中和區景安路167巷15號","121.50618","24.9948516666667","6500300","中和區"
"235031","255-BX","2018/12/01 13:59:32","新北市中和區新生街268號","121.4835","24.9971783333333","6500300","中和區"
"235008","293-VK","2018/12/01 13:59:40","新北市中和區中興街161巷4弄2號","121.500511666667","24.99087","6500300","中和區"
"235036","301-VK","2018/12/01 13:59:20","新北市中和區中山路二段132號","121.5023","25.0033533333333","6500300","中和區"
"235007","352-BY","2018/12/01 13:59:26","新北市中和區秀朗路三段103號","121.526501666667","24.9948","6500300","中和區"
"247011","KEA-2869","2018/12/01 13:59:35","新北市蘆洲區民族路95號","121.479573333333","25.0863283333333","6501400","蘆洲區"
"235014","4979-A6","2018/12/01 13:59:31","新北市中和區忠孝街39號","121.511551666667","24.983855","6500300","中和區"
"235033","4980-A6","2018/12/01 13:59:22","新北市中和區圓通路107號","121.499516666667","24.9965866666667","6500300","中和區"
"235006","551-UM","2018/12/01 13:59:36","新北市中和區秀朗路三段18號","121.526306666667","24.9963783333333","6500300","中和區"
"235034","558-UM","2018/12/01 13:59:36","新北市中和區中和路174號","121.50476","24.9997216666667","6500300","中和區"
"235009","565-BX","2018/12/01 13:59:26","新北市中和區景新街467巷20弄154號","121.515013333333","24.9876333333333","6500300","中和區"
"235018","640-BX","2018/12/01 13:59:28","新北市中和區民享街75號","121.474251666667","25.0019916666667","6500300","中和區"
"235024","647-TV","2018/12/01 13:59:22","新北市中和區民治街9巷1號","121.47512","25.004565","6500300","中和區"
"235011","732-UM","2018/12/01 13:59:30","新北市中和區興南路二段54巷2-8號","121.506026666667","24.98558","6500300","中和區"
"235010","733-UM","2018/12/01 13:59:31","新北市中和區興南路一段135巷22弄14號","121.508946666667","24.986665","6500300","中和區"
"235035","783-BX","2018/12/01 13:59:35","新北市中和區建一路179號","121.488241666667","24.9986616666667","6500300","中和區"
"235026","800-TS","2018/12/01 13:59:40","新北市中和區中山路二段366巷23號","121.491645","25.0050916666667","6500300","中和區"
"235021","801-TS","2018/12/01 13:59:39","新北市中和區民利街67號","121.478705","24.9984133333333","6500300","中和區"
"235005","802-TS","2018/12/01 13:59:31","新北市中和區中安街16號","121.513518333333","25.0031933333333","6500300","中和區"
"235016","805-TS","2018/12/01 13:59:21","新北市中和區興南路二段261巷6-5號","121.50216","24.979355","6500300","中和區"
"235012","896-TW","2018/12/01 13:59:25","新北市中和區華新街57號","121.50794","24.98427","6500300","中和區"
"235017","900-TW","2018/12/01 13:59:36","新北市中和區和平路200巷35弄1號","121.465336666667","24.9945716666667","6500300","中和區"
"235015","157-BY","2018/12/01 13:59:37","新北市中和區忠孝街19巷44號","121.509688333333","24.9850433333333","6500300","中和區"
"235001","AAC-213","2018/12/01 13:59:25","新北市中和區自立路99巷7號","121.522401666667","24.9948466666667","6500300","中和區"
"235023","AAC-215","2018/12/01 13:59:32","新北市中和區圓通路367巷20弄19號","121.491586666667","24.9883566666667","6500300","中和區"
"220013","072-UY","2018/12/01 13:59:29","新北市板橋區漢生東路327號","121.471996666667","25.007845","6500100","板橋區"
"220034","073-UY","2018/12/01 13:59:38","新北市板橋區中正路234號","121.455703333333","25.0188616666667","6500100","板橋區"
"220105","075-UY","2018/12/01 13:59:20","新北市板橋區文化路二段124巷24號","121.471193333333","25.025775","6500100","板橋區"
"220017","AAD-861","2018/12/01 13:59:27","新北市板橋區縣民大道一段98號","121.456905","25.0055033333333","6500100","板橋區"
"247001","893-R6","2018/12/01 13:59:36","新北市蘆洲區三民路605號","121.460631666667","25.09364","6501400","蘆洲區"
"247015","546-UM","2018/12/01 13:59:36","新北市蘆洲區光華路38號","121.469131666667","25.0832","6501400","蘆洲區"
"247005","337-TH","2018/12/01 13:59:35","新北市五股區四維路185巷33號","121.464766666667","25.07789","6501400","蘆洲區"
"247007","336-TH","2018/12/01 13:59:25","新北市三重區永安北路二段13號","121.481956666667","25.08149","6501400","蘆洲區"
"247019","057-VK","2018/12/01 13:59:39","新北市蘆洲區民族路422巷50號","121.473785","25.09306","6501400","蘆洲區"
"247009","056-VK","2018/12/01 13:59:35","新北市蘆洲區集賢路224巷23號","121.481598333333","25.08705","6501400","蘆洲區"
"247017","007-UY","2018/12/01 13:59:36","新北市蘆洲區民族路327巷140號","121.475438333333","25.08935","6501400","蘆洲區"
"247003","002-UY","2018/12/01 13:59:35","新北市蘆洲區中華街6號","121.463566666667","25.0817083333333","6501400","蘆洲區"
"247021","001-UY","2018/12/01 13:59:20","新北市蘆洲區中正路263巷2號","121.467345","25.0874433333333","6501400","蘆洲區"
"228005","097-TW","2018/12/01 13:59:26","新北市貢寮區美豐里雞母嶺街52-1號","121.888558333333","25.0685533333333","6502600","貢寮區"
"228004","212-TW","2018/12/01 13:59:20","新北市貢寮區龍崗里嵩陽街53號","121.906716666667","25.0162666666667","6502600","貢寮區"
"253003","6232-TK","2018/12/01 13:59:37","新北市石門區尖子鹿53-2號","121.580893333333","25.2712983333333","6502200","石門區"
"253004","6251-TK","2018/12/01 13:59:24","新北市石門區小坑36號","121.59657","25.26725","6502200","石門區"
"253002","637-UY","2018/12/01 13:59:32","新北市石門區七股33-1號","121.552768333333","25.2614066666667","6502200","石門區"
"253001","KEC-0718","2018/12/01 13:59:27","新北市石門區下員坑53號","121.521178333333","25.27109","6502200","石門區"
"207002","749-BX","2018/12/01 13:59:32","新北市萬里區溪底里烏塗炭3-1號","121.636088333333","25.15122","6502800","萬里區"
"252005","073-UM","2018/12/01 13:59:28","新北市三芝區圓山里二坪頂78號","121.54193","25.24606","6502100","三芝區"
"207001","662-BX","2018/12/01 13:59:29","新北市萬里區磺潭里清水4-3號","121.642178333333","25.2013666666667","6502800","萬里區"
"236068","105-UM","2018/12/01 13:59:37","新北市土城區金城路一段141號","121.445418333333","24.97414","6501300","土城區"
"236040","KED-0685","2018/12/01 13:59:22","新北市土城區城林路6巷80號","121.438508333333","24.9797366666667","6501300","土城區"
"236074","166-UM","2018/12/01 13:59:38","新北市土城區永寧路32巷4號","121.429153333333","24.9606833333333","6501300","土城區"
"236029","253-BX","2018/12/01 13:59:21","新北市土城區城林路6巷80號","121.438453333333","24.97976","6501300","土城區"
"236024","269-VK","2018/12/01 13:59:31","新北市土城區承天路3-1號","121.43595","24.96607","6501300","土城區"
"236012","270-VK","2018/12/01 13:59:32","新北市土城區城林路6巷80號","121.438598333333","24.9797283333333","6501300","土城區"
"236032","271-VK","2018/12/01 13:59:23","新北市土城區員福街38號","121.440706666667","24.9790283333333","6501300","土城區"
"236017","401-BY","2018/12/01 13:59:26","新北市土城區城林路6巷80號","121.438486666667","24.9798633333333","6501300","土城區"
"236057","912-UM","2018/12/01 13:59:40","新北市土城區中央路三段250號","121.427673333333","24.96414","6501300","土城區"
"236045","913-UM","2018/12/01 13:59:37","新北市土城區城林路6巷80號","121.43849","24.979765","6501300","土城區"
"236060","915-UM","2018/12/01 13:59:23","新北市土城區城林路6巷80號","121.438461666667","24.9797216666667","6501300","土城區"
"236054","970-R7","2018/12/01 13:59:28","新北市土城區城林路6巷80號","121.438731666667","24.9796516666667","6501300","土城區"
"221010","269-BY","2018/12/01 13:59:31","新北市汐止區長青路210巷188號","121.616288333333","25.1133183333333","6501100","汐止區"
"221033","647-BX","2018/12/01 13:59:36","新北市新店區薏仁坑路5號","121.499003333333","24.9590566666667","6501100","汐止區"
"220027","145-BY","2018/12/01 13:59:30","新北市板橋區民權路202巷12弄2號","121.460536666667","25.01553","6500100","板橋區"
"220028","200-UY","2018/12/01 13:59:30","新北市板橋區大觀路二段265巷1弄16號","121.443628333333","24.9984316666667","6500100","板橋區"
"220030","610-BX","2018/12/01 13:59:37","新北市板橋區溪崑二街89號","121.427266666667","24.9894033333333","6500100","板橋區"
"220050","245-BX","2018/12/01 13:59:30","新北市板橋區文化路二段182巷15號","121.472146666667","25.02663","6500100","板橋區"
"220004","276-BY","2018/12/01 13:59:39","新北市板橋區信義路148號","121.458878333333","24.9917416666667","6500100","板橋區"
"220020","277-BY","2018/12/01 13:59:28","新北市板橋區金門街222號","121.431093333333","24.9879","6500100","板橋區"
"220043","283-UM","2018/12/01 13:59:38","新北市板橋區文化路二段59號","121.469163333333","25.0251166666667","6500100","板橋區"
"220019","283-VK","2018/12/01 13:59:25","新北市板橋區忠孝路138號","121.463686666667","25.002405","6500100","板橋區"
"220001","285-VK","2018/12/01 13:59:38","新北市板橋區中山路二段89巷53號","121.473658333333","25.0174","6500100","板橋區"
"220031","286-VK","2018/12/01 13:59:18","新北市板橋區大觀路一段38巷158號","121.442285","25.0045683333333","6500100","板橋區"
"220029","287-VK","2018/12/01 13:59:36","新北市板橋區光華街19巷4號","121.45375","25.012205","6500100","板橋區"
"220039","288-VK","2018/12/01 13:59:36","新北市板橋區四維路177巷1弄2號","121.463986666667","25.0261933333333","6500100","板橋區"
"220009","293-UM","2018/12/01 13:59:24","新北市板橋區縣民大道三段138號","121.475146666667","25.0212616666667","6500100","板橋區"
"220016","295-UM","2018/12/01 13:59:36","新北市板橋區中山路二段465巷66號","121.4812","25.0219566666667","6500100","板橋區"
"220032","296-UM","2018/12/01 13:59:38","新北市板橋區大觀路二段174巷102弄17號","121.441483333333","25.0012833333333","6500100","板橋區"
"220041","299-UM","2018/12/01 13:59:36","新北市板橋區漢生東路21-1號","121.46514","25.01715","6500100","板橋區"
"220023","303-R5","2018/12/01 13:59:26","新北市板橋區南雅西路二段170號","121.451615","25.013805","6500100","板橋區"
"220010","305-R5","2018/12/01 13:59:30","新北市中和區員山路570號","121.478963333333","25.0113633333333","6500100","板橋區"
"220047","317-R6","2018/12/01 13:59:26","新北市板橋區民有街33號","121.46593","25.02545","6500100","板橋區"
"220038","487-VK","2018/12/01 13:59:35","新北市板橋區文化路二段319號","121.472273333333","25.0298333333333","6500100","板橋區"
"220104","560-BX","2018/12/01 13:59:31","新北市板橋區中正路375巷42號","121.453628333333","25.0203833333333","6500100","板橋區"
"220052","561-BX","2018/12/01 13:59:30","新北市板橋區縣民大道二段289號","121.47044","25.018065","6500100","板橋區"
"220011","609-BX","2018/12/01 13:59:37","新北市板橋區中山路二段179號","121.47623","25.016935","6500100","板橋區"
"220040","637-BX","2018/12/01 13:59:40","新北市板橋區大同街52號","121.478836666667","25.0275483333333","6500100","板橋區"
"220005","686-BX","2018/12/01 13:59:34","新北市板橋區重慶路141號","121.462361666667","25.0043716666667","6500100","板橋區"
"220025","687-BX","2018/12/01 13:59:35","新北市板橋區僑中二街152號","121.444806666667","25.0044483333333","6500100","板橋區"
"220042","689-BX","2018/12/01 13:59:40","新北市板橋區民生路三段106號","121.466566666667","25.02623","6500100","板橋區"
"220002","741-BX","2018/12/01 13:59:40","新北市板橋區重慶路93巷14-3號","121.462728333333","25.0057616666667","6500100","板橋區"
"220051","KEA-2699","2018/12/01 13:59:25","新北市板橋區田單街2巷38號","121.481758333333","25.0275266666667","6500100","板橋區"
"220012","806-UM","2018/12/01 13:59:21","新北市板橋區板新路237號","121.46751","25.01593","6500100","板橋區"
"220003","827-TW","2018/12/01 13:59:37","新北市板橋區中山路一段158巷16號","121.466145","25.01138","6500100","板橋區"
"220014","830-TW","2018/12/01 13:59:04","新北市板橋區中山路二段50-1號","121.473326666667","25.0155916666667","6500100","板橋區"
"220045","831-TW","2018/12/01 13:59:37","新北市板橋區莒光路69號","121.471461666667","25.0242533333333","6500100","板橋區"
"220037","833-TW","2018/12/01 13:59:37","新北市板橋區文化路二段16-2號","121.468841666667","25.0243183333333","6500100","板橋區"
"220021","985-R7","2018/12/01 13:59:39","新北市板橋區北門街53號","121.455885","25.01168","6500100","板橋區"
"220046","AAC-210","2018/12/01 13:59:26","新北市板橋區漢生東路17號","121.464801666667","25.01724","6500100","板橋區"
"220018","AAC-253","2018/12/01 13:59:26","新北市板橋區四川路一段387號","121.457946666667","24.9990516666667","6500100","板橋區"
"235032","KEA-2873","2018/12/01 13:59:17","新北市中和區連勝街38巷2號","121.497888333333","24.997875","6500300","中和區"
"235025","KEA-2875","2018/12/01 13:59:19","新北市中和區民有街57號","121.476168333333","25.003835","6500300","中和區"
