"lineid","car","time","location","longitude","latitude","cityid","cityname"
"234062","337-UY","2018/12/01 14:39:39","新北市中和區中原二街71號","121.488753333333","25.0113916666667","6500400","永和區"
"234068","552-UM","2018/12/01 14:39:32","新北市中和區環河西路三段123號","121.489721666667","25.0100133333333","6500400","永和區"
"234028","746-BX","2018/12/01 14:39:30","新北市板橋區民生路一段59號","121.475321666667","25.0133283333333","6500400","永和區"
"234025","9371-KE","2018/12/01 14:39:36","新北市永和區雙和街23號","121.509141666667","25.00213","6500400","永和區"
"248017","225-UY","2018/12/01 14:22:16","新北市五股區外寮路13-1號","121.424833333333","25.0812516666667","6501500","五股區"
"234072","AAC-211","2018/12/01 14:39:30","新北市永和區環河東路二段54號","121.523318333333","25.0116033333333","6500400","永和區"
"231005","001-UM","2018/12/01 14:39:27","新北市新店區復興路94號","121.533176666667","24.9884416666667","6500600","新店區"
"231002","002-UM","2018/12/01 14:39:35","新北市新店區中正路460號","121.534023333333","24.9793833333333","6500600","新店區"
"231027","0293-UT","2018/12/01 14:39:26","新北市新店區寶橋路85巷5弄3號","121.545926666667","24.97578","6500600","新店區"
"231028","046-UY","2018/12/01 14:39:31","新北市新店區安成街25號","121.510125","24.9609","6500600","新店區"
"231001","047-UY","2018/12/01 14:39:20","新北市新店區中正路4號","121.545718333333","24.9693916666667","6500600","新店區"
"231020","108-UY","2018/12/01 14:39:36","新北市新店區桂山路37號","121.561028333333","24.9018833333333","6500600","新店區"
"231012","187-VK","2018/12/01 14:39:29","新北市新店區寶橋路138號","121.54778","24.9762966666667","6500600","新店區"
"231023","KEA-2219","2018/12/01 14:39:22","新北市新店區檳榔路22巷3號","121.541271666667","24.9640383333333","6500600","新店區"
"231036","260-TV","2018/12/01 14:39:30","新北市新店區安祥路109巷90弄10號","121.477716666667","24.9596533333333","6500600","新店區"
"231003","268-BY","2018/12/01 14:39:31","新北市新店區中興路一段280號","121.545443333333","24.9684416666667","6500600","新店區"
"231017","AAD-862","2018/12/01 14:39:33","新北市新店區北宜路三段215號","121.591428333333","24.95313","6500600","新店區"
"231038","3712-VJ","2018/12/01 14:39:32","新北市新店區溪洲路184號","121.528706666667","24.9661816666667","6500600","新店區"
"231037","4716-K9","2018/12/01 14:39:41","新北市新店區柴埕路116號","121.50464","24.9597866666667","6500600","新店區"
"231013","513-UM","2018/12/01 14:39:35","新北市新店區北新路二段171巷4號","121.54217","24.9764433333333","6500600","新店區"
"231034","616-UM","2018/12/01 14:39:19","新北市新店區黎明路55巷1號","121.502366666667","24.9483066666667","6500600","新店區"
"231030","619-UM","2018/12/01 14:39:21","新北市新店區安民街189號","121.516791666667","24.970955","6500600","新店區"
"231042","645-TV","2018/12/01 14:34:08","新北市新店區安康路二段414巷2號","121.495888333333","24.9579","6500600","新店區"
"231035","719-UM","2018/12/01 14:28:20","新北市新店區安民街21號","121.515576666667","24.9648733333333","6500600","新店區"
"231018","719-UY","2018/12/01 14:39:33","新北市新店區中央三街29號","121.528485","24.97422","6500600","新店區"
"231029","897-TW","2018/12/01 14:39:39","新北市新店區安康路三段320號","121.486766666667","24.9518483333333","6500600","新店區"
"231006","898-TW","2018/12/01 14:39:22","新北市新店區北宜路二段131號","121.55105","24.9531066666667","6500600","新店區"
"231004","899-TW","2018/12/01 14:39:33","新北市新店區中正路263-1號","121.538518333333","24.973775","6500600","新店區"
"235030","003-UY","2018/12/01 14:39:21","新北市中和區中和路196巷12號","121.505003333333","24.9989483333333","6500300","中和區"
"235028","005-UY","2018/12/01 14:39:39","新北市中和區圓通路2號","121.501926666667","24.9980366666667","6500300","中和區"
"235027","006-UY","2018/12/01 14:39:40","新北市中和區連城路263巷17號","121.492521666667","24.9950883333333","6500300","中和區"
"235020","096-UM","2018/12/01 14:39:21","新北市中和區員山路581巷31弄1號","121.47725","25.0103633333333","6500300","中和區"
"235003","097-UM","2018/12/01 14:39:30","新北市中和區安平路157號","121.512318333333","24.998295","6500300","中和區"
"235029","098-UM","2018/12/01 14:39:18","新北市中和區莊敬路31巷17號","121.499923333333","25.0052966666667","6500300","中和區"
"235004","150-BY","2018/12/01 14:39:02","新北市中和區大勇街25巷15弄13號","121.515516666667","24.99327","6500300","中和區"
"235022","151-BY","2018/12/01 14:39:42","新北市中和區員山路146巷22號","121.48233","24.9967733333333","6500300","中和區"
"235019","183-VK","2018/12/01 14:39:28","新北市中和區民生街10巷2號","121.471086666667","25.00579","6500300","中和區"
"235002","185-VK","2018/12/01 14:39:22","新北市中和區自立路20巷9號","121.521743333333","24.9933066666667","6500300","中和區"
"235013","186-VK","2018/12/01 14:39:36","新北市中和區景安路100號","121.505536666667","24.995625","6500300","中和區"
"235031","255-BX","2018/12/01 14:39:32","新北市中和區員山路148巷29號","121.482193333333","24.9972033333333","6500300","中和區"
"235008","293-VK","2018/12/01 14:39:20","新北市中和區興南路一段86號","121.510011666667","24.9893683333333","6500300","中和區"
"235036","301-VK","2018/12/01 14:39:40","新北市中和區中山路二段3巷22弄5號","121.506278333333","25.0051683333333","6500300","中和區"
"235007","352-BY","2018/12/01 14:39:26","新北市中和區南山路215號","121.503103333333","24.9943233333333","6500300","中和區"
"247011","KEA-2869","2018/12/01 14:39:35","新北市蘆洲區集賢路224巷66號","121.480733333333","25.0881316666667","6501400","蘆洲區"
"235014","4979-A6","2018/12/01 14:39:31","新北市中和區景平路361號","121.504575","24.9933333333333","6500300","中和區"
"235006","551-UM","2018/12/01 14:39:31","新北市中和區保健路2巷20號","121.507273333333","24.99779","6500300","中和區"
"235034","558-UM","2018/12/01 14:39:36","新北市中和區連勝街40號","121.498","24.9976333333333","6500300","中和區"
"235009","565-BX","2018/12/01 14:39:26","新北市中和區景新街448號","121.513371666667","24.9878833333333","6500300","中和區"
"235018","640-BX","2018/12/01 14:39:28","新北市中和區莒光路171號","121.472783333333","24.9998416666667","6500300","中和區"
"235024","647-TV","2018/12/01 14:39:25","新北市中和區中山路二段523巷18號","121.481573333333","25.0042466666667","6500300","中和區"
"235011","732-UM","2018/12/01 14:39:29","新北市中和區興南路一段86號","121.509801666667","24.9894283333333","6500300","中和區"
"235010","733-UM","2018/12/01 14:39:31","新北市中和區四維街8號","121.51334","24.9872883333333","6500300","中和區"
"235026","800-TS","2018/12/01 14:39:20","新北市中和區中山路二段480號","121.487686666667","25.0048","6500300","中和區"
"235021","801-TS","2018/12/01 14:39:39","新北市中和區員山路146-3號","121.481291666667","24.99695","6500300","中和區"
"235005","802-TS","2018/12/01 14:39:31","新北市中和區宜安路137號","121.509451666667","24.9984783333333","6500300","中和區"
"235016","805-TS","2018/12/01 14:39:21","新北市中和區華新街210號","121.506516666667","24.9818966666667","6500300","中和區"
"235012","896-TW","2018/12/01 14:39:25","新北市中和區景新街493號","121.513885","24.9872233333333","6500300","中和區"
"235017","900-TW","2018/12/01 14:39:40","新北市中和區國光街215巷47號","121.467188333333","25.0004483333333","6500300","中和區"
"235015","157-BY","2018/12/01 14:39:37","新北市中和區復興路301巷16號","121.501411666667","24.9895616666667","6500300","中和區"
"235001","AAC-213","2018/12/01 14:39:25","新北市中和區秀朗路三段50巷4弄4號","121.525715","24.9956916666667","6500300","中和區"
"235023","AAC-215","2018/12/01 14:39:32","新北市中和區圓通路305巷9號","121.493863333333","24.9899116666667","6500300","中和區"
"220013","072-UY","2018/12/01 14:39:29","新北市板橋區國泰街75巷28弄66號","121.467106666667","25.0046066666667","6500100","板橋區"
"220034","073-UY","2018/12/01 14:39:38","新北市板橋區中正路166號","121.456505","25.0169616666667","6500100","板橋區"
"220105","075-UY","2018/12/01 14:39:20","新北市板橋區文化路二段464號","121.474843333333","25.03261","6500100","板橋區"
"220017","AAD-861","2018/12/01 14:39:23","新北市板橋區南雅南路二段18號","121.45444","25.0035716666667","6500100","板橋區"
"247001","893-R6","2018/12/01 14:39:36","新北市蘆洲區長安街369號","121.457358333333","25.0876733333333","6501400","蘆洲區"
"247015","546-UM","2018/12/01 14:39:36","新北市蘆洲區正和街53號","121.468986666667","25.0813683333333","6501400","蘆洲區"
"247023","500-BY","2018/12/01 14:39:31","新北市蘆洲區中山二路222巷11號","121.469448333333","25.0801683333333","6501400","蘆洲區"
"247005","337-TH","2018/12/01 14:39:35","新北市蘆洲區中華街10號","121.463273333333","25.0815516666667","6501400","蘆洲區"
"247007","336-TH","2018/12/01 14:39:25","新北市蘆洲區中山一路197巷32號","121.474973333333","25.0796583333333","6501400","蘆洲區"
"247019","057-VK","2018/12/01 14:39:19","新北市蘆洲區民權路119號","121.472191666667","25.0898516666667","6501400","蘆洲區"
"247013","053-VK","2018/12/01 14:39:29","新北市蘆洲區成功路114號","121.472351666667","25.0824","6501400","蘆洲區"
"228005","097-TW","2018/12/01 14:39:26","新北市貢寮區美豐里雞母嶺街6-6號","121.90209","25.0642516666667","6502600","貢寮區"
"228004","212-TW","2018/12/01 14:39:20","新北市貢寮區福隆里龜壽谷街30-7號","121.946828333333","25.0141416666667","6502600","貢寮區"
"253003","6232-TK","2018/12/01 14:39:37","新北市石門區內石門72號","121.581845","25.257275","6502200","石門區"
"253004","6251-TK","2018/12/01 14:39:24","新北市石門區茂林社區74-1號","121.59185","25.2666733333333","6502200","石門區"
"253002","637-UY","2018/12/01 14:39:32","新北市三芝區橫山里橫山31-1號","121.544211666667","25.257825","6502200","石門區"
"253001","KEC-0718","2018/12/01 14:39:27","新北市石門區八甲172-2號","121.535606666667","25.26921","6502200","石門區"
"207002","749-BX","2018/12/01 14:39:12","新北市萬里區崁腳里內崁路2-1號","121.639843333333","25.1602483333333","6502800","萬里區"
"252005","073-UM","2018/12/01 14:39:28","新北市三芝區橫山里大坑26號","121.525446666667","25.2544833333333","6502100","三芝區"
"207001","662-BX","2018/12/01 14:39:09","新北市萬里區磺潭里員潭路59號","121.643321666667","25.1906066666667","6502800","萬里區"
"236068","105-UM","2018/12/01 14:39:37","新北市土城區永豐路226號","121.46714","24.9816116666667","6501300","土城區"
"236040","KED-0685","2018/12/01 14:39:22","新北市土城區學成路126號","121.449261666667","24.98952","6501300","土城區"
"236074","166-UM","2018/12/01 14:39:38","新北市土城區中央路四段62-3號","121.419608333333","24.9599466666667","6501300","土城區"
"236029","253-BX","2018/12/01 14:39:21","新北市土城區中華路二段175號","121.438521666667","24.975015","6501300","土城區"
"236024","269-VK","2018/12/01 14:39:31","新北市土城區忠義路47號","121.440546666667","24.96941","6501300","土城區"
"236013","270-VK","2018/12/01 14:39:32","新北市土城區清水路217號","121.460706666667","24.982065","6501300","土城區"
"236032","271-VK","2018/12/01 14:39:23","新北市土城區明德路一段283號","121.460706666667","24.9774383333333","6501300","土城區"
"236017","401-BY","2018/12/01 14:39:26","新北市土城區延吉街327-1號","121.465585","24.984215","6501300","土城區"
"236057","912-UM","2018/12/01 14:39:31","新北市土城區中央路三段159號","121.431923333333","24.965425","6501300","土城區"
"236045","913-UM","2018/12/01 14:39:37","新北市土城區明德路一段59號","121.465325","24.9845066666667","6501300","土城區"
"236060","915-UM","2018/12/01 14:39:37","新北市土城區延壽路13巷34號","121.470175","24.9913116666667","6501300","土城區"
"236054","970-R7","2018/12/01 14:39:27","新北市土城區裕民路22號","121.447601666667","24.9887033333333","6501300","土城區"
"221010","269-BY","2018/12/01 14:39:31","新北市汐止區八連路二段618號","121.622923333333","25.1098116666667","6501100","汐止區"
"221033","647-BX","2018/12/01 14:39:36","新北市汐止區康寧街901號","121.651671666667","25.07503","6501100","汐止區"
"220027","145-BY","2018/12/01 14:39:30","新北市板橋區國光路190號","121.461238333333","25.0183466666667","6500100","板橋區"
"220028","200-UY","2018/12/01 14:39:36","新北市板橋區大觀路二段153巷46弄60號","121.449426666667","25.0003483333333","6500100","板橋區"
"220030","610-BX","2018/12/01 14:39:38","新北市板橋區沙崙街2-5號","121.43106","24.9943433333333","6500100","板橋區"
"220050","245-BX","2018/12/01 14:39:30","新北市板橋區縣民大道三段33巷11號","121.473906666667","25.0209666666667","6500100","板橋區"
"220004","276-BY","2018/12/01 14:39:39","新北市板橋區四川路二段47巷2弄1號","121.454115","24.9949116666667","6500100","板橋區"
"220020","277-BY","2018/12/01 14:39:10","新北市板橋區金門街151巷23號","121.433906666667","24.9902783333333","6500100","板橋區"
"220043","283-UM","2018/12/01 14:39:38","新北市板橋區宏國路77巷2弄12-3號","121.469491666667","25.0324833333333","6500100","板橋區"
"220019","283-VK","2018/12/01 14:39:25","新北市板橋區五權街32巷8號","121.464615","24.993115","6500100","板橋區"
"220001","285-VK","2018/12/01 14:39:38","新北市板橋區中山路二段148巷3號","121.476848333333","25.0167866666667","6500100","板橋區"
"220031","286-VK","2018/12/01 14:39:38","新北市板橋區僑中三街40號","121.445303333333","25.0051066666667","6500100","板橋區"
"220029","287-VK","2018/12/01 14:39:36","新北市板橋區大觀路一段29巷131弄31號","121.450558333333","25.00462","6500100","板橋區"
"220039","288-VK","2018/12/01 14:39:36","新北市板橋區新海路431巷10號","121.457831666667","25.02712","6500100","板橋區"
"220009","293-UM","2018/12/01 14:39:23","新北市板橋區漢生東路117號","121.467265","25.0147933333333","6500100","板橋區"
"220016","295-UM","2018/12/01 14:39:36","新北市板橋區中山路二段416巷36-1號","121.483223333333","25.019865","6500100","板橋區"
"220032","296-UM","2018/12/01 14:39:38","新北市板橋區滿平二街42號","121.425165","24.9879566666667","6500100","板橋區"
"220041","299-UM","2018/12/01 14:39:36","新北市板橋區文化路一段371號","121.466995","25.021545","6500100","板橋區"
"220023","303-R5","2018/12/01 14:39:26","新北市板橋區大勇街4號","121.455698333333","25.017725","6500100","板橋區"
"220010","305-R5","2018/12/01 14:39:30","新北市板橋區三民路二段81巷3號","121.479711666667","25.0167183333333","6500100","板橋區"
"220047","317-R6","2018/12/01 14:39:26","新北市板橋區四維路269巷45號","121.461268333333","25.02741","6500100","板橋區"
"220038","487-VK","2018/12/01 14:39:35","新北市板橋區英士路49號","121.461111666667","25.02466","6500100","板橋區"
"220104","560-BX","2018/12/01 14:39:26","新北市板橋區金華街95號","121.45838","25.0208333333333","6500100","板橋區"
"220052","561-BX","2018/12/01 14:39:30","新北市板橋區文化路一段288號","121.467301666667","25.021545","6500100","板橋區"
"220011","609-BX","2018/12/01 14:39:32","新北市板橋區三民路一段31巷51號","121.481108333333","25.0233783333333","6500100","板橋區"
"220040","637-BX","2018/12/01 14:39:40","新北市板橋區懷德街181巷25號","121.480208333333","25.0304783333333","6500100","板橋區"
"220005","686-BX","2018/12/01 14:39:34","新北市板橋區國慶路158巷1號","121.46215","24.9959283333333","6500100","板橋區"
"220025","687-BX","2018/12/01 14:39:35","新北市板橋區僑中二街124巷2號","121.445431666667","25.0053666666667","6500100","板橋區"
"220042","689-BX","2018/12/01 14:39:26","新北市板橋區長江路一段113號","121.459808333333","25.0298533333333","6500100","板橋區"
"220002","741-BX","2018/12/01 14:39:33","新北市板橋區忠孝路忠義巷15弄92-2號","121.465408333333","25.0055483333333","6500100","板橋區"
"220051","KEA-2699","2018/12/01 14:39:25","新北市板橋區雙十路二段50號","121.475645","25.027635","6500100","板橋區"
"220012","806-UM","2018/12/01 14:39:19","新北市板橋區中山路一段68號","121.46146","25.0099166666667","6500100","板橋區"
"220003","827-TW","2018/12/01 14:39:37","新北市板橋區國慶路149巷12號","121.461171666667","24.9971916666667","6500100","板橋區"
"220014","830-TW","2018/12/01 14:39:24","新北市板橋區長安街138巷1弄13號","121.473231666667","25.00982","6500100","板橋區"
"220045","831-TW","2018/12/01 14:39:35","新北市板橋區民生路二段234巷49號","121.469566666667","25.0226816666667","6500100","板橋區"
"220037","833-TW","2018/12/01 14:39:37","新北市板橋區文化路二段366號","121.473165","25.0308133333333","6500100","板橋區"
"220022","895-R6","2018/12/01 14:39:24","新北市板橋區文化路一段46巷23號","121.460358333333","25.0114466666667","6500100","板橋區"
"220021","985-R7","2018/12/01 14:39:39","新北市板橋區中正路184號","121.45624","25.017685","6500100","板橋區"
"220046","AAC-210","2018/12/01 14:39:26","新北市板橋區幸福路31-2號","121.461601666667","25.0202133333333","6500100","板橋區"
"220018","AAC-253","2018/12/01 14:39:26","新北市板橋區民族路298號","121.47049","25.006735","6500100","板橋區"
"235032","KEA-2873","2018/12/01 14:39:17","新北市中和區景平路736巷3弄12號","121.497645","25.0036466666667","6500300","中和區"
