"lineid","car","time","location","longitude","latitude","cityid","cityname"
"234025","9371-KE","2018/12/01 14:59:36","新北市永和區保生路55-1號","121.504558333333","25.0109466666667","6500400","永和區"
"231005","001-UM","2018/12/01 14:59:27","新北市新店區寶元路一段15巷20號","121.54199","24.9869316666667","6500600","新店區"
"231002","002-UM","2018/12/01 14:59:35","新北市新店區中正路524號","121.53376","24.9838383333333","6500600","新店區"
"231027","0293-UT","2018/12/01 14:59:26","新北市新店區中央二街81號","121.525726666667","24.975075","6500600","新店區"
"231028","046-UY","2018/12/01 14:59:31","新北市新店區安康路二段309-1號","121.50146","24.957065","6500600","新店區"
"231001","047-UY","2018/12/01 14:59:40","新北市新店區中正路276號","121.53892","24.9737783333333","6500600","新店區"
"231020","108-UY","2018/12/01 14:59:37","新北市新店區永福路42號","121.554973333333","24.9282083333333","6500600","新店區"
"231012","187-VK","2018/12/01 14:59:29","新北市新店區中興路三段138號","121.544558333333","24.9802416666667","6500600","新店區"
"231023","KEA-2219","2018/12/01 14:59:22","新北市新店區檳榔路105號","121.544625","24.9616866666667","6500600","新店區"
"231026","256-BX","2018/12/01 14:59:36","新北市新店區博愛街25巷2號","121.541475","24.9739333333333","6500600","新店區"
"231036","260-TV","2018/12/01 14:59:29","新北市新店區安祥路106巷18號","121.478095","24.9623433333333","6500600","新店區"
"231003","268-BY","2018/12/01 14:59:31","新北市新店區中興路二段87號","121.547251666667","24.9711233333333","6500600","新店區"
"231017","AAD-862","2018/12/01 14:59:33","新北市新店區明山路65號","121.565655","24.9575266666667","6500600","新店區"
"231038","3712-VJ","2018/12/01 14:59:32","新北市新店區安華路28-1號","121.519618333333","24.9610316666667","6500600","新店區"
"231037","4716-K9","2018/12/01 14:59:20","新北市新店區薏仁坑路8-2號","121.499308333333","24.958935","6500600","新店區"
"231025","4715-K9","2018/12/01 14:59:26","新北市新店區大同街42號","121.538745","24.9808033333333","6500600","新店區"
"231034","616-UM","2018/12/01 14:59:19","新北市新店區玫瑰路4-1號","121.493621666667","24.9514333333333","6500600","新店區"
"231030","619-UM","2018/12/01 14:59:41","新北市新店區安民街341-1號","121.516815","24.9749383333333","6500600","新店區"
"231042","645-TV","2018/12/01 14:49:00","新北市新店區薏仁坑路自強巷6號","121.496616666667","24.9583416666667","6500600","新店區"
"231039","718-UY","2018/12/01 14:59:36","新北市新店區民權路19號","121.542076666667","24.9828766666667","6500600","新店區"
"231035","719-UM","2018/12/01 14:59:40","新北市新店區安和路二段240號","121.516656666667","24.9785516666667","6500600","新店區"
"231018","719-UY","2018/12/01 14:59:33","新北市新店區中央六街6號","121.530226666667","24.9743166666667","6500600","新店區"
"231033","720-UM","2018/12/01 14:59:22","新北市新店區安泰路22-1號","121.485371666667","24.948385","6500600","新店區"
"231029","897-TW","2018/12/01 14:59:33","新北市新店區錦秀路1號","121.479038333333","24.9459483333333","6500600","新店區"
"231006","898-TW","2018/12/01 14:59:22","新北市新店區新坡一街72號","121.548945","24.96457","6500600","新店區"
"231004","899-TW","2018/12/01 14:59:33","新北市新店區民族路6號","121.541656666667","24.9789233333333","6500600","新店區"
"231024","AKT-0513","2018/12/01 14:59:25","新北市新店區中華路83巷17號","121.538718333333","24.96818","6500600","新店區"
"235030","003-UY","2018/12/01 14:59:21","新北市永和區保平路290號","121.508073333333","25.00457","6500300","中和區"
"235020","096-UM","2018/12/01 14:59:21","新北市中和區漢民路415號","121.472378333333","25.0068966666667","6500300","中和區"
"235003","097-UM","2018/12/01 14:59:30","新北市中和區安樂路143巷38弄1號","121.512883333333","24.9964366666667","6500300","中和區"
"235029","098-UM","2018/12/01 14:59:38","新北市中和區永和路69-6號","121.496435","25.0060866666667","6500300","中和區"
"235004","150-BY","2018/12/01 14:59:22","新北市中和區中安街178巷32號","121.509883333333","24.9986166666667","6500300","中和區"
"235013","186-VK","2018/12/01 14:59:36","新北市中和區景平路421號","121.501808333333","24.9951783333333","6500300","中和區"
"235008","293-VK","2018/12/01 14:59:25","新北市中和區中正路67號","121.501166666667","24.9934966666667","6500300","中和區"
"235036","301-VK","2018/12/01 14:59:40","新北市中和區連城路87號","121.496731666667","25.00038","6500300","中和區"
"235007","352-BY","2018/12/01 14:59:26","新北市中和區興南路一段106號","121.509706666667","24.98882","6500300","中和區"
"235014","4979-A6","2018/12/01 14:59:31","新北市中和區景平路153號","121.513518333333","24.9919","6500300","中和區"
"235033","4980-A6","2018/12/01 14:59:41","新北市中和區南山路4巷5號","121.501615","24.99875","6500300","中和區"
"235034","558-UM","2018/12/01 14:59:36","新北市中和區圓通路132號","121.498433333333","24.995805","6500300","中和區"
"235018","640-BX","2018/12/01 14:59:28","新北市中和區自治街1號","121.474645","25.0033716666667","6500300","中和區"
"235010","733-UM","2018/12/01 14:59:31","新北市中和區興南路一段105巷20弄16號","121.51035","24.98549","6500300","中和區"
"235026","800-TS","2018/12/01 14:59:40","新北市中和區立業路83巷12號","121.491233333333","25.006835","6500300","中和區"
"235012","896-TW","2018/12/01 14:59:25","新北市中和區忠孝街5巷9號","121.509226666667","24.983135","6500300","中和區"
"235017","900-TW","2018/12/01 14:59:19","新北市中和區莒光路222-8號","121.469026666667","24.9947783333333","6500300","中和區"
"235015","157-BY","2018/12/01 14:59:37","新北市中和區捷運路59號","121.509135","24.9897883333333","6500300","中和區"
"235001","AAC-213","2018/12/01 14:59:25","新北市中和區自立路139巷2號","121.522158333333","24.993755","6500300","中和區"
"235023","AAC-215","2018/12/01 14:59:32","新北市中和區圓通路282號","121.491591666667","24.990585","6500300","中和區"
"220013","072-UY","2018/12/01 14:59:29","新北市板橋區民族路276巷3弄1號","121.469815","25.0063483333333","6500100","板橋區"
"220105","075-UY","2018/12/01 14:59:34","新北市板橋區仁化街150巷3號","121.477948333333","25.03312","6500100","板橋區"
"220017","AAD-861","2018/12/01 14:59:23","新北市板橋區大明街25巷4弄14號","121.457553333333","25.0021966666667","6500100","板橋區"
"228004","212-TW","2018/12/01 14:59:20","新北市貢寮區雙玉里田寮洋街25-1號","121.929886666667","25.0177216666667","6502600","貢寮區"
"253003","6232-TK","2018/12/01 14:59:37","新北市石門區尖子鹿103-3號","121.582156666667","25.2951116666667","6502200","石門區"
"253004","6251-TK","2018/12/01 14:59:24","新北市石門區小坑23號","121.594238333333","25.27846","6502200","石門區"
"253002","637-UY","2018/12/01 14:59:32","新北市石門區崁子腳28-2號","121.540031666667","25.2889433333333","6502200","石門區"
"253001","KEC-0718","2018/12/01 14:59:27","新北市石門區老崩山11-13號","121.551506666667","25.2905016666667","6502200","石門區"
"207002","749-BX","2018/12/01 14:59:32","新北市萬里區崁腳里崁腳路62號","121.648513333333","25.1599666666667","6502800","萬里區"
"252005","073-UM","2018/12/01 14:59:08","新北市三芝區埔坪里埔頭坑94號","121.509553333333","25.2503016666667","6502100","三芝區"
"207001","662-BX","2018/12/01 14:59:29","新北市萬里區雙興里太和路30-1號","121.654455","25.1787916666667","6502800","萬里區"
"236068","105-UM","2018/12/01 14:59:37","新北市土城區裕生路84巷10號","121.446816666667","24.985635","6501300","土城區"
"236040","KED-0685","2018/12/01 14:59:22","新北市土城區學府路一段189巷10號","121.452455","24.9844783333333","6501300","土城區"
"236074","166-UM","2018/12/01 14:59:38","新北市土城區中州路3巷50號","121.413378333333","24.9564183333333","6501300","土城區"
"236029","253-BX","2018/12/01 14:59:21","新北市土城區中央路二段152巷2號","121.441791666667","24.9769266666667","6501300","土城區"
"236024","269-VK","2018/12/01 14:59:31","新北市土城區中正路74巷3弄1號","121.44481","24.974925","6501300","土城區"
"236013","270-VK","2018/12/01 14:59:32","新北市土城區立德路29巷3號","121.461963333333","24.9884083333333","6501300","土城區"
"236032","271-VK","2018/12/01 14:59:23","新北市土城區清水路139號","121.458301666667","24.9817633333333","6501300","土城區"
"236017","401-BY","2018/12/01 14:59:26","新北市土城區延吉街168巷1號","121.468221666667","24.985495","6501300","土城區"
"236057","912-UM","2018/12/01 14:59:31","新北市土城區金城路二段260號","121.457613333333","24.9837183333333","6501300","土城區"
"236045","913-UM","2018/12/01 14:59:39","新北市土城區青雲路322巷2弄4號","121.458041666667","24.9773666666667","6501300","土城區"
"236060","915-UM","2018/12/01 14:59:23","新北市土城區延和路41巷6弄20號","121.466625","24.99039","6501300","土城區"
"236054","970-R7","2018/12/01 14:59:31","新北市土城區學成路88號","121.450566666667","24.9887483333333","6501300","土城區"
"221010","269-BY","2018/12/01 14:59:31","新北市汐止區汐萬路一段256巷3號","121.652116666667","25.074775","6501100","汐止區"
"220028","200-UY","2018/12/01 14:59:30","新北市板橋區大觀路二段169巷23號","121.44652","24.9997816666667","6500100","板橋區"
"220050","245-BX","2018/12/01 14:59:30","新北市板橋區莊敬路252號","121.473896666667","25.0214466666667","6500100","板橋區"
"220043","283-UM","2018/12/01 14:59:38","新北市板橋區文德路38號","121.462135","25.0242633333333","6500100","板橋區"
"220019","283-VK","2018/12/01 14:59:24","新北市板橋區國慶路49巷1號","121.459433333333","24.9955433333333","6500100","板橋區"
"220001","285-VK","2018/12/01 14:59:38","新北市板橋區永豐街103號","121.473953333333","25.0192933333333","6500100","板橋區"
"220031","286-VK","2018/12/01 14:59:38","新北市板橋區僑中二街88巷36號","121.444581666667","25.0096633333333","6500100","板橋區"
"220029","287-VK","2018/12/01 14:59:36","新北市板橋區僑中一街124巷20弄22號","121.447068333333","25.0139316666667","6500100","板橋區"
"220039","288-VK","2018/12/01 14:59:36","新北市板橋區幸福路32巷34號","121.460795","25.0216916666667","6500100","板橋區"
"220009","293-UM","2018/12/01 14:59:24","新北市板橋區縣民大道二段200巷1號","121.469735","25.0171366666667","6500100","板橋區"
"220016","295-UM","2018/12/01 14:59:36","新北市板橋區中山路二段318巷2弄2號","121.480356666667","25.0192766666667","6500100","板橋區"
"220032","296-UM","2018/12/01 14:59:38","新北市板橋區溪崑二街112巷8號","121.42612","24.98891","6500100","板橋區"
"220041","299-UM","2018/12/01 14:59:36","新北市板橋區裕民街128巷1號","121.458888333333","25.027815","6500100","板橋區"
"220010","305-R5","2018/12/01 14:59:30","新北市板橋區萬安街85巷18號","121.484286666667","25.0254366666667","6500100","板橋區"
"220047","317-R6","2018/12/01 14:59:26","新北市板橋區漢生西路165巷14號","121.462716666667","25.023375","6500100","板橋區"
"220038","487-VK","2018/12/01 14:59:35","新北市板橋區英士路192號","121.458076666667","25.023635","6500100","板橋區"
"220052","561-BX","2018/12/01 14:59:30","新北市板橋區自由路41號","121.465566666667","25.023255","6500100","板橋區"
"220011","609-BX","2018/12/01 14:59:30","新北市板橋區三民路一段131號","121.479251666667","25.02034","6500100","板橋區"
"220040","637-BX","2018/12/01 14:59:25","新北市板橋區文聖街89巷27號","121.478476666667","25.030475","6500100","板橋區"
"220005","686-BX","2018/12/01 14:59:34","新北市板橋區四川路二段130巷22號","121.449618333333","24.9941883333333","6500100","板橋區"
"220025","687-BX","2018/12/01 14:59:35","新北市板橋區僑中一街124巷22號","121.446281666667","25.0144116666667","6500100","板橋區"
"220042","689-BX","2018/12/01 14:59:24","新北市板橋區長江路三段126號","121.475318333333","25.034455","6500100","板橋區"
"220051","KEA-2699","2018/12/01 14:59:25","新北市板橋區文聖街59號","121.476645","25.0312833333333","6500100","板橋區"
"220012","806-UM","2018/12/01 14:59:39","新北市板橋區區運路65號","121.466868333333","25.0105516666667","6500100","板橋區"
"220003","827-TW","2018/12/01 14:59:37","新北市板橋區仁愛路86巷13弄1號","121.461083333333","24.9989533333333","6500100","板橋區"
"220014","830-TW","2018/12/01 14:59:24","新北市板橋區中山路一段212號","121.470093333333","25.0137633333333","6500100","板橋區"
"220045","831-TW","2018/12/01 14:59:35","新北市板橋區莒光路79巷9-2號","121.47191","25.0245116666667","6500100","板橋區"
"220037","833-TW","2018/12/01 14:59:37","新北市板橋區大同街69號","121.479426666667","25.0280016666667","6500100","板橋區"
"220022","895-R6","2018/12/01 14:59:34","新北市板橋區館前西路53號","121.4578","25.0068133333333","6500100","板橋區"
"220021","985-R7","2018/12/01 14:59:39","新北市板橋區大觀路一段19號","121.450288333333","25.0084866666667","6500100","板橋區"
"220046","AAC-210","2018/12/01 14:59:39","新北市板橋區光正街18巷1號","121.46247","25.0173516666667","6500100","板橋區"
"220018","AAC-253","2018/12/01 14:59:26","新北市板橋區四川路一段127號","121.459871666667","25.0047683333333","6500100","板橋區"
"235032","KEA-2873","2018/12/01 14:59:17","新北市中和區莊敬路33巷3弄1號","121.500001666667","25.0061183333333","6500300","中和區"
