"lineid","car","time","location","longitude","latitude","cityid","cityname"
"249005","172-UM","2018/12/01 16:49:42","新北市八里區大堀湖2-3號","121.422498333333","25.1537116666667","6502300","八里區"
"249004","303-UY","2018/12/01 16:49:42","新北市八里區博物館路202巷30號","121.4052","25.1594316666667","6502300","八里區"
"249002","305-UY","2018/12/01 16:49:31","新北市八里區牛寮埔31號","121.42963","25.1457933333333","6502300","八里區"
"249003","593-UM","2018/12/01 16:49:40","新北市八里區中山路二段289號","121.401553333333","25.1486316666667","6502300","八里區"
"231042","645-TV","2018/12/01 16:41:20","新北市新店區安康路二段414巷2號","121.49622","24.95775","6500600","新店區"
"241011","013-R5","2018/12/01 16:49:39","新北市三重區仁愛街53巷174號","121.50009","25.0728416666667","6500200","三重區"
"241028","022-UY","2018/12/01 16:49:25","新北市三重區光興街81號","121.497696666667","25.0599933333333","6500200","三重區"
"241008","059-VK","2018/12/01 16:49:38","新北市三重區永安北路一段11巷16弄4號","121.476928333333","25.07507","6500200","三重區"
"241022","060-VK","2018/12/01 16:49:38","新北市三重區貴陽街47巷2號","121.484886666667","25.0629883333333","6500200","三重區"
"241031","061-VK","2018/12/01 16:49:27","新北市三重區過圳街5號","121.488998333333","25.0587616666667","6500200","三重區"
"241015","062-VK","2018/12/01 16:49:29","新北市三重區文化北路47號","121.49889","25.06548","6500200","三重區"
"241017","063-VK","2018/12/01 16:49:32","新北市三重區國隆路8巷45號","121.49246","25.06341","6500200","三重區"
"241024","065-VK","2018/12/01 16:49:30","新北市三重區中正北路317巷20號","121.475376666667","25.0729766666667","6500200","三重區"
"241026","066-VK","2018/12/01 16:49:38","新北市三重區文化南路10巷18號","121.500755","25.062175","6500200","三重區"
"241002","090-VK","2018/12/01 16:49:30","新北市三重區仁義街151號","121.497225","25.0809566666667","6500200","三重區"
"241003","091-VK","2018/12/01 16:49:23","新北市三重區五華街141巷58號","121.493551666667","25.0867666666667","6500200","三重區"
"251014","742-BX","2018/12/01 16:49:27","新北市淡水區淡金路四段476號","121.452431666667","25.2238983333333","6501000","淡水區"
"241005","262-UM","2018/12/01 16:49:31","新北市三重區仁華街80巷8弄7號","121.484038333333","25.0833166666667","6500200","三重區"
"241016","265-UM","2018/12/01 16:49:32","新北市三重區大同北路95巷3號","121.494806666667","25.0640283333333","6500200","三重區"
"241009","267-UM","2018/12/01 16:49:39","新北市三重區溪尾街208號","121.487993333333","25.0812033333333","6500200","三重區"
"241018","268-UM","2018/12/01 16:49:42","新北市三重區安慶街149巷20號","121.494191666667","25.0693316666667","6500200","三重區"
"241032","269-UM","2018/12/01 16:49:21","新北市三重區重陽路一段120巷35號","121.485225","25.0601616666667","6500200","三重區"
"241013","270-UM","2018/12/01 16:49:39","新北市三重區仁壽街22號","121.496828333333","25.0734233333333","6500200","三重區"
"241025","271-UM","2018/12/01 16:49:30","新北市三重區中正北路510號","121.472478333333","25.0717133333333","6500200","三重區"
"241007","398-BY","2018/12/01 16:49:41","新北市三重區三和路四段181巷92號","121.484605","25.0796","6500200","三重區"
"241004","475-VK","2018/12/01 16:49:36","新北市三重區仁愛街403號","121.490996666667","25.0809533333333","6500200","三重區"
"241020","478-VK","2018/12/01 16:49:38","新北市三重區忠孝路二段34號","121.485806666667","25.0710383333333","6500200","三重區"
"241030","480-VK","2018/12/01 16:49:40","新北市三重區新興路16號","121.49236","25.0531233333333","6500200","三重區"
"241014","543-UM","2018/12/01 16:49:39","新北市三重區長壽街120巷11號","121.50251","25.0691383333333","6500200","三重區"
"241023","545-UM","2018/12/01 16:49:25","新北市三重區新北大道一段206巷20號","121.482526666667","25.06228","6500200","三重區"
"241001","547-UM","2018/12/01 16:49:43","新北市三重區仁政街56號","121.492871666667","25.0770083333333","6500200","三重區"
"241033","557-UM","2018/12/01 16:49:39","新北市三重區新北大道二段131號","121.466271666667","25.06155","6500200","三重區"
"241019","KEA-2593","2018/12/01 16:49:43","新北市三重區力行路一段179巷3號","121.484671666667","25.0697533333333","6500200","三重區"
"241006","743-BX","2018/12/01 16:49:37","新北市三重區力行路二段145號","121.483518333333","25.0774466666667","6500200","三重區"
"241012","941-UM","2018/12/01 16:49:33","新北市三重區仁壽街216號","121.50176","25.0750983333333","6500200","三重區"
"241029","942-UM","2018/12/01 16:49:39","新北市三重區集美街175號","121.49131","25.0540533333333","6500200","三重區"
"235046","733-UM","2018/12/01 16:23:27","新北市中和區員山路36巷13號","121.484163333333","24.9908483333333","6500300","中和區"
"247006","337-TH","2018/12/01 16:49:30","新北市蘆洲區永安南路二段132-1號","121.46256","25.07856","6501400","蘆洲區"
"247008","336-TH","2018/12/01 16:49:27","新北市蘆洲區中山一路174號","121.474381666667","25.0812216666667","6501400","蘆洲區"
"247020","057-VK","2018/12/01 16:49:25","新北市蘆洲區民族路422巷9弄2號","121.474111666667","25.0921266666667","6501400","蘆洲區"
"247010","056-VK","2018/12/01 16:49:20","新北市三重區環河北路三段528號","121.488766666667","25.09086","6501400","蘆洲區"
"247022","001-UY","2018/12/01 16:49:38","新北市蘆洲區三民路128巷89-1號","121.467913333333","25.09336","6501400","蘆洲區"
"228003","097-TW","2018/12/01 16:49:31","新北市貢寮區貢寮里朝陽街1-2號","121.912361666667","25.0212833333333","6502600","貢寮區"
"228002","585-TW","2018/12/01 16:49:31","新北市貢寮區貢寮里朝陽街126號","121.907771666667","25.022405","6502600","貢寮區"
"224006","676-BX","2018/12/01 16:49:23","新北市瑞芳區大寮路356-1號","121.784735","25.103145","6501200","瑞芳區"
"224008","285-BY","2018/12/01 16:49:31","新北市瑞芳區中山路159號","121.802081666667","25.1065133333333","6501200","瑞芳區"
"224007","275-VK","2018/12/01 16:49:12","新北市瑞芳區中央路24號","121.76195","25.103555","6501200","瑞芳區"
"224009","273-VK","2018/12/01 16:49:30","新北市瑞芳區中山路139號","121.802973333333","25.1063616666667","6501200","瑞芳區"
"224005","271-BY","2018/12/01 16:49:23","新北市瑞芳區洞頂路81號","121.861843333333","25.1196883333333","6501200","瑞芳區"
"227002","642-TC","2018/12/01 16:49:23","新北市雙溪區外柑里外柑腳71號","121.807131666667","25.01759","6502500","雙溪區"
"227010","400-TW","2018/12/01 16:49:24","新北市雙溪區牡丹里五分2號","121.866678333333","25.047075","6502500","雙溪區"
"251013","KEA-2871","2018/12/01 16:49:30","新北市淡水區泉洲厝32號","121.48924","25.192575","6501000","淡水區"
"251016","179-VK","2018/12/01 16:49:30","新北市淡水區水頭42號","121.478308333333","25.1849566666667","6501000","淡水區"
"251008","181-VK","2018/12/01 16:49:38","新北市淡水區樹梅坑20號","121.474588333333","25.14214","6501000","淡水區"
"251015","182-VK","2018/12/01 16:49:28","新北市淡水區忠愛街5-1號","121.460738333333","25.1716816666667","6501000","淡水區"
"251012","441-VK","2018/12/01 16:49:22","新北市淡水區中正路二段31號","121.419628333333","25.1815033333333","6501000","淡水區"
"251006","561-UM","2018/12/01 16:49:36","新北市淡水區文化路63號","121.438261666667","25.172855","6501000","淡水區"
"251007","577-R6","2018/12/01 16:49:32","新北市淡水區重建街永興巷11號","121.439491666667","25.1726133333333","6501000","淡水區"
"251011","650-BX","2018/12/01 16:49:38","新北市淡水區中正路257號","121.433253333333","25.1744533333333","6501000","淡水區"
"252002","178-VK","2018/12/01 16:49:36","新北市三芝區埔坪里埔頭坑88-7號","121.506815","25.2548883333333","6502100","三芝區"
"252001","292-VK","2018/12/01 16:49:39","新北市三芝區淡金路二段89號","121.503878333333","25.2608066666667","6502100","三芝區"
"242048","497-BY","2018/12/01 16:49:26","新北市新莊區新泰路357巷3弄57號","121.44229","25.039435","6500500","新莊區"
"242039","415-TV","2018/12/01 16:32:07","新北市新莊區新泰路255巷83號","121.442468333333","25.0386216666667","6500500","新莊區"
"242023","362-BY","2018/12/01 16:49:24","新北市新莊區三和路18-25號","121.441791666667","25.0391266666667","6500500","新莊區"
"242031","348-TH","2018/12/01 16:49:26","新北市新莊區新泰路357巷3弄57號","121.442146666667","25.0395933333333","6500500","新莊區"
"242015","351-TH","2018/12/01 16:49:25","新北市新莊區新泰路357巷3弄57號","121.44204","25.039555","6500500","新莊區"
"238022","KEA-2213","2018/12/01 16:49:33","新北市樹林區八德街1012號","121.391363333333","24.9684966666667","6500700","樹林區"
"239007","AAC-297","2018/12/01 16:49:40","新北市鶯歌區二甲路13-16號","121.3451","24.9351466666667","6500800","鶯歌區"
"242007","280-VK","2018/12/01 16:49:36","新北市新莊區三和路12-21號","121.441953333333","25.0383833333333","6500500","新莊區"
