"lineid","car","time","location","longitude","latitude","cityid","cityname"
"234042","862-TW","2018/12/01 18:09:25","新北市永和區福和路1號","121.52633","25.0097033333333","6500400","永和區"
"234026","9371-KE","2018/12/01 18:09:25","新北市永和區水源街5號","121.512433333333","25.0048733333333","6500400","永和區"
"249005","172-UM","2018/12/01 18:09:42","新北市八里區荖阡坑路15-40號","121.401703333333","25.1398666666667","6502300","八里區"
"249001","173-UM","2018/12/01 18:03:52","新北市八里區龍米路二段32巷11號","121.449315","25.14005","6502300","八里區"
"249004","303-UY","2018/12/01 18:09:42","新北市八里區龍米路二段200巷3號","121.433753333333","25.15874","6502300","八里區"
"249002","305-UY","2018/12/01 18:09:31","新北市八里區龍米路一段356巷46號","121.452205","25.13019","6502300","八里區"
"249003","593-UM","2018/12/01 18:09:40","新北市八里區中華路二段488號","121.400196666667","25.1456316666667","6502300","八里區"
"248006","077-UY","2018/12/01 18:09:39","新北市五股區中興路二段56號","121.461683333333","25.076755","6501500","五股區"
"248008","095-VK","2018/12/01 18:09:38","新北市五股區中興路二段182巷15弄13-1號","121.457238333333","25.08114","6501500","五股區"
"248020","225-UY","2018/12/01 18:09:29","新北市五股區成泰路三段544-1號","121.454526666667","25.1024516666667","6501500","五股區"
"248012","247-BX","2018/12/01 18:09:36","新北市五股區成泰路三段101-1號","121.444218333333","25.0902316666667","6501500","五股區"
"248014","261-SL","2018/12/01 18:09:38","新北市五股區成泰路一段187號","121.435051666667","25.07645","6501500","五股區"
"248010","272-BY","2018/12/01 18:09:40","新北市五股區成泰路一段219-19號","121.434556666667","25.0776966666667","6501500","五股區"
"248002","678-BX","2018/12/01 18:09:32","新北市五股區新五路三段38號","121.444225","25.0877516666667","6501500","五股區"
"248004","682-TV","2018/12/01 18:09:39","新北市五股區中興路四段40-3號","121.438668333333","25.08277","6501500","五股區"
"232011","375-UM","2018/12/01 18:09:43","新北市坪林區下坑子口7號","121.711941666667","24.943495","6502000","坪林區"
"244023","069-UM","2018/12/01 18:09:41","新北市林口區東湖路93巷11號","121.384408333333","25.0728316666667","6501700","林口區"
"244007","080-UY","2018/12/01 18:09:43","新北市林口區林口路122號","121.388465","25.0815383333333","6501700","林口區"
"244019","402-UM","2018/12/01 18:09:28","新北市林口區忠孝路555號","121.372481666667","25.068445","6501700","林口區"
"244013","KEA-2802","2018/12/01 18:09:29","新北市林口區中山路160巷13號","121.391633333333","25.0797583333333","6501700","林口區"
"244017","485-VK","2018/12/01 18:09:41","新北市林口區忠孝路506號","121.370846666667","25.0700916666667","6501700","林口區"
"244009","656-BX","2018/12/01 18:09:25","新北市林口區文化二路二段126號","121.380021666667","25.0828483333333","6501700","林口區"
"244011","701-TV","2018/12/01 18:09:42","新北市林口區中山路5號","121.39653","25.0781116666667","6501700","林口區"
"244025","837-TS","2018/12/01 18:09:37","新北市林口區文化北路一段299巷36號","121.358668333333","25.0725716666667","6501700","林口區"
"244021","838-TS","2018/12/01 18:09:27","新北市林口區自強八街1號","121.400616666667","25.0765216666667","6501700","林口區"
"243013","AAD-798","2018/12/01 18:09:44","新北市泰山區南林路99巷1-1號","121.415483333333","25.0511166666667","6501600","泰山區"
"222002","016-RS","2018/12/01 18:09:27","新北市深坑區文化街42號","121.619078333333","25.001625","6501800","深坑區"
"231041","002-UM","2018/12/01 18:09:32","新北市新店區安華路28-1號","121.519708333333","24.9608816666667","6500600","新店區"
"231052","108-UY","2018/12/01 18:09:40","新北市新店區安一路一段1-1號","121.519876666667","24.961135","6500600","新店區"
"231048","187-VK","2018/12/01 18:09:25","新北市新店區安一路一段1-1號","121.519605","24.96129","6500600","新店區"
"231054","KEA-2219","2018/12/01 18:09:35","新北市新店區安一路一段1-1號","121.519953333333","24.96131","6500600","新店區"
"231057","256-BX","2018/12/01 18:09:25","新北市新店區安一路一段1-1號","121.519675","24.9611483333333","6500600","新店區"
"231042","268-BY","2018/12/01 18:09:24","新北市新店區安華路28-1號","121.519473333333","24.9606433333333","6500600","新店區"
"231050","AAD-862","2018/12/01 18:09:40","新北市新店區安華路28-1號","121.519803333333","24.9607733333333","6500600","新店區"
"231058","3713-VJ","2018/12/01 18:09:36","新北市新店區安華路28-1號","121.519211666667","24.9606466666667","6500600","新店區"
"231056","4715-K9","2018/12/01 18:09:46","新北市新店區安康路一段94-2號","121.527801666667","24.9620916666667","6500600","新店區"
"231067","4772-VM","2018/12/01 18:09:30","新北市新店區安華路28-1號","121.519221666667","24.9606283333333","6500600","新店區"
"231065","512-UM","2018/12/01 18:09:43","新北市新店區安一路一段1-1號","121.518838333333","24.96115","6500600","新店區"
"231049","513-UM","2018/12/01 18:09:46","新北市新店區安一路一段1-1號","121.519733333333","24.96113","6500600","新店區"
"231063","616-UM","2018/12/01 18:09:30","新北市新店區安華路28-1號","121.5194","24.96061","6500600","新店區"
"231061","619-UM","2018/12/01 18:09:30","新北市新店區安華路28-1號","121.51977","24.9607416666667","6500600","新店區"
"231042","645-TV","2018/12/01 18:09:32","新北市新店區安康路二段414巷2號","121.495963333333","24.9578083333333","6500600","新店區"
"231064","719-UM","2018/12/01 18:09:28","新北市新店區安一路一段1-1號","121.519371666667","24.9612966666667","6500600","新店區"
"231051","719-UY","2018/12/01 18:09:37","新北市新店區安華路28-1號","121.519636666667","24.960815","6500600","新店區"
"231060","897-TW","2018/12/01 18:09:30","新北市新店區安華路28-1號","121.519511666667","24.960725","6500600","新店區"
"231043","899-TW","2018/12/01 18:09:42","新北市新店區安華路28-1號","121.518996666667","24.9608033333333","6500600","新店區"
"231055","AKT-0513","2018/12/01 18:09:34","新北市新店區安華路28-1號","121.519543333333","24.9605633333333","6500600","新店區"
"241024","065-VK","2018/12/01 18:09:29","新北市三重區中正北路265號","121.475321666667","25.0710716666667","6500200","三重區"
"251014","742-BX","2018/12/01 18:09:28","新北市淡水區南平14-1號","121.485601666667","25.2208716666667","6501000","淡水區"
"241033","557-UM","2018/12/01 18:03:59","新北市三重區中興北街139號","121.469383333333","25.051245","6500200","三重區"
"235066","003-UY","2018/12/01 18:09:31","新北市中和區中和路8號","121.499608333333","25.0022616666667","6500300","中和區"
"235064","005-UY","2018/12/01 18:09:32","新北市中和區中正路131號","121.49968","24.99348","6500300","中和區"
"235063","006-UY","2018/12/01 18:09:24","新北市中和區員山路36巷16-3號","121.485063333333","24.9914616666667","6500300","中和區"
"235056","096-UM","2018/12/01 18:09:33","新北市中和區中正路637巷52弄3號","121.485341666667","24.9936316666667","6500300","中和區"
"235039","097-UM","2018/12/01 18:09:28","新北市中和區中正路637巷60弄61號","121.485446666667","24.993285","6500300","中和區"
"235065","098-UM","2018/12/01 18:09:38","新北市中和區莊敬路49巷18號","121.501671666667","25.0061466666667","6500300","中和區"
"235058","151-BY","2018/12/01 18:09:27","新北市中和區圓通路367巷61弄2號","121.491711666667","24.983425","6500300","中和區"
"235055","183-VK","2018/12/01 18:09:29","新北市中和區員山路36巷16-3號","121.485005","24.9913883333333","6500300","中和區"
"235038","185-VK","2018/12/01 18:09:42","新北市中和區大智街2號","121.51989","24.9918283333333","6500300","中和區"
"235043","352-BY","2018/12/01 18:09:39","新北市中和區錦和路350-1號","121.490501666667","24.9935716666667","6500300","中和區"
"247012","KEA-2869","2018/12/01 18:09:31","新北市蘆洲區中山一路243號","121.473298333333","25.080515","6501400","蘆洲區"
"235050","4979-A6","2018/12/01 18:09:29","新北市中和區錦和路350-1號","121.490031666667","24.993545","6500300","中和區"
"235042","551-UM","2018/12/01 18:09:28","新北市中和區景平路255號","121.508673333333","24.99292","6500300","中和區"
"235070","558-UM","2018/12/01 18:09:32","新北市中和區圓通路207號","121.497228333333","24.994425","6500300","中和區"
"235045","565-BX","2018/12/01 18:09:32","新北市中和區中正路271-1號","121.495788333333","24.9935666666667","6500300","中和區"
"235054","640-BX","2018/12/01 18:09:32","新北市土城區延壽路118-6號","121.469078333333","24.994615","6500300","中和區"
"235060","647-TV","2018/12/01 18:09:29","新北市中和區員山路105號","121.480865","24.9944833333333","6500300","中和區"
"235062","800-TS","2018/12/01 18:09:29","新北市中和區中正路748號","121.485455","24.998405","6500300","中和區"
"235057","801-TS","2018/12/01 18:09:39","新北市中和區員山路88號","121.480855","24.9943433333333","6500300","中和區"
"235041","802-TS","2018/12/01 18:09:32","新北市中和區和城路一段271巷1號","121.485446666667","24.9916283333333","6500300","中和區"
"235052","805-TS","2018/12/01 18:09:25","新北市中和區錦和路350-1號","121.490353333333","24.9935533333333","6500300","中和區"
"235048","896-TW","2018/12/01 18:09:27","新北市中和區員山路36巷16-3號","121.484921666667","24.9919133333333","6500300","中和區"
"235053","900-TW","2018/12/01 18:09:33","新北市中和區員山路36巷16-3號","121.484828333333","24.99173","6500300","中和區"
"235051","157-BY","2018/12/01 18:09:26","新北市中和區復興路73號","121.503691666667","24.990265","6500300","中和區"
"235037","AAC-213","2018/12/01 18:09:41","新北市中和區景平路149號","121.513971666667","24.9920633333333","6500300","中和區"
"235059","AAC-215","2018/12/01 17:57:15","新北市中和區員山路36巷16-3號","121.485028333333","24.9913233333333","6500300","中和區"
"226004","312-R5","2018/12/01 18:09:44","新北市平溪區白石里中埔132號","121.723468333333","25.022255","6502400","平溪區"
"228003","097-TW","2018/12/01 18:09:31","新北市貢寮區真理里美艷山街6-2號","121.928936666667","25.0607016666667","6502600","貢寮區"
"228001","212-TW","2018/12/01 18:09:28","新北市貢寮區真理里新港街26巷55弄2-1號","121.927411666667","25.05286","6502600","貢寮區"
"228002","585-TW","2018/12/01 18:09:31","新北市貢寮區福連里福興街39-3號","121.992995","25.0123383333333","6502600","貢寮區"
"224006","676-BX","2018/12/01 18:09:43","新北市瑞芳區中山路20號","121.804213333333","25.106235","6501200","瑞芳區"
"224008","285-BY","2018/12/01 18:09:31","新北市瑞芳區明燈路一段45巷109號","121.821931666667","25.1036483333333","6501200","瑞芳區"
"224009","273-VK","2018/12/01 18:09:30","新北市瑞芳區金光路115號","121.853666666667","25.1063066666667","6501200","瑞芳區"
"224005","271-BY","2018/12/01 18:09:43","新北市瑞芳區深澳路4號","121.81672","25.12893","6501200","瑞芳區"
"227002","642-TC","2018/12/01 18:09:44","新北市雙溪區共和里東榮街52號","121.866303333333","25.033665","6502500","雙溪區"
"253006","032-BX","2018/12/01 18:09:33","新北市石門區老梅路52巷25弄2-1號","121.546763333333","25.28711","6502200","石門區"
"253005","295-VK","2018/12/01 18:09:34","新北市石門區福安街17號","121.56861","25.292615","6502200","石門區"
"222001","KEA-2212","2018/12/01 18:09:38","新北市深坑區北深路二段153號","121.614293333333","25.00226","6501800","深坑區"
"208002","KEA-2872","2018/12/01 18:09:30","新北市金山區三界壇路107號","121.619686666667","25.23107","6502700","金山區"
"208003","665-BX","2018/12/01 18:09:40","新北市金山區磺港里磺港路171-1號","121.643665","25.2237733333333","6502700","金山區"
"208001","761-BX","2018/12/01 18:09:37","新北市金山區磺港里磺港路73號","121.647585","25.22717","6502700","金山區"
"251009","008-UM","2018/12/01 18:09:32","新北市淡水區大忠街34巷5號","121.443528333333","25.1756116666667","6501000","淡水區"
"251005","010-UM","2018/12/01 18:09:34","新北市淡水區水源街一段120號","121.44725","25.17184","6501000","淡水區"
"251001","011-UM","2018/12/01 18:09:23","新北市淡水區自立路1巷19號","121.462668333333","25.1296566666667","6501000","淡水區"
"251002","012-UM","2018/12/01 18:09:38","新北市淡水區中正東路一段125號","121.455515","25.15935","6501000","淡水區"
"251013","KEA-2871","2018/12/01 18:09:30","新北市淡水區口湖子6號","121.47619","25.191445","6501000","淡水區"
"251016","179-VK","2018/12/01 18:09:34","新北市淡水區下圭柔山15-5號","121.452355","25.2016183333333","6501000","淡水區"
"251008","181-VK","2018/12/01 18:09:38","新北市淡水區紅樹林路86號","121.459433333333","25.160875","6501000","淡水區"
"251015","182-VK","2018/12/01 18:09:28","新北市淡水區興福寮88巷1號","121.485285","25.1649016666667","6501000","淡水區"
"251010","413-VK","2018/12/01 18:09:35","新北市淡水區中正路二段50巷10號","121.419848333333","25.18331","6501000","淡水區"
"251012","441-VK","2018/12/01 18:09:43","新北市淡水區北新路三段176號","121.492886666667","25.1928116666667","6501000","淡水區"
"251004","443-VK","2018/12/01 18:09:30","新北市淡水區民族路110巷24號","121.461773333333","25.1355233333333","6501000","淡水區"
"251006","561-UM","2018/12/01 18:09:36","新北市淡水區真理街3巷24-1號","121.437816666667","25.1764983333333","6501000","淡水區"
"251011","650-BX","2018/12/01 18:09:38","新北市淡水區三空泉5號","121.477348333333","25.1612466666667","6501000","淡水區"
"251003","673-BX","2018/12/01 18:09:35","新北市淡水區大忠街113巷29號","121.447581666667","25.1774783333333","6501000","淡水區"
"207003","550-UM","2018/12/01 18:09:42","新北市萬里區野柳里港西路76號","121.685783333333","25.2051083333333","6502800","萬里區"
"207004","225-TW","2018/12/01 18:09:34","新北市萬里區中幅里中福路112-1號","121.676093333333","25.1677666666667","6502800","萬里區"
"252002","178-VK","2018/12/01 18:09:36","新北市三芝區中山路二段38號","121.502996666667","25.2551083333333","6502100","三芝區"
"252003","249-BX","2018/12/01 18:09:25","新北市三芝區埔頭里埔頭37號","121.498465","25.2602966666667","6502100","三芝區"
"252001","292-VK","2018/12/01 18:09:39","新北市三芝區中興街二段6號","121.49844","25.2565483333333","6502100","三芝區"
"237004","KEA-2597","2018/12/01 18:09:32","新北市三峽區大埔路317號","121.368258333333","24.9012233333333","6500900","三峽區"
"237009","210-TH","2018/12/01 18:09:33","新北市三峽區大仁路51號","121.36539","24.93744","6500900","三峽區"
"237013","252-BX","2018/12/01 18:09:39","新北市三峽區長泰街45號","121.377701666667","24.9326916666667","6500900","三峽區"
"237012","275-BY","2018/12/01 18:07:05","新北市三峽區民生街19巷7弄46號","121.377538333333","24.935245","6500900","三峽區"
"237008","302-VK","2018/12/01 18:09:30","新北市三峽區白雞42-1號","121.379053333333","24.9110033333333","6500900","三峽區"
"237014","433-BY","2018/12/01 18:09:43","新北市三峽區復興路110巷6號","121.373001666667","24.9385166666667","6500900","三峽區"
"237006","5529-G3","2018/12/01 18:09:26","新北市三峽區介壽路二段138巷1弄100號","121.397521666667","24.9313466666667","6500900","三峽區"
"237011","KEA-2596","2018/12/01 18:09:43","新北市三峽區大同路34號","121.377558333333","24.9290733333333","6500900","三峽區"
"237016","649-BX","2018/12/01 18:09:42","新北市三峽區紫新路38巷2號","121.422066666667","24.922515","6500900","三峽區"
"237010","706-TV","2018/12/01 18:09:33","新北市三峽區民族街93號","121.36946","24.929075","6500900","三峽區"
"237005","AKY-6261","2018/12/01 18:09:42","新北市三峽區民生街245號","121.370775","24.9346716666667","6500900","三峽區"
"236070","105-UM","2018/12/01 18:09:38","新北市土城區明德路一段130號","121.463603333333","24.9791133333333","6501300","土城區"
"236042","KED-0685","2018/12/01 18:09:38","新北市土城區城林路6巷80號","121.438441666667","24.9795816666667","6501300","土城區"
"236079","166-UM","2018/12/01 18:09:30","新北市土城區永安街15號","121.433823333333","24.964835","6501300","土城區"
"236030","253-BX","2018/12/01 18:09:35","新北市土城區城林路6巷80號","121.438491666667","24.9795366666667","6501300","土城區"
"236026","269-VK","2018/12/01 18:09:26","新北市土城區承天路18號","121.439525","24.96344","6501300","土城區"
"236014","270-VK","2018/12/01 18:09:35","新北市土城區學府路一段167號","121.45287","24.985595","6501300","土城區"
"236038","271-VK","2018/12/01 18:09:38","新北市土城區青雲路449號","121.458941666667","24.9749483333333","6501300","土城區"
"236021","401-BY","2018/12/01 18:09:27","新北市土城區城林路6巷80號","121.438491666667","24.979795","6501300","土城區"
"236059","912-UM","2018/12/01 18:09:39","新北市土城區中央路四段196-1號","121.416273333333","24.9576783333333","6501300","土城區"
"236049","913-UM","2018/12/01 18:09:26","新北市土城區明德路一段365-1號","121.453573333333","24.9790116666667","6501300","土城區"
"236063","915-UM","2018/12/01 18:09:42","新北市土城區金城路二段232號","121.456583333333","24.9829366666667","6501300","土城區"
"236055","970-R7","2018/12/01 18:09:37","新北市土城區中華路二段92號","121.438236666667","24.974745","6501300","土城區"
"242036","AAC-296","2018/12/01 18:09:38","新北市新莊區後港一路49巷3弄1號","121.425753333333","25.0268566666667","6500500","新莊區"
"242058","986-R7","2018/12/01 18:09:35","新北市新莊區壽山路162號","121.415171666667","25.031135","6500500","新莊區"
"242056","751-BX","2018/12/01 18:09:35","新北市新莊區泰豐街11巷9號","121.448053333333","25.03123","6500500","新莊區"
"242027","705-TV","2018/12/01 18:09:33","新北市新莊區幸福路559號","121.454396666667","25.0492266666667","6500500","新莊區"
"242025","613-BX","2018/12/01 18:09:43","新北市新莊區五工二路95號","121.459148333333","25.0665116666667","6500500","新莊區"
"242029","612-BX","2018/12/01 18:09:29","新北市新莊區中平路192號","121.444878333333","25.0482183333333","6500500","新莊區"
"242044","566-BX","2018/12/01 18:09:26","新北市新莊區中正路力行巷1弄1號","121.41707","25.0262833333333","6500500","新莊區"
"242048","497-BY","2018/12/01 18:09:26","新北市新莊區富國路148號","121.423148333333","25.0251766666667","6500500","新莊區"
"242011","442-UM","2018/12/01 18:09:35","新北市新莊區中信街86號","121.447885","25.0532666666667","6500500","新莊區"
"242053","441-UM","2018/12/01 18:09:36","新北市新莊區民安西路400號","121.42868","25.0101616666667","6500500","新莊區"
"242002","440-UM","2018/12/01 18:09:29","新北市新莊區新莊路120號","121.456021666667","25.0359566666667","6500500","新莊區"
"242039","415-TV","2018/12/01 18:09:31","新北市新莊區民安西路38巷37號","121.426315","25.020205","6500500","新莊區"
"242009","413-TV","2018/12/01 18:09:37","新北市新莊區昌平街71巷10號","121.454073333333","25.0537183333333","6500500","新莊區"
"242046","400-BY","2018/12/01 18:09:43","新北市新莊區福營路279號","121.427393333333","25.02941","6500500","新莊區"
"242061","353-BY","2018/12/01 18:09:38","新北市新莊區新樹路79號","121.437771666667","25.0275266666667","6500500","新莊區"
"242034","135-UY","2018/12/01 18:09:41","新北市新莊區景德路245號","121.448598333333","25.033605","6500500","新莊區"
"242051","172-VK","2018/12/01 18:09:01","新北市新莊區民本街11巷2弄29號","121.429188333333","25.0201283333333","6500500","新莊區"
"242019","175-VK","2018/12/01 18:09:29","新北市新莊區中港路132巷12號","121.455875","25.0406333333333","6500500","新莊區"
"242031","348-TH","2018/12/01 18:09:40","新北市新莊區新泰路277巷25號","121.444838333333","25.0402083333333","6500500","新莊區"
"242004","349-TH","2018/12/01 18:09:37","新北市新莊區自立街82號","121.454561666667","25.04531","6500500","新莊區"
"242021","350-TH","2018/12/01 18:09:39","新北市新莊區建興街32號","121.45004","25.0372766666667","6500500","新莊區"
"242015","351-TH","2018/12/01 18:09:45","新北市新莊區中平路152巷40號","121.44648","25.0473816666667","6500500","新莊區"
"238015","755-BX","2018/12/01 18:09:35","新北市樹林區大安路347號","121.416518333333","24.9906216666667","6500700","樹林區"
"238023","601-UM","2018/12/01 18:09:26","新北市樹林區三福街72號","121.404515","25.016265","6500700","樹林區"
"238019","599-UM","2018/12/01 18:09:26","新北市樹林區水源街56號","121.425801666667","24.980985","6500700","樹林區"
"238018","571-TV","2018/12/01 18:09:40","新北市板橋區大觀路三段265號","121.428976666667","24.9923316666667","6500700","樹林區"
"238024","5061-A6","2018/12/01 18:09:36","新北市樹林區豐林街40號","121.42104","24.9978083333333","6500700","樹林區"
"238022","KEA-2213","2018/12/01 18:09:39","新北市樹林區太平路174巷3號","121.417961666667","24.97677","6500700","樹林區"
"238021","KEA-2539","2018/12/01 18:09:35","新北市樹林區柑園街二段149巷1號","121.382316666667","24.953825","6500700","樹林區"
"238025","303-VK","2018/12/01 18:09:40","新北市樹林區保安街二段61號","121.416085","25.0004266666667","6500700","樹林區"
"238017","283-BY","2018/12/01 18:09:45","新北市樹林區中正路660號","121.409728333333","25.0166833333333","6500700","樹林區"
"238014","282-BY","2018/12/01 18:09:41","新北市樹林區潭興街107巷21弄18號","121.423841666667","24.9988133333333","6500700","樹林區"
"238020","268-VK","2018/12/01 18:09:25","新北市樹林區三俊街155號","121.418846666667","25.0155433333333","6500700","樹林區"
"238026","172-UY","2018/12/01 18:09:28","新北市樹林區新興街19巷6號","121.400408333333","24.9728216666667","6500700","樹林區"
"238016","169-UY","2018/12/01 18:09:22","新北市樹林區日新街139號","121.420566666667","24.9886416666667","6500700","樹林區"
"239007","AAC-297","2018/12/01 18:09:40","新北市鶯歌區育英街53號","121.347048333333","24.9527166666667","6500800","鶯歌區"
"239006","891-R6","2018/12/01 18:09:45","新北市鶯歌區鶯桃路365巷112號","121.330401666667","24.96215","6500800","鶯歌區"
"239008","527-UM","2018/12/01 18:09:22","新北市鶯歌區朝陽街61巷31號","121.338851666667","24.97771","6500800","鶯歌區"
"239005","526-UM","2018/12/01 18:09:41","新北市鶯歌區鶯桃路668巷55弄5號","121.329133333333","24.97108","6500800","鶯歌區"
"239001","417-VK","2018/12/01 18:09:36","新北市鶯歌區中正三路福德巷10號","121.340625","24.941115","6500800","鶯歌區"
"239003","360-BY","2018/12/01 18:09:39","新北市鶯歌區福安街58號","121.3356","24.9651816666667","6500800","鶯歌區"
"239002","359-BY","2018/12/01 18:09:40","新北市鶯歌區中山路329巷16弄2號","121.344071666667","24.9564483333333","6500800","鶯歌區"
"239004","193-VK","2018/12/01 18:09:39","新北市鶯歌區尖山路166巷48號","121.344826666667","24.9493783333333","6500800","鶯歌區"
"221008","489-VK","2018/12/01 18:09:38","新北市汐止區康寧街397號","121.62945","25.06786","6501100","汐止區"
"221036","130-UY","2018/12/01 18:09:30","新北市汐止區長安路5號","121.667668333333","25.0775166666667","6501100","汐止區"
"221015","131-UY","2018/12/01 18:09:39","新北市汐止區鄉長路二段90-1號","121.665746666667","25.0857433333333","6501100","汐止區"
"221010","269-BY","2018/12/01 18:09:27","新北市汐止區汐萬路二段245巷38號","121.644315","25.0879516666667","6501100","汐止區"
"221012","278-VK","2018/12/01 18:09:35","新北市汐止區保長路37巷42號","121.674218333333","25.0797433333333","6501100","汐止區"
"221023","279-VK","2018/12/01 18:09:29","新北市汐止區民族五街76號","121.627743333333","25.07019","6501100","汐止區"
"221032","280-BY","2018/12/01 18:09:41","新北市汐止區力行街4號","121.617213333333","25.0511483333333","6501100","汐止區"
"221027","281-BY","2018/12/01 18:09:38","新北市汐止區大同路二段585號","121.663673333333","25.070205","6501100","汐止區"
"221029","298-VK","2018/12/01 18:09:25","新北市汐止區樟樹二路132號","121.639895","25.06562","6501100","汐止區"
"221021","299-VK","2018/12/01 18:09:32","新北市汐止區龍安路16號","121.655838333333","25.0642916666667","6501100","汐止區"
"221031","353-TW","2018/12/01 18:09:42","新北市汐止區中興路150巷1號","121.63253","25.06469","6501100","汐止區"
"221002","129-UY","2018/12/01 18:09:38","新北市汐止區福德一路197號","121.635471666667","25.0656083333333","6501100","汐止區"
"221035","622-UM","2018/12/01 18:09:43","新北市汐止區大同路二段229號","121.653183333333","25.06505","6501100","汐止區"
"221025","623-UM","2018/12/01 18:09:44","新北市汐止區秀峰路151巷1號","121.660726666667","25.0620316666667","6501100","汐止區"
"221038","646-BX","2018/12/01 18:09:35","新北市汐止區勤進路31號","121.659651666667","25.0606716666667","6501100","汐止區"
"221033","647-BX","2018/12/01 18:09:31","新北市汐止區宜興街40巷22弄2號","121.622478333333","25.0410616666667","6501100","汐止區"
"221018","753-BX","2018/12/01 18:09:23","新北市汐止區忠孝東路351號","121.665575","25.07046","6501100","汐止區"
"224002","257-TC","2018/12/01 18:09:36","新北市瑞芳區三爪子坑路66-29號","121.8114","25.1057733333333","6501200","瑞芳區"
"242042","281-VK","2018/12/01 18:09:32","新北市新莊區天祥街135巷15號","121.413698333333","25.029255","6500500","新莊區"
"242007","280-VK","2018/12/01 18:09:36","新北市新莊區自立街81號","121.454443333333","25.04545","6500500","新莊區"
"235061","KEA-2875","2018/12/01 18:09:23","新北市土城區延壽路115巷2號","121.468961666667","24.9942333333333","6500300","中和區"
