"lineid","car","time","location","longitude","latitude","cityid","cityname"
"234046","148-BY","2018/12/01 18:39:32","新北市永和區秀朗路二段66巷9號","121.522625","25.0013166666667","6500400","永和區"
"234007","207-UY","2018/12/01 18:39:36","新北市永和區文化路170號","121.51179","25.0155333333333","6500400","永和區"
"234038","336-UY","2018/12/01 18:39:35","新北市永和區福和路1號","121.526551666667","25.0099866666667","6500400","永和區"
"234064","337-UY","2018/12/01 18:39:28","新北市永和區福和路1號","121.526355","25.0099266666667","6500400","永和區"
"234070","552-UM","2018/12/01 18:39:28","新北市永和區福和路1號","121.52606","25.0090966666667","6500400","永和區"
"234017","745-BX","2018/12/01 18:39:36","新北市永和區福和路1號","121.525863333333","25.0095466666667","6500400","永和區"
"234030","746-BX","2018/12/01 18:39:33","新北市永和區秀朗路二段181巷25號","121.526771666667","25.0015533333333","6500400","永和區"
"234054","KEA-2590","2018/12/01 18:39:40","新北市永和區福和路1號","121.525955","25.0095883333333","6500400","永和區"
"234013","KEA-2591","2018/12/01 18:39:27","新北市永和區保福路二段105號","121.5102","25.0132983333333","6500400","永和區"
"234061","AAD-866","2018/12/01 18:39:37","新北市永和區福和路1號","121.52608","25.00935","6500400","永和區"
"234086","748-BX","2018/12/01 18:39:39","新北市中和區安樂路69號","121.512388333333","24.9937733333333","6500400","永和區"
"234023","9372-KE","2018/12/01 18:39:41","新北市永和區福和路29號","121.523726666667","25.0081716666667","6500400","永和區"
"234026","9371-KE","2018/12/01 18:39:45","新北市永和區永貞路415號","121.507306666667","25.00938","6500400","永和區"
"234011","9373-KE","2018/12/01 18:39:41","新北市永和區文化路9巷22弄61號","121.514126666667","25.0145","6500400","永和區"
"249005","172-UM","2018/12/01 18:39:42","新北市八里區中華路三段232號","121.388371666667","25.124425","6502300","八里區"
"249001","173-UM","2018/12/01 18:39:32","新北市八里區龍米路一段398號","121.451381666667","25.132895","6502300","八里區"
"249004","303-UY","2018/12/01 18:39:41","新北市八里區中山路一段90號","121.421318333333","25.1592416666667","6502300","八里區"
"248016","026-BX","2018/12/01 18:39:41","新北市五股區凌雲路一段149巷13-1號","121.448611666667","25.1008533333333","6501500","五股區"
"248008","095-VK","2018/12/01 18:39:38","新北市五股區中興路一段151巷34號","121.465203333333","25.0726783333333","6501500","五股區"
"248020","225-UY","2018/12/01 18:35:49","新北市五股區孝義路87號","121.444778333333","25.11993","6501500","五股區"
"248012","247-BX","2018/12/01 18:39:36","新北市五股區御史路12號","121.442201666667","25.0904683333333","6501500","五股區"
"248014","261-SL","2018/12/01 18:39:38","新北市五股區蓬萊路24號","121.434003333333","25.0798666666667","6501500","五股區"
"248010","272-BY","2018/12/01 18:39:40","新北市五股區水碓七路117號","121.430706666667","25.0739533333333","6501500","五股區"
"248002","678-BX","2018/12/01 18:39:32","新北市五股區西雲路199號","121.448043333333","25.0960883333333","6501500","五股區"
"248004","682-TV","2018/12/01 18:39:41","新北市五股區民義路一段310-9號","121.424335","25.09392","6501500","五股區"
"234077","969-R7","2018/12/01 18:39:43","新北市永和區中正路336號","121.517678333333","24.9999916666667","6500400","永和區"
"234067","AAC-212","2018/12/01 18:39:33","新北市永和區永和路一段2號","121.512705","25.0043833333333","6500400","永和區"
"234003","AAC-295","2018/12/01 18:39:35","新北市永和區福和路1號","121.526485","25.00999","6500400","永和區"
"244023","069-UM","2018/12/01 18:39:41","新北市林口區仁愛路二段119號","121.383661666667","25.074895","6501700","林口區"
"244007","080-UY","2018/12/01 18:39:43","新北市林口區中湖62號","121.38476","25.1007916666667","6501700","林口區"
"244019","402-UM","2018/12/01 18:39:28","新北市林口區麗園二街39巷17號","121.381071666667","25.06988","6501700","林口區"
"244013","KEA-2802","2018/12/01 18:39:29","新北市林口區仁愛路二段201-1號","121.37706","25.0740733333333","6501700","林口區"
"244017","485-VK","2018/12/01 18:39:41","新北市林口區文化二路66-5號","121.36578","25.06896","6501700","林口區"
"244009","656-BX","2018/12/01 18:39:25","新北市林口區竹林路346巷6號","121.39188","25.0836283333333","6501700","林口區"
"244011","701-TV","2018/12/01 18:39:42","新北市林口區興林路15號","121.389953333333","25.0769716666667","6501700","林口區"
"244025","837-TS","2018/12/01 18:39:37","新北市林口區南勢六街238號","121.355745","25.0743316666667","6501700","林口區"
"244021","838-TS","2018/12/01 18:39:27","新北市林口區工六路100號","121.401261666667","25.0765316666667","6501700","林口區"
"243013","AAD-798","2018/12/01 18:33:56","新北市泰山區明志路三段206巷3號","121.423271666667","25.037935","6501600","泰山區"
"243016","KEA-2801","2018/12/01 18:39:32","新北市泰山區泰林路二段581號","121.422083333333","25.0635333333333","6501600","泰山區"
"243012","646-TV","2018/12/01 18:39:35","新北市泰山區福興三街13號","121.434445","25.0577733333333","6501600","泰山區"
"222002","016-RS","2018/12/01 18:39:30","新北市深坑區雲鄉路3號","121.621181666667","24.9995516666667","6501800","深坑區"
"231044","001-UM","2018/12/01 18:39:35","新北市新店區環河路16號","121.537391666667","24.9614333333333","6500600","新店區"
"231041","002-UM","2018/12/01 18:39:32","新北市新店區安華路28-1號","121.519773333333","24.960765","6500600","新店區"
"231059","046-UY","2018/12/01 18:39:40","新北市新店區安華路28-1號","121.519665","24.9605633333333","6500600","新店區"
"231040","047-UY","2018/12/01 18:39:33","新北市新店區安華路28-1號","121.519183333333","24.960895","6500600","新店區"
"231052","108-UY","2018/12/01 18:39:39","新北市新店區新烏路一段105巷33號","121.546916666667","24.93982","6500600","新店區"
"231048","187-VK","2018/12/01 18:39:25","新北市新店區安一路一段1-1號","121.519598333333","24.9612016666667","6500600","新店區"
"231054","KEA-2219","2018/12/01 18:39:35","新北市新店區安一路一段1-1號","121.519958333333","24.9611933333333","6500600","新店區"
"231057","256-BX","2018/12/01 18:39:45","新北市新店區新烏路一段201號","121.548351666667","24.9317883333333","6500600","新店區"
"231042","268-BY","2018/12/01 18:39:44","新北市新店區安華路1-1號","121.519423333333","24.9604216666667","6500600","新店區"
"231050","AAD-862","2018/12/01 18:39:40","新北市新店區安華路28-1號","121.520058333333","24.96095","6500600","新店區"
"231058","3713-VJ","2018/12/01 18:39:36","新北市新店區新店後街24號","121.537945","24.9532783333333","6500600","新店區"
"231066","4716-K9","2018/12/01 18:39:34","新北市新店區安一路一段1-1號","121.519313333333","24.9611916666667","6500600","新店區"
"231056","4715-K9","2018/12/01 18:39:26","新北市新店區建國路198巷13號","121.538101666667","24.9804283333333","6500600","新店區"
"231067","4772-VM","2018/12/01 18:39:30","新北市新店區安華路1-1號","121.519138333333","24.9604983333333","6500600","新店區"
"231065","512-UM","2018/12/01 18:39:43","新北市新店區安一路一段1-1號","121.51913","24.9612733333333","6500600","新店區"
"231049","513-UM","2018/12/01 18:39:26","新北市新店區安一路一段1-1號","121.51959","24.9611783333333","6500600","新店區"
"231063","616-UM","2018/12/01 18:39:30","新北市新店區安華路1-1號","121.519461666667","24.960345","6500600","新店區"
"231061","619-UM","2018/12/01 18:39:30","新北市新店區安華路28-1號","121.51969","24.960705","6500600","新店區"
"231042","645-TV","2018/12/01 18:10:52","新北市新店區安康路二段414巷2號","121.495786666667","24.9578733333333","6500600","新店區"
"231064","719-UM","2018/12/01 18:39:28","新北市新店區安一路一段1-1號","121.519403333333","24.961295","6500600","新店區"
"231051","719-UY","2018/12/01 18:39:37","新北市新店區安康路一段287號","121.523101666667","24.9636116666667","6500600","新店區"
"231062","720-UM","2018/12/01 18:39:29","新北市新店區安一路一段1-1號","121.519228333333","24.9611383333333","6500600","新店區"
"231060","897-TW","2018/12/01 18:39:30","新北市新店區安華路28-1號","121.51952","24.960645","6500600","新店區"
"231045","898-TW","2018/12/01 18:39:42","新北市新店區安華路28-1號","121.519345","24.9607483333333","6500600","新店區"
"231043","899-TW","2018/12/01 18:39:42","新北市新店區安華路28-1號","121.519275","24.96077","6500600","新店區"
"231055","AKT-0513","2018/12/01 18:39:34","新北市新店區中華路83巷67號","121.538368333333","24.9672533333333","6500600","新店區"
"251014","742-BX","2018/12/01 18:39:27","新北市淡水區崙頂12-8號","121.495595","25.2172166666667","6501000","淡水區"
"235066","003-UY","2018/12/01 18:39:31","新北市中和區水源路37號","121.504425","25.0035633333333","6500300","中和區"
"235064","005-UY","2018/12/01 18:39:32","新北市中和區連城路109巷65號","121.49726","24.998055","6500300","中和區"
"235063","006-UY","2018/12/01 18:39:44","新北市中和區連城路268-6號","121.486293333333","24.996305","6500300","中和區"
"235056","096-UM","2018/12/01 18:39:33","新北市中和區員山路611巷1號","121.477925","25.011275","6500300","中和區"
"235039","097-UM","2018/12/01 18:39:39","新北市中和區宜安路18巷3-4號","121.513461666667","24.99592","6500300","中和區"
"235065","098-UM","2018/12/01 18:39:38","新北市中和區中山路二段2巷45弄44號","121.501745","25.00627","6500300","中和區"
"235058","151-BY","2018/12/01 18:39:34","新北市中和區員山路111號","121.480848333333","24.9948866666667","6500300","中和區"
"235055","183-VK","2018/12/01 18:39:29","新北市板橋區民族路276巷3弄4號","121.470023333333","25.00613","6500300","中和區"
"235038","185-VK","2018/12/01 18:39:42","新北市中和區大勇街43巷2號","121.517846666667","24.994895","6500300","中和區"
"235049","186-VK","2018/12/01 18:39:33","新北市中和區景平路508號","121.503826666667","24.9937716666667","6500300","中和區"
"235067","255-BX","2018/12/01 18:39:46","新北市中和區中正路881號","121.484401666667","25.004195","6500300","中和區"
"235044","293-VK","2018/12/01 18:39:39","新北市中和區復興路280巷15號","121.502236666667","24.9913666666667","6500300","中和區"
"235072","301-VK","2018/12/01 18:39:28","新北市中和區中山路二段181號","121.501051666667","25.0026616666667","6500300","中和區"
"235043","352-BY","2018/12/01 18:39:38","新北市中和區景平路149號","121.513706666667","24.9921366666667","6500300","中和區"
"247012","KEA-2869","2018/12/01 18:39:30","新北市八里區中山路三段390號","121.368286666667","25.1351916666667","6501400","蘆洲區"
"235050","4979-A6","2018/12/01 18:39:29","新北市中和區景新街496巷28弄12號","121.51293","24.98591","6500300","中和區"
"235069","4980-A6","2018/12/01 18:39:36","新北市中和區連城路89巷38號","121.49746","24.9985083333333","6500300","中和區"
"235042","551-UM","2018/12/01 18:39:43","新北市中和區成功路48號","121.526138333333","24.9929133333333","6500300","中和區"
"235070","558-UM","2018/12/01 18:39:32","新北市中和區景平路614號","121.500676666667","24.996935","6500300","中和區"
"235045","565-BX","2018/12/01 18:39:32","新北市中和區復興路3號","121.506286666667","24.9895266666667","6500300","中和區"
"235054","640-BX","2018/12/01 18:39:32","新北市中和區民享街32巷5-1號","121.473535","25.0031883333333","6500300","中和區"
"235060","647-TV","2018/12/01 18:39:41","新北市中和區中山路三段116號","121.476028333333","25.0059016666667","6500300","中和區"
"235047","732-UM","2018/12/01 18:39:45","新北市中和區南山路320巷10弄11號","121.506883333333","24.9866716666667","6500300","中和區"
"235046","733-UM","2018/12/01 18:39:34","新北市中和區忠孝街99-3號","121.511878333333","24.9860566666667","6500300","中和區"
"235071","783-BX","2018/12/01 18:39:39","新北市中和區員山路36巷16-3號","121.485195","24.991195","6500300","中和區"
"235062","800-TS","2018/12/01 18:39:29","新北市中和區中山路二段312巷10弄1號","121.495633333333","25.0031066666667","6500300","中和區"
"235057","801-TS","2018/12/01 18:39:39","新北市中和區民安街19號","121.480476666667","25.0006716666667","6500300","中和區"
"235041","802-TS","2018/12/01 18:39:34","新北市中和區中安街175號","121.510961666667","24.9998566666667","6500300","中和區"
"235052","805-TS","2018/12/01 18:39:25","新北市中和區興南路三段52-1號","121.494021666667","24.9756316666667","6500300","中和區"
"235048","896-TW","2018/12/01 18:39:27","新北市中和區南山路389號","121.506478333333","24.99025","6500300","中和區"
"235053","900-TW","2018/12/01 18:39:33","新北市中和區民德路260號","121.467921666667","24.9968983333333","6500300","中和區"
"235051","157-BY","2018/12/01 18:39:26","新北市中和區華新街143巷43號","121.506291666667","24.9804233333333","6500300","中和區"
"235037","AAC-213","2018/12/01 18:39:41","新北市中和區景德街54號","121.517491666667","24.9915166666667","6500300","中和區"
"235059","AAC-215","2018/12/01 18:39:46","新北市中和區錦和路354巷15號","121.489765","24.9915683333333","6500300","中和區"
"220086","073-UY","2018/12/01 18:39:33","新北市板橋區南雅西路二段192巷1弄31號","121.452475","25.0153433333333","6500100","板橋區"
"220069","AAD-861","2018/12/01 18:39:26","新北市板橋區大觀路二段266號","121.449373333333","24.9966333333333","6500100","板橋區"
"226004","312-R5","2018/12/01 18:39:24","新北市平溪區石底里公園街18-3號","121.733341666667","25.0257466666667","6502400","平溪區"
"228003","097-TW","2018/12/01 18:39:31","新北市貢寮區和美里龍洞街41號","121.912636666667","25.1132266666667","6502600","貢寮區"
"228001","212-TW","2018/12/01 18:39:28","新北市貢寮區仁理村研海街12-1號","121.923781666667","25.0516716666667","6502600","貢寮區"
"228002","585-TW","2018/12/01 18:39:31","新北市貢寮區福隆里桂安街17號","121.964275","25.021345","6502600","貢寮區"
"224010","AGQ-8101","2018/12/01 18:39:30","新北市瑞芳區烏勢巷107號","121.846141666667","25.1086566666667","6501200","瑞芳區"
"224006","676-BX","2018/12/01 18:39:43","新北市瑞芳區明燈路三段105號","121.803698333333","25.1087333333333","6501200","瑞芳區"
"224008","285-BY","2018/12/01 18:39:31","新北市瑞芳區瑞芳街26號","121.806478333333","25.1095933333333","6501200","瑞芳區"
"224007","275-VK","2018/12/01 18:39:32","新北市瑞芳區大埔路117號","121.763395","25.1010783333333","6501200","瑞芳區"
"224009","273-VK","2018/12/01 18:39:30","新北市瑞芳區祈堂路40號","121.85891","25.110565","6501200","瑞芳區"
"224005","271-BY","2018/12/01 18:39:43","新北市瑞芳區瑞濱路32-8號","121.822886666667","25.1208583333333","6501200","瑞芳區"
"227002","642-TC","2018/12/01 18:39:43","新北市雙溪區魚行里坤溪11號","121.873426666667","25.0227716666667","6502500","雙溪區"
"227010","400-TW","2018/12/01 18:39:44","新北市雙溪區牡丹里下坑11號","121.851031666667","25.0561583333333","6502500","雙溪區"
"253006","032-BX","2018/12/01 18:39:33","新北市石門區楓林28-1號","121.542218333333","25.28936","6502200","石門區"
"253005","295-VK","2018/12/01 18:39:34","新北市石門區中山路33號","121.567103333333","25.2909233333333","6502200","石門區"
"222001","KEA-2212","2018/12/01 18:39:38","新北市深坑區北深路一段78號","121.636471666667","25.0106966666667","6501800","深坑區"
"208002","KEA-2872","2018/12/01 18:39:30","新北市金山區仁愛路15-7號","121.638376666667","25.2186666666667","6502700","金山區"
"208003","665-BX","2018/12/01 18:39:40","新北市金山區中山路377號","121.634278333333","25.2247166666667","6502700","金山區"
"208001","761-BX","2018/12/01 18:39:37","新北市金山區文化三路42-4號","121.635225","25.2250016666667","6502700","金山區"
"251001","011-UM","2018/12/01 18:39:43","新北市淡水區自強路166號","121.465535","25.1341316666667","6501000","淡水區"
"251002","012-UM","2018/12/01 18:39:38","新北市淡水區中正東路一段3巷14弄1號","121.450878333333","25.1641433333333","6501000","淡水區"
"251013","KEA-2871","2018/12/01 18:39:30","新北市淡水區奎柔山路1262號","121.483161666667","25.2055083333333","6501000","淡水區"
"251016","179-VK","2018/12/01 18:39:34","新北市淡水區下圭柔山73號","121.443268333333","25.2071783333333","6501000","淡水區"
"251008","181-VK","2018/12/01 18:39:38","新北市淡水區北投子17-1號","121.454001666667","25.18367","6501000","淡水區"
"251015","182-VK","2018/12/01 18:39:28","新北市淡水區興福寮66巷321號","121.48469","25.161715","6501000","淡水區"
"251010","413-VK","2018/12/01 18:39:36","新北市淡水區沙崙路141-1號","121.423283333333","25.1829316666667","6501000","淡水區"
"251012","441-VK","2018/12/01 18:39:42","新北市淡水區北新路113號","121.4483","25.178415","6501000","淡水區"
"251004","443-VK","2018/12/01 18:20:20","新北市淡水區民族路33巷16-21號","121.462376666667","25.1360616666667","6501000","淡水區"
"251006","561-UM","2018/12/01 18:39:36","新北市淡水區崁頂37-11號","121.43883","25.194575","6501000","淡水區"
"251011","650-BX","2018/12/01 18:39:38","新北市淡水區鄧公路30巷2弄42號","121.454251666667","25.1690466666667","6501000","淡水區"
"251003","673-BX","2018/12/01 18:39:35","新北市淡水區北新路69巷26號","121.44659","25.1800533333333","6501000","淡水區"
"207003","550-UM","2018/12/01 18:39:37","新北市萬里區野柳里八斗60號","121.66751","25.2040183333333","6502800","萬里區"
"207004","225-TW","2018/12/01 18:39:34","新北市萬里區萬里里獅頭路7號","121.692005","25.1783416666667","6502800","萬里區"
"252002","178-VK","2018/12/01 18:39:36","新北市三芝區民生街34號","121.503753333333","25.25626","6502100","三芝區"
"252003","249-BX","2018/12/01 18:39:25","新北市三芝區後厝里土地公坑55號","121.462698333333","25.2483833333333","6502100","三芝區"
"252001","292-VK","2018/12/01 18:39:39","新北市三芝區中興街二段262號","121.50195","25.2528066666667","6502100","三芝區"
"237004","KEA-2597","2018/12/01 18:39:32","新北市三峽區插角24號","121.402043333333","24.87316","6500900","三峽區"
"237009","210-TH","2018/12/01 18:39:33","新北市三峽區大同路280號","121.364961666667","24.9252816666667","6500900","三峽區"
"237013","252-BX","2018/12/01 18:39:39","新北市三峽區光明路69巷25號","121.37661","24.9291933333333","6500900","三峽區"
"237012","275-BY","2018/12/01 18:39:44","新北市三峽區三樹路340號","121.383981666667","24.943335","6500900","三峽區"
"237008","302-VK","2018/12/01 18:39:30","新北市三峽區白雞63-5號","121.399595","24.91107","6500900","三峽區"
"237014","433-BY","2018/12/01 18:39:43","新北市三峽區復興路480巷15號","121.358458333333","24.939805","6500900","三峽區"
"237006","5529-G3","2018/12/01 18:39:26","新北市三峽區溪東路371巷4弄2號","121.412288333333","24.929895","6500900","三峽區"
"237011","KEA-2596","2018/12/01 18:39:43","新北市三峽區溪東路385號","121.411961666667","24.92906","6500900","三峽區"
"237016","649-BX","2018/12/01 18:39:42","新北市三峽區竹崙路55號","121.431111666667","24.921895","6500900","三峽區"
"237010","706-TV","2018/12/01 18:39:33","新北市三峽區復興路449號","121.36259","24.9385033333333","6500900","三峽區"
"237005","AKY-6261","2018/12/01 18:39:41","新北市三峽區文化路31號","121.372993333333","24.9360933333333","6500900","三峽區"
"236070","105-UM","2018/12/01 18:39:38","新北市土城區明德路一段51號","121.46531","24.9848533333333","6501300","土城區"
"236042","KED-0685","2018/12/01 18:39:37","新北市土城區學成路124號","121.449355","24.9894133333333","6501300","土城區"
"236079","166-UM","2018/12/01 18:39:30","新北市土城區中央路四段70號","121.41939","24.9598083333333","6501300","土城區"
"236030","253-BX","2018/12/01 18:39:35","新北市土城區福仁街65號","121.439533333333","24.9746116666667","6501300","土城區"
"236026","269-VK","2018/12/01 18:39:26","新北市土城區忠義路53-2號","121.440811666667","24.9685583333333","6501300","土城區"
"236014","270-VK","2018/12/01 18:39:35","新北市土城區清水路207巷11號","121.45986","24.9823516666667","6501300","土城區"
"236038","271-VK","2018/12/01 18:39:39","新北市土城區明德路一段291巷16號","121.46037","24.9765433333333","6501300","土城區"
"236021","401-BY","2018/12/01 18:39:27","新北市土城區延吉街305號","121.466481666667","24.9845483333333","6501300","土城區"
"236059","912-UM","2018/12/01 18:39:39","新北市土城區中央路三段155號","121.432068333333","24.96532","6501300","土城區"
"236049","913-UM","2018/12/01 18:39:30","新北市土城區明德路一段137號","121.465221666667","24.980495","6501300","土城區"
"236063","915-UM","2018/12/01 18:39:42","新北市土城區延壽路13巷36號","121.470036666667","24.9913416666667","6501300","土城區"
"236055","970-R7","2018/12/01 18:39:37","新北市土城區中華路一段23號","121.446883333333","24.9891","6501300","土城區"
"242058","986-R7","2018/12/01 18:39:41","新北市新莊區中正路881-13號","121.417143333333","25.0249866666667","6500500","新莊區"
"242011","442-UM","2018/12/01 18:39:35","新北市新莊區新莊路773號","121.441953333333","25.0325","6500500","新莊區"
"242053","441-UM","2018/12/01 18:39:36","新北市新莊區民安西路400號","121.428735","25.01019","6500500","新莊區"
"242046","400-BY","2018/12/01 18:39:33","新北市新莊區民安路21號","121.423066666667","25.0279066666667","6500500","新莊區"
"242004","349-TH","2018/12/01 18:39:37","新北市新莊區公園一路75巷13號","121.442545","25.0379933333333","6500500","新莊區"
"238015","755-BX","2018/12/01 18:39:35","新北市樹林區中山路三段160-1號","121.389366666667","24.9702266666667","6500700","樹林區"
"238023","601-UM","2018/12/01 18:39:46","新北市樹林區三福街114號","121.406575","25.0162733333333","6500700","樹林區"
"238018","571-TV","2018/12/01 18:39:40","新北市樹林區鎮前街45號","121.42537","24.9917716666667","6500700","樹林區"
"238024","5061-A6","2018/12/01 18:39:36","新北市樹林區太順街79巷17號","121.417118333333","24.9780766666667","6500700","樹林區"
"238025","303-VK","2018/12/01 18:39:40","新北市樹林區中山路三段22號","121.39561","24.9729333333333","6500700","樹林區"
"238017","283-BY","2018/12/01 18:39:45","新北市樹林區光興街83-3號","121.40988","25.002655","6500700","樹林區"
"238014","282-BY","2018/12/01 18:39:41","新北市樹林區大安路111巷25號","121.42318","24.9975116666667","6500700","樹林區"
"238020","268-VK","2018/12/01 18:39:45","新北市樹林區俊安街26號","121.419678333333","25.013925","6500700","樹林區"
"238026","172-UY","2018/12/01 18:39:28","新北市樹林區佳園路一段4號","121.392761666667","24.9715183333333","6500700","樹林區"
"239007","AAC-297","2018/12/01 18:39:40","新北市鶯歌區中正一路411號","121.360068333333","24.9570483333333","6500800","鶯歌區"
"239006","891-R6","2018/12/01 18:39:45","新北市鶯歌區鶯桃路296巷53號","121.33589","24.9613233333333","6500800","鶯歌區"
"239008","527-UM","2018/12/01 18:39:43","新北市鶯歌區國際一路179號","121.336193333333","24.97651","6500800","鶯歌區"
"239005","526-UM","2018/12/01 18:39:41","新北市鶯歌區鳳吉二街24號","121.325878333333","24.9732","6500800","鶯歌區"
"239001","417-VK","2018/12/01 18:39:16","新北市鶯歌區中正三路1號","121.339473333333","24.9430566666667","6500800","鶯歌區"
"239003","360-BY","2018/12/01 18:39:39","新北市鶯歌區鶯桃路622號","121.329823333333","24.9686416666667","6500800","鶯歌區"
"239002","359-BY","2018/12/01 18:39:40","新北市鶯歌區國華路1-3號","121.343393333333","24.9569","6500800","鶯歌區"
"239004","193-VK","2018/12/01 18:39:39","新北市鶯歌區中正三路194巷46號","121.331155","24.9408166666667","6500800","鶯歌區"
"221008","489-VK","2018/12/01 18:34:08","新北市汐止區康寧街901號","121.651446666667","25.075005","6501100","汐止區"
"221036","130-UY","2018/12/01 18:39:30","新北市汐止區水碓街63號","121.665078333333","25.0685816666667","6501100","汐止區"
"221015","131-UY","2018/12/01 18:39:39","新北市汐止區吉祥街3號","121.667943333333","25.0798916666667","6501100","汐止區"
"221010","269-BY","2018/12/01 18:39:27","新北市汐止區汐萬路二段245巷38號","121.644323333333","25.087965","6501100","汐止區"
"221012","278-VK","2018/12/01 18:39:35","新北市汐止區長江街53號","121.656055","25.0713966666667","6501100","汐止區"
"221032","280-BY","2018/12/01 18:39:46","新北市汐止區民權街二段85號","121.619086666667","25.0477066666667","6501100","汐止區"
"221027","281-BY","2018/12/01 18:39:31","新北市汐止區汐萬路一段256巷1號","121.65197","25.07477","6501100","汐止區"
"221029","298-VK","2018/12/01 18:39:25","新北市汐止區樟樹一路142號","121.642245","25.0650133333333","6501100","汐止區"
"221021","299-VK","2018/12/01 18:39:32","新北市汐止區新台五路一段145號","121.653181666667","25.0621683333333","6501100","汐止區"
"221031","353-TW","2018/12/01 18:39:32","新北市汐止區福德一路270號","121.632208333333","25.06397","6501100","汐止區"
"221002","129-UY","2018/12/01 18:39:38","新北市汐止區大同路一段293號","121.636906666667","25.0586683333333","6501100","汐止區"
"221035","622-UM","2018/12/01 18:39:43","新北市汐止區中正路311號","121.655866666667","25.0677083333333","6501100","汐止區"
"221025","623-UM","2018/12/01 18:39:24","新北市汐止區仁愛路119巷10號","121.66239","25.0640566666667","6501100","汐止區"
"221038","646-BX","2018/12/01 18:39:35","新北市汐止區汐萬路一段312號","121.650681666667","25.0753016666667","6501100","汐止區"
"221018","753-BX","2018/12/01 18:39:43","新北市汐止區茄苳路277號","121.672411666667","25.0678766666667","6501100","汐止區"
"220079","145-BY","2018/12/01 18:39:44","新北市板橋區南雅西路一段75巷1號","121.452798333333","25.0084816666667","6500100","板橋區"
"220080","200-UY","2018/12/01 18:39:31","新北市板橋區大觀路二段431-1號","121.441228333333","24.9951083333333","6500100","板橋區"
"220082","610-BX","2018/12/01 18:39:36","新北市板橋區篤行路二段73號","121.4318","24.9919983333333","6500100","板橋區"
"224002","257-TC","2018/12/01 18:39:36","新北市瑞芳區國中新村34號","121.815918333333","25.10805","6501200","瑞芳區"
"220056","276-BY","2018/12/01 18:39:35","新北市板橋區四川路二段113號","121.45153","24.99425","6500100","板橋區"
"220072","277-BY","2018/12/01 18:39:45","新北市板橋區板城路407號","121.446893333333","24.99561","6500100","板橋區"
"220094","283-UM","2018/12/01 18:39:35","新北市板橋區民生路二段161巷1號","121.47015","25.0198333333333","6500100","板橋區"
"220071","283-VK","2018/12/01 18:39:43","新北市板橋區四川路二段53號","121.453711666667","24.9952266666667","6500100","板橋區"
"220083","286-VK","2018/12/01 18:39:28","新北市板橋區板城路271號","121.450263333333","24.9978283333333","6500100","板橋區"
"220081","287-VK","2018/12/01 18:39:38","新北市板橋區大觀路二段107號","121.446298333333","25.0015816666667","6500100","板橋區"
"220068","295-UM","2018/12/01 18:39:28","新北市板橋區民生路二段89-4號","121.47111","25.018355","6500100","板橋區"
"220084","296-UM","2018/12/01 18:39:33","新北市板橋區大觀路二段153巷44弄1號","121.446163333333","24.99927","6500100","板橋區"
"242042","281-VK","2018/12/01 18:39:27","新北市泰山區磚雅厝37號","121.43779","25.043785","6500500","新莊區"
"220075","303-R5","2018/12/01 18:39:39","新北市板橋區大觀路一段35巷1號","121.44959","25.0084766666667","6500100","板橋區"
"220062","305-R5","2018/12/01 18:39:31","新北市板橋區民生路二段120號","121.470395","25.019665","6500100","板橋區"
"220098","317-R6","2018/12/01 18:39:42","新北市板橋區民生路二段120號","121.470406666667","25.0197933333333","6500100","板橋區"
"220035","560-BX","2018/12/01 18:39:31","新北市板橋區南雅西路二段177號","121.451763333333","25.012555","6500100","板橋區"
"220103","561-BX","2018/12/01 18:39:34","新北市板橋區民生路二段161巷1號","121.470286666667","25.0199433333333","6500100","板橋區"
"220063","609-BX","2018/12/01 18:39:32","新北市板橋區民生路二段161巷1號","121.469908333333","25.0200966666667","6500100","板橋區"
"220057","686-BX","2018/12/01 18:39:33","新北市板橋區華東街1-9號","121.448123333333","24.9949183333333","6500100","板橋區"
"220077","687-BX","2018/12/01 18:39:39","新北市板橋區大觀路二段174巷149號","121.441445","25.0026983333333","6500100","板橋區"
"220054","741-BX","2018/12/01 18:39:32","新北市板橋區南雅南路二段120-1號","121.452308333333","24.999695","6500100","板橋區"
"220064","806-UM","2018/12/01 18:39:39","新北市板橋區縣民大道二段60號","121.46291","25.01233","6500100","板橋區"
"220055","827-TW","2018/12/01 18:39:39","新北市板橋區南雅南路二段120-24號","121.451716666667","24.99879","6500100","板橋區"
"220074","895-R6","2018/12/01 18:39:36","新北市板橋區南雅南路一段112號","121.454858333333","25.0040316666667","6500100","板橋區"
"220073","985-R7","2018/12/01 18:39:34","新北市板橋區館前西路19號","121.458688333333","25.0069566666667","6500100","板橋區"
"220097","AAC-210","2018/12/01 18:39:41","新北市板橋區民生路二段161巷1號","121.470131666667","25.0201133333333","6500100","板橋區"
"220070","AAC-253","2018/12/01 18:39:30","新北市板橋區南雅南路二段144巷46號","121.449931666667","24.997075","6500100","板橋區"
"235068","KEA-2873","2018/12/01 18:39:25","新北市中和區中正路171號","121.497838333333","24.9936416666667","6500300","中和區"
"235061","KEA-2875","2018/12/01 18:39:23","新北市中和區民享街24號","121.473966666667","25.0036766666667","6500300","中和區"
