"lineid","car","time","location","longitude","latitude","cityid","cityname"
"234046","148-BY","2018/12/01 19:09:32","新北市永和區永元路18巷37號","121.524048333333","25.0002866666667","6500400","永和區"
"234007","207-UY","2018/12/01 19:09:36","新北市永和區保平路268巷51弄14號","121.506258333333","25.006375","6500400","永和區"
"234081","298-R6","2018/12/01 19:09:26","新北市永和區國中路204號","121.522243333333","25.00608","6500400","永和區"
"234038","336-UY","2018/12/01 19:09:35","新北市永和區民樂街69巷1號","121.52741","24.9977816666667","6500400","永和區"
"234064","337-UY","2018/12/01 19:09:29","新北市永和區秀朗路二段48號","121.52169","25.00221","6500400","永和區"
"234070","552-UM","2018/12/01 19:09:28","新北市永和區豫溪街137巷1弄17號","121.518818333333","25.0103916666667","6500400","永和區"
"234017","745-BX","2018/12/01 19:09:36","新北市永和區文化路90巷15弄1號","121.513765","25.015915","6500400","永和區"
"234030","746-BX","2018/12/01 19:09:33","新北市永和區四維街121號","121.523085","24.9983583333333","6500400","永和區"
"234054","KEA-2590","2018/12/01 19:09:40","新北市永和區竹林路77號","121.519463333333","25.01276","6500400","永和區"
"234013","KEA-2591","2018/12/01 19:09:27","新北市永和區保福路二段48號","121.511006666667","25.0120883333333","6500400","永和區"
"234061","AAD-866","2018/12/01 19:09:37","新北市永和區安樂路453號","121.514353333333","25.0050483333333","6500400","永和區"
"234086","748-BX","2018/12/01 19:09:39","新北市永和區永貞路87號","121.518465","25.0044233333333","6500400","永和區"
"234042","862-TW","2018/12/01 19:09:45","新北市永和區永貞路330號","121.511288333333","25.0055416666667","6500400","永和區"
"234050","863-TW","2018/12/01 19:09:40","新北市永和區文化路135巷26弄2號","121.510411666667","25.0144516666667","6500400","永和區"
"234023","9372-KE","2018/12/01 19:09:41","新北市永和區勵行街84巷14號","121.516385","25.0124866666667","6500400","永和區"
"234026","9371-KE","2018/12/01 19:09:45","新北市永和區安樂路272巷6號","121.514873333333","25.0041566666667","6500400","永和區"
"234011","9373-KE","2018/12/01 19:09:41","新北市永和區信義路25巷53號","121.51228","25.01152","6500400","永和區"
"249005","172-UM","2018/12/01 19:09:42","新北市八里區中華路三段145巷5號","121.392153333333","25.1335483333333","6502300","八里區"
"249001","173-UM","2018/12/01 19:09:32","新北市八里區龍米路二段236-1號","121.430941666667","25.1586916666667","6502300","八里區"
"249003","593-UM","2018/12/01 19:09:25","新北市八里區博物館路133號","121.407916666667","25.1585333333333","6502300","八里區"
"248016","026-BX","2018/12/01 19:09:41","新北市五股區成泰路三段543巷56號","121.449581666667","25.10316","6501500","五股區"
"248006","077-UY","2018/12/01 19:09:40","新北市五股區四維路117號","121.467483333333","25.07364","6501500","五股區"
"248020","225-UY","2018/12/01 19:09:29","新北市五股區凌雲路三段57號","121.425266666667","25.1250033333333","6501500","五股區"
"248012","247-BX","2018/12/01 19:09:36","新北市五股區中興路四段48巷16號","121.438631666667","25.083445","6501500","五股區"
"248010","272-BY","2018/12/01 19:09:40","新北市五股區自強路90巷72號","121.43075","25.0712133333333","6501500","五股區"
"248002","678-BX","2018/12/01 19:09:32","新北市五股區凌雲路一段158巷6號","121.447771666667","25.1030083333333","6501500","五股區"
"248004","682-TV","2018/12/01 19:09:39","新北市五股區五福路11-6號","121.434256666667","25.0886566666667","6501500","五股區"
"234077","969-R7","2018/12/01 19:09:23","新北市永和區民族街44號","121.518488333333","24.9987466666667","6500400","永和區"
"234074","AAC-211","2018/12/01 19:09:43","新北市永和區竹林路217號","121.520676666667","25.008745","6500400","永和區"
"234067","AAC-212","2018/12/01 19:09:42","新北市永和區保平路33號","121.512061666667","25.0072733333333","6500400","永和區"
"234003","AAC-295","2018/12/01 19:09:35","新北市永和區保福路一段82號","121.512315","25.0102183333333","6500400","永和區"
"244023","069-UM","2018/12/01 19:09:41","新北市林口區文化三路二段41巷49號","121.372105","25.0794516666667","6501700","林口區"
"244019","402-UM","2018/12/01 19:09:28","新北市林口區四維路114號","121.377263333333","25.0782783333333","6501700","林口區"
"244013","KEA-2802","2018/12/01 19:09:29","新北市林口區麗園一街4巷2號","121.376091666667","25.0707516666667","6501700","林口區"
"244017","485-VK","2018/12/01 19:09:41","新北市林口區文化二路一段120巷2-1號","121.367953333333","25.070415","6501700","林口區"
"244011","701-TV","2018/12/01 19:09:42","新北市林口區竹林路82號","121.38812","25.0787833333333","6501700","林口區"
"244025","837-TS","2018/12/01 19:09:37","新北市林口區文化北路一段542巷13弄67號","121.369598333333","25.0796833333333","6501700","林口區"
"243013","AAD-798","2018/12/01 19:09:32","新北市泰山區明志路三段277號","121.423193333333","25.0368033333333","6501600","泰山區"
"243009","297-R6","2018/12/01 19:09:34","新北市泰山區楓樹街15巷3號","121.434965","25.0630433333333","6501600","泰山區"
"243016","KEA-2801","2018/12/01 19:09:32","新北市泰山區明志路二段341號","121.425538333333","25.044725","6501600","泰山區"
"243015","421-VK","2018/12/01 19:09:36","新北市泰山區明志路一段457號","121.43077","25.0560466666667","6501600","泰山區"
"243011","KEA-2215","2018/12/01 19:09:33","新北市泰山區明志路二段323號","121.426325","25.0459433333333","6501600","泰山區"
"243010","KEA-2216","2018/12/01 19:09:35","新北市泰山區明志路一段483巷1弄1號","121.431098333333","25.055465","6501600","泰山區"
"243012","646-TV","2018/12/01 19:09:35","新北市泰山區辭修路24號","121.428985","25.0581416666667","6501600","泰山區"
"243014","680-BX","2018/12/01 19:09:45","新北市泰山區泰林路二段385巷1號","121.42761","25.06417","6501600","泰山區"
"222002","016-RS","2018/12/01 19:09:39","新北市深坑區烏月路1號","121.633413333333","25.0083716666667","6501800","深坑區"
"231044","001-UM","2018/12/01 19:09:35","新北市新店區中興路三段184號","121.544075","24.981455","6500600","新店區"
"231041","002-UM","2018/12/01 19:09:32","新北市新店區溪園路365號","121.52327","24.9802883333333","6500600","新店區"
"231059","046-UY","2018/12/01 19:09:40","新北市新店區安和路一段16號","121.517216666667","24.9652283333333","6500600","新店區"
"231040","047-UY","2018/12/01 19:09:33","新北市新店區三民路98-3號","121.533953333333","24.9734316666667","6500600","新店區"
"231046","107-UY","2018/12/01 19:09:39","新北市新店區華潭街52號","121.529221666667","24.95518","6500600","新店區"
"231052","108-UY","2018/12/01 19:09:40","新北市新店區屈尺路123號","121.545156666667","24.9235216666667","6500600","新店區"
"231048","187-VK","2018/12/01 19:09:45","新北市新店區德正街27巷29弄60號","121.545798333333","24.9728966666667","6500600","新店區"
"231054","KEA-2219","2018/12/01 19:09:35","新北市新店區新店路76號","121.537268333333","24.9538866666667","6500600","新店區"
"231042","268-BY","2018/12/01 19:09:24","新北市新店區中興路一段198號","121.543546666667","24.9652933333333","6500600","新店區"
"231050","AAD-862","2018/12/01 19:09:40","新北市新店區竹林路30巷21號","121.552008333333","24.950165","6500600","新店區"
"231058","3713-VJ","2018/12/01 19:09:36","新北市新店區光明街94號","121.53898","24.960325","6500600","新店區"
"231066","4716-K9","2018/12/01 19:09:34","新北市新店區安康路二段400-1號","121.496898333333","24.9553533333333","6500600","新店區"
"231056","4715-K9","2018/12/01 19:09:45","新北市新店區中正路472號","121.533875","24.980755","6500600","新店區"
"231067","4772-VM","2018/12/01 19:09:30","新北市新店區安康路一段263巷19-1號","121.523958333333","24.96197","6500600","新店區"
"231065","512-UM","2018/12/01 19:09:43","新北市新店區安祥路113號","121.475121666667","24.956915","6500600","新店區"
"231049","513-UM","2018/12/01 19:09:46","新北市新店區二十張路25巷16號","121.539211666667","24.9819333333333","6500600","新店區"
"231063","616-UM","2018/12/01 19:09:29","新北市新店區車子路110號","121.505231666667","24.9520833333333","6500600","新店區"
"231061","619-UM","2018/12/01 19:09:30","新北市新店區安康路一段226號","121.523606666667","24.9635416666667","6500600","新店區"
"231064","719-UM","2018/12/01 19:09:28","新北市新店區安忠路57巷4號","121.51316","24.95933","6500600","新店區"
"231051","719-UY","2018/12/01 19:09:37","新北市新店區中正路382巷19號","121.535478333333","24.9780433333333","6500600","新店區"
"231062","720-UM","2018/12/01 19:09:29","新北市新店區吉安街24號","121.516283333333","24.9659016666667","6500600","新店區"
"231060","897-TW","2018/12/01 19:09:30","新北市新店區安康路二段310號","121.505808333333","24.9581183333333","6500600","新店區"
"231045","898-TW","2018/12/01 19:09:42","新北市新店區北宜路一段109巷2號","121.539943333333","24.9546566666667","6500600","新店區"
"231043","899-TW","2018/12/01 19:09:41","新北市新店區寶橋路132號","121.547145","24.9761516666667","6500600","新店區"
"231055","AKT-0513","2018/12/01 19:09:34","新北市新店區安德街148巷31號","121.505655","24.96029","6500600","新店區"
"241026","066-VK","2018/12/01 19:09:30","新北市三重區重安街135號","121.495131666667","25.054735","6500200","三重區"
"251014","742-BX","2018/12/01 19:09:27","新北市淡水區北勢子9號","121.482743333333","25.2282383333333","6501000","淡水區"
"241035","462-BY","2018/12/01 19:09:29","新北市三重區新北大道一段7號","121.489853333333","25.0614316666667","6500200","三重區"
"241029","942-UM","2018/12/01 19:09:43","新北市三重區集美街263號","121.492493333333","25.0557766666667","6500200","三重區"
"235066","003-UY","2018/12/01 19:09:31","新北市中和區廣福路12號","121.505551666667","25.002865","6500300","中和區"
"235064","005-UY","2018/12/01 19:09:32","新北市中和區泰和街38巷15號","121.498911666667","25.0006083333333","6500300","中和區"
"235063","006-UY","2018/12/01 19:09:44","新北市中和區連城路249巷26弄12號","121.494091666667","24.995555","6500300","中和區"
"235056","096-UM","2018/12/01 19:09:33","新北市中和區員山路506-2號","121.480063333333","25.0087333333333","6500300","中和區"
"235039","097-UM","2018/12/01 19:09:28","新北市中和區自立路60號","121.523643333333","24.9915516666667","6500300","中和區"
"235065","098-UM","2018/12/01 19:09:38","新北市中和區莊敬路39號","121.50084","25.0049966666667","6500300","中和區"
"235040","150-BY","2018/12/01 19:09:41","新北市中和區宜安路121號","121.51007","24.998","6500300","中和區"
"235058","151-BY","2018/12/01 19:09:27","新北市中和區連城路523巷11弄17號","121.482111666667","24.994195","6500300","中和區"
"235055","183-VK","2018/12/01 19:09:29","新北市中和區德光路119-1號","121.467993333333","25.003155","6500300","中和區"
"235038","185-VK","2018/12/01 19:09:42","新北市中和區大仁街10巷27弄4號","121.519208333333","24.9927116666667","6500300","中和區"
"235049","186-VK","2018/12/01 19:09:27","新北市中和區南華路61號","121.504438333333","24.9971","6500300","中和區"
"235067","255-BX","2018/12/01 19:09:36","新北市中和區民樂路80巷10號","121.484056666667","25.000895","6500300","中和區"
"235044","293-VK","2018/12/01 19:09:39","新北市中和區中興街241號","121.500303333333","24.9890916666667","6500300","中和區"
"235072","301-VK","2018/12/01 19:09:28","新北市中和區永和路1-5號","121.499505","25.00329","6500300","中和區"
"235043","352-BY","2018/12/01 19:09:38","新北市中和區景平路150-2號","121.518011666667","24.99212","6500300","中和區"
"235050","4979-A6","2018/12/01 19:09:29","新北市中和區復興路75號","121.503543333333","24.9901766666667","6500300","中和區"
"235069","4980-A6","2018/12/01 19:09:36","新北市中和區中和路143號","121.502235","24.9998183333333","6500300","中和區"
"235042","551-UM","2018/12/01 19:09:48","新北市中和區自強路13巷1號","121.520613333333","24.9935516666667","6500300","中和區"
"235070","558-UM","2018/12/01 19:09:32","新北市中和區中和路20號","121.499771666667","25.0019016666667","6500300","中和區"
"235045","565-BX","2018/12/01 19:09:32","新北市中和區景新街437巷2弄1號","121.513551666667","24.9891183333333","6500300","中和區"
"235054","640-BX","2018/12/01 19:09:32","新北市中和區國光街107巷2弄2-1號","121.470146666667","25.0001316666667","6500300","中和區"
"235060","647-TV","2018/12/01 19:09:31","新北市中和區民有街59號","121.476256666667","25.0035883333333","6500300","中和區"
"235047","732-UM","2018/12/01 19:09:25","新北市中和區興南路一段129號","121.508891666667","24.9876533333333","6500300","中和區"
"235046","733-UM","2018/12/01 19:09:34","新北市中和區忠孝街1巷42號","121.50859","24.9839666666667","6500300","中和區"
"235071","783-BX","2018/12/01 19:09:39","新北市中和區連城路525-8號","121.480863333333","24.9949466666667","6500300","中和區"
"235057","801-TS","2018/12/01 19:09:39","新北市中和區民利街87號","121.478188333333","24.998095","6500300","中和區"
"235041","802-TS","2018/12/01 19:09:32","新北市中和區中和路236號","121.507075","24.9996066666667","6500300","中和區"
"235052","805-TS","2018/12/01 19:09:45","新北市中和區興南路二段142巷19弄19-1號","121.502521666667","24.9833466666667","6500300","中和區"
"235048","896-TW","2018/12/01 19:09:27","新北市中和區忠孝街4號","121.510118333333","24.9827266666667","6500300","中和區"
"235053","900-TW","2018/12/01 19:09:33","新北市中和區華福街81號","121.467441666667","24.9964966666667","6500300","中和區"
"235051","157-BY","2018/12/01 19:09:26","新北市中和區和平街2巷1號","121.510153333333","24.99019","6500300","中和區"
"235037","AAC-213","2018/12/01 19:09:42","新北市中和區秀朗路三段93號","121.526565","24.9953966666667","6500300","中和區"
"235059","AAC-215","2018/12/01 19:09:25","新北市中和區圓通路294巷17-5號","121.488613333333","24.9904","6500300","中和區"
"220065","072-UY","2018/12/01 19:09:34","新北市板橋區民族路219巷7號","121.469318333333","25.00799","6500100","板橋區"
"220086","073-UY","2018/12/01 19:09:33","新北市板橋區國光路173巷3弄1號","121.460431666667","25.0187583333333","6500100","板橋區"
"220106","075-UY","2018/12/01 19:09:32","新北市板橋區雙十路三段9號","121.47163","25.0303016666667","6500100","板橋區"
"220069","AAD-861","2018/12/01 19:09:46","新北市板橋區四川路一段148號","121.46003","25.003505","6500100","板橋區"
"226004","312-R5","2018/12/01 19:09:24","新北市平溪區嶺腳里嶺腳寮1-5號","121.745735","25.0282233333333","6502400","平溪區"
"228003","097-TW","2018/12/01 19:09:31","新北市貢寮區和美里和美街32-7號","121.912646666667","25.08483","6502600","貢寮區"
"228001","212-TW","2018/12/01 19:09:28","新北市貢寮區真理里新港街10號","121.925503333333","25.0543616666667","6502600","貢寮區"
"228002","585-TW","2018/12/01 19:09:31","新北市貢寮區福隆里福隆街32-1號","121.945118333333","25.0173916666667","6502600","貢寮區"
"224010","AGQ-8101","2018/12/01 19:09:30","新北市瑞芳區基山街12號","121.845453333333","25.109005","6501200","瑞芳區"
"224006","676-BX","2018/12/01 19:09:43","新北市瑞芳區中山路225號","121.800601666667","25.1068566666667","6501200","瑞芳區"
"224008","285-BY","2018/12/01 19:09:31","新北市瑞芳區明燈路三段225號","121.800095","25.1113283333333","6501200","瑞芳區"
"224007","275-VK","2018/12/01 19:09:32","新北市瑞芳區瑞竹路46號","121.763505","25.10336","6501200","瑞芳區"
"224009","273-VK","2018/12/01 19:09:29","新北市瑞芳區洞頂路160號","121.861365","25.1176766666667","6501200","瑞芳區"
"227002","642-TC","2018/12/01 19:09:43","新北市雙溪區平林里外平林8-4號","121.85919","25.0380966666667","6502500","雙溪區"
"227010","400-TW","2018/12/01 19:09:44","新北市雙溪區牡丹里中正路46-3號","121.865031666667","25.0389933333333","6502500","雙溪區"
"253006","032-BX","2018/12/01 19:09:33","新北市石門區海灣新城10號","121.525491666667","25.2849516666667","6502200","石門區"
"253005","295-VK","2018/12/01 19:09:34","新北市石門區阿里荖41-1號","121.605088333333","25.2836366666667","6502200","石門區"
"222001","KEA-2212","2018/12/01 19:09:38","新北市深坑區北深路一段300號","121.624206666667","25.0057816666667","6501800","深坑區"
"208002","KEA-2872","2018/12/01 19:09:30","新北市金山區中華路122巷7號","121.633618333333","25.2209783333333","6502700","金山區"
"208003","665-BX","2018/12/01 19:09:40","新北市金山區中正路31號","121.63521","25.2221083333333","6502700","金山區"
"208001","761-BX","2018/12/01 19:09:37","新北市金山區金包里街68號","121.639111666667","25.2215566666667","6502700","金山區"
"251009","008-UM","2018/12/01 19:09:32","新北市淡水區重建街66號","121.439878333333","25.1719283333333","6501000","淡水區"
"251005","010-UM","2018/12/01 19:09:33","新北市淡水區原德路11號","121.442118333333","25.1712683333333","6501000","淡水區"
"251001","011-UM","2018/12/01 19:09:43","新北市淡水區自強路201巷35號","121.462181666667","25.1267816666667","6501000","淡水區"
"251002","012-UM","2018/12/01 19:09:38","新北市淡水區中山路126號","121.44185","25.1708183333333","6501000","淡水區"
"251013","KEA-2871","2018/12/01 19:09:30","新北市淡水區安子內12-1號","121.481531666667","25.21911","6501000","淡水區"
"251016","179-VK","2018/12/01 19:09:34","新北市淡水區淡金路三段170號","121.44859","25.2024783333333","6501000","淡水區"
"251008","181-VK","2018/12/01 19:09:38","新北市淡水區中正路二段96號","121.4178","25.1857866666667","6501000","淡水區"
"251015","182-VK","2018/12/01 19:09:28","新北市淡水區南勢埔34號","121.484243333333","25.17982","6501000","淡水區"
"251010","413-VK","2018/12/01 19:09:35","新北市淡水區中正路一段156巷3號","121.421136666667","25.1803483333333","6501000","淡水區"
"251007","577-R6","2018/12/01 19:09:41","新北市淡水區民生路145巷58號","121.468136666667","25.1389583333333","6501000","淡水區"
"251003","673-BX","2018/12/01 19:09:34","新北市淡水區中山北路一段89號","121.44235","25.17622","6501000","淡水區"
"207003","550-UM","2018/12/01 19:09:38","新北市萬里區大鵬里萬里加投18-3號","121.649945","25.209795","6502800","萬里區"
"207004","225-TW","2018/12/01 19:09:34","新北市萬里區萬里里瑪鋉下街46號","121.691431666667","25.1791633333333","6502800","萬里區"
"252002","178-VK","2018/12/01 19:09:36","新北市三芝區埔坪里埔頭坑78號","121.50927","25.2544083333333","6502100","三芝區"
"252003","249-BX","2018/12/01 19:09:45","新北市三芝區錫板里南勢崗5-6號","121.479725","25.262125","6502100","三芝區"
"252001","292-VK","2018/12/01 19:09:39","新北市三芝區長勤街45巷2號","121.500318333333","25.255095","6502100","三芝區"
"237004","KEA-2597","2018/12/01 19:09:32","新北市三峽區有木205-1號","121.439063333333","24.85151","6500900","三峽區"
"237013","252-BX","2018/12/01 19:09:39","新北市三峽區光明路69巷25號","121.376733333333","24.9291866666667","6500900","三峽區"
"237012","275-BY","2018/12/01 19:09:44","新北市三峽區三樹路222巷236弄23號","121.391393333333","24.9430666666667","6500900","三峽區"
"237008","302-VK","2018/12/01 19:09:30","新北市三峽區大同路98-3號","121.375475","24.9275566666667","6500900","三峽區"
"237014","433-BY","2018/12/01 19:09:43","新北市三峽區中山路257巷3號","121.362363333333","24.9371166666667","6500900","三峽區"
"237006","5529-G3","2018/12/01 19:09:26","新北市三峽區溪東路205巷8號","121.404813333333","24.9337933333333","6500900","三峽區"
"237011","KEA-2596","2018/12/01 19:09:43","新北市三峽區介壽路三段107號","121.395496666667","24.9392633333333","6500900","三峽區"
"237016","649-BX","2018/12/01 19:09:42","新北市三峽區安坑34-9號","121.450218333333","24.9292","6500900","三峽區"
"237010","706-TV","2018/12/01 19:09:33","新北市三峽區復興路46號","121.373593333333","24.9370583333333","6500900","三峽區"
"237005","AKY-6261","2018/12/01 19:09:41","新北市三峽區中山路459巷163-3號","121.348655","24.932935","6500900","三峽區"
"236070","105-UM","2018/12/01 19:09:38","新北市土城區中華路一段7號","121.446998333333","24.9895916666667","6501300","土城區"
"236042","KED-0685","2018/12/01 19:09:37","新北市土城區學府路一段239號","121.45038","24.9833266666667","6501300","土城區"
"236079","166-UM","2018/12/01 19:09:30","新北市土城區龍泉路43-2號","121.418293333333","24.943505","6501300","土城區"
"236026","269-VK","2018/12/01 19:09:34","新北市土城區中正路26號","121.443178333333","24.9751683333333","6501300","土城區"
"236014","270-VK","2018/12/01 19:09:35","新北市土城區學府路一段99巷21號","121.45669","24.9870883333333","6501300","土城區"
"236021","401-BY","2018/12/01 19:09:47","新北市土城區延峰街31巷1號","121.469518333333","24.9849716666667","6501300","土城區"
"236059","912-UM","2018/12/01 19:09:40","新北市土城區金城路一段1號","121.438955","24.968885","6501300","土城區"
"236049","913-UM","2018/12/01 19:09:26","新北市土城區明德路一段365-1號","121.453688333333","24.9790516666667","6501300","土城區"
"236055","970-R7","2018/12/01 19:09:37","新北市土城區學府路一段177號","121.452401666667","24.9852533333333","6501300","土城區"
"242013","173-VK","2018/12/01 19:09:30","新北市新莊區三和路12-21號","121.44199","25.0387316666667","6500500","新莊區"
"242053","347-TH","2018/12/01 19:09:44","新北市新莊區民安西路492號","121.432696666667","25.0071666666667","6500500","新莊區"
"242004","349-TH","2018/12/01 19:09:37","新北市新莊區三和路12-21號","121.442293333333","25.0383116666667","6500500","新莊區"
"238023","601-UM","2018/12/01 19:09:40","新北市樹林區三興路50號","121.394545","25.0144316666667","6500700","樹林區"
"238019","599-UM","2018/12/01 19:09:26","新北市樹林區東榮街147巷3號","121.414595","24.9815166666667","6500700","樹林區"
"238024","5061-A6","2018/12/01 19:09:36","新北市樹林區中山路二段249巷21號","121.402893333333","24.9755666666667","6500700","樹林區"
"238022","KEA-2213","2018/12/01 19:09:39","新北市樹林區中山路二段151巷8弄24號","121.405833333333","24.9775866666667","6500700","樹林區"
"238021","KEA-2539","2018/12/01 19:09:29","新北市鶯歌區三鶯路135-1號","121.361298333333","24.9456116666667","6500700","樹林區"
"238025","303-VK","2018/12/01 19:09:40","新北市樹林區中山路三段125號","121.399155","24.97431","6500700","樹林區"
"238017","283-BY","2018/12/01 19:09:45","新北市樹林區光興街50號","121.409878333333","25.0027116666667","6500700","樹林區"
"238014","282-BY","2018/12/01 19:09:41","新北市樹林區千歲街70巷1弄21號","121.42679","24.99771","6500700","樹林區"
"238020","268-VK","2018/12/01 19:09:25","新北市樹林區俊英街200號","121.425483333333","25.0088633333333","6500700","樹林區"
"238026","172-UY","2018/12/01 19:09:28","新北市樹林區八德街1144號","121.390843333333","24.969305","6500700","樹林區"
"238016","169-UY","2018/12/01 19:09:48","新北市樹林區復興路335巷6弄18號","121.417775","24.9872616666667","6500700","樹林區"
"239007","AAC-297","2018/12/01 19:09:44","新北市鶯歌區西湖街53巷30-1號","121.341953333333","24.9610266666667","6500800","鶯歌區"
"239006","891-R6","2018/12/01 19:09:45","新北市鶯歌區鶯桃路91巷29號","121.338006666667","24.95242","6500800","鶯歌區"
"239008","527-UM","2018/12/01 19:09:43","新北市鶯歌區國際二路6巷4號","121.33848","24.9736483333333","6500800","鶯歌區"
"239005","526-UM","2018/12/01 19:09:41","新北市鶯歌區中湖街140號","121.349581666667","24.9734316666667","6500800","鶯歌區"
"239001","417-VK","2018/12/01 19:09:36","新北市鶯歌區鶯桃路95巷80號","121.336976666667","24.9529083333333","6500800","鶯歌區"
"239003","360-BY","2018/12/01 19:09:39","新北市鶯歌區重慶街1號","121.35232","24.9527033333333","6500800","鶯歌區"
"239002","359-BY","2018/12/01 19:09:40","新北市鶯歌區西湖街235號","121.338441666667","24.9652416666667","6500800","鶯歌區"
"239004","193-VK","2018/12/01 19:09:39","新北市鶯歌區中正三路鄭厝巷65-3號","121.331971666667","24.9331516666667","6500800","鶯歌區"
"221008","489-VK","2018/12/01 19:09:25","新北市汐止區康寧街489號","121.632446666667","25.06847","6501100","汐止區"
"221036","130-UY","2018/12/01 19:09:30","新北市汐止區康寧街901號","121.65111","25.0751416666667","6501100","汐止區"
"221015","131-UY","2018/12/01 19:09:39","新北市汐止區康寧街901號","121.651428333333","25.0750016666667","6501100","汐止區"
"221012","278-VK","2018/12/01 19:09:35","新北市汐止區康寧街901號","121.650745","25.07524","6501100","汐止區"
"221032","280-BY","2018/12/01 19:09:41","新北市汐止區大同路一段160-10號","121.635915","25.0543933333333","6501100","汐止區"
"221027","281-BY","2018/12/01 19:09:31","新北市汐止區康寧街901號","121.651358333333","25.0750316666667","6501100","汐止區"
"221029","298-VK","2018/12/01 19:09:44","新北市汐止區康寧街901號","121.651315","25.0750483333333","6501100","汐止區"
"221021","299-VK","2018/12/01 19:09:32","新北市汐止區康寧街901號","121.6514","25.075045","6501100","汐止區"
"221031","353-TW","2018/12/01 19:09:32","新北市汐止區汐萬路一段256巷3號","121.652436666667","25.0745716666667","6501100","汐止區"
"221002","129-UY","2018/12/01 19:09:38","新北市汐止區大同路一段215-1號","121.634036666667","25.0573483333333","6501100","汐止區"
"221025","623-UM","2018/12/01 19:09:24","新北市汐止區康寧街901號","121.65153","25.0749883333333","6501100","汐止區"
"221038","646-BX","2018/12/01 19:09:35","新北市汐止區汐萬路一段312號","121.650643333333","25.0753216666667","6501100","汐止區"
"220079","145-BY","2018/12/01 19:09:44","新北市板橋區民權路302巷27號","121.458211666667","25.0164466666667","6500100","板橋區"
"220080","200-UY","2018/12/01 19:09:32","新北市板橋區大觀路二段7巷80號","121.449651666667","25.0030483333333","6500100","板橋區"
"220082","610-BX","2018/12/01 19:09:36","新北市板橋區溪崑二街136號","121.425941666667","24.987675","6500100","板橋區"
"220101","245-BX","2018/12/01 19:09:28","新北市板橋區民生路二段175號","121.469568333333","25.02014","6500100","板橋區"
"224002","257-TC","2018/12/01 19:09:36","新北市平溪區新寮里五分寮10-2號","121.800028333333","25.07409","6501200","瑞芳區"
"220056","276-BY","2018/12/01 19:09:42","新北市板橋區信義路110巷3號","121.458198333333","24.99201","6500100","板橋區"
"220072","277-BY","2018/12/01 19:09:45","新北市板橋區金門街368號","121.427303333333","24.9839216666667","6500100","板橋區"
"220094","283-UM","2018/12/01 19:09:40","新北市板橋區光武街108-5號","121.465768333333","25.0291066666667","6500100","板橋區"
"220071","283-VK","2018/12/01 19:09:43","新北市板橋區重慶路232號","121.462826666667","25.0015316666667","6500100","板橋區"
"220053","285-VK","2018/12/01 19:09:33","新北市板橋區懷仁街35巷4弄1號","121.4772","25.0198583333333","6500100","板橋區"
"220083","286-VK","2018/12/01 19:09:30","新北市板橋區龍興街97巷13號","121.443561666667","25.002875","6500100","板橋區"
"220081","287-VK","2018/12/01 19:09:38","新北市板橋區南雅西路二段156巷4號","121.452158333333","25.0133516666667","6500100","板橋區"
"220090","288-VK","2018/12/01 19:09:38","新北市板橋區裕民街45巷4號","121.46153","25.0283566666667","6500100","板橋區"
"220061","293-UM","2018/12/01 19:09:46","新北市板橋區中山路二段273號","121.477718333333","25.01793","6500100","板橋區"
"220068","295-UM","2018/12/01 19:09:28","新北市板橋區三民路一段31巷39號","121.480641666667","25.02327","6500100","板橋區"
"220084","296-UM","2018/12/01 19:09:43","新北市板橋區溪崑一街30巷13號","121.429431666667","24.99133","6500100","板橋區"
"220092","299-UM","2018/12/01 19:09:43","新北市板橋區文化路二段231號","121.470903333333","25.028545","6500100","板橋區"
"242042","281-VK","2018/12/01 19:09:27","新北市新莊區三和路12-21號","121.442371666667","25.0380466666667","6500500","新莊區"
"220075","303-R5","2018/12/01 19:09:39","新北市板橋區南雅南路一段1巷40號","121.457368333333","25.00655","6500100","板橋區"
"220062","305-R5","2018/12/01 19:09:46","新北市板橋區三民路二段245巷44號","121.480953333333","25.0123766666667","6500100","板橋區"
"220098","317-R6","2018/12/01 19:09:42","新北市板橋區四維路103巷4號","121.465033333333","25.0243116666667","6500100","板橋區"
"220089","487-VK","2018/12/01 19:09:41","新北市板橋區文化路二段353號","121.472831666667","25.0307416666667","6500100","板橋區"
"220035","560-BX","2018/12/01 19:09:38","新北市板橋區中正路330號","121.454753333333","25.0218366666667","6500100","板橋區"
"220103","561-BX","2018/12/01 19:09:45","新北市板橋區介壽街84巷48號","121.4688","25.0185066666667","6500100","板橋區"
"220063","609-BX","2018/12/01 19:09:32","新北市板橋區中山路二段244號","121.478566666667","25.01819","6500100","板橋區"
"220091","637-BX","2018/12/01 19:09:37","新北市板橋區縣民大道247巷80號","121.482108333333","25.0269266666667","6500100","板橋區"
"220057","686-BX","2018/12/01 19:09:33","新北市板橋區重慶路290-1號","121.463506666667","24.9989666666667","6500100","板橋區"
"220077","687-BX","2018/12/01 19:09:39","新北市板橋區大觀路一段51號","121.447571666667","25.006285","6500100","板橋區"
"220093","689-BX","2018/12/01 19:09:43","新北市板橋區民生路三段153號","121.465863333333","25.0265966666667","6500100","板橋區"
"220054","741-BX","2018/12/01 19:09:32","新北市板橋區重慶路64號","121.461598333333","25.0067916666667","6500100","板橋區"
"220102","KEA-2699","2018/12/01 19:09:45","新北市板橋區田單街49巷2號","121.482553333333","25.0280666666667","6500100","板橋區"
"220064","806-UM","2018/12/01 19:09:39","新北市板橋區中山路一段275號","121.469136666667","25.0136033333333","6500100","板橋區"
"220055","827-TW","2018/12/01 19:09:39","新北市板橋區新民街7巷12號","121.463593333333","25.0103083333333","6500100","板橋區"
"220067","830-TW","2018/12/01 19:09:40","新北市板橋區民享街116巷2弄9號","121.477556666667","25.015415","6500100","板橋區"
"220096","831-TW","2018/12/01 19:09:43","新北市板橋區大同街4號","121.477046666667","25.0266816666667","6500100","板橋區"
"220088","833-TW","2018/12/01 19:09:28","新北市板橋區文化路二段182巷1弄12號","121.471401666667","25.027815","6500100","板橋區"
"220074","895-R6","2018/12/01 19:09:36","新北市板橋區中正路43號","121.45633","25.013295","6500100","板橋區"
"220073","985-R7","2018/12/01 19:09:34","新北市板橋區中正路276號","121.45515","25.0198733333333","6500100","板橋區"
"220097","AAC-210","2018/12/01 19:09:41","新北市板橋區幸福路70巷1號","121.460686666667","25.0200033333333","6500100","板橋區"
"220070","AAC-253","2018/12/01 19:09:43","新北市板橋區四川路一段351號","121.458481666667","25.0000566666667","6500100","板橋區"
"235068","KEA-2873","2018/12/01 19:09:25","新北市中和區圓通路162巷4號","121.49698","24.995255","6500300","中和區"
"235061","KEA-2875","2018/12/01 19:09:27","新北市中和區員山路310號","121.481535","25.00288","6500300","中和區"
