"lineid","car","time","location","longitude","latitude","cityid","cityname"
"234046","148-BY","2018/12/01 19:59:44","新北市永和區成功路一段74號","121.526908333333","25.00335","6500400","永和區"
"234007","207-UY","2018/12/01 19:59:36","新北市永和區保生路22巷21號","121.507226666667","25.00818","6500400","永和區"
"234081","298-R6","2018/12/01 19:59:26","新北市永和區永亨路98號","121.523021666667","25.0046683333333","6500400","永和區"
"234038","336-UY","2018/12/01 19:59:35","新北市永和區成功路二段80號","121.526671666667","24.998745","6500400","永和區"
"234064","337-UY","2018/12/01 19:59:29","新北市永和區中正路368巷1弄47號","121.519185","25.0011866666667","6500400","永和區"
"234070","552-UM","2018/12/01 19:59:41","新北市永和區國光路8號","121.51938","25.0084783333333","6500400","永和區"
"234017","745-BX","2018/12/01 19:59:36","新北市永和區文化路71號","121.513828333333","25.0150583333333","6500400","永和區"
"234030","746-BX","2018/12/01 19:59:41","新北市永和區民生路22巷3號","121.522181666667","24.9973","6500400","永和區"
"234054","KEA-2590","2018/12/01 19:59:40","新北市永和區環河東路一段122號","121.520573333333","25.0154683333333","6500400","永和區"
"234013","KEA-2591","2018/12/01 19:59:47","新北市永和區保生路55號","121.5047","25.0106","6500400","永和區"
"234061","AAD-866","2018/12/01 19:59:37","新北市永和區得和路76號","121.51641","24.9999466666667","6500400","永和區"
"234086","748-BX","2018/12/01 19:59:39","新北市永和區福和路129號","121.521425","25.0078233333333","6500400","永和區"
"234042","862-TW","2018/12/01 19:59:45","新北市永和區中和路421巷16弄7號","121.508713333333","25.0011716666667","6500400","永和區"
"234050","863-TW","2018/12/01 19:59:40","新北市永和區保安路222號","121.507196666667","25.0135283333333","6500400","永和區"
"234023","9372-KE","2018/12/01 19:59:41","新北市永和區中正路702巷18號","121.51647","25.0105033333333","6500400","永和區"
"234011","9373-KE","2018/12/01 19:59:41","新北市永和區仁愛路352巷122弄13號","121.500746666667","25.0088266666667","6500400","永和區"
"249005","172-UM","2018/12/01 19:59:42","新北市八里區楓林路3-4號","121.382301666667","25.1294766666667","6502300","八里區"
"249001","173-UM","2018/12/01 19:59:45","新北市八里區中華路二段310號","121.403818333333","25.1483533333333","6502300","八里區"
"249004","303-UY","2018/12/01 19:59:43","新北市八里區中山路一段189巷18號","121.412116666667","25.1579666666667","6502300","八里區"
"249002","305-UY","2018/12/01 19:59:44","新北市八里區頂寮二街1號","121.450955","25.12384","6502300","八里區"
"249003","593-UM","2018/12/01 19:59:45","新北市八里區中華路二段538-4號","121.398743333333","25.145055","6502300","八里區"
"248016","026-BX","2018/12/01 19:59:41","新北市五股區成泰路三段577巷80弄72號","121.448903333333","25.1047333333333","6501500","五股區"
"248008","095-VK","2018/12/01 19:59:38","新北市五股區中興路一段17號","121.469328333333","25.0714366666667","6501500","五股區"
"248020","225-UY","2018/12/01 19:59:29","新北市五股區凌雲路三段26-3號","121.433718333333","25.10442","6501500","五股區"
"248012","247-BX","2018/12/01 19:59:36","新北市五股區民義路一段109號","121.434103333333","25.086465","6501500","五股區"
"248014","261-SL","2018/12/01 19:59:42","新北市五股區五福路6巷19號","121.435338333333","25.0885133333333","6501500","五股區"
"248002","678-BX","2018/12/01 19:59:35","新北市五股區成泰路三段350號","121.450631666667","25.098515","6501500","五股區"
"248004","682-TV","2018/12/01 19:59:39","新北市五股區成泰路一段32巷62號","121.43506","25.0669033333333","6501500","五股區"
"234077","969-R7","2018/12/01 19:59:43","新北市永和區民有街23巷25號","121.517316666667","24.996805","6500400","永和區"
"234074","AAC-211","2018/12/01 19:59:43","新北市永和區豫溪街215巷17號","121.523813333333","25.010065","6500400","永和區"
"234067","AAC-212","2018/12/01 19:59:33","新北市永和區中山路一段236號","121.507158333333","25.0073266666667","6500400","永和區"
"234003","AAC-295","2018/12/01 19:59:35","新北市永和區中正路722號","121.515705","25.01008","6500400","永和區"
"244023","069-UM","2018/12/01 19:59:41","新北市林口區嘉溪雅坑20號","121.339845","25.1080566666667","6501700","林口區"
"243013","AAD-798","2018/12/01 19:59:32","新北市泰山區應化街7號","121.423901666667","25.0437","6501600","泰山區"
"243009","297-R6","2018/12/01 19:59:34","新北市泰山區楓江路16巷25號","121.434113333333","25.0614416666667","6501600","泰山區"
"243016","KEA-2801","2018/12/01 19:59:32","新北市泰山區明志路三段405號","121.421176666667","25.0340316666667","6501600","泰山區"
"243015","421-VK","2018/12/01 19:59:36","新北市泰山區文程路1號","121.427541666667","25.0496933333333","6501600","泰山區"
"243011","KEA-2215","2018/12/01 19:59:41","新北市泰山區明志路三段196巷32號","121.422446666667","25.039645","6501600","泰山區"
"243010","KEA-2216","2018/12/01 19:59:35","新北市泰山區中華街14巷1號","121.4277","25.0524033333333","6501600","泰山區"
"243012","646-TV","2018/12/01 19:59:35","新北市泰山區全興路107號","121.43365","25.0568083333333","6501600","泰山區"
"243014","680-BX","2018/12/01 19:59:25","新北市泰山區明志路一段180號","121.433036666667","25.0622033333333","6501600","泰山區"
"222002","016-RS","2018/12/01 19:59:47","新北市深坑區北深路二段55巷12弄12號","121.618638333333","25.0033916666667","6501800","深坑區"
"222003","436-BY","2018/12/01 19:59:26","新北市深坑區埔新街14號","121.62072","25.0039033333333","6501800","深坑區"
"231044","001-UM","2018/12/01 19:59:35","新北市新店區復興路30號","121.539168333333","24.98681","6500600","新店區"
"231041","002-UM","2018/12/01 19:59:32","新北市新店區中正路354號","121.535796666667","24.975605","6500600","新店區"
"231059","046-UY","2018/12/01 19:59:40","新北市新店區安康路二段1-3號","121.516635","24.9637466666667","6500600","新店區"
"231040","047-UY","2018/12/01 19:59:33","新北市新店區中正路62號","121.544288333333","24.97016","6500600","新店區"
"231052","108-UY","2018/12/01 19:59:19","新北市新店區新烏路三段寶島巷2弄3號","121.551918333333","24.89861","6500600","新店區"
"231048","187-VK","2018/12/01 19:59:32","新北市新店區寶宏路3-3號","121.549213333333","24.9766383333333","6500600","新店區"
"231054","KEA-2219","2018/12/01 19:59:35","新北市新店區光明街123號","121.539325","24.961745","6500600","新店區"
"231057","256-BX","2018/12/01 19:59:34","新北市新店區花園二路一段11號","121.55548","24.9324666666667","6500600","新店區"
"231042","268-BY","2018/12/01 19:59:43","新北市新店區中興路一段285號","121.545378333333","24.9685683333333","6500600","新店區"
"231050","AAD-862","2018/12/01 19:59:40","新北市新店區北宜路二段579巷13號","121.565535","24.9544083333333","6500600","新店區"
"231066","4716-K9","2018/12/01 19:59:34","新北市新店區安康路二段311號","121.499926666667","24.9568483333333","6500600","新店區"
"231056","4715-K9","2018/12/01 19:59:26","新北市新店區北新路二段29巷3弄1號","121.542175","24.9729833333333","6500600","新店區"
"231067","4772-VM","2018/12/01 19:59:30","新北市新店區秀山路11巷12弄15號","121.53136","24.95955","6500600","新店區"
"231065","512-UM","2018/12/01 19:59:43","新北市新店區安祥路106巷256號","121.47322","24.9591566666667","6500600","新店區"
"231049","513-UM","2018/12/01 19:59:46","新北市新店區建國路220號","121.5377","24.9811783333333","6500600","新店區"
"231063","616-UM","2018/12/01 19:59:29","新北市新店區車子路11號","121.503021666667","24.9520066666667","6500600","新店區"
"231061","619-UM","2018/12/01 19:59:30","新北市新店區安民街307號","121.51754","24.9738666666667","6500600","新店區"
"231068","718-UY","2018/12/01 19:59:41","新北市新店區安一路一段1-1號","121.519373333333","24.9610516666667","6500600","新店區"
"231064","719-UM","2018/12/01 19:59:28","新北市新店區安民街39號","121.515898333333","24.965525","6500600","新店區"
"231051","719-UY","2018/12/01 19:59:37","新北市新店區中央一街37號","121.527598333333","24.973555","6500600","新店區"
"231062","720-UM","2018/12/01 19:59:29","新北市新店區永業路107號","121.52858","24.9484216666667","6500600","新店區"
"231060","897-TW","2018/12/01 19:59:45","新北市新店區安康路三段29號","121.493171666667","24.95305","6500600","新店區"
"231045","898-TW","2018/12/01 19:59:42","新北市新店區北宜路二段148號","121.557605","24.9539216666667","6500600","新店區"
"231043","899-TW","2018/12/01 19:59:41","新北市新店區中正路263-3號","121.538375","24.9738433333333","6500600","新店區"
"231055","AKT-0513","2018/12/01 19:59:33","新北市新店區中華路83巷61號","121.538446666667","24.96742","6500600","新店區"
"241011","013-R5","2018/12/01 19:59:41","新北市三重區介壽路1號","121.498988333333","25.0689566666667","6500200","三重區"
"241028","022-UY","2018/12/01 19:59:45","新北市三重區中正南路47號","121.493875","25.0596766666667","6500200","三重區"
"241008","059-VK","2018/12/01 19:59:34","新北市三重區永福街179巷28號","121.478025","25.0747533333333","6500200","三重區"
"241022","060-VK","2018/12/01 19:59:28","新北市三重區過圳街31巷2號","121.488895","25.0606366666667","6500200","三重區"
"241031","061-VK","2018/12/01 19:59:27","新北市三重區重新路四段144巷16號","121.487063333333","25.05551","6500200","三重區"
"241015","062-VK","2018/12/01 19:59:45","新北市三重區三和路二段35-1號","121.500873333333","25.0672116666667","6500200","三重區"
"241017","063-VK","2018/12/01 19:59:32","新北市三重區自強路一段306號","121.491278333333","25.068445","6500200","三重區"
"241026","066-VK","2018/12/01 19:59:30","新北市三重區中央南路26號","121.501325","25.06228","6500200","三重區"
"241003","091-VK","2018/12/01 19:59:35","新北市三重區仁愛街423-1號","121.490393333333","25.0814933333333","6500200","三重區"
"251014","742-BX","2018/12/01 19:59:27","新北市淡水區石頭厝9-2號","121.45858","25.2366333333333","6501000","淡水區"
"241005","262-UM","2018/12/01 19:59:31","新北市三重區溪尾街325巷32號","121.48867","25.08344","6500200","三重區"
"241016","265-UM","2018/12/01 19:59:45","新北市三重區正義北路36巷2號","121.497148333333","25.0633716666667","6500200","三重區"
"241009","267-UM","2018/12/01 19:59:44","新北市三重區三和路四段171號","121.482998333333","25.07878","6500200","三重區"
"241018","268-UM","2018/12/01 19:59:30","新北市三重區正義北路244巷54號","121.494385","25.0677716666667","6500200","三重區"
"241032","269-UM","2018/12/01 19:59:34","新北市三重區朝陽街25號","121.483665","25.056585","6500200","三重區"
"241013","270-UM","2018/12/01 19:59:31","新北市三重區三和路三段121號","121.492806666667","25.0732883333333","6500200","三重區"
"241025","271-UM","2018/12/01 19:59:41","新北市三重區頂崁街210巷16號","121.476508333333","25.0677","6500200","三重區"
"241007","398-BY","2018/12/01 19:59:41","新北市三重區溪尾街169號","121.489033333333","25.0800283333333","6500200","三重區"
"241035","462-BY","2018/12/01 19:59:29","新北市三重區大榮街7號","121.498196666667","25.0631066666667","6500200","三重區"
"241004","475-VK","2018/12/01 19:59:39","新北市三重區五華街110號","121.492315","25.0827716666667","6500200","三重區"
"241020","478-VK","2018/12/01 19:59:27","新北市三重區忠孝路一段101號","121.4895","25.0721433333333","6500200","三重區"
"241030","480-VK","2018/12/01 19:59:34","新北市三重區重新路四段248-1號","121.486208333333","25.0534066666667","6500200","三重區"
"241014","543-UM","2018/12/01 19:59:39","新北市三重區介壽路1號","121.499176666667","25.0689716666667","6500200","三重區"
"241023","545-UM","2018/12/01 19:59:45","新北市三重區頂崁街168號","121.47755","25.0658766666667","6500200","三重區"
"241001","547-UM","2018/12/01 19:59:38","新北市三重區福隆路50號","121.49254","25.0784783333333","6500200","三重區"
"241033","557-UM","2018/12/01 19:52:45","新北市三重區重新路五段550巷6號","121.470613333333","25.0451016666667","6500200","三重區"
"241019","KEA-2593","2018/12/01 19:59:28","新北市三重區重陽路四段18號","121.490958333333","25.0690916666667","6500200","三重區"
"241006","743-BX","2018/12/01 19:59:30","新北市三重區力行路二段61號","121.482158333333","25.0748316666667","6500200","三重區"
"241012","941-UM","2018/12/01 19:59:37","新北市三重區仁興街56巷17號","121.498478333333","25.0757716666667","6500200","三重區"
"241029","942-UM","2018/12/01 19:59:43","新北市三重區重安街6號","121.490163333333","25.0582616666667","6500200","三重區"
"235066","003-UY","2018/12/01 19:59:31","新北市中和區中山路二段65號","121.504085","25.00462","6500300","中和區"
"235056","096-UM","2018/12/01 19:59:33","新北市中和區中山路三段177號","121.472871666667","25.0062916666667","6500300","中和區"
"235039","097-UM","2018/12/01 19:59:28","新北市中和區大勇街25巷39弄13號","121.514621666667","24.99393","6500300","中和區"
"235065","098-UM","2018/12/01 19:59:38","新北市中和區福祥路98號","121.499151666667","25.0060083333333","6500300","中和區"
"235040","150-BY","2018/12/01 19:59:41","新北市中和區保健路10巷12號","121.507628333333","24.9968733333333","6500300","中和區"
"235058","151-BY","2018/12/01 19:59:27","新北市中和區員山路119號","121.48097","24.995395","6500300","中和區"
"235049","186-VK","2018/12/01 19:59:27","新北市中和區明禮街24號","121.504466666667","24.99619","6500300","中和區"
"235067","255-BX","2018/12/01 19:59:46","新北市中和區中正路806號","121.485025","25.0024783333333","6500300","中和區"
"235044","293-VK","2018/12/01 19:59:39","新北市中和區復興路73號","121.503763333333","24.99028","6500300","中和區"
"235050","4979-A6","2018/12/01 19:59:29","新北市中和區景平路241巷64弄14號","121.50745","24.9924483333333","6500300","中和區"
"235069","4980-A6","2018/12/01 19:59:36","新北市中和區圓通路176-1號","121.497018333333","24.9944833333333","6500300","中和區"
"235070","558-UM","2018/12/01 19:59:32","新北市中和區中正路250號","121.49569","24.9940416666667","6500300","中和區"
"235054","640-BX","2018/12/01 19:59:32","新北市板橋區民生路一段101號","121.474365","25.014105","6500300","中和區"
"235046","733-UM","2018/12/01 19:59:34","新北市中和區興南路一段93巷75號","121.510473333333","24.9866116666667","6500300","中和區"
"235026","800-TS","2018/12/01 19:59:29","新北市中和區員山路36巷13號","121.484323333333","24.9906866666667","6500300","中和區"
"235052","805-TS","2018/12/01 19:59:45","新北市中和區華新街91號","121.508555","24.98332","6500300","中和區"
"235048","896-TW","2018/12/01 19:59:27","新北市中和區景新街422號","121.512933333333","24.98887","6500300","中和區"
"235053","900-TW","2018/12/01 19:59:32","新北市土城區延壽路1-1號","121.469223333333","24.9947983333333","6500300","中和區"
"235051","157-BY","2018/12/01 19:59:46","新北市中和區景安路247巷7號","121.504385","24.9906316666667","6500300","中和區"
"235037","AAC-213","2018/12/01 19:59:41","新北市中和區自立路141巷2號","121.522331666667","24.9933466666667","6500300","中和區"
"235059","AAC-215","2018/12/01 19:59:45","新北市中和區圓通路355號","121.491451666667","24.9901566666667","6500300","中和區"
"220065","072-UY","2018/12/01 19:59:34","新北市板橋區民族路69巷2弄1號","121.465565","25.0090416666667","6500100","板橋區"
"220086","073-UY","2018/12/01 19:59:33","新北市板橋區大觀路二段96號","121.444851666667","25.0001133333333","6500100","板橋區"
"220106","075-UY","2018/12/01 19:59:32","新北市板橋區民治街52巷11號","121.478876666667","25.0327783333333","6500100","板橋區"
"220069","AAD-861","2018/12/01 19:59:26","新北市板橋區大明街25巷4弄9號","121.457583333333","25.0021216666667","6500100","板橋區"
"247002","893-R6","2018/12/01 19:59:40","新北市蘆洲區長安街268號","121.45742","25.0867183333333","6501400","蘆洲區"
"247016","546-UM","2018/12/01 19:59:46","新北市蘆洲區光華路45號","121.468743333333","25.0830266666667","6501400","蘆洲區"
"247024","500-BY","2018/12/01 19:59:41","新北市蘆洲區光榮路120巷8弄33號","121.464773333333","25.0881966666667","6501400","蘆洲區"
"247006","337-TH","2018/12/01 19:59:40","新北市蘆洲區九芎街109號","121.465631666667","25.0797216666667","6501400","蘆洲區"
"247008","336-TH","2018/12/01 19:59:46","新北市蘆洲區信義路119巷1號","121.478425","25.0803166666667","6501400","蘆洲區"
"247020","057-VK","2018/12/01 19:59:30","新北市蘆洲區民權路113號","121.472471666667","25.0894866666667","6501400","蘆洲區"
"247014","053-VK","2018/12/01 19:59:29","新北市蘆洲區成功路120號","121.472211666667","25.08256","6501400","蘆洲區"
"247018","007-UY","2018/12/01 19:59:46","新北市蘆洲區民族路300號","121.47764","25.0898616666667","6501400","蘆洲區"
"247004","002-UY","2018/12/01 19:59:48","新北市蘆洲區永康街39號","121.457343333333","25.0852966666667","6501400","蘆洲區"
"247022","001-UY","2018/12/01 19:59:29","新北市蘆洲區中正路293號","121.466658333333","25.08804","6501400","蘆洲區"
"226004","312-R5","2018/12/01 19:59:43","新北市平溪區十分里十分街116號","121.776946666667","25.0431366666667","6502400","平溪區"
"228003","097-TW","2018/12/01 19:59:31","新北市貢寮區仁理村仁和路202號","121.923611666667","25.052885","6502600","貢寮區"
"224010","AGQ-8101","2018/12/01 19:59:30","新北市瑞芳區基山街51號","121.84537","25.1087233333333","6501200","瑞芳區"
"227002","642-TC","2018/12/01 19:59:43","新北市雙溪區雙溪里長安街16號","121.86499","25.0346766666667","6502500","雙溪區"
"227010","400-TW","2018/12/01 19:59:44","新北市雙溪區新基里新基南街25號","121.866286666667","25.0381266666667","6502500","雙溪區"
"222001","KEA-2212","2018/12/01 19:59:38","新北市深坑區北深路三段166號","121.602243333333","25.00344","6501800","深坑區"
"208002","KEA-2872","2018/12/01 19:59:29","新北市金山區中山路16號","121.641616666667","25.2174633333333","6502700","金山區"
"208003","665-BX","2018/12/01 19:59:40","新北市金山區永興里濆水路8號","121.623651666667","25.2715066666667","6502700","金山區"
"208001","761-BX","2018/12/01 19:59:37","新北市金山區南勢41-1號","121.629108333333","25.219865","6502700","金山區"
"251009","008-UM","2018/12/01 19:59:32","新北市淡水區英專路28巷20號","121.445888333333","25.1697816666667","6501000","淡水區"
"251005","010-UM","2018/12/01 19:59:33","新北市淡水區學府路136巷29號","121.451486666667","25.1727516666667","6501000","淡水區"
"251001","011-UM","2018/12/01 19:59:43","新北市淡水區淡金路二段600號","121.446696666667","25.1922966666667","6501000","淡水區"
"251013","KEA-2871","2018/12/01 19:59:30","新北市淡水區淡金路三段254號","121.450018333333","25.20639","6501000","淡水區"
"251016","179-VK","2018/12/01 19:59:32","新北市淡水區番子田16-13號","121.453718333333","25.231725","6501000","淡水區"
"251008","181-VK","2018/12/01 19:59:38","新北市淡水區淡海路72巷21號","121.424301666667","25.1811833333333","6501000","淡水區"
"251015","182-VK","2018/12/01 19:59:48","新北市淡水區埤島80-2號","121.44946","25.1894366666667","6501000","淡水區"
"251010","413-VK","2018/12/01 19:59:35","新北市淡水區崁頂里77號","121.430311666667","25.203125","6501000","淡水區"
"251012","441-VK","2018/12/01 19:59:42","新北市淡水區下圭柔山91巷1號","121.43825","25.2110833333333","6501000","淡水區"
"251006","561-UM","2018/12/01 19:59:36","新北市淡水區水碓街57號","121.444406666667","25.1773666666667","6501000","淡水區"
"251011","650-BX","2018/12/01 19:59:33","新北市淡水區崁頂55-3號","121.442188333333","25.1966816666667","6501000","淡水區"
"251003","673-BX","2018/12/01 19:59:34","新北市淡水區中山北路二段189巷15弄29號","121.44342","25.184175","6501000","淡水區"
"207003","550-UM","2018/12/01 19:59:37","新北市萬里區磺潭里公館崙5號","121.641915","25.21424","6502800","萬里區"
"207004","225-TW","2018/12/01 19:59:33","新北市萬里區北基里忠二街37號","121.685695","25.1757783333333","6502800","萬里區"
"252002","178-VK","2018/12/01 19:59:36","新北市三芝區忠孝街116-3號","121.50545","25.257595","6502100","三芝區"
"252001","292-VK","2018/12/01 19:59:39","新北市三芝區公正街9號","121.49976","25.257475","6502100","三芝區"
"237004","KEA-2597","2018/12/01 19:59:32","新北市三峽區添福15號","121.371973333333","24.90603","6500900","三峽區"
"237009","210-TH","2018/12/01 19:59:33","新北市三峽區民族街78巷10號","121.368591666667","24.9294933333333","6500900","三峽區"
"237012","275-BY","2018/12/01 19:59:44","新北市三峽區中華路139號","121.371191666667","24.9274733333333","6500900","三峽區"
"237006","5529-G3","2018/12/01 19:59:26","新北市三峽區中正路二段168號","121.365948333333","24.9156983333333","6500900","三峽區"
"237005","AKY-6261","2018/12/01 19:59:41","新北市三峽區民生街1巷5-14號","121.378945","24.9363466666667","6500900","三峽區"
"236070","105-UM","2018/12/01 19:59:38","新北市土城區中央路三段185-4號","121.431316666667","24.9647666666667","6501300","土城區"
"236042","KED-0685","2018/12/01 19:59:39","新北市土城區學府路一段98巷17號","121.455565","24.9886633333333","6501300","土城區"
"236079","166-UM","2018/12/01 19:59:30","新北市土城區福安街55巷6號","121.41872","24.964185","6501300","土城區"
"236030","253-BX","2018/12/01 19:59:35","新北市土城區中央路一段250巷2號","121.444251666667","24.9847216666667","6501300","土城區"
"236026","269-VK","2018/12/01 19:59:45","新北市土城區中央路二段94號","121.442246666667","24.9786283333333","6501300","土城區"
"236014","270-VK","2018/12/01 19:59:35","新北市土城區廣福街128號","121.456328333333","24.9928266666667","6501300","土城區"
"236038","271-VK","2018/12/01 19:59:38","新北市土城區國際路31巷14號","121.465946666667","24.9793733333333","6501300","土城區"
"236021","401-BY","2018/12/01 19:59:35","新北市土城區延吉街109號","121.471413333333","24.9866116666667","6501300","土城區"
"236059","912-UM","2018/12/01 19:59:39","新北市土城區中央路一段304號","121.443278333333","24.981925","6501300","土城區"
"236049","913-UM","2018/12/01 19:59:46","新北市土城區金城路三段315號","121.475036666667","24.9913133333333","6501300","土城區"
"236063","915-UM","2018/12/01 19:59:42","新北市土城區延和路18巷13號","121.464836666667","24.98771","6501300","土城區"
"236055","970-R7","2018/12/01 19:59:36","新北市土城區學府路一段43號","121.45773","24.9884133333333","6501300","土城區"
"242036","AAC-296","2018/12/01 19:54:00","新北市新莊區建安街71巷19號","121.428316666667","25.0245966666667","6500500","新莊區"
"242058","986-R7","2018/12/01 19:59:38","新北市新莊區八德街17號","121.425311666667","25.02263","6500500","新莊區"
"242056","751-BX","2018/12/01 19:59:34","新北市新莊區新豐街59號","121.446651666667","25.0337166666667","6500500","新莊區"
"242025","613-BX","2018/12/01 19:59:27","新北市新莊區五工一路88號","121.461293333333","25.06749","6500500","新莊區"
"242044","566-BX","2018/12/01 19:59:37","新北市新莊區中正路746巷43號","121.4117","25.0253616666667","6500500","新莊區"
"242048","497-BY","2018/12/01 19:59:26","新北市新莊區後港二路10號","121.422935","25.02406","6500500","新莊區"
"242011","442-UM","2018/12/01 19:59:35","新北市新莊區中港路531巷118號","121.450015","25.0517","6500500","新莊區"
"242002","440-UM","2018/12/01 19:59:33","新北市新莊區中正路219號","121.450861666667","25.0358116666667","6500500","新莊區"
"242039","415-TV","2018/12/01 19:59:27","新北市新莊區民安路316號","121.428513333333","25.0220516666667","6500500","新莊區"
"242023","362-BY","2018/12/01 19:59:38","新北市新莊區化成路213-1號","121.466066666667","25.0517716666667","6500500","新莊區"
"242061","353-BY","2018/12/01 19:59:41","新北市新莊區瓊林路70號","121.445183333333","25.0286233333333","6500500","新莊區"
"242034","135-UY","2018/12/01 19:59:41","新北市新莊區建中街81巷8號","121.447305","25.0361216666667","6500500","新莊區"
"242051","172-VK","2018/12/01 19:59:44","新北市新莊區龍安路462號","121.426928333333","25.0175533333333","6500500","新莊區"
"242013","173-VK","2018/12/01 19:59:44","新北市新莊區幸福路607號","121.452186666667","25.0492183333333","6500500","新莊區"
"242019","175-VK","2018/12/01 19:59:40","新北市新莊區長青街37巷1號","121.45638","25.042175","6500500","新莊區"
"242017","346-TH","2018/12/01 19:59:39","新北市新莊區中安街33號","121.452483333333","25.0459816666667","6500500","新莊區"
"242053","347-TH","2018/12/01 19:59:24","新北市新莊區西盛街416巷2號","121.427318333333","25.0122566666667","6500500","新莊區"
"242031","348-TH","2018/12/01 19:59:45","新北市新莊區忠孝街29巷26號","121.443616666667","25.03668","6500500","新莊區"
"242004","349-TH","2018/12/01 19:59:37","新北市新莊區頭前路146號","121.462221666667","25.0525416666667","6500500","新莊區"
"242021","350-TH","2018/12/01 19:59:45","新北市新莊區建中街16巷4號","121.449456666667","25.0378783333333","6500500","新莊區"
"242015","351-TH","2018/12/01 19:59:46","新北市新莊區復興路一段33巷6號","121.446311666667","25.042295","6500500","新莊區"
"238021","KEA-2539","2018/12/01 19:59:29","新北市樹林區佳園路二段41號","121.391626666667","24.9626466666667","6500700","樹林區"
"238025","303-VK","2018/12/01 19:57:00","新北市樹林區佳園路一段94號","121.393388333333","24.9686916666667","6500700","樹林區"
"238017","283-BY","2018/12/01 19:59:45","新北市樹林區保安街一段247號","121.419836666667","24.996615","6500700","樹林區"
"238026","172-UY","2018/12/01 19:59:47","新北市樹林區佳園路三段79號","121.387695","24.9525983333333","6500700","樹林區"
"239002","359-BY","2018/12/01 19:52:40","新北市鶯歌區二甲路12-2號","121.345528333333","24.935135","6500800","鶯歌區"
"221008","489-VK","2018/12/01 19:59:45","台北市內湖區康樂街125巷10號","121.620051666667","25.0733583333333","6501100","汐止區"
"221036","130-UY","2018/12/01 19:59:30","新北市汐止區忠孝東路258巷9號","121.663748333333","25.0672583333333","6501100","汐止區"
"221015","131-UY","2018/12/01 19:59:39","新北市汐止區建成路17號","121.664445","25.07252","6501100","汐止區"
"221010","269-BY","2018/12/01 19:59:47","新北市汐止區康寧街885巷1號","121.65006","25.0762183333333","6501100","汐止區"
"221012","278-VK","2018/12/01 19:59:35","新北市汐止區大同路三段284號","121.677983333333","25.07122","6501100","汐止區"
"221023","279-VK","2018/12/01 19:59:49","新北市汐止區明峰街206號","121.627555","25.0692466666667","6501100","汐止區"
"221032","280-BY","2018/12/01 19:59:42","新北市汐止區橫科路18巷32弄2號","121.617645","25.0500066666667","6501100","汐止區"
"221027","281-BY","2018/12/01 19:59:31","新北市汐止區中正路110號","121.660801666667","25.0695616666667","6501100","汐止區"
"221029","298-VK","2018/12/01 19:59:44","新北市汐止區樟樹一路137巷24號","121.641075","25.06594","6501100","汐止區"
"221021","299-VK","2018/12/01 19:59:32","新北市汐止區水源路一段137號","121.65609","25.0623666666667","6501100","汐止區"
"221031","353-TW","2018/12/01 19:59:32","新北市汐止區福德一路258號","121.633373333333","25.064535","6501100","汐止區"
"221002","129-UY","2018/12/01 19:59:38","新北市汐止區工建路504號","121.633205","25.0583483333333","6501100","汐止區"
"221035","622-UM","2018/12/01 19:59:43","新北市汐止區長江街57巷6號","121.656198333333","25.0717966666667","6501100","汐止區"
"221025","623-UM","2018/12/01 19:59:44","新北市汐止區秀峰路118號","121.660006666667","25.0634183333333","6501100","汐止區"
"221038","646-BX","2018/12/01 19:59:35","新北市汐止區忠孝東路510號","121.666781666667","25.0753816666667","6501100","汐止區"
"221033","647-BX","2018/12/01 19:59:31","新北市汐止區東勢街201巷60號","121.634633333333","25.0436733333333","6501100","汐止區"
"221018","753-BX","2018/12/01 19:59:43","新北市汐止區茄苳路35號","121.665563333333","25.0709283333333","6501100","汐止區"
"220080","200-UY","2018/12/01 19:59:32","新北市板橋區大觀路二段163巷28號","121.446421666667","25.0001","6500100","板橋區"
"220101","245-BX","2018/12/01 19:59:48","新北市板橋區萬板路128號","121.475093333333","25.0233733333333","6500100","板橋區"
"224002","257-TC","2018/12/01 19:59:36","新北市瑞芳區員山子路員山巷1號","121.816821666667","25.1036933333333","6501200","瑞芳區"
"220072","277-BY","2018/12/01 19:59:45","新北市板橋區金門街281號","121.431205","24.9881166666667","6500100","板橋區"
"220094","283-UM","2018/12/01 19:59:41","新北市板橋區陽明街243號","121.462903333333","25.0245366666667","6500100","板橋區"
"220053","285-VK","2018/12/01 19:59:35","新北市板橋區永豐街161號","121.475525","25.0203133333333","6500100","板橋區"
"220083","286-VK","2018/12/01 19:59:28","新北市板橋區僑中二街28號","121.445765","25.01074","6500100","板橋區"
"220081","287-VK","2018/12/01 19:59:38","新北市板橋區大觀路一段29巷131弄33-16號","121.45054","25.0042616666667","6500100","板橋區"
"220090","288-VK","2018/12/01 19:59:18","新北市板橋區新海路109巷1弄2號","121.460751666667","25.0223733333333","6500100","板橋區"
"220061","293-UM","2018/12/01 19:59:46","新北市板橋區中山路一段283巷2弄13號","121.47051","25.01493","6500100","板橋區"
"220068","295-UM","2018/12/01 19:59:28","新北市板橋區光復街172巷8號","121.48549","25.019295","6500100","板橋區"
"220084","296-UM","2018/12/01 19:59:33","新北市板橋區滿平街2巷10號","121.42537","24.9894666666667","6500100","板橋區"
"220092","299-UM","2018/12/01 19:59:43","新北市板橋區新海路366號","121.45956","25.0253516666667","6500100","板橋區"
"242042","281-VK","2018/12/01 19:59:47","新北市新莊區青山路一段71號","121.406216666667","25.0283033333333","6500500","新莊區"
"220075","303-R5","2018/12/01 19:59:39","新北市板橋區金華街10巷48弄57-3號","121.459016666667","25.02017","6500100","板橋區"
"220062","305-R5","2018/12/01 19:59:32","新北市板橋區萬安街20巷2弄13號","121.485288333333","25.0227133333333","6500100","板橋區"
"220098","317-R6","2018/12/01 19:59:42","新北市板橋區新海路72巷64號","121.461786666667","25.023505","6500100","板橋區"
"220089","487-VK","2018/12/01 19:59:38","新北市板橋區龍泉街55巷24號","121.457585","25.0252","6500100","板橋區"
"242007","280-VK","2018/12/01 19:59:34","新北市新莊區榮華路一段2號","121.45795","25.0551083333333","6500500","新莊區"
"220035","560-BX","2018/12/01 19:59:30","新北市板橋區新生街53巷14號","121.457555","25.021485","6500100","板橋區"
"220103","561-BX","2018/12/01 19:59:34","新北市板橋區自由路22號","121.465511666667","25.02263","6500100","板橋區"
"220063","609-BX","2018/12/01 19:59:48","新北市板橋區三民路一段89號","121.479446666667","25.0216583333333","6500100","板橋區"
"220091","637-BX","2018/12/01 19:59:37","新北市板橋區民治街119巷7號","121.47855","25.0306483333333","6500100","板橋區"
"220057","686-BX","2018/12/01 19:59:34","新北市板橋區四川路二段130巷75號","121.449936666667","24.99498","6500100","板橋區"
"220093","689-BX","2018/12/01 19:59:43","新北市板橋區文化路二段656號","121.478863333333","25.0357466666667","6500100","板橋區"
"220102","KEA-2699","2018/12/01 19:59:33","新北市板橋區仁化街42巷26號","121.475675","25.0307933333333","6500100","板橋區"
"220064","806-UM","2018/12/01 19:59:39","新北市板橋區民權路16號","121.463175","25.0098483333333","6500100","板橋區"
"220055","827-TW","2018/12/01 19:59:39","新北市板橋區仁愛路62巷15弄2號","121.459995","24.99843","6500100","板橋區"
"220067","830-TW","2018/12/01 19:59:30","新北市板橋區長安街331巷93弄9號","121.472166666667","25.0123033333333","6500100","板橋區"
"220096","831-TW","2018/12/01 19:59:43","新北市板橋區莒光路79巷13-3號","121.472028333333","25.0247033333333","6500100","板橋區"
"220088","833-TW","2018/12/01 19:59:32","新北市板橋區大同街89號","121.479931666667","25.0281783333333","6500100","板橋區"
"220074","895-R6","2018/12/01 19:59:47","新北市板橋區文化路一段32巷10號","121.459846666667","25.0111333333333","6500100","板橋區"
"220073","985-R7","2018/12/01 19:59:43","新北市板橋區南雅西路二段78-2號","121.452638333333","25.0106766666667","6500100","板橋區"
"220097","AAC-210","2018/12/01 19:59:41","新北市板橋區光正街45巷24號","121.461595","25.0165033333333","6500100","板橋區"
"220070","AAC-253","2018/12/01 19:59:30","新北市板橋區成都街73-3號","121.462403333333","25.0051166666667","6500100","板橋區"
"235068","KEA-2873","2018/12/01 19:59:25","新北市中和區福美路270號","121.498028333333","25.0050866666667","6500300","中和區"
