"lineid","car","time","location","longitude","latitude","cityid","cityname"
"234046","148-BY","2018/12/01 20:09:32","新北市永和區得和路326號","121.523198333333","24.9994933333333","6500400","永和區"
"234007","207-UY","2018/12/01 20:09:36","新北市永和區保順路11號","121.504603333333","25.0095233333333","6500400","永和區"
"234081","298-R6","2018/12/01 20:09:46","新北市永和區國中路109巷3弄2號","121.5238","25.00555","6500400","永和區"
"234038","336-UY","2018/12/01 20:09:30","新北市永和區成功路一段47巷34號","121.527933333333","25.0038966666667","6500400","永和區"
"234064","337-UY","2018/12/01 20:09:29","新北市永和區永利路96號","121.520923333333","25.0037633333333","6500400","永和區"
"234070","552-UM","2018/12/01 20:09:28","新北市永和區永貞路10巷9號","121.520066666667","25.0072483333333","6500400","永和區"
"234017","745-BX","2018/12/01 20:09:36","新北市永和區文化路68號","121.51433","25.0151883333333","6500400","永和區"
"234030","746-BX","2018/12/01 20:09:33","新北市永和區民權路49巷5弄37號","121.521855","24.9978933333333","6500400","永和區"
"234054","KEA-2590","2018/12/01 20:09:40","新北市永和區博愛街21巷1號","121.517648333333","25.0158383333333","6500400","永和區"
"234013","KEA-2591","2018/12/01 20:09:47","新北市永和區仁愛路244號","121.506401666667","25.0102183333333","6500400","永和區"
"234061","AAD-866","2018/12/01 20:09:37","新北市永和區中正路151巷5弄2號","121.515783333333","24.9986883333333","6500400","永和區"
"234086","748-BX","2018/12/01 20:09:39","新北市永和區豫溪街33號","121.516381666667","25.0098","6500400","永和區"
"234042","862-TW","2018/12/01 20:09:35","新北市永和區雙和街50號","121.508933333333","25.003095","6500400","永和區"
"234050","863-TW","2018/12/01 20:09:40","新北市永和區新生路210巷2號","121.505456666667","25.0131233333333","6500400","永和區"
"234023","9372-KE","2018/12/01 20:09:42","新北市永和區永和路二段97號","121.51483","25.0115966666667","6500400","永和區"
"234011","9373-KE","2018/12/01 20:09:41","新北市永和區仁愛路352巷122弄11號","121.500706666667","25.008815","6500400","永和區"
"249005","172-UM","2018/12/01 20:09:42","新北市八里區下罟子58-8號","121.387633333333","25.137705","6502300","八里區"
"249001","173-UM","2018/12/01 20:09:45","新北市八里區中華路二段326號","121.403258333333","25.1479383333333","6502300","八里區"
"249004","303-UY","2018/12/01 20:09:43","新北市八里區中山路一段326號","121.412838333333","25.1590766666667","6502300","八里區"
"249002","305-UY","2018/12/01 20:09:24","新北市五股區成泰路四段24號","121.454401666667","25.10777","6502300","八里區"
"249003","593-UM","2018/12/01 20:09:45","新北市八里區中山路二段540巷9弄16號","121.396611666667","25.1468483333333","6502300","八里區"
"248016","026-BX","2018/12/01 20:09:41","新北市五股區凌雲路一段158巷39弄2號","121.446796666667","25.103775","6501500","五股區"
"248020","225-UY","2018/12/01 20:09:29","新北市五股區凌雲路二段8-3號","121.446293333333","25.1026033333333","6501500","五股區"
"248012","247-BX","2018/12/01 20:09:36","新北市五股區六合街118號","121.430238333333","25.090765","6501500","五股區"
"248014","261-SL","2018/12/01 20:09:42","新北市五股區天乙路101-6號","121.444871666667","25.1070283333333","6501500","五股區"
"248002","678-BX","2018/12/01 20:09:44","新北市五股區成泰路三段208-6號","121.44663","25.09324","6501500","五股區"
"248004","682-TV","2018/12/01 20:09:39","新北市五股區成泰路一段213號","121.435256666667","25.077065","6501500","五股區"
"234077","969-R7","2018/12/01 20:09:43","新北市永和區智光街115號","121.515605","24.9961666666667","6500400","永和區"
"234074","AAC-211","2018/12/01 20:09:43","新北市永和區豫溪街165號","121.521733333333","25.0104666666667","6500400","永和區"
"234067","AAC-212","2018/12/01 20:09:33","新北市永和區保平路214巷10弄2號","121.509305","25.0064633333333","6500400","永和區"
"234003","AAC-295","2018/12/01 20:09:35","新北市永和區中正路688號","121.51656","25.0095083333333","6500400","永和區"
"244023","069-UM","2018/12/01 20:09:41","新北市林口區太平里180號","121.368263333333","25.134425","6501700","林口區"
"243013","AAD-798","2018/12/01 20:09:32","新北市泰山區明志路三段74巷23號","121.423925","25.0416666666667","6501600","泰山區"
"243009","297-R6","2018/12/01 20:09:34","新北市泰山區泰林路二段116巷4弄1號","121.43517","25.0595166666667","6501600","泰山區"
"243016","KEA-2801","2018/12/01 20:09:32","新北市泰山區明志路三段405號","121.421188333333","25.0340333333333","6501600","泰山區"
"243015","421-VK","2018/12/01 20:09:36","新北市泰山區明志路一段303號","121.431546666667","25.0592683333333","6501600","泰山區"
"243011","KEA-2215","2018/12/01 20:09:33","新北市泰山區明志路三段403號","121.421265","25.034185","6501600","泰山區"
"243010","KEA-2216","2018/12/01 20:09:37","新北市泰山區明志路二段136巷10號","121.426958333333","25.0505733333333","6501600","泰山區"
"243012","646-TV","2018/12/01 20:09:35","新北市泰山區楓江路105號","121.438175","25.06389","6501600","泰山區"
"243014","680-BX","2018/12/01 20:09:25","新北市泰山區楓江路1號","121.433306666667","25.06274","6501600","泰山區"
"222002","016-RS","2018/12/01 20:09:27","新北市深坑區北深路三段38號","121.608803333333","25.0012583333333","6501800","深坑區"
"222003","436-BY","2018/12/01 20:09:34","新北市深坑區埔新街62號","121.620076666667","25.0025116666667","6501800","深坑區"
"231044","001-UM","2018/12/01 20:09:35","新北市新店區寶慶街66號","121.542005","24.9867883333333","6500600","新店區"
"231041","002-UM","2018/12/01 20:09:32","新北市新店區中正路460號","121.534015","24.979395","6500600","新店區"
"231059","046-UY","2018/12/01 20:09:40","新北市新店區安成街25號","121.510143333333","24.960895","6500600","新店區"
"231040","047-UY","2018/12/01 20:09:33","新北市新店區中正路106號","121.543086666667","24.97058","6500600","新店區"
"231052","108-UY","2018/12/01 20:09:39","新北市新店區新烏路三段寶島巷2弄3號","121.551991666667","24.898705","6500600","新店區"
"231048","187-VK","2018/12/01 20:09:45","新北市新店區寶橋路59-1號","121.545133333333","24.975045","6500600","新店區"
"231054","KEA-2219","2018/12/01 20:09:35","新北市新店區檳榔路7號","121.541065","24.9648933333333","6500600","新店區"
"231057","256-BX","2018/12/01 20:09:34","新北市新店區百齡一路12號","121.553126666667","24.9324216666667","6500600","新店區"
"231042","268-BY","2018/12/01 20:09:43","新北市新店區中興路二段89號","121.547076666667","24.9713933333333","6500600","新店區"
"231050","AAD-862","2018/12/01 20:09:40","新北市新店區光明街101號","121.53883","24.9613516666667","6500600","新店區"
"231066","4716-K9","2018/12/01 20:09:34","新北市新店區薏仁坑路自強巷6號","121.496445","24.9583833333333","6500600","新店區"
"231056","4715-K9","2018/12/01 20:09:26","新北市新店區中正路275巷45號","121.536663333333","24.9726616666667","6500600","新店區"
"231067","4772-VM","2018/12/01 20:09:30","新北市新店區溪洲路6巷10號","121.534005","24.9615266666667","6500600","新店區"
"231065","512-UM","2018/12/01 20:09:43","新北市新店區安祥路106巷46號","121.476833333333","24.96168","6500600","新店區"
"231049","513-UM","2018/12/01 20:09:46","新北市新店區北新路二段139巷12弄2號","121.542178333333","24.9759783333333","6500600","新店區"
"231063","616-UM","2018/12/01 20:09:29","新北市新店區黎明路53巷1號","121.502361666667","24.9486783333333","6500600","新店區"
"231061","619-UM","2018/12/01 20:09:35","新北市新店區安興路87號","121.515196666667","24.97582","6500600","新店區"
"231068","718-UY","2018/12/01 20:09:41","新北市新店區中興路三段88號","121.545313333333","24.9788883333333","6500600","新店區"
"231064","719-UM","2018/12/01 19:59:48","新北市新店區安民街5號","121.515221666667","24.9643116666667","6500600","新店區"
"231051","719-UY","2018/12/01 20:09:37","新北市新店區中央六街7號","121.530275","24.9745333333333","6500600","新店區"
"231062","720-UM","2018/12/01 20:09:29","新北市新店區華城路12號","121.52887","24.9577633333333","6500600","新店區"
"231060","897-TW","2018/12/01 20:09:30","新北市新店區安康路三段548號","121.482053333333","24.9489533333333","6500600","新店區"
"231045","898-TW","2018/12/01 20:09:42","新北市新店區北宜路一段170號","121.540763333333","24.9530283333333","6500600","新店區"
"231043","899-TW","2018/12/01 20:09:41","新北市新店區民族路168號","121.537268333333","24.976505","6500600","新店區"
"231055","AKT-0513","2018/12/01 20:09:33","新北市新店區中華路42巷10號","121.54042","24.968545","6500600","新店區"
"241011","013-R5","2018/12/01 20:09:41","新北市三重區三和路三段35巷12號","121.49607","25.071365","6500200","三重區"
"241028","022-UY","2018/12/01 20:09:45","新北市三重區仁化街152號","121.49469","25.0575366666667","6500200","三重區"
"241008","059-VK","2018/12/01 20:09:34","新北市三重區永福街197巷15-1號","121.478936666667","25.0744116666667","6500200","三重區"
"241022","060-VK","2018/12/01 20:09:32","新北市三重區重陽路二段7號","121.486918333333","25.06199","6500200","三重區"
"241031","061-VK","2018/12/01 20:09:27","新北市三重區過圳街9-1號","121.48877","25.0602033333333","6500200","三重區"
"241015","062-VK","2018/12/01 20:09:45","新北市三重區福德北路41號","121.50235","25.06488","6500200","三重區"
"241017","063-VK","2018/12/01 20:09:32","新北市三重區大智街108-3號","121.492973333333","25.0666533333333","6500200","三重區"
"241026","066-VK","2018/12/01 20:09:30","新北市三重區中央南路26號","121.501365","25.0622916666667","6500200","三重區"
"241002","090-VK","2018/12/01 20:09:30","新北市三重區仁義街225巷2號","121.496671666667","25.0823483333333","6500200","三重區"
"241003","091-VK","2018/12/01 20:09:35","新北市三重區富華街16號","121.489568333333","25.0824233333333","6500200","三重區"
"251014","742-BX","2018/12/01 20:09:27","新北市淡水區石頭厝1號","121.458716666667","25.2355083333333","6501000","淡水區"
"241005","262-UM","2018/12/01 20:09:31","新北市三重區溪尾街327號","121.488438333333","25.0848433333333","6500200","三重區"
"241016","265-UM","2018/12/01 20:09:39","新北市三重區大同北路59號","121.495381666667","25.063405","6500200","三重區"
"241009","267-UM","2018/12/01 20:09:44","新北市三重區三和路四段382巷109號","121.480025","25.0782266666667","6500200","三重區"
"241018","268-UM","2018/12/01 20:09:34","新北市三重區自強路一段236號","121.493295","25.067155","6500200","三重區"
"241032","269-UM","2018/12/01 20:09:34","新北市三重區捷運路65號","121.483431666667","25.055615","6500200","三重區"
"241013","270-UM","2018/12/01 20:09:31","新北市三重區三和路三段151巷24號","121.49291","25.0741083333333","6500200","三重區"
"241025","271-UM","2018/12/01 20:09:41","新北市三重區中正北路169號","121.478481666667","25.06929","6500200","三重區"
"241007","398-BY","2018/12/01 20:09:41","新北市三重區三和路四段111號","121.486065","25.0771766666667","6500200","三重區"
"241035","462-BY","2018/12/01 20:09:29","新北市三重區平安街5號","121.498866666667","25.064325","6500200","三重區"
"241004","475-VK","2018/12/01 20:09:39","新北市三重區自強路四段110號","121.491556666667","25.07994","6500200","三重區"
"241020","478-VK","2018/12/01 20:09:27","新北市三重區後竹圍街2巷1弄2號","121.491781666667","25.073375","6500200","三重區"
"241030","480-VK","2018/12/01 20:09:34","新北市三重區成功路145巷35號","121.487771666667","25.0531866666667","6500200","三重區"
"241014","543-UM","2018/12/01 20:09:39","新北市三重區長樂街110號","121.501518333333","25.0695666666667","6500200","三重區"
"241023","545-UM","2018/12/01 20:09:25","新北市三重區頂崁街225號","121.477065","25.0681483333333","6500200","三重區"
"241001","547-UM","2018/12/01 20:09:38","新北市三重區三和路四段89巷22號","121.489943333333","25.0760483333333","6500200","三重區"
"241033","557-UM","2018/12/01 20:08:05","新北市三重區光復路一段68巷2號","121.47185","25.0492283333333","6500200","三重區"
"241019","KEA-2593","2018/12/01 20:09:28","新北市三重區自強路二段33巷18號","121.49003","25.069655","6500200","三重區"
"241006","743-BX","2018/12/01 20:02:10","新北市三重區力行路二段138號","121.482526666667","25.07588","6500200","三重區"
"241012","941-UM","2018/12/01 20:09:37","新北市三重區河邊北街379-1號","121.501703333333","25.0764883333333","6500200","三重區"
"241029","942-UM","2018/12/01 20:09:43","新北市三重區光明路32巷32號","121.492143333333","25.05878","6500200","三重區"
"235066","003-UY","2018/12/01 20:09:31","新北市中和區保平路300號","121.50778","25.004515","6500300","中和區"
"235039","097-UM","2018/12/01 20:09:28","新北市中和區立人街24-5號","121.51891","24.99417","6500300","中和區"
"235065","098-UM","2018/12/01 20:09:38","新北市中和區福美路245號","121.49926","25.0050766666667","6500300","中和區"
"235040","150-BY","2018/12/01 20:09:41","新北市中和區景安路79巷36號","121.507216666667","24.99633","6500300","中和區"
"247012","KEA-2869","2018/12/01 20:09:43","新北市蘆洲區民族路191號","121.478691666667","25.08898","6501400","蘆洲區"
"235050","4979-A6","2018/12/01 20:09:29","新北市中和區安樂路66號","121.512168333333","24.993295","6500300","中和區"
"235069","4980-A6","2018/12/01 20:09:36","新北市中和區南山路37巷14號","121.502805","24.9987366666667","6500300","中和區"
"235070","558-UM","2018/12/01 20:09:32","新北市中和區中正路806號","121.485065","25.0022033333333","6500300","中和區"
"235054","640-BX","2018/12/01 20:09:32","新北市五股區凌雲路三段24巷7號","121.437951666667","25.1064666666667","6500300","中和區"
"235046","733-UM","2018/12/01 20:09:34","新北市中和區忠孝街31巷4號","121.510395","24.983475","6500300","中和區"
"235026","800-TS","2018/12/01 20:08:27","新北市中和區員山路36巷16-3號","121.484945","24.99168","6500300","中和區"
"235051","157-BY","2018/12/01 20:09:46","新北市中和區捷運路125號","121.507235","24.990585","6500300","中和區"
"235037","AAC-213","2018/12/01 20:09:41","新北市中和區立人街59號","121.520238333333","24.9942333333333","6500300","中和區"
"235059","AAC-215","2018/12/01 20:09:25","新北市中和區圓通路335巷33弄3號","121.493181666667","24.9892916666667","6500300","中和區"
"220106","075-UY","2018/12/01 20:09:32","新北市板橋區文聖街13號","121.475583333333","25.0324433333333","6500100","板橋區"
"220069","AAD-861","2018/12/01 20:09:26","新北市板橋區貴興路92號","121.455968333333","25.00267","6500100","板橋區"
"247002","893-R6","2018/12/01 20:09:40","新北市蘆洲區永康街22號","121.458966666667","25.085665","6501400","蘆洲區"
"247024","500-BY","2018/12/01 20:09:41","新北市蘆洲區光榮路100號","121.464415","25.0887083333333","6501400","蘆洲區"
"247006","337-TH","2018/12/01 20:09:40","新北市蘆洲區中山二路320號","121.468405","25.0765566666667","6501400","蘆洲區"
"247020","057-VK","2018/12/01 20:09:30","新北市蘆洲區民權路106巷5弄22號","121.47431","25.0891966666667","6501400","蘆洲區"
"247014","053-VK","2018/12/01 20:09:29","新北市蘆洲區中山二路265巷3號","121.470218333333","25.0795433333333","6501400","蘆洲區"
"247004","002-UY","2018/12/01 20:09:28","新北市蘆洲區環堤大道40號","121.45608","25.0834216666667","6501400","蘆洲區"
"247022","001-UY","2018/12/01 20:09:26","新北市蘆洲區三民路171巷2號","121.47075","25.0870633333333","6501400","蘆洲區"
"226004","312-R5","2018/12/01 20:09:43","新北市平溪區十分里十分街66巷8號","121.775245","25.04227","6502400","平溪區"
"224010","AGQ-8101","2018/12/01 20:09:30","新北市瑞芳區基山街233-1號","121.841883333333","25.107015","6501200","瑞芳區"
"222001","KEA-2212","2018/12/01 20:09:18","新北市深坑區北深路三段187號","121.60127","25.0036716666667","6501800","深坑區"
"208003","665-BX","2018/12/01 20:09:40","新北市金山區海興路107號","121.633646666667","25.2428466666667","6502700","金山區"
"251009","008-UM","2018/12/01 20:09:32","新北市淡水區英專路41號","121.445388333333","25.17037","6501000","淡水區"
"251005","010-UM","2018/12/01 20:09:33","新北市淡水區學府路67號","121.448318333333","25.1696866666667","6501000","淡水區"
"251001","011-UM","2018/12/01 20:09:43","新北市淡水區淡金路二段599號","121.446226666667","25.1925183333333","6501000","淡水區"
"251013","KEA-2871","2018/12/01 20:09:30","新北市淡水區奎柔山路299號","121.460241666667","25.2051366666667","6501000","淡水區"
"251016","179-VK","2018/12/01 20:09:32","新北市淡水區番子田25-5號","121.456528333333","25.2296033333333","6501000","淡水區"
"251008","181-VK","2018/12/01 20:09:38","新北市淡水區沙崙路131巷11號","121.421961666667","25.18299","6501000","淡水區"
"251015","182-VK","2018/12/01 20:09:28","新北市淡水區淡金路二段270-1號","121.447026666667","25.18882","6501000","淡水區"
"251010","413-VK","2018/12/01 20:09:35","新北市淡水區中正路二段305巷32號","121.42345","25.1961283333333","6501000","淡水區"
"251012","441-VK","2018/12/01 20:09:42","新北市淡水區淡金路三段266號","121.448921666667","25.2067433333333","6501000","淡水區"
"251006","561-UM","2018/12/01 20:09:36","新北市淡水區北新路141巷60弄11號","121.448106666667","25.1796683333333","6501000","淡水區"
"251003","673-BX","2018/12/01 20:09:34","新北市淡水區中山北路二段189巷15弄31號","121.443591666667","25.1837683333333","6501000","淡水區"
"207003","550-UM","2018/12/01 20:09:42","新北市萬里區大鵬里萬里加投166號","121.643398333333","25.2155583333333","6502800","萬里區"
"207004","225-TW","2018/12/01 20:09:33","新北市萬里區北基里愛三街11號","121.681765","25.1766083333333","6502800","萬里區"
"252002","178-VK","2018/12/01 20:09:36","新北市三芝區中正路一段72號","121.504031666667","25.2577116666667","6502100","三芝區"
"252001","292-VK","2018/12/01 20:09:39","新北市三芝區公正街22號","121.49966","25.25787","6502100","三芝區"
"237006","5529-G3","2018/12/01 20:09:46","新北市三峽區嘉添95號","121.370286666667","24.909555","6500900","三峽區"
"237005","AKY-6261","2018/12/01 20:09:41","新北市三峽區三樹路98巷169號","121.38461","24.93962","6500900","三峽區"
"236070","105-UM","2018/12/01 20:09:38","新北市土城區中山路46號","121.427088333333","24.9656","6501300","土城區"
"236042","KED-0685","2018/12/01 20:09:37","新北市土城區學享街52-1號","121.452015","24.9867","6501300","土城區"
"236079","166-UM","2018/12/01 20:09:38","新北市土城區福安街30號","121.419558333333","24.9649733333333","6501300","土城區"
"236030","253-BX","2018/12/01 20:09:35","新北市土城區中央路一段145號","121.446878333333","24.987905","6501300","土城區"
"236026","269-VK","2018/12/01 20:09:45","新北市土城區裕生路77號","121.446965","24.9844733333333","6501300","土城區"
"236014","270-VK","2018/12/01 20:09:35","新北市土城區德興街129號","121.45486","24.9917166666667","6501300","土城區"
"236038","271-VK","2018/12/01 20:09:45","新北市土城區延吉街373巷8號","121.463661666667","24.9834416666667","6501300","土城區"
"236021","401-BY","2018/12/01 20:09:27","新北市土城區延吉街7巷1號","121.472101666667","24.989135","6501300","土城區"
"236059","912-UM","2018/12/01 20:09:39","新北市土城區光明街28巷34號","121.441238333333","24.9741316666667","6501300","土城區"
"236049","913-UM","2018/12/01 20:09:37","新北市土城區清水路97號","121.456598333333","24.9818033333333","6501300","土城區"
"236055","970-R7","2018/12/01 20:09:36","新北市土城區中華路一段166號","121.441453333333","24.9830416666667","6501300","土城區"
"242036","AAC-296","2018/12/01 19:54:00","新北市新莊區建安街71巷19號","121.428316666667","25.0245966666667","6500500","新莊區"
"242058","986-R7","2018/12/01 20:09:38","新北市新莊區八德街115號","121.424033333333","25.0207283333333","6500500","新莊區"
"242056","751-BX","2018/12/01 20:09:34","新北市新莊區新莊路649巷15弄32號","121.445561666667","25.03153","6500500","新莊區"
"242025","613-BX","2018/12/01 20:09:47","新北市新莊區五工路68巷19-1號","121.458883333333","25.06449","6500500","新莊區"
"242044","566-BX","2018/12/01 20:09:37","桃園市龜山區萬壽路一段21巷8號","121.410503333333","25.0204233333333","6500500","新莊區"
"242048","497-BY","2018/12/01 20:09:46","新北市新莊區四維路182巷8號","121.421861666667","25.0218433333333","6500500","新莊區"
"242011","442-UM","2018/12/01 20:09:36","新北市新莊區中信街49號","121.44975","25.0506866666667","6500500","新莊區"
"242002","440-UM","2018/12/01 20:09:33","新北市新莊區中正路55-4號","121.461885","25.039675","6500500","新莊區"
"242039","415-TV","2018/12/01 20:09:27","新北市新莊區民安西路110號","121.426796666667","25.0189","6500500","新莊區"
"242009","413-TV","2018/12/01 20:09:37","新北市新莊區昌盛街33號","121.454058333333","25.0501133333333","6500500","新莊區"
"242023","362-BY","2018/12/01 20:09:42","新北市新莊區化成路728號","121.465673333333","25.0571583333333","6500500","新莊區"
"242061","353-BY","2018/12/01 20:09:41","新北市新莊區瓊林路瓊英巷4弄2號","121.443635","25.027415","6500500","新莊區"
"242034","135-UY","2018/12/01 20:09:41","新北市新莊區華興街34號","121.445993333333","25.0358766666667","6500500","新莊區"
"242051","172-VK","2018/12/01 20:09:42","新北市新莊區民安西路202號","121.425811666667","25.0151983333333","6500500","新莊區"
"242013","173-VK","2018/12/01 20:09:29","新北市新莊區幸福路678巷5號","121.450536666667","25.0497583333333","6500500","新莊區"
"242019","175-VK","2018/12/01 20:09:40","新北市新莊區博愛路2巷2號","121.456543333333","25.042775","6500500","新莊區"
"242017","346-TH","2018/12/01 20:09:39","新北市新莊區中港路340號","121.452028333333","25.0459983333333","6500500","新莊區"
"242053","347-TH","2018/12/01 20:09:44","新北市新莊區西盛街385號","121.427968333333","25.0131016666667","6500500","新莊區"
"242031","348-TH","2018/12/01 20:09:39","新北市新莊區義豐街35-1號","121.441153333333","25.035335","6500500","新莊區"
"242004","349-TH","2018/12/01 20:09:37","新北市新莊區頭前路2巷26號","121.46835","25.0536","6500500","新莊區"
"242021","350-TH","2018/12/01 20:09:44","新北市新莊區建中街48巷6弄1號","121.44834","25.0378333333333","6500500","新莊區"
"242015","351-TH","2018/12/01 20:09:37","新北市新莊區中平路26巷41號","121.446725","25.0433316666667","6500500","新莊區"
"238026","172-UY","2018/12/01 20:09:47","新北市樹林區佳園路二段41號","121.391665","24.9626916666667","6500700","樹林區"
"239002","359-BY","2018/12/01 19:52:40","新北市鶯歌區二甲路12-2號","121.345528333333","24.935135","6500800","鶯歌區"
"221008","489-VK","2018/12/01 20:09:45","台北市內湖區康樂街138號","121.619381666667","25.0720166666667","6501100","汐止區"
"221036","130-UY","2018/12/01 20:09:30","新北市汐止區福安街51號","121.663231666667","25.06441","6501100","汐止區"
"221015","131-UY","2018/12/01 20:09:39","新北市汐止區建成路29號","121.664056666667","25.0727116666667","6501100","汐止區"
"221010","269-BY","2018/12/01 20:09:27","新北市汐止區連峰街270號","121.644383333333","25.0815333333333","6501100","汐止區"
"221012","278-VK","2018/12/01 20:09:35","新北市汐止區汐平路二段72號","121.699383333333","25.06068","6501100","汐止區"
"221023","279-VK","2018/12/01 20:09:29","新北市汐止區明峰街298巷7弄2號","121.62487","25.0691533333333","6501100","汐止區"
"221032","280-BY","2018/12/01 20:09:41","新北市汐止區弘道街8巷5弄7號","121.617376666667","25.0478933333333","6501100","汐止區"
"221027","281-BY","2018/12/01 20:09:31","新北市汐止區光明街24號","121.660295","25.0687683333333","6501100","汐止區"
"221029","298-VK","2018/12/01 20:09:44","新北市汐止區樟樹一路119巷10弄1號","121.641246666667","25.0645416666667","6501100","汐止區"
"221021","299-VK","2018/12/01 20:09:33","新北市汐止區新台五路一段154號","121.65397","25.0623483333333","6501100","汐止區"
"221031","353-TW","2018/12/01 20:09:32","新北市汐止區原興路74巷2號","121.632196666667","25.0661466666667","6501100","汐止區"
"221002","129-UY","2018/12/01 20:09:38","新北市汐止區福德一路213巷2弄19號","121.634876666667","25.0646983333333","6501100","汐止區"
"221035","622-UM","2018/12/01 20:09:43","新北市汐止區長江街79巷6號","121.657375","25.072645","6501100","汐止區"
"221025","623-UM","2018/12/01 20:09:44","新北市汐止區水源路一段256號","121.654106666667","25.05989","6501100","汐止區"
"221038","646-BX","2018/12/01 20:09:35","新北市汐止區橋東街1號","121.666905","25.0762416666667","6501100","汐止區"
"221033","647-BX","2018/12/01 20:09:31","新北市汐止區東勢街201巷104號","121.633518333333","25.0428966666667","6501100","汐止區"
"221018","753-BX","2018/12/01 20:09:43","新北市汐止區招商街145號","121.67056","25.0676283333333","6501100","汐止區"
"220080","200-UY","2018/12/01 20:09:32","新北市板橋區大觀路二段179巷6號","121.445178333333","24.999935","6500100","板橋區"
"220101","245-BX","2018/12/01 20:09:28","新北市板橋區雙十路二段47巷2弄27號","121.475228333333","25.0267133333333","6500100","板橋區"
"220083","286-VK","2018/12/01 20:09:42","新北市板橋區僑中二街90巷24號","121.445083333333","25.009405","6500100","板橋區"
"220081","287-VK","2018/12/01 20:09:38","新北市板橋區大觀路一段28巷101號","121.450038333333","25.0119266666667","6500100","板橋區"
"220061","293-UM","2018/12/01 20:09:46","新北市板橋區觀光街69巷2號","121.469868333333","25.0166933333333","6500100","板橋區"
"220068","295-UM","2018/12/01 20:09:35","新北市板橋區中山路二段463號","121.481855","25.0204433333333","6500100","板橋區"
"220092","299-UM","2018/12/01 20:09:43","新北市板橋區文化路一段45巷1弄3號","121.460526666667","25.0138916666667","6500100","板橋區"
"242042","281-VK","2018/12/01 20:09:47","新北市新莊區青山路一段8號","121.411916666667","25.027625","6500500","新莊區"
"220098","317-R6","2018/12/01 20:09:42","新北市板橋區新海路72巷5弄23號","121.461628333333","25.0228433333333","6500100","板橋區"
"220089","487-VK","2018/12/01 20:09:38","新北市板橋區互助街71號","121.460358333333","25.0261866666667","6500100","板橋區"
"242007","280-VK","2018/12/01 20:09:34","新北市新莊區思源路419巷1弄7號","121.459303333333","25.05216","6500500","新莊區"
"220103","561-BX","2018/12/01 20:09:34","新北市板橋區陽明街59號","121.464536666667","25.0226583333333","6500100","板橋區"
"220057","686-BX","2018/12/01 20:09:33","新北市新莊區中環路一段22號","121.44248","25.0268933333333","6500100","板橋區"
"220093","689-BX","2018/12/01 20:09:43","新北市板橋區長江路二段87號","121.465341666667","25.0315866666667","6500100","板橋區"
"220102","KEA-2699","2018/12/01 20:09:33","新北市板橋區民治街138號","121.477626666667","25.0308016666667","6500100","板橋區"
"220064","806-UM","2018/12/01 20:09:39","新北市板橋區重慶路67巷1-1號","121.462291666667","25.0074133333333","6500100","板橋區"
"220055","827-TW","2018/12/01 20:09:39","新北市板橋區仁愛路86巷8號","121.460995","24.9992533333333","6500100","板橋區"
"220067","830-TW","2018/12/01 20:09:30","新北市板橋區中山路一段266號","121.47206","25.0147466666667","6500100","板橋區"
"220088","833-TW","2018/12/01 20:09:28","新北市板橋區民治街63號","121.479625","25.0331483333333","6500100","板橋區"
"220074","895-R6","2018/12/01 20:09:36","新北市板橋區縣民大道一段275號","121.460606666667","25.0099","6500100","板橋區"
"220073","985-R7","2018/12/01 20:09:34","新北市新莊區新泰路255巷83號","121.442301666667","25.038745","6500100","板橋區"
"220097","AAC-210","2018/12/01 20:09:41","新北市板橋區光正街20巷1弄1號","121.462485","25.0175616666667","6500100","板橋區"
"220070","AAC-253","2018/12/01 20:09:30","新北市板橋區德興街16號","121.453408333333","24.9943583333333","6500100","板橋區"
"235068","KEA-2873","2018/12/01 20:09:25","新北市中和區中山路二段252號","121.49759","25.0027483333333","6500300","中和區"
