"lineid","car","time","location","longitude","latitude","cityid","cityname"
"234081","298-R6","2018/12/01 20:19:46","新北市永和區國中路132巷6弄1號","121.523721666667","25.0072483333333","6500400","永和區"
"234038","336-UY","2018/12/01 20:19:35","新北市永和區環河東路三段65號","121.52734","25.00548","6500400","永和區"
"234064","337-UY","2018/12/01 20:19:29","新北市永和區得和路120號","121.518505","25.0001016666667","6500400","永和區"
"234070","552-UM","2018/12/01 20:19:41","新北市永和區福和路235號","121.518455","25.0074","6500400","永和區"
"234017","745-BX","2018/12/01 20:19:36","新北市永和區仁愛路42號","121.514195","25.01347","6500400","永和區"
"234030","746-BX","2018/12/01 20:19:33","新北市永和區民有街69號","121.517926666667","24.9957283333333","6500400","永和區"
"234054","KEA-2590","2018/12/01 20:19:40","新北市永和區光復街2巷14號","121.517048333333","25.0164566666667","6500400","永和區"
"234013","KEA-2591","2018/12/01 20:19:27","新北市永和區保生路25-1號","121.50581","25.0071983333333","6500400","永和區"
"234061","AAD-866","2018/12/01 20:19:37","新北市永和區得和路15號","121.515325","25.0005866666667","6500400","永和區"
"234086","748-BX","2018/12/01 20:19:39","新北市永和區永和路二段233號","121.515595","25.0141516666667","6500400","永和區"
"234042","862-TW","2018/12/01 20:19:45","新北市中和區中安街166號","121.51083","25.0001033333333","6500400","永和區"
"234050","863-TW","2018/12/01 20:19:40","新北市永和區保安路34號","121.510461666667","25.0169783333333","6500400","永和區"
"234023","9372-KE","2018/12/01 20:19:41","新北市永和區勵行街2號","121.516021666667","25.0144783333333","6500400","永和區"
"234011","9373-KE","2018/12/01 20:19:41","新北市永和區保生路55-1號","121.504543333333","25.0108766666667","6500400","永和區"
"249005","172-UM","2018/12/01 20:19:42","新北市八里區下罟子1-5號","121.388841666667","25.1420433333333","6502300","八里區"
"249001","173-UM","2018/12/01 20:19:45","新北市八里區中華路二段538-1號","121.399081666667","25.1450116666667","6502300","八里區"
"249004","303-UY","2018/12/01 20:19:43","新北市八里區中山路一段129巷19-1號","121.413943333333","25.1587133333333","6502300","八里區"
"249002","305-UY","2018/12/01 20:19:44","新北市八里區龍米路一段178號","121.452185","25.1274216666667","6502300","八里區"
"249003","593-UM","2018/12/01 20:19:45","新北市八里區華峰一街70巷7號","121.398115","25.14633","6502300","八里區"
"248002","678-BX","2018/12/01 20:19:40","新北市五股區成泰路三段74號","121.443615","25.0897466666667","6501500","五股區"
"234077","969-R7","2018/12/01 20:19:43","新北市永和區中正路106號","121.514425","24.995925","6500400","永和區"
"234074","AAC-211","2018/12/01 20:19:43","新北市永和區豫溪街199號","121.52322","25.0097816666667","6500400","永和區"
"234067","AAC-212","2018/12/01 20:19:33","新北市永和區保平路236巷7弄16號","121.508145","25.0057666666667","6500400","永和區"
"234003","AAC-295","2018/12/01 20:19:35","新北市永和區自強街2號","121.51402","25.0080966666667","6500400","永和區"
"243013","AAD-798","2018/12/01 20:19:32","新北市泰山區新民路14巷2弄1號","121.426238333333","25.044495","6501600","泰山區"
"243009","297-R6","2018/12/01 20:19:34","新北市泰山區福泰街20號","121.433158333333","25.0599816666667","6501600","泰山區"
"243016","KEA-2801","2018/12/01 20:19:32","新北市泰山區明志路二段385號","121.424921666667","25.0436966666667","6501600","泰山區"
"243015","421-VK","2018/12/01 20:19:36","新北市泰山區仁德路107號","121.432965","25.0562416666667","6501600","泰山區"
"243011","KEA-2215","2018/12/01 20:19:33","新北市新莊區壽山路160巷21號","121.417436666667","25.0319","6501600","泰山區"
"243010","KEA-2216","2018/12/01 20:19:35","新北市泰山區明志路二段271號","121.42704","25.0472233333333","6501600","泰山區"
"243012","646-TV","2018/12/01 20:19:35","新北市泰山區楓江路81號","121.436728333333","25.0634866666667","6501600","泰山區"
"243014","680-BX","2018/12/01 20:19:45","新北市泰山區泰林路二段459號","121.4256","25.063985","6501600","泰山區"
"222002","016-RS","2018/12/01 20:19:26","新北市深坑區萬福路18號","121.60251","25.0086316666667","6501800","深坑區"
"222003","436-BY","2018/12/01 20:19:26","新北市深坑區文化街88號","121.617583333333","25.00208","6501800","深坑區"
"231044","001-UM","2018/12/01 20:19:35","新北市新店區北新路三段190號","121.541568333333","24.9829583333333","6500600","新店區"
"231041","002-UM","2018/12/01 20:19:42","新北市新店區民權路44-1號","121.540285","24.9830483333333","6500600","新店區"
"231059","046-UY","2018/12/01 20:19:40","新北市新店區安德街76號","121.510308333333","24.9616316666667","6500600","新店區"
"231040","047-UY","2018/12/01 20:19:33","新北市新店區三民路8號","121.539616666667","24.9724133333333","6500600","新店區"
"231052","108-UY","2018/12/01 20:19:39","新北市新店區新烏路二段317號","121.549861666667","24.910955","6500600","新店區"
"231048","187-VK","2018/12/01 20:19:45","新北市新店區寶橋路98號","121.546873333333","24.9758883333333","6500600","新店區"
"231054","KEA-2219","2018/12/01 20:19:35","新北市新店區檳榔路109號","121.54446","24.9616783333333","6500600","新店區"
"231057","256-BX","2018/12/01 20:19:34","新北市新店區花園七路一段29號","121.553058333333","24.934845","6500600","新店區"
"231042","268-BY","2018/12/01 20:19:43","新北市新店區中興路二段100巷2號","121.54743","24.9714016666667","6500600","新店區"
"231050","AAD-862","2018/12/01 20:19:40","新北市新店區博愛街21號","121.541321666667","24.9735966666667","6500600","新店區"
"231066","4716-K9","2018/12/01 20:19:45","新北市新店區安德街60巷35號","121.510521666667","24.963505","6500600","新店區"
"231056","4715-K9","2018/12/01 20:19:45","新北市新店區中正路302巷14號","121.538053333333","24.97523","6500600","新店區"
"231067","4772-VM","2018/12/01 20:19:30","新北市新店區安康路一段351-1號","121.519671666667","24.96371","6500600","新店區"
"231065","512-UM","2018/12/01 20:19:43","新北市新店區安祥路104巷6弄36號","121.483105","24.9629383333333","6500600","新店區"
"231049","513-UM","2018/12/01 20:19:26","新北市新店區北新路二段1號","121.54267","24.9711166666667","6500600","新店區"
"231063","616-UM","2018/12/01 20:19:29","新北市新店區薏仁坑路自強巷6號","121.497098333333","24.9587633333333","6500600","新店區"
"231061","619-UM","2018/12/01 20:19:30","新北市新店區安興路33-1號","121.515866666667","24.9704366666667","6500600","新店區"
"231068","718-UY","2018/12/01 20:19:41","新北市新店區寶安街18號","121.542126666667","24.9819016666667","6500600","新店區"
"231064","719-UM","2018/12/01 20:17:08","新北市新店區安樂街16號","121.520863333333","24.9732483333333","6500600","新店區"
"231051","719-UY","2018/12/01 20:19:37","新北市新店區中央六街123號","121.52492","24.9777016666667","6500600","新店區"
"231062","720-UM","2018/12/01 20:19:29","新北市新店區安康路二段296-3號","121.506125","24.9581233333333","6500600","新店區"
"231060","897-TW","2018/12/01 20:19:30","新北市新店區錦秀路13號","121.479466666667","24.9448016666667","6500600","新店區"
"231045","898-TW","2018/12/01 20:19:42","新北市新店區五峰路145巷7號","121.54631","24.9646016666667","6500600","新店區"
"231043","899-TW","2018/12/01 20:19:41","新北市新店區建國路133號","121.539401666667","24.9783316666667","6500600","新店區"
"231055","AKT-0513","2018/12/01 20:19:33","新北市新店區北新路一段307號","121.541478333333","24.9677583333333","6500600","新店區"
"241011","013-R5","2018/12/01 20:19:41","新北市三重區龍濱路285號","121.501108333333","25.0733566666667","6500200","三重區"
"241028","022-UY","2018/12/01 20:19:45","新北市三重區大同南路162號","121.496621666667","25.05755","6500200","三重區"
"241008","059-VK","2018/12/01 20:19:34","新北市三重區永福街164號","121.480653333333","25.0744816666667","6500200","三重區"
"241022","060-VK","2018/12/01 20:19:28","新北市三重區新北大道一段36號","121.488186666667","25.0614766666667","6500200","三重區"
"241031","061-VK","2018/12/01 20:19:27","新北市三重區三寧街15號","121.489488333333","25.05981","6500200","三重區"
"241015","062-VK","2018/12/01 20:19:25","新北市三重區重新路一段120號","121.500381666667","25.0630066666667","6500200","三重區"
"241017","063-VK","2018/12/01 20:19:32","新北市三重區自強路一段165號","121.493153333333","25.067235","6500200","三重區"
"241026","066-VK","2018/12/01 20:19:30","新北市三重區中央南路26號","121.501391666667","25.0623166666667","6500200","三重區"
"241002","090-VK","2018/12/01 20:19:33","新北市三重區五華街9-2號","121.495158333333","25.080095","6500200","三重區"
"241003","091-VK","2018/12/01 20:19:35","新北市三重區富華街69-2號","121.491318333333","25.0836183333333","6500200","三重區"
"251014","742-BX","2018/12/01 20:19:27","新北市淡水區石頭厝1號","121.458716666667","25.2355083333333","6501000","淡水區"
"241005","262-UM","2018/12/01 20:19:31","新北市三重區分子尾街76號","121.489246666667","25.0819916666667","6500200","三重區"
"241016","265-UM","2018/12/01 20:19:32","新北市三重區大同北路97-3號","121.494381666667","25.063595","6500200","三重區"
"241009","267-UM","2018/12/01 20:19:44","新北市三重區永福街11號","121.482325","25.0782766666667","6500200","三重區"
"241018","268-UM","2018/12/01 20:19:39","新北市三重區正義北路260號","121.495788333333","25.0685133333333","6500200","三重區"
"241032","269-UM","2018/12/01 20:19:33","新北市三重區捷運路19巷6弄3號","121.484793333333","25.0569933333333","6500200","三重區"
"241013","270-UM","2018/12/01 20:19:31","新北市三重區三和路三段167巷55號","121.493886666667","25.07469","6500200","三重區"
"241025","271-UM","2018/12/01 20:19:41","新北市三重區頂崁街210巷27號","121.475818333333","25.068215","6500200","三重區"
"241007","398-BY","2018/12/01 20:19:41","新北市三重區溪尾街108巷41號","121.488003333333","25.0783883333333","6500200","三重區"
"241026","KEA-2210","2018/12/01 20:19:32","新北市三重區成功路97號","121.48773","25.0515666666667","6500200","三重區"
"241035","462-BY","2018/12/01 20:19:29","新北市三重區正義北路33巷52號","121.499053333333","25.0640016666667","6500200","三重區"
"241004","475-VK","2018/12/01 20:19:47","新北市三重區仁愛街389號","121.491275","25.08074","6500200","三重區"
"241020","478-VK","2018/12/01 20:19:47","新北市三重區三和路三段172-1號","121.492308333333","25.0730216666667","6500200","三重區"
"241030","480-VK","2018/12/01 20:19:34","新北市三重區環河南路254巷53號","121.48808","25.052255","6500200","三重區"
"241014","543-UM","2018/12/01 20:19:39","新北市三重區河邊北街96-1號","121.504166666667","25.0699366666667","6500200","三重區"
"241023","545-UM","2018/12/01 20:19:25","新北市三重區忠孝路三段99巷4號","121.48019","25.0642866666667","6500200","三重區"
"241001","547-UM","2018/12/01 20:19:38","新北市三重區溪尾街42-7號","121.490606666667","25.0770483333333","6500200","三重區"
"241033","557-UM","2018/12/01 20:08:05","新北市三重區光復路一段68巷2號","121.47185","25.0492283333333","6500200","三重區"
"241019","KEA-2593","2018/12/01 20:19:47","新北市三重區大智街151號","121.49043","25.0714333333333","6500200","三重區"
"241006","743-BX","2018/12/01 20:02:10","新北市三重區力行路二段138號","121.482526666667","25.07588","6500200","三重區"
"241012","941-UM","2018/12/01 20:19:37","新北市三重區河邊北街262號","121.50165","25.0764616666667","6500200","三重區"
"241029","942-UM","2018/12/01 20:19:43","新北市三重區集美街225號","121.491986666667","25.05509","6500200","三重區"
"235066","003-UY","2018/12/01 20:19:40","新北市中和區南工路87號","121.507133333333","25.003105","6500300","中和區"
"235039","097-UM","2018/12/01 20:19:28","新北市中和區大勇街29巷12-1號","121.515898333333","24.99451","6500300","中和區"
"235065","098-UM","2018/12/01 20:19:38","新北市中和區永和路59號","121.497023333333","25.0054283333333","6500300","中和區"
"235040","150-BY","2018/12/01 20:19:41","新北市中和區保健路26巷17號","121.508573333333","24.9972316666667","6500300","中和區"
"247012","KEA-2869","2018/12/01 20:19:43","新北市蘆洲區中興街27號","121.480936666667","25.0870466666667","6501400","蘆洲區"
"235050","4979-A6","2018/12/01 20:19:29","新北市中和區景平路404號","121.50904","24.9930983333333","6500300","中和區"
"235069","4980-A6","2018/12/01 20:19:36","新北市中和區景新街34巷18弄2號","121.503363333333","24.9987466666667","6500300","中和區"
"235054","640-BX","2018/12/01 20:19:32","新北市林口區太平里180號","121.366423333333","25.134315","6500300","中和區"
"235026","800-TS","2018/12/01 20:08:27","新北市中和區員山路36巷16-3號","121.484945","24.99168","6500300","中和區"
"235059","AAC-215","2018/12/01 20:19:46","新北市中和區圓通路332號","121.484401666667","24.986155","6500300","中和區"
"247002","893-R6","2018/12/01 20:19:40","新北市蘆洲區長安街331巷2號","121.457163333333","25.0866433333333","6501400","蘆洲區"
"247016","546-UM","2018/12/01 20:19:46","新北市蘆洲區光華路132巷39號","121.465855","25.0838033333333","6501400","蘆洲區"
"247024","500-BY","2018/12/01 20:19:41","新北市蘆洲區光明路112巷29弄9號","121.46418","25.08757","6501400","蘆洲區"
"247006","337-TH","2018/12/01 20:19:40","新北市蘆洲區長安街2號","121.464765","25.0787216666667","6501400","蘆洲區"
"247008","336-TH","2018/12/01 20:19:26","新北市蘆洲區集賢路227-2號","121.482273333333","25.08598","6501400","蘆洲區"
"247020","057-VK","2018/12/01 20:19:30","新北市蘆洲區仁愛街46號","121.471855","25.0934133333333","6501400","蘆洲區"
"247014","053-VK","2018/12/01 20:19:29","新北市蘆洲區中山二路137巷42號","121.472403333333","25.0807983333333","6501400","蘆洲區"
"247018","007-UY","2018/12/01 20:19:36","新北市蘆洲區民族路255巷10號","121.476245","25.0898083333333","6501400","蘆洲區"
"247004","002-UY","2018/12/01 20:19:28","新北市蘆洲區長安街220巷34號","121.45973","25.0851816666667","6501400","蘆洲區"
"247022","001-UY","2018/12/01 20:19:26","新北市蘆洲區三民路251號","121.468396666667","25.089395","6501400","蘆洲區"
"224010","AGQ-8101","2018/12/01 20:19:30","新北市瑞芳區輕便路131號","121.84353","25.1087466666667","6501200","瑞芳區"
"222001","KEA-2212","2018/12/01 20:19:38","新北市深坑區北深路三段259號","121.598936666667","25.0042","6501800","深坑區"
"251009","008-UM","2018/12/01 20:19:32","新北市淡水區中正路38-1號","121.44373","25.16928","6501000","淡水區"
"251001","011-UM","2018/12/01 20:19:43","新北市淡水區淡金路二段599號","121.446225","25.1925316666667","6501000","淡水區"
"251002","012-UM","2018/12/01 20:19:38","新北市淡水區中正路230號","121.439125","25.17064","6501000","淡水區"
"251013","KEA-2871","2018/12/01 20:19:30","新北市淡水區相公山4號","121.475343333333","25.20636","6501000","淡水區"
"251016","179-VK","2018/12/01 20:19:32","新北市淡水區番子田18-11號","121.455795","25.23013","6501000","淡水區"
"251008","181-VK","2018/12/01 20:19:38","新北市淡水區淡海路180巷13號","121.421081666667","25.1846433333333","6501000","淡水區"
"251015","182-VK","2018/12/01 20:19:28","新北市淡水區下圭柔山431-1號","121.450025","25.210535","6501000","淡水區"
"251010","413-VK","2018/12/01 20:19:35","新北市淡水區新民街一段134號","121.427486666667","25.188885","6501000","淡水區"
"251012","441-VK","2018/12/01 20:19:42","新北市淡水區淡金路三段426號","121.450565","25.2125483333333","6501000","淡水區"
"251006","561-UM","2018/12/01 20:19:36","新北市淡水區北新路169巷2號","121.450311666667","25.1794666666667","6501000","淡水區"
"251003","673-BX","2018/12/01 20:19:34","新北市淡水區中山北路一段229號","121.444431666667","25.1794683333333","6501000","淡水區"
"207004","225-TW","2018/12/01 20:19:33","新北市萬里區北基里仁三街2號","121.68238","25.1754633333333","6502800","萬里區"
"252002","178-VK","2018/12/01 20:19:36","新北市三芝區中正路一段37號","121.50316","25.2583233333333","6502100","三芝區"
"252001","292-VK","2018/12/01 20:19:39","新北市三芝區中山路一段14號","121.500686666667","25.2580183333333","6502100","三芝區"
"237006","5529-G3","2018/12/01 20:19:46","新北市三峽區中正路二段81號","121.366605","24.9181516666667","6500900","三峽區"
"236070","105-UM","2018/12/01 20:19:38","新北市土城區民權街11號","121.415328333333","24.9633166666667","6501300","土城區"
"236030","253-BX","2018/12/01 20:19:35","新北市土城區學成路128巷13弄2號","121.44957","24.990125","6501300","土城區"
"236026","269-VK","2018/12/01 20:19:28","新北市土城區裕生路86巷2號","121.447103333333","24.9851383333333","6501300","土城區"
"236014","270-VK","2018/12/01 20:19:35","新北市土城區四川路1號","121.456178333333","24.99606","6501300","土城區"
"236059","912-UM","2018/12/01 20:19:39","新北市土城區大安路10號","121.432586666667","24.9658883333333","6501300","土城區"
"242036","AAC-296","2018/12/01 19:54:00","新北市新莊區建安街71巷19號","121.428316666667","25.0245966666667","6500500","新莊區"
"242058","986-R7","2018/12/01 20:19:38","新北市新莊區龍安路284號","121.422446666667","25.0191533333333","6500500","新莊區"
"242056","751-BX","2018/12/01 20:19:34","新北市新莊區新莊路649巷15弄1號","121.444958333333","25.0314616666667","6500500","新莊區"
"242027","705-TV","2018/12/01 20:19:40","新北市新莊區幸福路566號","121.454425","25.0493733333333","6500500","新莊區"
"242025","613-BX","2018/12/01 20:19:10","新北市新莊區五工一路72巷21號","121.461498333333","25.0664816666667","6500500","新莊區"
"242044","566-BX","2018/12/01 20:19:37","新北市新莊區中正路新建巷28弄20號","121.413595","25.021405","6500500","新莊區"
"242048","497-BY","2018/12/01 20:19:46","新北市新莊區龍安路252-1號","121.421075","25.0196783333333","6500500","新莊區"
"242011","442-UM","2018/12/01 20:19:35","新北市新莊區幸福路670巷17號","121.450895","25.0502383333333","6500500","新莊區"
"242002","440-UM","2018/12/01 20:19:34","新北市新莊區化成路5-9號","121.464503333333","25.04214","6500500","新莊區"
"242039","415-TV","2018/12/01 20:19:27","新北市新莊區龍安路441號","121.424443333333","25.0186116666667","6500500","新莊區"
"242009","413-TV","2018/12/01 20:19:37","新北市新莊區昌平街1號","121.454806666667","25.0513666666667","6500500","新莊區"
"242023","362-BY","2018/12/01 20:19:44","新北市新莊區化成路547號","121.465078333333","25.0647866666667","6500500","新莊區"
"242061","353-BY","2018/12/01 20:19:41","新北市新莊區新樹路172-13號","121.43463","25.0217366666667","6500500","新莊區"
"242034","135-UY","2018/12/01 20:19:48","新北市新莊區公園一路148號","121.446718333333","25.0383166666667","6500500","新莊區"
"242051","172-VK","2018/12/01 20:19:19","新北市新莊區民安西路252巷2號","121.425711666667","25.0136633333333","6500500","新莊區"
"242013","173-VK","2018/12/01 20:19:37","新北市新莊區中和街186巷7號","121.447936666667","25.04986","6500500","新莊區"
"242019","175-VK","2018/12/01 20:19:40","新北市新莊區銘德街7號","121.459171666667","25.043765","6500500","新莊區"
"242017","346-TH","2018/12/01 20:19:39","新北市新莊區中港二街144號","121.44808","25.0455883333333","6500500","新莊區"
"242053","347-TH","2018/12/01 20:19:44","新北市新莊區西盛街382巷1號","121.427573333333","25.0129566666667","6500500","新莊區"
"242031","348-TH","2018/12/01 20:19:46","新北市新莊區三和路58-9號","121.437896666667","25.0420783333333","6500500","新莊區"
"242004","349-TH","2018/12/01 20:19:37","新北市新莊區化成路746巷39號","121.46691","25.0582","6500500","新莊區"
"242021","350-TH","2018/12/01 20:19:44","新北市新莊區復興路一段7號","121.445678333333","25.0415033333333","6500500","新莊區"
"242015","351-TH","2018/12/01 20:19:39","新北市新莊區永樂街228號","121.446383333333","25.0444083333333","6500500","新莊區"
"239002","359-BY","2018/12/01 19:52:40","新北市鶯歌區二甲路12-2號","121.345528333333","24.935135","6500800","鶯歌區"
"221008","489-VK","2018/12/01 20:19:45","新北市汐止區康寧街362號","121.628625","25.0676383333333","6501100","汐止區"
"221036","130-UY","2018/12/01 20:19:41","新北市汐止區福安街37巷12號","121.663366666667","25.0651783333333","6501100","汐止區"
"221015","131-UY","2018/12/01 20:19:39","新北市汐止區建成路160巷16號","121.66193","25.0739566666667","6501100","汐止區"
"221010","269-BY","2018/12/01 20:19:47","新北市汐止區八連路一段206號","121.641603333333","25.0807866666667","6501100","汐止區"
"221012","278-VK","2018/12/01 20:19:35","新北市汐止區保新街141號","121.688121666667","25.0701316666667","6501100","汐止區"
"221023","279-VK","2018/12/01 20:19:37","新北市汐止區湖前街110巷2弄24號","121.632538333333","25.072045","6501100","汐止區"
"221032","280-BY","2018/12/01 20:19:41","新北市汐止區民權街二段37號","121.619451666667","25.0495683333333","6501100","汐止區"
"221027","281-BY","2018/12/01 20:19:44","新北市汐止區大同路二段359號","121.657116666667","25.0672666666667","6501100","汐止區"
"221029","298-VK","2018/12/01 20:19:25","新北市汐止區工建路50號","121.641023333333","25.0630983333333","6501100","汐止區"
"221021","299-VK","2018/12/01 20:19:32","新北市汐止區水源路一段284號","121.65429","25.0583133333333","6501100","汐止區"
"221031","353-TW","2018/12/01 20:19:32","新北市汐止區中興路150巷15號","121.63304","25.065065","6501100","汐止區"
"221002","129-UY","2018/12/01 20:19:38","新北市汐止區福德三路22號","121.637108333333","25.069355","6501100","汐止區"
"221035","622-UM","2018/12/01 20:19:43","新北市汐止區長江街101-5號","121.6587","25.0731683333333","6501100","汐止區"
"221025","623-UM","2018/12/01 20:19:44","新北市汐止區水源路二段72巷6弄5號","121.655653333333","25.0556033333333","6501100","汐止區"
"221038","646-BX","2018/12/01 20:19:35","新北市汐止區忠孝東路432號","121.666116666667","25.0722666666667","6501100","汐止區"
"221033","647-BX","2018/12/01 20:19:31","新北市汐止區東勢街201巷104號","121.633508333333","25.0428716666667","6501100","汐止區"
"221018","753-BX","2018/12/01 20:19:43","新北市汐止區茄興街12號","121.67349","25.0671183333333","6501100","汐止區"
"220101","245-BX","2018/12/01 20:19:28","新北市板橋區莊敬路2號","121.473968333333","25.0285216666667","6500100","板橋區"
"220083","286-VK","2018/12/01 20:19:40","新北市板橋區僑中二街100巷14號","121.445366666667","25.0086066666667","6500100","板橋區"
"220081","287-VK","2018/12/01 20:19:38","新北市板橋區僑中一街124巷20弄33號","121.447485","25.01389","6500100","板橋區"
"220061","293-UM","2018/12/01 20:19:26","新北市板橋區板新路14號","121.474705","25.0133016666667","6500100","板橋區"
"242042","281-VK","2018/12/01 20:19:47","新北市新莊區壽山路49-7號","121.413943333333","25.0311683333333","6500500","新莊區"
"220089","487-VK","2018/12/01 20:19:38","新北市板橋區四維路154號","121.464921666667","25.02585","6500100","板橋區"
"242007","280-VK","2018/12/01 20:19:34","新北市新莊區福壽街124巷41弄6號","121.459286666667","25.0515083333333","6500500","新莊區"
"220103","561-BX","2018/12/01 20:19:34","新北市板橋區新海路99號","121.461376666667","25.0224233333333","6500100","板橋區"
"220057","686-BX","2018/12/01 20:19:33","新北市五股區成泰路三段544-1號","121.454565","25.1033683333333","6500100","板橋區"
"220102","KEA-2699","2018/12/01 20:19:33","新北市板橋區文化路一段118號","121.46492","25.01858","6500100","板橋區"
"220064","806-UM","2018/12/01 20:19:39","新北市板橋區館前東路154號","121.464668333333","25.0080833333333","6500100","板橋區"
"220055","827-TW","2018/12/01 20:19:39","新北市板橋區仁愛路23號","121.458948333333","24.9994583333333","6500100","板橋區"
"220074","895-R6","2018/12/01 20:19:36","新北市板橋區南門街54號","121.456841666667","25.0080333333333","6500100","板橋區"
"220073","985-R7","2018/12/01 20:19:34","新北市五股區中直路13-7號","121.425021666667","25.11041","6500100","板橋區"
"220097","AAC-210","2018/12/01 20:19:41","新北市板橋區光正街43號","121.461796666667","25.0171916666667","6500100","板橋區"
"220070","AAC-253","2018/12/01 20:19:32","新北市板橋區四川路二段245巷26號","121.451251666667","24.992845","6500100","板橋區"
"235068","KEA-2873","2018/12/01 20:19:25","新北市中和區勝利路35巷1弄6號","121.499236666667","25.0074866666667","6500300","中和區"
