"lineid","car","time","location","longitude","latitude","cityid","cityname"
"234074","AAC-211","2018/12/01 20:49:43","新北市永和區竹林路91巷60弄70號","121.522858333333","25.0122083333333","6500400","永和區"
"244018","402-UM","2018/12/01 20:49:28","新北市林口區粉寮69號","121.40502","25.09082","6501700","林口區"
"222002","016-RS","2018/12/01 20:49:27","新北市深坑區北深路三段93巷71號","121.603476666667","25.00118","6501800","深坑區"
"222003","436-BY","2018/12/01 20:49:46","新北市深坑區文山路三段48-1號","121.609926666667","24.9985266666667","6501800","深坑區"
"231044","001-UM","2018/12/01 20:49:35","新北市新店區民族路192號","121.53623","24.9754416666667","6500600","新店區"
"231059","046-UY","2018/12/01 20:49:43","新北市新店區僑愛一路1號","121.499871666667","24.944935","6500600","新店區"
"231040","047-UY","2018/12/01 20:49:33","新北市新店區中正路270號","121.539031666667","24.9736683333333","6500600","新店區"
"231052","108-UY","2018/12/01 20:49:39","新北市新店區永興路21號","121.54414","24.9386916666667","6500600","新店區"
"231048","187-VK","2018/12/01 20:49:45","新北市新店區寶元路二段1巷2號","121.550733333333","24.9840516666667","6500600","新店區"
"231054","KEA-2219","2018/12/01 20:49:35","新北市新店區中正路75巷71號","121.543073333333","24.9687733333333","6500600","新店區"
"231057","256-BX","2018/12/01 20:49:34","新北市新店區北宜路一段206號","121.543828333333","24.9532","6500600","新店區"
"231042","268-BY","2018/12/01 20:49:43","新北市新店區寶高路120巷1號","121.554561666667","24.9760366666667","6500600","新店區"
"231050","AAD-862","2018/12/01 20:49:40","新北市新店區三民路61號","121.536541666667","24.9711866666667","6500600","新店區"
"231058","3713-VJ","2018/12/01 20:49:36","新北市新店區三民路60巷5號","121.53538","24.97248","6500600","新店區"
"231066","4716-K9","2018/12/01 20:49:34","新北市新店區安興路112號","121.514658333333","24.9775616666667","6500600","新店區"
"231056","4715-K9","2018/12/01 20:49:45","新北市新店區柴埕路116號","121.504751666667","24.9599016666667","6500600","新店區"
"231067","4772-VM","2018/12/01 20:49:30","新北市新店區安康路一段355號","121.519875","24.9638033333333","6500600","新店區"
"231065","512-UM","2018/12/01 20:49:43","新北市新店區安祥路104巷6弄22號","121.48219","24.9623183333333","6500600","新店區"
"231049","513-UM","2018/12/01 20:49:46","新北市新店區華城路18-1號","121.529035","24.956985","6500600","新店區"
"231063","616-UM","2018/12/01 20:49:29","新北市新店區如意街11-2號","121.49499","24.9483266666667","6500600","新店區"
"231061","619-UM","2018/12/01 20:49:30","新北市新店區新和街93巷2號","121.52107","24.9864783333333","6500600","新店區"
"231068","718-UY","2018/12/01 20:49:41","新北市新店區寶元路一段107號","121.545561666667","24.9828816666667","6500600","新店區"
"231064","719-UM","2018/12/01 20:49:28","新北市新店區安民街363號","121.516493333333","24.9757316666667","6500600","新店區"
"231051","719-UY","2018/12/01 20:49:37","新北市新店區中正路663巷7弄15號","121.53294","24.9900716666667","6500600","新店區"
"231062","720-UM","2018/12/01 20:49:29","新北市新店區和成街16巷2號","121.487683333333","24.9469266666667","6500600","新店區"
"231060","897-TW","2018/12/01 20:49:30","新北市新店區安康路三段620號","121.479746666667","24.9467216666667","6500600","新店區"
"231045","898-TW","2018/12/01 20:49:42","新北市新店區環河路14-3號","121.53787","24.9616083333333","6500600","新店區"
"231043","899-TW","2018/12/01 20:49:48","新北市新店區建國路103號","121.540188333333","24.9774266666667","6500600","新店區"
"241011","013-R5","2018/12/01 20:49:42","新北市三重區河邊北街138號","121.503293333333","25.07204","6500200","三重區"
"241028","022-UY","2018/12/01 20:49:45","新北市三重區中正南路50號","121.493918333333","25.0599033333333","6500200","三重區"
"241008","059-VK","2018/12/01 20:49:34","新北市三重區永福街72巷11號","121.479416666667","25.0767633333333","6500200","三重區"
"241022","060-VK","2018/12/01 20:49:28","新北市三重區過圳街27-5號","121.488045","25.0623883333333","6500200","三重區"
"241031","061-VK","2018/12/01 20:49:27","新北市三重區重陽路一段113巷1弄1號","121.487491666667","25.0598066666667","6500200","三重區"
"241015","062-VK","2018/12/01 20:49:45","新北市三重區自強路一段8號","121.49881","25.0683016666667","6500200","三重區"
"241017","063-VK","2018/12/01 20:49:32","新北市三重區民生街30號","121.491761666667","25.0671083333333","6500200","三重區"
"241002","090-VK","2018/12/01 20:49:30","新北市三重區仁義街157巷47號","121.49828","25.0815333333333","6500200","三重區"
"241003","091-VK","2018/12/01 20:49:35","新北市三重區五華街141巷58號","121.49355","25.0867316666667","6500200","三重區"
"251014","742-BX","2018/12/01 20:49:27","新北市淡水區公埔子32-8號","121.461646666667","25.232355","6501000","淡水區"
"241005","262-UM","2018/12/01 20:49:31","新北市三重區五華街141巷11號","121.491558333333","25.0849183333333","6500200","三重區"
"241016","265-UM","2018/12/01 20:49:32","新北市三重區長壽西街49號","121.496046666667","25.0671483333333","6500200","三重區"
"241009","267-UM","2018/12/01 20:49:44","新北市三重區三和路四段197號","121.482155","25.0793183333333","6500200","三重區"
"241018","268-UM","2018/12/01 20:49:30","新北市三重區正義北路185號","121.496198333333","25.067965","6500200","三重區"
"241032","269-UM","2018/12/01 20:49:33","新北市三重區重陽路一段120巷35號","121.485101666667","25.0602033333333","6500200","三重區"
"241013","270-UM","2018/12/01 20:49:31","新北市三重區仁賢街12-1號","121.495731666667","25.0749233333333","6500200","三重區"
"241025","271-UM","2018/12/01 20:49:41","新北市三重區貴陽街21號","121.48426","25.061875","6500200","三重區"
"241007","398-BY","2018/12/01 20:49:41","新北市三重區慈愛街1號","121.484638333333","25.07835","6500200","三重區"
"241026","KEA-2210","2018/12/01 20:49:31","新北市三重區環河南路27號","121.503245","25.0622283333333","6500200","三重區"
"241004","475-VK","2018/12/01 20:49:39","新北市三重區分子尾街48號","121.489236666667","25.081385","6500200","三重區"
"241020","478-VK","2018/12/01 20:49:47","新北市三重區忠孝路一段101號","121.489566666667","25.07217","6500200","三重區"
"241030","480-VK","2018/12/01 20:49:34","新北市三重區昌隆街26號","121.491963333333","25.0522933333333","6500200","三重區"
"241014","543-UM","2018/12/01 20:49:39","新北市三重區龍濱路118號","121.50207","25.0704216666667","6500200","三重區"
"241023","545-UM","2018/12/01 20:49:45","新北市三重區忠孝路三段84巷1號","121.480318333333","25.0646716666667","6500200","三重區"
"241001","547-UM","2018/12/01 20:49:38","新北市三重區自強路三段97號","121.487658333333","25.0751666666667","6500200","三重區"
"241033","557-UM","2018/12/01 20:40:45","新北市三重區興德路90號","121.473366666667","25.053235","6500200","三重區"
"241019","KEA-2593","2018/12/01 20:49:41","新北市三重區三張街49號","121.491268333333","25.0710933333333","6500200","三重區"
"241012","941-UM","2018/12/01 20:49:37","新北市三重區龍門路274巷49號","121.501035","25.0756583333333","6500200","三重區"
"241029","942-UM","2018/12/01 20:49:43","新北市三重區重安街14號","121.490296666667","25.0581866666667","6500200","三重區"
"247012","KEA-2869","2018/12/01 20:49:49","新北市蘆洲區集賢路224巷23號","121.481553333333","25.086985","6501400","蘆洲區"
"235069","4980-A6","2018/12/01 20:49:36","新北市中和區新生街244號","121.483761666667","24.9978333333333","6500300","中和區"
"247002","893-R6","2018/12/01 20:49:40","新北市蘆洲區永康街118號","121.457973333333","25.0852733333333","6501400","蘆洲區"
"247016","546-UM","2018/12/01 20:49:46","新北市蘆洲區中正路69號","121.470453333333","25.08272","6501400","蘆洲區"
"247024","500-BY","2018/12/01 20:49:41","新北市蘆洲區長樂路136號","121.462161666667","25.0901516666667","6501400","蘆洲區"
"247006","337-TH","2018/12/01 20:49:40","新北市蘆洲區九芎街107號","121.465721666667","25.0798233333333","6501400","蘆洲區"
"247008","336-TH","2018/12/01 20:49:46","新北市三重區永安北路二段45號","121.482411666667","25.0827433333333","6501400","蘆洲區"
"247020","057-VK","2018/12/01 20:49:30","新北市蘆洲區仁愛街64號","121.471481666667","25.09389","6501400","蘆洲區"
"247010","056-VK","2018/12/01 20:49:45","新北市蘆洲區鷺江街93號","121.476888333333","25.0838083333333","6501400","蘆洲區"
"247014","053-VK","2018/12/01 20:49:29","新北市蘆洲區三民路95號","121.473993333333","25.0848933333333","6501400","蘆洲區"
"247004","002-UY","2018/12/01 20:49:48","新北市蘆洲區長安街109號","121.461558333333","25.0809166666667","6501400","蘆洲區"
"247022","001-UY","2018/12/01 20:49:46","新北市蘆洲區水湳街52號","121.471208333333","25.08993","6501400","蘆洲區"
"222001","KEA-2212","2018/12/01 20:49:38","新北市深坑區北深路三段105-2號","121.605233333333","25.001905","6501800","深坑區"
"251009","008-UM","2018/12/01 20:49:32","新北市淡水區民權路187巷17號","121.46031","25.1334883333333","6501000","淡水區"
"251005","010-UM","2018/12/01 20:49:33","新北市淡水區中正東路一段3巷2號","121.45059","25.1648466666667","6501000","淡水區"
"251001","011-UM","2018/12/01 20:49:43","新北市淡水區淡金路218號","121.460525","25.1671783333333","6501000","淡水區"
"251002","012-UM","2018/12/01 20:49:38","新北市淡水區中正東路6號","121.44702","25.1670283333333","6501000","淡水區"
"251013","KEA-2871","2018/12/01 20:49:30","新北市淡水區行忠路153號","121.455353333333","25.20014","6501000","淡水區"
"251016","179-VK","2018/12/01 20:49:32","新北市淡水區淡金路四段467號","121.451903333333","25.22367","6501000","淡水區"
"251015","182-VK","2018/12/01 20:49:48","新北市淡水區淡金路四段542巷17號","121.452771666667","25.227085","6501000","淡水區"
"251010","413-VK","2018/12/01 20:49:35","新北市淡水區沙崙路141-1號","121.423315","25.1830366666667","6501000","淡水區"
"251012","441-VK","2018/12/01 20:49:42","新北市淡水區淡金路四段526-5號","121.45203","25.22637","6501000","淡水區"
"251007","577-R6","2018/12/01 20:49:41","新北市淡水區鄧公路29巷11號","121.451913333333","25.1701716666667","6501000","淡水區"
"251011","650-BX","2018/12/01 20:49:33","新北市淡水區新民街一段13-1號","121.433025","25.18453","6501000","淡水區"
"251003","673-BX","2018/12/01 20:49:34","新北市淡水區中山北路一段207巷42號","121.442778333333","25.1793","6501000","淡水區"
"242036","AAC-296","2018/12/01 20:49:40","新北市新莊區中正路519號","121.43959","25.033315","6500500","新莊區"
"242027","705-TV","2018/12/01 20:49:40","新北市三重區光復路二段175號","121.472448333333","25.0617966666667","6500500","新莊區"
"242044","566-BX","2018/12/01 20:49:37","新北市新莊區富國路22巷19號","121.418333333333","25.0258066666667","6500500","新莊區"
"242011","442-UM","2018/12/01 20:49:35","新北市五股區新五路三段38號","121.44432","25.0876033333333","6500500","新莊區"
"242039","415-TV","2018/12/01 20:49:47","新北市新莊區瓊林路59-31號","121.441561666667","25.024","6500500","新莊區"
"242009","413-TV","2018/12/01 20:49:37","新北市新莊區思源路63號","121.459915","25.04037","6500500","新莊區"
"242023","362-BY","2018/12/01 20:49:35","新北市五股區成洲一路23號","121.450026666667","25.09584","6500500","新莊區"
"242051","172-VK","2018/12/01 20:49:42","新北市新莊區新樹路247號","121.434886666667","25.0221566666667","6500500","新莊區"
"242053","347-TH","2018/12/01 20:49:43","新北市樹林區俊英街246號","121.42469","25.0108633333333","6500500","新莊區"
"242004","349-TH","2018/12/01 20:49:37","新北市八里區中山路三段112號","121.387756666667","25.14652","6500500","新莊區"
"221027","281-BY","2018/12/01 20:49:31","新北市汐止區大同路二段368號","121.657568333333","25.0670616666667","6501100","汐止區"
"221029","298-VK","2018/12/01 20:49:44","新北市汐止區樟樹二路134號","121.640148333333","25.06599","6501100","汐止區"
"221002","129-UY","2018/12/01 20:49:38","新北市汐止區福德二路177號","121.630471666667","25.0650083333333","6501100","汐止區"
"221035","622-UM","2018/12/01 20:49:43","新北市汐止區汐萬路一段256巷3號","121.652148333333","25.0747233333333","6501100","汐止區"
"221038","646-BX","2018/12/01 20:49:35","新北市汐止區汐萬路一段256巷1號","121.652025","25.0747833333333","6501100","汐止區"
"221033","647-BX","2018/12/01 20:49:31","新北市汐止區合順街18巷8弄5號","121.620345","25.041935","6501100","汐止區"
"221018","753-BX","2018/12/01 20:49:43","新北市汐止區大同路二段603號","121.663996666667","25.0705883333333","6501100","汐止區"
"242042","281-VK","2018/12/01 20:49:47","新北市新莊區中正路863-3號","121.418713333333","25.0276016666667","6500500","新莊區"
"220103","561-BX","2018/12/01 20:49:34","新北市板橋區漢生東路83巷25號","121.467395","25.016745","6500100","板橋區"
"220057","686-BX","2018/12/01 20:49:32","新北市八里區中華路三段7巷1號","121.39719","25.1437083333333","6500100","板橋區"
"220070","AAC-253","2018/12/01 20:49:30","新北市八里區商港路42號","121.396291666667","25.1450733333333","6500100","板橋區"
