"lineid","car","time","location","longitude","latitude","cityid","cityname"
"244018","402-UM","2018/12/01 20:59:31","新北市林口區粉寮69號","121.40503","25.0908383333333","6501700","林口區"
"243001","297-R6","2018/12/01 21:14:40","新北市泰山區黎明路25號","121.421895","25.0608383333333","6501600","泰山區"
"243006","680-BX","2018/12/01 20:55:13","新北市泰山區黎明路25號","121.422188333333","25.0606733333333","6501600","泰山區"
"231059","046-UY","2018/12/01 21:19:40","新北市新店區僑信路2巷2號","121.499825","24.9535433333333","6500600","新店區"
"231040","047-UY","2018/12/01 21:19:33","新北市新店區北新路一段229號","121.540575","24.96547","6500600","新店區"
"231048","187-VK","2018/12/01 21:19:45","新北市新店區中正路412號","121.534373333333","24.9776716666667","6500600","新店區"
"231054","KEA-2219","2018/12/01 21:19:35","新北市新店區光明街284號","121.540365","24.964535","6500600","新店區"
"231050","AAD-862","2018/12/01 21:19:40","新北市新店區中正路267號","121.537916666667","24.974195","6500600","新店區"
"231063","616-UM","2018/12/01 21:19:49","新北市新店區吉祥街15巷1號","121.49776","24.9455966666667","6500600","新店區"
"231042","645-TV","2018/12/01 21:19:33","新北市新店區安康路二段414巷2號","121.49576","24.9577883333333","6500600","新店區"
"231051","719-UY","2018/12/01 21:19:37","新北市新店區溪園路87號","121.527911666667","24.9857883333333","6500600","新店區"
"231060","897-TW","2018/12/01 21:19:30","新北市新店區薏仁坑路自強巷6號","121.496396666667","24.9582183333333","6500600","新店區"
"241011","013-R5","2018/12/01 21:19:41","新北市三重區龍濱路197號","121.50187","25.0714433333333","6500200","三重區"
"241028","022-UY","2018/12/01 21:19:45","新北市三重區正義南路165-1號","121.498885","25.0575616666667","6500200","三重區"
"241008","059-VK","2018/12/01 21:19:34","新北市三重區自強路一段153號","121.493583333333","25.0669583333333","6500200","三重區"
"241031","061-VK","2018/12/01 21:19:47","新北市三重區五谷王南街46巷37號","121.475711666667","25.0455316666667","6500200","三重區"
"241017","063-VK","2018/12/01 21:19:32","新北市三重區中正北路25巷25弄3號","121.493251666667","25.0626466666667","6500200","三重區"
"241002","090-VK","2018/12/01 21:19:30","新北市三重區自強路五段43號","121.49416","25.08151","6500200","三重區"
"241003","091-VK","2018/12/01 21:19:35","新北市三重區仁義街321號","121.49536","25.084335","6500200","三重區"
"251014","742-BX","2018/12/01 21:19:47","新北市淡水區六塊厝2-1號","121.450153333333","25.240455","6501000","淡水區"
"241005","262-UM","2018/12/01 21:19:31","新北市三重區三信路182號","121.488011666667","25.0861016666667","6500200","三重區"
"241016","265-UM","2018/12/01 21:19:31","新北市三重區自強路一段236號","121.493403333333","25.0670666666667","6500200","三重區"
"241009","267-UM","2018/12/01 21:19:44","新北市三重區新北大道一段206巷13號","121.48249","25.0623766666667","6500200","三重區"
"241018","268-UM","2018/12/01 21:19:30","新北市三重區忠孝路二段80號","121.48416","25.0698216666667","6500200","三重區"
"241032","269-UM","2018/12/01 21:19:33","新北市三重區光復路二段170號","121.472156666667","25.0612816666667","6500200","三重區"
"241013","270-UM","2018/12/01 21:19:31","新北市三重區仁愛街66號","121.495833333333","25.0731716666667","6500200","三重區"
"241007","398-BY","2018/12/01 21:19:41","新北市三重區正義北路185號","121.496193333333","25.0679333333333","6500200","三重區"
"241026","KEA-2210","2018/12/01 21:19:31","新北市三重區大同南路220號","121.49683","25.0561866666667","6500200","三重區"
"241004","475-VK","2018/12/01 21:19:41","新北市三重區仁愛街453號","121.490123333333","25.08163","6500200","三重區"
"241030","480-VK","2018/12/01 21:19:34","新北市三重區五谷王北街181-1號","121.477481666667","25.054405","6500200","三重區"
"241014","543-UM","2018/12/01 21:19:39","新北市三重區萬全街9號","121.49932","25.0696483333333","6500200","三重區"
"241023","545-UM","2018/12/01 21:19:44","新北市三重區中正北路176巷27號","121.482668333333","25.0659333333333","6500200","三重區"
"241033","557-UM","2018/12/01 21:19:12","新北市三重區光復路二段102巷8-2號","121.471578333333","25.0580266666667","6500200","三重區"
"241019","KEA-2593","2018/12/01 21:19:41","新北市三重區重陽路四段2號","121.490391666667","25.0687516666667","6500200","三重區"
"241006","743-BX","2018/12/01 21:19:30","新北市三重區新北大道一段68號","121.487178333333","25.061415","6500200","三重區"
"247012","KEA-2869","2018/12/01 21:19:43","新北市蘆洲區中興街55號","121.481455","25.08741","6501400","蘆洲區"
"247002","893-R6","2018/12/01 21:19:40","新北市蘆洲區永樂街80號","121.456815","25.0885816666667","6501400","蘆洲區"
"247024","500-BY","2018/12/01 21:19:41","新北市蘆洲區光明路18號","121.461216666667","25.0869283333333","6501400","蘆洲區"
"247006","337-TH","2018/12/01 21:19:40","新北市蘆洲區九芎街90巷35-1號","121.46416","25.0817966666667","6501400","蘆洲區"
"247008","336-TH","2018/12/01 21:19:46","新北市蘆洲區信義路74號","121.476418333333","25.0792916666667","6501400","蘆洲區"
"247020","057-VK","2018/12/01 21:19:30","新北市蘆洲區民族路422巷84-1號","121.473585","25.0937883333333","6501400","蘆洲區"
"247010","056-VK","2018/12/01 21:19:45","新北市蘆洲區鷺江街23號","121.478896666667","25.082485","6501400","蘆洲區"
"247014","053-VK","2018/12/01 21:19:29","新北市蘆洲區中正路201號","121.468566666667","25.085935","6501400","蘆洲區"
"247018","007-UY","2018/12/01 21:19:35","新北市蘆洲區三民路96號","121.473443333333","25.0857916666667","6501400","蘆洲區"
"247004","002-UY","2018/12/01 21:19:48","新北市蘆洲區永安南路二段352號","121.456263333333","25.0827916666667","6501400","蘆洲區"
"247022","001-UY","2018/12/01 21:19:46","新北市蘆洲區三民路128巷100號","121.469398333333","25.090715","6501400","蘆洲區"
"251009","008-UM","2018/12/01 21:19:32","新北市淡水區民族路112巷1號","121.462588333333","25.1351833333333","6501000","淡水區"
"251005","010-UM","2018/12/01 21:19:33","新北市淡水區水源街一段122巷40號","121.446811666667","25.1704566666667","6501000","淡水區"
"251001","011-UM","2018/12/01 21:19:43","新北市淡水區濱海路一段306巷60弄33號","121.44199","25.191685","6501000","淡水區"
"251013","KEA-2871","2018/12/01 21:19:30","新北市淡水區行忠路328號","121.460523333333","25.19956","6501000","淡水區"
"251016","179-VK","2018/12/01 21:16:50","新北市淡水區前洲子20號","121.44093","25.219475","6501000","淡水區"
"251008","181-VK","2018/12/01 21:19:38","新北市淡水區水源街二段222號","121.46008","25.1764866666667","6501000","淡水區"
"251015","182-VK","2018/12/01 21:19:28","新北市淡水區淡金路四段542巷17號","121.452655","25.227095","6501000","淡水區"
"251010","413-VK","2018/12/01 21:19:35","新北市淡水區淡海路69巷26號","121.42187","25.1808616666667","6501000","淡水區"
"251012","441-VK","2018/12/01 21:19:42","新北市淡水區淡金路五段35巷46號","121.452465","25.2347483333333","6501000","淡水區"
"251006","561-UM","2018/12/01 21:19:36","新北市淡水區中正路一段22巷6號","121.427643333333","25.1757466666667","6501000","淡水區"
"251011","650-BX","2018/12/01 21:19:33","新北市淡水區新民街120巷29號","121.43889","25.1787866666667","6501000","淡水區"
"251003","673-BX","2018/12/01 21:19:34","新北市淡水區崁頂15-5號","121.438961666667","25.185875","6501000","淡水區"
"220057","686-BX","2018/12/01 21:19:32","新北市板橋區華東街1-9號","121.448063333333","24.9948466666667","6500100","板橋區"
"220070","AAC-253","2018/12/01 21:19:50","新北市八里區中華路三段7巷1號","121.397175","25.1436816666667","6500100","板橋區"
