"lineid","car","time","location","longitude","latitude","cityid","cityname"
"243001","297-R6","2018/12/01 21:14:40","新北市泰山區黎明路25號","121.421895","25.0608383333333","6501600","泰山區"
"231042","645-TV","2018/12/01 21:39:33","新北市新店區安康路二段414巷2號","121.4959","24.95796","6500600","新店區"
"251014","742-BX","2018/12/01 21:39:47","新北市淡水區淡金路四段181號","121.451511666667","25.2212583333333","6501000","淡水區"
"241005","262-UM","2018/12/01 21:39:31","新北市三重區碧華街1號","121.483578333333","25.0810933333333","6500200","三重區"
"241018","268-UM","2018/12/01 21:39:30","新北市八里區中山路三段382號","121.368506666667","25.13612","6500200","三重區"
"241030","480-VK","2018/12/01 21:39:34","新北市林口區汕頭32號","121.366788333333","25.13507","6500200","三重區"
"247012","KEA-2869","2018/12/01 21:39:43","新北市五股區凌雲路三段15-3號","121.429103333333","25.1087583333333","6501400","蘆洲區"
"251009","008-UM","2018/12/01 21:39:32","新北市淡水區民生路52巷22弄12號","121.46244","25.1370683333333","6501000","淡水區"
"251005","010-UM","2018/12/01 21:39:33","新北市淡水區英專路101巷22號","121.444953333333","25.1721583333333","6501000","淡水區"
"251001","011-UM","2018/12/01 21:39:43","新北市淡水區崁頂二路250號","121.435775","25.1967383333333","6501000","淡水區"
"251002","012-UM","2018/12/01 21:39:38","新北市淡水區學府路173號","121.4464","25.1743616666667","6501000","淡水區"
"251016","179-VK","2018/12/01 21:39:37","新北市淡水區淡金路三段170號","121.448675","25.2029583333333","6501000","淡水區"
"251008","181-VK","2018/12/01 21:39:38","新北市淡水區水源街二段22號","121.449755","25.1736766666667","6501000","淡水區"
"251010","413-VK","2018/12/01 21:39:35","新北市淡水區沙崙路216巷21號","121.426081666667","25.1843283333333","6501000","淡水區"
"251012","441-VK","2018/12/01 21:39:42","新北市淡水區淡金路四段197號","121.451643333333","25.2219133333333","6501000","淡水區"
"251004","443-VK","2018/12/01 21:39:35","新北市淡水區民生路14號","121.461023333333","25.1378983333333","6501000","淡水區"
"251006","561-UM","2018/12/01 21:39:36","新北市淡水區中正路111號","121.439878333333","25.1695866666667","6501000","淡水區"
"251007","577-R6","2018/12/01 21:39:40","新北市淡水區水源街二段194號","121.456896666667","25.1760033333333","6501000","淡水區"
"251011","650-BX","2018/12/01 21:39:33","新北市淡水區新民街322巷4號","121.435828333333","25.1837516666667","6501000","淡水區"
"251003","673-BX","2018/12/01 21:39:41","新北市淡水區新春街26號","121.436731666667","25.1812883333333","6501000","淡水區"
"220070","AAC-253","2018/12/01 21:39:50","新北市板橋區板城路303號","121.452086666667","25.002035","6500100","板橋區"
