"lineid","car","time","location","longitude","latitude","cityid","cityname"
"234040","862-TW","2018/12/01 22:19:45","新北市永和區福和路1號","121.526465","25.0097766666667","6500400","永和區"
"241018","268-UM","2018/12/01 22:19:50","新北市五股區芳洲路49號","121.44186","25.0839533333333","6500200","三重區"
"247012","KEA-2869","2018/12/01 22:19:43","新北市五股區中興路三段2巷10號","121.449065","25.08106","6501400","蘆洲區"
"251008","181-VK","2018/12/01 22:19:38","新北市淡水區學府路104號","121.44981","25.1717533333333","6501000","淡水區"
"251010","413-VK","2018/12/01 22:19:35","新北市淡水區沙崙路200號","121.424693333333","25.1839316666667","6501000","淡水區"
"251004","443-VK","2018/12/01 22:19:35","新北市淡水區民族路33號","121.462231666667","25.135785","6501000","淡水區"
"251007","577-R6","2018/12/01 22:19:40","新北市淡水區北新路180號","121.449496666667","25.1787133333333","6501000","淡水區"
"251011","650-BX","2018/12/01 22:19:33","新北市淡水區水碓街7號","121.443231666667","25.177095","6501000","淡水區"
