"lineid","car","time","location","longitude","latitude","cityid","cityname"
"248005","653-BX","2018/04/30 07:59:29","新北市五股區明德路12巷3號","121.433246666667","25.0717983333333","6501500","五股區"
"248003","655-BX","2018/04/30 07:59:32","新北市五股區中興路二段11號","121.462983333333","25.0741216666667","6501500","五股區"
"232001","290-BY","2018/04/30 07:59:40","新北市坪林區坪雙路一段82號","121.718028333333","24.9444083333333","6502000","坪林區"
"232012","291-BY","2018/04/30 07:59:31","新北市坪林區金瓜寮24號","121.677728333333","24.9089766666667","6502000","坪林區"
"232017","705-BZ","2018/04/30 07:59:35","新北市坪林區坪雙路二段119號","121.754033333333","24.96492","6502000","坪林區"
"232005","758-BX","2018/04/30 07:59:46","新北市坪林區魚堀55-1號","121.708208333333","24.92916","6502000","坪林區"
"244012","069-UM","2018/04/30 07:59:40","新北市林口區粉寮69號","121.405065","25.0907833333333","6501700","林口區"
"244001","248-BX","2018/04/30 07:59:40","新北市林口區嘉溪雅坑2鄰5號","121.337586666667","25.1066016666667","6501700","林口區"
"244018","742-UY","2018/04/30 07:59:44","新北市林口區仁愛路一段410號","121.386646666667","25.0769066666667","6501700","林口區"
"244022","483-VK","2018/04/30 07:59:39","新北市林口區粉寮69號","121.405073333333","25.090785","6501700","林口區"
"244008","656-BX","2018/04/30 07:59:44","新北市林口區粉寮69號","121.405006666667","25.09084","6501700","林口區"
"244021","838-TS","2018/04/30 07:59:44","新北市林口區粉寮69號","121.40482","25.0908033333333","6501700","林口區"
"231007","188-VK","2018/04/30 07:59:31","新北市新店區安康路一段50-1號","121.529675","24.9613066666667","6500600","新店區"
"231008","192-VK","2018/04/30 07:59:28","新北市新店區安華路28-1號","121.519215","24.9613116666667","6500600","新店區"
"235001","611-BX","2018/04/30 07:59:46","新北市中和區圓通路367巷6號","121.491551666667","24.9892283333333","6500300","中和區"
"226005","5620-A6","2018/04/30 07:59:34","新北市平溪區石底里公園街18-3號","121.733791666667","25.0252766666667","6502400","平溪區"
"226001","7418-A5","2018/04/30 07:59:41","新北市平溪區南山里南山坪136號","121.78295","25.046475","6502400","平溪區"
"226003","AGD-0702","2018/04/30 07:59:39","新北市平溪區新寮里頂寮子4號","121.773686666667","25.0518383333333","6502400","平溪區"
"223006","022-BY","2018/04/30 07:59:36","新北市石碇區十八重溪63號","121.674898333333","25.0136566666667","6501900","石碇區"
"223002","KEA-2673","2018/04/30 07:59:38","新北市石碇區北宜路五段58號","121.634081666667","24.953135","6501900","石碇區"
"223001","205-TH","2018/04/30 07:59:23","新北市石碇區月扇湖1號","121.656401666667","24.9541366666667","6501900","石碇區"
"223008","406-TH","2018/04/30 07:59:42","新北市石碇區靜安路一段279號","121.694431666667","25.00707","6501900","石碇區"
"223001","592-UM","2018/04/30 07:59:21","新北市石碇區月扇湖1號","121.656415","24.954165","6501900","石碇區"
"223004","660-BX","2018/04/30 07:59:37","新北市石碇區雙溪39號","121.65068","25.007805","6501900","石碇區"
"223007","661-BX","2018/04/30 07:59:28","新北市石碇區靜安路一段277號","121.694338333333","25.0070116666667","6501900","石碇區"
"223005","677-TV","2018/04/30 07:59:38","新北市深坑區文山路一段1號","121.646766666667","25.00833","6501900","石碇區"
"227005","282-VK","2018/04/30 07:59:37","新北市雙溪區平林里梅竹蹊16號","121.861908333333","25.0359916666667","6502500","雙溪區"
"252006","073-UM","2018/04/30 07:59:40","新北市三芝區後厝里芝麻三街1號","121.474888333333","25.245145","6502100","三芝區"
"252002","178-VK","2018/04/30 07:59:40","新北市三芝區中山路二段50號","121.503255","25.2543866666667","6502100","三芝區"
"252004","249-BX","2018/04/30 07:59:37","新北市三芝區興華里車埕16-8號","121.50544","25.1972966666667","6502100","三芝區"
"237001","159-UY","2018/04/30 07:59:31","新北市三峽區大學路45-1號","121.376911666667","24.9406033333333","6500900","三峽區"
"236007","165-UM","2018/04/30 07:59:28","新北市土城區清水路171號","121.459305","24.981485","6501300","土城區"
"236001","339-SR","2018/04/30 07:59:42","新北市土城區龍泉路89-1號","121.446395","24.9421066666667","6501300","土城區"
"242033","AAC-296","2018/04/30 07:59:30","新北市新莊區新泰路3巷1號","121.449778333333","25.0322316666667","6500500","新莊區"
"242057","986-R7","2018/04/30 07:59:34","新北市新莊區中正路530號","121.430975","25.0315933333333","6500500","新莊區"
"242052","751-BX","2018/04/30 07:59:47","新北市新莊區瓊林南路305巷1號","121.434696666667","25.0054533333333","6500500","新莊區"
"242026","615-BX","2018/04/30 07:59:39","新北市新莊區思源路32號","121.460213333333","25.0410383333333","6500500","新莊區"
"242024","613-BX","2018/04/30 07:59:36","新北市新莊區復興路二段70號","121.455375","25.044115","6500500","新莊區"
"242028","612-BX","2018/04/30 07:56:31","新北市新莊區復興路二段196巷2弄2號","121.459285","25.04417","6500500","新莊區"
"242040","566-BX","2018/04/30 07:59:44","新北市新莊區新樹路113巷29號","121.439548333333","25.0264933333333","6500500","新莊區"
"242045","497-BY","2018/04/30 07:59:25","新北市新莊區新樹路23號","121.44045","25.03247","6500500","新莊區"
"242049","442-UM","2018/04/30 07:59:38","新北市新莊區新樹路447號","121.432708333333","25.01349","6500500","新莊區"
"242055","440-UM","2018/04/30 07:59:36","新北市新莊區新莊路459號","121.449476666667","25.0332783333333","6500500","新莊區"
"242006","413-TV","2018/04/30 07:59:31","新北市新莊區自信街55號","121.455035","25.0482966666667","6500500","新莊區"
"242043","400-BY","2018/04/30 07:59:29","新北市新莊區富國路68號","121.419786666667","25.02597","6500500","新莊區"
"242022","362-BY","2018/04/30 07:59:28","新北市新莊區公園路138號","121.452743333333","25.0400466666667","6500500","新莊區"
"242059","353-BY","2018/04/30 07:59:28","新北市新莊區瓊林南路12-2號","121.43628","25.0189533333333","6500500","新莊區"
"242008","132-UY","2018/04/30 07:59:29","新北市新莊區中原路187號","121.452833333333","25.054355","6500500","新莊區"
"242038","133-UY","2018/04/30 07:59:42","新北市新莊區民安西路42號","121.4274","25.0210166666667","6500500","新莊區"
"242030","135-UY","2018/04/30 07:59:43","新北市新莊區新泰路401巷29-1號","121.442455","25.04395","6500500","新莊區"
"242047","172-VK","2018/04/30 07:59:38","新北市新莊區四維路215號","121.421596666667","25.0199916666667","6500500","新莊區"
"242016","175-VK","2018/04/30 07:59:38","新北市新莊區建豐街26號","121.451606666667","25.0439383333333","6500500","新莊區"
"242003","176-VK","2018/04/30 07:59:36","新北市新莊區中港路286號","121.452993333333","25.044295","6500500","新莊區"
"242014","346-TH","2018/04/30 07:59:44","新北市新莊區新泰路161號","121.447878333333","25.0369883333333","6500500","新莊區"
"242020","348-TH","2018/04/30 07:59:26","新北市新莊區中華路一段10號","121.452015","25.0370483333333","6500500","新莊區"
"242035","349-TH","2018/04/30 07:59:40","新北市新莊區建國一路175-1號","121.435086666667","25.0240283333333","6500500","新莊區"
"242012","351-TH","2018/04/30 07:59:36","新北市新莊區中誠街18號","121.451915","25.0482483333333","6500500","新莊區"
"242001","KEA-2550","2018/04/30 07:59:40","新北市新莊區新莊路154號","121.45521","25.0354466666667","6500500","新莊區"
"220070","282-UM","2018/04/30 07:59:28","新北市板橋區南雅南路二段144巷90號","121.450078333333","24.9956383333333","6500100","板橋區"
"242018","280-VK","2018/04/30 07:59:32","新北市新莊區中港路93號","121.455415","25.0392516666667","6500500","新莊區"
