"lineid","car","time","location","longitude","latitude","cityid","cityname"
"248005","653-BX","2018/04/30 09:19:28","新北市五股區水碓一路16號","121.432363333333","25.0729016666667","6501500","五股區"
"248003","655-BX","2018/04/30 09:19:32","新北市五股區芳洲五路9號","121.445591666667","25.08657","6501500","五股區"
"244012","069-UM","2018/04/30 09:19:40","新北市林口區中正路514巷6弄1號","121.382213333333","25.0781333333333","6501700","林口區"
"244006","080-UY","2018/04/30 09:19:33","新北市林口區林口路296號","121.386206666667","25.0853883333333","6501700","林口區"
"244018","742-UY","2018/04/30 09:19:44","新北市林口區忠孝路559號","121.372758333333","25.06831","6501700","林口區"
"244022","483-VK","2018/04/30 09:19:39","新北市林口區仁愛路二段93號","121.384516666667","25.0753916666667","6501700","林口區"
"244016","485-VK","2018/04/30 09:19:35","新北市林口區文化二路一段68巷4-3號","121.366071666667","25.0683516666667","6501700","林口區"
"244008","656-BX","2018/04/30 09:19:44","新北市林口區竹林路278巷1號","121.390556666667","25.0821683333333","6501700","林口區"
"244010","701-TV","2018/04/30 09:19:34","新北市林口區中正路57巷12弄6號","121.39494","25.0767733333333","6501700","林口區"
"222005","289-BY","2018/04/30 09:01:20","新北市深坑區土庫尖路75-1號","121.631128333333","25.0182483333333","6501800","深坑區"
"231007","188-VK","2018/04/30 09:18:31","新北市新店區新潭路三段215巷25號","121.508178333333","24.90407","6500600","新店區"
"231008","192-VK","2018/04/30 09:19:27","新北市新店區平廣路一段11號","121.537985","24.9073633333333","6500600","新店區"
"235001","611-BX","2018/04/30 09:19:46","新北市中和區連城路372-1號","121.481725","24.9952766666667","6500300","中和區"
"226003","AGD-0702","2018/04/30 09:13:19","新北市平溪區望古里望古坑21-5號","121.759608333333","25.0343716666667","6502400","平溪區"
"223001","205-TH","2018/04/30 09:19:45","新北市石碇區北宜路四段30號","121.62386","24.95639","6501900","石碇區"
"223008","406-TH","2018/04/30 09:19:42","新北市石碇區光明路28號","121.69525","25.0237833333333","6501900","石碇區"
"223001","592-UM","2018/04/30 09:19:41","新北市石碇區北宜路五段火燒樟巷3號","121.624813333333","24.956185","6501900","石碇區"
"223004","660-BX","2018/04/30 09:19:37","新北市石碇區磨石坑13號","121.688878333333","24.9729833333333","6501900","石碇區"
"223007","661-BX","2018/04/30 09:09:28","新北市石碇區光明路17-2號","121.684748333333","25.03194","6501900","石碇區"
"223005","677-TV","2018/04/30 09:19:33","新北市石碇區大崙16-2號","121.690813333333","24.978505","6501900","石碇區"
"227005","282-VK","2018/04/30 09:16:57","新北市雙溪區泰平里料角坑21號","121.81152","24.97052","6502500","雙溪區"
"252004","249-BX","2018/04/30 09:19:37","新北市三芝區興華里田心子7-1號","121.499193333333","25.204465","6502100","三芝區"
"252006","AAC-283","2018/04/30 09:19:28","新北市三芝區埔坪里埔頭坑41號","121.504503333333","25.2643933333333","6502100","三芝區"
"237001","159-UY","2018/04/30 09:19:31","新北市樹林區中山路三段210-2號","121.381403333333","24.96564","6500900","三峽區"
"236007","165-UM","2018/04/30 09:19:28","新北市土城區中央路四段46巷28號","121.42168","24.9616216666667","6501300","土城區"
"236001","339-SR","2018/04/30 09:19:42","新北市土城區中正路1號","121.442388333333","24.9751216666667","6501300","土城區"
"236005","498-BY","2018/04/30 09:19:43","新北市土城區承天路18號","121.439398333333","24.9635066666667","6501300","土城區"
"242033","AAC-296","2018/04/30 09:19:30","新北市新莊區新泰路207號","121.446811666667","25.038385","6500500","新莊區"
"242057","986-R7","2018/04/30 09:19:34","新北市新莊區龍安路266巷4號","121.421601666667","25.019105","6500500","新莊區"
"242052","751-BX","2018/04/30 09:19:47","新北市新莊區西盛街362巷1號","121.427781666667","25.01372","6500500","新莊區"
"242026","615-BX","2018/04/30 09:19:38","新北市新莊區思源路63號","121.459915","25.0403783333333","6500500","新莊區"
"242024","613-BX","2018/04/30 09:19:36","新北市三重區光復路二段178號","121.471621666667","25.0621716666667","6500500","新莊區"
"242028","612-BX","2018/04/30 09:19:31","新北市新莊區中華路一段234號","121.452595","25.0433233333333","6500500","新莊區"
"242040","566-BX","2018/04/30 09:19:44","新北市新莊區中正路694巷3弄11號","121.417938333333","25.0280033333333","6500500","新莊區"
"242045","497-BY","2018/04/30 09:19:45","新北市新莊區中正路879-17號","121.418255","25.0257466666667","6500500","新莊區"
"242049","442-UM","2018/04/30 09:19:47","新北市新莊區民安西路144號","121.426173333333","25.016665","6500500","新莊區"
"242055","440-UM","2018/04/30 09:19:35","新北市新莊區豐年街48號","121.44634","25.0318716666667","6500500","新莊區"
"242043","400-BY","2018/04/30 09:19:45","新北市新莊區中正路新建巷28弄75號","121.413375","25.02096","6500500","新莊區"
"242022","362-BY","2018/04/30 09:19:33","新北市新莊區化成路712號","121.465733333333","25.0567783333333","6500500","新莊區"
"242059","353-BY","2018/04/30 09:19:48","新北市新莊區新樹路200號","121.434123333333","25.0208383333333","6500500","新莊區"
"242008","132-UY","2018/04/30 09:19:29","新北市新莊區環漢路三段1號","121.443011666667","25.02377","6500500","新莊區"
"242038","133-UY","2018/04/30 09:19:42","新北市新莊區民安路236號","121.426385","25.0220583333333","6500500","新莊區"
"242030","135-UY","2018/04/30 09:19:43","新北市新莊區中正路362號","121.443306666667","25.0342166666667","6500500","新莊區"
"242047","172-VK","2018/04/30 09:19:43","新北市新莊區龍安路252-5號","121.421043333333","25.0190516666667","6500500","新莊區"
"242010","173-VK","2018/04/30 09:19:30","新北市新莊區中義街37號","121.4499","25.0510883333333","6500500","新莊區"
"242003","176-VK","2018/04/30 09:19:35","新北市新莊區化成路554巷36號","121.467663333333","25.0540533333333","6500500","新莊區"
"242020","348-TH","2018/04/30 09:19:46","新北市新莊區公園路64號","121.449463333333","25.03946","6500500","新莊區"
"242035","349-TH","2018/04/30 09:19:39","新北市新莊區後港一路76巷5弄1號","121.42735","25.0256866666667","6500500","新莊區"
"242012","351-TH","2018/04/30 09:19:36","新北市新莊區幸福路914號","121.442683333333","25.0490183333333","6500500","新莊區"
"242001","KEA-2550","2018/04/30 09:19:40","新北市新莊區中正路60號","121.461596666667","25.0396916666667","6500500","新莊區"
"242018","280-VK","2018/04/30 09:19:33","新北市新莊區中港路2號","121.45492","25.0368216666667","6500500","新莊區"
