"lineid","car","time","location","longitude","latitude","cityid","cityname"
"234044","148-BY","2018/04/30 12:39:39","新北市永和區永元路124號","121.522696666667","25.0028966666667","6500400","永和區"
"234005","207-UY","2018/04/30 12:39:36","新北市永和區福和路1號","121.526541666667","25.0102066666667","6500400","永和區"
"234078","298-R6","2018/04/30 12:39:43","新北市永和區永利路139號","121.524118333333","25.0036816666667","6500400","永和區"
"234036","336-UY","2018/04/30 12:39:49","新北市永和區福和路1號","121.525983333333","25.0096166666667","6500400","永和區"
"234062","337-UY","2018/04/30 12:39:35","新北市永和區福和路1號","121.526481666667","25.0101016666667","6500400","永和區"
"234084","338-UY","2018/04/30 12:39:37","新北市中和區景新街273巷32號","121.510735","24.9941516666667","6500400","永和區"
"234068","552-UM","2018/04/30 12:39:43","新北市永和區福和路1號","121.52552","25.0094633333333","6500400","永和區"
"234066","553-UM","2018/04/30 12:39:47","新北市永和區福和路8巷1號","121.524816666667","25.00879","6500400","永和區"
"234015","745-BX","2018/04/30 12:39:30","新北市永和區福和路1號","121.52637","25.009555","6500400","永和區"
"234028","746-BX","2018/04/30 12:39:38","新北市永和區環河東路二段92號","121.524531666667","25.01055","6500400","永和區"
"234012","KEA-2591","2018/04/30 12:39:34","新北市永和區環河東路二段28號","121.522691666667","25.0128433333333","6500400","永和區"
"234060","AAD-866","2018/04/30 12:39:42","新北市永和區福和路1號","121.526226666667","25.0099983333333","6500400","永和區"
"234040","862-TW","2018/04/30 12:39:47","新北市永和區福和路376號","121.51426","25.0077933333333","6500400","永和區"
"234048","863-TW","2018/04/30 12:39:40","新北市永和區福和路1號","121.526728333333","25.0100116666667","6500400","永和區"
"234025","9371-KE","2018/04/30 12:39:38","新北市永和區福和路1號","121.52576","25.0094416666667","6500400","永和區"
"234010","9373-KE","2018/04/30 12:39:42","新北市永和區福和路1號","121.525508333333","25.0094516666667","6500400","永和區"
"248005","077-UY","2018/04/30 12:39:35","新北市五股區中興路二段37巷28號","121.460113333333","25.0750466666667","6501500","五股區"
"234076","969-R7","2018/04/30 12:39:48","新北市永和區中正路226號","121.51614","24.9978683333333","6500400","永和區"
"234072","AAC-211","2018/04/30 12:39:40","新北市永和區福和路1號","121.526263333333","25.0098533333333","6500400","永和區"
"234001","AAC-295","2018/04/30 12:39:38","新北市永和區福和路1號","121.52657","25.00988","6500400","永和區"
"243003","297-R6","2018/04/30 12:15:15","新北市泰山區黎明路25號","121.421885","25.0608083333333","6501600","泰山區"
"231005","106-UY","2018/04/30 12:39:46","新北市新店區安華路28-1號","121.519646666667","24.9608216666667","6500600","新店區"
"231014","AAD-862","2018/04/30 12:39:50","新北市新店區安華路28-1號","121.519866666667","24.961195","6500600","新店區"
"231036","512-UM","2018/04/30 12:39:38","新北市新店區安華路28-1號","121.519265","24.961105","6500600","新店區"
"231035","719-UM","2018/04/30 12:39:37","新北市新店區安華路28-1號","121.519485","24.9613816666667","6500600","新店區"
"235028","005-UY","2018/04/30 12:39:37","新北市中和區員山路36巷16-3號","121.484918333333","24.991835","6500300","中和區"
"235029","098-UM","2018/04/30 12:39:31","新北市中和區員山路36巷16-3號","121.485113333333","24.991425","6500300","中和區"
"235031","255-BX","2018/04/30 12:39:51","新北市中和區中正路839巷29號","121.48363","25.00227","6500300","中和區"
"235025","378-QA","2018/04/30 12:11:29","新北市中和區中正路637巷60弄61號","121.485351666667","24.992675","6500300","中和區"
"235001","611-BX","2018/04/30 12:39:39","新北市中和區連城路525-8號","121.480851666667","24.9949583333333","6500300","中和區"
"207002","749-BX","2018/04/30 12:39:37","新北市萬里區雙興里太和路7-2號","121.658526666667","25.1739466666667","6502800","萬里區"
"207001","662-BX","2018/04/30 12:39:41","新北市萬里區萬里里獅頭路15-2號","121.69601","25.1798816666667","6502800","萬里區"
