"lineid","car","time","location","longitude","latitude","cityid","cityname"
"234044","148-BY","2018/04/30 12:49:39","新北市永和區秀朗路二段124-4號","121.524765","25.0014216666667","6500400","永和區"
"234005","207-UY","2018/04/30 12:49:36","新北市永和區文化路19-1號","121.515041666667","25.0150083333333","6500400","永和區"
"234078","298-R6","2018/04/30 12:49:44","新北市永和區永利路108號","121.521271666667","25.0034416666667","6500400","永和區"
"234036","336-UY","2018/04/30 12:49:49","新北市永和區成功路一段89號","121.527006666667","25.0028633333333","6500400","永和區"
"234062","337-UY","2018/04/30 12:49:35","新北市永和區福和路1號","121.526341666667","25.0100366666667","6500400","永和區"
"234084","338-UY","2018/04/30 12:49:40","新北市永和區中正路93號","121.515386666667","24.997345","6500400","永和區"
"234068","552-UM","2018/04/30 12:49:43","新北市永和區中興街100號","121.519018333333","25.0121333333333","6500400","永和區"
"234066","553-UM","2018/04/30 12:49:47","新北市永和區中和路625號","121.513005","25.0048916666667","6500400","永和區"
"234015","745-BX","2018/04/30 12:49:50","新北市永和區永和路二段393-1號","121.515501666667","25.0166433333333","6500400","永和區"
"234028","746-BX","2018/04/30 12:49:38","新北市永和區得和路321號","121.523411666667","24.999675","6500400","永和區"
"234012","KEA-2591","2018/04/30 12:49:34","新北市永和區信義路82號","121.512613333333","25.01339","6500400","永和區"
"234060","AAD-866","2018/04/30 12:49:42","新北市永和區福和路307號","121.516268333333","25.0071416666667","6500400","永和區"
"234040","862-TW","2018/04/30 12:49:47","新北市永和區永貞路312-1號","121.511761666667","25.0049883333333","6500400","永和區"
"234048","863-TW","2018/04/30 12:49:41","新北市永和區環河東路二段36號","121.522831666667","25.0125","6500400","永和區"
"234025","9371-KE","2018/04/30 12:49:39","新北市永和區中正路720號","121.51584","25.0100066666667","6500400","永和區"
"234010","9373-KE","2018/04/30 12:49:42","新北市永和區保福路二段162巷2號","121.508988333333","25.01517","6500400","永和區"
"248015","026-BX","2018/04/30 12:49:37","新北市五股區中興路二段83巷26-6號","121.46013","25.07514","6501500","五股區"
"248005","077-UY","2018/04/30 12:49:35","新北市五股區中興路二段83巷26-6號","121.459988333333","25.0748966666667","6501500","五股區"
"248007","095-VK","2018/04/30 12:49:42","新北市五股區中興路二段37巷28號","121.46015","25.0750566666667","6501500","五股區"
"248019","225-UY","2018/04/30 12:49:34","新北市五股區中興路二段83巷26-6號","121.46006","25.0751316666667","6501500","五股區"
"248013","261-SL","2018/04/30 12:49:34","新北市五股區中興路二段63巷17號","121.460226666667","25.0754483333333","6501500","五股區"
"234022","9380-KE","2018/04/30 12:49:38","新北市永和區豫溪街191巷3弄26號","121.522956666667","25.0109566666667","6500400","永和區"
"234076","969-R7","2018/04/30 12:49:49","新北市永和區中正路40號","121.512981666667","24.994345","6500400","永和區"
"234072","AAC-211","2018/04/30 12:49:40","新北市永和區福和路1號","121.526183333333","25.00985","6500400","永和區"
"234001","AAC-295","2018/04/30 12:49:38","新北市永和區中正路748號","121.514816666667","25.0103516666667","6500400","永和區"
"231002","002-UM","2018/04/30 12:49:31","新北市新店區安華路28-1號","121.519581666667","24.9609316666667","6500600","新店區"
"231028","046-UY","2018/04/30 12:49:41","新北市新店區安華路28-1號","121.519458333333","24.96074","6500600","新店區"
"231001","047-UY","2018/04/30 12:49:48","新北市新店區安華路28-1號","121.51953","24.9612083333333","6500600","新店區"
"231005","106-UY","2018/04/30 12:49:46","新北市新店區安華路28-1號","121.519618333333","24.960815","6500600","新店區"
"231014","AAD-862","2018/04/30 12:49:50","新北市新店區安華路28-1號","121.519695","24.96138","6500600","新店區"
"231037","4716-K9","2018/04/30 12:49:48","新北市新店區安華路28-1號","121.519546666667","24.961415","6500600","新店區"
"231025","4715-K9","2018/04/30 12:49:47","新北市新店區安華路28-1號","121.519501666667","24.9606266666667","6500600","新店區"
"231036","512-UM","2018/04/30 12:49:38","新北市新店區安華路28-1號","121.519316666667","24.96129","6500600","新店區"
"231013","513-UM","2018/04/30 12:49:35","新北市新店區安華路28-1號","121.51949","24.9611083333333","6500600","新店區"
"231035","719-UM","2018/04/30 12:49:37","新北市新店區安華路28-1號","121.51946","24.9612966666667","6500600","新店區"
"231031","720-UM","2018/04/30 12:49:48","新北市新店區安華路28-1號","121.5192","24.96121","6500600","新店區"
"231024","AKT-0513","2018/04/30 12:49:43","新北市新店區安華路28-1號","121.51946","24.9606083333333","6500600","新店區"
"235028","005-UY","2018/04/30 12:49:37","新北市中和區員山路36巷16-3號","121.484981666667","24.9918583333333","6500300","中和區"
"235027","006-UY","2018/04/30 12:49:34","新北市中和區員山路36巷16-3號","121.485038333333","24.99136","6500300","中和區"
"235029","098-UM","2018/04/30 12:49:51","新北市中和區員山路36巷16-3號","121.485086666667","24.9914283333333","6500300","中和區"
"235031","255-BX","2018/04/30 12:49:51","新北市中和區中山路二段568巷2-1號","121.482848333333","25.0056133333333","6500300","中和區"
"235025","378-QA","2018/04/30 12:48:16","新北市中和區和城路一段271巷1號","121.485725","24.99202","6500300","中和區"
"235001","611-BX","2018/04/30 12:49:39","新北市中和區員山路437-3號","121.480751666667","25.0039733333333","6500300","中和區"
"207002","749-BX","2018/04/30 12:49:37","新北市萬里區雙興里二坪路32號","121.644681666667","25.1687616666667","6502800","萬里區"
"207001","662-BX","2018/04/30 12:49:41","新北市萬里區萬里里獅頭路23號","121.69342","25.1782833333333","6502800","萬里區"
"236005","498-BY","2018/04/30 12:49:32","新北市土城區永寧路29號","121.430473333333","24.9630633333333","6501300","土城區"
"238008","KEA-2539","2018/04/30 12:47:13","新北市樹林區育德街78-1號","121.387946666667","24.9680416666667","6500700","樹林區"
"221032","280-BY","2018/04/30 12:49:40","新北市汐止區康寧街901號","121.6516","25.0749966666667","6501100","汐止區"
