"lineid","car","time","location","longitude","latitude","cityid","cityname"
"234044","148-BY","2018/04/30 13:19:39","新北市永和區得和路309號","121.5231","24.9997116666667","6500400","永和區"
"234005","207-UY","2018/04/30 13:19:36","新北市永和區中山路一段334號","121.506063333333","25.0064166666667","6500400","永和區"
"234078","298-R6","2018/04/30 13:19:43","新北市永和區福和路7巷7-1號","121.525446666667","25.0077266666667","6500400","永和區"
"234036","336-UY","2018/04/30 13:19:53","新北市永和區民樂街49號","121.5276","24.9988166666667","6500400","永和區"
"234062","337-UY","2018/04/30 13:19:35","新北市永和區永元路17巷6弄1號","121.521401666667","25.0007633333333","6500400","永和區"
"234084","338-UY","2018/04/30 13:19:37","新北市永和區永利路88號","121.520755","25.0039033333333","6500400","永和區"
"234068","552-UM","2018/04/30 13:19:43","新北市永和區豫溪街74巷7弄9號","121.517748333333","25.00991","6500400","永和區"
"234066","553-UM","2018/04/30 13:19:47","新北市永和區保平路52號","121.511306666667","25.0071333333333","6500400","永和區"
"234015","745-BX","2018/04/30 13:19:50","新北市永和區環河西路一段85巷4弄20號","121.512066666667","25.016915","6500400","永和區"
"234028","746-BX","2018/04/30 13:19:37","新北市永和區厚德街66號","121.524076666667","24.9989166666667","6500400","永和區"
"234052","KEA-2590","2018/04/30 13:19:45","新北市永和區中興街39號","121.516293333333","25.0118033333333","6500400","永和區"
"234012","KEA-2591","2018/04/30 13:19:40","新北市永和區保福路二段38號","121.51111","25.0119","6500400","永和區"
"234060","AAD-866","2018/04/30 13:19:42","新北市永和區秀朗路一段114號","121.516915","25.0037483333333","6500400","永和區"
"234040","862-TW","2018/04/30 13:19:47","新北市永和區保平路151巷6弄11號","121.50983","25.0049866666667","6500400","永和區"
"234048","863-TW","2018/04/30 13:19:41","新北市永和區保福路二段88巷24號","121.51179","25.0135533333333","6500400","永和區"
"234025","9371-KE","2018/04/30 13:19:38","新北市永和區豫溪街42巷9號","121.515461666667","25.0093083333333","6500400","永和區"
"234010","9373-KE","2018/04/30 13:19:42","新北市永和區忠孝街34巷16號","121.514588333333","25.01675","6500400","永和區"
"248015","026-BX","2018/04/30 13:19:37","新北市五股區西雲路293號","121.44943","25.0992033333333","6501500","五股區"
"248005","077-UY","2018/04/30 13:19:35","新北市五股區中興路一段152號","121.464636666667","25.0738133333333","6501500","五股區"
"248007","095-VK","2018/04/30 13:19:42","新北市五股區更洲路32巷8弄13-1號","121.459296666667","25.0795083333333","6501500","五股區"
"248019","225-UY","2018/04/30 13:19:34","新北市五股區孝義路47巷22號","121.451178333333","25.1091616666667","6501500","五股區"
"248011","247-BX","2018/04/30 13:19:52","新北市五股區御史路1巷101弄2號","121.44095","25.0912033333333","6501500","五股區"
"248013","261-SL","2018/04/30 13:19:35","新北市五股區自強路90巷51號","121.431458333333","25.0714433333333","6501500","五股區"
"248003","677-BX","2018/04/30 13:19:48","新北市五股區成泰路二段250號","121.440143333333","25.087085","6501500","五股區"
"248001","678-BX","2018/04/30 13:19:49","新北市五股區西雲路66號","121.443686666667","25.0916166666667","6501500","五股區"
"248009","682-TV","2018/04/30 13:19:33","新北市五股區成泰路一段173號","121.435185","25.074655","6501500","五股區"
"234022","9380-KE","2018/04/30 13:19:41","新北市永和區竹林路124巷40號","121.518006666667","25.01121","6500400","永和區"
"234076","969-R7","2018/04/30 13:19:48","新北市永和區民有街25巷2號","121.517325","24.9960383333333","6500400","永和區"
"234072","AAC-211","2018/04/30 13:19:40","新北市永和區竹林路44號","121.517598333333","25.0142716666667","6500400","永和區"
"234001","AAC-295","2018/04/30 13:19:38","新北市永和區和平街109巷2號","121.510921666667","25.0098983333333","6500400","永和區"
"244001","248-BX","2018/04/30 13:19:50","新北市林口區寶斗厝坑83號","121.332296666667","25.1199683333333","6501700","林口區"
"243005","646-TV","2018/04/30 13:19:36","新北市新莊區壽山路160巷29號","121.415628333333","25.0355033333333","6501600","泰山區"
"231002","002-UM","2018/04/30 13:19:50","新北市新店區安華路28-1號","121.519636666667","24.9608583333333","6500600","新店區"
"231027","0293-UT","2018/04/30 13:19:40","新北市新店區安華路8號","121.519861666667","24.9626166666667","6500600","新店區"
"231028","046-UY","2018/04/30 13:19:41","新北市新店區安華路28-1號","121.519526666667","24.9608566666667","6500600","新店區"
"231001","047-UY","2018/04/30 13:19:48","新北市新店區安華路28-1號","121.51929","24.9609466666667","6500600","新店區"
"231005","106-UY","2018/04/30 13:19:46","新北市新店區安華路8號","121.519868333333","24.9626766666667","6500600","新店區"
"231010","107-UY","2018/04/30 13:19:31","新北市新店區環河路29巷1號","121.536511666667","24.9612966666667","6500600","新店區"
"231019","108-UY","2018/04/30 13:19:44","新北市新店區安康路一段11號","121.53345","24.9604633333333","6500600","新店區"
"231011","187-VK","2018/04/30 13:19:44","新北市新店區安康路一段323-1號","121.521545","24.9638116666667","6500600","新店區"
"231023","KEA-2219","2018/04/30 13:19:43","新北市新店區光明街1-1號","121.538125","24.9590166666667","6500600","新店區"
"231026","256-BX","2018/04/30 13:19:47","新北市新店區安華路28-1號","121.519728333333","24.9611216666667","6500600","新店區"
"231003","268-BY","2018/04/30 13:19:34","新北市新店區安華路8號","121.51985","24.9625333333333","6500600","新店區"
"231018","278-BY","2018/04/30 13:19:44","新北市新店區環河路111-10號","121.53066","24.97056","6500600","新店區"
"231014","AAD-862","2018/04/30 13:19:50","新北市新店區光明街31號","121.538413333333","24.959735","6500600","新店區"
"231038","3712-VJ","2018/04/30 13:19:35","新北市新店區安華路28-1號","121.519253333333","24.96065","6500600","新店區"
"231037","4716-K9","2018/04/30 13:19:48","新北市新店區安華路28-1號","121.519735","24.960995","6500600","新店區"
"231025","4715-K9","2018/04/30 13:19:47","新北市新店區中央五街42-1號","121.528326666667","24.975095","6500600","新店區"
"231036","512-UM","2018/04/30 13:19:37","新北市新店區安康路三段440-5號","121.48468","24.9513733333333","6500600","新店區"
"231013","513-UM","2018/04/30 13:18:50","新北市新店區安康路一段319號","121.522143333333","24.9636833333333","6500600","新店區"
"231034","616-UM","2018/04/30 13:19:50","新北市新店區安華路28-1號","121.519206666667","24.96062","6500600","新店區"
"231030","619-UM","2018/04/30 13:19:51","新北市新店區安華路28-1號","121.519605","24.96092","6500600","新店區"
"231035","719-UM","2018/04/30 13:19:36","新北市新店區安華路28-1號","121.519531666667","24.9613083333333","6500600","新店區"
"231031","720-UM","2018/04/30 13:19:48","新北市新店區安華路28-1號","121.519231666667","24.96124","6500600","新店區"
"231029","897-TW","2018/04/30 13:19:49","新北市新店區安華路28-1號","121.519578333333","24.9608383333333","6500600","新店區"
"231006","898-TW","2018/04/30 13:19:37","新北市新店區安華路28-1號","121.519336666667","24.9610216666667","6500600","新店區"
"231004","899-TW","2018/04/30 13:19:36","新北市新店區安華路28-1號","121.519203333333","24.9608383333333","6500600","新店區"
"231024","AKT-0513","2018/04/30 13:19:43","新北市新店區安康路一段17號","121.533191666667","24.96044","6500600","新店區"
"235028","005-UY","2018/04/30 13:19:37","新北市中和區圓通路208號","121.495933333333","24.9939","6500300","中和區"
"235027","006-UY","2018/04/30 13:19:34","新北市中和區中正路589巷15號","121.485883333333","24.99366","6500300","中和區"
"235020","096-UM","2018/04/30 13:19:45","新北市中和區員山路36巷13號","121.484331666667","24.9913916666667","6500300","中和區"
"235003","097-UM","2018/04/30 13:19:36","新北市中和區景新街170號","121.505866666667","24.996595","6500300","中和區"
"235029","098-UM","2018/04/30 13:19:31","新北市中和區莊敬路49巷20弄20號","121.502676666667","25.0057616666667","6500300","中和區"
"235004","150-BY","2018/04/30 13:17:42","新北市中和區中正路275號","121.49555","24.9937983333333","6500300","中和區"
"235022","151-BY","2018/04/30 13:19:33","新北市中和區圓通路369巷39號","121.489696666667","24.9861533333333","6500300","中和區"
"235019","183-VK","2018/04/30 13:19:50","新北市中和區中正路637巷52弄3號","121.485261666667","24.9937083333333","6500300","中和區"
"235013","186-VK","2018/04/30 13:19:45","新北市中和區錦和路350-1號","121.490303333333","24.9936166666667","6500300","中和區"
"235031","255-BX","2018/04/30 13:19:51","新北市中和區民樂路76號","121.484323333333","25.0011516666667","6500300","中和區"
"235036","301-VK","2018/04/30 13:19:44","新北市中和區連城路265號","121.491343333333","24.996355","6500300","中和區"
"235007","352-BY","2018/04/30 13:19:50","新北市中和區景平路381號","121.503811666667","24.993505","6500300","中和區"
"235032","377-QA","2018/04/30 13:19:37","新北市中和區員山路36巷16-3號","121.485116666667","24.9912666666667","6500300","中和區"
"235025","378-QA","2018/04/30 13:19:36","新北市中和區國光街215巷24弄15號","121.4668","25.00015","6500300","中和區"
"235014","4979-A6","2018/04/30 13:19:39","新北市中和區捷運路61巷28號","121.509193333333","24.9892783333333","6500300","中和區"
"235033","4980-A6","2018/04/30 13:19:51","新北市中和區連城路299號","121.489985","24.9962733333333","6500300","中和區"
"235006","551-UM","2018/04/30 13:19:39","新北市中和區景平路276-1號","121.513866666667","24.99236","6500300","中和區"
"235034","558-UM","2018/04/30 13:19:39","新北市中和區圓通路123號","121.499243333333","24.99617","6500300","中和區"
"235009","565-BX","2018/04/30 13:19:47","新北市中和區復興路301巷27號","121.50201","24.9897133333333","6500300","中和區"
"235018","640-BX","2018/04/30 13:19:47","新北市中和區民享街86巷21號","121.473423333333","25.0005916666667","6500300","中和區"
"235024","647-TV","2018/04/30 13:19:51","新北市中和區連城路314號","121.483538333333","24.99614","6500300","中和區"
"235011","732-UM","2018/04/30 13:19:41","新北市中和區復興路18號","121.505513333333","24.98989","6500300","中和區"
"235035","783-BX","2018/04/30 13:19:41","新北市中和區永和路458巷2弄2號","121.48402","25.01224","6500300","中和區"
"235026","800-TS","2018/04/30 13:19:49","新北市中和區景平路999巷1號","121.495556666667","25.0060383333333","6500300","中和區"
"235021","801-TS","2018/04/30 13:19:39","新北市中和區民安街148號","121.477706666667","24.999885","6500300","中和區"
"235005","802-TS","2018/04/30 13:19:45","新北市中和區景安路145號","121.505565","24.9953966666667","6500300","中和區"
"235016","805-TS","2018/04/30 13:19:31","新北市中和區興南路二段96號","121.505023333333","24.9840683333333","6500300","中和區"
"235012","896-TW","2018/04/30 13:19:41","新北市中和區員山路36巷16-3號","121.484981666667","24.9918616666667","6500300","中和區"
"235017","900-TW","2018/04/30 13:19:43","新北市中和區員山路36巷16-2號","121.485015","24.991795","6500300","中和區"
"235030","911-UM","2018/04/30 13:19:37","新北市中和區中山路二段120號","121.502711666667","25.0036533333333","6500300","中和區"
"235015","157-BY","2018/04/30 13:19:40","新北市中和區信義街107號","121.51208","24.9870216666667","6500300","中和區"
"235001","AAC-213","2018/04/30 13:19:37","新北市中和區景德街80號","121.516503333333","24.9914716666667","6500300","中和區"
"235023","AAC-215","2018/04/30 13:19:40","新北市中和區員山路36巷16-3號","121.484945","24.9913366666667","6500300","中和區"
"247009","341-TH","2018/04/30 13:19:48","新北市五股區中興路三段163號","121.449271666667","25.0807016666667","6501400","蘆洲區"
"253003","6232-TK","2018/04/30 13:19:31","新北市石門區內石門83-1號","121.569485","25.2638866666667","6502200","石門區"
"253001","6251-TK","2018/04/30 13:19:49","新北市石門區楓林11號","121.53669","25.29461","6502200","石門區"
"253002","637-UY","2018/04/30 13:19:41","新北市石門區大溪墘8號","121.551461666667","25.2754833333333","6502200","石門區"
"253004","8270-PC","2018/04/30 13:19:36","新北市石門區阿里荖69號","121.612291666667","25.2709516666667","6502200","石門區"
"207002","749-BX","2018/04/30 13:19:37","新北市萬里區崁腳里崁腳路166號","121.645088333333","25.1558566666667","6502800","萬里區"
"207001","662-BX","2018/04/30 13:19:41","新北市萬里區龜吼里新墾丁路30號","121.679675","25.194315","6502800","萬里區"
"252005","AAC-283","2018/04/30 13:19:47","新北市三芝區福德里土地公埔67-3號","121.519923333333","25.227845","6502100","三芝區"
"236005","498-BY","2018/04/30 13:19:32","新北市土城區亞洲路9號","121.434376666667","24.9722733333333","6501300","土城區"
"242047","172-VK","2018/04/30 13:19:40","新北市新莊區富國路117號","121.42403","25.0246783333333","6500500","新莊區"
"221032","280-BY","2018/04/30 13:19:40","新北市汐止區龍安路202巷14號","121.652943333333","25.063205","6501100","汐止區"
"220030","610-BX","2018/04/30 13:19:47","新北市板橋區華東街1-9號","121.448225","24.9949733333333","6500100","板橋區"
"220025","687-BX","2018/04/30 13:19:48","新北市板橋區華東街1-10號","121.44828","24.9949983333333","6500100","板橋區"
"220021","985-R7","2018/04/30 13:19:41","新北市板橋區華東街1-10號","121.448291666667","24.9949933333333","6500100","板橋區"
"220018","AAC-253","2018/04/30 13:19:48","新北市板橋區華東街1-9號","121.44826","24.9948833333333","6500100","板橋區"
