"lineid","car","time","location","longitude","latitude","cityid","cityname"
"234044","148-BY","2018/04/30 13:39:39","新北市永和區永元路94號","121.522461666667","25.0016816666667","6500400","永和區"
"234005","207-UY","2018/04/30 13:39:41","新北市永和區中山路一段30號","121.513635","25.010655","6500400","永和區"
"234078","298-R6","2018/04/30 13:39:43","新北市永和區林森路20巷7號","121.525845","25.005775","6500400","永和區"
"234036","336-UY","2018/04/30 13:39:49","新北市永和區民樂街21號","121.527623333333","25.002005","6500400","永和區"
"234062","337-UY","2018/04/30 13:39:50","新北市永和區秀朗路一段192巷6弄1號","121.519226666667","25.0022783333333","6500400","永和區"
"234084","338-UY","2018/04/30 13:39:37","新北市永和區永亨路122號","121.524351666667","25.0041566666667","6500400","永和區"
"234068","552-UM","2018/04/30 13:39:43","新北市永和區永和路二段216號","121.51573","25.0140816666667","6500400","永和區"
"234066","553-UM","2018/04/30 13:39:46","新北市永和區永貞路406巷28號","121.509731666667","25.00791","6500400","永和區"
"234015","745-BX","2018/04/30 13:39:50","新北市永和區永和路二段425巷18號","121.514788333333","25.017765","6500400","永和區"
"234028","746-BX","2018/04/30 13:39:37","新北市永和區民權路3號","121.520401666667","24.9984216666667","6500400","永和區"
"234052","KEA-2590","2018/04/30 13:39:45","新北市永和區竹林路23號","121.517303333333","25.0146733333333","6500400","永和區"
"234012","KEA-2591","2018/04/30 13:39:34","新北市永和區永平路201號","121.50948","25.0099516666667","6500400","永和區"
"234060","AAD-866","2018/04/30 13:39:41","新北市永和區中正路404號","121.517601666667","25.0019216666667","6500400","永和區"
"234040","862-TW","2018/04/30 13:39:47","新北市永和區中和路543號","121.511461666667","25.0031516666667","6500400","永和區"
"234048","863-TW","2018/04/30 13:39:41","新北市永和區保安路13號","121.510461666667","25.0168666666667","6500400","永和區"
"234025","9371-KE","2018/04/30 13:39:38","新北市永和區中山路一段149號","121.510163333333","25.00946","6500400","永和區"
"234010","9373-KE","2018/04/30 13:39:42","新北市永和區保福路二段15巷9號","121.51058","25.010945","6500400","永和區"
"248015","026-BX","2018/04/30 13:39:37","新北市五股區凌雲路一段149巷42號","121.448608333333","25.1009783333333","6501500","五股區"
"248005","077-UY","2018/04/30 13:39:40","新北市五股區中興路一段56號","121.467858333333","25.0726916666667","6501500","五股區"
"248007","095-VK","2018/04/30 13:39:42","新北市五股區中興路一段146號","121.464753333333","25.0739983333333","6501500","五股區"
"248019","225-UY","2018/04/30 13:39:34","新北市五股區孝義路87號","121.44493","25.1199166666667","6501500","五股區"
"248011","247-BX","2018/04/30 13:39:52","新北市五股區成泰路二段195巷1號","121.440393333333","25.0874133333333","6501500","五股區"
"248013","261-SL","2018/04/30 13:39:35","新北市五股區中興路四段74號","121.436915","25.0836166666667","6501500","五股區"
"248003","677-BX","2018/04/30 13:39:48","新北市五股區民義路一段236-5號","121.427346666667","25.0913466666667","6501500","五股區"
"248001","678-BX","2018/04/30 13:39:49","新北市五股區成泰路三段435巷11號","121.449411666667","25.09784","6501500","五股區"
"248009","682-TV","2018/04/30 13:39:33","新北市五股區水碓一路63號","121.431823333333","25.0725383333333","6501500","五股區"
"234076","969-R7","2018/04/30 13:39:48","新北市永和區得和路233號","121.52","25.00015","6500400","永和區"
"234072","AAC-211","2018/04/30 13:39:44","新北市永和區福和路76巷6弄1號","121.52304","25.008475","6500400","永和區"
"234001","AAC-295","2018/04/30 13:39:43","新北市永和區秀朗路一段22號","121.51403","25.00678","6500400","永和區"
"244001","248-BX","2018/04/30 13:39:49","新北市林口區瑞平里8鄰53號","121.342808333333","25.1219933333333","6501700","林口區"
"243004","AAD-798","2018/04/30 13:39:40","新北市泰山區泰林路二段232號","121.432448333333","25.0620133333333","6501600","泰山區"
"243007","380-SR","2018/04/30 13:39:46","新北市泰山區犁頭窠3-1號","121.421923333333","25.0600483333333","6501600","泰山區"
"243006","421-VK","2018/04/30 13:39:51","新北市泰山區黎明路25號","121.422096666667","25.060625","6501600","泰山區"
"243005","646-TV","2018/04/30 13:39:36","新北市泰山區明志路三段206巷10號","121.423246666667","25.0380066666667","6501600","泰山區"
"243008","680-BX","2018/04/30 13:39:42","新北市泰山區泰林路二段505號","121.424458333333","25.063865","6501600","泰山區"
"231002","002-UM","2018/04/30 13:39:50","新北市新店區中央三街127號","121.524028333333","24.9768783333333","6500600","新店區"
"231027","0293-UT","2018/04/30 13:39:46","新北市新店區新店後街20-1號","121.538378333333","24.9532033333333","6500600","新店區"
"231028","046-UY","2018/04/30 13:39:41","新北市新店區安和路二段3-5號","121.517955","24.9673","6500600","新店區"
"231001","047-UY","2018/04/30 13:39:48","新北市新店區中正路404號","121.534506666667","24.9775483333333","6500600","新店區"
"231005","106-UY","2018/04/30 13:39:46","新北市新店區寶中路72號","121.54795","24.98063","6500600","新店區"
"231010","107-UY","2018/04/30 13:39:52","新北市新店區中正路307巷22號","121.53597","24.9739316666667","6500600","新店區"
"231019","108-UY","2018/04/30 13:39:44","新北市新店區永興路90號","121.544318333333","24.931565","6500600","新店區"
"231011","187-VK","2018/04/30 13:39:44","新北市新店區德正街27巷1號","121.544578333333","24.9714366666667","6500600","新店區"
"231023","KEA-2219","2018/04/30 13:39:43","新北市新店區新店路132號","121.53719","24.9551566666667","6500600","新店區"
"231026","256-BX","2018/04/30 13:39:47","新北市新店區中正路152號","121.541565","24.9716983333333","6500600","新店區"
"231003","268-BY","2018/04/30 13:39:34","新北市新店區中興路一段282號","121.545785","24.9685616666667","6500600","新店區"
"231018","278-BY","2018/04/30 13:39:44","新北市新店區百忍街46號","121.53337","24.9760683333333","6500600","新店區"
"231014","AAD-862","2018/04/30 13:39:50","新北市新店區竹林路2巷27弄11號","121.550928333333","24.950885","6500600","新店區"
"231038","3712-VJ","2018/04/30 13:39:35","新北市新店區安華路30巷1號","121.519575","24.9592766666667","6500600","新店區"
"231037","4716-K9","2018/04/30 13:39:48","新北市新店區薏仁坑路57號","121.491","24.9642","6500600","新店區"
"231025","4715-K9","2018/04/30 13:39:47","新北市新店區中央六街52號","121.528038333333","24.975585","6500600","新店區"
"231036","512-UM","2018/04/30 13:39:38","新北市新店區安祥路145巷31號","121.47541","24.956655","6500600","新店區"
"231013","513-UM","2018/04/30 13:39:45","新北市新店區中正路454-5號","121.534396666667","24.9790983333333","6500600","新店區"
"231034","616-UM","2018/04/30 13:39:50","新北市新店區車子路121號","121.505215","24.9500916666667","6500600","新店區"
"231030","619-UM","2018/04/30 13:39:51","新北市新店區安康路一段206號","121.524058333333","24.96352","6500600","新店區"
"231035","719-UM","2018/04/30 13:39:36","新北市新店區安忠路56巷6號","121.512948333333","24.9594466666667","6500600","新店區"
"231031","720-UM","2018/04/30 13:39:48","新北市新店區安康路一段110巷2號","121.527195","24.9625783333333","6500600","新店區"
"231029","897-TW","2018/04/30 13:39:49","新北市新店區安康路二段330號","121.504093333333","24.957815","6500600","新店區"
"231006","898-TW","2018/04/30 13:39:49","新北市新店區北宜路一段97號","121.539078333333","24.95548","6500600","新店區"
"231004","899-TW","2018/04/30 13:39:36","新北市新店區北新路二段18號","121.542761666667","24.9712716666667","6500600","新店區"
"231024","AKT-0513","2018/04/30 13:39:43","新北市新店區中華路64號","121.53924","24.968955","6500600","新店區"
"235028","005-UY","2018/04/30 13:39:37","新北市中和區連城路109巷32號","121.497053333333","24.9982133333333","6500300","中和區"
"235027","006-UY","2018/04/30 13:39:34","新北市中和區連城路403號","121.486175","24.996155","6500300","中和區"
"235020","096-UM","2018/04/30 13:39:45","新北市中和區員山路466巷17弄17號","121.480521666667","25.0071766666667","6500300","中和區"
"235003","097-UM","2018/04/30 13:39:36","新北市中和區大勇街25巷15弄21-3號","121.515086666667","24.9936366666667","6500300","中和區"
"235029","098-UM","2018/04/30 13:39:51","新北市中和區莊敬路33巷48號","121.500553333333","25.007065","6500300","中和區"
"235004","150-BY","2018/04/30 13:38:42","新北市中和區興南路一段135巷24號","121.50945","24.9862483333333","6500300","中和區"
"235022","151-BY","2018/04/30 13:39:33","新北市中和區圓通路369巷39-30號","121.489735","24.9856766666667","6500300","中和區"
"235019","183-VK","2018/04/30 13:39:50","新北市中和區莒光路120巷17弄4號","121.471823333333","25.0009016666667","6500300","中和區"
"235013","186-VK","2018/04/30 13:39:45","新北市中和區明義街4號","121.505153333333","24.9949633333333","6500300","中和區"
"235031","255-BX","2018/04/30 13:39:31","新北市中和區新生街220巷4號","121.48289","24.9986483333333","6500300","中和區"
"235008","293-VK","2018/04/30 13:39:47","新北市中和區復興路280巷15號","121.502298333333","24.9913033333333","6500300","中和區"
"235036","301-VK","2018/04/30 13:39:44","新北市中和區連城路89巷1號","121.496673333333","25.00015","6500300","中和區"
"235007","352-BY","2018/04/30 13:39:50","新北市中和區景德街86號","121.516301666667","24.9918033333333","6500300","中和區"
"235032","377-QA","2018/04/30 13:39:37","新北市中和區中正路211巷29號","121.497885","24.99271","6500300","中和區"
"235025","378-QA","2018/04/30 13:39:36","新北市中和區民享街92號","121.474815","24.9998833333333","6500300","中和區"
"235014","4979-A6","2018/04/30 13:39:48","新北市中和區景新街496巷28弄7號","121.513456666667","24.985695","6500300","中和區"
"235033","4980-A6","2018/04/30 13:39:51","新北市中和區連城路87號","121.496718333333","25.0003583333333","6500300","中和區"
"235006","551-UM","2018/04/30 13:39:39","新北市中和區成功路97巷7號","121.526465","24.99196","6500300","中和區"
"235034","558-UM","2018/04/30 13:39:39","新北市中和區南華路53號","121.504063333333","24.9970183333333","6500300","中和區"
"235009","565-BX","2018/04/30 13:39:47","新北市中和區南山路236巷63弄1號","121.503838333333","24.9876183333333","6500300","中和區"
"235018","640-BX","2018/04/30 13:39:47","新北市中和區民享街32巷20號","121.472846666667","25.0031766666667","6500300","中和區"
"235024","647-TV","2018/04/30 13:39:31","新北市中和區中山路二段525號","121.481708333333","25.0053016666667","6500300","中和區"
"235011","732-UM","2018/04/30 13:39:41","新北市中和區興南路一段164號","121.508061666667","24.9866083333333","6500300","中和區"
"235035","783-BX","2018/04/30 13:39:41","新北市中和區立德街98巷65號","121.487488333333","25.0096883333333","6500300","中和區"
"235026","800-TS","2018/04/30 13:37:28","新北市中和區景平路677巷3號","121.49637","25.0026366666667","6500300","中和區"
"235021","801-TS","2018/04/30 13:39:39","新北市中和區員山路327巷72號","121.479713333333","25.00213","6500300","中和區"
"235005","802-TS","2018/04/30 13:39:45","新北市永和區中和路523號","121.511145","25.0026883333333","6500300","中和區"
"235016","805-TS","2018/04/30 13:39:51","新北市中和區興南路三段21號","121.49687","24.9792216666667","6500300","中和區"
"235012","896-TW","2018/04/30 13:39:41","新北市中和區中正路87號","121.500586666667","24.993545","6500300","中和區"
"235017","900-TW","2018/04/30 13:39:43","新北市中和區莒光路213號","121.469051666667","24.9946283333333","6500300","中和區"
"235030","911-UM","2018/04/30 13:39:37","新北市中和區光華街64號","121.505598333333","25.00349","6500300","中和區"
"235015","157-BY","2018/04/30 13:39:40","新北市中和區興南路二段110號","121.504531666667","24.9841016666667","6500300","中和區"
"235001","AAC-213","2018/04/30 13:39:37","新北市中和區景德街56號","121.517413333333","24.9915616666667","6500300","中和區"
"235023","AAC-215","2018/04/30 13:39:40","新北市中和區錦和路350-1號","121.490225","24.993555","6500300","中和區"
"220016","013-TV","2018/04/30 13:39:43","新北市板橋區民生路二段120號","121.470573333333","25.01963","6500100","板橋區"
"220013","072-UY","2018/04/30 13:39:39","新北市板橋區四川路二段130巷25弄8-1號","121.449063333333","24.9944983333333","6500100","板橋區"
"220034","073-UY","2018/04/30 13:39:46","新北市板橋區南雅西路二段145巷10號","121.451586666667","25.01199","6500100","板橋區"
"220017","AAD-861","2018/04/30 13:39:50","新北市板橋區華東街1-10號","121.448373333333","24.9950983333333","6500100","板橋區"
"247009","341-TH","2018/04/30 13:39:48","新北市五股區成泰路三段318-1號","121.450401666667","25.0964733333333","6501400","蘆洲區"
"247019","001-UY","2018/04/30 13:39:47","新北市五股區成泰路三段358號","121.451136666667","25.0979333333333","6501400","蘆洲區"
"253003","6232-TK","2018/04/30 13:39:51","新北市石門區中央路16-19號","121.568336666667","25.29031","6502200","石門區"
"253001","6251-TK","2018/04/30 13:39:49","新北市三芝區新庄里新庄子48-11號","121.506536666667","25.2789666666667","6502200","石門區"
"253002","637-UY","2018/04/30 13:39:41","新北市石門區內石門78-1號","121.568706666667","25.2563216666667","6502200","石門區"
"253004","8270-PC","2018/04/30 13:39:36","新北市石門區阿里荖63-1號","121.607681666667","25.26707","6502200","石門區"
"207002","749-BX","2018/04/30 13:39:37","新北市萬里區崁腳里崁腳路166號","121.645046666667","25.15588","6502800","萬里區"
"207001","662-BX","2018/04/30 13:39:41","新北市萬里區磺潭里公館崙28號","121.63284","25.2119283333333","6502800","萬里區"
"252005","AAC-283","2018/04/30 13:39:47","新北市三芝區圓山里內柑宅25號","121.539088333333","25.2182133333333","6502100","三芝區"
"236040","107-UM","2018/04/30 13:39:32","新北市土城區城林路6巷80號","121.438458333333","24.9797616666667","6501300","土城區"
"236074","166-UM","2018/04/30 13:39:37","新北市土城區城林路6巷80號","121.43829","24.9794966666667","6501300","土城區"
"236012","270-VK","2018/04/30 13:39:33","新北市土城區城林路6巷80號","121.438806666667","24.9795766666667","6501300","土城區"
"236005","498-BY","2018/04/30 13:39:52","新北市土城區慶祥街2號","121.438131666667","24.9748383333333","6501300","土城區"
"236057","912-UM","2018/04/30 13:39:42","新北市土城區城林路6巷80號","121.438406666667","24.9797616666667","6501300","土城區"
"236045","913-UM","2018/04/30 13:39:38","新北市土城區城林路6巷80號","121.43854","24.9796366666667","6501300","土城區"
"236060","915-UM","2018/04/30 13:39:48","新北市土城區城林路6巷80號","121.438635","24.9797816666667","6501300","土城區"
"236054","AAC-216","2018/04/30 13:39:52","新北市土城區城林路6巷80號","121.438728333333","24.9796916666667","6501300","土城區"
"242047","172-VK","2018/04/30 13:39:39","新北市新莊區新樹路657巷9號","121.433183333333","25.0029966666667","6500500","新莊區"
"221032","280-BY","2018/04/30 13:39:40","新北市汐止區水源路一段56號","121.657498333333","25.0656183333333","6501100","汐止區"
"220027","145-BY","2018/04/30 13:39:50","新北市板橋區大智街71巷42弄16號","121.452226666667","25.0147433333333","6500100","板橋區"
"220028","200-UY","2018/04/30 13:39:37","新北市板橋區大觀路二段431-1號","121.441428333333","24.9950516666667","6500100","板橋區"
"220030","610-BX","2018/04/30 13:39:47","新北市板橋區篤行路一段29號","121.431968333333","24.9946383333333","6500100","板橋區"
"220004","276-BY","2018/04/30 13:39:37","新北市板橋區四川路二段140巷12號","121.449506666667","24.99322","6500100","板橋區"
"220020","277-BY","2018/04/30 13:39:43","新北市板橋區大觀路三段129號","121.43257","24.9941966666667","6500100","板橋區"
"220043","283-UM","2018/04/30 13:39:50","新北市板橋區民生路二段161巷1號","121.470085","25.0198216666667","6500100","板橋區"
"220019","283-VK","2018/04/30 13:39:39","新北市板橋區四川路二段140巷2號","121.449888333333","24.99308","6500100","板橋區"
"220001","285-VK","2018/04/30 13:39:41","新北市板橋區民生路二段120號","121.470408333333","25.019745","6500100","板橋區"
"220031","286-VK","2018/04/30 13:39:48","新北市板橋區大觀路二段18號","121.446781666667","25.0034133333333","6500100","板橋區"
"220029","287-VK","2018/04/30 13:39:49","新北市板橋區大觀路一段73號","121.44714","25.00458","6500100","板橋區"
"220039","288-VK","2018/04/30 13:39:45","新北市板橋區民生路二段161巷9號","121.470256666667","25.0196433333333","6500100","板橋區"
"220009","295-UM","2018/04/30 13:39:47","新北市板橋區民生路二段161巷1號","121.470206666667","25.0198566666667","6500100","板橋區"
"220032","296-UM","2018/04/30 13:39:37","新北市板橋區大觀路二段128號","121.443626666667","24.9992916666667","6500100","板橋區"
"220023","303-R5","2018/04/30 13:39:38","新北市板橋區華東街260號","121.452648333333","25.0018933333333","6500100","板橋區"
"220010","305-R5","2018/04/30 13:39:44","新北市板橋區民生路二段120號","121.470416666667","25.019765","6500100","板橋區"
"220041","307-R5","2018/04/30 13:39:38","新北市板橋區民生路二段120號","121.470431666667","25.0198283333333","6500100","板橋區"
"220047","317-R6","2018/04/30 13:39:33","新北市板橋區民生路二段161巷9號","121.470295","25.01968","6500100","板橋區"
"220012","486-VK","2018/04/30 13:39:32","新北市板橋區民生路二段36-1號","121.472053333333","25.0168116666667","6500100","板橋區"
"220052","561-BX","2018/04/30 13:39:35","新北市板橋區民生路二段120號","121.470435","25.01952","6500100","板橋區"
"220011","609-BX","2018/04/30 13:39:51","新北市板橋區民生路二段161巷1號","121.469931666667","25.02012","6500100","板橋區"
"220003","630-UY","2018/04/30 13:39:36","新北市板橋區華東街1-8號","121.447766666667","24.99482","6500100","板橋區"
"220005","686-BX","2018/04/30 13:39:52","新北市板橋區華東街1-9號","121.448165","24.99493","6500100","板橋區"
"220025","687-BX","2018/04/30 13:39:48","新北市板橋區大觀路三段212巷70號","121.429805","24.9935083333333","6500100","板橋區"
"220042","689-BX","2018/04/30 13:39:46","新北市板橋區民生路二段161巷1號","121.47016","25.0201266666667","6500100","板橋區"
"220002","741-BX","2018/04/30 13:39:39","新北市板橋區板城路421號","121.448098333333","24.9956783333333","6500100","板橋區"
"220014","829-TW","2018/04/30 13:39:36","新北市板橋區民生路二段161巷3號","121.470285","25.0198","6500100","板橋區"
"220022","895-R6","2018/04/30 13:39:53","新北市板橋區南雅南路一段113號","121.455403333333","25.0049","6500100","板橋區"
"220021","985-R7","2018/04/30 13:39:41","新北市板橋區南雅南路二段11-4號","121.454253333333","25.002385","6500100","板橋區"
"220018","AAC-253","2018/04/30 13:39:48","新北市板橋區華東街1-9號","121.448266666667","24.9948833333333","6500100","板橋區"
