"lineid","car","time","location","longitude","latitude","cityid","cityname"
"234005","207-UY","2018/04/30 14:39:16","新北市永和區中正路416號","121.517541666667","25.0021433333333","6500400","永和區"
"234036","336-UY","2018/04/30 14:39:29","新北市新店區安興路65巷18號","121.516103333333","24.973095","6500400","永和區"
"234066","553-UM","2018/04/30 14:39:27","新北市新店區安民街133巷26號","121.515453333333","24.9695866666667","6500400","永和區"
"234028","746-BX","2018/04/30 14:39:18","新北市新店區安和路三段1-1號","121.517026666667","24.97953","6500400","永和區"
"234052","KEA-2590","2018/04/30 14:39:25","新北市永和區光復街2巷26弄1號","121.517665","25.0165866666667","6500400","永和區"
"234040","862-TW","2018/04/30 14:39:27","新北市永和區永和路一段212號","121.514345","25.0094666666667","6500400","永和區"
"234025","9371-KE","2018/04/30 14:39:31","新北市永和區中和路497號","121.510451666667","25.00246","6500400","永和區"
"248015","026-BX","2018/04/30 14:39:37","新北市五股區成泰路四段16號","121.45353","25.1067716666667","6501500","五股區"
"248007","095-VK","2018/04/30 14:39:22","新北市五股區四維路157號","121.467641666667","25.0745916666667","6501500","五股區"
"248019","225-UY","2018/04/30 14:39:33","新北市五股區凌雲路三段71-2號","121.424405","25.1246483333333","6501500","五股區"
"248011","247-BX","2018/04/30 14:39:33","新北市五股區民義路一段65號","121.4359","25.0850166666667","6501500","五股區"
"248013","261-SL","2018/04/30 14:39:22","新北市五股區五福路42巷10號","121.434245","25.0896083333333","6501500","五股區"
"248003","677-BX","2018/04/30 14:39:28","新北市五股區成泰路二段82號","121.43741","25.08226","6501500","五股區"
"248001","678-BX","2018/04/30 14:39:29","新北市五股區成泰路三段257號","121.446743333333","25.093635","6501500","五股區"
"248009","682-TV","2018/04/30 14:39:32","新北市五股區登林路74-3號","121.431076666667","25.0693783333333","6501500","五股區"
"234022","9380-KE","2018/04/30 14:39:20","新北市永和區光復街2巷16弄9號","121.517603333333","25.016345","6500400","永和區"
"234072","AAC-211","2018/04/30 14:39:20","新北市永和區環河東路二段20號","121.522261666667","25.0131466666667","6500400","永和區"
"234001","AAC-295","2018/04/30 14:39:18","新北市永和區中正路553號","121.516846666667","25.0082816666667","6500400","永和區"
"244001","248-BX","2018/04/30 14:39:09","新北市林口區瑞平里33-1號","121.348338333333","25.129025","6501700","林口區"
"243004","AAD-798","2018/04/30 14:39:20","新北市泰山區楓江路23-1號","121.434116666667","25.0625","6501600","泰山區"
"243003","297-R6","2018/04/30 14:39:26","新北市泰山區新北大道六段100號","121.427525","25.037795","6501600","泰山區"
"243007","380-SR","2018/04/30 14:39:26","新北市泰山區明志路二段237巷19號","121.427941666667","25.0480116666667","6501600","泰山區"
"243006","421-VK","2018/04/30 14:39:31","新北市泰山區泰林路二段33-8號","121.43514","25.0564483333333","6501600","泰山區"
"243002","KEA-2215","2018/04/30 14:39:17","新北市泰山區明志路二段47號","121.42948","25.0528133333333","6501600","泰山區"
"243001","KEA-2216","2018/04/30 14:39:26","新北市泰山區明志路一段122巷26號","121.431591666667","25.0641933333333","6501600","泰山區"
"243005","646-TV","2018/04/30 14:39:36","新北市泰山區應化街13號","121.423878333333","25.0436416666667","6501600","泰山區"
"243008","680-BX","2018/04/30 14:39:31","新北市泰山區貴陽街42號","121.423428333333","25.032365","6501600","泰山區"
"231002","002-UM","2018/04/30 14:39:32","新北市新店區中正路366號","121.535328333333","24.9760533333333","6500600","新店區"
"231027","0293-UT","2018/04/30 14:39:20","新北市新店區中正路187號","121.540791666667","24.9722516666667","6500600","新店區"
"231028","046-UY","2018/04/30 14:39:20","新北市新店區安成街39號","121.509761666667","24.961235","6500600","新店區"
"231001","047-UY","2018/04/30 14:39:28","新北市新店區中正路4號","121.545738333333","24.96943","6500600","新店區"
"231005","106-UY","2018/04/30 14:39:26","新北市新店區順安街51號","121.540781666667","24.986155","6500600","新店區"
"231019","108-UY","2018/04/30 14:39:24","新北市新店區金興路1號","121.548495","24.9295016666667","6500600","新店區"
"231011","187-VK","2018/04/30 14:39:24","新北市新店區寶宏路38號","121.54945","24.97555","6500600","新店區"
"231023","KEA-2219","2018/04/30 14:39:24","新北市新店區檳榔路21號","121.541595","24.96378","6500600","新店區"
"231003","268-BY","2018/04/30 14:39:34","新北市新店區中興路一段292號","121.546003333333","24.96908","6500600","新店區"
"231018","278-BY","2018/04/30 14:39:24","新北市新店區中央二街7-3號","121.529236666667","24.97325","6500600","新店區"
"231014","AAD-862","2018/04/30 14:39:30","新北市新店區北宜路三段221號","121.592371666667","24.95322","6500600","新店區"
"231037","4716-K9","2018/04/30 14:39:28","新北市新店區安興路20號","121.515031666667","24.96601","6500600","新店區"
"231036","512-UM","2018/04/30 14:39:18","新北市新店區安祥路106巷222號","121.473861666667","24.96015","6500600","新店區"
"231013","513-UM","2018/04/30 14:39:25","新北市新店區北新路二段139巷12弄2號","121.542181666667","24.9759966666667","6500600","新店區"
"231034","616-UM","2018/04/30 14:39:30","新北市新店區黎明路51巷1號","121.501988333333","24.9493066666667","6500600","新店區"
"231030","619-UM","2018/04/30 14:39:32","新北市新店區安民街67-3號","121.516116666667","24.96676","6500600","新店區"
"231035","719-UM","2018/04/30 14:39:17","新北市新店區安民街3巷6弄2號","121.514826666667","24.9642616666667","6500600","新店區"
"231029","897-TW","2018/04/30 14:39:29","新北市新店區安康路三段351號","121.484943333333","24.9513633333333","6500600","新店區"
"231006","898-TW","2018/04/30 14:39:33","新北市新店區北宜路二段129號","121.550926666667","24.95308","6500600","新店區"
"231004","899-TW","2018/04/30 14:39:15","新北市新店區中正路263-5號","121.538236666667","24.973885","6500600","新店區"
"231024","AKT-0513","2018/04/30 14:39:32","新北市新店區新生街3巷2號","121.540388333333","24.9657633333333","6500600","新店區"
"235028","005-UY","2018/04/30 14:39:17","新北市中和區南山路127巷18弄1號","121.503553333333","24.9974883333333","6500300","中和區"
"235027","006-UY","2018/04/30 14:39:14","新北市中和區連城路174巷36-1號","121.492821666667","24.9986816666667","6500300","中和區"
"235020","096-UM","2018/04/30 14:39:25","新北市中和區員山路581巷31弄22號","121.47666","25.01034","6500300","中和區"
"235003","097-UM","2018/04/30 14:39:16","新北市中和區景德街1號","121.519166666667","24.9914216666667","6500300","中和區"
"235029","098-UM","2018/04/30 14:39:30","新北市中和區福祥路126號","121.498841666667","25.00662","6500300","中和區"
"235004","150-BY","2018/04/30 14:39:26","新北市中和區宜安路23巷33號","121.511971666667","24.994745","6500300","中和區"
"235022","151-BY","2018/04/30 14:39:33","新北市中和區員山路124巷5號","121.481675","24.995985","6500300","中和區"
"235019","183-VK","2018/04/30 14:39:30","新北市中和區民生街14號","121.470378333333","25.0055283333333","6500300","中和區"
"235013","186-VK","2018/04/30 14:39:25","新北市中和區景新街214號","121.507075","24.99518","6500300","中和區"
"235031","255-BX","2018/04/30 14:39:31","新北市中和區新生街237號","121.483863333333","24.9990166666667","6500300","中和區"
"235008","293-VK","2018/04/30 14:39:27","新北市中和區捷運路8號","121.509775","24.9895783333333","6500300","中和區"
"235036","301-VK","2018/04/30 14:39:24","新北市中和區中和路42號","121.500328333333","25.00115","6500300","中和區"
"235007","352-BY","2018/04/30 14:39:30","新北市中和區景平路480號","121.505213333333","24.99361","6500300","中和區"
"235032","377-QA","2018/04/30 14:39:17","新北市中和區景平路736巷5弄11號","121.497755","25.003595","6500300","中和區"
"235025","378-QA","2018/04/30 14:39:16","新北市中和區員山路226巷13弄1號","121.482166666667","25.0000983333333","6500300","中和區"
"235014","4979-A6","2018/04/30 14:39:19","新北市中和區中正路275號","121.495455","24.9938066666667","6500300","中和區"
"235006","551-UM","2018/04/30 14:39:19","新北市中和區宜安路173號","121.508385","24.999265","6500300","中和區"
"235034","558-UM","2018/04/30 14:39:19","新北市中和區景平路668號","121.497111666667","25.000825","6500300","中和區"
"235009","565-BX","2018/04/30 14:39:27","新北市中和區景平路183號","121.511745","24.9923716666667","6500300","中和區"
"235018","640-BX","2018/04/30 14:39:27","新北市中和區德光路76號","121.469166666667","25.0037483333333","6500300","中和區"
"235024","647-TV","2018/04/30 14:39:31","新北市中和區中山路二段523巷28號","121.481763333333","25.0038933333333","6500300","中和區"
"235011","732-UM","2018/04/30 14:39:21","新北市中和區南山路174-2號","121.505028333333","24.9912466666667","6500300","中和區"
"235010","733-UM","2018/04/30 14:39:17","新北市中和區四維街37巷1號","121.512543333333","24.9869466666667","6500300","中和區"
"235035","783-BX","2018/04/30 14:39:21","新北市中和區連城路469巷21弄22號","121.484235","24.99507","6500300","中和區"
"235026","800-TS","2018/04/30 14:39:29","新北市中和區中山路二段417號","121.485925","25.0048183333333","6500300","中和區"
"235021","801-TS","2018/04/30 14:39:19","新北市中和區員山路150-24號","121.481365","24.9980266666667","6500300","中和區"
"235005","802-TS","2018/04/30 14:39:25","新北市中和區安平路44號","121.510166666667","24.99536","6500300","中和區"
"235016","805-TS","2018/04/30 14:39:31","新北市中和區華新街143巷49號","121.506306666667","24.98027","6500300","中和區"
"235012","896-TW","2018/04/30 14:39:21","新北市中和區四維街22號","121.512905","24.9871583333333","6500300","中和區"
"235017","900-TW","2018/04/30 14:39:28","新北市中和區民德路146巷14號","121.467785","25.000475","6500300","中和區"
"235030","911-UM","2018/04/30 14:39:17","新北市中和區景新街133號","121.505821666667","24.9971666666667","6500300","中和區"
"235015","157-BY","2018/04/30 14:39:25","新北市中和區中興街178號","121.499668333333","24.9908966666667","6500300","中和區"
"235001","AAC-213","2018/04/30 14:39:17","新北市中和區秀朗路三段52號","121.526441666667","24.9955016666667","6500300","中和區"
"235023","AAC-215","2018/04/30 14:39:20","新北市中和區圓通路305巷5弄2號","121.49359","24.990255","6500300","中和區"
"220016","013-TV","2018/04/30 14:39:23","新北市板橋區中山路二段553巷10號","121.483635","25.0221533333333","6500100","板橋區"
"220013","072-UY","2018/04/30 14:39:19","新北市板橋區民族路237號","121.469913333333","25.0070183333333","6500100","板橋區"
"220034","073-UY","2018/04/30 14:39:26","新北市板橋區國光路1號","121.456488333333","25.0172783333333","6500100","板橋區"
"220105","075-UY","2018/04/30 14:39:18","新北市板橋區江寧路三段57號","121.471791666667","25.0320966666667","6500100","板橋區"
"220017","AAD-861","2018/04/30 14:39:30","新北市板橋區稚暉街13號","121.456386666667","25.0043483333333","6500100","板橋區"
"247023","893-R6","2018/04/30 14:39:27","新北市蘆洲區中山二路222巷20號","121.469316666667","25.080575","6501400","蘆洲區"
"247013","546-UM","2018/04/30 14:39:22","新北市蘆洲區得勝街118號","121.470996666667","25.08277","6501400","蘆洲區"
"247021","500-BY","2018/04/30 14:39:15","新北市蘆洲區民義街9巷2號","121.47133","25.0886083333333","6501400","蘆洲區"
"247009","341-TH","2018/04/30 14:39:28","新北市蘆洲區信義路222巷3號","121.479213333333","25.08533","6501400","蘆洲區"
"247011","339-TH","2018/04/30 14:39:25","新北市蘆洲區集賢路224巷37弄10-1號","121.480661666667","25.0880983333333","6501400","蘆洲區"
"247003","337-TH","2018/04/30 14:39:14","新北市蘆洲區長安街267巷8弄1號","121.458023333333","25.0836266666667","6501400","蘆洲區"
"247005","336-TH","2018/04/30 14:39:30","新北市蘆洲區長安街22巷31弄17號","121.464023333333","25.080295","6501400","蘆洲區"
"247007","056-VK","2018/04/30 14:39:18","新北市蘆洲區成功路32號","121.473366666667","25.0791733333333","6501400","蘆洲區"
"247015","007-UY","2018/04/30 14:39:27","新北市蘆洲區光華路73巷29號","121.468543333333","25.0819333333333","6501400","蘆洲區"
"247001","002-UY","2018/04/30 14:39:23","新北市蘆洲區永樂街31巷12號","121.458073333333","25.0877966666667","6501400","蘆洲區"
"247019","001-UY","2018/04/30 14:39:27","新北市蘆洲區民權路131巷2號","121.47168","25.0901066666667","6501400","蘆洲區"
"253003","6232-TK","2018/04/30 14:39:31","新北市石門區尖子鹿112號","121.575578333333","25.2976716666667","6502200","石門區"
"253001","6251-TK","2018/04/30 14:39:09","新北市石門區崁子腳90-3號","121.535415","25.27168","6502200","石門區"
"253002","637-UY","2018/04/30 14:34:21","新北市三芝區橫山里橫山39-5號","121.545758333333","25.2533716666667","6502200","石門區"
"253004","8270-PC","2018/04/30 14:39:27","新北市石門區內阿里磅31-2號","121.586805","25.2409683333333","6502200","石門區"
"207002","749-BX","2018/04/30 14:39:37","新北市萬里區崁腳里崁腳路73號","121.647643333333","25.1596183333333","6502800","萬里區"
"207001","662-BX","2018/04/30 14:39:20","新北市萬里區雙興里豐稟路27-2號","121.641616666667","25.1894716666667","6502800","萬里區"
"252005","AAC-283","2018/04/30 14:39:27","新北市三芝區埔坪里埔頭坑93號","121.509325","25.2503016666667","6502100","三芝區"
"236064","105-UM","2018/04/30 14:39:22","新北市土城區永豐路203號","121.47298","24.97757","6501300","土城區"
"236040","107-UM","2018/04/30 14:39:32","新北市土城區學成路108巷7號","121.449983333333","24.9896816666667","6501300","土城區"
"236074","166-UM","2018/04/30 14:39:19","新北市土城區頂埔街60號","121.41773","24.9595966666667","6501300","土城區"
"236029","253-BX","2018/04/30 14:39:23","新北市土城區中華路二段92號","121.438276666667","24.9746933333333","6501300","土城區"
"236024","269-VK","2018/04/30 14:39:33","新北市土城區忠義路46號","121.440533333333","24.969415","6501300","土城區"
"236012","270-VK","2018/04/30 14:39:33","新北市土城區清水路209號","121.46029","24.9819616666667","6501300","土城區"
"236032","271-VK","2018/04/30 14:39:24","新北市土城區明德路一段313巷5弄1號","121.459671666667","24.9761416666667","6501300","土城區"
"236016","401-BY","2018/04/30 14:39:25","新北市土城區明德路一段51號","121.46527","24.9849516666667","6501300","土城區"
"236005","498-BY","2018/04/30 14:39:32","新北市土城區中華路二段2號","121.438773333333","24.9799666666667","6501300","土城區"
"236057","912-UM","2018/04/30 14:39:36","新北市土城區中央路三段219號","121.42949","24.9644583333333","6501300","土城區"
"236045","913-UM","2018/04/30 14:39:28","新北市土城區明德路一段97號","121.465583333333","24.9828733333333","6501300","土城區"
"236060","915-UM","2018/04/30 14:39:28","新北市土城區延壽路15號","121.471271666667","24.99054","6501300","土城區"
"236054","AAC-216","2018/04/30 14:39:32","新北市土城區裕民路24號","121.447706666667","24.9886166666667","6501300","土城區"
"220027","145-BY","2018/04/30 14:39:30","新北市板橋區建國街23號","121.457988333333","25.01709","6500100","板橋區"
"220028","200-UY","2018/04/30 14:39:24","新北市板橋區大觀路二段153巷46弄42號","121.449336666667","25.000225","6500100","板橋區"
"220030","610-BX","2018/04/30 14:39:27","新北市板橋區金門街208-4號","121.432416666667","24.9900683333333","6500100","板橋區"
"220050","245-BX","2018/04/30 14:39:22","新北市板橋區縣民大道三段33巷1弄24號","121.472941666667","25.02048","6500100","板橋區"
"220004","276-BY","2018/04/30 14:39:37","新北市板橋區四川路一段489號","121.457155","24.997025","6500100","板橋區"
"220020","277-BY","2018/04/30 14:39:23","新北市板橋區金門街253巷17弄9號","121.433513333333","24.9890516666667","6500100","板橋區"
"220043","283-UM","2018/04/30 14:39:30","新北市板橋區宏國路93號","121.469761666667","25.03237","6500100","板橋區"
"220019","283-VK","2018/04/30 14:39:19","新北市板橋區信義路279巷21號","121.464313333333","24.9902633333333","6500100","板橋區"
"220001","285-VK","2018/04/30 14:39:20","新北市板橋區懷仁街77巷32號","121.477741666667","25.0193183333333","6500100","板橋區"
"220031","286-VK","2018/04/30 14:39:18","新北市板橋區大觀路二段20巷15號","121.444788333333","25.0039016666667","6500100","板橋區"
"220029","287-VK","2018/04/30 14:39:29","新北市板橋區大觀路一段29巷179弄22號","121.449385","25.0046533333333","6500100","板橋區"
"220039","288-VK","2018/04/30 14:39:25","新北市板橋區長江路一段48巷1弄1號","121.458968333333","25.0288283333333","6500100","板橋區"
"220009","295-UM","2018/04/30 14:39:27","新北市板橋區中山路一段265巷32號","121.468953333333","25.014875","6500100","板橋區"
"220032","296-UM","2018/04/30 14:39:17","新北市板橋區滿平二街12號","121.425445","24.9867983333333","6500100","板橋區"
"220023","303-R5","2018/04/30 14:39:30","新北市板橋區大勇街77號","121.452945","25.0166133333333","6500100","板橋區"
"220010","305-R5","2018/04/30 14:39:24","新北市板橋區三民路二段125號","121.479236666667","25.015605","6500100","板橋區"
"220041","307-R5","2018/04/30 14:39:18","新北市板橋區自由路18號","121.46568","25.0224233333333","6500100","板橋區"
"220047","317-R6","2018/04/30 14:39:33","新北市板橋區四維路279巷64號","121.460535","25.027535","6500100","板橋區"
"220012","486-VK","2018/04/30 14:39:32","新北市板橋區中山路一段139-5號","121.46232","25.0113166666667","6500100","板橋區"
"220037","491-VK","2018/04/30 14:39:27","新北市板橋區雙十路二段193號","121.473631666667","25.0289433333333","6500100","板橋區"
"220104","560-BX","2018/04/30 14:39:33","新北市板橋區新生街88巷13號","121.458555","25.0213983333333","6500100","板橋區"
"220052","561-BX","2018/04/30 14:39:15","新北市板橋區文化路一段286巷2弄7號","121.468478333333","25.0208783333333","6500100","板橋區"
"220011","609-BX","2018/04/30 14:39:30","新北市板橋區三民路二段115號","121.479183333333","25.01579","6500100","板橋區"
"220003","630-UY","2018/04/30 14:39:16","新北市板橋區國慶路149巷5號","121.461195","24.99694","6500100","板橋區"
"220040","637-BX","2018/04/30 14:39:22","新北市板橋區懷德街199號","121.48033","25.02918","6500100","板橋區"
"220005","686-BX","2018/04/30 14:39:32","新北市板橋區和平路21號","121.459541666667","24.99516","6500100","板橋區"
"220025","687-BX","2018/04/30 14:39:28","新北市板橋區大觀路一段28巷72號","121.449763333333","25.01067","6500100","板橋區"
"220042","689-BX","2018/04/30 14:39:27","新北市板橋區新海路364號","121.45978","25.0253716666667","6500100","板橋區"
"220002","741-BX","2018/04/30 14:39:19","新北市板橋區忠孝路239巷10號","121.466603333333","25.00291","6500100","板橋區"
"220051","KEA-2699","2018/04/30 14:39:20","新北市板橋區雙十路二段70巷35號","121.476203333333","25.0288283333333","6500100","板橋區"
"220014","829-TW","2018/04/30 14:39:15","新北市板橋區漢生東路279巷8號","121.471848333333","25.0091766666667","6500100","板橋區"
"220045","830-TW","2018/04/30 14:39:35","新北市板橋區莊敬路148-2號","121.470433333333","25.0225383333333","6500100","板橋區"
"220038","833-TW","2018/04/30 14:39:26","新北市板橋區英士路49-1號","121.46112","25.0245616666667","6500100","板橋區"
"220022","895-R6","2018/04/30 14:39:32","新北市板橋區大東街5號","121.456698333333","25.00941","6500100","板橋區"
"220021","985-R7","2018/04/30 14:39:27","新北市板橋區中正路302號","121.454946666667","25.0208233333333","6500100","板橋區"
"220046","AAC-210","2018/04/30 14:39:22","新北市板橋區幸福路32巷6號","121.461578333333","25.0206433333333","6500100","板橋區"
"220018","AAC-253","2018/04/30 14:39:36","新北市板橋區民族路87號","121.465953333333","25.0084266666667","6500100","板橋區"
