"lineid","car","time","location","longitude","latitude","cityid","cityname"
"234005","207-UY","2018/04/30 14:49:16","新北市永和區安樂路218號","121.515033333333","25.002145","6500400","永和區"
"234066","553-UM","2018/04/30 14:49:27","新北市新店區薏仁坑路自強巷1號","121.497663333333","24.9575483333333","6500400","永和區"
"234052","KEA-2590","2018/04/30 14:49:25","新北市永和區環河東路一段82號","121.51964","25.0164416666667","6500400","永和區"
"234025","9371-KE","2018/04/30 14:49:18","新北市永和區雙和街52巷1號","121.508996666667","25.00323","6500400","永和區"
"248015","026-BX","2018/04/30 14:49:17","新北市五股區成泰路三段577巷80弄25號","121.449593333333","25.1045933333333","6501500","五股區"
"248007","095-VK","2018/04/30 14:49:22","新北市蘆洲區中山二路300巷1號","121.468491666667","25.0767","6501500","五股區"
"248019","225-UY","2018/04/30 14:49:19","新北市五股區中直路3-11-2號","121.429133333333","25.1113183333333","6501500","五股區"
"248011","247-BX","2018/04/30 14:49:12","新北市五股區民義路一段212號","121.430561666667","25.089525","6501500","五股區"
"248013","261-SL","2018/04/30 14:49:22","新北市五股區五福路6巷19號","121.435345","25.088535","6501500","五股區"
"248003","677-BX","2018/04/30 14:49:08","新北市五股區成泰路一段103號","121.435753333333","25.070935","6501500","五股區"
"248001","678-BX","2018/04/30 14:49:09","新北市五股區成泰路三段75-1號","121.443545","25.0897516666667","6501500","五股區"
"248009","682-TV","2018/04/30 14:49:19","新北市五股區登林路46巷3號","121.431906666667","25.06866","6501500","五股區"
"234022","9380-KE","2018/04/30 14:49:18","新北市永和區竹林路25巷21號","121.518143333333","25.014995","6500400","永和區"
"244001","248-BX","2018/04/30 14:49:10","新北市林口區瑞平里33-1號","121.348346666667","25.1289183333333","6501700","林口區"
"243004","AAD-798","2018/04/30 14:49:20","新北市泰山區楓江路110號","121.438431666667","25.0639866666667","6501600","泰山區"
"243003","297-R6","2018/04/30 14:49:06","新北市泰山區明志路三段196巷30號","121.422595","25.039625","6501600","泰山區"
"243007","380-SR","2018/04/30 14:49:06","新北市泰山區明志路二段185號","121.42754","25.0498116666667","6501600","泰山區"
"243006","421-VK","2018/04/30 14:49:11","新北市泰山區明志路一段40號","121.433545","25.0653083333333","6501600","泰山區"
"243002","KEA-2215","2018/04/30 14:49:17","新北市泰山區明志路二段136巷20弄1號","121.426505","25.0517016666667","6501600","泰山區"
"243001","KEA-2216","2018/04/30 14:49:06","新北市泰山區泰林路二段164巷11號","121.434558333333","25.0606833333333","6501600","泰山區"
"243005","646-TV","2018/04/30 14:49:16","新北市泰山區新民路12號","121.426495","25.0448","6501600","泰山區"
"243008","680-BX","2018/04/30 14:49:22","新北市泰山區貴陽街3號","121.421016666667","25.0335516666667","6501600","泰山區"
"231002","002-UM","2018/04/30 14:49:10","新北市新店區民權路100號","121.536188333333","24.9829","6500600","新店區"
"231027","0293-UT","2018/04/30 14:49:20","新北市新店區中央路133巷15弄31號","121.531836666667","24.9747616666667","6500600","新店區"
"231028","046-UY","2018/04/30 14:49:23","新北市新店區安德街116巷10號","121.509056666667","24.9608716666667","6500600","新店區"
"231001","047-UY","2018/04/30 14:49:28","新北市新店區三民路73號","121.536083333333","24.9715116666667","6500600","新店區"
"231005","106-UY","2018/04/30 14:49:26","新北市新店區復興路2號","121.532433333333","24.9882533333333","6500600","新店區"
"231019","108-UY","2018/04/30 14:49:24","新北市新店區永福路54-2號","121.558196666667","24.9286866666667","6500600","新店區"
"231011","187-VK","2018/04/30 14:49:24","新北市新店區永華街47號","121.544211666667","24.9759633333333","6500600","新店區"
"231023","KEA-2219","2018/04/30 14:49:24","新北市新店區檳榔路111號","121.54455","24.9615216666667","6500600","新店區"
"231026","256-BX","2018/04/30 14:49:20","新北市新店區安康路一段226號","121.523646666667","24.963605","6500600","新店區"
"231003","268-BY","2018/04/30 14:49:14","新北市新店區中興路二段39號","121.54624","24.9700016666667","6500600","新店區"
"231018","278-BY","2018/04/30 14:49:24","新北市新店區中央路153號","121.529908333333","24.9731316666667","6500600","新店區"
"231014","AAD-862","2018/04/30 14:49:10","新北市新店區北宜路三段110號","121.580106666667","24.9503116666667","6500600","新店區"
"231037","4716-K9","2018/04/30 14:49:08","新北市新店區柴埕路60巷5-2號","121.509033333333","24.9646233333333","6500600","新店區"
"231025","4715-K9","2018/04/30 14:49:07","新北市新店區民族路161號","121.537608333333","24.9767666666667","6500600","新店區"
"231036","512-UM","2018/04/30 14:49:18","新北市新店區安祥路104巷6弄36號","121.483101666667","24.9629816666667","6500600","新店區"
"231013","513-UM","2018/04/30 14:49:25","新北市新店區北新路二段61號","121.542575","24.973285","6500600","新店區"
"231034","616-UM","2018/04/30 14:49:10","新北市新店區安康路三段51號","121.492531666667","24.95223","6500600","新店區"
"231030","619-UM","2018/04/30 14:49:21","新北市新店區安民街199號","121.517146666667","24.9718416666667","6500600","新店區"
"231039","718-UY","2018/04/30 14:49:11","新北市新店區中興路三段6號","121.54648","24.9773216666667","6500600","新店區"
"231035","719-UM","2018/04/30 14:49:17","新北市新店區安樂街16號","121.52079","24.9733066666667","6500600","新店區"
"231031","720-UM","2018/04/30 14:49:08","新北市新店區薏仁坑路6-1號","121.499975","24.9583233333333","6500600","新店區"
"231029","897-TW","2018/04/30 14:49:09","新北市新店區錦秀路11巷94弄2號","121.480163333333","24.9424433333333","6500600","新店區"
"231006","898-TW","2018/04/30 14:49:17","新北市新店區北宜路一段119號","121.540256666667","24.9540066666667","6500600","新店區"
"231004","899-TW","2018/04/30 14:49:24","新北市新店區民族路91號","121.538668333333","24.9776966666667","6500600","新店區"
"231024","AKT-0513","2018/04/30 14:49:23","新北市新店區力行路38號","121.538948333333","24.965065","6500600","新店區"
"235020","096-UM","2018/04/30 14:49:24","新北市中和區中山路三段116號","121.476185","25.0061466666667","6500300","中和區"
"235003","097-UM","2018/04/30 14:49:17","新北市中和區安平路144號","121.512273333333","24.998165","6500300","中和區"
"235029","098-UM","2018/04/30 14:49:11","新北市中和區福祥路85巷2弄2號","121.498748333333","25.005795","6500300","中和區"
"235004","150-BY","2018/04/30 14:49:22","新北市中和區保健路50巷68號","121.509011666667","24.9951766666667","6500300","中和區"
"235022","151-BY","2018/04/30 14:49:13","新北市中和區員山路146巷11號","121.48203","24.9968333333333","6500300","中和區"
"235019","183-VK","2018/04/30 14:49:13","新北市中和區民德路11號","121.46883","25.003025","6500300","中和區"
"235002","185-VK","2018/04/30 14:49:27","新北市中和區自強路52號","121.520095","24.99479","6500300","中和區"
"235013","186-VK","2018/04/30 14:49:25","新北市中和區中興街25號","121.501101666667","24.9947983333333","6500300","中和區"
"235031","255-BX","2018/04/30 14:49:11","新北市中和區新生街184號","121.483718333333","24.9996816666667","6500300","中和區"
"235008","293-VK","2018/04/30 14:49:27","新北市中和區南山路188號","121.505865","24.99065","6500300","中和區"
"235036","301-VK","2018/04/30 14:49:04","新北市中和區板南路405號","121.492918333333","24.9997466666667","6500300","中和區"
"235007","352-BY","2018/04/30 14:49:11","新北市中和區安和路55號","121.508876666667","24.9949816666667","6500300","中和區"
"235032","377-QA","2018/04/30 14:49:17","新北市中和區福祥路90巷1號","121.49919","25.00578","6500300","中和區"
"235025","378-QA","2018/04/30 14:49:16","新北市中和區員山路174巷24號","121.481855","24.9997416666667","6500300","中和區"
"235014","4979-A6","2018/04/30 14:49:19","新北市中和區景平路241巷84弄54號","121.506145","24.9924333333333","6500300","中和區"
"235006","551-UM","2018/04/30 14:49:19","新北市中和區保健路33巷5號","121.50899","24.998055","6500300","中和區"
"235034","558-UM","2018/04/30 14:49:19","新北市中和區連勝街45號","121.498145","24.9975983333333","6500300","中和區"
"235018","640-BX","2018/04/30 14:49:27","新北市中和區莒光路222-1號","121.469303333333","24.9951283333333","6500300","中和區"
"235024","647-TV","2018/04/30 14:49:11","新北市中和區員山路394巷3號","121.480745","25.0046283333333","6500300","中和區"
"235011","732-UM","2018/04/30 14:49:21","新北市中和區和平街82號","121.507675","24.991145","6500300","中和區"
"235010","733-UM","2018/04/30 14:49:17","新北市中和區仁愛街23號","121.510778333333","24.988925","6500300","中和區"
"235035","783-BX","2018/04/30 14:49:25","新北市中和區建六路74號","121.48662","25.0019466666667","6500300","中和區"
"235021","801-TS","2018/04/30 14:49:19","新北市中和區中正路637巷48號","121.485538333333","24.99414","6500300","中和區"
"235016","805-TS","2018/04/30 14:49:11","新北市中和區華新街192巷34號","121.506206666667","24.9834433333333","6500300","中和區"
"235012","896-TW","2018/04/30 14:49:21","新北市中和區忠孝街109-1號","121.512346666667","24.9871483333333","6500300","中和區"
"235017","900-TW","2018/04/30 14:49:23","新北市中和區國光街215巷8弄6-4號","121.466628333333","25.0010483333333","6500300","中和區"
"235030","911-UM","2018/04/30 14:49:17","新北市中和區南工路36號","121.505738333333","25.0011583333333","6500300","中和區"
"235015","157-BY","2018/04/30 14:49:20","新北市中和區復興路277-1號","121.502416666667","24.9903633333333","6500300","中和區"
"235001","AAC-213","2018/04/30 14:49:17","新北市中和區秀朗路三段173-2號","121.52439","24.99148","6500300","中和區"
"235023","AAC-215","2018/04/30 14:49:20","新北市中和區圓通路305巷5弄10號","121.493895","24.9903066666667","6500300","中和區"
"220016","013-TV","2018/04/30 14:49:23","新北市板橋區中山路二段412巷29弄8-2號","121.484238333333","25.0197083333333","6500100","板橋區"
"220013","072-UY","2018/04/30 14:49:19","新北市板橋區民族路215號","121.469406666667","25.0072883333333","6500100","板橋區"
"220034","073-UY","2018/04/30 14:49:13","新北市板橋區館前西路160巷8號","121.452633333333","25.008935","6500100","板橋區"
"220105","075-UY","2018/04/30 14:49:18","新北市板橋區民治街28號","121.477911666667","25.03413","6500100","板橋區"
"220017","AAD-861","2018/04/30 14:49:10","新北市板橋區稚暉街2巷46號","121.455275","25.00298","6500100","板橋區"
"247013","546-UM","2018/04/30 14:49:22","新北市蘆洲區得勝街88號","121.472148333333","25.0833833333333","6501400","蘆洲區"
"247021","500-BY","2018/04/30 14:49:15","新北市蘆洲區仁愛街212巷228-2號","121.464401666667","25.0939483333333","6501400","蘆洲區"
"247005","336-TH","2018/04/30 14:49:10","新北市蘆洲區中華街22號","121.462918333333","25.0813516666667","6501400","蘆洲區"
"247015","007-UY","2018/04/30 14:49:26","新北市蘆洲區正和街96巷47號","121.46716","25.0818033333333","6501400","蘆洲區"
"247001","002-UY","2018/04/30 14:49:23","新北市蘆洲區永康街2巷31號","121.458931666667","25.0866083333333","6501400","蘆洲區"
"247019","001-UY","2018/04/30 14:49:07","新北市蘆洲區民義街71巷15號","121.472688333333","25.0905483333333","6501400","蘆洲區"
"253003","6232-TK","2018/04/30 14:49:11","新北市石門區尖子鹿101-1號","121.580085","25.2924633333333","6502200","石門區"
"253001","6251-TK","2018/04/30 14:49:09","新北市石門區崁子腳53-3號","121.536341666667","25.282255","6502200","石門區"
"253002","637-UY","2018/04/30 14:49:21","新北市石門區楓林62-1號","121.54217","25.2730366666667","6502200","石門區"
"253004","8270-PC","2018/04/30 14:49:07","新北市石門區茂林社區227-1號","121.59132","25.2701416666667","6502200","石門區"
"207002","749-BX","2018/04/30 14:49:17","新北市萬里區崁腳里崁腳路73號","121.64763","25.1596183333333","6502800","萬里區"
"207001","662-BX","2018/04/30 14:49:20","新北市萬里區雙興里豐稟路31-1號","121.643198333333","25.1810416666667","6502800","萬里區"
"252005","AAC-283","2018/04/30 14:49:07","新北市三芝區埔坪里埔頭坑114號","121.515756666667","25.24607","6502100","三芝區"
"236064","105-UM","2018/04/30 14:49:22","新北市土城區金城路二段241號","121.455766666667","24.98256","6501300","土城區"
"236040","107-UM","2018/04/30 14:49:11","新北市土城區裕民路114巷22號","121.450253333333","24.9856883333333","6501300","土城區"
"236074","166-UM","2018/04/30 14:49:18","新北市土城區中央路四段67巷58號","121.41816","24.956845","6501300","土城區"
"236029","253-BX","2018/04/30 14:49:23","新北市土城區忠義路26巷23號","121.439655","24.9697466666667","6501300","土城區"
"236024","269-VK","2018/04/30 14:49:19","新北市土城區慶安街57號","121.4409","24.973025","6501300","土城區"
"236012","270-VK","2018/04/30 14:49:15","新北市土城區金城路二段354巷16號","121.460956666667","24.9843366666667","6501300","土城區"
"236032","271-VK","2018/04/30 14:49:22","新北市土城區明德路一段148號","121.463288333333","24.9787316666667","6501300","土城區"
"236016","401-BY","2018/04/30 14:49:25","新北市土城區延安街42-2號","121.467495","24.9853783333333","6501300","土城區"
"236057","912-UM","2018/04/30 14:49:21","新北市土城區金城路一段56號","121.442395","24.9705883333333","6501300","土城區"
"236045","913-UM","2018/04/30 14:49:18","新北市板橋區信義路170巷10號","121.45986","24.9905333333333","6501300","土城區"
"236060","915-UM","2018/04/30 14:49:13","新北市土城區金城路三段207巷8弄2號","121.470081666667","24.9901183333333","6501300","土城區"
"236054","AAC-216","2018/04/30 14:49:12","新北市土城區裕民路223號","121.454126666667","24.9835683333333","6501300","土城區"
"221032","280-BY","2018/04/30 14:49:19","新北市汐止區新台五路一段140號","121.653093333333","25.0620083333333","6501100","汐止區"
"221002","707-TV","2018/04/30 14:49:12","新北市汐止區莊敬街8號","121.657205","25.0615633333333","6501100","汐止區"
"220027","145-BY","2018/04/30 14:49:10","新北市板橋區建國街54巷10號","121.459238333333","25.0168966666667","6500100","板橋區"
"220028","200-UY","2018/04/30 14:49:17","新北市板橋區大觀路二段27巷16號","121.447555","25.0029083333333","6500100","板橋區"
"220030","610-BX","2018/04/30 14:49:07","新北市板橋區大觀路三段220巷22號","121.42939","24.992925","6500100","板橋區"
"220050","245-BX","2018/04/30 14:49:23","新北市板橋區莊敬路263巷17號","121.473136666667","25.021655","6500100","板橋區"
"220004","276-BY","2018/04/30 14:49:17","新北市板橋區四川路二段99巷4弄2號","121.452848333333","24.99416","6500100","板橋區"
"220020","277-BY","2018/04/30 14:49:27","新北市板橋區金門街215巷6號","121.433063333333","24.9897116666667","6500100","板橋區"
"220043","283-UM","2018/04/30 14:49:10","新北市板橋區溪頭街82號","121.458838333333","25.0297916666667","6500100","板橋區"
"220019","283-VK","2018/04/30 14:49:19","新北市板橋區五權街30巷13號","121.46429","24.9932416666667","6500100","板橋區"
"220001","285-VK","2018/04/30 14:49:20","新北市板橋區民享街45號","121.475625","25.014905","6500100","板橋區"
"220031","286-VK","2018/04/30 14:49:18","新北市板橋區僑中二街10巷8號","121.44672","25.01104","6500100","板橋區"
"220029","287-VK","2018/04/30 14:49:22","新北市板橋區大觀路一段29巷4弄1號","121.450201666667","25.007725","6500100","板橋區"
"220039","288-VK","2018/04/30 14:49:05","新北市板橋區龍泉街54巷7弄2號","121.456745","25.026605","6500100","板橋區"
"220009","295-UM","2018/04/30 14:49:07","新北市板橋區中山路一段283巷16號","121.470255","25.0151266666667","6500100","板橋區"
"220032","296-UM","2018/04/30 14:49:23","新北市板橋區溪崑二街96巷4號","121.42674","24.9892266666667","6500100","板橋區"
"220023","303-R5","2018/04/30 14:49:18","新北市板橋區金華街5號","121.455613333333","25.0201016666667","6500100","板橋區"
"220010","305-R5","2018/04/30 14:49:24","新北市板橋區三民路二段38號","121.479176666667","25.017805","6500100","板橋區"
"220041","307-R5","2018/04/30 14:49:18","新北市板橋區四維路257號","121.463441666667","25.0280583333333","6500100","板橋區"
"220047","317-R6","2018/04/30 14:49:13","新北市板橋區新海路385巷18號","121.458166666667","25.0257483333333","6500100","板橋區"
"220012","486-VK","2018/04/30 14:49:12","新北市板橋區民族路72號","121.46279","25.0094766666667","6500100","板橋區"
"220037","491-VK","2018/04/30 14:49:27","新北市板橋區民治街9號","121.477396666667","25.034455","6500100","板橋區"
"220104","560-BX","2018/04/30 14:49:13","新北市板橋區金華街72-3號","121.457611666667","25.02068","6500100","板橋區"
"220052","561-BX","2018/04/30 14:49:15","新北市板橋區陽明街46-1號","121.465756666667","25.02192","6500100","板橋區"
"220011","609-BX","2018/04/30 14:49:23","新北市板橋區三民路一段31巷11號","121.479775","25.0232233333333","6500100","板橋區"
"220003","630-UY","2018/04/30 14:49:16","新北市板橋區仁愛路47巷2號","121.459833333333","24.9994683333333","6500100","板橋區"
"220040","637-BX","2018/04/30 14:49:22","新北市板橋區懷德街139巷20弄6-2號","121.480083333333","25.03059","6500100","板橋區"
"220005","686-BX","2018/04/30 14:49:14","新北市板橋區廣和街110號","121.46246","24.99293","6500100","板橋區"
"220025","687-BX","2018/04/30 14:49:08","新北市板橋區僑中二街106巷1號","121.445886666667","25.0074866666667","6500100","板橋區"
"220042","689-BX","2018/04/30 14:49:27","新北市板橋區民生路三段315號","121.461976666667","25.0307766666667","6500100","板橋區"
"220002","741-BX","2018/04/30 14:49:19","新北市板橋區實踐路65巷41號","121.465108333333","25.006425","6500100","板橋區"
"220051","KEA-2699","2018/04/30 14:49:20","新北市板橋區文化路二段410巷1弄25號","121.474833333333","25.0308316666667","6500100","板橋區"
"220014","829-TW","2018/04/30 14:49:15","新北市板橋區長安街138巷1弄29號","121.473763333333","25.0100366666667","6500100","板橋區"
"220045","830-TW","2018/04/30 14:49:13","新北市板橋區莊敬路146巷14號","121.470481666667","25.0227616666667","6500100","板橋區"
"220038","833-TW","2018/04/30 14:49:27","新北市板橋區英士路61號","121.460518333333","25.0243533333333","6500100","板橋區"
"220022","895-R6","2018/04/30 14:49:12","新北市板橋區府中路27號","121.45904","25.0086266666667","6500100","板橋區"
"220021","985-R7","2018/04/30 14:49:22","新北市板橋區大仁街107號","121.452605","25.0156733333333","6500100","板橋區"
"220046","AAC-210","2018/04/30 14:49:22","新北市板橋區文化路一段285巷2弄28號","121.464241666667","25.019735","6500100","板橋區"
"220018","AAC-253","2018/04/30 14:49:28","新北市板橋區民族路215號","121.469411666667","25.0072983333333","6500100","板橋區"
