"lineid","car","time","location","longitude","latitude","cityid","cityname"
"234066","553-UM","2018/04/30 15:19:27","新北市永和區福和路1號","121.526141666667","25.0095","6500400","永和區"
"244001","248-BX","2018/04/30 15:19:29","新北市林口區中山路576-8號","121.376338333333","25.0850416666667","6501700","林口區"
"243003","297-R6","2018/04/30 15:19:26","新北市泰山區新北大道六段365號","121.422616666667","25.0327983333333","6501600","泰山區"
"243007","380-SR","2018/04/30 15:19:26","新北市泰山區福興街26號","121.434261666667","25.057515","6501600","泰山區"
"243001","KEA-2216","2018/04/30 15:19:26","新北市泰山區泰林路二段542巷3弄1號","121.423336666667","25.0641483333333","6501600","泰山區"
"231002","002-UM","2018/04/30 15:19:30","新北市新店區中正路700巷3號","121.533593333333","24.9916433333333","6500600","新店區"
"231028","046-UY","2018/04/30 15:19:40","新北市新店區僑信路102巷41號","121.49891","24.946665","6500600","新店區"
"231001","047-UY","2018/04/30 15:19:39","新北市新店區北新路一段319號","121.541553333333","24.9681816666667","6500600","新店區"
"231005","106-UY","2018/04/30 15:19:46","新北市新店區建國路147號","121.538936666667","24.978785","6500600","新店區"
"231019","108-UY","2018/04/30 15:19:24","新北市新店區永福路102號","121.5628","24.9294533333333","6500600","新店區"
"231011","187-VK","2018/04/30 15:19:24","新北市新店區寶慶街58巷2號","121.542041666667","24.9866766666667","6500600","新店區"
"231023","KEA-2219","2018/04/30 15:19:24","新北市新店區北新路一段64巷39弄18號","121.542541666667","24.9659616666667","6500600","新店區"
"231026","256-BX","2018/04/30 15:19:40","新北市新店區中正路247巷6弄2號","121.538731666667","24.972855","6500600","新店區"
"231003","268-BY","2018/04/30 15:19:34","新北市新店區寶橋路212號","121.55094","24.978615","6500600","新店區"
"231018","278-BY","2018/04/30 15:19:24","新北市新店區中央六街22號","121.529558333333","24.974865","6500600","新店區"
"231014","AAD-862","2018/04/30 15:19:30","新北市新店區明山路45號","121.563803333333","24.955825","6500600","新店區"
"231038","3712-VJ","2018/04/30 15:19:35","新北市新店區安華路28-1號","121.519728333333","24.9614","6500600","新店區"
"231037","4716-K9","2018/04/30 15:19:28","新北市新店區安民街341-1號","121.516598333333","24.974995","6500600","新店區"
"231025","4715-K9","2018/04/30 15:19:27","新北市新店區環河路105-12號","121.531908333333","24.97003","6500600","新店區"
"231036","512-UM","2018/04/30 15:19:37","新北市新店區安祥路69巷15號","121.481943333333","24.961405","6500600","新店區"
"231034","616-UM","2018/04/30 15:19:30","新北市新店區玫瑰路16號","121.494713333333","24.9505133333333","6500600","新店區"
"231039","718-UY","2018/04/30 15:19:32","新北市新店區寶元路一段61號","121.542195","24.9858533333333","6500600","新店區"
"231035","719-UM","2018/04/30 15:19:36","新北市新店區安興路117號","121.515211666667","24.9788983333333","6500600","新店區"
"231031","720-UM","2018/04/30 15:19:28","新北市新店區雙城路4巷8號","121.490923333333","24.9509166666667","6500600","新店區"
"231029","897-TW","2018/04/30 15:19:29","新北市新店區安康路三段635號","121.471293333333","24.9400633333333","6500600","新店區"
"231006","898-TW","2018/04/30 15:19:37","新北市新店區中興路一段195號","121.543345","24.965265","6500600","新店區"
"231004","899-TW","2018/04/30 15:19:35","新北市新店區建國路29號","121.540243333333","24.9741033333333","6500600","新店區"
"231024","AKT-0513","2018/04/30 15:19:43","新北市新店區北新路一段311號","121.541438333333","24.9679783333333","6500600","新店區"
"241017","063-VK","2018/04/30 15:19:37","新北市三重區重新路四段121號","121.484871666667","25.0520133333333","6500200","三重區"
"235003","097-UM","2018/04/30 15:19:36","新北市中和區安平路162號","121.512633333333","24.998675","6500300","中和區"
"235014","4979-A6","2018/04/30 15:19:39","新北市中和區景平路464巷2弄2號","121.50575","24.9939116666667","6500300","中和區"
"235033","4980-A6","2018/04/30 15:19:30","新北市中和區圓通路231號","121.496348333333","24.994185","6500300","中和區"
"235012","896-TW","2018/04/30 15:19:21","新北市中和區興南路一段50號","121.51095","24.9905183333333","6500300","中和區"
"235030","911-UM","2018/04/30 15:19:37","新北市中和區保平路326巷17號","121.50658","25.0046","6500300","中和區"
"235023","AAC-215","2018/04/30 15:19:40","新北市中和區圓通路320-3號","121.485803333333","24.9880466666667","6500300","中和區"
"220013","072-UY","2018/04/30 15:18:19","新北市五股區成洲一路23號","121.449983333333","25.095935","6500100","板橋區"
"253003","6232-TK","2018/04/30 15:19:31","新北市石門區小坑9號","121.594393333333","25.2884116666667","6502200","石門區"
"253001","6251-TK","2018/04/30 15:19:29","新北市石門區小坑9號","121.593785","25.288575","6502200","石門區"
"253002","637-UY","2018/04/30 15:19:41","新北市石門區小坑12-8號","121.595325","25.2856783333333","6502200","石門區"
"253004","8270-PC","2018/04/30 15:19:27","新北市石門區小坑20號","121.596318333333","25.2818916666667","6502200","石門區"
"207002","749-BX","2018/04/30 15:19:37","新北市萬里區崁腳里內中福路2-1號","121.669138333333","25.1654766666667","6502800","萬里區"
"207001","662-BX","2018/04/30 15:19:40","新北市萬里區野柳里八斗60號","121.66898","25.2029733333333","6502800","萬里區"
"236064","105-UM","2018/04/30 15:19:42","新北市土城區裕民路185巷36弄10號","121.454368333333","24.9845766666667","6501300","土城區"
"236040","107-UM","2018/04/30 15:19:41","新北市土城區裕民路185巷11號","121.454108333333","24.9849383333333","6501300","土城區"
"236074","166-UM","2018/04/30 15:19:37","新北市土城區溪頭路101號","121.410381666667","24.9520866666667","6501300","土城區"
"236029","253-BX","2018/04/30 15:19:43","新北市土城區中央路一段262巷5號","121.443665","24.984075","6501300","土城區"
"236024","269-VK","2018/04/30 15:19:33","新北市土城區中央路二段61巷32號","121.443558333333","24.97859","6501300","土城區"
"236012","270-VK","2018/04/30 15:19:33","新北市土城區廣福街74巷43號","121.458021666667","24.9902166666667","6501300","土城區"
"236032","271-VK","2018/04/30 15:19:42","新北市土城區國際路156號","121.467843333333","24.9764833333333","6501300","土城區"
"236016","401-BY","2018/04/30 15:19:25","新北市土城區峰廷街3號","121.469048333333","24.9873766666667","6501300","土城區"
"236057","912-UM","2018/04/30 15:19:42","新北市土城區中央路二段237號","121.440265","24.9722466666667","6501300","土城區"
"236045","913-UM","2018/04/30 15:19:38","新北市土城區清水路330號","121.464013333333","24.9855016666667","6501300","土城區"
"236060","915-UM","2018/04/30 15:19:28","新北市土城區延平街69巷4號","121.4674","24.9928383333333","6501300","土城區"
"236054","AAC-216","2018/04/30 15:19:32","新北市土城區學府路一段169號","121.452653333333","24.9854866666667","6501300","土城區"
"238010","601-UM","2018/04/30 15:19:28","新北市樹林區保安街二段37-1號","121.416276666667","25.000005","6500700","樹林區"
"238006","599-UM","2018/04/30 15:19:40","新北市樹林區八德街86號","121.419913333333","24.9813716666667","6500700","樹林區"
"238005","571-TV","2018/04/30 14:51:46","新北市樹林區育德街78-1號","121.388455","24.9682616666667","6500700","樹林區"
"238011","5061-A6","2018/04/30 15:19:36","新北市樹林區鎮前街168號","121.424328333333","24.989975","6500700","樹林區"
"238009","KEA-2213","2018/04/30 15:19:39","新北市樹林區信義街63號","121.424496666667","24.9830033333333","6500700","樹林區"
"238008","KEA-2539","2018/04/30 15:19:42","新北市樹林區西圳街一段165巷20弄11號","121.39557","24.9601833333333","6500700","樹林區"
"238012","303-VK","2018/04/30 15:19:40","新北市樹林區中山路一段233號","121.420828333333","24.9869183333333","6500700","樹林區"
"238001","283-BY","2018/04/30 15:19:28","新北市樹林區保安街二段37號","121.416281666667","24.9998933333333","6500700","樹林區"
"238001","282-BY","2018/04/30 15:19:43","新北市樹林區大安路123號","121.422696666667","24.9971766666667","6500700","樹林區"
"238007","268-VK","2018/04/30 15:19:42","新北市樹林區俊英街90號","121.427766666667","25.0049233333333","6500700","樹林區"
"238013","172-UY","2018/04/30 15:19:42","新北市樹林區中山路三段27巷3弄12-2號","121.40171","24.9737133333333","6500700","樹林區"
"238003","169-UY","2018/04/30 15:19:42","新北市樹林區中山路一段112號","121.42296","24.9906516666667","6500700","樹林區"
"220050","245-BX","2018/04/30 15:19:42","新北市板橋區莊敬路75巷31號","121.473903333333","25.0261466666667","6500100","板橋區"
"220043","283-UM","2018/04/30 15:17:30","新北市三重區後埔街61號","121.479641666667","25.0485083333333","6500100","板橋區"
"220031","286-VK","2018/04/30 15:19:44","新北市板橋區僑中二街106巷22號","121.444946666667","25.0077983333333","6500100","板橋區"
"220029","287-VK","2018/04/30 15:19:29","新北市板橋區僑中一街102巷1弄1號","121.446665","25.0120316666667","6500100","板橋區"
"220009","295-UM","2018/04/30 15:19:27","新北市板橋區四川路一段265號","121.459523333333","25.0021083333333","6500100","板橋區"
"220041","307-R5","2018/04/30 15:19:38","新北市板橋區文化路一段45巷11號","121.460321666667","25.01405","6500100","板橋區"
"220012","486-VK","2018/04/30 15:19:32","新北市板橋區長安街331巷5號","121.474161666667","25.012305","6500100","板橋區"
"220037","491-VK","2018/04/30 15:19:27","新北市板橋區懷德街54號","121.47736","25.0324783333333","6500100","板橋區"
"220052","561-BX","2018/04/30 15:19:35","新北市板橋區漢生西路60號","121.462991666667","25.0188583333333","6500100","板橋區"
"220011","609-BX","2018/04/30 15:19:30","新北市板橋區三民路一段96號","121.479371666667","25.0214583333333","6500100","板橋區"
"220025","687-BX","2018/04/30 15:19:28","新北市板橋區僑中一街124巷75號","121.446755","25.0177616666667","6500100","板橋區"
"220042","689-BX","2018/04/30 15:19:27","新北市板橋區長江路二段110號","121.465261666667","25.03152","6500100","板橋區"
"220051","KEA-2699","2018/04/30 15:19:40","新北市板橋區縣民大道二段200巷1號","121.469493333333","25.0174716666667","6500100","板橋區"
"220038","833-TW","2018/04/30 15:19:32","新北市板橋區互助街68號","121.460975","25.02669","6500100","板橋區"
"220021","985-R7","2018/04/30 15:19:40","新北市五股區中直路13-7號","121.424525","25.1106033333333","6500100","板橋區"
"220046","AAC-210","2018/04/30 15:19:42","新北市板橋區文化路一段101巷13號","121.46087","25.0146666666667","6500100","板橋區"
"220018","AAC-253","2018/04/30 15:19:42","新北市板橋區四川路二段245巷55弄1號","121.45237","24.992525","6500100","板橋區"
