"lineid","car","time","location","longitude","latitude","cityid","cityname"
"234067","553-UM","2018/04/30 15:39:26","新北市永和區福和路1號","121.526366666667","25.0096416666667","6500400","永和區"
"244001","248-BX","2018/04/30 15:39:26","新北市林口區粉寮路一段90號","121.39857","25.0806516666667","6501700","林口區"
"231028","046-UY","2018/04/30 15:39:20","新北市新店區僑信路4巷1號","121.499678333333","24.9528016666667","6500600","新店區"
"231005","106-UY","2018/04/30 15:39:26","新北市新店區中正路361號","121.535053333333","24.9763","6500600","新店區"
"231019","108-UY","2018/04/30 15:39:24","新北市新店區新烏路一段87巷65號","121.546101666667","24.9412766666667","6500600","新店區"
"231011","187-VK","2018/04/30 15:39:24","新北市新店區寶元路一段109號","121.545696666667","24.983155","6500600","新店區"
"231023","KEA-2219","2018/04/30 15:39:24","新北市新店區大新街7巷26號","121.544036666667","24.9679433333333","6500600","新店區"
"231026","256-BX","2018/04/30 15:39:20","新北市新店區三民路75巷4弄2號","121.535593333333","24.9709333333333","6500600","新店區"
"231003","268-BY","2018/04/30 15:39:34","新北市新店區寶橋路213號","121.548655","24.9771483333333","6500600","新店區"
"231018","278-BY","2018/04/30 15:39:24","新北市新店區民生路156巷99號","121.527081666667","24.982155","6500600","新店區"
"231014","AAD-862","2018/04/30 15:39:30","新北市新店區北宜路一段292號","121.547056666667","24.9523983333333","6500600","新店區"
"231038","3712-VJ","2018/04/30 15:39:35","新北市新店區吉安街9號","121.516661666667","24.9655583333333","6500600","新店區"
"231037","4716-K9","2018/04/30 15:39:28","新北市新店區安民街341-1號","121.516858333333","24.9749033333333","6500600","新店區"
"231036","512-UM","2018/04/30 15:39:17","新北市新店區安祥路63號","121.483981666667","24.9603416666667","6500600","新店區"
"231013","513-UM","2018/04/30 15:39:25","新北市新店區永業路81巷13弄15號","121.531361666667","24.9498366666667","6500600","新店區"
"231034","616-UM","2018/04/30 15:39:30","新北市新店區玫瑰路58巷3號","121.495365","24.9465733333333","6500600","新店區"
"231030","619-UM","2018/04/30 15:39:26","新北市新店區新和街91號","121.52104","24.9864366666667","6500600","新店區"
"231039","718-UY","2018/04/30 15:39:32","新北市新店區寶元路二段31巷2號","121.546753333333","24.9816416666667","6500600","新店區"
"231035","719-UM","2018/04/30 15:39:36","新北市新店區安興路96號","121.515165","24.9763733333333","6500600","新店區"
"231031","720-UM","2018/04/30 15:39:28","新北市新店區雙城路133號","121.49792","24.93878","6500600","新店區"
"231029","897-TW","2018/04/30 15:39:29","新北市新店區安康路二段335號","121.4984","24.9560266666667","6500600","新店區"
"231004","899-TW","2018/04/30 15:39:15","新北市新店區民族路108號","121.538175","24.977375","6500600","新店區"
"241011","013-R5","2018/04/30 15:39:18","新北市三重區龍濱路285號","121.501006666667","25.0734683333333","6500200","三重區"
"241015","062-VK","2018/04/30 15:39:24","新北市三重區重新路四段121號","121.485105","25.0519966666667","6500200","三重區"
"241017","063-VK","2018/04/30 15:39:17","新北市三重區大仁街1號","121.491645","25.0635883333333","6500200","三重區"
"241028","265-UM","2018/04/30 15:39:28","新北市三重區重新路四段121號","121.484753333333","25.052515","6500200","三重區"
"241013","270-UM","2018/04/30 15:39:19","新北市三重區正義北路328號","121.494758333333","25.0705666666667","6500200","三重區"
"241007","398-BY","2018/04/30 15:39:29","新北市三重區重新路四段121號","121.48526","25.05204","6500200","三重區"
"241014","543-UM","2018/04/30 15:39:18","新北市三重區重新路四段121號","121.48512","25.0520566666667","6500200","三重區"
"241023","545-UM","2018/04/30 15:39:35","新北市三重區重新路四段121號","121.484748333333","25.052565","6500200","三重區"
"241029","942-UM","2018/04/30 15:39:27","新北市三重區大同南路204號","121.496771666667","25.0566566666667","6500200","三重區"
"241033","AAC-255","2018/04/30 15:39:34","新北市三重區中興南街76號","121.47098","25.0434716666667","6500200","三重區"
"235033","4980-A6","2018/04/30 15:39:25","新北市中和區新生街122號","121.483585","25.0012883333333","6500300","中和區"
"235023","AAC-215","2018/04/30 15:39:20","新北市中和區員山路37-8號","121.482091666667","24.9899983333333","6500300","中和區"
"224007","275-VK","2018/04/30 15:39:23","新北市瑞芳區大寮路356-1號","121.784785","25.103305","6501200","瑞芳區"
"227001","642-TC","2018/04/30 15:39:26","新北市雙溪區牡丹里頂坪5-1號","121.862763333333","25.0386983333333","6502500","雙溪區"
"236064","105-UM","2018/04/30 15:39:22","新北市土城區中央路三段118號","121.435201666667","24.9662466666667","6501300","土城區"
"236040","107-UM","2018/04/30 15:39:31","新北市土城區學享街9號","121.450778333333","24.9872983333333","6501300","土城區"
"236074","166-UM","2018/04/30 15:39:18","新北市土城區福安街53號","121.418548333333","24.9644383333333","6501300","土城區"
"236029","253-BX","2018/04/30 15:39:23","新北市土城區中央路一段45巷2弄13號","121.448328333333","24.9899","6501300","土城區"
"236024","269-VK","2018/04/30 15:39:32","新北市土城區裕生路83巷29弄2號","121.448213333333","24.9838933333333","6501300","土城區"
"236012","270-VK","2018/04/30 15:39:33","新北市板橋區信義路54巷17弄45號","121.455986666667","24.99486","6501300","土城區"
"236016","401-BY","2018/04/30 15:39:25","新北市土城區延吉街137巷25弄5號","121.471436666667","24.985215","6501300","土城區"
"236045","752-BX","2018/04/30 15:39:11","新北市土城區明德路一段137號","121.465241666667","24.9804683333333","6501300","土城區"
"236057","912-UM","2018/04/30 15:39:21","新北市土城區中央路一段140號","121.446246666667","24.9875416666667","6501300","土城區"
"236060","915-UM","2018/04/30 15:39:29","新北市土城區延和路12巷13號","121.464558333333","24.9874533333333","6501300","土城區"
"236054","AAC-216","2018/04/30 15:39:32","新北市土城區學府路一段12號","121.459303333333","24.98851","6501300","土城區"
"238010","601-UM","2018/04/30 15:39:28","新北市樹林區三福街114號","121.406396666667","25.0164166666667","6500700","樹林區"
"238006","599-UM","2018/04/30 15:39:20","新北市樹林區八德街11號","121.419971666667","24.974775","6500700","樹林區"
"238011","5061-A6","2018/04/30 15:39:36","新北市樹林區中山路二段191號","121.40481","24.9773","6500700","樹林區"
"238009","KEA-2213","2018/04/30 15:39:19","新北市樹林區中華路187巷21號","121.420901666667","24.980845","6500700","樹林區"
"238008","KEA-2539","2018/04/30 15:39:22","新北市樹林區柑園街一段206號","121.393325","24.956375","6500700","樹林區"
"238012","303-VK","2018/04/30 15:39:20","新北市樹林區中山路二段156號","121.412691666667","24.9826283333333","6500700","樹林區"
"238001","283-BY","2018/04/30 15:39:28","新北市樹林區光榮街3巷1號","121.413051666667","25.003995","6500700","樹林區"
"238001","282-BY","2018/04/30 15:39:23","新北市樹林區潭興街141巷1號","121.425513333333","24.9994566666667","6500700","樹林區"
"238007","268-VK","2018/04/30 15:39:32","新北市樹林區俊英街210號","121.425231666667","25.00944","6500700","樹林區"
"238013","172-UY","2018/04/30 15:39:22","新北市樹林區新興街39號","121.399915","24.971795","6500700","樹林區"
"238003","169-UY","2018/04/30 15:39:22","新北市樹林區復興路238號","121.418576666667","24.9893766666667","6500700","樹林區"
"220043","283-UM","2018/04/30 15:39:30","新北市林口區太平里180號","121.368248333333","25.1345366666667","6500100","板橋區"
"220052","561-BX","2018/04/30 15:39:35","新北市板橋區漢生東路53巷12號","121.466355","25.017035","6500100","板橋區"
"220038","833-TW","2018/04/30 15:39:26","新北市板橋區長江路一段156巷9弄19號","121.462073333333","25.0303316666667","6500100","板橋區"
