"lineid","car","time","location","longitude","latitude","cityid","cityname"
"234067","553-UM","2018/04/30 15:49:27","新北市永和區福和路1號","121.526356666667","25.0096433333333","6500400","永和區"
"244001","248-BX","2018/04/30 15:49:26","新北市林口區粉寮路二段160巷28號","121.405148333333","25.090815","6501700","林口區"
"231046","107-UY","2018/04/30 15:49:13","新北市新店區安華路28-1號","121.519743333333","24.9615266666667","6500600","新店區"
"231019","108-UY","2018/04/30 15:49:24","新北市新店區新烏路一段73號","121.546363333333","24.9428016666667","6500600","新店區"
"231011","187-VK","2018/04/30 15:49:23","新北市新店區中興路三段160號","121.544503333333","24.9806666666667","6500600","新店區"
"231023","KEA-2219","2018/04/30 15:49:24","新北市新店區北新路一段113號","121.539278333333","24.962385","6500600","新店區"
"231026","256-BX","2018/04/30 15:49:20","新北市新店區民生路19號","121.532848333333","24.9865633333333","6500600","新店區"
"231003","268-BY","2018/04/30 15:49:14","新北市新店區寶興路60巷3號","121.54988","24.971875","6500600","新店區"
"231018","278-BY","2018/04/30 15:49:24","新北市新店區中正路663巷1弄2號","121.532968333333","24.9900616666667","6500600","新店區"
"231014","AAD-862","2018/04/30 15:49:10","新北市新店區中華路83巷2弄20號","121.538405","24.9692083333333","6500600","新店區"
"231038","3712-VJ","2018/04/30 15:49:15","新北市新店區安德街173號","121.508671666667","24.95897","6500600","新店區"
"231037","4716-K9","2018/04/30 15:49:08","新北市新店區安民街134號","121.516533333333","24.9693766666667","6500600","新店區"
"231013","513-UM","2018/04/30 15:49:25","新北市新店區永業路81巷3弄21號","121.530441666667","24.94976","6500600","新店區"
"231034","616-UM","2018/04/30 15:49:10","新北市新店區玫瑰路64巷2號","121.495886666667","24.9457566666667","6500600","新店區"
"231030","619-UM","2018/04/30 15:49:07","新北市新店區永安街60號","121.518885","24.9869083333333","6500600","新店區"
"231035","719-UM","2018/04/30 15:49:17","新北市新店區安興路96號","121.51509","24.976435","6500600","新店區"
"231031","720-UM","2018/04/30 15:49:08","新北市新店區雙城路65號","121.49308","24.9484583333333","6500600","新店區"
"231029","897-TW","2018/04/30 15:49:09","新北市新店區薏仁坑路自強巷1號","121.497166666667","24.9580766666667","6500600","新店區"
"241011","013-R5","2018/04/30 15:49:18","新北市三重區文化北路248號","121.497403333333","25.0699333333333","6500200","三重區"
"241008","059-VK","2018/04/30 15:49:10","新北市三重區新北大道一段250號","121.479946666667","25.061125","6500200","三重區"
"241015","062-VK","2018/04/30 15:49:24","新北市三重區重新路四段121號","121.485138333333","25.0520233333333","6500200","三重區"
"241017","063-VK","2018/04/30 15:49:17","新北市三重區大仁街1號","121.491588333333","25.0635766666667","6500200","三重區"
"241024","065-VK","2018/04/30 15:49:23","新北市三重區忠孝路三段84巷1號","121.480183333333","25.0643966666667","6500200","三重區"
"241005","262-UM","2018/04/30 15:49:10","新北市三重區長元街105號","121.504646666667","25.0670933333333","6500200","三重區"
"241028","265-UM","2018/04/30 15:49:08","新北市三重區中正南路46號","121.49392","25.0600266666667","6500200","三重區"
"241022","267-UM","2018/04/30 15:49:11","新北市三重區成功路173號","121.4859","25.05266","6500200","三重區"
"241013","270-UM","2018/04/30 15:49:19","新北市三重區三和路三段42號","121.495831666667","25.0707766666667","6500200","三重區"
"241007","398-BY","2018/04/30 15:49:08","新北市三重區捷運路36號","121.482931666667","25.0549966666667","6500200","三重區"
"241020","478-VK","2018/04/30 15:49:27","新北市三重區忠孝路二段48號","121.485106666667","25.0703283333333","6500200","三重區"
"241014","543-UM","2018/04/30 15:49:18","新北市三重區重新路四段121號","121.485116666667","25.052055","6500200","三重區"
"241023","545-UM","2018/04/30 15:49:16","新北市三重區名源街29巷2號","121.480161666667","25.0604933333333","6500200","三重區"
"241001","547-UM","2018/04/30 15:49:14","新北市三重區成功路108巷8號","121.485548333333","25.050425","6500200","三重區"
"241012","941-UM","2018/04/30 15:49:21","新北市三重區文化北路83巷2-1號","121.498405","25.067065","6500200","三重區"
"241029","942-UM","2018/04/30 15:49:07","新北市三重區大同南路242號","121.496881666667","25.0559266666667","6500200","三重區"
"241033","AAC-255","2018/04/30 15:49:14","新北市三重區光復路一段47號","121.472098333333","25.0486633333333","6500200","三重區"
"235033","4980-A6","2018/04/30 15:49:25","新北市中和區連城路469巷3號","121.48361","24.9958466666667","6500300","中和區"
"235026","800-TS","2018/04/30 15:49:08","新北市中和區中正路879號","121.48457","25.004075","6500300","中和區"
"235023","AAC-215","2018/04/30 15:49:20","新北市中和區連城路523巷13弄20號","121.482138333333","24.9934416666667","6500300","中和區"
"224007","275-VK","2018/04/30 15:49:23","新北市瑞芳區大寮路356-1號","121.784773333333","25.1032683333333","6501200","瑞芳區"
"227001","642-TC","2018/04/30 15:49:25","新北市雙溪區平林里外平林44號","121.852933333333","25.0363516666667","6502500","雙溪區"
"227008","400-TW","2018/04/30 15:49:13","新北市雙溪區牡丹里中正路58巷18號","121.866165","25.0415483333333","6502500","雙溪區"
"236064","105-UM","2018/04/30 15:49:22","新北市土城區金安街5號","121.421515","24.964005","6501300","土城區"
"236074","166-UM","2018/04/30 15:49:18","新北市土城區福安街14號","121.420073333333","24.9651416666667","6501300","土城區"
"236045","752-BX","2018/04/30 15:49:10","新北市土城區金城路二段386號","121.463466666667","24.9856716666667","6501300","土城區"
"236057","912-UM","2018/04/30 15:49:21","新北市土城區中央路二段84號","121.442396666667","24.97882","6501300","土城區"
"236054","AAC-216","2018/04/30 15:49:12","新北市土城區中華路一段50號","121.446136666667","24.9890866666667","6501300","土城區"
"238002","755-BX","2018/04/30 15:49:19","新北市樹林區樹德街122號","121.41944","24.9929383333333","6500700","樹林區"
"238010","601-UM","2018/04/30 15:49:08","新北市樹林區龍興街13巷1號","121.403315","25.01645","6500700","樹林區"
"238006","599-UM","2018/04/30 15:49:22","新北市樹林區水源街32巷53號","121.425496666667","24.9802033333333","6500700","樹林區"
"238011","5061-A6","2018/04/30 15:49:15","新北市樹林區山佳街57號","121.392923333333","24.97254","6500700","樹林區"
"238009","KEA-2213","2018/04/30 15:49:19","新北市樹林區太順街62巷6號","121.417613333333","24.9797233333333","6500700","樹林區"
"238008","KEA-2539","2018/04/30 15:49:22","新北市樹林區柑園街二段141號","121.382941666667","24.9548083333333","6500700","樹林區"
"238012","303-VK","2018/04/30 15:49:24","新北市樹林區保安二街69號","121.42463","24.9949883333333","6500700","樹林區"
"238001","283-BY","2018/04/30 15:49:08","新北市樹林區保安街二段197巷8號","121.413925","25.0031433333333","6500700","樹林區"
"238001","282-BY","2018/04/30 15:49:23","新北市樹林區千歲街23號","121.424988333333","24.9957116666667","6500700","樹林區"
"238007","268-VK","2018/04/30 15:49:12","新北市樹林區三俊街231號","121.421556666667","25.0148666666667","6500700","樹林區"
"238013","172-UY","2018/04/30 15:49:23","新北市樹林區中山路三段125-3號","121.39678","24.9733616666667","6500700","樹林區"
"238003","169-UY","2018/04/30 15:49:22","新北市樹林區復興路322巷10號","121.416146666667","24.987265","6500700","樹林區"
"220043","283-UM","2018/04/30 15:49:10","新北市八里區商港路48號","121.395461666667","25.144915","6500100","板橋區"
