"lineid","car","time","location","longitude","latitude","cityid","cityname"
"234067","553-UM","2018/04/30 15:59:07","新北市永和區福和路1號","121.526338333333","25.0096066666667","6500400","永和區"
"244001","248-BX","2018/04/30 15:51:47","新北市林口區粉寮69號","121.405138333333","25.0908416666667","6501700","林口區"
"243016","680-BX","2018/04/30 15:52:04","新北市泰山區黎明路25號","121.422148333333","25.0606766666667","6501600","泰山區"
"231046","107-UY","2018/04/30 15:59:13","新北市新店區安華路8號","121.519835","24.9623266666667","6500600","新店區"
"231019","108-UY","2018/04/30 15:59:04","新北市新店區環河路14號","121.537651666667","24.9615233333333","6500600","新店區"
"231011","187-VK","2018/04/30 15:59:04","新北市新店區民族路56號","121.539905","24.978575","6500600","新店區"
"231003","268-BY","2018/04/30 15:59:14","新北市新店區寶興路60巷4號","121.54986","24.971875","6500600","新店區"
"231018","278-BY","2018/04/30 15:59:04","新北市新店區中正路663巷7弄15號","121.53291","24.9901","6500600","新店區"
"231014","AAD-862","2018/04/30 15:59:10","新北市新店區中正路284巷4弄3號","121.538395","24.974835","6500600","新店區"
"231038","3712-VJ","2018/04/30 15:59:14","新北市新店區安康路二段320巷6號","121.504813333333","24.9588033333333","6500600","新店區"
"231037","4716-K9","2018/04/30 15:59:08","新北市新店區安民街61號","121.516305","24.9662516666667","6500600","新店區"
"231013","513-UM","2018/04/30 15:59:05","新北市新店區安康路一段302-3號","121.517676666667","24.9640766666667","6500600","新店區"
"231034","616-UM","2018/04/30 15:59:10","新北市新店區吉祥街9巷1號","121.497446666667","24.9470883333333","6500600","新店區"
"231030","619-UM","2018/04/30 15:59:07","新北市新店區永平街60號","121.516235","24.9847516666667","6500600","新店區"
"231035","719-UM","2018/04/30 15:59:16","新北市新店區安民街251巷13號","121.516763333333","24.9731183333333","6500600","新店區"
"241011","013-R5","2018/04/30 15:59:18","新北市三重區雙園街1巷7號","121.497113333333","25.068285","6500200","三重區"
"241008","059-VK","2018/04/30 15:59:10","新北市三重區仁美街56號","121.486728333333","25.0781466666667","6500200","三重區"
"241015","062-VK","2018/04/30 15:59:04","新北市三重區重新路四段121號","121.485148333333","25.05201","6500200","三重區"
"241017","063-VK","2018/04/30 15:59:17","新北市三重區大仁街48巷26號","121.490818333333","25.06439","6500200","三重區"
"241024","065-VK","2018/04/30 15:59:03","新北市三重區中正北路145巷5弄3號","121.484388333333","25.06766","6500200","三重區"
"241003","091-VK","2018/04/30 15:59:09","新北市三重區自強路五段114號","121.496873333333","25.083655","6500200","三重區"
"241005","262-UM","2018/04/30 15:59:10","新北市三重區自強路四段32-2號","121.488973333333","25.0770883333333","6500200","三重區"
"241028","265-UM","2018/04/30 15:59:08","新北市三重區電信街99號","121.495371666667","25.058255","6500200","三重區"
"241016","266-UM","2018/04/30 15:59:04","新北市三重區重新路四段121號","121.48514","25.0520483333333","6500200","三重區"
"241022","267-UM","2018/04/30 15:59:11","新北市三重區三民街175巷2號","121.483371666667","25.0655266666667","6500200","三重區"
"241018","268-UM","2018/04/30 15:59:14","新北市三重區大仁街20號","121.491546666667","25.063555","6500200","三重區"
"241013","270-UM","2018/04/30 15:58:59","新北市三重區三和路三段16巷3號","121.496631666667","25.0701183333333","6500200","三重區"
"241025","271-UM","2018/04/30 15:58:59","新北市三重區三民街191號","121.482223333333","25.0656583333333","6500200","三重區"
"241007","398-BY","2018/04/30 15:59:08","新北市三重區車路頭街4巷21號","121.483333333333","25.0700933333333","6500200","三重區"
"241020","478-VK","2018/04/30 15:59:07","新北市三重區忠孝路二段70號","121.484505","25.0700583333333","6500200","三重區"
"241014","543-UM","2018/04/30 15:58:58","新北市三重區重新路四段121號","121.485101666667","25.0520366666667","6500200","三重區"
"241023","545-UM","2018/04/30 15:58:56","新北市三重區中正北路168號","121.484275","25.0662233333333","6500200","三重區"
"241001","547-UM","2018/04/30 15:59:14","新北市三重區忠孝路二段9號","121.48684","25.07146","6500200","三重區"
"241006","AAD-863","2018/04/30 15:59:05","新北市三重區成功路110-1號","121.487215","25.0517866666667","6500200","三重區"
"241012","941-UM","2018/04/30 15:59:01","新北市三重區正義北路123號","121.497026666667","25.0661666666667","6500200","三重區"
"241029","942-UM","2018/04/30 15:59:07","新北市三重區大同南路212巷20號","121.49736","25.0566583333333","6500200","三重區"
"241033","AAC-255","2018/04/30 15:59:14","新北市三重區重新路五段446號","121.474686666667","25.04741","6500200","三重區"
"235026","800-TS","2018/04/30 15:59:09","新北市中和區板南路472-1號","121.488735","25.006285","6500300","中和區"
"224007","275-VK","2018/04/30 15:59:03","新北市瑞芳區楓子瀨路14號","121.772486666667","25.1070366666667","6501200","瑞芳區"
"227001","642-TC","2018/04/30 15:59:05","新北市雙溪區平林里外平林70號","121.843013333333","25.0350366666667","6502500","雙溪區"
"227008","400-TW","2018/04/30 15:59:13","新北市雙溪區三港里雙澳路32-2號","121.87101","25.05012","6502500","雙溪區"
"251013","KEA-2871","2018/04/30 15:59:08","新北市淡水區中正路一段22巷100號","121.426963333333","25.1862666666667","6501000","淡水區"
"251008","181-VK","2018/04/30 15:59:14","新北市淡水區中正路二段31號","121.419286666667","25.181835","6501000","淡水區"
"236045","752-BX","2018/04/30 15:59:16","新北市土城區金城路三段203號","121.470313333333","24.9892833333333","6501300","土城區"
"236057","912-UM","2018/04/30 15:59:03","新北市土城區中央路三段4-1號","121.439085","24.9700066666667","6501300","土城區"
"238002","755-BX","2018/04/30 15:59:14","新北市樹林區大安路323巷3號","121.417818333333","24.991565","6500700","樹林區"
"238010","601-UM","2018/04/30 15:59:08","新北市樹林區龍興街29號","121.403221666667","25.0159866666667","6500700","樹林區"
"238006","599-UM","2018/04/30 15:59:20","新北市樹林區國凱街136巷32號","121.423711666667","24.9794866666667","6500700","樹林區"
"238005","571-TV","2018/04/30 15:59:06","新北市樹林區鎮前街10號","121.426343333333","24.993275","6500700","樹林區"
"238011","5061-A6","2018/04/30 15:59:15","新北市樹林區佳園路一段39號","121.39302","24.9707166666667","6500700","樹林區"
"238009","KEA-2213","2018/04/30 15:59:19","新北市樹林區太順街55號","121.417405","24.9789783333333","6500700","樹林區"
"238008","KEA-2539","2018/04/30 15:59:11","新北市樹林區柑園街二段32-13號","121.386906666667","24.956305","6500700","樹林區"
"238012","303-VK","2018/04/30 15:59:00","新北市樹林區保安二街75號","121.424463333333","24.995055","6500700","樹林區"
"238001","283-BY","2018/04/30 15:59:08","新北市樹林區中正路433-2號","121.414933333333","25.0081683333333","6500700","樹林區"
"238001","282-BY","2018/04/30 15:59:03","新北市樹林區千歲街30巷11號","121.426016666667","24.9963533333333","6500700","樹林區"
"238007","268-VK","2018/04/30 15:59:12","新北市新莊區龍安路254巷18-1號","121.420645","25.0185266666667","6500700","樹林區"
"238013","172-UY","2018/04/30 15:59:01","新北市樹林區佳園路一段68號","121.393106666667","24.9701766666667","6500700","樹林區"
"238003","169-UY","2018/04/30 15:59:02","新北市樹林區文化街12號","121.420015","24.9872383333333","6500700","樹林區"
"220043","283-UM","2018/04/30 15:58:50","新北市五股區五工二路136號","121.45411","25.0732633333333","6500100","板橋區"
