"lineid","car","time","location","longitude","latitude","cityid","cityname"
"234067","553-UM","2018/04/30 16:09:46","新北市永和區福和路1號","121.526341666667","25.0096166666667","6500400","永和區"
"244001","248-BX","2018/04/30 15:51:47","新北市林口區粉寮69號","121.405138333333","25.0908416666667","6501700","林口區"
"243011","297-R6","2018/04/30 16:07:07","新北市泰山區黎明路25號","121.422038333333","25.0610883333333","6501600","泰山區"
"243016","680-BX","2018/04/30 15:52:04","新北市泰山區黎明路25號","121.422148333333","25.0606766666667","6501600","泰山區"
"231046","107-UY","2018/04/30 16:09:35","新北市新店區灣潭路2-27號","121.53663","24.9493683333333","6500600","新店區"
"231011","187-VK","2018/04/30 16:09:44","新北市新店區安民街121巷12號","121.515291666667","24.96915","6500600","新店區"
"231018","278-BY","2018/04/30 16:09:44","新北市新店區中正路694巷15號","121.5353","24.9909483333333","6500600","新店區"
"231034","616-UM","2018/04/30 16:09:30","新北市新店區如意街28號","121.493711666667","24.94833","6500600","新店區"
"241011","013-R5","2018/04/30 16:09:37","新北市三重區正義北路374號","121.49356","25.0714983333333","6500200","三重區"
"241008","059-VK","2018/04/30 16:09:30","新北市三重區永福街86號","121.478783333333","25.0763383333333","6500200","三重區"
"241031","061-VK","2018/04/30 16:09:46","新北市三重區重新路四段121號","121.484715","25.05204","6500200","三重區"
"241015","062-VK","2018/04/30 16:09:44","新北市三重區環河南路35號","121.502906666667","25.0611833333333","6500200","三重區"
"241017","063-VK","2018/04/30 16:09:37","新北市三重區大同北路148巷76號","121.49015","25.0645833333333","6500200","三重區"
"241024","065-VK","2018/04/30 16:09:43","新北市三重區力行路一段38巷9號","121.486041666667","25.06761","6500200","三重區"
"241026","066-VK","2018/04/30 16:09:44","新北市三重區福裕街111號","121.496981666667","25.0614","6500200","三重區"
"241002","090-VK","2018/04/30 16:09:28","新北市三重區仁義街91號","121.499718333333","25.0796433333333","6500200","三重區"
"241003","091-VK","2018/04/30 16:09:29","新北市三重區自強路五段114號","121.496846666667","25.083635","6500200","三重區"
"241005","262-UM","2018/04/30 16:09:30","新北市三重區溪尾街305號","121.48746","25.083785","6500200","三重區"
"241028","265-UM","2018/04/30 16:09:28","新北市三重區正義南路111號","121.49852","25.05866","6500200","三重區"
"241016","266-UM","2018/04/30 16:09:44","新北市三重區新北大道一段8號","121.488653333333","25.0613783333333","6500200","三重區"
"241022","267-UM","2018/04/30 16:09:30","新北市三重區中正北路174-1號","121.48373","25.0666433333333","6500200","三重區"
"241018","268-UM","2018/04/30 16:09:34","新北市三重區大仁街30號","121.491448333333","25.0639316666667","6500200","三重區"
"241013","270-UM","2018/04/30 16:09:39","新北市三重區安樂街41號","121.496178333333","25.06977","6500200","三重區"
"241025","271-UM","2018/04/30 16:09:39","新北市三重區中正北路149號","121.482518333333","25.067445","6500200","三重區"
"241007","398-BY","2018/04/30 16:09:29","新北市三重區慈愛街8號","121.484475","25.07852","6500200","三重區"
"241004","475-VK","2018/04/30 16:09:45","新北市三重區環河南路256號","121.491071666667","25.0503833333333","6500200","三重區"
"241020","478-VK","2018/04/30 16:09:27","新北市三重區大勇街2號","121.483588333333","25.07129","6500200","三重區"
"241014","543-UM","2018/04/30 16:09:38","新北市三重區環河南路35號","121.503006666667","25.0610966666667","6500200","三重區"
"241023","545-UM","2018/04/30 16:09:35","新北市三重區力行路一段183號","121.4837","25.06961","6500200","三重區"
"241001","547-UM","2018/04/30 16:09:34","新北市三重區自強路四段32-2號","121.489001666667","25.077135","6500200","三重區"
"241019","KEA-2593","2018/04/30 16:09:31","新北市三重區重陽路三段184號","121.490091666667","25.0682266666667","6500200","三重區"
"241006","AAD-863","2018/04/30 16:09:45","新北市三重區後竹圍街205巷50號","121.484316666667","25.0731116666667","6500200","三重區"
"241012","941-UM","2018/04/30 16:09:41","新北市三重區文化北路132巷51號","121.497238333333","25.0664266666667","6500200","三重區"
"241029","942-UM","2018/04/30 16:09:47","新北市三重區同安街32號","121.496053333333","25.0567416666667","6500200","三重區"
"241033","AAC-255","2018/04/30 16:09:34","新北市三重區五谷王南街50-1號","121.473851666667","25.04457","6500200","三重區"
"235026","800-TS","2018/04/30 16:09:28","新北市中和區永和路191巷3號","121.491528333333","25.0071183333333","6500300","中和區"
"224007","275-VK","2018/04/30 16:09:43","新北市瑞芳區粗坑口路86巷14號","121.7612","25.099245","6501200","瑞芳區"
"227001","642-TC","2018/04/30 16:09:45","新北市雙溪區上林里內平林47號","121.833281666667","25.030415","6502500","雙溪區"
"227008","400-TW","2018/04/30 16:09:33","新北市雙溪區三港里雙澳路83號","121.884205","25.0536616666667","6502500","雙溪區"
"251013","KEA-2871","2018/04/30 16:09:28","新北市淡水區行忠路155號","121.455933333333","25.2002783333333","6501000","淡水區"
"251008","181-VK","2018/04/30 16:09:34","新北市淡水區中山路129巷1號","121.441216666667","25.1713416666667","6501000","淡水區"
"238002","755-BX","2018/04/30 16:09:44","新北市樹林區文化街112巷21號","121.417041666667","24.9903266666667","6500700","樹林區"
"238010","601-UM","2018/04/30 16:09:48","新北市樹林區龍興街46巷26號","121.402111666667","25.0152216666667","6500700","樹林區"
"238006","599-UM","2018/04/30 16:09:40","新北市樹林區中華路190-6號","121.41081","24.980705","6500700","樹林區"
"238011","5061-A6","2018/04/30 16:09:36","新北市樹林區育德街78-1號","121.38761","24.9682083333333","6500700","樹林區"
"238009","KEA-2213","2018/04/30 16:09:39","新北市樹林區國凱街49號","121.420728333333","24.9791566666667","6500700","樹林區"
"238001","283-BY","2018/04/30 16:09:48","新北市樹林區中正路433-2號","121.414911666667","25.008185","6500700","樹林區"
"238001","282-BY","2018/04/30 16:09:43","新北市樹林區千歲街67號","121.427201666667","24.99885","6500700","樹林區"
"238007","268-VK","2018/04/30 16:09:32","新北市樹林區三俊街135巷52號","121.418706666667","25.01724","6500700","樹林區"
"238013","172-UY","2018/04/30 16:09:42","新北市樹林區佳園路一段75巷10-11號","121.395926666667","24.9706466666667","6500700","樹林區"
"238003","169-UY","2018/04/30 16:09:42","新北市樹林區中山路一段306巷40號","121.418475","24.9862866666667","6500700","樹林區"
"220043","283-UM","2018/04/30 16:09:30","新北市板橋區民生路二段161巷3號","121.470083333333","25.0197683333333","6500100","板橋區"
