"lineid","car","time","location","longitude","latitude","cityid","cityname"
"234067","553-UM","2018/04/30 16:15:08","新北市永和區福和路1號","121.526316666667","25.0096183333333","6500400","永和區"
"243011","297-R6","2018/04/30 16:07:07","新北市泰山區黎明路25號","121.422038333333","25.0610883333333","6501600","泰山區"
"231046","107-UY","2018/04/30 16:29:13","新北市新店區灣潭路3-3號","121.538243333333","24.950825","6500600","新店區"
"241011","013-R5","2018/04/30 16:29:18","新北市三重區龍濱路182號","121.5013","25.0729683333333","6500200","三重區"
"241008","059-VK","2018/04/30 16:29:10","新北市三重區永福街122-2號","121.479053333333","25.0753333333333","6500200","三重區"
"241009","060-VK","2018/04/30 16:29:24","新北市三重區三和路四段181巷100號","121.4847","25.0798833333333","6500200","三重區"
"241031","061-VK","2018/04/30 16:29:26","新北市三重區重陽路一段68號","121.486656666667","25.058605","6500200","三重區"
"241015","062-VK","2018/04/30 16:29:28","新北市三重區福德北路36號","121.501948333333","25.0652366666667","6500200","三重區"
"241017","063-VK","2018/04/30 16:29:26","新北市三重區大同北路47號","121.495218333333","25.0631","6500200","三重區"
"241024","065-VK","2018/04/30 16:29:23","新北市三重區中正北路315巷16弄28號","121.476183333333","25.0718916666667","6500200","三重區"
"241026","066-VK","2018/04/30 16:29:24","新北市三重區文化南路42號","121.500361666667","25.06038","6500200","三重區"
"241002","090-VK","2018/04/30 16:29:16","新北市三重區五華街9-2號","121.495185","25.0799816666667","6500200","三重區"
"241003","091-VK","2018/04/30 16:29:09","新北市三重區仁義街228巷10號","121.494391666667","25.0845083333333","6500200","三重區"
"241005","262-UM","2018/04/30 16:29:30","新北市三重區溪尾街305號","121.487475","25.0837516666667","6500200","三重區"
"241028","265-UM","2018/04/30 16:29:08","新北市三重區重安街144號","121.495461666667","25.055015","6500200","三重區"
"241016","266-UM","2018/04/30 16:29:24","新北市三重區大智街21號","121.494231666667","25.0657983333333","6500200","三重區"
"241022","267-UM","2018/04/30 16:29:11","新北市三重區過圳街98號","121.486055","25.06205","6500200","三重區"
"241018","268-UM","2018/04/30 16:29:14","新北市三重區重陽路三段89號","121.489953333333","25.06773","6500200","三重區"
"241032","269-UM","2018/04/30 16:29:16","新北市三重區三陽路100巷3弄13號","121.483026666667","25.05815","6500200","三重區"
"241013","270-UM","2018/04/30 16:29:19","新北市三重區三和路三段83巷148號","121.498366666667","25.0733133333333","6500200","三重區"
"241025","271-UM","2018/04/30 16:29:19","新北市三重區中正北路560巷100弄2號","121.472436666667","25.0682366666667","6500200","三重區"
"241007","398-BY","2018/04/30 16:28:49","新北市三重區三和路四段167巷198號","121.48833","25.080435","6500200","三重區"
"241004","475-VK","2018/04/30 16:29:25","新北市三重區仁愛街377巷12號","121.49184","25.0805733333333","6500200","三重區"
"241020","478-VK","2018/04/30 16:29:27","新北市三重區後竹圍街244號","121.484591666667","25.0713883333333","6500200","三重區"
"241030","480-VK","2018/04/30 16:29:24","新北市三重區成功路97號","121.487901666667","25.0514333333333","6500200","三重區"
"241014","543-UM","2018/04/30 16:29:18","新北市三重區河邊北街70-3號","121.504328333333","25.0684183333333","6500200","三重區"
"241023","545-UM","2018/04/30 16:29:16","新北市三重區忠孝路三段50巷45號","121.482881666667","25.0643533333333","6500200","三重區"
"241001","547-UM","2018/04/30 16:29:14","新北市三重區福隆路34號","121.492036666667","25.0782483333333","6500200","三重區"
"241019","KEA-2593","2018/04/30 16:29:31","新北市三重區安慶街253號","121.49043","25.0678283333333","6500200","三重區"
"241006","AAD-863","2018/04/30 16:29:25","新北市三重區力行路二段170號","121.483183333333","25.0769966666667","6500200","三重區"
"241012","941-UM","2018/04/30 16:29:21","新北市三重區河邊北街369號","121.501933333333","25.0761033333333","6500200","三重區"
"241029","942-UM","2018/04/30 16:29:27","新北市三重區集美街126巷16號","121.489596666667","25.053695","6500200","三重區"
"241033","AAC-255","2018/04/30 16:29:14","新北市三重區重新路五段317巷1弄1號","121.477498333333","25.04908","6500200","三重區"
"235026","800-TS","2018/04/30 16:29:08","新北市中和區中山路二段340巷63號","121.492733333333","25.004815","6500300","中和區"
"224007","275-VK","2018/04/30 16:29:23","新北市瑞芳區瑞竹路36巷43號","121.764226666667","25.1043333333333","6501200","瑞芳區"
"224009","273-VK","2018/04/30 16:29:23","新北市瑞芳區大寮路356-1號","121.784773333333","25.1034316666667","6501200","瑞芳區"
"224005","271-BY","2018/04/30 16:29:29","新北市瑞芳區阿美家園16號","121.821703333333","25.1164433333333","6501200","瑞芳區"
"227001","642-TC","2018/04/30 16:29:25","新北市雙溪區上林里內平林120-2號","121.82485","25.02644","6502500","雙溪區"
"227008","400-TW","2018/04/30 16:29:13","新北市雙溪區三港里雙澳路37-5號","121.872751666667","25.0501883333333","6502500","雙溪區"
"251013","KEA-2871","2018/04/30 16:29:28","新北市淡水區北新路三段162號","121.49231","25.1915233333333","6501000","淡水區"
"251008","181-VK","2018/04/30 16:29:14","新北市淡水區樹梅坑14號","121.471333333333","25.143295","6501000","淡水區"
"251015","182-VK","2018/04/30 16:29:12","新北市淡水區中正路一段66號","121.425278333333","25.1770066666667","6501000","淡水區"
"252001","292-VK","2018/04/30 16:29:13","新北市三芝區埔坪里埔頭坑41號","121.504495","25.2644516666667","6502100","三芝區"
"238001","283-BY","2018/04/30 16:29:28","新北市樹林區中正路433-2號","121.4149","25.00817","6500700","樹林區"
"238001","282-BY","2018/04/30 16:29:22","新北市樹林區大慶街99-1號","121.427716666667","24.9996616666667","6500700","樹林區"
"238007","268-VK","2018/04/30 16:29:12","新北市樹林區三俊街65巷9號","121.413413333333","25.0163133333333","6500700","樹林區"
