"lineid","car","time","location","longitude","latitude","cityid","cityname"
"249005","172-UM","2018/04/30 17:19:30","新北市五股區中直路70號","121.415526666667","25.1233216666667","6502300","八里區"
"249001","173-UM","2018/04/30 17:19:33","新北市八里區中華路二段165巷3號","121.407693333333","25.150875","6502300","八里區"
"249004","303-UY","2018/04/30 17:19:30","新北市八里區文化街127號","121.422285","25.1599933333333","6502300","八里區"
"249002","305-UY","2018/04/30 17:19:32","新北市八里區龍米路二段117巷31號","121.44582","25.1429983333333","6502300","八里區"
"249003","593-UM","2018/04/30 17:19:27","新北市八里區中山路二段453號","121.39646","25.14569","6502300","八里區"
"244013","069-UM","2018/04/30 17:19:46","新北市林口區粉寮路二段221號","121.404196666667","25.0906383333333","6501700","林口區"
"244007","080-UY","2018/04/30 17:19:48","新北市林口區湖子17-1號","121.38683","25.0895883333333","6501700","林口區"
"244019","742-UY","2018/04/30 17:19:27","新北市林口區文化二路一段338號","121.372643333333","25.0750033333333","6501700","林口區"
"244023","483-VK","2018/04/30 17:19:46","新北市林口區仁愛路一段649號","121.388336666667","25.0762333333333","6501700","林口區"
"244017","485-VK","2018/04/30 17:19:41","新北市林口區粉寮路60-17號","121.404255","25.0901766666667","6501700","林口區"
"244009","656-BX","2018/04/30 17:19:34","新北市林口區中湖50號","121.377145","25.09124","6501700","林口區"
"244025","837-TS","2018/04/30 17:19:38","新北市林口區中山路298號","121.382081666667","25.0813533333333","6501700","林口區"
"244021","838-TS","2018/04/30 17:19:43","新北市林口區粉寮路二段128號","121.404425","25.0903583333333","6501700","林口區"
"231046","107-UY","2018/04/30 17:19:50","新北市新店區直潭路92號","121.530903333333","24.9376","6500600","新店區"
"241011","013-R5","2018/04/30 17:19:37","新北市三重區河邊北街100巷23號","121.502981666667","25.070235","6500200","三重區"
"241008","059-VK","2018/04/30 17:19:33","新北市三重區永福街72巷37-3號","121.480426666667","25.0763416666667","6500200","三重區"
"241009","060-VK","2018/04/30 17:19:44","新北市三重區碧華街33號","121.484318333333","25.0811916666667","6500200","三重區"
"241015","062-VK","2018/04/30 17:19:44","新北市三重區長元街82-1號","121.501891666667","25.0662766666667","6500200","三重區"
"241017","063-VK","2018/04/30 17:19:37","新北市三重區大同北路44巷9號","121.494776666667","25.0630466666667","6500200","三重區"
"241024","065-VK","2018/04/30 17:19:43","新北市三重區中正北路193巷21弄13號","121.477348333333","25.0706383333333","6500200","三重區"
"241026","066-VK","2018/04/30 17:19:44","新北市三重區正義南路20號","121.498156666667","25.061415","6500200","三重區"
"241002","090-VK","2018/04/30 17:19:28","新北市三重區自強路五段11號","121.49256","25.0804583333333","6500200","三重區"
"241003","091-VK","2018/04/30 17:19:48","新北市三重區富福街58號","121.491885","25.0845583333333","6500200","三重區"
"241005","262-UM","2018/04/30 17:19:30","新北市三重區永安北路二段25巷43號","121.483073333333","25.08195","6500200","三重區"
"241028","265-UM","2018/04/30 17:19:48","新北市三重區中正南路108號","121.494368333333","25.0584866666667","6500200","三重區"
"241016","266-UM","2018/04/30 17:19:44","新北市三重區大同北路54巷3號","121.494083333333","25.063575","6500200","三重區"
"241022","267-UM","2018/04/30 17:19:30","新北市三重區中正北路64巷24號","121.486095","25.063765","6500200","三重區"
"241018","268-UM","2018/04/30 17:19:34","新北市三重區安慶街144號","121.494391666667","25.06871","6500200","三重區"
"241032","269-UM","2018/04/30 17:19:36","新北市三重區興華街122號","121.483398333333","25.059765","6500200","三重區"
"241013","270-UM","2018/04/30 17:19:39","新北市三重區仁愛街112巷7號","121.49472","25.0745766666667","6500200","三重區"
"241025","271-UM","2018/04/30 17:19:39","新北市三重區中正北路406號","121.475373333333","25.07065","6500200","三重區"
"241007","398-BY","2018/04/30 17:19:48","新北市三重區三和路四段143-1號","121.484481666667","25.078335","6500200","三重區"
"241004","475-VK","2018/04/30 17:19:45","新北市三重區五華街110巷5號","121.491793333333","25.082755","6500200","三重區"
"241020","478-VK","2018/04/30 17:19:27","新北市三重區自強路三段15-1號","121.48699","25.0722","6500200","三重區"
"241030","480-VK","2018/04/30 17:19:44","新北市三重區成功路73巷36號","121.489711666667","25.0524633333333","6500200","三重區"
"241014","543-UM","2018/04/30 17:19:38","新北市三重區長榮路6號","121.500051666667","25.06848","6500200","三重區"
"241023","545-UM","2018/04/30 17:19:46","新北市三重區三民街150號","121.482383333333","25.0654116666667","6500200","三重區"
"241001","547-UM","2018/04/30 17:19:34","新北市三重區仁愛街269巷6-1號","121.493345","25.0789233333333","6500200","三重區"
"241019","KEA-2593","2018/04/30 17:19:31","新北市三重區自強路二段100號","121.487368333333","25.0713","6500200","三重區"
"241006","AAD-863","2018/04/30 17:19:45","新北市三重區車路頭街135-1號","121.48422","25.0759283333333","6500200","三重區"
"241012","941-UM","2018/04/30 17:19:41","新北市三重區河邊北街256巷6號","121.501561666667","25.0761533333333","6500200","三重區"
"241029","942-UM","2018/04/30 17:19:47","新北市三重區重新路四段6號","121.48918","25.058255","6500200","三重區"
"241033","AAC-255","2018/04/30 17:19:34","新北市三重區中興北街191號","121.469028333333","25.05652","6500200","三重區"
"235062","800-TS","2018/04/30 17:13:48","新北市中和區圓通路461-2號","121.486286666667","24.98561","6500300","中和區"
"247024","893-R6","2018/04/30 17:19:44","新北市蘆洲區光明路1號","121.460183333333","25.0864433333333","6501400","蘆洲區"
"247014","546-UM","2018/04/30 17:19:45","新北市蘆洲區得勝街118號","121.470981666667","25.0827866666667","6501400","蘆洲區"
"247022","500-BY","2018/04/30 17:19:39","新北市蘆洲區三民路128巷37號","121.469848333333","25.0896766666667","6501400","蘆洲區"
"247010","341-TH","2018/04/30 17:19:35","新北市蘆洲區中山一路120巷7弄22號","121.477451666667","25.0820566666667","6501400","蘆洲區"
"247012","339-TH","2018/04/30 17:19:42","新北市蘆洲區信義路319巷10弄1號","121.477541666667","25.086315","6501400","蘆洲區"
"247004","337-TH","2018/04/30 17:19:47","新北市蘆洲區中原路93號","121.457658333333","25.08162","6501400","蘆洲區"
"247006","336-TH","2018/04/30 17:19:34","新北市蘆洲區長安街73巷22號","121.462023333333","25.07946","6501400","蘆洲區"
"247018","057-VK","2018/04/30 17:19:42","新北市蘆洲區民權路68巷2號","121.475216666667","25.0873566666667","6501400","蘆洲區"
"247008","056-VK","2018/04/30 17:19:42","新北市蘆洲區永安北路一段72巷28號","121.476546666667","25.0770966666667","6501400","蘆洲區"
"247002","002-UY","2018/04/30 17:19:49","新北市蘆洲區永樂街38巷33弄21號","121.457198333333","25.0896583333333","6501400","蘆洲區"
"247020","001-UY","2018/04/30 17:19:38","新北市蘆洲區仁愛街23號","121.472345","25.0924516666667","6501400","蘆洲區"
"228003","097-TW","2018/04/30 17:19:47","新北市貢寮區福隆里虎子山街21號","121.93848","25.0185033333333","6502600","貢寮區"
"228002","585-TW","2018/04/30 17:19:46","新北市貢寮區雙玉里下雙溪街22號","121.920133333333","25.0102983333333","6502600","貢寮區"
"228001","670-TC","2018/04/30 17:19:34","新北市貢寮區仁理村尖山腳街18-3號","121.925446666667","25.0482916666667","6502600","貢寮區"
"224010","AGQ-8101","2018/04/30 17:19:39","新北市瑞芳區逢甲路19號","121.809481666667","25.108625","6501200","瑞芳區"
"224006","676-BX","2018/04/30 17:19:46","新北市瑞芳區傑魚坑路280號","121.787451666667","25.1064516666667","6501200","瑞芳區"
"224008","285-BY","2018/04/30 17:19:44","新北市瑞芳區侯硐路152-1號","121.826663333333","25.0842733333333","6501200","瑞芳區"
"224009","273-VK","2018/04/30 17:19:43","新北市瑞芳區汽車路45號","121.8444","25.109725","6501200","瑞芳區"
"224005","271-BY","2018/04/30 17:19:29","新北市瑞芳區鼻頭路247號","121.912665","25.1239316666667","6501200","瑞芳區"
"227001","642-TC","2018/04/30 17:19:45","新北市雙溪區上林里內平林90號","121.827545","25.0274766666667","6502500","雙溪區"
"251009","008-UM","2018/04/30 17:19:33","新北市淡水區三民街20號","121.439028333333","25.1717416666667","6501000","淡水區"
"251004","009-UM","2018/04/30 17:19:31","新北市淡水區中正東路二段88巷15號","121.45909","25.1505083333333","6501000","淡水區"
"251005","010-UM","2018/04/30 17:19:34","新北市淡水區鄧公路19-1號","121.450261666667","25.1699483333333","6501000","淡水區"
"251013","KEA-2871","2018/04/30 17:19:28","新北市淡水區演戲埔腳1-2號","121.476136666667","25.1937033333333","6501000","淡水區"
"251014","180-VK","2018/04/30 17:19:38","新北市淡水區公埔子45號","121.46398","25.23017","6501000","淡水區"
"251008","181-VK","2018/04/30 17:19:34","新北市淡水區大同路257號","121.466508333333","25.1422633333333","6501000","淡水區"
"251015","182-VK","2018/04/30 17:17:12","新北市淡水區樹林口14號","121.479218333333","25.168","6501000","淡水區"
"251010","413-VK","2018/04/30 17:19:34","新北市淡水區中正路二段214號","121.426421666667","25.189895","6501000","淡水區"
"251012","441-VK","2018/04/30 17:19:34","新北市淡水區中山北路一段158號","121.44422","25.1779016666667","6501000","淡水區"
"251016","442-VK","2018/04/30 17:19:31","新北市淡水區鄒厝崙7號","121.470276666667","25.1883383333333","6501000","淡水區"
"251006","561-UM","2018/04/30 17:19:47","新北市淡水區大智街44號","121.442673333333","25.17424","6501000","淡水區"
"251007","575-R6","2018/04/30 17:19:46","新北市淡水區民生路47-4號","121.462131666667","25.13815","6501000","淡水區"
"251011","650-BX","2018/04/30 17:19:37","新北市淡水區坪頂路138號","121.466471666667","25.16155","6501000","淡水區"
"251003","766-UM","2018/04/30 17:19:31","新北市淡水區中正路二段31號","121.419463333333","25.1814833333333","6501000","淡水區"
"207003","550-UM","2018/04/30 17:19:34","新北市萬里區萬里里瑪鋉路340號","121.687798333333","25.1829933333333","6502800","萬里區"
"252002","178-VK","2018/04/30 17:19:39","新北市三芝區忠孝街1-14號","121.50547","25.253925","6502100","三芝區"
"252001","292-VK","2018/04/30 17:19:33","新北市三芝區長安街119號","121.498023333333","25.25967","6502100","三芝區"
"242034","AAC-296","2018/04/30 17:19:43","新北市新莊區新莊路773號","121.44207","25.032715","6500500","新莊區"
"242058","986-R7","2018/04/30 17:19:45","新北市新莊區新泰路357巷3弄17號","121.441973333333","25.0408216666667","6500500","新莊區"
"242053","751-BX","2018/04/30 17:19:29","新北市新莊區環河路636-1號","121.436696666667","25.0107516666667","6500500","新莊區"
"242027","615-BX","2018/04/30 17:19:46","新北市新莊區中港路266號","121.453243333333","25.0438566666667","6500500","新莊區"
"242025","613-BX","2018/04/30 17:19:34","新北市新莊區中平路82巷32號","121.446166666667","25.044815","6500500","新莊區"
"242029","612-BX","2018/04/30 17:19:37","新北市新莊區幸福路602-1號","121.45224","25.0493","6500500","新莊區"
"242042","566-BX","2018/04/30 17:19:46","新北市新莊區中正路481號","121.441346666667","25.0337783333333","6500500","新莊區"
"242046","497-BY","2018/04/30 17:19:36","新北市新莊區新樹路65-5號","121.439456666667","25.0308033333333","6500500","新莊區"
"242050","442-UM","2018/04/30 17:19:39","新北市新莊區瓊林北路55號","121.438763333333","25.0207383333333","6500500","新莊區"
"242056","440-UM","2018/04/30 17:19:47","新北市新莊區中正路473-1號","121.441993333333","25.0329566666667","6500500","新莊區"
"242007","413-TV","2018/04/30 17:19:41","新北市新莊區新泰路500號","121.442435","25.0458766666667","6500500","新莊區"
"242044","400-BY","2018/04/30 17:19:44","新北市新莊區中正路612-1號","121.426231666667","25.0300566666667","6500500","新莊區"
"242023","362-BY","2018/04/30 17:19:38","新北市新莊區新泰路500號","121.442456666667","25.0459016666667","6500500","新莊區"
"242060","353-BY","2018/04/30 17:19:45","新北市新莊區三和路10號","121.441996666667","25.0354583333333","6500500","新莊區"
"242009","132-UY","2018/04/30 17:19:41","新北市新莊區新泰路502巷6號","121.442716666667","25.046395","6500500","新莊區"
"242039","133-UY","2018/04/30 17:19:42","新北市新莊區民安路302號","121.428271666667","25.02187","6500500","新莊區"
"242031","135-UY","2018/04/30 17:19:30","新北市新莊區三和路12-15號","121.44205","25.0373316666667","6500500","新莊區"
"242048","172-VK","2018/04/30 17:19:34","新北市新莊區龍安路256號","121.421255","25.0195983333333","6500500","新莊區"
"242011","173-VK","2018/04/30 17:19:43","新北市新莊區新泰路255巷83號","121.442163333333","25.0387516666667","6500500","新莊區"
"242017","175-VK","2018/04/30 17:19:34","新北市新莊區中平路82巷29號","121.446023333333","25.0449166666667","6500500","新莊區"
"242004","176-VK","2018/04/30 17:19:37","新北市新莊區新泰路500號","121.442543333333","25.0460366666667","6500500","新莊區"
"242015","346-TH","2018/04/30 17:19:38","新北市新莊區公園一路103號","121.444698333333","25.0380883333333","6500500","新莊區"
"242021","348-TH","2018/04/30 17:19:42","新北市新莊區明中街12-30號","121.457666666667","25.039195","6500500","新莊區"
"242036","349-TH","2018/04/30 17:19:45","新北市新莊區中正路400號","121.441895","25.0341466666667","6500500","新莊區"
"242013","351-TH","2018/04/30 17:19:44","新北市新莊區新泰路357巷3弄57號","121.442301666667","25.0397883333333","6500500","新莊區"
"238019","599-UM","2018/04/30 17:19:42","新北市樹林區八德街100號","121.420905","24.98014","6500700","樹林區"
"238018","571-TV","2018/04/30 17:19:44","新北市樹林區鎮前街269巷37號","121.419238333333","24.984815","6500700","樹林區"
"238024","5061-A6","2018/04/30 17:19:36","新北市樹林區保安街一段48巷23號","121.426496666667","24.9950566666667","6500700","樹林區"
"238009","KEA-2213","2018/04/30 17:19:39","新北市樹林區仁愛街81號","121.42386","24.982925","6500700","樹林區"
"238021","KEA-2539","2018/04/30 17:19:38","新北市樹林區西圳街一段165巷3號","121.395248333333","24.9622916666667","6500700","樹林區"
"238025","303-VK","2018/04/30 17:19:45","新北市樹林區保安二街62號","121.424046666667","24.9952733333333","6500700","樹林區"
"238017","283-BY","2018/04/30 17:19:28","新北市樹林區光武街32-2號","121.416555","25.0062216666667","6500700","樹林區"
"238014","282-BY","2018/04/30 17:19:43","新北市樹林區長壽街70巷35弄5號","121.421306666667","24.9951233333333","6500700","樹林區"
"238020","268-VK","2018/04/30 17:19:32","新北市樹林區千歲街61巷2號","121.426528333333","24.997955","6500700","樹林區"
"238026","172-UY","2018/04/30 17:19:45","新北市樹林區味王街46巷32號","121.403005","24.9737766666667","6500700","樹林區"
"238016","169-UY","2018/04/30 17:19:42","新北市樹林區八德街1號","121.417518333333","24.9849766666667","6500700","樹林區"
"239006","891-R6","2018/04/30 17:19:33","新北市鶯歌區福昌街10號","121.333241666667","24.9607866666667","6500800","鶯歌區"
"239008","527-UM","2018/04/30 17:19:42","新北市鶯歌區西湖街243巷11-1號","121.339488333333","24.9650483333333","6500800","鶯歌區"
"239005","526-UM","2018/04/30 17:19:42","新北市鶯歌區福德二街20號","121.329668333333","24.9672183333333","6500800","鶯歌區"
"239001","417-VK","2018/04/30 17:19:30","新北市鶯歌區黃厝街35號","121.342756666667","24.9454383333333","6500800","鶯歌區"
"239003","360-BY","2018/04/30 17:19:36","新北市鶯歌區德昌街84號","121.332608333333","24.9601166666667","6500800","鶯歌區"
"239002","359-BY","2018/04/30 17:19:29","新北市鶯歌區建國路154號","121.350755","24.9538983333333","6500800","鶯歌區"
"239004","193-VK","2018/04/30 17:19:37","新北市鶯歌區文化路417-5號","121.352853333333","24.9487983333333","6500800","鶯歌區"
"242002","KEA-2550","2018/04/30 17:19:28","新北市新莊區新泰路368號","121.444275","25.0430083333333","6500500","新莊區"
"242019","280-VK","2018/04/30 17:19:33","新北市新莊區中環路二段392-1號","121.44238","25.045765","6500500","新莊區"
