"lineid","car","time","location","longitude","latitude","cityid","cityname"
"234046","148-BY","2018/04/30 18:29:18","新北市永和區福和路1號","121.526441666667","25.0100166666667","6500400","永和區"
"234007","207-UY","2018/04/30 18:29:30","新北市永和區環河西路二段217巷3號","121.50158","25.010135","6500400","永和區"
"234081","298-R6","2018/04/30 18:29:11","新北市永和區環河東路二段92號","121.524115","25.0105166666667","6500400","永和區"
"234086","338-UY","2018/04/30 18:29:14","新北市永和區福和路139號","121.521033333333","25.00746","6500400","永和區"
"234067","553-UM","2018/04/30 18:29:15","新北市永和區福和路1號","121.526356666667","25.00973","6500400","永和區"
"234013","KEA-2591","2018/04/30 18:29:19","新北市永和區福和路1號","121.526493333333","25.00947","6500400","永和區"
"234042","862-TW","2018/04/30 18:29:19","新北市永和區福和路139號","121.520973333333","25.0073766666667","6500400","永和區"
"234026","9371-KE","2018/04/30 18:29:24","新北市永和區中正路623號","121.515928333333","25.00991","6500400","永和區"
"234011","9373-KE","2018/04/30 18:29:28","新北市永和區保福路二段162巷2號","121.508945","25.0151466666667","6500400","永和區"
"249005","172-UM","2018/04/30 18:29:30","新北市八里區中華路三段103號","121.39295","25.13851","6502300","八里區"
"249001","173-UM","2018/04/30 18:29:13","新北市八里區龍米路一段142號","121.452928333333","25.1256566666667","6502300","八里區"
"249004","303-UY","2018/04/30 18:29:30","新北市八里區文心街115號","121.425963333333","25.1611566666667","6502300","八里區"
"249002","305-UY","2018/04/30 18:29:12","新北市八里區龍形三街17號","121.448633333333","25.1317083333333","6502300","八里區"
"248016","026-BX","2018/04/30 18:29:18","新北市五股區凌雲路一段83巷34號","121.449303333333","25.1010116666667","6501500","五股區"
"248008","095-VK","2018/04/30 18:29:31","新北市五股區四維路185巷60號","121.462673333333","25.0780416666667","6501500","五股區"
"248018","225-UY","2018/04/30 18:29:13","新北市五股區民義路二段52巷27號","121.411016666667","25.1136916666667","6501500","五股區"
"248012","247-BX","2018/04/30 18:29:27","新北市五股區御成路68號","121.441716666667","25.0926366666667","6501500","五股區"
"248014","261-SL","2018/04/30 18:29:29","新北市五股區明德路1號","121.435178333333","25.0713116666667","6501500","五股區"
"248004","677-BX","2018/04/30 18:29:21","新北市五股區民義路一段147號","121.432965","25.0874666666667","6501500","五股區"
"248002","678-BX","2018/04/30 18:29:26","新北市五股區西雲路152號","121.446341666667","25.0944133333333","6501500","五股區"
"248010","682-TV","2018/04/30 18:29:16","新北市五股區明德路8號","121.433371666667","25.0717133333333","6501500","五股區"
"234023","9380-KE","2018/04/30 18:29:27","新北市永和區福和路1號","121.525495","25.009475","6500400","永和區"
"244013","069-UM","2018/04/30 18:29:25","新北市林口區中山路260號","121.385056666667","25.07978","6501700","林口區"
"244007","080-UY","2018/04/30 18:29:28","新北市林口區太平里8-1號","121.38033","25.1140483333333","6501700","林口區"
"244019","742-UY","2018/04/30 18:29:27","新北市林口區麗園路21號","121.374905","25.068955","6501700","林口區"
"244023","483-VK","2018/04/30 18:29:27","新北市林口區四維路245巷8號","121.381678333333","25.07498","6501700","林口區"
"244017","485-VK","2018/04/30 18:29:21","新北市林口區八德路78號","121.365625","25.0655383333333","6501700","林口區"
"244009","656-BX","2018/04/30 18:29:14","新北市林口區中山路576-11號","121.376873333333","25.0856533333333","6501700","林口區"
"244011","657-BX","2018/04/30 18:29:32","新北市林口區林口路9號","121.391618333333","25.0776733333333","6501700","林口區"
"244025","837-TS","2018/04/30 18:29:18","新北市林口區南勢四街328號","121.357446666667","25.07616","6501700","林口區"
"244021","838-TS","2018/04/30 18:29:23","新北市林口區自強四街13號","121.399226666667","25.076585","6501700","林口區"
"243012","AAD-798","2018/04/30 18:29:25","新北市泰山區忠孝街17巷2號","121.427535","25.0652966666667","6501600","泰山區"
"243013","646-TV","2018/04/30 18:29:29","新北市泰山區明志路三段206巷8號","121.423295","25.0380266666667","6501600","泰山區"
"222003","016-RS","2018/04/30 18:29:27","新北市深坑區文山路一段28-1號","121.630771666667","25.0053683333333","6501800","深坑區"
"222002","659-BX","2018/04/30 18:29:19","新北市深坑區雲鄉路167號","121.621821666667","24.9979966666667","6501800","深坑區"
"231041","002-UM","2018/04/30 18:29:26","新北市新店區安華路28-1號","121.519915","24.9606783333333","6500600","新店區"
"231059","046-UY","2018/04/30 18:29:30","新北市新店區安華路28-1號","121.519596666667","24.9610033333333","6500600","新店區"
"231040","047-UY","2018/04/30 18:29:17","新北市新店區安華路28-1號","121.519248333333","24.9608533333333","6500600","新店區"
"231044","106-UY","2018/04/30 18:29:28","新北市新店區安華路28-1號","121.519611666667","24.960895","6500600","新店區"
"231046","107-UY","2018/04/30 18:29:26","新北市新店區直潭七街60號","121.532221666667","24.93981","6500600","新店區"
"231052","108-UY","2018/04/30 18:29:26","新北市新店區新烏路一段58-5號","121.545755","24.9493133333333","6500600","新店區"
"231047","187-VK","2018/04/30 18:29:29","新北市新店區安華路28-1號","121.519608333333","24.9611266666667","6500600","新店區"
"231054","KEA-2219","2018/04/30 18:29:14","新北市新店區安華路28-1號","121.51988","24.9611683333333","6500600","新店區"
"231057","256-BX","2018/04/30 18:29:28","新北市新店區環河路29巷1號","121.53708","24.9613316666667","6500600","新店區"
"231042","268-BY","2018/04/30 18:29:22","新北市新店區安華路28-1號","121.51936","24.96065","6500600","新店區"
"231051","278-BY","2018/04/30 18:29:23","新北市新店區安華路28-1號","121.5197","24.9611916666667","6500600","新店區"
"231050","AAD-862","2018/04/30 18:29:23","新北市新店區安華路28-1號","121.51985","24.9611016666667","6500600","新店區"
"231058","3713-VJ","2018/04/30 18:29:23","新北市新店區國校路10-1號","121.537765","24.955855","6500600","新店區"
"231066","4716-K9","2018/04/30 18:29:21","新北市新店區安華路28-1號","121.519393333333","24.96121","6500600","新店區"
"231056","4715-K9","2018/04/30 18:29:12","新北市新店區二十張路129巷5弄7號","121.536756666667","24.9789966666667","6500600","新店區"
"231067","4772-VM","2018/04/30 18:29:25","新北市新店區安華路28-1號","121.519276666667","24.9606266666667","6500600","新店區"
"231065","512-UM","2018/04/30 18:29:32","新北市新店區安華路28-1號","121.519313333333","24.961245","6500600","新店區"
"231049","513-UM","2018/04/30 18:29:26","新北市新店區安華路28-1號","121.51967","24.96119","6500600","新店區"
"231063","616-UM","2018/04/30 18:29:23","新北市新店區安華路28-1號","121.519541666667","24.96057","6500600","新店區"
"231061","619-UM","2018/04/30 18:29:24","新北市新店區安華路28-1號","121.519543333333","24.9607216666667","6500600","新店區"
"231064","719-UM","2018/04/30 18:29:13","新北市新店區安華路28-1號","121.519563333333","24.9611916666667","6500600","新店區"
"231062","720-UM","2018/04/30 18:29:17","新北市新店區安華路28-1號","121.519301666667","24.9611366666667","6500600","新店區"
"231060","897-TW","2018/04/30 18:29:12","新北市新店區安華路28-1號","121.519513333333","24.9606416666667","6500600","新店區"
"231045","898-TW","2018/04/30 18:29:32","新北市新店區安華路28-1號","121.519321666667","24.9609933333333","6500600","新店區"
"231043","899-TW","2018/04/30 18:29:29","新北市新店區安華路28-1號","121.519206666667","24.9608783333333","6500600","新店區"
"231055","AKT-0513","2018/04/30 18:29:14","新北市新店區中正路128巷17號","121.54255","24.9724333333333","6500600","新店區"
"235064","005-UY","2018/04/30 18:29:28","新北市中和區圓通路141巷17號","121.498945","24.9952566666667","6500300","中和區"
"235063","006-UY","2018/04/30 18:29:19","新北市中和區連城路347巷16弄23號","121.487698333333","24.99503","6500300","中和區"
"235056","096-UM","2018/04/30 18:29:18","新北市中和區員山路611巷1號","121.47788","25.011235","6500300","中和區"
"235039","097-UM","2018/04/30 18:29:28","新北市中和區宜安路60號","121.51159","24.9969483333333","6500300","中和區"
"235065","098-UM","2018/04/30 18:29:30","新北市中和區中山路二段64巷11號","121.503061666667","25.005575","6500300","中和區"
"235040","150-BY","2018/04/30 18:22:54","新北市中和區中正路192號","121.497603333333","24.9937916666667","6500300","中和區"
"235058","151-BY","2018/04/30 18:29:14","新北市中和區圓通路369巷30弄16號","121.489541666667","24.985215","6500300","中和區"
"235055","183-VK","2018/04/30 18:29:27","新北市中和區莒光路48號","121.472165","25.0036266666667","6500300","中和區"
"235038","185-VK","2018/04/30 18:29:29","新北市中和區立人街14巷40弄2號","121.519151666667","24.9955516666667","6500300","中和區"
"235049","186-VK","2018/04/30 18:29:30","新北市中和區景安路128號","121.505136666667","24.994645","6500300","中和區"
"235067","255-BX","2018/04/30 18:29:23","新北市中和區連城路469巷16號","121.483526666667","24.9952366666667","6500300","中和區"
"235072","301-VK","2018/04/30 18:29:18","新北市中和區連城路126號","121.496","24.999205","6500300","中和區"
"235043","352-BY","2018/04/30 18:29:24","新北市中和區景平路293號","121.50707","24.9930033333333","6500300","中和區"
"235068","377-QA","2018/04/30 18:29:28","新北市中和區圓通路341號","121.491686666667","24.9903766666667","6500300","中和區"
"235061","378-QA","2018/04/30 18:29:21","新北市中和區莒光路175-4號","121.472735","24.9994216666667","6500300","中和區"
"235050","4979-A6","2018/04/30 18:29:28","新北市中和區興南路一段8號","121.511528333333","24.9914033333333","6500300","中和區"
"235069","4980-A6","2018/04/30 18:29:23","新北市中和區連城路127巷21號","121.496896666667","24.99798","6500300","中和區"
"235042","551-UM","2018/04/30 18:29:22","新北市中和區自立路56巷1號","121.523436666667","24.9917566666667","6500300","中和區"
"235070","558-UM","2018/04/30 18:29:12","新北市中和區南華路17號","121.502705","24.9958733333333","6500300","中和區"
"235045","565-BX","2018/04/30 18:29:17","新北市中和區南山路236巷24弄21號","121.50493","24.9889316666667","6500300","中和區"
"235054","640-BX","2018/04/30 18:29:26","新北市中和區民享街85號","121.474416666667","25.001685","6500300","中和區"
"235060","647-TV","2018/04/30 18:29:22","新北市中和區員山路431號","121.480841666667","25.0037166666667","6500300","中和區"
"235047","732-UM","2018/04/30 18:29:30","新北市中和區南山路300號","121.507848333333","24.9870866666667","6500300","中和區"
"235046","733-UM","2018/04/30 18:29:23","新北市中和區中正路273-1號","121.49557","24.99362","6500300","中和區"
"235062","800-TS","2018/04/30 18:29:31","新北市中和區景平路726-2號","121.496753333333","25.0035216666667","6500300","中和區"
"235057","801-TS","2018/04/30 18:29:29","新北市中和區民安街148號","121.477206666667","24.9999566666667","6500300","中和區"
"235041","802-TS","2018/04/30 18:29:31","新北市中和區景安路123號","121.505728333333","24.996225","6500300","中和區"
"235052","805-TS","2018/04/30 18:29:22","新北市中和區興南路二段145號","121.505048333333","24.9839866666667","6500300","中和區"
"235048","896-TW","2018/04/30 18:29:30","新北市中和區中正路169號","121.497936666667","24.9935833333333","6500300","中和區"
"235053","900-TW","2018/04/30 18:29:28","新北市中和區連城路583巷17號","121.478908333333","24.9933183333333","6500300","中和區"
"235066","911-UM","2018/04/30 18:29:14","新北市中和區中山路二段120號","121.50287","25.0038216666667","6500300","中和區"
"235051","157-BY","2018/04/30 18:29:10","新北市中和區興南路二段142巷23號","121.503098333333","24.98373","6500300","中和區"
"235037","AAC-213","2018/04/30 18:29:29","新北市中和區景德街95號","121.515673333333","24.9913516666667","6500300","中和區"
"235059","AAC-215","2018/04/30 18:29:13","新北市中和區員山路36巷16-3號","121.484973333333","24.9913133333333","6500300","中和區"
"220086","073-UY","2018/04/30 18:29:15","新北市板橋區南雅南路二段146號","121.451743333333","24.9961883333333","6500100","板橋區"
"226004","312-R5","2018/04/30 18:29:18","新北市平溪區靜安路二段280號","121.728611666667","25.0230266666667","6502400","平溪區"
"228003","097-TW","2018/04/30 18:29:26","新北市貢寮區和美里和美街38號","121.91224","25.0880566666667","6502600","貢寮區"
"228002","585-TW","2018/04/30 18:29:26","新北市貢寮區福連里福興街39-3號","121.992558333333","25.012","6502600","貢寮區"
"228001","670-TC","2018/04/30 18:29:17","新北市貢寮區仁理村仁和路166號","121.923578333333","25.052145","6502600","貢寮區"
"224010","AGQ-8101","2018/04/30 18:02:30","新北市瑞芳區金光路372號","121.848615","25.11034","6501200","瑞芳區"
"224006","676-BX","2018/04/30 18:29:18","新北市瑞芳區明燈路二段55號","121.811216666667","25.1080766666667","6501200","瑞芳區"
"224002","639-TC","2018/04/30 18:29:26","新北市瑞芳區三爪子坑路91巷41號","121.812103333333","25.1061616666667","6501200","瑞芳區"
"224008","285-BY","2018/04/30 18:29:24","新北市瑞芳區逢甲路238號","121.80597","25.1103516666667","6501200","瑞芳區"
"224007","275-VK","2018/04/30 18:29:23","新北市瑞芳區大埔路有勝二村38號","121.763845","25.0994083333333","6501200","瑞芳區"
"224009","273-VK","2018/04/30 18:29:23","新北市瑞芳區五號路108號","121.854358333333","25.1108983333333","6501200","瑞芳區"
"224005","271-BY","2018/04/30 18:29:29","新北市瑞芳區瑞濱路95號","121.820708333333","25.120525","6501200","瑞芳區"
"227001","642-TC","2018/04/30 18:29:25","新北市雙溪區魚行里坤溪21-1號","121.870408333333","25.02829","6502500","雙溪區"
"227008","400-TW","2018/04/30 18:29:13","新北市雙溪區牡丹里牡丹133號","121.851036666667","25.0590316666667","6502500","雙溪區"
"253005","032-BX","2018/04/30 18:29:21","新北市石門區老崩山7號","121.55322","25.2913016666667","6502200","石門區"
"253006","295-VK","2018/04/30 18:29:14","新北市石門區公地15號","121.545625","25.29023","6502200","石門區"
"222001","KEA-2212","2018/04/30 18:29:28","新北市深坑區北深路一段199號","121.630388333333","25.009","6501800","深坑區"
"208002","KEA-2872","2018/04/30 18:29:19","新北市金山區民生路51巷13號","121.642763333333","25.2213983333333","6502700","金山區"
"208003","665-BX","2018/04/30 18:29:23","新北市金山區中山路192號","121.637808333333","25.2215266666667","6502700","金山區"
"208001","761-BX","2018/04/30 18:29:23","新北市金山區溫泉路21巷1號","121.637776666667","25.222875","6502700","金山區"
"251004","009-UM","2018/04/30 18:29:31","新北市淡水區民族路31巷29號","121.46225","25.1364966666667","6501000","淡水區"
"251001","011-UM","2018/04/30 18:29:17","新北市淡水區自強路371號","121.464483333333","25.1332616666667","6501000","淡水區"
"251013","KEA-2871","2018/04/30 18:29:15","新北市淡水區椿子林19-1號","121.481383333333","25.2041","6501000","淡水區"
"251014","180-VK","2018/04/30 18:29:25","新北市淡水區南平26-2號","121.493483333333","25.21469","6501000","淡水區"
"251008","181-VK","2018/04/30 18:29:14","新北市淡水區北投子87-2號","121.467441666667","25.1779083333333","6501000","淡水區"
"251015","182-VK","2018/04/30 18:29:12","新北市淡水區興福寮88巷216號","121.485993333333","25.1665466666667","6501000","淡水區"
"251010","413-VK","2018/04/30 18:29:14","新北市淡水區沙崙路181巷1號","121.424156666667","25.1843616666667","6501000","淡水區"
"251012","441-VK","2018/04/30 18:29:15","新北市淡水區北新路一段175號","121.459431666667","25.182245","6501000","淡水區"
"251016","442-VK","2018/04/30 18:29:31","新北市淡水區下圭柔山106號","121.443491666667","25.209325","6501000","淡水區"
"251006","561-UM","2018/04/30 18:29:26","新北市淡水區新生街51巷18號","121.440618333333","25.1754283333333","6501000","淡水區"
"251011","650-BX","2018/04/30 18:29:17","新北市淡水區中正東路27號","121.448233333333","25.1662166666667","6501000","淡水區"
"251002","672-BX","2018/04/30 18:29:18","新北市淡水區竿蓁二街19巷15號","121.452676666667","25.1642816666667","6501000","淡水區"
"251003","766-UM","2018/04/30 18:29:31","新北市淡水區北新路169巷35-1號","121.44942","25.1801583333333","6501000","淡水區"
"207003","550-UM","2018/04/30 18:29:14","新北市萬里區野柳里港東路62-2號","121.68772","25.204215","6502800","萬里區"
"207004","225-TW","2018/04/30 18:29:27","新北市萬里區萬里里瑪鋉路272-1號","121.688875","25.1808416666667","6502800","萬里區"
"252003","249-BX","2018/04/30 18:29:29","新北市三芝區後厝里北勢子45-32號","121.469475","25.2508616666667","6502100","三芝區"
"252001","292-VK","2018/04/30 18:29:13","新北市三芝區中興街二段2號","121.498358333333","25.2566366666667","6502100","三芝區"
"237004","KEA-2597","2018/04/30 18:29:29","新北市三峽區五寮81-13號","121.359496666667","24.8579833333333","6500900","三峽區"
"237007","153-BY","2018/04/30 18:29:32","新北市三峽區中正路三段70巷14號","121.355871666667","24.9044466666667","6500900","三峽區"
"237011","572-TV","2018/04/30 18:29:14","新北市三峽區溪東路352-1號","121.412925","24.9282383333333","6500900","三峽區"
"237009","210-TH","2018/04/30 18:29:29","新北市三峽區大同路255號","121.366671666667","24.9259316666667","6500900","三峽區"
"237013","252-BX","2018/04/30 18:29:29","新北市三峽區光明路69巷25號","121.376766666667","24.9292033333333","6500900","三峽區"
"237012","275-BY","2018/04/30 18:29:20","新北市三峽區三樹路76號","121.378105","24.9383866666667","6500900","三峽區"
"237014","433-BY","2018/04/30 18:29:26","新北市三峽區文化路41-1號","121.372526666667","24.9360583333333","6500900","三峽區"
"237006","5529-G3","2018/04/30 18:29:22","新北市三峽區溪東路371巷4弄8號","121.412421666667","24.9298183333333","6500900","三峽區"
"237010","706-TV","2018/04/30 18:29:19","新北市三峽區復興路449號","121.362613333333","24.938515","6500900","三峽區"
"237005","AKY-6261","2018/04/30 18:29:11","新北市三峽區民族街5巷18號","121.369721666667","24.9316333333333","6500900","三峽區"
"236069","105-UM","2018/04/30 18:29:28","新北市土城區永豐路255巷21弄2號","121.47517","24.97349","6501300","土城區"
"236042","107-UM","2018/04/30 18:29:25","新北市土城區裕民路67巷4弄10號","121.450048333333","24.9877166666667","6501300","土城區"
"236078","166-UM","2018/04/30 18:29:14","新北市土城區中央路四段35-3號","121.42287","24.962055","6501300","土城區"
"236030","253-BX","2018/04/30 18:29:14","新北市土城區福仁街50巷9號","121.439328333333","24.97533","6501300","土城區"
"236026","269-VK","2018/04/30 18:29:28","新北市土城區南天母路135巷18號","121.448438333333","24.95463","6501300","土城區"
"236014","270-VK","2018/04/30 18:29:21","新北市土城區青雲路39巷7號","121.460355","24.9874333333333","6501300","土城區"
"236039","271-VK","2018/04/30 18:29:21","新北市土城區青雲路451巷2弄2號","121.459048333333","24.9745933333333","6501300","土城區"
"236020","401-BY","2018/04/30 18:29:14","新北市土城區永豐路202巷14號","121.466258333333","24.983355","6501300","土城區"
"236048","752-BX","2018/04/30 18:29:26","新北市土城區明德路一段323號","121.458921666667","24.97698","6501300","土城區"
"236059","912-UM","2018/04/30 18:29:16","新北市土城區中央路四段199號","121.414643333333","24.956525","6501300","土城區"
"236063","915-UM","2018/04/30 18:29:28","新北市土城區延壽路75巷8弄1號","121.468675","24.992145","6501300","土城區"
"236055","AAC-216","2018/04/30 18:29:27","新北市土城區中華路一段243號","121.4412","24.9821483333333","6501300","土城區"
"242058","986-R7","2018/04/30 18:29:25","桃園市龜山區萬壽路一段93號","121.409031666667","25.0193866666667","6500500","新莊區"
"242053","751-BX","2018/04/30 18:29:30","新北市新莊區樹新路120巷45號","121.43015","24.995985","6500500","新莊區"
"242025","613-BX","2018/04/30 18:29:14","新北市新莊區中山路一段182-38號","121.456265","25.0621033333333","6500500","新莊區"
"242042","566-BX","2018/04/30 18:29:26","新北市新莊區天祥街53號","121.414885","25.030345","6500500","新莊區"
"242046","497-BY","2018/04/30 18:29:23","新北市新莊區民安路16-9號","121.422776666667","25.0280333333333","6500500","新莊區"
"242056","440-UM","2018/04/30 18:28:56","新北市新莊區瓊泰路77巷16號","121.442658333333","25.0292466666667","6500500","新莊區"
"242044","400-BY","2018/04/30 18:29:24","新北市新莊區中正路新旺巷2號","121.415585","25.0236033333333","6500500","新莊區"
"242060","353-BY","2018/04/30 18:29:25","新北市新莊區四維路7號","121.424111666667","25.02433","6500500","新莊區"
"242009","132-UY","2018/04/30 18:29:21","新北市新莊區新泰路502巷2號","121.442418333333","25.046715","6500500","新莊區"
"242031","135-UY","2018/04/30 18:29:30","新北市新莊區新泰路257號","121.445988333333","25.0398866666667","6500500","新莊區"
"242011","173-VK","2018/04/30 18:28:49","新北市新莊區中榮街52號","121.449445","25.0528966666667","6500500","新莊區"
"238015","755-BX","2018/04/30 18:29:22","新北市樹林區啟智街187巷2號","121.415148333333","24.9871983333333","6500700","樹林區"
"238023","601-UM","2018/04/30 18:29:28","新北市樹林區忠義街18號","121.40947","25.0142433333333","6500700","樹林區"
"238019","599-UM","2018/04/30 18:29:19","新北市樹林區中華路190-16號","121.411721666667","24.980635","6500700","樹林區"
"238024","5061-A6","2018/04/30 18:29:15","新北市樹林區中山路二段74號","121.415326666667","24.9839966666667","6500700","樹林區"
"238025","303-VK","2018/04/30 18:29:25","新北市樹林區中山路三段22號","121.395681666667","24.972925","6500700","樹林區"
"238014","282-BY","2018/04/30 18:29:23","新北市樹林區中山路三段210-2號","121.38065","24.9668083333333","6500700","樹林區"
"238020","268-VK","2018/04/30 18:29:12","新北市樹林區三龍街14巷2號","121.41021","25.01801","6500700","樹林區"
"238026","172-UY","2018/04/30 18:29:25","新北市樹林區中山路三段204號","121.387223333333","24.9684183333333","6500700","樹林區"
"238016","169-UY","2018/04/30 18:29:22","新北市樹林區文化街23號","121.419265","24.9876116666667","6500700","樹林區"
"239007","AAC-297","2018/04/30 18:29:27","新北市鶯歌區重慶街98號","121.348206666667","24.9523433333333","6500800","鶯歌區"
"239008","527-UM","2018/04/30 18:29:22","新北市鶯歌區國際一路179號","121.336188333333","24.9765133333333","6500800","鶯歌區"
"239005","526-UM","2018/04/30 18:29:21","新北市鶯歌區鶯桃路668巷3號","121.32884","24.969815","6500800","鶯歌區"
"239001","417-VK","2018/04/30 18:29:30","新北市鶯歌區國中街178號","121.338253333333","24.939195","6500800","鶯歌區"
"239003","360-BY","2018/04/30 18:29:16","新北市鶯歌區鶯桃路429號","121.332656666667","24.9650833333333","6500800","鶯歌區"
"239002","359-BY","2018/04/30 18:29:29","新北市鶯歌區中正一路67號","121.352285","24.95444","6500800","鶯歌區"
"239004","193-VK","2018/04/30 18:29:29","新北市鶯歌區尖山路164-2號","121.345776666667","24.9481333333333","6500800","鶯歌區"
"221008","489-VK","2018/04/30 18:29:33","新北市汐止區康寧街901號","121.651411666667","25.07496","6501100","汐止區"
"221036","130-UY","2018/04/30 18:29:21","新北市汐止區大同路三段42號","121.667175","25.076745","6501100","汐止區"
"221015","131-UY","2018/04/30 18:29:26","新北市汐止區鄉長路二段23巷16號","121.667621666667","25.0830383333333","6501100","汐止區"
"221010","269-BY","2018/04/30 18:29:25","新北市汐止區汐萬路三段252巷6號","121.644246666667","25.1047316666667","6501100","汐止區"
"221012","278-VK","2018/04/30 18:29:19","新北市汐止區保長路53號","121.673585","25.0787583333333","6501100","汐止區"
"221023","279-VK","2018/04/30 18:29:22","新北市汐止區康寧街474巷2號","121.632088333333","25.0678933333333","6501100","汐止區"
"221032","280-BY","2018/04/30 18:29:15","新北市汐止區民權街二段109巷11弄5號","121.61968","25.0466883333333","6501100","汐止區"
"221027","281-BY","2018/04/30 18:29:11","新北市汐止區和平街46巷15號","121.662543333333","25.0717383333333","6501100","汐止區"
"221029","298-VK","2018/04/30 18:29:24","新北市汐止區樟樹二路330巷76號","121.642901666667","25.070365","6501100","汐止區"
"221021","299-VK","2018/04/30 18:29:28","新北市汐止區新台五路一段172號","121.65446","25.0625233333333","6501100","汐止區"
"221031","353-TW","2018/04/30 18:29:30","新北市汐止區光復街7巷34號","121.640783333333","25.0599066666667","6501100","汐止區"
"221035","622-UM","2018/04/30 18:29:28","新北市汐止區大同路二段33-1號","121.647805","25.0632366666667","6501100","汐止區"
"221025","623-UM","2018/04/30 18:29:16","新北市汐止區仁愛路120號","121.662893333333","25.0637866666667","6501100","汐止區"
"221038","646-BX","2018/04/30 18:29:25","新北市汐止區忠孝東路303號","121.66426","25.0690116666667","6501100","汐止區"
"221033","647-BX","2018/04/30 18:28:54","新北市汐止區宜興街53號","121.622545","25.04282","6501100","汐止區"
"221002","707-TV","2018/04/30 18:29:26","新北市汐止區福德一路149號","121.636716666667","25.0665966666667","6501100","汐止區"
"221018","753-BX","2018/04/30 18:29:29","新北市汐止區茄苳路226號","121.670988333333","25.0686583333333","6501100","汐止區"
"242002","KEA-2550","2018/04/30 18:29:27","新北市新莊區碧江街31號","121.452245","25.0331","6500500","新莊區"
"220071","283-VK","2018/04/30 18:29:29","新北市板橋區華東街1-9號","121.448115","24.994895","6500100","板橋區"
"220084","296-UM","2018/04/30 18:29:24","新北市板橋區華東街1-9號","121.448156666667","24.99491","6500100","板橋區"
"220075","303-R5","2018/04/30 18:29:20","新北市板橋區華東街1-10號","121.448268333333","24.99493","6500100","板橋區"
"220062","305-R5","2018/04/30 18:29:15","新北市板橋區民生路二段120號","121.470313333333","25.0197066666667","6500100","板橋區"
"220064","486-VK","2018/04/30 18:29:32","新北市板橋區南雅南路二段122-2號","121.45166","24.99861","6500100","板橋區"
"220035","560-BX","2018/04/30 18:29:29","新北市板橋區南雅南路二段142巷2號","121.451651666667","24.9963166666667","6500100","板橋區"
"220054","741-BX","2018/04/30 18:29:10","新北市板橋區華東街1-9號","121.448115","24.9949033333333","6500100","板橋區"
"220067","829-TW","2018/04/30 18:29:14","新北市板橋區民生路二段120號","121.470695","25.019465","6500100","板橋區"
"220074","895-R6","2018/04/30 18:29:24","新北市板橋區華東街1-9號","121.44821","24.9949516666667","6500100","板橋區"
"220073","985-R7","2018/04/30 18:29:19","新北市板橋區華東街1-10號","121.44832","24.9950633333333","6500100","板橋區"
