"lineid","car","time","location","longitude","latitude","cityid","cityname"
"234046","148-BY","2018/04/30 19:09:18","新北市永和區永元路18巷12弄2號","121.522963333333","25.00023","6500400","永和區"
"234007","207-UY","2018/04/30 19:09:30","新北市永和區中山路一段175-1號","121.509546666667","25.0090816666667","6500400","永和區"
"234081","298-R6","2018/04/30 19:09:31","新北市永和區永貞路39巷5號","121.521458333333","25.0065633333333","6500400","永和區"
"234038","336-UY","2018/04/30 19:09:23","新北市永和區民樂街69巷1號","121.527451666667","24.9978","6500400","永和區"
"234064","337-UY","2018/04/30 19:09:19","新北市永和區秀朗路二段31號","121.521255","25.0024733333333","6500400","永和區"
"234086","338-UY","2018/04/30 19:09:14","新北市永和區永貞路118號","121.51871","25.004475","6500400","永和區"
"234070","552-UM","2018/04/30 19:09:16","新北市永和區豫溪街95巷8號","121.518116666667","25.0107633333333","6500400","永和區"
"234067","553-UM","2018/04/30 19:09:15","新北市永和區保平路23號","121.512656666667","25.0073","6500400","永和區"
"234017","745-BX","2018/04/30 19:09:31","新北市永和區文化路90巷15號","121.513776666667","25.016055","6500400","永和區"
"234030","746-BX","2018/04/30 19:09:30","新北市永和區民生路31號","121.52288","24.998355","6500400","永和區"
"234054","KEA-2590","2018/04/30 19:09:11","新北市永和區中興街149號","121.519101666667","25.0123666666667","6500400","永和區"
"234013","KEA-2591","2018/04/30 19:09:19","新北市永和區保福路二段49號","121.510931666667","25.0118316666667","6500400","永和區"
"234061","AAD-866","2018/04/30 19:09:29","新北市永和區安樂路304巷12號","121.514631666667","25.00514","6500400","永和區"
"234042","862-TW","2018/04/30 19:09:25","新北市永和區保平路111巷2弄12號","121.510545","25.0060833333333","6500400","永和區"
"234050","863-TW","2018/04/30 19:09:17","新北市永和區文化路135巷32弄1號","121.510873333333","25.0140916666667","6500400","永和區"
"234026","9371-KE","2018/04/30 19:09:24","新北市永和區安樂路272巷9弄7號","121.515011666667","25.00459","6500400","永和區"
"234011","9373-KE","2018/04/30 19:09:28","新北市永和區仁愛路141巷30弄1號","121.511716666667","25.0116483333333","6500400","永和區"
"249005","172-UM","2018/04/30 19:09:30","新北市八里區中華路三段98-1號","121.392653333333","25.13669","6502300","八里區"
"249001","173-UM","2018/04/30 19:09:13","新北市八里區龍米路二段228-2號","121.432665","25.15842","6502300","八里區"
"248016","026-BX","2018/04/30 19:09:17","新北市五股區成泰路三段543巷21號","121.450566666667","25.10248","6501500","五股區"
"248018","225-UY","2018/04/30 19:09:13","新北市五股區民義路一段240號","121.42677","25.091755","6501500","五股區"
"248012","247-BX","2018/04/30 19:09:27","新北市五股區中興路四段48巷16號","121.43866","25.08341","6501500","五股區"
"248004","677-BX","2018/04/30 19:09:21","新北市五股區民義路一段185-4號","121.431886666667","25.088385","6501500","五股區"
"248002","678-BX","2018/04/30 19:09:26","新北市五股區凌雲路一段158巷14-1號","121.447858333333","25.1034466666667","6501500","五股區"
"248010","682-TV","2018/04/30 19:09:16","新北市五股區水碓一路23號","121.430581666667","25.0713583333333","6501500","五股區"
"234023","9380-KE","2018/04/30 19:09:26","新北市永和區中興街10巷40號","121.515821666667","25.011135","6500400","永和區"
"234077","969-R7","2018/04/30 19:09:21","新北市永和區民權路34號","121.520143333333","24.998935","6500400","永和區"
"234074","AAC-211","2018/04/30 19:09:16","新北市永和區竹林路222號","121.520726666667","25.0081033333333","6500400","永和區"
"234003","AAC-295","2018/04/30 19:09:27","新北市永和區中山路一段90號","121.511761666667","25.0108183333333","6500400","永和區"
"244013","069-UM","2018/04/30 19:09:25","新北市林口區麗園二街1巷9號","121.379061666667","25.07038","6501700","林口區"
"244019","742-UY","2018/04/30 19:09:27","新北市林口區麗園二街1巷4-3號","121.377426666667","25.0700366666667","6501700","林口區"
"244023","483-VK","2018/04/30 19:09:26","新北市林口區文化三路一段617巷88號","121.370453333333","25.07841","6501700","林口區"
"244017","485-VK","2018/04/30 19:09:21","新北市林口區民族路241號","121.37044","25.0792133333333","6501700","林口區"
"244009","656-BX","2018/04/30 19:09:34","新北市林口區中山路278號","121.382313333333","25.081215","6501700","林口區"
"244011","657-BX","2018/04/30 19:09:27","新北市林口區竹林路74號","121.387935","25.0784","6501700","林口區"
"243012","AAD-798","2018/04/30 19:09:24","新北市泰山區辭修路36巷8弄1號","121.427891666667","25.0584866666667","6501600","泰山區"
"243011","297-R6","2018/04/30 19:09:22","新北市泰山區明志路二段368號","121.425495","25.0449683333333","6501600","泰山區"
"243015","380-SR","2018/04/30 19:09:22","新北市泰山區明志路一段401號","121.430896666667","25.0573083333333","6501600","泰山區"
"243014","421-VK","2018/04/30 19:09:32","新北市泰山區泰林路二段370號","121.428516666667","25.0637983333333","6501600","泰山區"
"243010","KEA-2215","2018/04/30 19:09:16","新北市泰山區明志路一段483巷1弄1號","121.431026666667","25.05551","6501600","泰山區"
"243009","KEA-2216","2018/04/30 19:09:18","新北市泰山區明志路一段117巷9號","121.434011666667","25.0635516666667","6501600","泰山區"
"243013","646-TV","2018/04/30 19:09:29","新北市泰山區明志路三段231巷2弄1號","121.424063333333","25.037675","6501600","泰山區"
"243016","680-BX","2018/04/30 19:09:20","新北市泰山區明志路三段1號","121.424801666667","25.043475","6501600","泰山區"
"222003","016-RS","2018/04/30 19:09:27","新北市深坑區深南路162號","121.626046666667","25.014965","6501800","深坑區"
"222002","659-BX","2018/04/30 19:09:19","新北市深坑區北深路一段229巷1號","121.62953","25.0069066666667","6501800","深坑區"
"231041","002-UM","2018/04/30 19:09:26","新北市新店區溪園路405號","121.524061666667","24.9781716666667","6500600","新店區"
"231059","046-UY","2018/04/30 19:09:34","新北市新店區安和路一段55號","121.51758","24.96619","6500600","新店區"
"231040","047-UY","2018/04/30 19:09:17","新北市新店區三民路155-1號","121.533865","24.9733883333333","6500600","新店區"
"231044","106-UY","2018/04/30 19:09:28","新北市新店區中興路三段170號","121.544251666667","24.980935","6500600","新店區"
"231046","107-UY","2018/04/30 19:09:26","新北市新店區華潭街52號","121.528743333333","24.9547933333333","6500600","新店區"
"231052","108-UY","2018/04/30 19:09:26","新北市新店區自強路117號","121.546135","24.9230766666667","6500600","新店區"
"231047","187-VK","2018/04/30 19:09:29","新北市新店區德正街27巷29弄60號","121.545761666667","24.9729733333333","6500600","新店區"
"231054","KEA-2219","2018/04/30 19:09:34","新北市新店區新店路104號","121.537118333333","24.9546316666667","6500600","新店區"
"231042","268-BY","2018/04/30 19:09:22","新北市新店區中興路一段168號","121.542941666667","24.9643116666667","6500600","新店區"
"231051","278-BY","2018/04/30 19:09:23","新北市新店區中正路382巷28號","121.53562","24.9779033333333","6500600","新店區"
"231050","AAD-862","2018/04/30 19:09:23","新北市新店區竹林路2巷29弄1號","121.550056666667","24.9504933333333","6500600","新店區"
"231058","3713-VJ","2018/04/30 19:09:23","新北市新店區光明街104號","121.53907","24.96061","6500600","新店區"
"231066","4716-K9","2018/04/30 19:09:21","新北市新店區安康路三段359巷12弄1號","121.484571666667","24.9497783333333","6500600","新店區"
"231056","4715-K9","2018/04/30 19:09:32","新北市新店區二十張路46巷33號","121.53667","24.982005","6500600","新店區"
"231067","4772-VM","2018/04/30 19:09:25","新北市新店區薏仁坑路2-1號","121.50065","24.95807","6500600","新店區"
"231065","512-UM","2018/04/30 19:09:32","新北市新店區安祥路145巷31號","121.4755","24.9566366666667","6500600","新店區"
"231049","513-UM","2018/04/30 19:09:26","新北市新店區二十張路25巷1號","121.538883333333","24.98208","6500600","新店區"
"231063","616-UM","2018/04/30 19:09:23","新北市新店區車子路117號","121.505328333333","24.9518","6500600","新店區"
"231061","619-UM","2018/04/30 19:09:27","新北市新店區安康路一段355-10號","121.520385","24.963805","6500600","新店區"
"231064","719-UM","2018/04/30 19:09:33","新北市新店區安忠路56巷6號","121.513","24.9593966666667","6500600","新店區"
"231062","720-UM","2018/04/30 19:09:17","新北市新店區安平路56號","121.520048333333","24.968505","6500600","新店區"
"231060","897-TW","2018/04/30 19:09:32","新北市新店區安康路二段310號","121.505851666667","24.958095","6500600","新店區"
"231045","898-TW","2018/04/30 19:09:32","新北市新店區北宜路一段164號","121.54041","24.953395","6500600","新店區"
"231043","899-TW","2018/04/30 19:09:29","新北市新店區寶橋路98號","121.546995","24.9757833333333","6500600","新店區"
"241026","066-VK","2018/04/30 19:09:29","新北市三重區泉州街61巷1號","121.49468","25.0546266666667","6500200","三重區"
"241035","KEA-2210","2018/04/30 19:09:26","新北市三重區重新路四段138號","121.486446666667","25.0564133333333","6500200","三重區"
"241029","942-UM","2018/04/30 19:09:19","新北市三重區集美街222號","121.491893333333","25.05543","6500200","三重區"
"235064","005-UY","2018/04/30 19:09:27","新北市中和區泰和街30巷1號","121.499323333333","25.000435","6500300","中和區"
"235063","006-UY","2018/04/30 19:09:19","新北市中和區中正路634號","121.48544","24.9961916666667","6500300","中和區"
"235056","096-UM","2018/04/30 19:09:18","新北市板橋區三民路二段228號","121.478825","25.0114383333333","6500300","中和區"
"235039","097-UM","2018/04/30 19:09:24","新北市永和區中正路131號","121.515763333333","24.9980866666667","6500300","中和區"
"235065","098-UM","2018/04/30 19:09:30","新北市中和區中山路二段136巷23號","121.501428333333","25.0041866666667","6500300","中和區"
"235040","150-BY","2018/04/30 19:09:14","新北市中和區宜安路63號","121.511431666667","24.99686","6500300","中和區"
"235058","151-BY","2018/04/30 19:09:13","新北市中和區員山路143巷9號","121.480301666667","24.9960316666667","6500300","中和區"
"235055","183-VK","2018/04/30 19:09:27","新北市中和區德光路11號","121.471235","25.0044766666667","6500300","中和區"
"235038","185-VK","2018/04/30 19:09:29","新北市中和區大仁街10巷27弄4號","121.519196666667","24.9926883333333","6500300","中和區"
"235049","186-VK","2018/04/30 19:09:30","新北市中和區南華路77號","121.505145","24.99737","6500300","中和區"
"235067","255-BX","2018/04/30 19:09:23","新北市中和區新生街191號","121.483738333333","25.0002516666667","6500300","中和區"
"235044","293-VK","2018/04/30 19:09:21","新北市中和區中興街222-5號","121.50058","24.9896366666667","6500300","中和區"
"235072","301-VK","2018/04/30 19:09:18","新北市中和區永和路39巷4號","121.49784","25.00502","6500300","中和區"
"235043","352-BY","2018/04/30 19:09:24","新北市中和區景平路148號","121.518073333333","24.9920283333333","6500300","中和區"
"235068","377-QA","2018/04/30 19:09:28","新北市中和區圓通路160-1號","121.497641666667","24.9954683333333","6500300","中和區"
"235061","378-QA","2018/04/30 19:09:21","新北市中和區民有街63號","121.476483333333","25.0033783333333","6500300","中和區"
"235050","4979-A6","2018/04/30 19:09:28","新北市中和區復興路65-2號","121.503976666667","24.9900466666667","6500300","中和區"
"235069","4980-A6","2018/04/30 19:09:23","新北市中和區中和路217巷12號","121.50446","25.0005216666667","6500300","中和區"
"235042","551-UM","2018/04/30 19:09:22","新北市中和區自立路117巷2弄2號","121.522233333333","24.9944133333333","6500300","中和區"
"235070","558-UM","2018/04/30 19:09:12","新北市中和區中和路102-1號","121.502291666667","24.9995166666667","6500300","中和區"
"235045","565-BX","2018/04/30 19:09:17","新北市中和區景新街467巷35弄11號","121.514166666667","24.9888983333333","6500300","中和區"
"235054","640-BX","2018/04/30 19:09:26","新北市中和區國光街114號","121.469826666667","25.0007033333333","6500300","中和區"
"235060","647-TV","2018/04/30 19:09:22","新北市中和區民享街91-12號","121.474701666667","25.00074","6500300","中和區"
"235047","732-UM","2018/04/30 19:09:30","新北市中和區興南路一段113號","121.509123333333","24.9879216666667","6500300","中和區"
"235046","733-UM","2018/04/30 19:09:23","新北市中和區忠孝街1巷52號","121.508358333333","24.98444","6500300","中和區"
"235071","783-BX","2018/04/30 19:09:18","新北市中和區連城路469巷6號","121.483546666667","24.99553","6500300","中和區"
"235057","801-TS","2018/04/30 19:09:29","新北市中和區民利街68巷2弄1號","121.478436666667","24.9987166666667","6500300","中和區"
"235041","802-TS","2018/04/30 19:09:31","新北市中和區景安路2號","121.50784","24.9991216666667","6500300","中和區"
"235052","805-TS","2018/04/30 19:09:22","新北市中和區興南路二段142巷19弄13號","121.502738333333","24.9835083333333","6500300","中和區"
"235048","896-TW","2018/04/30 19:09:29","新北市中和區華新街194號","121.506846666667","24.9820583333333","6500300","中和區"
"235053","900-TW","2018/04/30 19:09:28","新北市中和區華福街86號","121.467491666667","24.9963716666667","6500300","中和區"
"235066","911-UM","2018/04/30 19:09:14","新北市中和區廣福路20號","121.505105","25.0025383333333","6500300","中和區"
"235051","157-BY","2018/04/30 19:09:30","新北市中和區興南路一段71號","121.510265","24.9892383333333","6500300","中和區"
"235037","AAC-213","2018/04/30 19:09:29","新北市中和區秀朗路三段58-1號","121.52605","24.995125","6500300","中和區"
"235059","AAC-215","2018/04/30 19:09:33","新北市中和區圓通路294巷13號","121.488785","24.9900616666667","6500300","中和區"
"220068","013-TV","2018/04/30 19:09:24","新北市板橋區中山路二段443巷53號","121.480838333333","25.0215133333333","6500100","板橋區"
"220065","072-UY","2018/04/30 19:09:28","新北市板橋區民族路151巷57號","121.469373333333","25.0084783333333","6500100","板橋區"
"220086","073-UY","2018/04/30 19:09:26","新北市板橋區中正路216巷144號","121.460415","25.0195133333333","6500100","板橋區"
"220106","075-UY","2018/04/30 19:09:22","新北市板橋區文化路二段315號","121.472153333333","25.0297683333333","6500100","板橋區"
"220069","AAD-861","2018/04/30 19:09:33","新北市板橋區大華街172號","121.459335","25.0035266666667","6500100","板橋區"
"226004","312-R5","2018/04/30 19:09:18","新北市平溪區靜安路三段86號","121.770038333333","25.034715","6502400","平溪區"
"228003","097-TW","2018/04/30 19:09:26","新北市貢寮區和美里和美街37號","121.912275","25.0869616666667","6502600","貢寮區"
"228002","585-TW","2018/04/30 19:09:26","新北市貢寮區福隆里福隆街32-1號","121.945013333333","25.017375","6502600","貢寮區"
"228001","670-TC","2018/04/30 19:09:34","新北市貢寮區真理里新港街10號","121.925515","25.0543616666667","6502600","貢寮區"
"224010","AGQ-8101","2018/04/30 19:09:10","新北市瑞芳區基山街38號","121.844875","25.108415","6501200","瑞芳區"
"224006","676-BX","2018/04/30 19:09:32","新北市瑞芳區東和路35號","121.80503","25.1059383333333","6501200","瑞芳區"
"224008","285-BY","2018/04/30 19:09:24","新北市瑞芳區一坑路462號","121.802473333333","25.1098383333333","6501200","瑞芳區"
"224009","273-VK","2018/04/30 19:09:23","新北市瑞芳區洞頂路206-1號","121.860731666667","25.1199183333333","6501200","瑞芳區"
"224005","271-BY","2018/04/30 19:09:29","新北市瑞芳區三爪子坑路61號","121.812706666667","25.10735","6501200","瑞芳區"
"227001","642-TC","2018/04/30 19:09:25","新北市雙溪區平林里外平林10-4號","121.85916","25.0380633333333","6502500","雙溪區"
"227008","400-TW","2018/04/30 19:09:13","新北市雙溪區牡丹里中正路46-4號","121.865028333333","25.0390133333333","6502500","雙溪區"
"253005","032-BX","2018/04/30 19:09:21","新北市石門區小坑14-3號","121.60069","25.2871166666667","6502200","石門區"
"253006","295-VK","2018/04/30 19:09:14","新北市石門區崁子腳58-6號","121.530335","25.286395","6502200","石門區"
"222001","KEA-2212","2018/04/30 19:09:28","新北市深坑區北深路一段300號","121.624218333333","25.00568","6501800","深坑區"
"208002","KEA-2872","2018/04/30 19:09:19","新北市金山區仁愛路67巷24號","121.634333333333","25.2211016666667","6502700","金山區"
"208003","665-BX","2018/04/30 19:09:29","新北市金山區中正路97號","121.633023333333","25.2216533333333","6502700","金山區"
"208001","761-BX","2018/04/30 19:09:23","新北市金山區溫泉路4號","121.63958","25.22194","6502700","金山區"
"251009","008-UM","2018/04/30 19:09:33","新北市淡水區清水街140號","121.441408333333","25.170215","6501000","淡水區"
"251005","010-UM","2018/04/30 19:09:13","新北市淡水區原德路1號","121.44189","25.1710133333333","6501000","淡水區"
"251001","011-UM","2018/04/30 19:09:17","新北市淡水區自強路201巷39號","121.4621","25.1268166666667","6501000","淡水區"
"251013","KEA-2871","2018/04/30 19:09:15","新北市淡水區安子內12號","121.481548333333","25.2190816666667","6501000","淡水區"
"251014","180-VK","2018/04/30 19:09:18","新北市淡水區北勢子9號","121.482701666667","25.2282333333333","6501000","淡水區"
"251015","182-VK","2018/04/30 19:09:32","新北市淡水區南勢埔34號","121.484241666667","25.179895","6501000","淡水區"
"251010","413-VK","2018/04/30 19:09:14","新北市淡水區中正路一段156巷10-3號","121.421471666667","25.180245","6501000","淡水區"
"251016","442-VK","2018/04/30 19:09:30","新北市淡水區下圭柔山119-51號","121.450715","25.2084666666667","6501000","淡水區"
"251006","561-UM","2018/04/30 19:09:26","新北市淡水區崁頂59號","121.440923333333","25.1997533333333","6501000","淡水區"
"251007","575-R6","2018/04/30 19:09:23","新北市淡水區民生路145巷58號","121.468025","25.13883","6501000","淡水區"
"251002","672-BX","2018/04/30 19:09:31","新北市淡水區中山路87巷1號","121.442525","25.1704716666667","6501000","淡水區"
"251003","766-UM","2018/04/30 19:09:31","新北市淡水區中山北路一段104號","121.442613333333","25.176665","6501000","淡水區"
"207003","550-UM","2018/04/30 19:09:34","新北市萬里區大鵬里萬里加投14號","121.650095","25.20885","6502800","萬里區"
"207004","225-TW","2018/04/30 19:09:26","新北市萬里區萬里里瑪鋉下街35號","121.691376666667","25.1791266666667","6502800","萬里區"
"252002","178-VK","2018/04/30 19:09:19","新北市三芝區埔坪里埔頭坑80號","121.509955","25.2538683333333","6502100","三芝區"
"252003","249-BX","2018/04/30 19:09:15","新北市三芝區錫板里南勢崗8號","121.479278333333","25.261605","6502100","三芝區"
"252001","292-VK","2018/04/30 19:09:13","新北市三芝區長勤街84號","121.500196666667","25.2550733333333","6502100","三芝區"
"237004","KEA-2597","2018/04/30 19:09:29","新北市三峽區有木206號","121.439103333333","24.8516516666667","6500900","三峽區"
"237007","153-BY","2018/04/30 19:09:32","新北市三峽區中正路二段42巷84號","121.364365","24.9205883333333","6500900","三峽區"
"237011","572-TV","2018/04/30 19:09:14","新北市三峽區介壽路二段91-3號","121.391758333333","24.9354083333333","6500900","三峽區"
"237009","210-TH","2018/04/30 19:09:29","新北市三峽區文化路208號","121.368998333333","24.93595","6500900","三峽區"
"237013","252-BX","2018/04/30 19:09:29","新北市三峽區大同路52號","121.376838333333","24.928995","6500900","三峽區"
"237012","275-BY","2018/04/30 19:09:19","新北市三峽區三樹路222巷254弄68-3號","121.394736666667","24.9446583333333","6500900","三峽區"
"237008","302-VK","2018/04/30 19:09:30","新北市三峽區大同路168號","121.372711666667","24.9266816666667","6500900","三峽區"
"237014","433-BY","2018/04/30 19:09:25","新北市三峽區大勇路18-1號","121.367021666667","24.9380716666667","6500900","三峽區"
"237006","5529-G3","2018/04/30 19:09:22","新北市三峽區橫溪路99巷12號","121.399801666667","24.9362683333333","6500900","三峽區"
"237010","706-TV","2018/04/30 19:09:19","新北市三峽區復興路30-4號","121.374195","24.9362766666667","6500900","三峽區"
"237005","AKY-6261","2018/04/30 19:09:31","新北市三峽區中山路459巷163-3號","121.348643333333","24.9328466666667","6500900","三峽區"
"236069","105-UM","2018/04/30 19:09:18","新北市土城區裕生路86巷2號","121.447231666667","24.9851633333333","6501300","土城區"
"236078","166-UM","2018/04/30 19:09:34","新北市土城區龍泉路36-1號","121.411736666667","24.946575","6501300","土城區"
"236026","269-VK","2018/04/30 19:09:27","新北市土城區中正路53號","121.444238333333","24.975485","6501300","土城區"
"236014","270-VK","2018/04/30 19:09:21","新北市土城區學府路一段37巷30號","121.457298333333","24.9876316666667","6501300","土城區"
"236020","401-BY","2018/04/30 19:09:14","新北市土城區延峰街36巷2號","121.469646666667","24.984715","6501300","土城區"
"236048","752-BX","2018/04/30 19:09:26","新北市土城區明德路一段398-1號","121.453645","24.9790666666667","6501300","土城區"
"236059","912-UM","2018/04/30 19:09:16","新北市土城區金城路二段37號","121.449785","24.9778333333333","6501300","土城區"
"236055","AAC-216","2018/04/30 19:09:30","新北市土城區學府路一段213號","121.451583333333","24.9844666666667","6501300","土城區"
"238015","755-BX","2018/04/30 19:09:13","新北市樹林區備內街99-4號","121.407503333333","24.989375","6500700","樹林區"
"238023","601-UM","2018/04/30 19:09:28","新北市樹林區大慶街55號","121.396223333333","25.0138966666667","6500700","樹林區"
"238019","599-UM","2018/04/30 19:09:19","新北市樹林區鎮前街347巷1弄24號","121.417166666667","24.9839733333333","6500700","樹林區"
"238018","571-TV","2018/04/30 19:09:34","新北市樹林區樹新路181號","121.42903","24.997245","6500700","樹林區"
"238024","5061-A6","2018/04/30 19:09:15","新北市樹林區中山路二段249巷30號","121.403313333333","24.9754916666667","6500700","樹林區"
"238022","KEA-2213","2018/04/30 19:09:19","新北市樹林區中山路二段151巷8弄29號","121.40616","24.9775916666667","6500700","樹林區"
"238021","KEA-2539","2018/04/30 19:09:22","新北市樹林區柑園街二段342巷34號","121.370981666667","24.9521883333333","6500700","樹林區"
"238025","303-VK","2018/04/30 19:09:25","新北市樹林區中山路三段315號","121.391088333333","24.9716016666667","6500700","樹林區"
"238017","283-BY","2018/04/30 19:09:28","新北市樹林區保安街二段37-1號","121.416136666667","25.0002066666667","6500700","樹林區"
"238014","282-BY","2018/04/30 19:09:31","新北市樹林區千歲街63-12號","121.427028333333","24.998525","6500700","樹林區"
"238020","268-VK","2018/04/30 19:09:12","新北市樹林區俊英街133巷1弄4號","121.423845","25.0113566666667","6500700","樹林區"
"238026","172-UY","2018/04/30 19:09:25","新北市樹林區佳園路一段72巷8號","121.39282","24.9700083333333","6500700","樹林區"
"238016","169-UY","2018/04/30 19:09:22","新北市樹林區中山路一段306巷22號","121.419308333333","24.9866333333333","6500700","樹林區"
"239007","AAC-297","2018/04/30 19:09:27","新北市鶯歌區中正一路221號","121.354066666667","24.957335","6500800","鶯歌區"
"239006","891-R6","2018/04/30 19:09:32","新北市鶯歌區鶯桃路296巷51號","121.335761666667","24.961365","6500800","鶯歌區"
"239008","527-UM","2018/04/30 19:09:22","新北市鶯歌區國際二路6巷14號","121.338838333333","24.9737516666667","6500800","鶯歌區"
"239005","526-UM","2018/04/30 19:09:21","新北市鶯歌區大湖路267號","121.345495","24.9730633333333","6500800","鶯歌區"
"239001","417-VK","2018/04/30 19:09:29","新北市鶯歌區永智街61號","121.336636666667","24.9537066666667","6500800","鶯歌區"
"239003","360-BY","2018/04/30 19:09:28","新北市鶯歌區德昌街36號","121.333398333333","24.960245","6500800","鶯歌區"
"239004","193-VK","2018/04/30 19:09:17","新北市鶯歌區中正三路230巷11弄1衖2號","121.33001","24.9392716666667","6500800","鶯歌區"
"221008","489-VK","2018/04/30 19:09:33","新北市汐止區康寧街442號","121.631228333333","25.0681333333333","6501100","汐止區"
"221036","130-UY","2018/04/30 19:09:21","新北市汐止區汐萬路一段244-1號","121.651356666667","25.0733783333333","6501100","汐止區"
"221015","131-UY","2018/04/30 19:09:26","新北市汐止區鄉長路一段33號","121.665043333333","25.07489","6501100","汐止區"
"221010","269-BY","2018/04/30 19:09:25","新北市汐止區康寧街901號","121.651223333333","25.074885","6501100","汐止區"
"221012","278-VK","2018/04/30 19:09:19","新北市汐止區康寧街901號","121.650788333333","25.075315","6501100","汐止區"
"221023","279-VK","2018/04/30 19:09:22","新北市汐止區康寧街901號","121.650963333333","25.0751833333333","6501100","汐止區"
"221032","280-BY","2018/04/30 19:09:15","新北市汐止區橫科路407巷30弄28號","121.627335","25.0483466666667","6501100","汐止區"
"221027","281-BY","2018/04/30 19:09:31","新北市汐止區康寧街901號","121.65137","25.0750283333333","6501100","汐止區"
"221029","298-VK","2018/04/30 19:02:44","新北市汐止區樟樹二路342巷13號","121.642451666667","25.070735","6501100","汐止區"
"221031","353-TW","2018/04/30 19:09:30","新北市汐止區福德三路127號","121.63359","25.0675883333333","6501100","汐止區"
"221025","623-UM","2018/04/30 19:09:15","新北市汐止區康寧街901號","121.65158","25.0749783333333","6501100","汐止區"
"221038","646-BX","2018/04/30 19:09:25","新北市汐止區汐萬路一段312號","121.650636666667","25.075295","6501100","汐止區"
"221033","647-BX","2018/04/30 19:09:33","新北市汐止區南勢街3號","121.62708","25.03739","6501100","汐止區"
"221002","707-TV","2018/04/30 19:09:26","新北市汐止區大同路一段89號","121.623926666667","25.054735","6501100","汐止區"
"220079","145-BY","2018/04/30 19:09:15","新北市板橋區民權路302巷1弄2號","121.457335","25.0161666666667","6500100","板橋區"
"220080","200-UY","2018/04/30 19:09:31","新北市板橋區大觀路二段7巷103號","121.450323333333","25.0029716666667","6500100","板橋區"
"220082","610-BX","2018/04/30 19:09:15","新北市板橋區溪崑二街89號","121.427278333333","24.9895166666667","6500100","板橋區"
"220101","245-BX","2018/04/30 19:09:29","新北市板橋區萬板路35號","121.470758333333","25.0209833333333","6500100","板橋區"
"220056","276-BY","2018/04/30 19:09:26","新北市板橋區信義路74巷1弄15號","121.457605","24.9927233333333","6500100","板橋區"
"220072","277-BY","2018/04/30 19:09:21","新北市板橋區溪城路119號","121.427595","24.9824666666667","6500100","板橋區"
"220094","283-UM","2018/04/30 19:09:26","新北市板橋區光武街133號","121.46563","25.0291866666667","6500100","板橋區"
"220071","283-VK","2018/04/30 19:09:28","新北市板橋區重慶路327巷19弄3-2號","121.46471","24.9988266666667","6500100","板橋區"
"220053","285-VK","2018/04/30 19:09:14","新北市板橋區懷仁街35巷2弄2號","121.476841666667","25.019645","6500100","板橋區"
"220083","286-VK","2018/04/30 19:09:17","新北市板橋區大觀路二段174巷176弄4號","121.442391666667","25.0033416666667","6500100","板橋區"
"220081","287-VK","2018/04/30 19:09:17","新北市板橋區南雅西路二段156巷2號","121.451801666667","25.013405","6500100","板橋區"
"220090","288-VK","2018/04/30 19:09:16","新北市板橋區裕民街47號","121.461416666667","25.0284816666667","6500100","板橋區"
"220061","295-UM","2018/04/30 19:09:31","新北市板橋區懷仁街85巷6號","121.477783333333","25.018495","6500100","板橋區"
"220084","296-UM","2018/04/30 19:09:24","新北市板橋區溪崑一街30巷27號","121.42905","24.9915383333333","6500100","板橋區"
"220075","303-R5","2018/04/30 19:09:20","新北市板橋區南雅西路一段10巷11號","121.454523333333","25.004785","6500100","板橋區"
"220062","305-R5","2018/04/30 19:09:35","新北市板橋區三民路二段245巷69弄3號","121.481081666667","25.012885","6500100","板橋區"
"220092","307-R5","2018/04/30 19:09:27","新北市板橋區文化路二段177號","121.470595","25.0277383333333","6500100","板橋區"
"220098","317-R6","2018/04/30 19:09:28","新北市板橋區自由路51巷14弄1號","121.464765","25.02359","6500100","板橋區"
"220064","486-VK","2018/04/30 19:09:32","新北市板橋區中山路二段18號","121.472436666667","25.0149716666667","6500100","板橋區"
"220088","491-VK","2018/04/30 19:09:22","新北市板橋區文化路二段173號","121.470676666667","25.02735","6500100","板橋區"
"220035","560-BX","2018/04/30 19:09:29","新北市板橋區瑞安街46巷1號","121.455313333333","25.0221683333333","6500100","板橋區"
"220103","561-BX","2018/04/30 19:09:28","新北市板橋區文化路一段188巷9弄21號","121.468486666667","25.019465","6500100","板橋區"
"220063","609-BX","2018/04/30 19:09:16","新北市板橋區三民路二段140號","121.479028333333","25.0158816666667","6500100","板橋區"
"220055","630-UY","2018/04/30 19:09:25","新北市板橋區新民街7巷29號","121.463771666667","25.0105966666667","6500100","板橋區"
"220091","637-BX","2018/04/30 19:09:25","新北市板橋區八德路二段62號","121.482225","25.0272033333333","6500100","板橋區"
"220057","686-BX","2018/04/30 19:09:33","新北市板橋區重慶路305號","121.463783333333","24.9988566666667","6500100","板橋區"
"220077","687-BX","2018/04/30 19:09:27","新北市板橋區大觀路二段18號","121.446753333333","25.003425","6500100","板橋區"
"220093","689-BX","2018/04/30 19:09:27","新北市板橋區民生路三段179號","121.465295","25.027185","6500100","板橋區"
"220054","741-BX","2018/04/30 19:09:11","新北市板橋區重慶路89巷21號","121.462988333333","25.0065383333333","6500100","板橋區"
"220102","KEA-2699","2018/04/30 19:09:24","新北市板橋區田單街2巷34號","121.482241666667","25.0278016666667","6500100","板橋區"
"220067","829-TW","2018/04/30 19:09:14","新北市板橋區民享街116巷2弄11號","121.477461666667","25.0154583333333","6500100","板橋區"
"220096","830-TW","2018/04/30 19:09:26","新北市板橋區雙十路二段33巷1-1號","121.47655","25.0256066666667","6500100","板橋區"
"220089","833-TW","2018/04/30 19:09:29","新北市板橋區文化路二段389號","121.473541666667","25.03151","6500100","板橋區"
"220074","895-R6","2018/04/30 19:08:44","新北市板橋區中正路自強新村43-2號","121.454898333333","25.0139433333333","6500100","板橋區"
"220073","985-R7","2018/04/30 19:09:19","新北市板橋區中正路372巷8號","121.45499","25.024125","6500100","板橋區"
"220097","AAC-210","2018/04/30 19:09:29","新北市板橋區幸福路70巷32號","121.460148333333","25.020935","6500100","板橋區"
"220070","AAC-253","2018/04/30 19:09:26","新北市板橋區忠孝路19號","121.460338333333","25.0019066666667","6500100","板橋區"
