"lineid","car","time","location","longitude","latitude","cityid","cityname"
"234046","148-BY","2018/04/30 19:29:18","新北市永和區秀朗路二段110號","121.524175","25.0015183333333","6500400","永和區"
"234007","207-UY","2018/04/30 19:29:16","新北市永和區中山路一段85號","121.512025","25.0107716666667","6500400","永和區"
"234081","298-R6","2018/04/30 19:29:19","新北市永和區福和路7巷5弄7號","121.525543333333","25.00832","6500400","永和區"
"234038","336-UY","2018/04/30 19:29:23","新北市永和區民樂街41巷1號","121.527453333333","25.0001266666667","6500400","永和區"
"234064","337-UY","2018/04/30 19:29:19","新北市永和區中正路368巷1弄82號","121.520263333333","25.0007566666667","6500400","永和區"
"234086","338-UY","2018/04/30 19:29:14","新北市永和區林森路39巷1號","121.525583333333","25.0048933333333","6500400","永和區"
"234070","552-UM","2018/04/30 19:29:17","新北市永和區中正路666巷59號","121.519086666667","25.0092083333333","6500400","永和區"
"234067","553-UM","2018/04/30 19:29:15","新北市永和區保平路125號","121.510683333333","25.0063833333333","6500400","永和區"
"234017","745-BX","2018/04/30 19:29:22","新北市永和區環河西路一段79號","121.513121666667","25.018035","6500400","永和區"
"234030","746-BX","2018/04/30 19:29:10","新北市永和區民生路69號","121.522655","24.9972933333333","6500400","永和區"
"234054","KEA-2590","2018/04/30 19:29:11","新北市永和區竹林路30號","121.517073333333","25.01482","6500400","永和區"
"234013","KEA-2591","2018/04/30 19:29:19","新北市永和區信義路14-1號","121.514355","25.012145","6500400","永和區"
"234061","AAD-866","2018/04/30 19:29:29","新北市永和區中正路499號","121.516895","25.0068116666667","6500400","永和區"
"234042","862-TW","2018/04/30 19:29:19","新北市永和區水源街33巷1號","121.510823333333","25.0044566666667","6500400","永和區"
"234050","863-TW","2018/04/30 19:29:17","新北市永和區仁愛路135號","121.5116","25.0130533333333","6500400","永和區"
"234026","9371-KE","2018/04/30 19:29:24","新北市中和區安樂路215-1號","121.5142","24.998915","6500400","永和區"
"234011","9373-KE","2018/04/30 19:29:28","新北市永和區保福路二段62-1號","121.510766666667","25.012505","6500400","永和區"
"249002","305-UY","2018/04/30 19:29:12","新北市八里區龍形一街33巷1-6號","121.449365","25.1294966666667","6502300","八里區"
"249003","593-UM","2018/04/30 19:29:23","新北市八里區商港路52巷1弄2號","121.395371666667","25.1484783333333","6502300","八里區"
"248008","095-VK","2018/04/30 19:29:11","新北市五股區中興路一段97號","121.466631666667","25.07292","6501500","五股區"
"248018","225-UY","2018/04/30 19:29:13","新北市五股區壟路17-1號","121.414151666667","25.0850866666667","6501500","五股區"
"248012","247-BX","2018/04/30 19:29:27","新北市五股區成泰路二段156號","121.438446666667","25.0839366666667","6501500","五股區"
"248014","261-SL","2018/04/30 19:29:22","新北市五股區民義路一段157-22號","121.431346666667","25.0868016666667","6501500","五股區"
"248004","677-BX","2018/04/30 19:29:21","新北市五股區五福路37號","121.433468333333","25.0894133333333","6501500","五股區"
"248002","678-BX","2018/04/30 19:25:26","新北市五股區凌雲路一段158巷14-1號","121.447871666667","25.1034233333333","6501500","五股區"
"248010","682-TV","2018/04/30 19:29:16","新北市五股區水碓一路23號","121.43059","25.0713533333333","6501500","五股區"
"234023","9380-KE","2018/04/30 19:29:06","新北市永和區竹林路91巷54號","121.521353333333","25.0128066666667","6500400","永和區"
"234077","969-R7","2018/04/30 19:29:21","新北市永和區民治街29號","121.519603333333","24.9977183333333","6500400","永和區"
"234074","AAC-211","2018/04/30 19:29:16","新北市永和區竹林路9號","121.516601666667","25.0149","6500400","永和區"
"234003","AAC-295","2018/04/30 19:29:28","新北市永和區福和路387號","121.514171666667","25.00765","6500400","永和區"
"244019","742-UY","2018/04/30 19:29:07","新北市林口區四維路102號","121.376523333333","25.0789966666667","6501700","林口區"
"244023","483-VK","2018/04/30 19:29:26","新北市林口區文化三路二段42號","121.373986666667","25.0797033333333","6501700","林口區"
"244009","656-BX","2018/04/30 19:29:14","新北市林口區嘉寶里89-1號","121.333145","25.12119","6501700","林口區"
"243012","AAD-798","2018/04/30 19:29:24","新北市泰山區明志路一段501巷19號","121.431403333333","25.0545983333333","6501600","泰山區"
"243011","297-R6","2018/04/30 19:29:21","新北市泰山區貴子路140號","121.429013333333","25.0402466666667","6501600","泰山區"
"243015","380-SR","2018/04/30 19:29:22","新北市泰山區民生路9巷17號","121.42934","25.0520766666667","6501600","泰山區"
"243014","421-VK","2018/04/30 19:29:12","新北市泰山區仁愛路6巷7號","121.43128","25.0537833333333","6501600","泰山區"
"243010","KEA-2215","2018/04/30 19:29:16","新北市泰山區民族街10巷1號","121.42914","25.051755","6501600","泰山區"
"243009","KEA-2216","2018/04/30 19:29:16","新北市泰山區半山雅6號","121.431526666667","25.06735","6501600","泰山區"
"243013","646-TV","2018/04/30 19:29:29","新北市泰山區明志路三段123巷1弄4號","121.425675","25.0406566666667","6501600","泰山區"
"243016","680-BX","2018/04/30 19:29:20","新北市泰山區明志路三段324巷2號","121.421481666667","25.0359383333333","6501600","泰山區"
"222003","016-RS","2018/04/30 19:29:07","新北市深坑區深南路88巷1號","121.620971666667","25.0117283333333","6501800","深坑區"
"222002","659-BX","2018/04/30 19:29:19","新北市深坑區北深路一段177號","121.632563333333","25.0109216666667","6501800","深坑區"
"231041","002-UM","2018/04/30 19:29:26","新北市新店區中正路616號","121.5339","24.9886866666667","6500600","新店區"
"231059","046-UY","2018/04/30 19:29:09","新北市新店區安和路三段4巷1-3號","121.5182","24.9805766666667","6500600","新店區"
"231040","047-UY","2018/04/30 19:29:17","新北市新店區中華路1號","121.541183333333","24.9673166666667","6500600","新店區"
"231044","106-UY","2018/04/30 19:29:28","新北市新店區中興路三段199號","121.543725","24.9815466666667","6500600","新店區"
"231046","107-UY","2018/04/30 19:29:26","新北市新店區中正路111號","121.542526666667","24.9707066666667","6500600","新店區"
"231052","108-UY","2018/04/30 19:29:26","新北市新店區新烏路二段212-1號","121.547571666667","24.9162133333333","6500600","新店區"
"231047","187-VK","2018/04/30 19:29:09","新北市新店區五峰路140號","121.544911666667","24.9656966666667","6500600","新店區"
"231054","KEA-2219","2018/04/30 19:29:16","新北市新店區文中路53巷4號","121.540431666667","24.95684","6500600","新店區"
"231057","256-BX","2018/04/30 19:29:10","新北市新店區花園一路三段40號","121.549863333333","24.9330383333333","6500600","新店區"
"231042","268-BY","2018/04/30 19:29:22","新北市新店區北宜路一段3號","121.538328333333","24.9583666666667","6500600","新店區"
"231051","278-BY","2018/04/30 19:29:23","新北市新店區中央五街59號","121.527558333333","24.9755916666667","6500600","新店區"
"231050","AAD-862","2018/04/30 19:29:23","新北市新店區竹林路71-7號","121.553636666667","24.9512083333333","6500600","新店區"
"231058","3713-VJ","2018/04/30 19:29:23","新北市新店區寶橋路85巷23號","121.545288333333","24.9761666666667","6500600","新店區"
"231066","4716-K9","2018/04/30 19:29:21","新北市新店區安康路三段165巷2-1號","121.489586666667","24.9516316666667","6500600","新店區"
"231067","4772-VM","2018/04/30 19:29:25","新北市新店區安康路一段105號","121.528973333333","24.9615616666667","6500600","新店區"
"231065","512-UM","2018/04/30 19:29:12","新北市新店區安祥路109巷1弄39號","121.476996666667","24.960325","6500600","新店區"
"231049","513-UM","2018/04/30 19:29:06","新北市新店區二十張路1巷3弄3號","121.540603333333","24.9820966666667","6500600","新店區"
"231063","616-UM","2018/04/30 19:29:23","新北市新店區達觀路16號","121.50316","24.9407216666667","6500600","新店區"
"231061","619-UM","2018/04/30 19:29:24","新北市新店區安康路一段228號","121.523255","24.9636483333333","6500600","新店區"
"231064","719-UM","2018/04/30 19:29:13","新北市新店區安忠路57巷1-5號","121.513286666667","24.959565","6500600","新店區"
"231062","720-UM","2018/04/30 19:29:17","新北市新店區莒光路27號","121.524595","24.9595633333333","6500600","新店區"
"231060","897-TW","2018/04/30 19:29:12","新北市新店區安康路二段1-3號","121.516865","24.9638283333333","6500600","新店區"
"231045","898-TW","2018/04/30 19:29:11","新北市新店區北宜路二段199號","121.552943333333","24.95327","6500600","新店區"
"231043","899-TW","2018/04/30 19:29:09","新北市新店區北新路二段197號","121.542626666667","24.9781566666667","6500600","新店區"
"231055","AKT-0513","2018/04/30 19:29:14","新北市新店區中華路83巷21號","121.538671666667","24.9681483333333","6500600","新店區"
"241008","059-VK","2018/04/30 19:29:18","新北市三重區永福街135巷34號","121.477493333333","25.0771383333333","6500200","三重區"
"241009","060-VK","2018/04/30 19:29:24","新北市三重區溪尾街242巷66號","121.486193333333","25.0814583333333","6500200","三重區"
"241031","061-VK","2018/04/30 19:29:26","新北市三重區集美街65號","121.488418333333","25.05417","6500200","三重區"
"241017","063-VK","2018/04/30 19:29:17","新北市三重區中正北路25巷2號","121.493233333333","25.06266","6500200","三重區"
"241026","066-VK","2018/04/30 19:29:09","新北市三重區文化南路47巷40號","121.498735","25.061","6500200","三重區"
"241028","265-UM","2018/04/30 19:29:30","新北市三重區中寮街70號","121.493035","25.0582816666667","6500200","三重區"
"241022","267-UM","2018/04/30 19:29:17","新北市三重區三民街141-1號","121.484561666667","25.06396","6500200","三重區"
"241032","269-UM","2018/04/30 19:29:17","新北市三重區三陽路42號","121.484975","25.0587033333333","6500200","三重區"
"241013","270-UM","2018/04/30 19:29:20","新北市三重區仁愛街123-5號","121.495915","25.0751216666667","6500200","三重區"
"241025","271-UM","2018/04/30 19:29:24","新北市三重區頂崁街210巷28弄4號","121.475716666667","25.0676533333333","6500200","三重區"
"241007","398-BY","2018/04/30 19:29:14","新北市三重區溪尾街138號","121.489206666667","25.07963","6500200","三重區"
"241035","KEA-2210","2018/04/30 19:29:26","新北市三重區信義西街1號","121.498143333333","25.0648666666667","6500200","三重區"
"241020","478-VK","2018/04/30 19:29:07","新北市三重區大智街260號","121.488871666667","25.0738333333333","6500200","三重區"
"241030","480-VK","2018/04/30 19:29:23","新北市三重區成功路41巷13號","121.490343333333","25.051525","6500200","三重區"
"241014","543-UM","2018/04/30 19:29:18","新北市三重區長興街35號","121.500486666667","25.0686333333333","6500200","三重區"
"241023","545-UM","2018/04/30 19:29:12","新北市三重區頂崁街99號","121.477898333333","25.0637783333333","6500200","三重區"
"241006","AAD-863","2018/04/30 19:28:53","新北市三重區後竹圍街205巷50號","121.484451666667","25.0729733333333","6500200","三重區"
"241029","942-UM","2018/04/30 19:29:19","新北市三重區中正南路216號","121.493861666667","25.055165","6500200","三重區"
"235064","005-UY","2018/04/30 19:29:27","新北市中和區南山路24號","121.501991666667","24.9981883333333","6500300","中和區"
"235063","006-UY","2018/04/30 19:29:19","新北市中和區連勝街171號","121.494173333333","24.9968883333333","6500300","中和區"
"235056","096-UM","2018/04/30 19:29:18","新北市中和區中山路三段108號","121.476761666667","25.006335","6500300","中和區"
"235039","097-UM","2018/04/30 19:29:24","新北市中和區秀峰街89號","121.521213333333","24.99025","6500300","中和區"
"235065","098-UM","2018/04/30 19:29:25","新北市中和區莊敬路35號","121.500595","25.0047916666667","6500300","中和區"
"235040","150-BY","2018/04/30 19:29:14","新北市中和區保健路10巷26號","121.508055","24.9965783333333","6500300","中和區"
"235058","151-BY","2018/04/30 19:29:13","新北市中和區員山路36巷16-2號","121.485298333333","24.99157","6500300","中和區"
"235055","183-VK","2018/04/30 19:29:06","新北市中和區莒光路120巷15弄1號","121.471633333333","25.0012733333333","6500300","中和區"
"235038","185-VK","2018/04/30 19:29:09","新北市中和區自立路37號","121.522066666667","24.99537","6500300","中和區"
"235049","186-VK","2018/04/30 19:29:10","新北市中和區景新街287號","121.509848333333","24.9934316666667","6500300","中和區"
"235067","255-BX","2018/04/30 19:29:23","新北市中和區連城路340巷10弄19號","121.483216666667","24.99659","6500300","中和區"
"235044","293-VK","2018/04/30 19:29:21","新北市中和區捷運路122號","121.505451666667","24.991485","6500300","中和區"
"235072","301-VK","2018/04/30 19:29:18","新北市中和區連城路265巷6弄7號","121.491198333333","24.9957766666667","6500300","中和區"
"235043","352-BY","2018/04/30 19:29:24","新北市中和區景新街141號","121.50636","24.9967233333333","6500300","中和區"
"235068","377-QA","2018/04/30 19:29:28","新北市中和區連勝街29-2號","121.49844","24.9979066666667","6500300","中和區"
"235061","378-QA","2018/04/30 19:29:21","新北市中和區民利街61巷15號","121.478728333333","24.9982433333333","6500300","中和區"
"235050","4979-A6","2018/04/30 19:29:08","新北市中和區中正路458號","121.490625","24.99416","6500300","中和區"
"235042","551-UM","2018/04/30 19:29:22","新北市中和區安樂路217巷35弄4號","121.513636666667","24.99784","6500300","中和區"
"235070","558-UM","2018/04/30 19:29:12","新北市中和區中和路71號","121.500643333333","25.0009566666667","6500300","中和區"
"235045","565-BX","2018/04/30 19:29:17","新北市中和區景新街399巷8號","121.51297","24.9898616666667","6500300","中和區"
"235054","640-BX","2018/04/30 19:29:26","新北市中和區國光街112巷23弄1號","121.469641666667","25.0022566666667","6500300","中和區"
"235060","647-TV","2018/04/30 19:29:22","新北市中和區新生街114巷7號","121.483203333333","25.0023466666667","6500300","中和區"
"235047","732-UM","2018/04/30 19:29:10","新北市中和區景平路239巷38號","121.508198333333","24.99228","6500300","中和區"
"235046","733-UM","2018/04/30 19:29:23","新北市中和區忠孝街37巷44號","121.510646666667","24.9847216666667","6500300","中和區"
"235071","783-BX","2018/04/30 19:29:17","新北市中和區連城路469巷11號","121.483586666667","24.9955466666667","6500300","中和區"
"235057","801-TS","2018/04/30 19:29:09","新北市中和區台新街43號","121.479753333333","25.0049333333333","6500300","中和區"
"235041","802-TS","2018/04/30 19:29:11","新北市中和區中安街132號","121.510815","25.0004","6500300","中和區"
"235052","805-TS","2018/04/30 19:29:22","新北市中和區華新街143巷69弄23號","121.507551666667","24.978905","6500300","中和區"
"235048","896-TW","2018/04/30 19:29:09","新北市中和區景新街418巷11弄15號","121.512818333333","24.9883316666667","6500300","中和區"
"235053","900-TW","2018/04/30 19:29:08","新北市中和區華順街26號","121.466931666667","24.9986483333333","6500300","中和區"
"235066","911-UM","2018/04/30 19:29:14","新北市中和區中和路136號","121.503353333333","24.9994066666667","6500300","中和區"
"235051","157-BY","2018/04/30 19:29:10","新北市中和區景新街168-1號","121.505886666667","24.9968833333333","6500300","中和區"
"235037","AAC-213","2018/04/30 19:29:29","新北市中和區秀朗路三段10巷14弄2號","121.525276666667","24.9965016666667","6500300","中和區"
"235059","AAC-215","2018/04/30 19:29:13","新北市中和區圓通路252巷6-2號","121.492788333333","24.9919133333333","6500300","中和區"
"220068","013-TV","2018/04/30 19:29:20","新北市板橋區林森街1巷6號","121.48226","25.0241516666667","6500100","板橋區"
"220065","072-UY","2018/04/30 19:28:48","新北市板橋區國泰街75巷28弄60號","121.467556666667","25.0045833333333","6500100","板橋區"
"220086","073-UY","2018/04/30 19:29:14","新北市板橋區中正路236巷8號","121.45614","25.0190233333333","6500100","板橋區"
"220106","075-UY","2018/04/30 19:29:22","新北市板橋區長江路三段62號","121.473638333333","25.0338583333333","6500100","板橋區"
"220069","AAD-861","2018/04/30 19:29:13","新北市板橋區稚暉街20號","121.455703333333","25.00444","6500100","板橋區"
"247004","337-TH","2018/04/30 19:29:29","新北市蘆洲區長安街186號","121.458908333333","25.0838183333333","6501400","蘆洲區"
"226004","312-R5","2018/04/30 19:29:18","新北市平溪區靜安路三段392巷3號","121.784363333333","25.049555","6502400","平溪區"
"228003","097-TW","2018/04/30 19:29:26","新北市貢寮區和美里和美街33號","121.913858333333","25.0830116666667","6502600","貢寮區"
"228002","585-TW","2018/04/30 19:29:26","新北市貢寮區龍門里龍門街76號","121.931303333333","25.0270716666667","6502600","貢寮區"
"228001","670-TC","2018/04/30 19:29:14","新北市貢寮區真理里延平街68-1號","121.925393333333","25.0574433333333","6502600","貢寮區"
"224010","AGQ-8101","2018/04/30 19:28:50","新北市瑞芳區烏勢巷20號","121.84559","25.1089016666667","6501200","瑞芳區"
"227001","642-TC","2018/04/30 19:29:25","新北市雙溪區雙溪里太平路50號","121.864806666667","25.035265","6502500","雙溪區"
"227008","400-TW","2018/04/30 19:29:13","新北市雙溪區新基里新基北街43號","121.868158333333","25.0397","6502500","雙溪區"
"253005","032-BX","2018/04/30 19:29:21","新北市石門區小坑9號","121.59436","25.2886","6502200","石門區"
"253006","295-VK","2018/04/30 19:29:14","新北市石門區楓林28-2號","121.542521666667","25.288935","6502200","石門區"
"222001","KEA-2212","2018/04/30 19:29:08","新北市深坑區北深路二段117號","121.616856666667","25.0031016666667","6501800","深坑區"
"208002","KEA-2872","2018/04/30 19:29:19","新北市金山區仁愛路61號","121.635176666667","25.2209733333333","6502700","金山區"
"208003","665-BX","2018/04/30 19:29:23","新北市金山區仁愛路78巷16號","121.63557","25.2214266666667","6502700","金山區"
"208001","761-BX","2018/04/30 19:29:23","新北市金山區金包里街117號","121.637481666667","25.2224983333333","6502700","金山區"
"251009","008-UM","2018/04/30 19:29:13","新北市淡水區大忠街5巷8號","121.443346666667","25.1765283333333","6501000","淡水區"
"251005","010-UM","2018/04/30 19:29:14","新北市淡水區水源街一段71巷12號","121.444328333333","25.1729033333333","6501000","淡水區"
"251001","011-UM","2018/04/30 19:29:17","新北市淡水區民權路137號","121.460006666667","25.1365666666667","6501000","淡水區"
"251013","KEA-2871","2018/04/30 19:29:15","新北市淡水區大牛稠5號","121.470666666667","25.21934","6501000","淡水區"
"251014","180-VK","2018/04/30 19:29:18","新北市淡水區小中寮19-7號","121.484756666667","25.2296333333333","6501000","淡水區"
"251015","182-VK","2018/04/30 19:29:12","新北市淡水區北新路三段38巷7號","121.48454","25.1870683333333","6501000","淡水區"
"251010","413-VK","2018/04/30 19:29:14","新北市淡水區中正路二段214號","121.426523333333","25.1895866666667","6501000","淡水區"
"251012","441-VK","2018/04/30 19:29:14","新北市淡水區中山北路三段164號","121.445743333333","25.196555","6501000","淡水區"
"251016","442-VK","2018/04/30 19:29:11","新北市淡水區下圭柔山119-51號","121.450631666667","25.20842","6501000","淡水區"
"251006","561-UM","2018/04/30 19:29:26","新北市淡水區大義街39號","121.441968333333","25.17827","6501000","淡水區"
"251007","575-R6","2018/04/30 19:29:23","新北市淡水區坪頂路46號","121.457688333333","25.1623633333333","6501000","淡水區"
"251011","650-BX","2018/04/30 19:29:21","新北市淡水區中正東路二段161巷11弄22號","121.460521666667","25.1457233333333","6501000","淡水區"
"251003","766-UM","2018/04/30 19:29:11","新北市淡水區中山北路二段183號","121.44412","25.1850216666667","6501000","淡水區"
"207003","550-UM","2018/04/30 19:29:14","新北市萬里區大鵬里萬里加投158號","121.64394","25.2150716666667","6502800","萬里區"
"207004","225-TW","2018/04/30 19:29:06","新北市萬里區萬里里瑪鋉路107號","121.688651666667","25.1773383333333","6502800","萬里區"
"252002","178-VK","2018/04/30 19:29:19","新北市三芝區淡金路二段20號","121.502678333333","25.25959","6502100","三芝區"
"252001","292-VK","2018/04/30 19:29:13","新北市三芝區長勤街42號","121.500568333333","25.2555966666667","6502100","三芝區"
"237004","KEA-2597","2018/04/30 19:29:09","新北市三峽區有木203號","121.439293333333","24.8515033333333","6500900","三峽區"
"237007","153-BY","2018/04/30 19:29:12","新北市三峽區二鬮路136巷18弄33號","121.358763333333","24.90874","6500900","三峽區"
"237011","572-TV","2018/04/30 19:29:14","新北市三峽區中正路一段312號","121.371381666667","24.9252816666667","6500900","三峽區"
"237009","210-TH","2018/04/30 19:29:09","新北市三峽區長福街2號","121.369845","24.9337233333333","6500900","三峽區"
"237013","252-BX","2018/04/30 19:29:09","新北市三峽區介壽路一段251號","121.379518333333","24.9302216666667","6500900","三峽區"
"237012","275-BY","2018/04/30 19:29:19","新北市三峽區三樹路60號","121.377738333333","24.9381583333333","6500900","三峽區"
"237008","302-VK","2018/04/30 19:29:10","新北市三峽區大同路154號","121.373108333333","24.9267316666667","6500900","三峽區"
"237014","433-BY","2018/04/30 19:29:25","新北市三峽區中山路63巷8號","121.36691","24.9343183333333","6500900","三峽區"
"237006","5529-G3","2018/04/30 19:29:22","新北市三峽區中正路一段336巷15弄2號","121.369971666667","24.9249333333333","6500900","三峽區"
"237010","706-TV","2018/04/30 19:29:19","新北市三峽區復興路31號","121.373785","24.936565","6500900","三峽區"
"237005","AKY-6261","2018/04/30 19:29:11","新北市三峽區復興路367巷1弄15號","121.364076666667","24.9380616666667","6500900","三峽區"
"236069","105-UM","2018/04/30 19:29:18","新北市土城區學府路一段161號","121.453116666667","24.9858516666667","6501300","土城區"
"236042","107-UM","2018/04/30 19:29:25","新北市土城區學府路一段276號","121.450111666667","24.983115","6501300","土城區"
"236078","166-UM","2018/04/30 19:29:14","新北市土城區中州路3巷43號","121.41338","24.9563466666667","6501300","土城區"
"236030","253-BX","2018/04/30 19:29:14","新北市土城區中央路一段306號","121.443125","24.9817666666667","6501300","土城區"
"236026","269-VK","2018/04/30 19:29:27","新北市土城區中央路二段61巷26號","121.443231666667","24.97868","6501300","土城區"
"236014","270-VK","2018/04/30 19:29:21","新北市土城區廣明街41巷38號","121.453885","24.9924533333333","6501300","土城區"
"236020","401-BY","2018/04/30 19:29:14","新北市土城區峰廷街8號","121.468696666667","24.9877583333333","6501300","土城區"
"236048","752-BX","2018/04/30 19:29:26","新北市土城區清水路203號","121.460005","24.9816933333333","6501300","土城區"
"236055","AAC-216","2018/04/30 19:29:27","新北市土城區學府路一段276號","121.450005","24.9830333333333","6501300","土城區"
"242031","135-UY","2018/04/30 19:29:18","新北市新莊區新泰路225巷22弄1號","121.445203333333","25.0393083333333","6500500","新莊區"
"242048","172-VK","2018/04/30 19:29:14","新北市新莊區後港一路3號","121.424136666667","25.02635","6500500","新莊區"
"242011","173-VK","2018/04/30 19:29:23","新北市新莊區三和路12-21號","121.442018333333","25.0387083333333","6500500","新莊區"
"238015","755-BX","2018/04/30 19:29:13","新北市樹林區復興路196號","121.42003","24.9909633333333","6500700","樹林區"
"238023","601-UM","2018/04/30 19:29:08","桃園市龜山區萬壽路一段264-1號","121.403985","25.01765","6500700","樹林區"
"238019","599-UM","2018/04/30 19:29:19","新北市樹林區東榮街13號","121.41786","24.9834583333333","6500700","樹林區"
"238018","571-TV","2018/04/30 19:29:18","新北市樹林區中華路341-4號","121.41532","24.98012","6500700","樹林區"
"238024","5061-A6","2018/04/30 19:29:15","新北市樹林區中山路三段155巷8弄1號","121.395838333333","24.972505","6500700","樹林區"
"238022","KEA-2213","2018/04/30 19:29:19","新北市樹林區名園街16號","121.419288333333","24.9793233333333","6500700","樹林區"
"238021","KEA-2539","2018/04/30 19:29:22","新北市三峽區大義路398號","121.376403333333","24.9497316666667","6500700","樹林區"
"238025","303-VK","2018/04/30 19:29:25","新北市樹林區中山路一段237號","121.42075","24.98679","6500700","樹林區"
"238017","283-BY","2018/04/30 19:29:08","新北市樹林區光興街78-1號","121.407841666667","25.0024433333333","6500700","樹林區"
"238014","282-BY","2018/04/30 19:29:22","新北市樹林區保安二街64巷19號","121.424411666667","24.9965366666667","6500700","樹林區"
"238020","268-VK","2018/04/30 19:29:12","新北市樹林區俊英街109-1號","121.424576666667","25.009725","6500700","樹林區"
"238026","172-UY","2018/04/30 19:29:25","新北市樹林區柑園街一段355號","121.389005","24.9560033333333","6500700","樹林區"
"238016","169-UY","2018/04/30 19:29:22","新北市樹林區大安路587號","121.412038333333","24.9831516666667","6500700","樹林區"
"239007","AAC-297","2018/04/30 19:25:47","新北市鶯歌區西湖街45巷1號","121.34025","24.9585433333333","6500800","鶯歌區"
"239006","891-R6","2018/04/30 19:29:12","新北市鶯歌區鶯桃路96-1號","121.33972","24.9537133333333","6500800","鶯歌區"
"239005","526-UM","2018/04/30 19:29:21","新北市鶯歌區中湖街342號","121.346921666667","24.9780916666667","6500800","鶯歌區"
"239001","417-VK","2018/04/30 19:29:09","新北市鶯歌區鶯桃路16號","121.34217","24.951715","6500800","鶯歌區"
"239003","360-BY","2018/04/30 19:29:16","新北市鶯歌區國華路49號","121.342886666667","24.955195","6500800","鶯歌區"
"239004","193-VK","2018/04/30 19:29:17","新北市鶯歌區鶯華新村27號","121.330326666667","24.9344333333333","6500800","鶯歌區"
"221008","489-VK","2018/04/30 19:29:13","新北市汐止區三民街1巷1號","121.624406666667","25.0667733333333","6501100","汐止區"
"221036","130-UY","2018/04/30 19:29:21","新北市汐止區康寧街901號","121.650896666667","25.07521","6501100","汐止區"
"221015","131-UY","2018/04/30 19:29:06","新北市汐止區康寧街901號","121.651561666667","25.0749833333333","6501100","汐止區"
"221010","269-BY","2018/04/30 19:29:25","新北市汐止區連峰街1巷1號","121.646388333333","25.0761766666667","6501100","汐止區"
"221012","278-VK","2018/04/30 19:29:19","新北市汐止區大同路三段271號","121.674155","25.0756716666667","6501100","汐止區"
"221023","279-VK","2018/04/30 19:29:22","新北市汐止區康寧街753巷1-1號","121.63911","25.0737666666667","6501100","汐止區"
"221027","281-BY","2018/04/30 19:29:11","新北市汐止區忠孝東路9號","121.658311666667","25.0660183333333","6501100","汐止區"
"221029","298-VK","2018/04/30 19:02:44","新北市汐止區樟樹二路342巷13號","121.642451666667","25.070735","6501100","汐止區"
"221031","353-TW","2018/04/30 19:29:10","新北市汐止區康寧街901號","121.650778333333","25.0751683333333","6501100","汐止區"
"221025","623-UM","2018/04/30 19:29:15","新北市汐止區大同路二段340號","121.656555","25.0670783333333","6501100","汐止區"
"221038","646-BX","2018/04/30 19:29:25","新北市汐止區汐萬路一段191號","121.652515","25.0715816666667","6501100","汐止區"
"221033","647-BX","2018/04/30 19:29:13","新北市汐止區南勢街1巷1號","121.627061666667","25.0374066666667","6501100","汐止區"
"221002","707-TV","2018/04/30 19:29:26","新北市汐止區大同路一段335號","121.638403333333","25.05949","6501100","汐止區"
"220079","145-BY","2018/04/30 19:29:15","新北市板橋區復興街24號","121.458001666667","25.0173016666667","6500100","板橋區"
"220080","200-UY","2018/04/30 19:29:26","新北市板橋區大觀路二段3巷41-2號","121.448745","25.0035783333333","6500100","板橋區"
"220082","610-BX","2018/04/30 19:29:15","新北市板橋區金門街53號","121.433256666667","24.99315","6500100","板橋區"
"220101","245-BX","2018/04/30 19:29:26","新北市板橋區縣民大道三段133巷11號","121.477276666667","25.0235016666667","6500100","板橋區"
"220056","276-BY","2018/04/30 19:29:06","新北市板橋區信義路1巷26弄34號","121.458628333333","24.996575","6500100","板橋區"
"220072","277-BY","2018/04/30 19:29:21","新北市板橋區金門街236號","121.430701666667","24.98736","6500100","板橋區"
"220094","283-UM","2018/04/30 19:29:26","新北市板橋區吳鳳路50巷8號","121.468763333333","25.030235","6500100","板橋區"
"220071","283-VK","2018/04/30 19:29:08","新北市板橋區忠孝路12號","121.45978","25.001735","6500100","板橋區"
"220053","285-VK","2018/04/30 19:29:14","新北市板橋區永豐街108號","121.476105","25.02059","6500100","板橋區"
"220083","286-VK","2018/04/30 19:29:17","新北市板橋區龍興街73巷53號","121.441751666667","25.003015","6500100","板橋區"
"220081","287-VK","2018/04/30 19:29:17","新北市板橋區南雅西路一段116號","121.45241","25.0062433333333","6500100","板橋區"
"220090","288-VK","2018/04/30 19:29:16","新北市板橋區長江路一段106巷18弄7號","121.460036666667","25.028435","6500100","板橋區"
"220061","295-UM","2018/04/30 19:29:11","新北市板橋區中山路二段211巷2號","121.476498333333","25.017345","6500100","板橋區"
"220084","296-UM","2018/04/30 19:29:24","新北市板橋區滿平街84巷120弄1號","121.426991666667","24.9863016666667","6500100","板橋區"
"220075","303-R5","2018/04/30 19:29:20","新北市板橋區大勇街54號","121.452796666667","25.0166","6500100","板橋區"
"220062","305-R5","2018/04/30 19:29:18","新北市板橋區三民路二段121號","121.479485","25.0156133333333","6500100","板橋區"
"220092","307-R5","2018/04/30 19:29:27","新北市板橋區松江街16號","121.469115","25.0263633333333","6500100","板橋區"
"220098","317-R6","2018/04/30 19:29:28","新北市板橋區民生路三段263巷4弄2號","121.463765","25.0297066666667","6500100","板橋區"
"220064","486-VK","2018/04/30 19:29:12","新北市板橋區重慶路12巷20號","121.460501666667","25.0076033333333","6500100","板橋區"
"220088","491-VK","2018/04/30 19:29:21","新北市板橋區文化路二段426號","121.47423","25.0319816666667","6500100","板橋區"
"220035","560-BX","2018/04/30 19:29:28","新北市板橋區中正路328號","121.454496666667","25.021425","6500100","板橋區"
"220103","561-BX","2018/04/30 19:29:28","新北市板橋區文化路一段268號","121.467031666667","25.020785","6500100","板橋區"
"220063","609-BX","2018/04/30 19:29:20","新北市板橋區三民路一段31巷45號","121.480868333333","25.0232716666667","6500100","板橋區"
"220055","630-UY","2018/04/30 19:29:15","新北市板橋區重慶路290巷24號","121.462246666667","24.9988233333333","6500100","板橋區"
"220091","637-BX","2018/04/30 19:29:25","新北市板橋區文聖街135巷25號","121.47899","25.02898","6500100","板橋區"
"220057","686-BX","2018/04/30 19:28:56","新北市板橋區重慶路368號","121.464475","24.9970683333333","6500100","板橋區"
"220077","687-BX","2018/04/30 19:29:06","新北市板橋區僑中二街116巷1號","121.445705","25.0062883333333","6500100","板橋區"
"220093","689-BX","2018/04/30 19:29:07","新北市板橋區英士路49號","121.461053333333","25.02464","6500100","板橋區"
"220054","741-BX","2018/04/30 19:29:10","新北市板橋區光明街52號","121.460776666667","25.0025883333333","6500100","板橋區"
"220102","KEA-2699","2018/04/30 19:29:14","新北市板橋區松柏街1巷3號","121.473695","25.0295133333333","6500100","板橋區"
"220067","829-TW","2018/04/30 19:29:14","新北市板橋區長安街138巷7弄6號","121.473411666667","25.008335","6500100","板橋區"
"220096","830-TW","2018/04/30 19:29:26","新北市板橋區大同街14-4號","121.477471666667","25.026965","6500100","板橋區"
"220089","833-TW","2018/04/30 19:29:25","新北市板橋區文化路一段47號","121.460446666667","25.013325","6500100","板橋區"
"220074","895-R6","2018/04/30 19:29:24","新北市板橋區北門街12號","121.457678333333","25.0105916666667","6500100","板橋區"
"220073","985-R7","2018/04/30 19:29:23","新北市板橋區中正路192號","121.456091666667","25.0178383333333","6500100","板橋區"
"220097","AAC-210","2018/04/30 19:29:23","新北市板橋區陽明街29巷40號","121.463313333333","25.022935","6500100","板橋區"
"220070","AAC-253","2018/04/30 19:29:26","新北市板橋區四川路一段8號","121.459421666667","25.006775","6500100","板橋區"
