"lineid","car","time","location","longitude","latitude","cityid","cityname"
"234046","148-BY","2018/04/30 19:39:23","新北市永和區秀朗路二段90號","121.523486666667","25.001665","6500400","永和區"
"234007","207-UY","2018/04/30 19:39:14","新北市永和區永和路一段36號","121.513021666667","25.0053216666667","6500400","永和區"
"234081","298-R6","2018/04/30 19:39:22","新北市永和區林森路20巷11號","121.525585","25.0059983333333","6500400","永和區"
"234038","336-UY","2018/04/30 19:39:23","新北市永和區成功路一段139號","121.527051666667","25.001425","6500400","永和區"
"234064","337-UY","2018/04/30 19:39:19","新北市永和區秀朗路一段192巷6弄10號","121.519128333333","25.0023283333333","6500400","永和區"
"234086","338-UY","2018/04/30 19:39:14","新北市永和區永亨路133號","121.524868333333","25.0041216666667","6500400","永和區"
"234070","552-UM","2018/04/30 19:39:16","新北市永和區中興街101號","121.517885","25.0120066666667","6500400","永和區"
"234067","553-UM","2018/04/30 19:39:16","新北市永和區中山路一段172號","121.509318333333","25.009075","6500400","永和區"
"234017","745-BX","2018/04/30 19:39:11","新北市永和區永和路二段425巷51號","121.513851666667","25.0173383333333","6500400","永和區"
"234030","746-BX","2018/04/30 19:39:21","新北市永和區民生路47巷4號","121.523161666667","24.9977983333333","6500400","永和區"
"234054","KEA-2590","2018/04/30 19:39:22","新北市永和區竹林路39巷22號","121.518895","25.0147366666667","6500400","永和區"
"234013","KEA-2591","2018/04/30 19:39:19","新北市永和區永平路203巷1號","121.509373333333","25.00985","6500400","永和區"
"234061","AAD-866","2018/04/30 19:39:29","新北市永和區中正路446號","121.517341666667","25.0029133333333","6500400","永和區"
"234042","862-TW","2018/04/30 19:39:19","新北市永和區中和路305巷2弄1號","121.506756666667","25.0000416666667","6500400","永和區"
"234050","863-TW","2018/04/30 19:39:17","新北市永和區保安路49號","121.509526666667","25.0158316666667","6500400","永和區"
"234026","9371-KE","2018/04/30 19:39:24","新北市永和區中和路501巷5號","121.51044","25.0026966666667","6500400","永和區"
"249004","303-UY","2018/04/30 19:39:20","新北市八里區中山路一段276號","121.41385","25.1600116666667","6502300","八里區"
"249002","305-UY","2018/04/30 19:39:12","新北市八里區頂寮二街33-1號","121.45034","25.125195","6502300","八里區"
"249003","593-UM","2018/04/30 19:39:23","新北市八里區中華路二段522號","121.39962","25.145865","6502300","八里區"
"248016","026-BX","2018/04/30 19:39:23","新北市五股區成泰路三段621號","121.452925","25.1039216666667","6501500","五股區"
"248008","095-VK","2018/04/30 19:39:11","新北市五股區四維路157號","121.467645","25.0745933333333","6501500","五股區"
"248018","225-UY","2018/04/30 19:29:33","新北市五股區壟路16號","121.41527","25.08554","6501500","五股區"
"248012","247-BX","2018/04/30 19:39:27","新北市五股區民義路一段48號","121.436975","25.084805","6501500","五股區"
"248014","261-SL","2018/04/30 19:39:22","新北市五股區五福路68巷1弄5號","121.43336","25.0905883333333","6501500","五股區"
"248004","677-BX","2018/04/30 19:39:21","新北市五股區成泰路二段82號","121.437488333333","25.0822666666667","6501500","五股區"
"248002","678-BX","2018/04/30 19:36:46","新北市五股區成泰路三段577巷81號","121.449606666667","25.1037033333333","6501500","五股區"
"248010","682-TV","2018/04/30 19:39:16","新北市五股區水碓一路11號","121.432773333333","25.072545","6501500","五股區"
"234077","969-R7","2018/04/30 19:39:21","新北市永和區民族街67巷2號","121.518526666667","24.997225","6500400","永和區"
"234074","AAC-211","2018/04/30 19:39:16","新北市永和區竹林路225巷54-3號","121.522786666667","25.00871","6500400","永和區"
"234003","AAC-295","2018/04/30 19:39:07","新北市永和區自由街71號","121.51349","25.0052083333333","6500400","永和區"
"243012","AAD-798","2018/04/30 19:39:24","新北市泰山區仁武街21號","121.433601666667","25.05472","6501600","泰山區"
"243011","297-R6","2018/04/30 19:39:25","新北市泰山區明志路三段204巷16號","121.422015","25.0382833333333","6501600","泰山區"
"243015","380-SR","2018/04/30 19:39:30","新北市泰山區民權街29號","121.428948333333","25.0506616666667","6501600","泰山區"
"243014","421-VK","2018/04/30 19:39:12","新北市泰山區泰林路二段33-7號","121.435185","25.0564633333333","6501600","泰山區"
"243010","KEA-2215","2018/04/30 19:39:16","新北市泰山區明志路二段7巷2號","121.430365","25.0535516666667","6501600","泰山區"
"243009","KEA-2216","2018/04/30 19:39:16","新北市泰山區美寧街60號","121.430998333333","25.0646633333333","6501600","泰山區"
"243013","646-TV","2018/04/30 19:39:29","新北市泰山區應化街7號","121.423905","25.0437216666667","6501600","泰山區"
"243016","680-BX","2018/04/30 19:39:20","新北市泰山區新北大道七段30號","121.419816666667","25.032225","6501600","泰山區"
"222003","016-RS","2018/04/30 19:32:28","新北市深坑區深南路51-1號","121.62112","25.00992","6501800","深坑區"
"222002","659-BX","2018/04/30 19:39:19","新北市深坑區北深路一段210號","121.63257","25.01093","6501800","深坑區"
"231041","002-UM","2018/04/30 19:39:26","新北市新店區中正路487號","121.533701666667","24.9820983333333","6500600","新店區"
"231059","046-UY","2018/04/30 19:39:27","新北市新店區安和路三段59號","121.517941666667","24.9829783333333","6500600","新店區"
"231040","047-UY","2018/04/30 19:39:17","新北市新店區中正路75巷71號","121.543211666667","24.9687533333333","6500600","新店區"
"231044","106-UY","2018/04/30 19:39:15","新北市新店區北新路三段99號","121.541428333333","24.9819816666667","6500600","新店區"
"231046","107-UY","2018/04/30 19:39:26","新北市新店區平等街48巷27號","121.534863333333","24.9732683333333","6500600","新店區"
"231052","108-UY","2018/04/30 19:39:26","新北市新店區新烏路二段489號","121.552295","24.9086266666667","6500600","新店區"
"231047","187-VK","2018/04/30 19:39:09","新北市新店區五峰路63巷24號","121.54647","24.969075","6500600","新店區"
"231054","KEA-2219","2018/04/30 19:39:14","新北市新店區文中路45號","121.539608333333","24.9566033333333","6500600","新店區"
"231057","256-BX","2018/04/30 19:39:11","新北市新店區橘園一路11號","121.547926666667","24.9340466666667","6500600","新店區"
"231042","268-BY","2018/04/30 19:39:22","新北市新店區中興路一段216號","121.54387","24.9656966666667","6500600","新店區"
"231051","278-BY","2018/04/30 19:39:23","新北市新店區中央四街14號","121.529425","24.9739133333333","6500600","新店區"
"231050","AAD-862","2018/04/30 19:39:23","新北市新店區郵政路31號","121.556166666667","24.9514116666667","6500600","新店區"
"231058","3713-VJ","2018/04/30 19:39:23","新北市新店區中正路102巷7號","121.54331","24.97111","6500600","新店區"
"231056","4715-K9","2018/04/30 19:39:12","新北市新店區柴埕路52巷12號","121.512051666667","24.9644733333333","6500600","新店區"
"231067","4772-VM","2018/04/30 19:39:25","新北市新店區精忠路10-1號","121.532635","24.9590683333333","6500600","新店區"
"231065","512-UM","2018/04/30 19:39:12","新北市新店區安祥路109巷75號","121.477571666667","24.9601266666667","6500600","新店區"
"231049","513-UM","2018/04/30 19:39:06","新北市新店區大豐路43號","121.540241666667","24.9798716666667","6500600","新店區"
"231063","616-UM","2018/04/30 19:39:23","新北市新店區達觀路40號","121.503068333333","24.9392466666667","6500600","新店區"
"231061","619-UM","2018/04/30 19:39:24","新北市新店區安民街36號","121.515863333333","24.9652633333333","6500600","新店區"
"231064","719-UM","2018/04/30 19:39:13","新北市新店區安和路一段52巷2號","121.517688333333","24.9662416666667","6500600","新店區"
"231062","720-UM","2018/04/30 19:39:17","新北市新店區太平路6號","121.534328333333","24.957725","6500600","新店區"
"231060","897-TW","2018/04/30 19:39:11","新北市新店區安康路二段139號","121.511788333333","24.960035","6500600","新店區"
"231045","898-TW","2018/04/30 19:39:11","新北市新店區北宜路二段168號","121.558343333333","24.9540883333333","6500600","新店區"
"231043","899-TW","2018/04/30 19:39:29","新北市新店區北新路二段8號","121.542836666667","24.971115","6500600","新店區"
"231055","AKT-0513","2018/04/30 19:39:14","新北市新店區力行路14巷16弄2號","121.539111666667","24.9654766666667","6500600","新店區"
"241011","013-R5","2018/04/30 19:39:13","新北市三重區秀江街168號","121.498175","25.0716966666667","6500200","三重區"
"241008","059-VK","2018/04/30 19:39:18","新北市三重區永福街135巷2號","121.478563333333","25.0767883333333","6500200","三重區"
"241009","060-VK","2018/04/30 19:39:24","新北市三重區三和路四段400巷27號","121.479976666667","25.0792866666667","6500200","三重區"
"241031","061-VK","2018/04/30 19:39:26","新北市三重區重新路四段250-1號","121.486003333333","25.0534283333333","6500200","三重區"
"241015","062-VK","2018/04/30 19:39:22","新北市三重區福德北路55號","121.50216","25.0651916666667","6500200","三重區"
"241017","063-VK","2018/04/30 19:39:17","新北市三重區重陽路三段5巷27號","121.491568333333","25.0649083333333","6500200","三重區"
"241026","066-VK","2018/04/30 19:39:09","新北市三重區光興街43號","121.499416666667","25.0602516666667","6500200","三重區"
"241003","091-VK","2018/04/30 19:39:22","新北市三重區仁義街395號","121.494545","25.08552","6500200","三重區"
"241028","265-UM","2018/04/30 19:39:10","新北市三重區中正南路145號","121.493826666667","25.0566483333333","6500200","三重區"
"241022","267-UM","2018/04/30 19:39:17","新北市三重區中正北路164號","121.484491666667","25.0661733333333","6500200","三重區"
"241032","269-UM","2018/04/30 19:39:17","新北市三重區重陽路一段60巷74號","121.484306666667","25.0581983333333","6500200","三重區"
"241013","270-UM","2018/04/30 19:39:20","新北市三重區仁賢街12號","121.495883333333","25.0746366666667","6500200","三重區"
"241025","271-UM","2018/04/30 19:39:24","新北市三重區大有街1-13號","121.477405","25.0662683333333","6500200","三重區"
"241007","398-BY","2018/04/30 19:39:08","新北市三重區三和路四段125巷74號","121.487231666667","25.0785166666667","6500200","三重區"
"241035","KEA-2210","2018/04/30 19:39:26","新北市三重區正義北路61-1號","121.497395","25.06454","6500200","三重區"
"241020","478-VK","2018/04/30 19:39:27","新北市三重區三和路四段20巷83號","121.488828333333","25.0733783333333","6500200","三重區"
"241030","480-VK","2018/04/30 19:39:23","新北市三重區新興路28巷6號","121.491928333333","25.05301","6500200","三重區"
"241014","543-UM","2018/04/30 19:39:18","新北市三重區河邊北街80號","121.504233333333","25.0687633333333","6500200","三重區"
"241023","545-UM","2018/04/30 19:39:23","新北市三重區忠孝路三段99巷23弄4號","121.47934","25.0645466666667","6500200","三重區"
"241019","KEA-2593","2018/04/30 19:39:11","新北市三重區六張街194巷1弄1號","121.488475","25.0682116666667","6500200","三重區"
"241006","AAD-863","2018/04/30 19:39:13","新北市三重區聯華街77號","121.485888333333","25.0753716666667","6500200","三重區"
"241012","941-UM","2018/04/30 19:39:21","新北市三重區河邊北街256巷35號","121.500493333333","25.0759333333333","6500200","三重區"
"241029","942-UM","2018/04/30 19:39:23","新北市三重區同安街143號","121.493155","25.0560516666667","6500200","三重區"
"235064","005-UY","2018/04/30 19:39:07","新北市中和區南山路123號","121.502148333333","24.9971883333333","6500300","中和區"
"235063","006-UY","2018/04/30 19:39:19","新北市中和區連城路203巷10弄6號","121.494788333333","24.9972433333333","6500300","中和區"
"235056","096-UM","2018/04/30 19:39:18","新北市中和區員山路581巷31弄3號","121.477193333333","25.01034","6500300","中和區"
"235039","097-UM","2018/04/30 19:39:24","新北市中和區秀峰街119巷8弄9號","121.519043333333","24.9898683333333","6500300","中和區"
"235065","098-UM","2018/04/30 19:39:10","新北市中和區永和路8巷4號","121.500073333333","25.0030333333333","6500300","中和區"
"235040","150-BY","2018/04/30 19:39:14","新北市中和區安和路39號","121.509695","24.9948316666667","6500300","中和區"
"235058","151-BY","2018/04/30 19:39:16","新北市中和區連城路360號","121.482011666667","24.9953883333333","6500300","中和區"
"235055","183-VK","2018/04/30 19:39:26","新北市中和區中山路三段177號","121.472781666667","25.0061933333333","6500300","中和區"
"235038","185-VK","2018/04/30 19:39:09","新北市中和區大智街55巷30弄28號","121.521386666667","24.993205","6500300","中和區"
"235049","186-VK","2018/04/30 19:39:10","新北市中和區明仁街20號","121.50641","24.9953583333333","6500300","中和區"
"235067","255-BX","2018/04/30 19:39:23","新北市中和區新生街200號","121.483735","24.99925","6500300","中和區"
"235044","293-VK","2018/04/30 19:39:21","新北市中和區興南路一段169號","121.508436666667","24.98679","6500300","中和區"
"235043","352-BY","2018/04/30 19:39:24","新北市中和區捷運路6號","121.510256666667","24.9895483333333","6500300","中和區"
"235068","377-QA","2018/04/30 19:39:28","新北市中和區景平路493巷2弄12號","121.499168333333","24.9971283333333","6500300","中和區"
"235061","378-QA","2018/04/30 19:39:21","新北市中和區民安街2巷35弄3號","121.479831666667","25.0015666666667","6500300","中和區"
"235050","4979-A6","2018/04/30 19:39:08","新北市中和區中正路501號","121.489013333333","24.9935366666667","6500300","中和區"
"235042","551-UM","2018/04/30 19:39:22","新北市中和區中和路262巷35號","121.509711666667","24.999515","6500300","中和區"
"235070","558-UM","2018/04/30 19:39:12","新北市中和區景平路581號","121.497648333333","25.000185","6500300","中和區"
"235045","565-BX","2018/04/30 19:39:17","新北市中和區景新街485號","121.513843333333","24.9874616666667","6500300","中和區"
"235054","640-BX","2018/04/30 19:39:26","新北市中和區國光街107巷2弄32號","121.469321666667","24.9990033333333","6500300","中和區"
"235060","647-TV","2018/04/30 19:39:22","新北市中和區員山路314巷7弄6號","121.482155","25.0031733333333","6500300","中和區"
"235047","732-UM","2018/04/30 19:39:30","新北市中和區和平街196號","121.504795","24.9926083333333","6500300","中和區"
"235046","733-UM","2018/04/30 19:39:23","新北市中和區四維街7號","121.51344","24.98733","6500300","中和區"
"235071","783-BX","2018/04/30 19:39:17","新北市中和區新生街114巷1號","121.483443333333","25.0021983333333","6500300","中和區"
"235057","801-TS","2018/04/30 19:39:29","新北市中和區員山路343號","121.48128","25.0016483333333","6500300","中和區"
"235041","802-TS","2018/04/30 19:39:11","新北市中和區中和路456號","121.51215","25.00385","6500300","中和區"
"235052","805-TS","2018/04/30 19:39:22","新北市中和區華新街206巷17號","121.506171666667","24.9825883333333","6500300","中和區"
"235048","896-TW","2018/04/30 19:39:09","新北市中和區忠孝街1巷2-1號","121.509138333333","24.983065","6500300","中和區"
"235053","900-TW","2018/04/30 19:39:08","新北市中和區國光街184巷24號","121.467548333333","25.0021","6500300","中和區"
"235066","911-UM","2018/04/30 19:39:14","新北市中和區景新街135號","121.505836666667","24.9970866666667","6500300","中和區"
"235051","157-BY","2018/04/30 19:39:10","新北市中和區中正路2-1號","121.503315","24.9936633333333","6500300","中和區"
"235037","AAC-213","2018/04/30 19:39:09","新北市中和區秀朗路三段36巷18號","121.525611666667","24.9959116666667","6500300","中和區"
"235059","AAC-215","2018/04/30 19:39:13","新北市中和區錦和路201號","121.490863333333","24.9905066666667","6500300","中和區"
"220068","013-TV","2018/04/30 19:39:27","新北市板橋區中山路二段593號","121.48486","25.02214","6500100","板橋區"
"220065","072-UY","2018/04/30 19:39:08","新北市板橋區國泰街33號","121.468663333333","25.0067466666667","6500100","板橋區"
"220086","073-UY","2018/04/30 19:39:14","新北市板橋區中正路106號","121.456628333333","25.015475","6500100","板橋區"
"220106","075-UY","2018/04/30 19:39:22","新北市板橋區雙十路三段19號","121.470815","25.03133","6500100","板橋區"
"220069","AAD-861","2018/04/30 19:39:13","新北市板橋區南雅南路二段1-1號","121.45476","25.0035683333333","6500100","板橋區"
"247004","337-TH","2018/04/30 19:39:29","新北市蘆洲區中華街6巷8號","121.463228333333","25.0818833333333","6501400","蘆洲區"
"247008","056-VK","2018/04/30 19:39:24","新北市蘆洲區中山二路16號","121.475206666667","25.0817516666667","6501400","蘆洲區"
"226004","312-R5","2018/04/30 19:39:18","新北市平溪區十分里十分街64號","121.775831666667","25.04171","6502400","平溪區"
"228003","097-TW","2018/04/30 19:39:26","新北市貢寮區真理里美艷山街15-3號","121.923663333333","25.0680283333333","6502600","貢寮區"
"228001","670-TC","2018/04/30 19:39:14","新北市貢寮區真理里延平街49號","121.924598333333","25.0556466666667","6502600","貢寮區"
"224010","AGQ-8101","2018/04/30 19:39:10","新北市瑞芳區基山街157號","121.843663333333","25.1080883333333","6501200","瑞芳區"
"224002","639-TC","2018/04/30 19:39:23","新北市瑞芳區三爪子坑路13巷211號","121.815988333333","25.1059266666667","6501200","瑞芳區"
"227001","642-TC","2018/04/30 19:39:25","新北市雙溪區雙溪里太平路58號","121.864948333333","25.035655","6502500","雙溪區"
"227008","400-TW","2018/04/30 19:39:13","新北市雙溪區新基里新基北街22號","121.86721","25.03895","6502500","雙溪區"
"222001","KEA-2212","2018/04/30 19:39:08","新北市深坑區深坑街140號","121.613201666667","25.00136","6501800","深坑區"
"208002","KEA-2872","2018/04/30 19:39:19","新北市金山區四維路19號","121.635216666667","25.2227216666667","6502700","金山區"
"208003","665-BX","2018/04/30 19:39:23","新北市金山區仁愛路1巷1號","121.638581666667","25.22005","6502700","金山區"
"208001","761-BX","2018/04/30 19:39:23","新北市金山區六股里下六股65號","121.614578333333","25.2230916666667","6502700","金山區"
"251009","008-UM","2018/04/30 19:39:13","新北市淡水區中山北路一段186巷10號","121.44538","25.1788533333333","6501000","淡水區"
"251004","009-UM","2018/04/30 19:39:10","新北市淡水區中正東路二段88巷37-23號","121.45968","25.1436016666667","6501000","淡水區"
"251005","010-UM","2018/04/30 19:39:14","新北市淡水區原德路108巷2號","121.443438333333","25.173525","6501000","淡水區"
"251001","011-UM","2018/04/30 19:39:17","新北市淡水區民權路51號","121.459745","25.1390183333333","6501000","淡水區"
"251013","KEA-2871","2018/04/30 19:39:15","新北市淡水區店子後9號","121.460416666667","25.21786","6501000","淡水區"
"251014","180-VK","2018/04/30 19:39:18","新北市淡水區桂竹圍4-2號","121.474433333333","25.2317383333333","6501000","淡水區"
"251008","181-VK","2018/04/30 19:39:14","新北市淡水區中正路32巷5號","121.430576666667","25.1754133333333","6501000","淡水區"
"251015","182-VK","2018/04/30 19:39:12","新北市淡水區大埤頭1號","121.492726666667","25.1945766666667","6501000","淡水區"
"251010","413-VK","2018/04/30 19:39:14","新北市淡水區崁頂三路171號","121.43046","25.2013533333333","6501000","淡水區"
"251012","441-VK","2018/04/30 19:39:15","新北市淡水區中山北路三段164號","121.445711666667","25.1965533333333","6501000","淡水區"
"251016","442-VK","2018/04/30 19:39:11","新北市淡水區下圭柔山119-51號","121.450645","25.208435","6501000","淡水區"
"251006","561-UM","2018/04/30 19:39:26","新北市淡水區中山北路一段207巷74號","121.441353333333","25.1793083333333","6501000","淡水區"
"251007","575-R6","2018/04/30 19:39:23","新北市淡水區中正東路一段111巷23-1號","121.455335","25.1610833333333","6501000","淡水區"
"251011","650-BX","2018/04/30 19:39:21","新北市淡水區八勢一街7-19號","121.460661666667","25.15735","6501000","淡水區"
"207003","550-UM","2018/04/30 19:39:14","新北市萬里區大鵬里下社17-4號","121.648188333333","25.21772","6502800","萬里區"
"207004","225-TW","2018/04/30 19:39:26","新北市萬里區萬里里瑪鋉路21號","121.68733","25.1753816666667","6502800","萬里區"
"252002","178-VK","2018/04/30 19:39:19","新北市三芝區中正路一段36巷25號","121.504046666667","25.25885","6502100","三芝區"
"252001","292-VK","2018/04/30 19:39:13","新北市三芝區長安街89號","121.499665","25.25745","6502100","三芝區"
"237004","KEA-2597","2018/04/30 19:39:09","新北市三峽區插角233號","121.412806666667","24.8685816666667","6500900","三峽區"
"237007","153-BY","2018/04/30 19:39:12","新北市三峽區二鬮路136巷117號","121.355726666667","24.9103766666667","6500900","三峽區"
"237009","210-TH","2018/04/30 19:39:29","新北市三峽區中園街69號","121.368071666667","24.9255516666667","6500900","三峽區"
"237013","252-BX","2018/04/30 19:39:09","新北市三峽區介壽路二段56號","121.39169","24.9353733333333","6500900","三峽區"
"237012","275-BY","2018/04/30 19:39:19","新北市三峽區光明路39號","121.373841666667","24.93061","6500900","三峽區"
"237008","302-VK","2018/04/30 19:39:10","新北市三峽區永安街95巷1號","121.374876666667","24.928695","6500900","三峽區"
"237014","433-BY","2018/04/30 19:39:25","新北市三峽區嘉添12號","121.368455","24.911815","6500900","三峽區"
"237006","5529-G3","2018/04/30 19:39:22","新北市三峽區中正路一段336巷15弄2號","121.369961666667","24.92494","6500900","三峽區"
"237005","AKY-6261","2018/04/30 19:39:11","新北市三峽區中山路219巷17弄1號","121.363315","24.936275","6500900","三峽區"
"236069","105-UM","2018/04/30 19:39:18","新北市土城區金城路二段25號","121.449141666667","24.9773466666667","6501300","土城區"
"236042","107-UM","2018/04/30 19:39:25","新北市土城區學士路9號","121.453776666667","24.9829566666667","6501300","土城區"
"236078","166-UM","2018/04/30 19:39:14","新北市土城區中州路27巷65號","121.412895","24.9567416666667","6501300","土城區"
"236030","253-BX","2018/04/30 19:39:14","新北市土城區福祥街61號","121.44096","24.9803866666667","6501300","土城區"
"236026","269-VK","2018/04/30 19:39:07","新北市土城區中央路二段61巷26號","121.443236666667","24.9786833333333","6501300","土城區"
"236014","270-VK","2018/04/30 19:39:21","新北市土城區廣明街41巷38號","121.453863333333","24.9925133333333","6501300","土城區"
"236039","271-VK","2018/04/30 19:39:21","新北市土城區青雲路257巷1號","121.45932","24.9808283333333","6501300","土城區"
"236020","401-BY","2018/04/30 19:39:14","新北市土城區峰廷街8號","121.46867","24.9877716666667","6501300","土城區"
"236048","752-BX","2018/04/30 19:39:26","新北市土城區明德路一段34號","121.465048333333","24.984595","6501300","土城區"
"236063","915-UM","2018/04/30 19:39:28","新北市土城區延平街38號","121.468046666667","24.9919583333333","6501300","土城區"
"236055","AAC-216","2018/04/30 19:39:27","新北市土城區學府路一段117號","121.455431666667","24.9873866666667","6501300","土城區"
"242031","135-UY","2018/04/30 19:39:18","新北市新莊區公園一路140號","121.446383333333","25.0382216666667","6500500","新莊區"
"242048","172-VK","2018/04/30 19:39:14","新北市新莊區民安路37巷4號","121.423881666667","25.0267716666667","6500500","新莊區"
"242011","173-VK","2018/04/30 19:36:23","新北市新莊區三和路12-21號","121.44206","25.03875","6500500","新莊區"
"242004","176-VK","2018/04/30 19:39:22","新北市新莊區化成路29巷44號","121.463405","25.04392","6500500","新莊區"
"242021","348-TH","2018/04/30 19:39:26","新北市新莊區中正路384號","121.442003333333","25.0350483333333","6500500","新莊區"
"242013","351-TH","2018/04/30 19:39:18","新北市新莊區中誠街140號","121.448791666667","25.0475","6500500","新莊區"
"238015","755-BX","2018/04/30 19:39:13","新北市樹林區中山路一段108巷25號","121.422186666667","24.9910416666667","6500700","樹林區"
"238023","601-UM","2018/04/30 19:39:28","新北市樹林區三福街71號","121.40765","25.0162933333333","6500700","樹林區"
"238018","571-TV","2018/04/30 19:39:24","新北市樹林區中華路31號","121.423956666667","24.9835516666667","6500700","樹林區"
"238024","5061-A6","2018/04/30 19:39:15","新北市樹林區佳園路一段72巷16號","121.391395","24.9694883333333","6500700","樹林區"
"238022","KEA-2213","2018/04/30 19:39:19","新北市樹林區名園街49號","121.41989","24.9783533333333","6500700","樹林區"
"238021","KEA-2539","2018/04/30 19:39:22","新北市樹林區佳園路三段181巷33號","121.387963333333","24.9477116666667","6500700","樹林區"
"238025","303-VK","2018/04/30 19:39:25","新北市樹林區中山路一段83號","121.423493333333","24.9914266666667","6500700","樹林區"
"238017","283-BY","2018/04/30 19:39:08","新北市樹林區保安街二段167巷15號","121.414361666667","25.0027983333333","6500700","樹林區"
"238014","282-BY","2018/04/30 19:39:22","新北市樹林區千歲街30巷12號","121.426098333333","24.9962283333333","6500700","樹林區"
"238026","172-UY","2018/04/30 19:39:25","新北市樹林區佳園路二段15巷39號","121.395053333333","24.9630266666667","6500700","樹林區"
"239007","AAC-297","2018/04/30 19:35:42","新北市鶯歌區大湖路326巷2弄6號","121.34596","24.9701633333333","6500800","鶯歌區"
"239006","891-R6","2018/04/30 19:39:12","新北市鶯歌區永昌街113號","121.33984","24.950395","6500800","鶯歌區"
"239003","360-BY","2018/04/30 19:39:16","新北市鶯歌區中正一路阿南巷2號","121.378198333333","24.9630933333333","6500800","鶯歌區"
"239004","193-VK","2018/04/30 19:39:17","新北市鶯歌區二甲路39號","121.34038","24.93644","6500800","鶯歌區"
"221008","489-VK","2018/04/30 19:39:13","新北市汐止區康寧街61巷69號","121.620281666667","25.06787","6501100","汐止區"
"221036","130-UY","2018/04/30 19:39:21","新北市汐止區康寧街901號","121.650905","25.0752183333333","6501100","汐止區"
"221015","131-UY","2018/04/30 19:39:26","新北市汐止區康寧街901號","121.650866666667","25.0752083333333","6501100","汐止區"
"221010","269-BY","2018/04/30 19:39:25","新北市汐止區汐萬路一段353號","121.649983333333","25.0773316666667","6501100","汐止區"
"221012","278-VK","2018/04/30 19:39:19","新北市汐止區大同路三段334號","121.679676666667","25.071015","6501100","汐止區"
"221023","279-VK","2018/04/30 19:39:22","新北市汐止區中興路286巷1號","121.628206666667","25.0695783333333","6501100","汐止區"
"221032","280-BY","2018/04/30 19:39:15","新北市汐止區汐萬路一段312號","121.65047","25.0752983333333","6501100","汐止區"
"221027","281-BY","2018/04/30 19:39:11","新北市汐止區忠孝東路9號","121.658308333333","25.0660233333333","6501100","汐止區"
"221021","299-VK","2018/04/30 19:39:28","新北市汐止區新台五路一段131號","121.652178333333","25.0620233333333","6501100","汐止區"
"221031","353-TW","2018/04/30 19:39:30","新北市汐止區康寧街901號","121.650761666667","25.0752083333333","6501100","汐止區"
"221025","623-UM","2018/04/30 19:39:15","新北市汐止區新台五路二段1號","121.661821666667","25.0657683333333","6501100","汐止區"
"221038","646-BX","2018/04/30 19:39:25","新北市汐止區忠孝東路200-5號","121.661603333333","25.06605","6501100","汐止區"
"221033","647-BX","2018/04/30 19:39:13","新北市汐止區南勢街3號","121.627036666667","25.0373616666667","6501100","汐止區"
"221002","707-TV","2018/04/30 19:39:26","新北市汐止區大同路一段219巷27號","121.633265","25.058385","6501100","汐止區"
"220079","145-BY","2018/04/30 19:39:18","新北市板橋區建國街56號","121.45885","25.017125","6500100","板橋區"
"220080","200-UY","2018/04/30 19:39:05","新北市板橋區大觀路二段37巷162號","121.449358333333","25.0014116666667","6500100","板橋區"
"220082","610-BX","2018/04/30 19:39:20","新北市板橋區篤行路一段37號","121.432045","24.9939483333333","6500100","板橋區"
"220101","245-BX","2018/04/30 19:39:09","新北市板橋區莊敬路207號","121.472248333333","25.0220783333333","6500100","板橋區"
"220056","276-BY","2018/04/30 19:39:26","新北市板橋區四川路二段47巷3弄2號","121.45423","24.99463","6500100","板橋區"
"220072","277-BY","2018/04/30 19:39:21","新北市板橋區金門街253巷17弄8號","121.433196666667","24.9885933333333","6500100","板橋區"
"220094","283-UM","2018/04/30 19:39:26","新北市板橋區宏國路100號","121.470163333333","25.031885","6500100","板橋區"
"220071","283-VK","2018/04/30 19:39:28","新北市土城區永豐路5號","121.460881666667","24.989085","6500100","板橋區"
"220053","285-VK","2018/04/30 19:39:14","新北市板橋區中山路二段253號","121.477466666667","25.01753","6500100","板橋區"
"220083","286-VK","2018/04/30 19:39:17","新北市板橋區龍興街65巷61號","121.442101666667","25.00196","6500100","板橋區"
"220081","287-VK","2018/04/30 19:39:28","新北市板橋區大觀路一段29巷137弄1號","121.450218333333","25.0054533333333","6500100","板橋區"
"220090","288-VK","2018/04/30 19:39:16","新北市板橋區長江路一段48巷2弄1號","121.459","25.028775","6500100","板橋區"
"220061","295-UM","2018/04/30 19:39:11","新北市板橋區中山路一段265巷36弄2號","121.46917","25.0150566666667","6500100","板橋區"
"220084","296-UM","2018/04/30 19:39:24","新北市板橋區滿平二街2巷1弄2號","121.425308333333","24.9861766666667","6500100","板橋區"
"220075","303-R5","2018/04/30 19:39:20","新北市板橋區金華街3號","121.455575","25.020115","6500100","板橋區"
"220062","305-R5","2018/04/30 19:39:15","新北市板橋區三民路二段35巷27-1號","121.481218333333","25.0179683333333","6500100","板橋區"
"220092","307-R5","2018/04/30 19:39:27","新北市板橋區陽明街48號","121.46536","25.0220983333333","6500100","板橋區"
"220098","317-R6","2018/04/30 19:39:28","新北市板橋區四維路269巷47號","121.461213333333","25.0273416666667","6500100","板橋區"
"220064","486-VK","2018/04/30 19:39:12","新北市板橋區中山路一段137號","121.462758333333","25.0106783333333","6500100","板橋區"
"220088","491-VK","2018/04/30 19:39:22","新北市板橋區仁化街139號","121.477468333333","25.0329466666667","6500100","板橋區"
"220035","560-BX","2018/04/30 19:39:29","新北市板橋區金華街85巷16號","121.458573333333","25.021255","6500100","板橋區"
"220103","561-BX","2018/04/30 19:39:08","新北市板橋區文化路一段286巷18號","121.468276666667","25.0213466666667","6500100","板橋區"
"220063","609-BX","2018/04/30 19:39:16","新北市板橋區中山路二段539巷16號","121.483123333333","25.0224083333333","6500100","板橋區"
"220055","630-UY","2018/04/30 19:39:23","新北市板橋區國慶路149巷27-4號","121.46101","24.9976433333333","6500100","板橋區"
"220091","637-BX","2018/04/30 19:39:25","新北市板橋區懷德街139巷14-3號","121.479603333333","25.0306","6500100","板橋區"
"220057","686-BX","2018/04/30 19:39:16","新北市板橋區國慶路158巷6-2號","121.461718333333","24.99546","6500100","板橋區"
"220077","687-BX","2018/04/30 19:39:06","新北市板橋區僑中一街88號","121.447201666667","25.0116566666667","6500100","板橋區"
"220093","689-BX","2018/04/30 19:39:12","新北市板橋區長江路一段111號","121.459731666667","25.029765","6500100","板橋區"
"220054","741-BX","2018/04/30 19:39:10","新北市板橋區忠孝路241號","121.466295","25.002955","6500100","板橋區"
"220102","KEA-2699","2018/04/30 19:39:14","新北市板橋區文化路二段410巷21號","121.474578333333","25.0307216666667","6500100","板橋區"
"220067","829-TW","2018/04/30 19:39:14","新北市板橋區漢生東路299巷11號","121.472653333333","25.0088783333333","6500100","板橋區"
"220096","830-TW","2018/04/30 19:39:26","新北市板橋區民生路二段234巷26弄1號","121.470541666667","25.022395","6500100","板橋區"
"220089","833-TW","2018/04/30 19:39:24","新北市板橋區英士路7號","121.4622","25.0253616666667","6500100","板橋區"
"220074","895-R6","2018/04/30 19:39:24","新北市板橋區福德街2巷2號","121.456121666667","25.0092116666667","6500100","板橋區"
"220073","985-R7","2018/04/30 19:39:19","新北市板橋區國光路31巷16號","121.457918333333","25.0180516666667","6500100","板橋區"
"220097","AAC-210","2018/04/30 19:39:10","新北市板橋區幸福路32巷10號","121.461476666667","25.0207283333333","6500100","板橋區"
"220070","AAC-253","2018/04/30 19:39:26","新北市板橋區民族路250號","121.469206666667","25.007235","6500100","板橋區"
