"lineid","car","time","location","longitude","latitude","cityid","cityname"
"249004","303-UY","2018/04/30 21:09:20","新北市八里區中山路三段415號","121.371091666667","25.1373466666667","6502300","八里區"
"231059","046-UY","2018/04/30 21:09:30","新北市新店區僑義路47巷6號","121.500806666667","24.9496633333333","6500600","新店區"
"231040","047-UY","2018/04/30 21:09:17","新北市新店區北新路一段128-3號","121.542521666667","24.9697133333333","6500600","新店區"
"231047","187-VK","2018/04/30 21:09:35","新北市新店區中興路三段160號","121.544461666667","24.9806716666667","6500600","新店區"
"231054","KEA-2219","2018/04/30 21:09:34","新北市新店區大新街7巷26號","121.544075","24.967905","6500600","新店區"
"231042","268-BY","2018/04/30 21:09:22","新北市新店區寶興路60巷4號","121.549843333333","24.9718","6500600","新店區"
"231051","278-BY","2018/04/30 21:09:23","新北市新店區中正路694巷15號","121.535363333333","24.9906033333333","6500600","新店區"
"231050","AAD-862","2018/04/30 21:09:23","新北市新店區三民路31號","121.538091666667","24.97046","6500600","新店區"
"231067","4772-VM","2018/04/30 21:09:25","新北市新店區薏仁坑路自強巷6號","121.496991666667","24.958685","6500600","新店區"
"231065","512-UM","2018/04/30 21:09:32","新北市新店區安祥路69巷41弄84號","121.482491666667","24.9618833333333","6500600","新店區"
"231063","616-UM","2018/04/30 21:09:23","新北市新店區玫瑰路55巷2號","121.495655","24.9464666666667","6500600","新店區"
"231061","619-UM","2018/04/30 21:09:24","新北市新店區永安街43號","121.517795","24.9867383333333","6500600","新店區"
"231062","720-UM","2018/04/30 21:09:17","新北市新店區安康路三段107號","121.491245","24.9515133333333","6500600","新店區"
"231060","897-TW","2018/04/30 21:09:31","新北市新店區安康路二段382號","121.50046","24.9570916666667","6500600","新店區"
"241011","013-R5","2018/04/30 21:09:34","新北市三重區龍濱路199號","121.501978333333","25.0715816666667","6500200","三重區"
"241008","059-VK","2018/04/30 21:09:18","新北市三重區自強路一段62號","121.49726","25.0666983333333","6500200","三重區"
"241009","060-VK","2018/04/30 21:09:24","新北市三重區忠孝路二段122號","121.482975","25.0687883333333","6500200","三重區"
"241031","061-VK","2018/04/30 21:09:26","新北市三重區重新路五段406號","121.475871666667","25.0476116666667","6500200","三重區"
"241015","062-VK","2018/04/30 21:09:36","新北市三重區長元街61號","121.502658333333","25.0665616666667","6500200","三重區"
"241017","063-VK","2018/04/30 21:09:37","新北市三重區國隆路26號","121.492401666667","25.0643916666667","6500200","三重區"
"241024","065-VK","2018/04/30 21:09:28","新北市三重區國道路一段58巷15號","121.48139","25.0720633333333","6500200","三重區"
"241026","066-VK","2018/04/30 21:09:29","新北市三重區中央南路141巷31弄12號","121.500373333333","25.0594983333333","6500200","三重區"
"241002","090-VK","2018/04/30 21:09:28","新北市三重區五華街19號","121.494923333333","25.0804183333333","6500200","三重區"
"241003","091-VK","2018/04/30 21:09:22","新北市三重區進安街198號","121.493993333333","25.086205","6500200","三重區"
"241005","262-UM","2018/04/30 21:09:30","新北市三重區三信路186號","121.487923333333","25.0860783333333","6500200","三重區"
"241028","265-UM","2018/04/30 21:09:30","新北市三重區正義南路60-1號","121.498316666667","25.060655","6500200","三重區"
"241016","266-UM","2018/04/30 21:09:24","新北市三重區信義西街138號","121.495586666667","25.0642666666667","6500200","三重區"
"241022","267-UM","2018/04/30 21:09:37","新北市三重區中正北路64巷24號","121.48613","25.0637533333333","6500200","三重區"
"241018","268-UM","2018/04/30 21:09:39","新北市三重區正義北路332-1號","121.49431","25.07044","6500200","三重區"
"241032","269-UM","2018/04/30 21:09:37","新北市三重區中興北街244號","121.469025","25.0617916666667","6500200","三重區"
"241013","270-UM","2018/04/30 21:09:25","新北市三重區仁愛街139號","121.495118333333","25.0751216666667","6500200","三重區"
"241025","271-UM","2018/04/30 21:09:24","新北市三重區中正北路208巷10弄2號","121.482418333333","25.0670333333333","6500200","三重區"
"241007","398-BY","2018/04/30 21:09:28","新北市三重區三和路四段145巷85號","121.48638","25.0787883333333","6500200","三重區"
"241004","475-VK","2018/04/30 21:09:25","新北市三重區仁愛街423-1號","121.490401666667","25.0814933333333","6500200","三重區"
"241020","478-VK","2018/04/30 21:09:27","新北市三重區忠孝路二段35號","121.485906666667","25.0711216666667","6500200","三重區"
"241030","480-VK","2018/04/30 21:09:23","新北市三重區五谷王北街20巷15弄1號","121.475046666667","25.0484466666667","6500200","三重區"
"241014","543-UM","2018/04/30 21:09:18","新北市三重區長安街82-1號","121.501378333333","25.067695","6500200","三重區"
"241023","545-UM","2018/04/30 21:09:32","新北市三重區忠孝路三段50巷41弄64號","121.48237","25.0638233333333","6500200","三重區"
"241001","547-UM","2018/04/30 21:09:35","新北市三重區自強路四段39號","121.489128333333","25.07697","6500200","三重區"
"241019","KEA-2593","2018/04/30 21:09:31","新北市三重區自強路二段74巷21號","121.487985","25.0698566666667","6500200","三重區"
"241006","AAD-863","2018/04/30 21:09:33","新北市三重區中正北路2號","121.4893","25.0630883333333","6500200","三重區"
"241012","941-UM","2018/04/30 21:09:21","新北市三重區河邊北街339號","121.50226","25.07533","6500200","三重區"
"241029","942-UM","2018/04/30 21:09:19","新北市三重區正義南路107號","121.498271666667","25.0585433333333","6500200","三重區"
"241033","AAC-255","2018/04/30 21:09:18","新北市三重區重光街95號","121.466406666667","25.064285","6500200","三重區"
"247024","893-R6","2018/04/30 21:09:22","新北市蘆洲區長興路52號","121.463741666667","25.0836916666667","6501400","蘆洲區"
"247014","546-UM","2018/04/30 21:09:27","新北市蘆洲區中央路155號","121.472648333333","25.0846916666667","6501400","蘆洲區"
"247022","500-BY","2018/04/30 21:09:34","新北市蘆洲區中正路198號","121.466725","25.0883133333333","6501400","蘆洲區"
"247010","341-TH","2018/04/30 21:09:32","新北市蘆洲區鷺江街46號","121.477378333333","25.0832216666667","6501400","蘆洲區"
"247012","339-TH","2018/04/30 21:09:23","新北市蘆洲區民權路26號","121.476926666667","25.085825","6501400","蘆洲區"
"247004","337-TH","2018/04/30 21:09:28","新北市蘆洲區永安南路二段268號","121.458723333333","25.0806783333333","6501400","蘆洲區"
"247006","336-TH","2018/04/30 21:09:32","新北市蘆洲區九芎街15巷10號","121.468033333333","25.077955","6501400","蘆洲區"
"247018","057-VK","2018/04/30 21:09:18","新北市蘆洲區民族路408巷4號","121.474736666667","25.091735","6501400","蘆洲區"
"247008","056-VK","2018/04/30 21:09:24","新北市蘆洲區民生街55-1號","121.474796666667","25.0788066666667","6501400","蘆洲區"
"247016","007-UY","2018/04/30 21:09:29","新北市蘆洲區光華路150巷18號","121.465283333333","25.0830283333333","6501400","蘆洲區"
"247002","002-UY","2018/04/30 21:09:34","新北市蘆洲區長榮路387-1號","121.459035","25.089775","6501400","蘆洲區"
"247020","001-UY","2018/04/30 21:09:29","新北市蘆洲區民族路375號","121.47073","25.0910216666667","6501400","蘆洲區"
"251009","008-UM","2018/04/30 21:09:33","新北市淡水區民權路187巷74弄9號","121.46207","25.1344116666667","6501000","淡水區"
"251004","009-UM","2018/04/30 21:09:30","新北市淡水區民族路31巷3號","121.462325","25.1360916666667","6501000","淡水區"
"251005","010-UM","2018/04/30 21:09:34","新北市淡水區中正東路35巷28號","121.446855","25.1688266666667","6501000","淡水區"
"251001","011-UM","2018/04/30 21:09:37","新北市淡水區新市一路三段101巷16弄14號","121.44684","25.183905","6501000","淡水區"
"251013","KEA-2871","2018/04/30 21:09:35","新北市淡水區行忠路332號","121.46231","25.199485","6501000","淡水區"
"251014","180-VK","2018/04/30 21:09:18","新北市淡水區六塊厝1-1號","121.44954","25.242775","6501000","淡水區"
"251015","182-VK","2018/04/30 21:09:23","新北市淡水區淡金路四段542巷59號","121.454776666667","25.2269316666667","6501000","淡水區"
"251010","413-VK","2018/04/30 21:09:33","新北市淡水區中正路一段63巷9號","121.422721666667","25.1772883333333","6501000","淡水區"
"251012","441-VK","2018/04/30 21:09:34","新北市淡水區淡金路五段172號","121.457078333333","25.2400283333333","6501000","淡水區"
"251016","442-VK","2018/04/30 21:09:29","新北市淡水區前洲子11號","121.441833333333","25.2189416666667","6501000","淡水區"
"251007","575-R6","2018/04/30 21:09:23","新北市淡水區新民街322巷2號","121.43536","25.1834666666667","6501000","淡水區"
"251011","650-BX","2018/04/30 21:09:31","新北市淡水區新民街180巷31號","121.437941666667","25.1796516666667","6501000","淡水區"
"251002","672-BX","2018/04/30 21:09:17","新北市淡水區學府路172巷21號","121.448325","25.1748316666667","6501000","淡水區"
"251003","766-UM","2018/04/30 21:09:31","新北市淡水區新春街103-39號","121.440738333333","25.1828083333333","6501000","淡水區"
