"lineid","car","time","location","longitude","latitude","cityid","cityname"
"231059","046-UY","2018/04/30 21:19:29","新北市新店區薏仁坑路自強巷6號","121.49664","24.9584883333333","6500600","新店區"
"231040","047-UY","2018/04/30 21:19:37","新北市新店區光明街314號","121.54064","24.965095","6500600","新店區"
"231047","187-VK","2018/04/30 21:19:29","新北市新店區中正路384號","121.534743333333","24.9769633333333","6500600","新店區"
"231054","KEA-2219","2018/04/30 21:19:34","新北市新店區北新路一段2號","121.540833333333","24.9651883333333","6500600","新店區"
"231051","278-BY","2018/04/30 21:19:23","新北市新店區中正路700巷322-10號","121.534065","24.9935766666667","6500600","新店區"
"231050","AAD-862","2018/04/30 21:19:23","新北市新店區三民路20巷24號","121.538523333333","24.970775","6500600","新店區"
"231065","512-UM","2018/04/30 21:19:32","新北市新店區薏仁坑路11號","121.498578333333","24.9590733333333","6500600","新店區"
"231063","616-UM","2018/04/30 21:19:31","新北市新店區吉祥街11巷2號","121.497795","24.946285","6500600","新店區"
"231061","619-UM","2018/04/30 21:19:24","新北市新店區永平街27號","121.516871666667","24.983565","6500600","新店區"
"231060","897-TW","2018/04/30 21:19:31","新北市新店區薏仁坑路自強巷1號","121.497188333333","24.95804","6500600","新店區"
"241011","013-R5","2018/04/30 21:19:33","新北市三重區龍濱路197號","121.501846666667","25.0714366666667","6500200","三重區"
"241008","059-VK","2018/04/30 21:19:18","新北市三重區正義北路113號","121.496943333333","25.06584","6500200","三重區"
"241009","060-VK","2018/04/30 21:19:24","新北市三重區洛陽街41號","121.482196666667","25.0633216666667","6500200","三重區"
"241031","061-VK","2018/04/30 21:19:26","新北市三重區重新路五段408巷19號","121.47576","25.0455516666667","6500200","三重區"
"241017","063-VK","2018/04/30 21:19:17","新北市三重區國隆路31號","121.492395","25.0645183333333","6500200","三重區"
"241024","065-VK","2018/04/30 21:19:28","新北市三重區中正北路145巷14號","121.484143333333","25.067805","6500200","三重區"
"241026","066-VK","2018/04/30 21:19:29","新北市三重區大同南路220號","121.496836666667","25.05622","6500200","三重區"
"241002","090-VK","2018/04/30 21:19:28","新北市三重區五華街60號","121.494098333333","25.08147","6500200","三重區"
"241003","091-VK","2018/04/30 21:19:22","新北市三重區仁義街333號","121.49527","25.0847983333333","6500200","三重區"
"241005","262-UM","2018/04/30 21:19:30","新北市三重區三信路186號","121.487855","25.086145","6500200","三重區"
"241028","265-UM","2018/04/30 21:19:30","新北市三重區同安東街82號","121.498966666667","25.05759","6500200","三重區"
"241016","266-UM","2018/04/30 21:19:24","新北市三重區自強路一段95號","121.495878333333","25.0663516666667","6500200","三重區"
"241018","268-UM","2018/04/30 21:19:19","新北市三重區力行路一段181號","121.484356666667","25.0696983333333","6500200","三重區"
"241032","269-UM","2018/04/30 21:19:17","新北市三重區中興北街1號","121.469606666667","25.0460316666667","6500200","三重區"
"241013","270-UM","2018/04/30 21:19:20","新北市三重區仁愛街83號","121.49591","25.0732666666667","6500200","三重區"
"241025","271-UM","2018/04/30 21:19:24","新北市三重區中正北路208巷10弄2號","121.482466666667","25.06705","6500200","三重區"
"241007","398-BY","2018/04/30 21:19:28","新北市三重區自強路三段73號","121.486971666667","25.0735416666667","6500200","三重區"
"241004","475-VK","2018/04/30 21:19:25","新北市三重區碧華街239號","121.48909","25.08293","6500200","三重區"
"241030","480-VK","2018/04/30 21:19:23","新北市三重區中興南街80巷3號","121.471345","25.043735","6500200","三重區"
"241014","543-UM","2018/04/30 21:19:38","新北市三重區萬全街18-1號","121.499393333333","25.06971","6500200","三重區"
"241023","545-UM","2018/04/30 21:19:32","新北市三重區中正北路176巷27號","121.482668333333","25.0659283333333","6500200","三重區"
"241001","547-UM","2018/04/30 21:19:35","新北市三重區碧華街215號","121.48877","25.08267","6500200","三重區"
"241019","KEA-2593","2018/04/30 21:19:31","新北市三重區重陽路三段7-2號","121.489055","25.066555","6500200","三重區"
"241006","AAD-863","2018/04/30 21:19:33","新北市三重區重新路四段116號","121.487136666667","25.0568016666667","6500200","三重區"
"241012","941-UM","2018/04/30 21:19:21","新北市三重區龍門路255號","121.502436666667","25.074205","6500200","三重區"
"241033","AAC-255","2018/04/30 21:19:38","新北市三重區光復路二段126巷27號","121.47075","25.0588183333333","6500200","三重區"
"247024","893-R6","2018/04/30 21:19:22","新北市蘆洲區光明路18號","121.461233333333","25.0868716666667","6501400","蘆洲區"
"247014","546-UM","2018/04/30 21:19:27","新北市蘆洲區保和街50-6號","121.469845","25.086285","6501400","蘆洲區"
"247022","500-BY","2018/04/30 21:19:34","新北市蘆洲區三民路206號","121.469045","25.0890016666667","6501400","蘆洲區"
"247010","341-TH","2018/04/30 21:19:32","新北市蘆洲區鷺江街16-1號","121.478935","25.0825166666667","6501400","蘆洲區"
"247012","339-TH","2018/04/30 21:19:23","新北市蘆洲區民族路236巷8號","121.480325","25.0885083333333","6501400","蘆洲區"
"247004","337-TH","2018/04/30 21:19:29","新北市蘆洲區永安南路二段324號","121.456975","25.0827833333333","6501400","蘆洲區"
"247006","336-TH","2018/04/30 21:19:32","新北市蘆洲區長安街87號","121.462188333333","25.0802216666667","6501400","蘆洲區"
"247018","057-VK","2018/04/30 21:19:38","新北市蘆洲區復興路111-6號","121.476495","25.0881983333333","6501400","蘆洲區"
"247008","056-VK","2018/04/30 21:19:25","新北市蘆洲區中山一路103巷20號","121.475828333333","25.0811033333333","6501400","蘆洲區"
"247016","007-UY","2018/04/30 21:19:29","新北市蘆洲區中原路5巷2號","121.461218333333","25.08348","6501400","蘆洲區"
"247002","002-UY","2018/04/30 21:19:34","新北市蘆洲區永樂街45號","121.457125","25.088505","6501400","蘆洲區"
"247020","001-UY","2018/04/30 21:19:29","新北市蘆洲區仁愛街62巷22號","121.472385","25.0943233333333","6501400","蘆洲區"
"251009","008-UM","2018/04/30 21:19:33","新北市淡水區民族路96號","121.462526666667","25.1355383333333","6501000","淡水區"
"251004","009-UM","2018/04/30 21:19:30","新北市淡水區民族路33號","121.462306666667","25.1357966666667","6501000","淡水區"
"251005","010-UM","2018/04/30 21:19:34","新北市淡水區仁愛街15-4號","121.446526666667","25.17041","6501000","淡水區"
"251001","011-UM","2018/04/30 21:19:37","新北市淡水區中山北路二段191號","121.444338333333","25.1853783333333","6501000","淡水區"
"251013","KEA-2871","2018/04/30 21:19:35","新北市淡水區行忠路328號","121.460531666667","25.1995183333333","6501000","淡水區"
"251014","180-VK","2018/04/30 21:19:18","新北市淡水區六塊厝2-1號","121.450346666667","25.24049","6501000","淡水區"
"251008","181-VK","2018/04/30 21:19:34","新北市淡水區水源街二段222號","121.46012","25.17644","6501000","淡水區"
"251015","182-VK","2018/04/30 21:19:23","新北市淡水區淡金路四段542巷83弄20號","121.456451666667","25.22667","6501000","淡水區"
"251010","413-VK","2018/04/30 21:19:33","新北市淡水區中正路一段156巷51號","121.421863333333","25.1808666666667","6501000","淡水區"
"251012","441-VK","2018/04/30 21:19:34","新北市淡水區淡金路五段35巷46號","121.45245","25.2347683333333","6501000","淡水區"
"251016","442-VK","2018/04/30 21:19:27","新北市淡水區前洲子28號","121.441051666667","25.21921","6501000","淡水區"
"251006","561-UM","2018/04/30 21:19:21","新北市淡水區中正路一段22巷6號","121.4276","25.1757566666667","6501000","淡水區"
"251007","575-R6","2018/04/30 21:19:23","新北市淡水區下圭柔山91-3號","121.430618333333","25.21056","6501000","淡水區"
"251011","650-BX","2018/04/30 21:19:21","新北市淡水區新民街152巷6弄22號","121.438873333333","25.1787116666667","6501000","淡水區"
"251002","672-BX","2018/04/30 21:19:37","新北市淡水區學府路172巷21號","121.448178333333","25.17482","6501000","淡水區"
"251003","766-UM","2018/04/30 21:19:31","新北市淡水區新春街94號","121.439041666667","25.1823416666667","6501000","淡水區"
