"lineid","car","time","location","longitude","latitude","cityid","cityname"
"247010","341-TH","2018/04/30 22:29:12","新北市五股區中興路三段163號","121.449261666667","25.0807283333333","6501400","蘆洲區"
"247005","336-TH","2018/04/30 22:28:03","新北市五股區中興路三段163號","121.449056666667","25.080935","6501400","蘆洲區"
"251009","008-UM","2018/04/30 22:29:33","新北市淡水區下圭柔山90-8號","121.431748333333","25.21197","6501000","淡水區"
"251004","009-UM","2018/04/30 22:29:30","新北市淡水區民族路33號","121.462231666667","25.1357583333333","6501000","淡水區"
"251008","181-VK","2018/04/30 22:29:22","新北市淡水區學府路104號","121.449818333333","25.1718","6501000","淡水區"
"251010","413-VK","2018/04/30 22:29:13","新北市淡水區沙崙路200號","121.42474","25.1839033333333","6501000","淡水區"
"251007","575-R6","2018/04/30 22:29:17","新北市淡水區北新路180號","121.449403333333","25.1787616666667","6501000","淡水區"
