"lineid","car","time","location","longitude","latitude","cityid","cityname"
"232013","291-BY","2018/05/01 06:39:35","新北市坪林區北宜路八段558號","121.717938333333","24.909355","6502000","坪林區"
"232006","758-BX","2018/05/01 06:39:47","新北市坪林區北宜路八段558號","121.717995","24.9092666666667","6502000","坪林區"
"235001","611-BX","2018/05/01 06:39:36","新北市中和區圓通路391-6號","121.489725","24.9892083333333","6500300","中和區"
"223006","022-BY","2018/05/01 06:39:48","新北市石碇區靜安路一段102號","121.64807","25.0088983333333","6501900","石碇區"
"223002","KEA-2673","2018/05/01 06:39:43","新北市石碇區石碇西街21號","121.658883333333","24.9867733333333","6501900","石碇區"
"223001","205-TH","2018/05/01 06:39:43","新北市石碇區湳窟22-1號","121.661661666667","24.9915983333333","6501900","石碇區"
"223001","592-UM","2018/05/01 06:39:46","新北市石碇區碇坪路一段186號","121.667625","24.9846416666667","6501900","石碇區"
"223007","661-BX","2018/05/01 06:39:39","新北市石碇區雙溪67號","121.654106666667","25.0069616666667","6501900","石碇區"
"227006","282-VK","2018/05/01 06:39:41","新北市雙溪區牡丹里中正路70號","121.864358333333","25.0441683333333","6502500","雙溪區"
"220070","282-UM","2018/05/01 06:39:33","新北市板橋區縣民大道一段296號","121.460848333333","25.010035","6500100","板橋區"
