"lineid","car","time","location","longitude","latitude","cityid","cityname"
"248005","653-BX","2018/05/01 07:09:27","新北市五股區新五路二段135號","121.439021666667","25.080325","6501500","五股區"
"248003","655-BX","2018/05/01 07:09:42","新北市五股區中興路二段11號","121.462876666667","25.0741983333333","6501500","五股區"
"232002","290-BY","2018/05/01 07:09:31","新北市坪林區大粗坑31號","121.711655","24.9667516666667","6502000","坪林區"
"232013","291-BY","2018/05/01 07:09:35","新北市坪林區灣潭5-1號","121.67558","24.9317933333333","6502000","坪林區"
"232006","758-BX","2018/05/01 07:09:27","新北市坪林區石46號","121.724671666667","24.8972683333333","6502000","坪林區"
"244002","248-BX","2018/05/01 07:09:44","新北市林口區民族路67-1號","121.36576","25.0753466666667","6501700","林口區"
"222004","289-BY","2018/05/01 06:46:08","新北市深坑區深坑街89號","121.61444","25.0012583333333","6501800","深坑區"
"235001","611-BX","2018/05/01 07:09:36","新北市中和區圓通路367巷6號","121.491406666667","24.9891683333333","6500300","中和區"
"226005","5620-A6","2018/05/01 07:09:33","新北市平溪區菁桐里菁桐街20號","121.72598","25.0238116666667","6502400","平溪區"
"226002","7418-A5","2018/05/01 07:09:28","新北市平溪區靜安路二段376號","121.738061666667","25.0246483333333","6502400","平溪區"
"226006","AGD-0702","2018/05/01 07:09:29","新北市平溪區靜安路二段500號","121.743746666667","25.0266883333333","6502400","平溪區"
"223006","022-BY","2018/05/01 07:09:37","新北市石碇區崩山23-3號","121.675815","24.9676933333333","6501900","石碇區"
"223002","KEA-2673","2018/05/01 07:09:43","新北市石碇區北宜路五段崙尾寮巷7號","121.645731666667","24.9551966666667","6501900","石碇區"
"223001","205-TH","2018/05/01 07:09:43","新北市石碇區烏塗窟16-2號","121.65645","24.975085","6501900","石碇區"
"223001","592-UM","2018/05/01 07:09:46","新北市石碇區烏塗窟18號","121.656391666667","24.9748716666667","6501900","石碇區"
"223004","660-BX","2018/05/01 07:09:33","新北市石碇區碇坪路一段10號","121.651655","25.0059983333333","6501900","石碇區"
"223005","677-TV","2018/05/01 07:09:31","新北市石碇區碇坪路一段16號","121.651621666667","25.0058783333333","6501900","石碇區"
"227006","282-VK","2018/05/01 07:09:41","新北市雙溪區新基里自強路5號","121.86637","25.03908","6502500","雙溪區"
"252004","249-BX","2018/05/01 07:09:27","新北市三芝區中興街一段50號","121.498413333333","25.256815","6502100","三芝區"
"252007","AAC-283","2018/05/01 07:09:41","新北市三芝區福德里埔尾27號","121.502623333333","25.2400316666667","6502100","三芝區"
"236008","165-UM","2018/05/01 07:09:27","新北市土城區中央路三段85-4號","121.437971666667","24.968105","6501300","土城區"
"236002","339-SR","2018/05/01 07:09:39","新北市土城區中央路三段108號","121.435606666667","24.96625","6501300","土城區"
"220070","282-UM","2018/05/01 07:09:42","新北市板橋區國光路51號","121.458113333333","25.0179983333333","6500100","板橋區"
