"lineid","car","time","location","longitude","latitude","cityid","cityname"
"248005","653-BX","2018/05/01 07:48:57","新北市五股區明德路12巷3號","121.433281666667","25.0718166666667","6501500","五股區"
"248003","655-BX","2018/05/01 07:49:42","新北市五股區中興路二段11號","121.46296","25.0741266666667","6501500","五股區"
"244002","248-BX","2018/05/01 07:48:24","新北市林口區下福里13-6號","121.319798333333","25.1007483333333","6501700","林口區"
"222004","289-BY","2018/05/01 07:49:41","新北市深坑區文化街45號","121.617071666667","25.0016966666667","6501800","深坑區"
"231007","188-VK","2018/05/01 07:49:31","新北市新店區安華路28-1號","121.519746666667","24.96147","6500600","新店區"
"231009","192-VK","2018/05/01 07:49:38","新北市新店區安華路28-1號","121.519255","24.9613816666667","6500600","新店區"
"235001","611-BX","2018/05/01 07:49:36","新北市中和區圓通路367巷6號","121.491468333333","24.98923","6500300","中和區"
"226005","5620-A6","2018/05/01 07:49:33","新北市平溪區嶺腳里中華街25號","121.739548333333","25.0251666666667","6502400","平溪區"
"226002","7418-A5","2018/05/01 07:49:48","新北市平溪區十分里十分街156號","121.778055","25.04319","6502400","平溪區"
"226006","AGD-0702","2018/05/01 07:49:49","新北市平溪區新寮里頂寮子4號","121.773743333333","25.05188","6502400","平溪區"
"223006","022-BY","2018/05/01 07:49:37","新北市坪林區北宜路八段387號","121.707891666667","24.932465","6501900","石碇區"
"223002","KEA-2673","2018/05/01 07:49:23","新北市石碇區大格門5號","121.667456666667","24.9563283333333","6501900","石碇區"
"223001","205-TH","2018/05/01 07:49:43","新北市石碇區崩山36-1號","121.671931666667","24.9582316666667","6501900","石碇區"
"223001","592-UM","2018/05/01 07:49:46","新北市石碇區橫坪2-1號","121.667041666667","24.9726266666667","6501900","石碇區"
"223004","660-BX","2018/05/01 07:49:33","新北市石碇區楓子林30號","121.642313333333","25.009505","6501900","石碇區"
"223005","677-TV","2018/05/01 07:49:31","新北市石碇區楓子林30號","121.6423","25.0096233333333","6501900","石碇區"
"227006","282-VK","2018/05/01 07:49:41","新北市雙溪區雙溪里太平路41號","121.864733333333","25.0355516666667","6502500","雙溪區"
"252004","249-BX","2018/05/01 07:49:47","新北市三芝區興華里車埕36-3號","121.505915","25.1908283333333","6502100","三芝區"
"252007","AAC-283","2018/05/01 07:49:41","新北市三芝區海景一街44號","121.47548","25.2466183333333","6502100","三芝區"
"237001","159-UY","2018/05/01 07:49:37","新北市三峽區大學路77號","121.376161666667","24.9416466666667","6500900","三峽區"
"236008","165-UM","2018/05/01 07:49:47","新北市土城區永豐路270巷19弄3號","121.469893333333","24.97701","6501300","土城區"
"236002","339-SR","2018/05/01 07:49:49","新北市土城區龍泉路81-1號","121.437776666667","24.942105","6501300","土城區"
"220070","282-UM","2018/05/01 07:49:45","新北市板橋區南雅南路一段31號","121.456113333333","25.0065333333333","6500100","板橋區"
