"lineid","car","time","location","longitude","latitude","cityid","cityname"
"248005","653-BX","2018/06/26 10:09:46","新北市五股區成泰路一段235-1號","121.436193333333","25.079535","6501500","五股區"
"231007","189-VK","2018/06/26 10:09:45","新北市新店區新潭路三段215巷25號","121.508111666667","24.90406","6500600","新店區"
"231009","192-VK","2018/06/26 10:09:44","新北市新店區小坑一路12-6號","121.535236666667","24.9126333333333","6500600","新店區"
"226002","7418-A5","2018/06/26 09:50:51","新北市平溪區石底里公園街18-3號","121.733501666667","25.0256433333333","6502400","平溪區"
"223003","205-TH","2018/06/26 10:09:48","新北市石碇區碇坪路一段130號","121.659361666667","24.9913883333333","6501900","石碇區"
"227006","282-VK","2018/06/26 10:09:39","新北市雙溪區新基里新基東街15-2號","121.872546666667","25.0420666666667","6502500","雙溪區"
"227012","030-BX","2018/06/26 10:09:45","新北市坪林區鷺鶿岫4-1號","121.787473333333","24.9562533333333","6502500","雙溪區"
"252004","249-BX","2018/06/26 10:09:41","新北市三芝區中興街一段45號","121.497861666667","25.25743","6502100","三芝區"
"252007","AAC-283","2018/06/26 10:09:37","新北市三芝區古庄里古庄103-1號","121.49496","25.27195","6502100","三芝區"
