"lineid","car","time","location","longitude","latitude","cityid","cityname"
"248005","653-BX","2018/06/26 10:19:46","新北市五股區中興路二段37巷24號","121.460681666667","25.075075","6501500","五股區"
"231007","189-VK","2018/06/26 10:19:45","新北市新店區新潭路三段211號","121.504931666667","24.9048266666667","6500600","新店區"
"231009","192-VK","2018/06/26 10:19:44","新北市新店區小坑一路56-1號","121.526993333333","24.9090516666667","6500600","新店區"
"226002","7418-A5","2018/06/26 09:50:51","新北市平溪區石底里公園街18-3號","121.733501666667","25.0256433333333","6502400","平溪區"
"227006","282-VK","2018/06/26 10:19:39","新北市雙溪區雙溪里太平路16號","121.864388333333","25.0352366666667","6502500","雙溪區"
"252007","AAC-283","2018/06/26 10:19:37","新北市三芝區新庄里番社后18號","121.497848333333","25.2739783333333","6502100","三芝區"
