"lineid","car","time","location","longitude","latitude","cityid","cityname"
"234044","148-BY","2018/06/26 13:49:44","新北市永和區永元路120號","121.52285","25.0025916666667","6500400","永和區"
"234005","207-UY","2018/06/26 13:49:43","新北市中和區中和路456號","121.512063333333","25.0038316666667","6500400","永和區"
"234078","298-R6","2018/06/26 13:49:46","新北市永和區永亨路98號","121.523043333333","25.0048433333333","6500400","永和區"
"234036","336-UY","2018/06/26 13:49:41","新北市永和區秀朗路二段281號","121.526303333333","24.9981866666667","6500400","永和區"
"234062","337-UY","2018/06/26 13:49:44","新北市永和區中正路368巷4號","121.518008333333","25.00087","6500400","永和區"
"234084","338-UY","2018/06/26 13:49:50","新北市永和區中正路499號","121.516971666667","25.006845","6500400","永和區"
"234068","552-UM","2018/06/26 13:49:35","新北市永和區竹林路88號","121.519398333333","25.0125616666667","6500400","永和區"
"234015","745-BX","2018/06/26 13:49:49","新北市永和區文化路99號","121.513155","25.0151666666667","6500400","永和區"
"234028","746-BX","2018/06/26 13:49:45","新北市永和區四維街103巷1號","121.523966666667","24.9979866666667","6500400","永和區"
"234052","KEA-2590","2018/06/26 13:49:39","新北市永和區竹林路75巷25弄6號","121.520313333333","25.0142416666667","6500400","永和區"
"234012","KEA-2591","2018/06/26 13:49:43","新北市永和區永平路314號","121.506996666667","25.0125566666667","6500400","永和區"
"234060","AAD-866","2018/06/26 13:49:52","新北市永和區中正路281號","121.517516666667","25.00123","6500400","永和區"
"234040","862-TW","2018/06/26 13:49:45","新北市永和區中和路389巷12號","121.508133333333","25.0010516666667","6500400","永和區"
"234048","863-TW","2018/06/26 13:49:45","新北市永和區保安路148號","121.508428333333","25.01471","6500400","永和區"
"234025","9371-KE","2018/06/26 13:49:37","","121.513861666667","25.0059483333333","6500400","永和區"
"234010","9373-KE","2018/06/26 13:49:48","新北市永和區仁愛路302號","121.503531666667","25.007945","6500400","永和區"
"248017","225-UY","2018/06/26 13:49:48","新北市五股區民義路一段312-1號","121.423761666667","25.0944083333333","6501500","五股區"
"234022","9380-KE","2018/06/26 13:49:45","新北市永和區中正路664號","121.516921666667","25.00881","6500400","永和區"
"234076","969-R7","2018/06/26 13:49:48","新北市永和區民族街45-1號","121.518446666667","24.9983516666667","6500400","永和區"
"234072","AAC-211","2018/06/26 13:49:47","新北市永和區豫溪街215巷9號","121.523823333333","25.009825","6500400","永和區"
"234066","AAC-212","2018/06/26 13:49:48","新北市永和區保平路236巷24弄15號","121.508428333333","25.0070416666667","6500400","永和區"
"234001","AAC-295","2018/06/26 13:49:34","新北市永和區永和路一段107號","121.513948333333","25.00793","6500400","永和區"
"244002","248-BX","2018/06/26 13:49:49","新北市林口區信義路58-8號","121.38236","25.07884","6501700","林口區"
"231002","002-UM","2018/06/26 13:49:35","新北市新店區溪園路247號","121.525201666667","24.98309","6500600","新店區"
"231027","0293-UT","2018/06/26 13:49:44","新北市新店區北宜路一段10號","121.538133333333","24.957535","6500600","新店區"
"231028","046-UY","2018/06/26 13:49:41","新北市新店區安和路二段221號","121.517376666667","24.9758766666667","6500600","新店區"
"231001","047-UY","2018/06/26 13:49:37","新北市新店區三民路40號","121.536221666667","24.971465","6500600","新店區"
"231005","106-UY","2018/06/26 13:49:42","新北市新店區寶中路121-1號","121.549591666667","24.97938","6500600","新店區"
"231020","108-UY","2018/06/26 13:49:35","","121.544235","24.9315783333333","6500600","新店區"
"231023","110-UY","2018/06/26 13:49:50","新北市新店區文中路40號","121.539746666667","24.956555","6500600","新店區"
"231012","187-VK","2018/06/26 13:49:53","新北市新店區德正街27巷29弄15號","121.545105","24.9718666666667","6500600","新店區"
"231010","188-VK","2018/06/26 13:49:38","新北市新店區中正路329巷9弄8號","121.535331666667","24.9735133333333","6500600","新店區"
"231026","256-BX","2018/06/26 13:49:51","新北市新店區三民路159巷19弄31號","121.532218333333","24.97313","6500600","新店區"
"231003","268-BY","2018/06/26 13:49:32","新北市新店區中興路一段162號","121.542578333333","24.9640666666667","6500600","新店區"
"231018","278-BY","2018/06/26 13:49:45","新北市新店區百忍街50巷2弄1號","121.53375","24.97643","6500600","新店區"
"231015","AAD-862","2018/06/26 13:49:51","新北市新店區竹林路92號","121.553948333333","24.9502216666667","6500600","新店區"
"231038","3712-VJ","2018/06/26 13:49:37","新北市新店區安華路28-1號","121.519326666667","24.9606483333333","6500600","新店區"
"231037","4716-K9","2018/06/26 13:49:01","新北市新店區安康路二段416號","121.496606666667","24.955245","6500600","新店區"
"231025","4715-K9","2018/06/26 13:49:39","新北市新店區中央路13號","121.533355","24.9784116666667","6500600","新店區"
"231036","512-UM","2018/06/26 13:49:46","新北市新店區安祥路110巷30弄1號","121.473893333333","24.9564066666667","6500600","新店區"
"231013","513-UM","2018/06/26 13:49:45","新北市新店區二十張路25巷20號","121.539333333333","24.9821","6500600","新店區"
"231006","617-UM","2018/06/26 13:49:35","新北市新店區北宜路一段260號","121.545736666667","24.9527433333333","6500600","新店區"
"231030","619-UM","2018/06/26 13:49:37","新北市新店區安康路一段65號","121.530365","24.9610333333333","6500600","新店區"
"231034","641-BX","2018/06/26 13:49:39","新北市新店區達觀路14巷3號","121.503241666667","24.9418916666667","6500600","新店區"
"231035","719-UM","2018/06/26 13:49:36","新北市新店區安忠路57巷5號","121.513601666667","24.9591833333333","6500600","新店區"
"231032","720-UM","2018/06/26 13:49:40","新北市新店區莒光路44巷21弄11-3號","121.518478333333","24.952165","6500600","新店區"
"231029","897-TW","2018/06/26 13:49:51","新北市新店區安康路二段144-1號","121.512458333333","24.96161","6500600","新店區"
"231004","899-TW","2018/06/26 13:49:36","新北市新店區寶橋路132號","121.547151666667","24.9761316666667","6500600","新店區"
"231024","AKT-0513","2018/06/26 13:49:50","新北市新店區新生街13巷4號","121.539715","24.9660966666667","6500600","新店區"
"235030","003-UY","2018/06/26 13:49:49","新北市中和區中山路二段131巷20號","121.503635","25.0025583333333","6500300","中和區"
"235028","005-UY","2018/06/26 13:49:42","新北市中和區連勝街19號","121.498676666667","24.9982083333333","6500300","中和區"
"235027","006-UY","2018/06/26 13:49:48","新北市中和區中正路462號","121.49017","24.9942766666667","6500300","中和區"
"235020","096-UM","2018/06/26 13:49:38","新北市中和區中正路1196號","121.480485","25.0104683333333","6500300","中和區"
"235003","097-UM","2018/06/26 13:49:46","新北市中和區大勇街25巷9弄1號","121.516856666667","24.9932433333333","6500300","中和區"
"235029","098-UM","2018/06/26 13:49:53","新北市中和區福祥路129號","121.498518333333","25.00717","6500300","中和區"
"235004","150-BY","2018/06/26 13:49:50","新北市中和區安平路55號","121.50939","24.9953016666667","6500300","中和區"
"235022","151-BY","2018/06/26 13:49:51","新北市中和區連城路534巷6號","121.475503333333","24.99179","6500300","中和區"
"235019","183-VK","2018/06/26 13:49:48","新北市中和區民生街85巷6弄1號","121.469256666667","25.0039616666667","6500300","中和區"
"235002","185-VK","2018/06/26 13:49:41","新北市中和區大勇街43巷14號","121.517236666667","24.9947183333333","6500300","中和區"
"235013","186-VK","2018/06/26 13:49:32","新北市中和區景安路177巷24號","121.506443333333","24.9943983333333","6500300","中和區"
"235031","255-BX","2018/06/26 13:49:34","","121.483391666667","24.9971816666667","6500300","中和區"
"235008","293-VK","2018/06/26 13:49:38","新北市中和區中興街154號","121.499886666667","24.991875","6500300","中和區"
"235036","301-VK","2018/06/26 13:49:49","新北市中和區中山路二段134-5號","121.502205","25.0031783333333","6500300","中和區"
"235007","352-BY","2018/06/26 13:49:43","新北市中和區景平路1號","121.525543333333","24.9900916666667","6500300","中和區"
"235006","KEA-2878","2018/06/26 13:49:43","新北市中和區秀朗路三段128巷29號","121.524705","24.9942683333333","6500300","中和區"
"235014","4979-A6","2018/06/26 13:49:39","新北市中和區忠孝街62巷46號","121.51312","24.9838616666667","6500300","中和區"
"235033","4980-A6","2018/06/26 13:49:38","新北市中和區南山路111巷16號","121.502595","24.9976333333333","6500300","中和區"
"235034","558-UM","2018/06/26 13:49:44","新北市中和區中和路163號","121.50284","24.9998833333333","6500300","中和區"
"235009","565-BX","2018/06/26 13:49:38","","121.509795","24.98933","6500300","中和區"
"235018","640-BX","2018/06/26 13:49:40","","121.474075","25.0031216666667","6500300","中和區"
"235024","647-TV","2018/06/26 13:49:52","新北市中和區中山路三段152-3號","121.473316666667","25.0062866666667","6500300","中和區"
"235011","732-UM","2018/06/26 13:49:45","新北市中和區興南路二段34巷28弄2號","121.505055","24.986425","6500300","中和區"
"235010","733-UM","2018/06/26 13:49:52","新北市中和區仁愛街36巷45號","121.511286666667","24.9866566666667","6500300","中和區"
"235035","783-BX","2018/06/26 13:49:31","新北市中和區立德街26巷5弄28號","121.489573333333","25.00825","6500300","中和區"
"235062","800-TS","2018/06/26 13:49:47","新北市中和區中山路二段340巷30號","121.49353","25.0036583333333","6500300","中和區"
"235021","801-TS","2018/06/26 13:49:37","新北市中和區民安街25巷2弄1號","121.480536666667","25.0002583333333","6500300","中和區"
"235005","802-TS","2018/06/26 13:49:40","新北市永和區中和路603號","121.51243","25.00421","6500300","中和區"
"235016","805-TS","2018/06/26 13:49:38","新北市中和區興南路二段399巷57-1號","121.50134","24.9761966666667","6500300","中和區"
"235012","896-TW","2018/06/26 13:49:49","新北市中和區南山路240-6號","121.507186666667","24.9895166666667","6500300","中和區"
"235017","900-TW","2018/06/26 13:49:36","","121.466363333333","24.996225","6500300","中和區"
"235051","157-BY","2018/06/26 13:49:44","新北市中和區忠孝街106巷13號","121.512718333333","24.984465","6500300","中和區"
"235001","AAC-213","2018/06/26 13:49:40","新北市中和區秀朗路三段128巷13號","121.524498333333","24.9933016666667","6500300","中和區"
"235023","AAC-215","2018/06/26 13:49:34","新北市中和區圓通路393巷22號","121.489916666667","24.9884466666667","6500300","中和區"
"220016","013-TV","2018/06/26 13:49:50","新北市板橋區民生路二段89-6號","121.470781666667","25.0190066666667","6500100","板橋區"
"220020","015-TV","2018/06/26 13:49:50","新北市板橋區大觀路三段36巷84號","121.434573333333","24.99744","6500100","板橋區"
"220034","073-UY","2018/06/26 13:49:52","新北市板橋區大智街71巷5弄1號","121.453326666667","25.0149466666667","6500100","板橋區"
"220105","075-UY","2018/06/26 13:49:34","新北市板橋區民生路二段120號","121.47037","25.0196183333333","6500100","板橋區"
"220017","AAD-861","2018/06/26 13:49:51","新北市板橋區四川路一段10巷23號","121.458901666667","25.0063133333333","6500100","板橋區"
"247003","337-TH","2018/06/26 13:49:41","新北市蘆洲區中原路32號","121.46001","25.0828216666667","6501400","蘆洲區"
"247005","336-TH","2018/06/26 13:49:37","新北市蘆洲區和平路77號","121.469328333333","25.0790183333333","6501400","蘆洲區"
"247007","056-VK","2018/06/26 13:49:39","新北市蘆洲區重陽二街27號","121.48221","25.0849583333333","6501400","蘆洲區"
"228004","212-TW","2018/06/26 13:41:04","新北市貢寮區龍崗里嵩陽街41號","121.905161666667","25.01295","6502600","貢寮區"
"228005","828-UM","2018/06/26 13:49:48","新北市雙溪區三港里雙澳路100號","121.8887","25.0560866666667","6502600","貢寮區"
"207002","749-BX","2018/06/26 13:49:38","新北市萬里區崁腳里崁腳路166號","121.645083333333","25.1558266666667","6502800","萬里區"
"207001","662-BX","2018/06/26 13:49:24","新北市萬里區磺潭里磺溪12號","121.631071666667","25.203905","6502800","萬里區"
"252005","AAC-283","2018/06/26 13:49:53","新北市三芝區橫山里橫山56-6號","121.535573333333","25.2494733333333","6502100","三芝區"
"236065","105-UM","2018/06/26 13:49:48","新北市土城區員林街1號","121.442286666667","24.9782533333333","6501300","土城區"
"236040","107-UM","2018/06/26 13:49:49","新北市土城區城林路6巷80號","121.43852","24.97973","6501300","土城區"
"236074","166-UM","2018/06/26 13:49:41","新北市土城區永寧路20號","121.429808333333","24.9615916666667","6501300","土城區"
"236013","270-VK","2018/06/26 13:49:39","新北市土城區城林路6巷80號","121.438608333333","24.97969","6501300","土城區"
"236032","271-VK","2018/06/26 13:49:42","新北市土城區城林路6巷80號","121.438476666667","24.9797566666667","6501300","土城區"
"236006","498-BY","2018/06/26 13:49:54","新北市土城區中華路二段61號","121.439543333333","24.9787916666667","6501300","土城區"
"236057","912-UM","2018/06/26 13:49:47","新北市土城區中華路二段196號","121.437483333333","24.9707633333333","6501300","土城區"
"236060","915-UM","2018/06/26 13:49:52","新北市土城區城林路6巷80號","121.438558333333","24.9796783333333","6501300","土城區"
"236054","AAC-216","2018/06/26 13:49:48","新北市土城區城林路6巷80號","121.438406666667","24.9797383333333","6501300","土城區"
"220027","145-BY","2018/06/26 13:49:47","新北市板橋區民權路202巷4弄1號","121.459636666667","25.0142883333333","6500100","板橋區"
"220028","200-UY","2018/06/26 13:49:40","新北市板橋區大觀路二段365巷12號","121.44101","24.997945","6500100","板橋區"
"220030","610-BX","2018/06/26 13:49:54","新北市板橋區篤行路三段71號","121.427336666667","24.9854966666667","6500100","板橋區"
"220050","245-BX","2018/06/26 13:49:47","新北市板橋區民生路二段161巷1號","121.470096666667","25.01991","6500100","板橋區"
"220003","256-TC","2018/06/26 13:49:38","新北市板橋區縣民大道一段193號","121.45907","25.00809","6500100","板橋區"
"220052","257-TC","2018/06/26 13:49:43","新北市板橋區民生路二段120號","121.470465","25.019545","6500100","板橋區"
"220004","276-BY","2018/06/26 13:49:48","新北市板橋區四川路二段51號","121.453766666667","24.99527","6500100","板橋區"
"220042","280-UM","2018/06/26 13:49:42","新北市板橋區民生路二段161巷3號","121.470171666667","25.0197666666667","6500100","板橋區"
"220025","282-UM","2018/06/26 13:49:39","新北市板橋區大觀路二段431-1號","121.441181666667","24.9948216666667","6500100","板橋區"
"220019","283-VK","2018/06/26 13:49:39","新北市板橋區重慶路245巷56號","121.465258333333","25.000935","6500100","板橋區"
"220001","285-VK","2018/06/26 13:49:51","新北市板橋區介壽街117號","121.470473333333","25.018815","6500100","板橋區"
"220031","286-VK","2018/06/26 13:49:47","新北市板橋區大觀路一段38巷156弄102號","121.443225","25.00728","6500100","板橋區"
"220029","287-VK","2018/06/26 13:49:50","新北市板橋區光華街15巷1-1號","121.453876666667","25.01177","6500100","板橋區"
"220039","288-VK","2018/06/26 13:49:45","新北市板橋區民生路二段120號","121.470355","25.0196683333333","6500100","板橋區"
"220009","293-UM","2018/06/26 13:49:32","新北市板橋區民生路二段89-6號","121.470763333333","25.01925","6500100","板橋區"
"220032","296-UM","2018/06/26 13:49:51","新北市板橋區大觀路二段174巷102弄27號","121.442005","25.00125","6500100","板橋區"
"220023","303-R5","2018/06/26 13:49:50","新北市板橋區南雅東路85號","121.453265","25.0083716666667","6500100","板橋區"
"220047","317-R6","2018/06/26 13:49:47","新北市板橋區民生路二段120號","121.470361666667","25.0196633333333","6500100","板橋區"
"220012","486-VK","2018/06/26 13:49:43","新北市板橋區民生路二段36-1號","121.472173333333","25.0167133333333","6500100","板橋區"
"220037","491-VK","2018/06/26 13:49:52","新北市板橋區民生路二段171號","121.469856666667","25.0201616666667","6500100","板橋區"
"220104","560-BX","2018/06/26 13:49:47","新北市板橋區中正路325巷5弄6號","121.45329","25.0192083333333","6500100","板橋區"
"220011","609-BX","2018/06/26 13:49:47","新北市板橋區民生路二段56-6號","121.470776666667","25.01873","6500100","板橋區"
"220040","637-BX","2018/06/26 13:49:51","新北市板橋區民生路二段161巷1號","121.470005","25.0199433333333","6500100","板橋區"
"220005","686-BX","2018/06/26 13:49:44","新北市板橋區館前西路49號","121.457823333333","25.0066566666667","6500100","板橋區"
"220002","741-BX","2018/06/26 13:49:52","新北市板橋區館前東路26-4號","121.460415","25.00717","6500100","板橋區"
"220051","KEA-2699","2018/06/26 13:49:47","新北市板橋區民生路二段161巷1號","121.470128333333","25.02014","6500100","板橋區"
"220014","830-TW","2018/06/26 13:49:48","新北市板橋區民生路二段89-6號","121.470465","25.0189","6500100","板橋區"
"220045","831-TW","2018/06/26 13:49:47","新北市板橋區民生路二段120號","121.470426666667","25.0197133333333","6500100","板橋區"
"220038","833-TW","2018/06/26 13:49:35","新北市板橋區民生路二段161巷1號","121.470021666667","25.020125","6500100","板橋區"
"220022","895-R6","2018/06/26 13:49:42","新北市板橋區南門街75號","121.456953333333","25.007985","6500100","板橋區"
"220018","AAC-253","2018/06/26 13:49:44","新北市板橋區館前西路17巷2號","121.458776666667","25.0069266666667","6500100","板橋區"
"235032","KEA-2873","2018/06/26 13:49:46","新北市中和區圓通路213號","121.496808333333","24.9943366666667","6500300","中和區"
"235025","KEA-2875","2018/06/26 13:49:51","新北市中和區民享街69巷8號","121.474633333333","25.0022333333333","6500300","中和區"
