"lineid","car","time","location","longitude","latitude","cityid","cityname"
"234044","148-BY","2018/06/26 13:59:44","新北市永和區成功路一段107號","121.526968333333","25.0023533333333","6500400","永和區"
"234005","207-UY","2018/06/26 13:59:46","新北市中和區中和路314號","121.509225","25.0004066666667","6500400","永和區"
"234078","298-R6","2018/06/26 13:59:47","新北市永和區永亨路100號","121.52322","25.0047983333333","6500400","永和區"
"234036","336-UY","2018/06/26 13:59:41","新北市永和區成功路二段114號","121.526621666667","24.9980633333333","6500400","永和區"
"234062","337-UY","2018/06/26 13:59:44","新北市永和區中正路412巷20弄27號","121.519078333333","25.0013083333333","6500400","永和區"
"234084","338-UY","2018/06/26 13:59:36","新北市永和區福和路82-1號","121.52292","25.0079883333333","6500400","永和區"
"234068","552-UM","2018/06/26 13:59:55","新北市永和區國光路35號","121.519311666667","25.0084283333333","6500400","永和區"
"234015","745-BX","2018/06/26 13:59:40","新北市永和區永和路二段207號","121.51546","25.0136316666667","6500400","永和區"
"234028","746-BX","2018/06/26 13:59:45","新北市永和區民生路67巷34號","121.524525","24.9973466666667","6500400","永和區"
"234052","KEA-2590","2018/06/26 13:59:39","新北市永和區竹林路39巷42弄1號","121.520076666667","25.0152083333333","6500400","永和區"
"234012","KEA-2591","2018/06/26 13:59:43","新北市永和區仁愛路289號","121.505448333333","25.0093933333333","6500400","永和區"
"234060","AAD-866","2018/06/26 13:59:52","新北市永和區中正路151巷8弄2號","121.516046666667","24.99857","6500400","永和區"
"234040","862-TW","2018/06/26 13:59:45","新北市永和區雙和街17巷10號","121.50914","25.0017733333333","6500400","永和區"
"234048","863-TW","2018/06/26 13:59:45","新北市永和區保安路262巷6號","121.505685","25.0125916666667","6500400","永和區"
"234025","9371-KE","2018/06/26 13:59:47","新北市永和區安樂路306號","121.514458333333","25.00549","6500400","永和區"
"234010","9373-KE","2018/06/26 13:59:48","新北市永和區仁愛路352巷120號","121.500283333333","25.0085616666667","6500400","永和區"
"248017","225-UY","2018/06/26 13:59:48","新北市五股區民義路一段220巷14號","121.4286","25.09238","6501500","五股區"
"234022","9380-KE","2018/06/26 13:59:45","新北市永和區永和路二段278號","121.515965","25.01537","6500400","永和區"
"234076","969-R7","2018/06/26 13:59:48","新北市永和區民族街45號","121.518608333333","24.9984533333333","6500400","永和區"
"234072","AAC-211","2018/06/26 13:59:47","新北市永和區豫溪街169巷2-1號","121.5219","25.0104016666667","6500400","永和區"
"234066","AAC-212","2018/06/26 13:59:48","新北市永和區永貞路368號","121.51003","25.00673","6500400","永和區"
"234001","AAC-295","2018/06/26 13:59:54","新北市永和區福和路343號","121.515568333333","25.0071616666667","6500400","永和區"
"244002","248-BX","2018/06/26 13:59:49","新北市林口區竹林路267號","121.38962","25.0807916666667","6501700","林口區"
"231002","002-UM","2018/06/26 13:59:35","新北市新店區中正路614號","121.5341","24.9885466666667","6500600","新店區"
"231027","0293-UT","2018/06/26 13:59:44","新北市新店區北宜路一段39巷20號","121.538916666667","24.9584933333333","6500600","新店區"
"231028","046-UY","2018/06/26 13:59:40","新北市新店區安和路三段46號","121.518003333333","24.98184","6500600","新店區"
"231001","047-UY","2018/06/26 13:59:37","新北市新店區三民路45號","121.537118333333","24.970905","6500600","新店區"
"231005","106-UY","2018/06/26 13:59:42","新北市新店區中興路三段188號","121.544035","24.9816116666667","6500600","新店區"
"231020","108-UY","2018/06/26 13:59:55","新北市新店區新烏路47號","121.546858333333","24.92869","6500600","新店區"
"231023","110-UY","2018/06/26 13:59:50","新北市新店區文中路45號","121.539495","24.956785","6500600","新店區"
"231012","187-VK","2018/06/26 13:59:53","新北市新店區五峰路71號","121.54637","24.9680883333333","6500600","新店區"
"231010","188-VK","2018/06/26 13:59:38","新北市新店區安康路一段35-1號","121.532103333333","24.9606033333333","6500600","新店區"
"231026","256-BX","2018/06/26 13:59:51","新北市新店區安華路1-1號","121.519326666667","24.96023","6500600","新店區"
"231003","268-BY","2018/06/26 13:59:51","新北市新店區中興路一段108號","121.540956666667","24.9618716666667","6500600","新店區"
"231018","278-BY","2018/06/26 13:59:45","新北市新店區中央路133巷18號","121.53107","24.9734133333333","6500600","新店區"
"231015","AAD-862","2018/06/26 13:59:51","新北市新店區北宜路二段118號","121.556728333333","24.9537983333333","6500600","新店區"
"231038","3712-VJ","2018/06/26 13:59:37","新北市新店區安華路30巷1號","121.519608333333","24.95925","6500600","新店區"
"231037","4716-K9","2018/06/26 13:59:41","新北市新店區安康路三段355巷45號","121.485081666667","24.949395","6500600","新店區"
"231025","4715-K9","2018/06/26 13:59:39","新北市新店區中正路328巷41號","121.537895","24.97632","6500600","新店區"
"231036","512-UM","2018/06/26 13:59:46","新北市新店區安祥路109巷3弄1號","121.477955","24.9612716666667","6500600","新店區"
"231013","513-UM","2018/06/26 13:59:45","新北市新店區明德路111號","121.541536666667","24.9794083333333","6500600","新店區"
"231006","617-UM","2018/06/26 13:59:55","新北市新店區北宜路二段213號","121.55323","24.95334","6500600","新店區"
"231030","619-UM","2018/06/26 13:59:37","新北市新店區安康路一段242號","121.521581666667","24.9638583333333","6500600","新店區"
"231034","641-BX","2018/06/26 13:59:39","新北市新店區達觀路16號","121.503281666667","24.940665","6500600","新店區"
"231035","719-UM","2018/06/26 13:59:36","新北市新店區安和路一段52巷2號","121.517635","24.96619","6500600","新店區"
"231032","720-UM","2018/06/26 13:59:40","新北市新店區華城路36號","121.52832","24.9557183333333","6500600","新店區"
"231029","897-TW","2018/06/26 13:59:39","新北市新店區安康路二段77號","121.513718333333","24.9630316666667","6500600","新店區"
"231004","899-TW","2018/06/26 13:59:42","新北市新店區北新路二段125號","121.542865","24.97522","6500600","新店區"
"231024","AKT-0513","2018/06/26 13:59:44","新北市新店區環河路176號","121.525306666667","24.975435","6500600","新店區"
"235030","003-UY","2018/06/26 13:59:49","新北市中和區水源路7巷1號","121.503616666667","25.0035183333333","6500300","中和區"
"235028","005-UY","2018/06/26 13:59:42","新北市中和區連城路47巷5號","121.498406666667","25.001635","6500300","中和區"
"235027","006-UY","2018/06/26 13:59:41","新北市中和區連城路268-6號","121.486405","24.9962883333333","6500300","中和區"
"235020","096-UM","2018/06/26 13:59:38","新北市板橋區三民路二段228號","121.478778333333","25.0113083333333","6500300","中和區"
"235003","097-UM","2018/06/26 13:59:46","新北市中和區景平路64巷14弄22號","121.522791666667","24.9912616666667","6500300","中和區"
"235029","098-UM","2018/06/26 13:59:53","新北市中和區中山路二段116巷3弄9號","121.502211666667","25.00403","6500300","中和區"
"235004","150-BY","2018/06/26 13:59:43","新北市中和區景安路79巷43號","121.507525","24.9960216666667","6500300","中和區"
"235022","151-BY","2018/06/26 13:59:46","新北市中和區員山路100號","121.480931666667","24.99475","6500300","中和區"
"235019","183-VK","2018/06/26 13:59:48","新北市中和區中山路三段206號","121.471635","25.00647","6500300","中和區"
"235002","185-VK","2018/06/26 13:59:40","新北市中和區立人街24-5號","121.518883333333","24.9941783333333","6500300","中和區"
"235013","186-VK","2018/06/26 13:59:51","新北市中和區景安路167巷1號","121.505598333333","24.9946033333333","6500300","中和區"
"235031","255-BX","2018/06/26 13:59:54","新北市中和區新生街168號","121.483651666667","25.0002116666667","6500300","中和區"
"235008","293-VK","2018/06/26 13:59:38","新北市中和區中興街161巷8弄1號","121.50102","24.990875","6500300","中和區"
"235036","301-VK","2018/06/26 13:59:49","新北市中和區中山路二段109號","121.503053333333","25.003885","6500300","中和區"
"235007","352-BY","2018/06/26 13:59:43","新北市永和區成功路二段199-2號","121.526516666667","24.996025","6500300","中和區"
"235006","KEA-2878","2018/06/26 13:59:43","新北市中和區秀朗路三段24-1號","121.526255","24.9963116666667","6500300","中和區"
"235014","4979-A6","2018/06/26 13:59:39","新北市中和區華新街50巷7號","121.507601666667","24.983915","6500300","中和區"
"235033","4980-A6","2018/06/26 13:59:38","新北市中和區圓通路50號","121.500685","24.9975933333333","6500300","中和區"
"235034","558-UM","2018/06/26 13:59:44","新北市中和區中和路212號","121.506016666667","24.9995033333333","6500300","中和區"
"235009","565-BX","2018/06/26 13:59:38","新北市中和區景新街467巷20弄126號","121.51494","24.9872166666667","6500300","中和區"
"235018","640-BX","2018/06/26 13:59:40","新北市中和區民享街29-1號","121.474058333333","25.0042233333333","6500300","中和區"
"235024","647-TV","2018/06/26 13:59:52","新北市中和區民治街9巷2號","121.475191666667","25.0044566666667","6500300","中和區"
"235011","732-UM","2018/06/26 13:59:45","新北市中和區興南路二段111號","121.505731666667","24.98446","6500300","中和區"
"235010","733-UM","2018/06/26 13:59:52","新北市中和區興南路一段135巷17號","121.509361666667","24.9870233333333","6500300","中和區"
"235035","783-BX","2018/06/26 13:59:51","新北市中和區立德街98巷91號","121.488745","25.00867","6500300","中和區"
"235026","800-TS","2018/06/26 13:59:47","新北市中和區中山路二段342號","121.493756666667","25.0021783333333","6500300","中和區"
"235021","801-TS","2018/06/26 13:59:37","新北市中和區民利街89號","121.478055","24.9980233333333","6500300","中和區"
"235005","802-TS","2018/06/26 13:59:40","新北市中和區中安街40巷8號","121.512693333333","25.0029733333333","6500300","中和區"
"235016","805-TS","2018/06/26 13:59:38","新北市中和區興南路二段261巷6-4號","121.502448333333","24.979475","6500300","中和區"
"235012","896-TW","2018/06/26 13:59:48","新北市中和區華新街69號","121.508101666667","24.9839583333333","6500300","中和區"
"235017","900-TW","2018/06/26 13:59:36","新北市板橋區和平路190巷14號","121.464561666667","24.99503","6500300","中和區"
"235051","157-BY","2018/06/26 13:59:44","新北市中和區忠孝街31巷56號","121.509673333333","24.9855783333333","6500300","中和區"
"235001","AAC-213","2018/06/26 13:59:40","新北市中和區秀朗路三段10巷37弄4號","121.52415","24.9960683333333","6500300","中和區"
"235023","AAC-215","2018/06/26 13:59:54","新北市中和區圓通路369巷14弄8號","121.490376666667","24.98762","6500300","中和區"
"220016","013-TV","2018/06/26 13:59:50","新北市板橋區中山路二段465巷40弄2號","121.481228333333","25.02153","6500100","板橋區"
"220020","015-TV","2018/06/26 13:59:50","新北市板橋區溪北路111號","121.430088333333","24.988665","6500100","板橋區"
"220034","073-UY","2018/06/26 13:59:52","新北市板橋區中正路245號","121.455831666667","25.0182083333333","6500100","板橋區"
"220105","075-UY","2018/06/26 13:59:54","新北市板橋區文化路二段124巷28-2號","121.471248333333","25.025605","6500100","板橋區"
"220017","AAD-861","2018/06/26 13:59:49","新北市板橋區東興街6號","121.458543333333","25.005445","6500100","板橋區"
"247013","546-UM","2018/06/26 13:59:46","新北市蘆洲區保和街87號","121.468973333333","25.08604","6501400","蘆洲區"
"247009","341-TH","2018/06/26 13:59:51","新北市蘆洲區集賢路224巷21號","121.481615","25.08686","6501400","蘆洲區"
"247011","339-TH","2018/06/26 13:59:49","新北市蘆洲區民族路87號","121.4794","25.0861183333333","6501400","蘆洲區"
"247003","337-TH","2018/06/26 13:59:41","新北市蘆洲區長榮路28-1號","121.4636","25.0826516666667","6501400","蘆洲區"
"247005","336-TH","2018/06/26 13:59:37","新北市蘆洲區永安南路二段54號","121.465696666667","25.07778","6501400","蘆洲區"
"247017","057-VK","2018/06/26 13:59:36","新北市蘆洲區民族路327巷93號","121.475726666667","25.089005","6501400","蘆洲區"
"247007","056-VK","2018/06/26 13:59:39","新北市三重區仁愛街739號","121.481511666667","25.0806166666667","6501400","蘆洲區"
"247015","007-UY","2018/06/26 13:59:54","新北市蘆洲區光華路32號","121.469303333333","25.08323","6501400","蘆洲區"
"247001","002-UY","2018/06/26 13:59:46","新北市蘆洲區永平街32巷68弄1號","121.460645","25.0933733333333","6501400","蘆洲區"
"247019","001-UY","2018/06/26 13:59:52","新北市蘆洲區民族路422巷35-1號","121.473513333333","25.09373","6501400","蘆洲區"
"228004","212-TW","2018/06/26 13:59:44","新北市貢寮區龍崗里泮宮路35號","121.907958333333","25.017505","6502600","貢寮區"
"228005","828-UM","2018/06/26 13:53:08","新北市貢寮區美豐里雞母嶺街52號","121.891098333333","25.0665033333333","6502600","貢寮區"
"207002","749-BX","2018/06/26 13:59:37","新北市萬里區溪底里溪底路9號","121.620485","25.148615","6502800","萬里區"
"207001","662-BX","2018/06/26 13:59:45","新北市萬里區磺潭里清水18號","121.637851666667","25.197675","6502800","萬里區"
"252005","AAC-283","2018/06/26 13:59:53","新北市三芝區橫山里橫山33號","121.542865","25.2587916666667","6502100","三芝區"
"236065","105-UM","2018/06/26 13:59:48","新北市土城區和平路42號","121.444988333333","24.970655","6501300","土城區"
"236040","107-UM","2018/06/26 13:59:50","新北市土城區城林路6巷80號","121.438536666667","24.9797183333333","6501300","土城區"
"236074","166-UM","2018/06/26 13:59:41","新北市土城區永寧路32巷10弄21號","121.428946666667","24.9610583333333","6501300","土城區"
"236029","253-BX","2018/06/26 13:59:49","新北市土城區城林路6巷80號","121.438603333333","24.97975","6501300","土城區"
"236024","269-VK","2018/06/26 13:59:39","新北市土城區承天路37號","121.437828333333","24.9645016666667","6501300","土城區"
"236013","270-VK","2018/06/26 13:59:39","新北市土城區城林路6巷80號","121.438605","24.9796666666667","6501300","土城區"
"236032","271-VK","2018/06/26 13:59:42","新北市土城區員福街20號","121.441491666667","24.9786483333333","6501300","土城區"
"236017","401-BY","2018/06/26 13:59:52","新北市土城區城林路6巷80號","121.438508333333","24.97979","6501300","土城區"
"236006","498-BY","2018/06/26 13:59:54","新北市土城區中央路一段343號","121.443241666667","24.98146","6501300","土城區"
"236057","912-UM","2018/06/26 13:59:47","新北市土城區中央路三段250號","121.427683333333","24.96418","6501300","土城區"
"236045","913-UM","2018/06/26 13:59:43","新北市土城區城林路6巷80號","121.438471666667","24.9797183333333","6501300","土城區"
"236060","915-UM","2018/06/26 13:59:51","新北市土城區城林路6巷80號","121.438546666667","24.979685","6501300","土城區"
"236054","AAC-216","2018/06/26 13:59:48","新北市土城區城林路6巷80號","121.438421666667","24.9797533333333","6501300","土城區"
"220027","145-BY","2018/06/26 13:59:48","新北市板橋區民權路202巷12弄1號","121.460593333333","25.01567","6500100","板橋區"
"220028","200-UY","2018/06/26 13:59:40","新北市板橋區大觀路二段265巷3號","121.442673333333","24.9965333333333","6500100","板橋區"
"220030","610-BX","2018/06/26 13:59:28","新北市板橋區溪北路29號","121.427191666667","24.99026","6500100","板橋區"
"220050","245-BX","2018/06/26 13:59:47","新北市板橋區文化路二段182巷5弄1號","121.47164","25.026965","6500100","板橋區"
"220003","256-TC","2018/06/26 13:59:46","新北市板橋區中山路一段158巷33-2號","121.466681666667","25.0110316666667","6500100","板橋區"
"220052","257-TC","2018/06/26 13:59:47","新北市板橋區縣民大道二段279號","121.470086666667","25.0178333333333","6500100","板橋區"
"220004","276-BY","2018/06/26 13:59:53","新北市板橋區信義路147號","121.45822","24.99288","6500100","板橋區"
"220042","280-UM","2018/06/26 13:59:43","新北市板橋區文化路二段31號","121.468825","25.0248616666667","6500100","板橋區"
"220025","282-UM","2018/06/26 13:59:53","新北市板橋區大觀路二段174巷210號","121.44231","25.0042766666667","6500100","板橋區"
"220019","283-VK","2018/06/26 13:59:41","新北市中和區華安街6號","121.465575","24.9987333333333","6500100","板橋區"
"220001","285-VK","2018/06/26 13:59:51","新北市板橋區永豐街59號","121.473876666667","25.0183766666667","6500100","板橋區"
"220031","286-VK","2018/06/26 13:59:47","新北市板橋區龍興街99巷11-2號","121.443776666667","25.0030916666667","6500100","板橋區"
"220029","287-VK","2018/06/26 13:59:50","新北市板橋區光華街39巷25號","121.453065","25.013","6500100","板橋區"
"220039","288-VK","2018/06/26 13:59:45","新北市板橋區四維路177巷3弄1號","121.463973333333","25.026145","6500100","板橋區"
"220009","293-UM","2018/06/26 13:59:53","新北市板橋區富山街89號","121.476591666667","25.0218483333333","6500100","板橋區"
"220032","296-UM","2018/06/26 13:59:51","新北市板橋區篤行路一段18號","121.432051666667","24.99486","6500100","板橋區"
"220023","303-R5","2018/06/26 13:59:53","新北市板橋區南雅西路二段79號","121.452708333333","25.0101233333333","6500100","板橋區"
"220010","305-R5","2018/06/26 13:59:49","新北市中和區環中路120號","121.481905","25.01245","6500100","板橋區"
"220041","307-R5","2018/06/26 13:59:45","新北市板橋區文化路一段92號","121.464415","25.0179116666667","6500100","板橋區"
"220047","317-R6","2018/06/26 13:59:52","新北市板橋區民有街23號","121.466073333333","25.0251683333333","6500100","板橋區"
"220012","486-VK","2018/06/26 13:59:44","新北市板橋區中山路一段283巷22號","121.470426666667","25.0152833333333","6500100","板橋區"
"220037","491-VK","2018/06/26 13:59:52","新北市板橋區民生路二段236號","121.468405","25.0229383333333","6500100","板橋區"
"220104","560-BX","2018/06/26 13:59:45","新北市板橋區中正路379巷3弄38-1號","121.453201666667","25.021305","6500100","板橋區"
"220011","609-BX","2018/06/26 13:59:49","新北市板橋區中山路二段217號","121.476676666667","25.0171333333333","6500100","板橋區"
"220040","637-BX","2018/06/26 13:59:51","新北市板橋區萬板路165號","121.47401","25.0234166666667","6500100","板橋區"
"220005","686-BX","2018/06/26 13:59:44","新北市板橋區重慶路99號","121.462106666667","25.0055666666667","6500100","板橋區"
"220042","689-BX","2018/06/26 13:59:42","新北市板橋區民生路三段52號","121.467155","25.025165","6500100","板橋區"
"220002","741-BX","2018/06/26 13:59:52","新北市板橋區實踐路91號","121.464016666667","25.0054283333333","6500100","板橋區"
"220051","KEA-2699","2018/06/26 13:59:47","新北市板橋區雙十路一段44巷36號","121.477253333333","25.0248366666667","6500100","板橋區"
"220014","830-TW","2018/06/26 13:59:48","新北市板橋區三民路二段正隆巷60號","121.476676666667","25.0143316666667","6500100","板橋區"
"220045","831-TW","2018/06/26 13:59:47","新北市板橋區莒光路75號","121.471706666667","25.0241066666667","6500100","板橋區"
"220038","833-TW","2018/06/26 13:59:35","新北市板橋區文化路二段294號","121.471948333333","25.0294916666667","6500100","板橋區"
"220022","895-R6","2018/06/26 13:59:42","新北市板橋區林園街7-1號","121.45396","25.0091033333333","6500100","板橋區"
"220046","AAC-210","2018/06/26 13:59:45","新北市板橋區文化路一段241號","121.464026666667","25.017935","6500100","板橋區"
"220018","AAC-253","2018/06/26 13:59:44","新北市板橋區四川路一段256號","121.459076666667","25.0013433333333","6500100","板橋區"
"235032","KEA-2873","2018/06/26 13:59:46","新北市中和區連勝街59號","121.497596666667","24.997145","6500300","中和區"
"235025","KEA-2875","2018/06/26 13:59:51","新北市中和區民有街66號","121.475958333333","25.004305","6500300","中和區"
