"lineid","car","time","location","longitude","latitude","cityid","cityname"
"234044","148-BY","2018/06/26 14:19:44","新北市永和區環河東路二段62號","121.523726666667","25.0112083333333","6500400","永和區"
"234005","207-UY","2018/06/26 14:19:43","新北市永和區中山路一段78號","121.51221","25.0107816666667","6500400","永和區"
"234078","298-R6","2018/06/26 14:19:46","新北市永和區國中路132巷18號","121.524238333333","25.0076433333333","6500400","永和區"
"234036","336-UY","2018/06/26 14:19:41","新北市永和區成功路一段95號","121.526893333333","25.0027116666667","6500400","永和區"
"234062","337-UY","2018/06/26 14:19:44","新北市永和區得和路110號","121.518325","25.0000983333333","6500400","永和區"
"234084","338-UY","2018/06/26 14:19:56","新北市永和區永和路二段201號","121.515315","25.0135166666667","6500400","永和區"
"234068","552-UM","2018/06/26 14:19:50","新北市永和區福和路239號","121.518416666667","25.00743","6500400","永和區"
"234028","746-BX","2018/06/26 14:19:47","新北市永和區民權路49巷28號","121.521575","24.997425","6500400","永和區"
"234052","KEA-2590","2018/06/26 14:19:39","新北市永和區光復街2巷15-1號","121.516935","25.01666","6500400","永和區"
"234060","AAD-866","2018/06/26 14:19:52","新北市永和區安樂路194巷37號","121.516436666667","25.001315","6500400","永和區"
"234040","862-TW","2018/06/26 14:19:45","新北市永和區安樂路236號","121.514928333333","25.0026383333333","6500400","永和區"
"234048","863-TW","2018/06/26 14:19:45","新北市永和區文化路234號","121.509768333333","25.0171533333333","6500400","永和區"
"234025","9371-KE","2018/06/26 14:19:36","新北市永和區得和路42巷23號","121.515355","24.9995983333333","6500400","永和區"
"234010","9373-KE","2018/06/26 14:19:48","新北市永和區保生路55-1號","121.504513333333","25.010915","6500400","永和區"
"248017","225-UY","2018/06/26 14:16:28","新北市五股區壟路19-2號","121.413001666667","25.0850816666667","6501500","五股區"
"234022","9380-KE","2018/06/26 14:19:45","新北市永和區竹林路23號","121.517261666667","25.0146383333333","6500400","永和區"
"234076","969-R7","2018/06/26 14:19:48","新北市永和區民權路55號","121.52017","24.9966283333333","6500400","永和區"
"234072","AAC-211","2018/06/26 14:19:47","新北市永和區竹林路119巷30弄2號","121.522053333333","25.01156","6500400","永和區"
"234066","AAC-212","2018/06/26 14:19:49","新北市永和區保平路268巷51弄2號","121.50704","25.00632","6500400","永和區"
"234001","AAC-295","2018/06/26 14:19:47","新北市永和區自強街32巷10號","121.516076666667","25.0075883333333","6500400","永和區"
"244002","248-BX","2018/06/26 14:19:49","新北市林口區竹林路267號","121.389598333333","25.0808483333333","6501700","林口區"
"231002","002-UM","2018/06/26 14:19:55","新北市新店區中央路210-1號","121.530128333333","24.9736066666667","6500600","新店區"
"231027","0293-UT","2018/06/26 14:19:44","新北市新店區北新路二段226號","121.542873333333","24.977405","6500600","新店區"
"231028","046-UY","2018/06/26 14:19:40","新北市新店區安和路二段166-10號","121.519101666667","24.9740283333333","6500600","新店區"
"231001","047-UY","2018/06/26 14:19:37","新北市新店區北新路一段96巷23號","121.543056666667","24.9687366666667","6500600","新店區"
"231005","106-UY","2018/06/26 14:19:42","新北市新店區中興路三段138號","121.54445","24.9802833333333","6500600","新店區"
"231020","108-UY","2018/06/26 14:19:51","新北市新店區新烏路二段194號","121.547866666667","24.9173483333333","6500600","新店區"
"231023","110-UY","2018/06/26 14:19:50","新北市新店區中興路一段86-1號","121.539798333333","24.9602916666667","6500600","新店區"
"231012","187-VK","2018/06/26 14:19:53","新北市新店區五峰路61巷4號","121.547931666667","24.9697883333333","6500600","新店區"
"231003","268-BY","2018/06/26 14:19:51","新北市新店區中興路一段204號","121.543651666667","24.9654683333333","6500600","新店區"
"231018","278-BY","2018/06/26 14:19:45","新北市新店區中央五街15號","121.52963","24.9744183333333","6500600","新店區"
"231015","AAD-862","2018/06/26 14:19:51","新北市新店區北宜路二段384號","121.564908333333","24.953265","6500600","新店區"
"231038","3712-VJ","2018/06/26 14:19:37","新北市新店區溪洲路121號","121.531228333333","24.9630216666667","6500600","新店區"
"231037","4716-K9","2018/06/26 14:19:41","新北市新店區車子路1號","121.50458","24.956775","6500600","新店區"
"231036","512-UM","2018/06/26 14:19:47","新北市新店區安祥路109巷151弄10號","121.478183333333","24.95893","6500600","新店區"
"231013","513-UM","2018/06/26 14:19:48","新北市新店區建國路128巷3-1號","121.53903","24.97935","6500600","新店區"
"231006","617-UM","2018/06/26 14:19:55","新北市新店區北宜路二段599號","121.568156666667","24.95541","6500600","新店區"
"231030","619-UM","2018/06/26 14:19:37","新北市新店區安民街3巷11號","121.514373333333","24.9641033333333","6500600","新店區"
"231034","641-BX","2018/06/26 14:19:39","新北市新店區車子路11號","121.503021666667","24.95203","6500600","新店區"
"231035","719-UM","2018/06/26 14:19:56","新北市新店區光華街8巷28號","121.518095","24.9698783333333","6500600","新店區"
"231032","720-UM","2018/06/26 14:19:40","新北市新店區溪洲路202-12號","121.528801666667","24.9682616666667","6500600","新店區"
"231029","897-TW","2018/06/26 14:19:39","新北市新店區安康路二段308-1號","121.506845","24.95822","6500600","新店區"
"231004","899-TW","2018/06/26 14:19:39","新北市新店區中正路137號","121.541736666667","24.9714333333333","6500600","新店區"
"231024","AKT-0513","2018/06/26 14:19:44","新北市新店區安民街35巷15號","121.515203333333","24.965875","6500600","新店區"
"235030","003-UY","2018/06/26 14:19:49","新北市中和區中和路102號","121.502725","24.99972","6500300","中和區"
"235028","005-UY","2018/06/26 14:19:42","新北市中和區中和路127號","121.501738333333","25.0000183333333","6500300","中和區"
"235027","006-UY","2018/06/26 14:19:41","新北市中和區連勝街155號","121.494368333333","24.9964466666667","6500300","中和區"
"235020","096-UM","2018/06/26 14:19:38","新北市中和區民富街1號","121.476598333333","25.0068033333333","6500300","中和區"
"235003","097-UM","2018/06/26 14:19:46","新北市中和區秀峰街103巷4弄2號","121.520516666667","24.9900316666667","6500300","中和區"
"235029","098-UM","2018/06/26 14:19:46","新北市中和區永和路8巷1號","121.500133333333","25.0031183333333","6500300","中和區"
"235004","150-BY","2018/06/26 14:19:43","新北市中和區宜安路1巷28弄2號","121.512438333333","24.994225","6500300","中和區"
"235022","151-BY","2018/06/26 14:19:46","新北市中和區員山路36巷16-2號","121.485296666667","24.9916183333333","6500300","中和區"
"235019","183-VK","2018/06/26 14:19:48","新北市中和區民享街2巷8號","121.473028333333","25.005575","6500300","中和區"
"235002","185-VK","2018/06/26 14:19:40","新北市中和區大仁街10巷29號","121.519235","24.99248","6500300","中和區"
"235013","186-VK","2018/06/26 14:19:51","新北市中和區景新街228-6號","121.508151666667","24.994175","6500300","中和區"
"235031","255-BX","2018/06/26 14:19:54","新北市中和區連城路479號","121.483036666667","24.9957433333333","6500300","中和區"
"235008","293-VK","2018/06/26 14:19:38","新北市中和區中興街241號","121.500391666667","24.9889866666667","6500300","中和區"
"235036","301-VK","2018/06/26 14:19:55","新北市中和區莊敬路39號","121.50085","25.0050416666667","6500300","中和區"
"235007","352-BY","2018/06/26 14:19:42","新北市中和區景平路296號","121.512898333333","24.9926883333333","6500300","中和區"
"235006","KEA-2878","2018/06/26 14:19:43","新北市永和區民有街17號","121.516533333333","24.9967883333333","6500300","中和區"
"235014","4979-A6","2018/06/26 14:19:39","新北市中和區中興街162號","121.499836666667","24.9916166666667","6500300","中和區"
"235033","4980-A6","2018/06/26 14:19:54","新北市中和區景平路736巷3弄8號","121.49748","25.0037116666667","6500300","中和區"
"235034","558-UM","2018/06/26 14:19:44","新北市中和區中山路二段211號","121.498943333333","25.0026016666667","6500300","中和區"
"235009","565-BX","2018/06/26 14:19:38","新北市中和區景新街383巷30號","121.513558333333","24.9906183333333","6500300","中和區"
"235018","640-BX","2018/06/26 14:19:40","新北市中和區國光街109巷2弄10號","121.4693","25.00067","6500300","中和區"
"235024","647-TV","2018/06/26 14:19:33","新北市中和區員山路437號","121.480851666667","25.0038183333333","6500300","中和區"
"235011","732-UM","2018/06/26 14:19:45","新北市中和區和平街76巷6弄4號","121.508078333333","24.9920266666667","6500300","中和區"
"235010","733-UM","2018/06/26 14:19:52","新北市中和區忠孝街2巷2-6號","121.510016666667","24.982425","6500300","中和區"
"235035","783-BX","2018/06/26 14:19:51","新北市中和區連城路356號","121.482153333333","24.99545","6500300","中和區"
"235026","800-TS","2018/06/26 14:19:47","新北市中和區中山路二段351-2號","121.490893333333","25.0031816666667","6500300","中和區"
"235021","801-TS","2018/06/26 14:19:37","新北市中和區員山路423巷7號","121.480521666667","25.00316","6500300","中和區"
"235005","802-TS","2018/06/26 14:19:51","新北市中和區宜安路66號","121.511566666667","24.9971666666667","6500300","中和區"
"235016","805-TS","2018/06/26 14:19:49","新北市中和區華新街143巷29號","121.506556666667","24.9807333333333","6500300","中和區"
"235012","896-TW","2018/06/26 14:19:48","新北市中和區華新街109巷1弄1號","121.50888","24.982625","6500300","中和區"
"235017","900-TW","2018/06/26 14:19:44","新北市中和區華安街16巷1號","121.466208333333","24.998385","6500300","中和區"
"235051","157-BY","2018/06/26 14:19:44","新北市中和區南山路325號","121.505123333333","24.9912133333333","6500300","中和區"
"235001","AAC-213","2018/06/26 14:19:40","新北市中和區自立路15巷25號","121.523073333333","24.99592","6500300","中和區"
"235023","AAC-215","2018/06/26 14:19:34","新北市中和區圓通路252巷36弄1號","121.492365","24.993065","6500300","中和區"
"220016","013-TV","2018/06/26 14:19:50","新北市板橋區林森街1巷1號","121.481991666667","25.024245","6500100","板橋區"
"220020","015-TV","2018/06/26 14:19:50","新北市板橋區金門街339-2號","121.429245","24.985595","6500100","板橋區"
"220034","073-UY","2018/06/26 14:19:52","新北市板橋區中正路216巷22號","121.456735","25.0185083333333","6500100","板橋區"
"220105","075-UY","2018/06/26 14:19:54","新北市板橋區長江路二段281號","121.470286666667","25.033135","6500100","板橋區"
"220017","AAD-861","2018/06/26 14:19:49","新北市板橋區貴興路39號","121.457533333333","25.0037516666667","6500100","板橋區"
"247023","893-R6","2018/06/26 14:19:54","新北市蘆洲區三民路589號","121.461415","25.09316","6501400","蘆洲區"
"247013","546-UM","2018/06/26 14:19:46","新北市蘆洲區中山二路105號","121.472605","25.081825","6501400","蘆洲區"
"247021","500-BY","2018/06/26 14:19:36","新北市蘆洲區中正路434巷8-2號","121.463473333333","25.0948733333333","6501400","蘆洲區"
"247009","341-TH","2018/06/26 14:19:51","新北市蘆洲區三民路26巷22號","121.47742","25.08297","6501400","蘆洲區"
"247011","339-TH","2018/06/26 14:19:49","新北市蘆洲區民權路3巷14弄15號","121.475231666667","25.0856933333333","6501400","蘆洲區"
"247003","337-TH","2018/06/26 14:19:41","新北市蘆洲區長安街172巷16號","121.459921666667","25.0835883333333","6501400","蘆洲區"
"247005","336-TH","2018/06/26 14:19:37","新北市蘆洲區長安街22巷28號","121.464798333333","25.0798466666667","6501400","蘆洲區"
"247017","057-VK","2018/06/26 14:19:56","新北市蘆洲區民權路110號","121.473728333333","25.08832","6501400","蘆洲區"
"247015","007-UY","2018/06/26 14:19:52","新北市蘆洲區中正路185巷25弄2號","121.466716666667","25.0843183333333","6501400","蘆洲區"
"247001","002-UY","2018/06/26 14:19:06","新北市蘆洲區永樂街42號","121.457951666667","25.0885133333333","6501400","蘆洲區"
"247019","001-UY","2018/06/26 14:19:52","新北市蘆洲區仁愛街39號","121.47213","25.09291","6501400","蘆洲區"
"228004","212-TW","2018/06/26 14:19:44","新北市貢寮區雙玉里田寮洋街39號","121.924913333333","25.0138466666667","6502600","貢寮區"
"228005","828-UM","2018/06/26 14:19:48","新北市貢寮區美豐里土地公嶺54號","121.894553333333","25.0650683333333","6502600","貢寮區"
"207002","749-BX","2018/06/26 14:19:37","新北市萬里區溪底里富士坪路24-2號","121.620718333333","25.1523166666667","6502800","萬里區"
"207001","662-BX","2018/06/26 14:19:45","新北市萬里區磺潭里清水18號","121.63791","25.1977466666667","6502800","萬里區"
"252005","AAC-283","2018/06/26 14:19:53","新北市三芝區茂長里陳厝坑17-5號","121.520341666667","25.2567266666667","6502100","三芝區"
"236065","105-UM","2018/06/26 14:19:48","新北市土城區明德路一段128巷17號","121.463023333333","24.9788083333333","6501300","土城區"
"236040","107-UM","2018/06/26 14:19:49","新北市土城區樂利街3巷16號","121.44857","24.9863566666667","6501300","土城區"
"236074","166-UM","2018/06/26 14:19:41","新北市土城區中央路三段281巷23弄19號","121.426345","24.96156","6501300","土城區"
"236029","253-BX","2018/06/26 14:19:49","新北市土城區順風路66號","121.440401666667","24.977585","6501300","土城區"
"236024","269-VK","2018/06/26 14:19:39","新北市土城區承天路20號","121.43953","24.9633933333333","6501300","土城區"
"236013","270-VK","2018/06/26 14:19:39","新北市土城區青雲路39巷7號","121.460361666667","24.98753","6501300","土城區"
"236032","271-VK","2018/06/26 14:19:42","新北市土城區青雲路451巷8弄11號","121.459585","24.9743083333333","6501300","土城區"
"236017","401-BY","2018/06/26 14:19:52","新北市土城區金城路二段204號","121.455075","24.9819433333333","6501300","土城區"
"236006","498-BY","2018/06/26 14:19:34","新北市土城區中華路一段56巷26號","121.444401666667","24.989665","6501300","土城區"
"236057","912-UM","2018/06/26 14:19:47","新北市土城區中央路四段277-4號","121.412615","24.9540616666667","6501300","土城區"
"236045","913-UM","2018/06/26 14:19:43","新北市土城區明德路一段375-1號","121.454938333333","24.9781316666667","6501300","土城區"
"236060","915-UM","2018/06/26 14:19:51","新北市土城區延壽路44巷15號","121.471475","24.9930333333333","6501300","土城區"
"236054","AAC-216","2018/06/26 14:19:52","新北市土城區中華路二段201號","121.437913333333","24.9739033333333","6501300","土城區"
"220027","145-BY","2018/06/26 14:19:42","新北市板橋區民權路202巷24號","121.460718333333","25.01716","6500100","板橋區"
"220028","200-UY","2018/06/26 14:19:44","新北市板橋區大觀路二段3巷1號","121.44737","25.0037933333333","6500100","板橋區"
"220030","610-BX","2018/06/26 14:19:48","新北市板橋區金門街320號","121.4286","24.9850666666667","6500100","板橋區"
"220050","245-BX","2018/06/26 14:19:47","新北市板橋區縣民大道三段147號","121.478176666667","25.0235533333333","6500100","板橋區"
"220003","256-TC","2018/06/26 14:19:38","新北市板橋區實踐路72-4號","121.463913333333","25.0057266666667","6500100","板橋區"
"220052","257-TC","2018/06/26 14:19:43","新北市板橋區文化路一段188巷7弄40-2號","121.468125","25.0193716666667","6500100","板橋區"
"220004","276-BY","2018/06/26 14:19:53","新北市板橋區和平路12號","121.459213333333","24.9944366666667","6500100","板橋區"
"220043","280-UM","2018/06/26 14:19:42","新北市板橋區光武街134號","121.465526666667","25.02989","6500100","板橋區"
"220025","282-UM","2018/06/26 14:19:39","新北市板橋區大觀路一段61號","121.447208333333","25.0050683333333","6500100","板橋區"
"220019","283-VK","2018/06/26 14:19:52","新北市板橋區四川路一段283巷5號","121.459791666667","25.0013283333333","6500100","板橋區"
"220001","285-VK","2018/06/26 14:19:51","新北市板橋區富山街18巷28號","121.47851","25.0228483333333","6500100","板橋區"
"220031","286-VK","2018/06/26 14:19:47","新北市板橋區龍興街73巷40號","121.44244","25.0028266666667","6500100","板橋區"
"220029","287-VK","2018/06/26 14:19:50","新北市板橋區南雅西路一段96號","121.45259","25.005495","6500100","板橋區"
"220039","288-VK","2018/06/26 14:19:45","新北市板橋區長江路一段106巷13弄27號","121.461108333333","25.0296166666667","6500100","板橋區"
"220009","293-UM","2018/06/26 14:19:52","新北市板橋區中山路二段255巷7號","121.477008333333","25.01793","6500100","板橋區"
"220032","296-UM","2018/06/26 14:19:51","新北市板橋區滿平街84巷120弄28號","121.426078333333","24.9854933333333","6500100","板橋區"
"220023","303-R5","2018/06/26 14:19:53","新北市板橋區南雅西路一段10巷7弄2號","121.4546","25.0046983333333","6500100","板橋區"
"220010","305-R5","2018/06/26 14:19:42","新北市板橋區三民路二段153巷4號","121.479623333333","25.0148666666667","6500100","板橋區"
"220041","307-R5","2018/06/26 14:19:45","新北市板橋區光武街48巷34號","121.4684","25.02697","6500100","板橋區"
"220047","317-R6","2018/06/26 14:19:47","新北市板橋區四維路266巷2弄25-1號","121.464103333333","25.028055","6500100","板橋區"
"220012","486-VK","2018/06/26 14:19:43","新北市板橋區中山路一段40號","121.460805","25.00859","6500100","板橋區"
"220037","491-VK","2018/06/26 14:19:52","新北市板橋區雙十路二段76巷2號","121.474961666667","25.0280583333333","6500100","板橋區"
"220104","560-BX","2018/06/26 14:19:47","新北市板橋區中正路413巷12號","121.453583333333","25.0226533333333","6500100","板橋區"
"220011","609-BX","2018/06/26 14:19:47","新北市板橋區三民路二段241號","121.478968333333","25.0126616666667","6500100","板橋區"
"220040","637-BX","2018/06/26 14:19:51","新北市板橋區縣民大道三段223號","121.480538333333","25.0254416666667","6500100","板橋區"
"220005","686-BX","2018/06/26 14:19:44","新北市中和區華順街142號","121.464873333333","24.9957816666667","6500100","板橋區"
"220042","689-BX","2018/06/26 14:19:42","新北市板橋區文化路一段288號","121.467305","25.02167","6500100","板橋區"
"220002","741-BX","2018/06/26 14:19:52","新北市板橋區光明街132號","121.463638333333","25.0030366666667","6500100","板橋區"
"220051","KEA-2699","2018/06/26 14:19:47","新北市板橋區文聖街207-2號","121.479531666667","25.02669","6500100","板橋區"
"220014","830-TW","2018/06/26 14:19:49","新北市板橋區長安街168巷9號","121.474038333333","25.0109283333333","6500100","板橋區"
"220045","831-TW","2018/06/26 14:19:47","新北市板橋區大同街50巷6號","121.47855","25.0271833333333","6500100","板橋區"
"220038","833-TW","2018/06/26 14:19:55","新北市板橋區文化路一段220號","121.466675","25.0205516666667","6500100","板橋區"
"220022","895-R6","2018/06/26 14:19:42","新北市板橋區北門街60號","121.456576666667","25.0113733333333","6500100","板橋區"
"220046","AAC-210","2018/06/26 14:19:45","新北市板橋區幸福路64號","121.460986666667","25.0201133333333","6500100","板橋區"
"220018","AAC-253","2018/06/26 14:19:52","新北市板橋區忠孝路74號","121.46136","25.001875","6500100","板橋區"
"235032","KEA-2873","2018/06/26 14:19:46","新北市中和區中和路143號","121.502138333333","24.9998233333333","6500300","中和區"
"235025","KEA-2875","2018/06/26 14:19:51","新北市中和區民利街69號","121.478786666667","24.9982483333333","6500300","中和區"
