"lineid","car","time","location","longitude","latitude","cityid","cityname"
"231002","002-UM","2018/06/26 15:29:55","新北市新店區環河路150-6號","121.534588333333","24.9677533333333","6500600","新店區"
"231028","046-UY","2018/06/26 15:29:39","新北市新店區僑信路100號","121.500001666667","24.947455","6500600","新店區"
"231005","106-UY","2018/06/26 15:29:42","新北市新店區建國路259號","121.537236666667","24.9836483333333","6500600","新店區"
"231020","108-UY","2018/06/26 15:29:34","新北市新店區湖興路49號","121.562453333333","24.9342116666667","6500600","新店區"
"231023","110-UY","2018/06/26 15:29:50","新北市新店區大新街18號","121.542871666667","24.9684533333333","6500600","新店區"
"231012","187-VK","2018/06/26 15:29:53","新北市新店區寶慶街58巷2號","121.542171666667","24.9866783333333","6500600","新店區"
"231026","256-BX","2018/06/26 15:29:44","新北市新店區三民路117巷6弄1號","121.534153333333","24.971225","6500600","新店區"
"231003","268-BY","2018/06/26 15:29:51","新北市新店區寶高路120巷1號","121.554615","24.9761266666667","6500600","新店區"
"231018","278-BY","2018/06/26 15:29:45","新北市新店區民生路126號","121.529755","24.9825783333333","6500600","新店區"
"231015","AAD-862","2018/06/26 15:29:31","新北市新店區明山路45號","121.563838333333","24.9558366666667","6500600","新店區"
"231038","3712-VJ","2018/06/26 15:29:57","新北市新店區安華路28-1號","121.519626666667","24.9609483333333","6500600","新店區"
"231037","4716-K9","2018/06/26 15:29:41","新北市新店區安興路90號","121.514805","24.9762316666667","6500600","新店區"
"231036","512-UM","2018/06/26 15:29:46","新北市新店區安祥路69巷54弄34號","121.48297","24.9586383333333","6500600","新店區"
"231030","619-UM","2018/06/26 15:29:44","新北市新店區新和街54號","121.519788333333","24.9853183333333","6500600","新店區"
"231034","641-BX","2018/06/26 15:29:39","新北市新店區玫瑰路16號","121.494741666667","24.95027","6500600","新店區"
"231039","718-UY","2018/06/26 15:29:42","新北市新店區寶慶街35巷3弄1號","121.543163333333","24.9860766666667","6500600","新店區"
"231035","719-UM","2018/06/26 15:29:36","新北市新店區安民街365巷7弄3號","121.516086666667","24.9752166666667","6500600","新店區"
"231032","720-UM","2018/06/26 15:29:40","新北市新店區裕合街81號","121.48912","24.949435","6500600","新店區"
"231029","897-TW","2018/06/26 15:29:39","新北市新店區安康路三段461號","121.482765","24.949325","6500600","新店區"
"231004","899-TW","2018/06/26 15:29:56","新北市新店區民族路105號","121.538186666667","24.9774166666667","6500600","新店區"
"241011","013-R5","2018/06/26 15:29:46","新北市三重區竹圍(仔)街17-5號","121.48719","25.0474716666667","6500200","三重區"
"241015","062-VK","2018/06/26 15:29:55","新北市三重區重新路四段121號","121.485213333333","25.0520183333333","6500200","三重區"
"241013","270-UM","2018/06/26 15:29:56","新北市三重區新北大道一段252號","121.47986","25.0614383333333","6500200","三重區"
"241014","543-UM","2018/06/26 15:29:53","新北市三重區重新路四段121號","121.485023333333","25.052","6500200","三重區"
"241012","941-UM","2018/06/26 15:29:37","新北市三重區重新路四段121號","121.485086666667","25.0519766666667","6500200","三重區"
"241029","942-UM","2018/06/26 15:29:51","新北市三重區成功路86號","121.488161666667","25.05125","6500200","三重區"
"241033","AAC-255","2018/06/26 15:29:48","新北市三重區重新路五段283號","121.481076666667","25.05014","6500200","三重區"
"235014","4979-A6","2018/06/26 15:29:38","新北市中和區景平路385巷11號","121.50243","24.9942066666667","6500300","中和區"
"235033","4980-A6","2018/06/26 15:29:38","新北市中和區新生街281號","121.483823333333","24.9977033333333","6500300","中和區"
"235046","733-UM","2018/06/26 15:29:53","新北市中和區員山路36巷13號","121.48419","24.9908116666667","6500300","中和區"
"235023","AAC-215","2018/06/26 15:29:54","新北市中和區員山路26號","121.482081666667","24.985695","6500300","中和區"
"236065","105-UM","2018/06/26 15:29:48","新北市土城區水源街5號","121.44137","24.9749633333333","6501300","土城區"
"236040","107-UM","2018/06/26 15:29:50","新北市土城區學享街77-1號","121.452526666667","24.9862733333333","6501300","土城區"
"236074","166-UM","2018/06/26 15:29:41","新北市土城區中央路四段311號","121.411181666667","24.9512866666667","6501300","土城區"
"236029","253-BX","2018/06/26 15:29:49","新北市土城區日新街8巷4號","121.445393333333","24.9872583333333","6501300","土城區"
"236024","269-VK","2018/06/26 15:29:39","新北市土城區裕生路102巷2號","121.446935","24.984655","6501300","土城區"
"236013","270-VK","2018/06/26 15:29:39","新北市土城區廣明街1號","121.455961666667","24.9917066666667","6501300","土城區"
"236032","271-VK","2018/06/26 15:29:41","新北市土城區延吉街363巷10號","121.464166666667","24.9834033333333","6501300","土城區"
"236017","401-BY","2018/06/26 15:29:52","新北市土城區延吉街137巷2弄2號","121.470728333333","24.9861133333333","6501300","土城區"
"236057","912-UM","2018/06/26 15:29:47","新北市土城區中央路二段110號","121.44212","24.9780716666667","6501300","土城區"
"236045","913-UM","2018/06/26 15:29:46","新北市土城區青雲路113號","121.459101666667","24.9845266666667","6501300","土城區"
"236054","AAC-216","2018/06/26 15:29:48","新北市土城區立德路107號","121.463931666667","24.9877666666667","6501300","土城區"
"220050","245-BX","2018/06/26 15:29:47","新北市板橋區民生路二段161巷1號","121.470185","25.0200983333333","6500100","板橋區"
"220052","257-TC","2018/06/26 15:29:43","新北市板橋區漢生東路53巷28號","121.466723333333","25.017355","6500100","板橋區"
"220029","287-VK","2018/06/26 15:29:50","新北市板橋區溪城路90-2號","121.42918","24.9800216666667","6500100","板橋區"
"220042","689-BX","2018/06/26 15:28:19","新北市板橋區新海路135巷9號","121.460478333333","25.02328","6500100","板橋區"
"220038","833-TW","2018/06/26 15:29:55","新北市板橋區四維路321號","121.462856666667","25.0290766666667","6500100","板橋區"
