"lineid","car","time","location","longitude","latitude","cityid","cityname"
"231046","188-VK","2018/06/26 16:19:50","新北市新店區灣潭路3-3號","121.538233333333","24.9507866666667","6500600","新店區"
"231018","278-BY","2018/06/26 16:19:45","新北市新店區中正路700巷79號","121.536056666667","24.9933516666667","6500600","新店區"
"241011","013-R5","2018/06/26 16:19:46","新北市三重區龍濱路190號","121.50108","25.0732916666667","6500200","三重區"
"241028","022-UY","2018/06/26 16:19:37","新北市三重區正義南路171號","121.498993333333","25.0572183333333","6500200","三重區"
"241008","059-VK","2018/06/26 16:19:49","新北市三重區力行路二段136巷45弄10號","121.479133333333","25.0753083333333","6500200","三重區"
"241022","060-VK","2018/06/26 16:19:43","新北市三重區過圳街31巷2號","121.488948333333","25.0606066666667","6500200","三重區"
"241031","061-VK","2018/06/26 16:19:42","新北市三重區重陽路一段45號","121.486681666667","25.058145","6500200","三重區"
"241015","062-VK","2018/06/26 16:19:55","新北市三重區福德北路83號","121.501896666667","25.06589","6500200","三重區"
"241017","063-VK","2018/06/26 16:19:46","新北市三重區大同北路85號","121.494831666667","25.06364","6500200","三重區"
"241024","065-VK","2018/06/26 16:19:52","新北市三重區中正北路145巷3弄12號","121.483796666667","25.06741","6500200","三重區"
"241026","066-VK","2018/06/26 16:19:40","新北市三重區正義南路39號","121.498055","25.0609","6500200","三重區"
"241002","090-VK","2018/06/26 16:19:52","新北市三重區仁義街91號","121.499753333333","25.0795016666667","6500200","三重區"
"241005","262-UM","2018/06/26 16:19:56","新北市三重區溪尾街305號","121.487693333333","25.0838033333333","6500200","三重區"
"241003","265-UM","2018/06/26 16:19:48","新北市三重區五華街65號","121.492735","25.0826883333333","6500200","三重區"
"241016","266-UM","2018/06/26 16:19:41","新北市三重區大仁街94號","121.492901666667","25.0655666666667","6500200","三重區"
"241009","267-UM","2018/06/26 16:19:55","新北市三重區溪尾街221號","121.48835","25.0810466666667","6500200","三重區"
"241018","268-UM","2018/06/26 16:19:51","新北市三重區重陽路三段142-1號","121.489435","25.0672633333333","6500200","三重區"
"241032","269-UM","2018/06/26 16:19:47","新北市三重區三陽路100巷3弄13號","121.483011666667","25.0580933333333","6500200","三重區"
"241013","270-UM","2018/06/26 16:19:55","新北市三重區三和路三段83巷94號","121.497423333333","25.07299","6500200","三重區"
"241025","271-UM","2018/06/26 16:19:40","新北市三重區中正北路560巷100弄2號","121.472576666667","25.0682316666667","6500200","三重區"
"241007","398-BY","2018/06/26 16:19:49","新北市三重區三和路四段163巷66號","121.486673333333","25.079655","6500200","三重區"
"241004","475-VK","2018/06/26 16:19:47","新北市三重區五華街70號","121.493503333333","25.0819366666667","6500200","三重區"
"241020","478-VK","2018/06/26 16:19:40","新北市三重區車路頭街17巷20號","121.484426666667","25.07062","6500200","三重區"
"241030","480-VK","2018/06/26 16:19:50","新北市三重區重新路四段121號","121.484808333333","25.05247","6500200","三重區"
"241014","543-UM","2018/06/26 16:19:53","新北市三重區河邊北街96-1號","121.503938333333","25.06989","6500200","三重區"
"241001","547-UM","2018/06/26 16:19:46","新北市三重區自強路四段100號","121.49138","25.079695","6500200","三重區"
"241019","KEA-2593","2018/06/26 16:19:43","新北市三重區自強路二段74巷11號","121.488153333333","25.0700816666667","6500200","三重區"
"241006","AAD-863","2018/06/26 16:19:52","新北市三重區永福街46巷31弄3號","121.48194","25.0775216666667","6500200","三重區"
"241023","887-TS","2018/06/26 16:19:41","新北市三重區忠孝路三段13號","121.481631666667","25.06733","6500200","三重區"
"241012","941-UM","2018/06/26 16:19:37","新北市三重區龍門路300號","121.502526666667","25.0743083333333","6500200","三重區"
"241029","942-UM","2018/06/26 16:19:51","新北市三重區環河南路220-8號","121.493373333333","25.05269","6500200","三重區"
"241033","AAC-255","2018/06/26 16:19:50","新北市三重區重新路五段328號","121.477318333333","25.0478283333333","6500200","三重區"
"235026","800-TS","2018/06/26 16:19:47","新北市中和區建八路125巷3號","121.489478333333","24.9990916666667","6500300","中和區"
"224007","275-VK","2018/06/26 16:19:53","新北市瑞芳區大埔路276號","121.759838333333","25.1026033333333","6501200","瑞芳區"
"224005","271-BY","2018/06/26 16:19:47","新北市瑞芳區中山路22號","121.804093333333","25.1062233333333","6501200","瑞芳區"
"227003","642-TC","2018/06/26 16:19:53","新北市雙溪區上林里內平林80號","121.828296666667","25.02794","6502500","雙溪區"
"227009","400-TW","2018/06/26 16:19:52","新北市雙溪區三港里雙澳路80號","121.883805","25.0538716666667","6502500","雙溪區"
"251013","KEA-2871","2018/06/26 16:19:51","新北市淡水區北新路一段403號","121.467441666667","25.1825216666667","6501000","淡水區"
"251008","181-VK","2018/06/26 16:19:46","新北市淡水區中正東路40號","121.450026666667","25.16521","6501000","淡水區"
