"lineid","car","time","location","longitude","latitude","cityid","cityname"
"249005","172-UM","2018/06/26 16:49:16","新北市八里區大堀湖1-5號","121.422778333333","25.1540166666667","6502300","八里區"
"249001","173-UM","2018/06/26 16:49:19","新北市八里區博物館路73號","121.410856666667","25.160725","6502300","八里區"
"249004","303-UY","2018/06/26 16:49:14","新北市八里區博物館路202巷48號","121.40663","25.1608016666667","6502300","八里區"
"249002","305-UY","2018/06/26 16:49:10","新北市八里區牛寮埔31號","121.429878333333","25.1457216666667","6502300","八里區"
"249003","593-UM","2018/06/26 16:49:05","新北市八里區中山路二段283號","121.401561666667","25.1487966666667","6502300","八里區"
"244017","485-VK","2018/06/26 16:49:10","新北市林口區粉寮69號","121.405003333333","25.0908466666667","6501700","林口區"
"231046","188-VK","2018/06/26 16:49:09","新北市新店區灣潭路29-5號","121.53962","24.938725","6500600","新店區"
"241011","013-R5","2018/06/26 16:49:06","新北市三重區龍濱路202號","121.500663333333","25.07322","6500200","三重區"
"241028","022-UY","2018/06/26 16:49:17","新北市三重區大同南路50巷61號","121.497453333333","25.06005","6500200","三重區"
"241008","059-VK","2018/06/26 16:49:09","新北市三重區永福街177巷22號","121.478068333333","25.0750783333333","6500200","三重區"
"241022","060-VK","2018/06/26 16:49:23","新北市三重區貴陽街47巷2弄2號","121.484723333333","25.0628116666667","6500200","三重區"
"241031","061-VK","2018/06/26 16:49:22","新北市三重區三寧街2號","121.488471666667","25.0597533333333","6500200","三重區"
"241015","062-VK","2018/06/26 16:49:15","新北市三重區文化北路45號","121.498966666667","25.06548","6500200","三重區"
"241017","063-VK","2018/06/26 16:49:26","新北市三重區大同北路54巷4號","121.494001666667","25.0636833333333","6500200","三重區"
"241024","065-VK","2018/06/26 16:49:13","新北市三重區中正北路315巷6弄21號","121.475388333333","25.07196","6500200","三重區"
"241026","066-VK","2018/06/26 16:49:19","新北市三重區文化南路10巷13號","121.50074","25.0620566666667","6500200","三重區"
"241002","090-VK","2018/06/26 16:49:11","新北市三重區仁義街173號","121.49689","25.0815566666667","6500200","三重區"
"241005","262-UM","2018/06/26 16:49:16","新北市三重區仁華街59號","121.483953333333","25.08263","6500200","三重區"
"241003","265-UM","2018/06/26 16:49:08","新北市三重區五華街123號","121.491403333333","25.084015","6500200","三重區"
"241016","266-UM","2018/06/26 16:49:21","新北市三重區大同北路135巷38號","121.493701666667","25.0648666666667","6500200","三重區"
"241009","267-UM","2018/06/26 16:49:26","新北市三重區三和路四段203巷272號","121.487656666667","25.0811383333333","6500200","三重區"
"241018","268-UM","2018/06/26 16:49:11","新北市三重區安慶街149巷11號","121.494398333333","25.069225","6500200","三重區"
"241032","269-UM","2018/06/26 16:49:19","新北市三重區重陽路一段120巷39號","121.485053333333","25.06047","6500200","三重區"
"241013","270-UM","2018/06/26 16:49:15","新北市三重區仁和街8號","121.49614","25.073575","6500200","三重區"
"241025","271-UM","2018/06/26 16:49:20","新北市三重區中正北路530巷19號","121.471878333333","25.0704066666667","6500200","三重區"
"241007","398-BY","2018/06/26 16:49:10","新北市三重區三和路四段181巷82號","121.484406666667","25.0795683333333","6500200","三重區"
"241004","475-VK","2018/06/26 16:49:27","新北市三重區仁愛街397巷1號","121.491415","25.0811133333333","6500200","三重區"
"241020","478-VK","2018/06/26 16:49:20","新北市三重區忠孝路二段31號","121.486186666667","25.0713066666667","6500200","三重區"
"241030","480-VK","2018/06/26 16:49:10","新北市三重區新興路2巷7號","121.492548333333","25.0526166666667","6500200","三重區"
"241014","543-UM","2018/06/26 16:49:12","新北市三重區長榮路75號","121.502595","25.0691316666667","6500200","三重區"
"241001","547-UM","2018/06/26 16:49:07","新北市三重區仁政街50號","121.49277","25.0769283333333","6500200","三重區"
"241019","KEA-2593","2018/06/26 16:49:23","新北市三重區忠孝路二段38巷27號","121.485665","25.0698466666667","6500200","三重區"
"241006","AAD-863","2018/06/26 16:49:25","新北市三重區力行路二段182-3號","121.483383333333","25.0774466666667","6500200","三重區"
"241023","887-TS","2018/06/26 16:49:21","新北市三重區新北大道一段206巷15號","121.48249","25.0625416666667","6500200","三重區"
"241012","941-UM","2018/06/26 16:49:17","新北市三重區仁興街11巷76號","121.501793333333","25.0748133333333","6500200","三重區"
"241029","942-UM","2018/06/26 16:49:11","新北市三重區集美街211號","121.491781666667","25.0544666666667","6500200","三重區"
"241033","AAC-255","2018/06/26 16:49:08","新北市新莊區新北大道二段143號","121.46589","25.0613216666667","6500200","三重區"
"247004","337-TH","2018/06/26 16:49:19","新北市蘆洲區長榮路106號","121.461896666667","25.084005","6501400","蘆洲區"
"247006","336-TH","2018/06/26 16:49:20","新北市蘆洲區永安南路二段132-1號","121.462613333333","25.0786183333333","6501400","蘆洲區"
"247008","056-VK","2018/06/26 16:49:27","新北市蘆洲區中山一路174號","121.47437","25.0813266666667","6501400","蘆洲區"
"247016","007-UY","2018/06/26 16:49:09","新北市蘆洲區中正路69號","121.470436666667","25.082745","6501400","蘆洲區"
"228002","663-BX","2018/06/26 16:49:16","新北市貢寮區貢寮里長潭街21號","121.896315","25.0233433333333","6502600","貢寮區"
"228003","828-UM","2018/06/26 16:49:24","新北市貢寮區貢寮里朝陽街1-2號","121.912345","25.0212583333333","6502600","貢寮區"
"224006","676-BX","2018/06/26 16:49:20","新北市瑞芳區大寮路356-1號","121.785056666667","25.1033616666667","6501200","瑞芳區"
"224008","285-BY","2018/06/26 16:49:06","新北市瑞芳區明燈路二段44-1號","121.809523333333","25.1082933333333","6501200","瑞芳區"
"224007","275-VK","2018/06/26 16:49:24","新北市瑞芳區瑞竹路110號","121.762373333333","25.1039116666667","6501200","瑞芳區"
"224009","273-VK","2018/06/26 16:49:15","新北市瑞芳區三爪子坑路32巷126號","121.809115","25.106135","6501200","瑞芳區"
"224005","271-BY","2018/06/26 16:49:27","新北市瑞芳區洞頂路157號","121.86136","25.1223966666667","6501200","瑞芳區"
"227003","642-TC","2018/06/26 16:49:13","新北市雙溪區外柑里外柑腳71號","121.807118333333","25.0175833333333","6502500","雙溪區"
"227009","400-TW","2018/06/26 16:49:12","新北市雙溪區牡丹里五分10號","121.866596666667","25.047125","6502500","雙溪區"
"251013","KEA-2871","2018/06/26 16:49:10","新北市淡水區泉洲厝32號","121.489276666667","25.1926266666667","6501000","淡水區"
"251016","179-VK","2018/06/26 16:49:16","新北市淡水區水頭42號","121.478155","25.1851266666667","6501000","淡水區"
"251014","180-VK","2018/06/26 16:49:11","新北市淡水區淡金路四段478號","121.452446666667","25.2239266666667","6501000","淡水區"
"251008","181-VK","2018/06/26 16:49:17","新北市淡水區樹梅坑39號","121.474656666667","25.1441316666667","6501000","淡水區"
"251015","182-VK","2018/06/26 16:49:24","新北市淡水區忠愛街4號","121.459546666667","25.1713683333333","6501000","淡水區"
"251010","413-VK","2018/06/26 16:49:25","新北市淡水區中正路二段31號","121.41946","25.1815016666667","6501000","淡水區"
"251012","441-VK","2018/06/26 16:49:20","新北市淡水區中正路二段31號","121.419716666667","25.181595","6501000","淡水區"
"251007","442-VK","2018/06/26 16:49:18","新北市淡水區中正路二段31號","121.419721666667","25.1815233333333","6501000","淡水區"
"251011","650-BX","2018/06/26 16:49:07","新北市淡水區中正路二段31號","121.419261666667","25.1820516666667","6501000","淡水區"
"252002","178-VK","2018/06/26 16:49:13","新北市三芝區忠孝街53號","121.506071666667","25.2562233333333","6502100","三芝區"
"252001","292-VK","2018/06/26 16:49:21","新北市三芝區淡金路二段95號","121.504156666667","25.2609816666667","6502100","三芝區"
"242025","613-BX","2018/06/26 16:49:28","新北市新莊區新泰路357巷3弄57號","121.44215","25.0392016666667","6500500","新莊區"
"242037","415-TV","2018/06/26 16:49:20","新北市新莊區新泰路357巷3弄57號","121.442048333333","25.0394016666667","6500500","新莊區"
"242005","176-VK","2018/06/26 16:49:21","新北市新莊區三和路12-21號","121.441753333333","25.0387166666667","6500500","新莊區"
"242021","348-TH","2018/06/26 16:49:28","新北市新莊區新泰路357巷3弄57號","121.442091666667","25.0396266666667","6500500","新莊區"
