"lineid","car","time","location","longitude","latitude","cityid","cityname"
"249005","172-UM","2018/06/26 17:29:16","新北市八里區荖阡坑路69-20號","121.406418333333","25.12642","6502300","八里區"
"249001","173-UM","2018/06/26 17:29:19","新北市八里區中華路一段28號","121.422001666667","25.1580366666667","6502300","八里區"
"249004","303-UY","2018/06/26 17:29:14","新北市八里區賢一街219號","121.41562","25.1559","6502300","八里區"
"249002","305-UY","2018/06/26 17:29:10","新北市八里區龍米路一段261號","121.449013333333","25.1335066666667","6502300","八里區"
"249003","593-UM","2018/06/26 17:29:25","新北市八里區中山路二段313號","121.400678333333","25.1478333333333","6502300","八里區"
"244007","080-UY","2018/06/26 17:29:12","新北市林口區湖子11號","121.38725","25.08955","6501700","林口區"
"244019","403-UM","2018/06/26 17:24:35","新北市林口區仁愛路二段235號","121.375566666667","25.0759683333333","6501700","林口區"
"244013","742-UY","2018/06/26 17:29:14","新北市林口區粉寮69號","121.404761666667","25.0908716666667","6501700","林口區"
"244009","410-SL","2018/06/26 17:29:11","新北市林口區中北三街136號","121.38369","25.0837783333333","6501700","林口區"
"244023","483-VK","2018/06/26 17:29:17","新北市林口區興林一街109巷16號","121.392058333333","25.0727633333333","6501700","林口區"
"244017","485-VK","2018/06/26 17:29:10","新北市林口區中山路202-6號","121.388165","25.0790416666667","6501700","林口區"
"244011","701-TV","2018/06/26 17:29:10","新北市林口區仁愛路一段645號","121.38863","25.0766633333333","6501700","林口區"
"244025","837-TS","2018/06/26 17:29:27","新北市林口區民族路67-1號","121.36568","25.075325","6501700","林口區"
"244021","838-TS","2018/06/26 17:29:13","新北市林口區粉寮1號","121.397436666667","25.0799683333333","6501700","林口區"
"231046","188-VK","2018/06/26 17:29:09","新北市新店區直潭路92號","121.530908333333","24.9376016666667","6500600","新店區"
"241011","013-R5","2018/06/26 17:29:26","新北市三重區河邊北街122-1號","121.503628333333","25.071405","6500200","三重區"
"241015","062-VK","2018/06/26 17:29:15","新北市三重區長元街65巷16弄15號","121.503543333333","25.0661983333333","6500200","三重區"
"241017","063-VK","2018/06/26 17:29:26","新北市三重區中正北路25巷9號","121.492676666667","25.0621183333333","6500200","三重區"
"241024","065-VK","2018/06/26 17:29:18","新北市三重區大勇街82巷15弄3號","121.479893333333","25.0717916666667","6500200","三重區"
"241005","262-UM","2018/06/26 17:29:16","新北市三重區永安北路二段5巷20號","121.482345","25.081175","6500200","三重區"
"241003","265-UM","2018/06/26 17:29:08","新北市三重區自強路五段80號","121.495978333333","25.083025","6500200","三重區"
"241016","266-UM","2018/06/26 17:29:21","新北市三重區大同北路65號","121.495141666667","25.0635983333333","6500200","三重區"
"241009","267-UM","2018/06/26 17:29:26","新北市三重區車路頭街139巷12號","121.48422","25.0762683333333","6500200","三重區"
"241018","268-UM","2018/06/26 17:29:11","新北市三重區安慶街124號","121.494906666667","25.0688766666667","6500200","三重區"
"241007","398-BY","2018/06/26 17:29:30","新北市三重區三和路四段145巷159號","121.48767","25.0791516666667","6500200","三重區"
"241020","478-VK","2018/06/26 17:29:20","新北市三重區忠孝路一段107號","121.489088333333","25.072015","6500200","三重區"
"241030","480-VK","2018/06/26 17:29:10","新北市三重區新興路49號","121.491478333333","25.0537066666667","6500200","三重區"
"241014","543-UM","2018/06/26 17:29:12","新北市三重區安和路13號","121.50141","25.0683866666667","6500200","三重區"
"241019","KEA-2593","2018/06/26 17:29:23","新北市三重區自強路二段26巷4號","121.48932","25.0690733333333","6500200","三重區"
"241023","887-TS","2018/06/26 17:29:21","新北市三重區忠孝路三段84巷47號","121.481325","25.0643133333333","6500200","三重區"
"241012","941-UM","2018/06/26 17:29:17","新北市三重區仁興街33巷1號","121.499325","25.0753116666667","6500200","三重區"
"241033","AAC-255","2018/06/26 17:29:08","新北市三重區興德路133號","121.470231666667","25.05277","6500200","三重區"
"247024","893-R6","2018/06/26 17:29:19","新北市蘆洲區長興路331號","121.460731666667","25.090495","6501400","蘆洲區"
"247014","546-UM","2018/06/26 17:29:26","新北市蘆洲區三民路33號","121.475443333333","25.0830366666667","6501400","蘆洲區"
"247022","500-BY","2018/06/26 17:29:25","新北市蘆洲區三民路256號","121.467596666667","25.0901066666667","6501400","蘆洲區"
"247010","341-TH","2018/06/26 17:29:07","新北市蘆洲區中山一路120巷19號","121.477941666667","25.081975","6501400","蘆洲區"
"247012","339-TH","2018/06/26 17:29:24","新北市蘆洲區民族路38號","121.476628333333","25.08432","6501400","蘆洲區"
"247004","337-TH","2018/06/26 17:29:19","新北市蘆洲區長安街233巷31號","121.458215","25.0823133333333","6501400","蘆洲區"
"247006","336-TH","2018/06/26 17:29:20","新北市蘆洲區九芎街90巷21號","121.464761666667","25.081205","6501400","蘆洲區"
"247018","057-VK","2018/06/26 17:29:14","新北市蘆洲區民權路132-2號","121.473338333333","25.0887133333333","6501400","蘆洲區"
"247008","056-VK","2018/06/26 17:29:10","新北市蘆洲區信義路30巷22號","121.474373333333","25.0787133333333","6501400","蘆洲區"
"247016","007-UY","2018/06/26 17:29:09","新北市蘆洲區光華路22巷51號","121.468061666667","25.0849266666667","6501400","蘆洲區"
"247002","002-UY","2018/06/26 17:27:55","新北市蘆洲區永樂街38巷45弄20號","121.457316666667","25.0902583333333","6501400","蘆洲區"
"247020","001-UY","2018/06/26 17:29:17","新北市蘆洲區水湳街150號","121.470118333333","25.0936733333333","6501400","蘆洲區"
"228001","212-TW","2018/06/26 17:29:18","新北市貢寮區仁理村仁愛路50號","121.925353333333","25.0533066666667","6502600","貢寮區"
"228002","663-BX","2018/06/26 17:29:17","新北市貢寮區福隆里福隆街18號","121.944955","25.016505","6502600","貢寮區"
"228003","828-UM","2018/06/26 17:29:24","新北市貢寮區仁理村仁和路2-1號","121.923145","25.0486816666667","6502600","貢寮區"
"224010","AGQ-8101","2018/06/26 17:29:24","新北市瑞芳區瑞芳街21-3號","121.80715","25.1093533333333","6501200","瑞芳區"
"224006","676-BX","2018/06/26 17:29:20","新北市瑞芳區靜安路四段92號","121.793286666667","25.1098866666667","6501200","瑞芳區"
"224008","285-BY","2018/06/26 17:29:26","新北市瑞芳區侯硐路172號","121.831603333333","25.08425","6501200","瑞芳區"
"224009","273-VK","2018/06/26 17:29:15","新北市瑞芳區烏勢巷137號","121.846806666667","25.1076083333333","6501200","瑞芳區"
"224005","271-BY","2018/06/26 17:29:07","新北市瑞芳區明里路122號","121.864366666667","25.1223516666667","6501200","瑞芳區"
"227003","642-TC","2018/06/26 17:29:13","新北市雙溪區上林里新寮子6號","121.838653333333","25.0309483333333","6502500","雙溪區"
"227009","400-TW","2018/06/26 17:29:12","新北市雙溪區三貂里定福路31號","121.852193333333","25.075675","6502500","雙溪區"
"251004","009-UM","2018/06/26 17:29:20","新北市淡水區中正東路二段88巷15號","121.459135","25.1504633333333","6501000","淡水區"
"251005","010-UM","2018/06/26 17:29:28","新北市淡水區鄧公路31巷14號","121.451871666667","25.17054","6501000","淡水區"
"251013","KEA-2871","2018/06/26 17:29:10","新北市淡水區大竹圍5-1號","121.466355","25.1945316666667","6501000","淡水區"
"251016","179-VK","2018/06/26 17:29:16","新北市淡水區埤島71號","121.458186666667","25.1922566666667","6501000","淡水區"
"251014","180-VK","2018/06/26 17:28:51","新北市淡水區公埔子10號","121.475683333333","25.2269333333333","6501000","淡水區"
"251008","181-VK","2018/06/26 17:29:17","新北市淡水區大同路113巷6號","121.463475","25.1414333333333","6501000","淡水區"
"251015","182-VK","2018/06/26 17:29:25","新北市淡水區三空泉18號","121.474721666667","25.1663466666667","6501000","淡水區"
"251010","413-VK","2018/06/26 17:29:25","新北市淡水區中正路二段211號","121.426198333333","25.18911","6501000","淡水區"
"251012","441-VK","2018/06/26 17:29:20","新北市淡水區北新路111號","121.448115","25.1783916666667","6501000","淡水區"
"251007","442-VK","2018/06/26 17:29:18","新北市淡水區民生路60號","121.462118333333","25.1379533333333","6501000","淡水區"
"251006","561-UM","2018/06/26 17:29:28","新北市淡水區大仁街23號","121.442481666667","25.1752283333333","6501000","淡水區"
"251009","575-R6","2018/06/26 17:29:22","新北市淡水區建設街1巷1號","121.439161666667","25.17305","6501000","淡水區"
"251011","650-BX","2018/06/26 17:29:07","新北市淡水區坪頂路718號","121.482513333333","25.1584483333333","6501000","淡水區"
"251002","672-BX","2018/06/26 17:29:10","新北市淡水區中正路32巷8號","121.43046","25.175285","6501000","淡水區"
"251003","766-UM","2018/06/26 17:29:29","新北市淡水區中正路261號","121.431755","25.17481","6501000","淡水區"
"207003","550-UM","2018/06/26 17:29:09","新北市萬里區龜吼里翡翠路17號","121.683456666667","25.1868166666667","6502800","萬里區"
"207004","291-VK","2018/06/26 17:29:25","新北市萬里區萬里里景美路11-2號","121.685478333333","25.1728483333333","6502800","萬里區"
"252002","178-VK","2018/06/26 17:29:13","新北市三芝區忠孝街1-14號","121.505473333333","25.2539666666667","6502100","三芝區"
"252001","292-VK","2018/06/26 17:29:21","新北市三芝區淡金路一段3號","121.4981","25.2596533333333","6502100","三芝區"
"237016","649-BX","2018/06/26 17:29:26","新北市三峽區中山路184巷12號","121.364248333333","24.9366066666667","6500900","三峽區"
"242034","AAC-296","2018/06/26 17:29:21","新北市新莊區新莊路370號","121.449353333333","25.033465","6500500","新莊區"
"242058","986-R7","2018/06/26 17:29:23","新北市新莊區中正路581號","121.434475","25.0326633333333","6500500","新莊區"
"242054","751-BX","2018/06/26 17:29:19","新北市新莊區環河路636-1號","121.436776666667","25.0107716666667","6500500","新莊區"
"242023","705-TV","2018/06/26 17:29:23","新北市新莊區公園路61號","121.453806666667","25.0402083333333","6500500","新莊區"
"242027","615-BX","2018/06/26 17:29:18","新北市新莊區思源路32號","121.460243333333","25.0404366666667","6500500","新莊區"
"242025","613-BX","2018/06/26 17:29:08","新北市新莊區復興路二段31號","121.454336666667","25.04401","6500500","新莊區"
"242029","612-BX","2018/06/26 17:29:25","新北市新莊區復興路二段192號","121.4592","25.044385","6500500","新莊區"
"242042","566-BX","2018/06/26 17:29:20","新北市新莊區新樹路115號","121.437315","25.0266216666667","6500500","新莊區"
"242046","497-BY","2018/06/26 17:29:08","新北市新莊區新樹路65-5號","121.439423333333","25.0308566666667","6500500","新莊區"
"242051","441-UM","2018/06/26 17:29:27","新北市新莊區新樹路258巷1號","121.432336666667","25.015405","6500500","新莊區"
"242037","415-TV","2018/06/26 17:29:20","新北市新莊區建國一路288巷33號","121.434428333333","25.02543","6500500","新莊區"
"242007","413-TV","2018/06/26 17:29:23","新北市新莊區自強街54號","121.454738333333","25.0467433333333","6500500","新莊區"
"242044","400-BY","2018/06/26 17:29:24","新北市新莊區富國路93號","121.420813333333","25.0256783333333","6500500","新莊區"
"242061","353-BY","2018/06/26 17:29:22","新北市新莊區瓊林南路21-1號","121.437873333333","25.0202716666667","6500500","新莊區"
"242009","132-UY","2018/06/26 17:29:14","新北市新莊區中原路228號","121.453128333333","25.0546883333333","6500500","新莊區"
"242039","133-UY","2018/06/26 17:29:09","新北市新莊區民安東路24號","121.428521666667","25.02087","6500500","新莊區"
"242032","135-UY","2018/06/26 17:29:25","新北市新莊區新泰路413巷16號","121.442711666667","25.0443883333333","6500500","新莊區"
"242048","172-VK","2018/06/26 17:29:20","新北市新莊區龍安路256號","121.421293333333","25.019635","6500500","新莊區"
"242011","173-VK","2018/06/26 17:29:27","新北市新莊區中港路443號","121.45236","25.048315","6500500","新莊區"
"242056","175-VK","2018/06/26 17:29:08","新北市新莊區景德路205號","121.449411666667","25.0337783333333","6500500","新莊區"
"242005","176-VK","2018/06/26 17:29:21","新北市新莊區中華路二段2號","121.453148333333","25.0443933333333","6500500","新莊區"
"242015","346-TH","2018/06/26 17:29:24","新北市新莊區新泰路146號","121.447875","25.0370433333333","6500500","新莊區"
"242017","347-TH","2018/06/26 17:29:24","新北市新莊區復興路一段189號","121.451741666667","25.0434966666667","6500500","新莊區"
"242021","348-TH","2018/06/26 17:29:07","新北市新莊區中港路12號","121.454993333333","25.0370216666667","6500500","新莊區"
"242002","349-TH","2018/06/26 17:29:24","新北市新莊區新莊路213號","121.455261666667","25.0354033333333","6500500","新莊區"
"242019","350-TH","2018/06/26 17:29:21","新北市新莊區中港路54號","121.455401666667","25.03858","6500500","新莊區"
"238015","755-BX","2018/06/26 17:29:22","新北市樹林區大安路269號","121.418985","24.99367","6500700","樹林區"
"238019","599-UM","2018/06/26 17:29:12","新北市樹林區太平路13號","121.419058333333","24.9836966666667","6500700","樹林區"
"238018","571-TV","2018/06/26 17:29:12","新北市樹林區鎮前街159號","121.423828333333","24.9887166666667","6500700","樹林區"
"238024","5061-A6","2018/06/26 17:29:27","新北市樹林區鎮前街152號","121.42457","24.9902633333333","6500700","樹林區"
"238022","KEA-2213","2018/06/26 17:29:07","新北市樹林區仁愛街65號","121.422896666667","24.9824233333333","6500700","樹林區"
"238021","KEA-2539","2018/06/26 17:29:21","新北市樹林區民權街5巷21號","121.395703333333","24.95831","6500700","樹林區"
"238025","303-VK","2018/06/26 17:29:24","新北市樹林區保安二街84巷1號","121.42317","24.9955433333333","6500700","樹林區"
"238017","283-BY","2018/06/26 17:29:15","新北市樹林區中正路244號","121.417948333333","25.0071483333333","6500700","樹林區"
"238014","282-BY","2018/06/26 17:29:24","新北市樹林區長壽街61號","121.4199","24.99606","6500700","樹林區"
"238020","268-VK","2018/06/26 17:29:15","新北市樹林區俊英街162號","121.426896666667","25.0066316666667","6500700","樹林區"
"238026","172-UY","2018/06/26 17:29:29","新北市樹林區新興街2-1號","121.400285","24.9744033333333","6500700","樹林區"
"238016","169-UY","2018/06/26 17:29:23","新北市樹林區長壽街28巷4弄13號","121.42365","24.9942716666667","6500700","樹林區"
"239006","891-R6","2018/06/26 17:29:25","新北市鶯歌區鳳鳴路55號","121.333856666667","24.965455","6500800","鶯歌區"
"239008","527-UM","2018/06/26 17:29:27","新北市鶯歌區大湖路578號","121.33627","24.9734583333333","6500800","鶯歌區"
"239005","526-UM","2018/06/26 17:29:27","新北市鶯歌區福隆一街52號","121.324891666667","24.9712716666667","6500800","鶯歌區"
"239001","417-VK","2018/06/26 17:29:26","新北市鶯歌區高職西街111號","121.336158333333","24.9402533333333","6500800","鶯歌區"
"239003","360-BY","2018/06/26 17:29:26","新北市鶯歌區鶯桃路289-1號","121.334953333333","24.9601833333333","6500800","鶯歌區"
"239002","359-BY","2018/06/26 17:29:29","新北市鶯歌區育才街27巷1號","121.34908","24.954915","6500800","鶯歌區"
"239004","193-VK","2018/06/26 17:29:13","新北市鶯歌區三鶯路29巷34號","121.353723333333","24.9393483333333","6500800","鶯歌區"
"221008","489-VK","2018/06/26 17:29:14","新北市汐止區康寧街901號","121.65144","25.07495","6501100","汐止區"
"221010","269-BY","2018/06/26 17:29:16","新北市汐止區汐萬路一段256巷3號","121.65213","25.0747833333333","6501100","汐止區"
"221033","647-BX","2018/06/26 17:29:17","新北市汐止區汐萬路一段256巷3號","121.652625","25.0745816666667","6501100","汐止區"
"221018","753-BX","2018/06/26 17:29:05","新北市汐止區汐萬路一段256巷1號","121.651981666667","25.07475","6501100","汐止區"
"242013","280-VK","2018/06/26 17:29:16","新北市新莊區中誠街10號","121.452093333333","25.0482783333333","6500500","新莊區"
"235061","KEA-2875","2018/06/26 17:01:21","新北市中和區和城路一段271巷1號","121.485475","24.99176","6500300","中和區"
