"lineid","car","time","location","longitude","latitude","cityid","cityname"
"234026","9371-KE","2018/06/26 17:39:16","新北市永和區豫溪街84號","121.518048333333","25.00994","6500400","永和區"
"249005","172-UM","2018/06/26 17:39:16","新北市八里區荖阡坑路34-1號","121.402671666667","25.129855","6502300","八里區"
"249001","173-UM","2018/06/26 17:39:26","新北市八里區龍米路二段185號","121.434318333333","25.1581966666667","6502300","八里區"
"249004","303-UY","2018/06/26 17:39:14","新北市八里區賢一街97-1號","121.418828333333","25.1574383333333","6502300","八里區"
"249002","305-UY","2018/06/26 17:39:10","新北市八里區石壁腳10號","121.442815","25.1351683333333","6502300","八里區"
"249003","593-UM","2018/06/26 17:39:25","新北市八里區中山路二段191-1號","121.404418333333","25.14988","6502300","八里區"
"232011","375-UM","2018/06/26 17:39:26","新北市坪林區水柳腳34號","121.71017","24.9352816666667","6502000","坪林區"
"244007","080-UY","2018/06/26 17:39:12","新北市林口區湖子27號","121.385891666667","25.0935316666667","6501700","林口區"
"244019","403-UM","2018/06/26 17:39:15","新北市林口區文化一路一段83巷14弄46號","121.372151666667","25.0715816666667","6501700","林口區"
"244013","742-UY","2018/06/26 17:39:14","新北市林口區中山路305號","121.383811666667","25.0804733333333","6501700","林口區"
"244009","410-SL","2018/06/26 17:39:11","新北市林口區民享路236號","121.383005","25.08512","6501700","林口區"
"244023","483-VK","2018/06/26 17:39:17","新北市林口區東明一街121巷11號","121.39012","25.070195","6501700","林口區"
"244017","485-VK","2018/06/26 17:39:10","新北市林口區忠孝路377號","121.369286666667","25.0715583333333","6501700","林口區"
"244011","701-TV","2018/06/26 17:39:10","新北市林口區佳林路211號","121.38422","25.077125","6501700","林口區"
"244025","837-TS","2018/06/26 17:39:27","新北市林口區忠孝路308巷19號","121.367408333333","25.0719416666667","6501700","林口區"
"244021","838-TS","2018/06/26 17:39:13","新北市林口區仁愛路一段46號","121.396606666667","25.075635","6501700","林口區"
"222003","436-BY","2018/06/26 17:39:17","新北市深坑區深南路49號","121.621156666667","25.0096966666667","6501800","深坑區"
"222002","659-BX","2018/06/26 17:39:23","新北市深坑區深南路1號","121.622005","25.0050733333333","6501800","深坑區"
"231046","188-VK","2018/06/26 17:39:09","新北市新店區直潭路92號","121.530903333333","24.9376033333333","6500600","新店區"
"241017","063-VK","2018/06/26 17:39:26","新北市三重區大同北路27號","121.495378333333","25.0625983333333","6500200","三重區"
"241024","065-VK","2018/06/26 17:39:13","新北市三重區大勇街28號","121.482583333333","25.071465","6500200","三重區"
"241005","262-UM","2018/06/26 17:39:16","新北市三重區碧華街157號","121.486778333333","25.08202","6500200","三重區"
"241003","265-UM","2018/06/26 17:39:28","新北市三重區集賢路87-1號","121.493768333333","25.08696","6500200","三重區"
"241016","266-UM","2018/06/26 17:39:21","新北市三重區正義北路49號","121.497411666667","25.0640433333333","6500200","三重區"
"241018","268-UM","2018/06/26 17:39:11","新北市三重區新北大道一段7號","121.489578333333","25.061225","6500200","三重區"
"241007","398-BY","2018/06/26 17:39:10","新北市三重區聯華街143號","121.484446666667","25.0749283333333","6500200","三重區"
"241014","543-UM","2018/06/26 17:39:12","新北市三重區長元街98巷21弄40號","121.503591666667","25.0679066666667","6500200","三重區"
"241023","887-TS","2018/06/26 17:39:21","新北市三重區中華路97號","121.483556666667","25.0631066666667","6500200","三重區"
"241012","941-UM","2018/06/26 17:39:17","新北市三重區河邊北街375號","121.501746666667","25.076365","6500200","三重區"
"241033","AAC-255","2018/06/26 17:39:28","新北市三重區光復路一段138-1號","121.471973333333","25.0530933333333","6500200","三重區"
"247024","893-R6","2018/06/26 17:39:20","新北市蘆洲區長樂路125-1號","121.4621","25.0880666666667","6501400","蘆洲區"
"247014","546-UM","2018/06/26 17:39:06","新北市蘆洲區成功路131巷8-1號","121.471636666667","25.081855","6501400","蘆洲區"
"247022","500-BY","2018/06/26 17:39:25","新北市蘆洲區三民路283號","121.467246666667","25.0897166666667","6501400","蘆洲區"
"247010","341-TH","2018/06/26 17:39:27","新北市蘆洲區中山一路74巷9號","121.478786666667","25.081245","6501400","蘆洲區"
"247012","339-TH","2018/06/26 17:39:24","新北市蘆洲區民權路3巷14弄7號","121.475563333333","25.0856116666667","6501400","蘆洲區"
"247004","337-TH","2018/06/26 17:39:19","新北市蘆洲區長安街172巷23號","121.459996666667","25.083705","6501400","蘆洲區"
"247006","336-TH","2018/06/26 17:39:20","新北市蘆洲區長安街23巷2弄3號","121.463828333333","25.07891","6501400","蘆洲區"
"247018","057-VK","2018/06/26 17:39:14","新北市蘆洲區民權路93號","121.472966666667","25.088855","6501400","蘆洲區"
"247008","056-VK","2018/06/26 17:39:07","新北市蘆洲區和平路15號","121.472691666667","25.0791516666667","6501400","蘆洲區"
"247016","007-UY","2018/06/26 17:39:29","新北市蘆洲區光華路100號","121.46744","25.0828416666667","6501400","蘆洲區"
"247002","002-UY","2018/06/26 17:38:55","新北市蘆洲區永平街58號","121.457616666667","25.0915966666667","6501400","蘆洲區"
"247020","001-UY","2018/06/26 17:39:17","新北市蘆洲區民族路355號","121.471845","25.0916933333333","6501400","蘆洲區"
"228001","212-TW","2018/06/26 17:39:18","新北市貢寮區仁理村仁愛路95-1號","121.927676666667","25.05543","6502600","貢寮區"
"228002","663-BX","2018/06/26 17:39:15","新北市貢寮區福隆里外隆林街15-3號","121.958566666667","25.00402","6502600","貢寮區"
"228003","828-UM","2018/06/26 17:39:24","新北市貢寮區仁理村仁和路236號","121.923986666667","25.0537816666667","6502600","貢寮區"
"224010","AGQ-8101","2018/06/26 17:37:24","新北市瑞芳區岳王路10-11號","121.807793333333","25.11113","6501200","瑞芳區"
"224006","676-BX","2018/06/26 17:39:20","新北市瑞芳區中山路326號","121.79648","25.1101416666667","6501200","瑞芳區"
"224008","285-BY","2018/06/26 17:39:26","新北市瑞芳區明燈路一段200號","121.830601666667","25.1035816666667","6501200","瑞芳區"
"224009","273-VK","2018/06/26 17:39:15","新北市瑞芳區新山路193號","121.850453333333","25.1086216666667","6501200","瑞芳區"
"224005","271-BY","2018/06/26 17:39:07","新北市瑞芳區海濱路8-6號","121.831246666667","25.12614","6501200","瑞芳區"
"227003","642-TC","2018/06/26 17:38:38","新北市雙溪區共和里東榮街42號","121.86608","25.0337783333333","6502500","雙溪區"
"251004","009-UM","2018/06/26 17:39:09","新北市淡水區中正東路二段88巷37號","121.45927","25.14629","6501000","淡水區"
"251005","010-UM","2018/06/26 17:39:08","新北市淡水區鄧公路33巷1號","121.451483333333","25.1710533333333","6501000","淡水區"
"251013","KEA-2871","2018/06/26 17:39:10","新北市淡水區演戲埔腳11號","121.469366666667","25.1946516666667","6501000","淡水區"
"251016","179-VK","2018/06/26 17:39:16","新北市淡水區埤島39-15號","121.452761666667","25.1958583333333","6501000","淡水區"
"251014","180-VK","2018/06/26 17:39:11","新北市淡水區公埔子16-6號","121.481016666667","25.2245616666667","6501000","淡水區"
"251008","181-VK","2018/06/26 17:39:20","新北市淡水區八勢路一段110號","121.46711","25.1560216666667","6501000","淡水區"
"251015","182-VK","2018/06/26 17:39:24","新北市淡水區糞箕湖9-1號","121.48528","25.170705","6501000","淡水區"
"251010","413-VK","2018/06/26 17:39:25","新北市淡水區淡海路292號","121.419016666667","25.1888816666667","6501000","淡水區"
"251012","441-VK","2018/06/26 17:39:20","新北市淡水區北新路200巷8號","121.451758333333","25.1796616666667","6501000","淡水區"
"251007","442-VK","2018/06/26 17:39:18","新北市淡水區民生路124巷6號","121.463918333333","25.1380583333333","6501000","淡水區"
"251001","559-UM","2018/06/26 17:39:17","新北市淡水區民權路92巷35-1號","121.4622","25.1267116666667","6501000","淡水區"
"251006","561-UM","2018/06/26 17:39:28","新北市淡水區大信街17號","121.441943333333","25.1767933333333","6501000","淡水區"
"251009","575-R6","2018/06/26 17:39:22","新北市淡水區中正路32號","121.443941666667","25.16922","6501000","淡水區"
"251011","650-BX","2018/06/26 17:39:07","新北市淡水區坪頂路762號","121.484483333333","25.1575116666667","6501000","淡水區"
"251002","672-BX","2018/06/26 17:39:10","新北市淡水區清水街250號","121.440338333333","25.1722766666667","6501000","淡水區"
"251003","766-UM","2018/06/26 17:39:29","新北市淡水區中山北路一段49號","121.44168","25.1754533333333","6501000","淡水區"
"207003","550-UM","2018/06/26 17:39:29","新北市萬里區龜吼里漁澳路85-2號","121.690651666667","25.1983633333333","6502800","萬里區"
"207004","291-VK","2018/06/26 17:39:25","新北市萬里區中幅里中福路20號","121.684973333333","25.1644016666667","6502800","萬里區"
"252002","178-VK","2018/06/26 17:39:13","新北市三芝區中正路二段3號","121.504683333333","25.2556433333333","6502100","三芝區"
"252001","292-VK","2018/06/26 17:39:21","新北市三芝區淡金路一段83號","121.50211","25.2589533333333","6502100","三芝區"
"237012","275-BY","2018/06/26 17:39:21","新北市三峽區中山路459巷163-3號","121.348955","24.933245","6500900","三峽區"
"237011","KEA-2596","2018/06/26 17:39:12","新北市三峽區中山路459巷163-3號","121.34892","24.9330783333333","6500900","三峽區"
"237016","649-BX","2018/06/26 17:39:26","新北市三峽區正義街100號","121.368671666667","24.9172383333333","6500900","三峽區"
"237010","706-TV","2018/06/26 17:39:17","新北市三峽區中山路121號","121.365461666667","24.9359233333333","6500900","三峽區"
"236070","105-UM","2018/06/26 17:39:23","新北市土城區城林路6巷80號","121.438456666667","24.97963","6501300","土城區"
"236014","270-VK","2018/06/26 17:39:19","新北市土城區城林路6巷80號","121.438451666667","24.9796366666667","6501300","土城區"
"236038","271-VK","2018/06/26 17:39:12","新北市土城區城林路6巷80號","121.438523333333","24.9796216666667","6501300","土城區"
"242034","AAC-296","2018/06/26 17:39:25","新北市新莊區新莊路524號","121.445823333333","25.0330566666667","6500500","新莊區"
"242058","986-R7","2018/06/26 17:39:23","新北市新莊區民安路2號","121.422661666667","25.0290116666667","6500500","新莊區"
"242054","751-BX","2018/06/26 17:39:19","新北市新莊區新樹路450號","121.431463333333","25.001215","6500500","新莊區"
"242023","705-TV","2018/06/26 17:39:23","新北市新莊區民樂街67號","121.457936666667","25.0419116666667","6500500","新莊區"
"242027","615-BX","2018/06/26 17:39:18","新北市新莊區福壽街114號","121.458001666667","25.0507566666667","6500500","新莊區"
"242025","613-BX","2018/06/26 17:39:28","新北市新莊區思源路110號","121.460161666667","25.0466266666667","6500500","新莊區"
"242029","612-BX","2018/06/26 17:39:25","新北市新莊區復興路一段165號","121.451031666667","25.0432983333333","6500500","新莊區"
"242042","566-BX","2018/06/26 17:39:20","新北市新莊區建國一路11號","121.433846666667","25.0317816666667","6500500","新莊區"
"242046","497-BY","2018/06/26 17:39:28","新北市新莊區建國一路21號","121.433908333333","25.0315333333333","6500500","新莊區"
"242051","441-UM","2018/06/26 17:39:27","新北市新莊區西盛街225號","121.42814","25.0165166666667","6500500","新莊區"
"242037","415-TV","2018/06/26 17:39:20","新北市新莊區後港一路136號","121.429658333333","25.027285","6500500","新莊區"
"242007","413-TV","2018/06/26 17:39:23","新北市新莊區福樂街118巷5號","121.457303333333","25.0480633333333","6500500","新莊區"
"242044","400-BY","2018/06/26 17:39:24","新北市新莊區富國路19巷4號","121.418685","25.0267583333333","6500500","新莊區"
"242061","353-BY","2018/06/26 17:39:14","新北市新莊區瓊林南路131號","121.434563333333","25.0124983333333","6500500","新莊區"
"242009","132-UY","2018/06/26 17:39:14","新北市新莊區昌明街14巷16號","121.457481666667","25.05338","6500500","新莊區"
"242039","133-UY","2018/06/26 17:39:09","新北市新莊區民安東路29號","121.428451666667","25.0209616666667","6500500","新莊區"
"242032","135-UY","2018/06/26 17:39:25","新北市新莊區新泰路361巷11號","121.443116666667","25.0429016666667","6500500","新莊區"
"242048","172-VK","2018/06/26 17:39:20","新北市新莊區萬安街130號","121.42027","25.0216216666667","6500500","新莊區"
"242011","173-VK","2018/06/26 17:39:27","新北市新莊區中港路570號","121.451495","25.05331","6500500","新莊區"
"242056","175-VK","2018/06/26 17:39:28","新北市新莊區新泰路16號","121.449668333333","25.0331183333333","6500500","新莊區"
"242005","176-VK","2018/06/26 17:39:21","新北市新莊區自立街200號","121.456698333333","25.0454516666667","6500500","新莊區"
"242015","346-TH","2018/06/26 17:39:24","新北市新莊區新泰路300號","121.445551666667","25.0409983333333","6500500","新莊區"
"242017","347-TH","2018/06/26 17:39:24","新北市新莊區復興路一段149巷22弄2號","121.450345","25.0441533333333","6500500","新莊區"
"242021","348-TH","2018/06/26 17:39:12","新北市新莊區中華路一段70號","121.452061666667","25.0388633333333","6500500","新莊區"
"242002","349-TH","2018/06/26 17:39:24","新北市新莊區新莊路266號","121.45181","25.0339116666667","6500500","新莊區"
"242019","350-TH","2018/06/26 17:39:20","新北市新莊區中港路201號","121.454848333333","25.04186","6500500","新莊區"
"238015","755-BX","2018/06/26 17:39:24","新北市樹林區啟智街36號","121.420648333333","24.9931983333333","6500700","樹林區"
"238023","601-UM","2018/06/26 17:39:29","新北市樹林區三福街132號","121.405763333333","25.0162516666667","6500700","樹林區"
"238019","599-UM","2018/06/26 17:39:12","新北市樹林區太平路127巷2號","121.419418333333","24.9805133333333","6500700","樹林區"
"238018","571-TV","2018/06/26 17:39:12","新北市樹林區鎮前街3號","121.426081666667","24.9928433333333","6500700","樹林區"
"238024","5061-A6","2018/06/26 17:39:27","新北市樹林區環河路2-2號","121.42573","24.977065","6500700","樹林區"
"238022","KEA-2213","2018/06/26 17:39:27","新北市樹林區中華路187巷1號","121.420553333333","24.9814583333333","6500700","樹林區"
"238021","KEA-2539","2018/06/26 17:39:21","新北市樹林區柑園街一段289號","121.393341666667","24.956285","6500700","樹林區"
"238025","303-VK","2018/06/26 17:39:24","新北市樹林區保安街二段65號","121.415913333333","25.0005533333333","6500700","樹林區"
"238017","283-BY","2018/06/26 17:39:17","新北市樹林區三俊街74巷47號","121.414365","25.0130683333333","6500700","樹林區"
"238014","282-BY","2018/06/26 17:39:24","新北市樹林區保安街一段356號","121.41774","24.9983466666667","6500700","樹林區"
"238020","268-VK","2018/06/26 17:39:15","新北市樹林區俊英街166巷8號","121.426996666667","25.0071633333333","6500700","樹林區"
"238026","172-UY","2018/06/26 17:39:10","新北市樹林區新興街19巷36弄29號","121.40255","24.9729066666667","6500700","樹林區"
"238016","169-UY","2018/06/26 17:39:23","新北市樹林區育英街139號","121.419561666667","24.9893133333333","6500700","樹林區"
"239006","891-R6","2018/06/26 17:39:25","新北市鶯歌區鶯桃路436巷61弄18號","121.333403333333","24.9671683333333","6500800","鶯歌區"
"239008","527-UM","2018/06/26 17:39:27","新北市鶯歌區大湖路361巷15弄3號","121.331323333333","24.9777683333333","6500800","鶯歌區"
"239005","526-UM","2018/06/26 17:39:27","新北市鶯歌區鶯桃路二段24號","121.32603","24.972415","6500800","鶯歌區"
"239001","417-VK","2018/06/26 17:39:16","新北市鶯歌區中正三路283-12號","121.331191666667","24.937345","6500800","鶯歌區"
"239003","360-BY","2018/06/26 17:39:25","新北市鶯歌區鶯桃路206巷54號","121.338105","24.960185","6500800","鶯歌區"
"239002","359-BY","2018/06/26 17:39:11","新北市鶯歌區育德街11號","121.344563333333","24.9551366666667","6500800","鶯歌區"
"239004","193-VK","2018/06/26 17:39:20","新北市鶯歌區文化路395號","121.352515","24.9500716666667","6500800","鶯歌區"
"221008","489-VK","2018/06/26 17:39:14","新北市汐止區康寧街901號","121.651433333333","25.0749733333333","6501100","汐止區"
"221010","269-BY","2018/06/26 17:39:17","新北市汐止區汐萬路一段418巷46號","121.651173333333","25.0790416666667","6501100","汐止區"
"221023","279-VK","2018/06/26 17:39:08","新北市汐止區康寧街901號","121.651711666667","25.0749","6501100","汐止區"
"221032","280-BY","2018/06/26 17:39:27","新北市汐止區康寧街901號","121.650798333333","25.0752416666667","6501100","汐止區"
"221021","299-VK","2018/06/26 17:39:19","新北市汐止區康寧街901號","121.651418333333","25.075015","6501100","汐止區"
"221031","353-TW","2018/06/26 17:39:17","新北市汐止區汐萬路一段256巷1號","121.651838333333","25.0749316666667","6501100","汐止區"
"221033","647-BX","2018/06/26 17:39:17","新北市汐止區新台五路一段116號","121.648971666667","25.06117","6501100","汐止區"
"221018","753-BX","2018/06/26 17:39:17","新北市汐止區汐萬路一段256巷1號","121.652003333333","25.0747983333333","6501100","汐止區"
"242013","280-VK","2018/06/26 17:39:17","新北市新莊區中誠街97號","121.44994","25.0476916666667","6500500","新莊區"
