"lineid","car","time","location","longitude","latitude","cityid","cityname"
"234007","207-UY","2018/06/26 18:19:19","新北市永和區保生路55-6號","121.504731666667","25.012305","6500400","永和區"
"234086","338-UY","2018/06/26 18:19:12","新北市永和區福和路1號","121.526276666667","25.0096116666667","6500400","永和區"
"234042","862-TW","2018/06/26 18:19:19","新北市永和區福和路1號","121.52636","25.0098233333333","6500400","永和區"
"234026","9371-KE","2018/06/26 18:19:16","新北市永和區豫溪街28巷22號","121.515008333333","25.0089583333333","6500400","永和區"
"234011","9373-KE","2018/06/26 18:19:14","新北市永和區保安路13號","121.510421666667","25.0169233333333","6500400","永和區"
"249005","172-UM","2018/06/26 18:19:16","新北市八里區荖阡坑路15-25號","121.400535","25.1401866666667","6502300","八里區"
"249001","173-UM","2018/06/26 18:19:19","新北市八里區龍米路一段135號","121.452135","25.1269533333333","6502300","八里區"
"249004","303-UY","2018/06/26 18:19:14","新北市八里區龍米路二段232巷1弄2號","121.431363333333","25.1589416666667","6502300","八里區"
"249002","305-UY","2018/06/26 18:17:50","新北市八里區龍形二街12號","121.450831666667","25.1326333333333","6502300","八里區"
"249003","593-UM","2018/06/26 18:19:25","新北市八里區中華路二段470號","121.400676666667","25.1459983333333","6502300","八里區"
"248014","025-BX","2018/06/26 18:19:16","新北市五股區成泰路一段171巷13號","121.434385","25.0743966666667","6501500","五股區"
"248016","026-BX","2018/06/26 18:19:20","新北市五股區成泰路三段477巷18號","121.449891666667","25.098895","6501500","五股區"
"248006","077-UY","2018/06/26 18:19:25","新北市五股區中興路一段193號","121.464093333333","25.0739183333333","6501500","五股區"
"248008","095-VK","2018/06/26 18:19:17","新北市五股區更洲路32巷8弄14號","121.459251666667","25.0796366666667","6501500","五股區"
"248020","225-UY","2018/06/26 18:19:10","新北市五股區孝義路52號","121.454318333333","25.1104833333333","6501500","五股區"
"248012","247-BX","2018/06/26 18:19:20","新北市五股區御史路1巷19號","121.441245","25.09036","6501500","五股區"
"248004","677-BX","2018/06/26 18:19:17","新北市五股區成泰路二段149號","121.43913","25.08555","6501500","五股區"
"248002","678-BX","2018/06/26 18:19:23","新北市五股區西雲路32號","121.44339","25.0906883333333","6501500","五股區"
"248010","682-TV","2018/06/26 18:19:10","新北市五股區成泰路一段126號","121.435263333333","25.074445","6501500","五股區"
"232011","375-UM","2018/06/26 18:19:29","新北市坪林區坪雙路一段41號","121.711676666667","24.9424266666667","6502000","坪林區"
"244007","080-UY","2018/06/26 18:19:16","新北市林口區林口路113巷57號","121.387666666667","25.07953","6501700","林口區"
"244019","403-UM","2018/06/26 18:19:15","新北市林口區忠孝路561巷10號","121.373201666667","25.0687233333333","6501700","林口區"
"244013","742-UY","2018/06/26 18:19:14","新北市林口區中山路200號","121.388673333333","25.07906","6501700","林口區"
"244009","410-SL","2018/06/26 18:19:11","新北市林口區民生路102-2號","121.377551666667","25.088385","6501700","林口區"
"244023","483-VK","2018/06/26 18:19:17","新北市林口區東湖路153巷135號","121.382226666667","25.07355","6501700","林口區"
"244017","485-VK","2018/06/26 18:19:10","新北市林口區公園路2號","121.36637","25.065985","6501700","林口區"
"244011","701-TV","2018/06/26 18:19:30","新北市林口區中正路74巷5弄3號","121.394505","25.0779833333333","6501700","林口區"
"244025","837-TS","2018/06/26 18:19:26","新北市林口區南勢六街18號","121.357075","25.0706183333333","6501700","林口區"
"244021","838-TS","2018/06/26 18:19:15","新北市林口區自強一街43號","121.399058333333","25.077755","6501700","林口區"
"243013","AAD-798","2018/06/26 18:18:24","新北市泰山區錢厝坑13號","121.416438333333","25.0397516666667","6501600","泰山區"
"222003","436-BY","2018/06/26 18:19:17","新北市深坑區旺耽路67號","121.626253333333","25.0029733333333","6501800","深坑區"
"222002","659-BX","2018/06/26 18:19:23","新北市深坑區文山路一段62巷10號","121.621763333333","25.00089","6501800","深坑區"
"231041","002-UM","2018/06/26 18:19:10","新北市新店區安華路28-1號","121.519793333333","24.9607533333333","6500600","新店區"
"231059","046-UY","2018/06/26 18:19:25","新北市新店區安華路28-1號","121.519581666667","24.96103","6500600","新店區"
"231040","047-UY","2018/06/26 18:19:21","新北市新店區安一路一段1-1號","121.519155","24.961","6500600","新店區"
"231044","106-UY","2018/06/26 18:19:11","新北市新店區安華路28-1號","121.519566666667","24.96071","6500600","新店區"
"231053","108-UY","2018/06/26 18:19:21","新北市新店區秀山路66號","121.530638333333","24.96099","6500600","新店區"
"231054","110-UY","2018/06/26 18:19:28","新北市新店區安一路一段1-1號","121.519126666667","24.9612433333333","6500600","新店區"
"231048","187-VK","2018/06/26 18:19:11","新北市新店區安一路一段1-1號","121.519586666667","24.96114","6500600","新店區"
"231046","188-VK","2018/06/26 18:19:09","新北市新店區直潭路93號","121.532201666667","24.93993","6500600","新店區"
"231057","256-BX","2018/06/26 18:19:06","新北市新店區安一路一段1-1號","121.519586666667","24.9611616666667","6500600","新店區"
"231042","268-BY","2018/06/26 18:19:27","新北市新店區安華路1-1號","121.519273333333","24.9604133333333","6500600","新店區"
"231051","278-BY","2018/06/26 18:17:28","新北市新店區安華路28-1號","121.520111666667","24.9610316666667","6500600","新店區"
"231050","AAD-862","2018/06/26 18:19:19","新北市新店區安一路一段1-1號","121.520008333333","24.9611616666667","6500600","新店區"
"231058","3713-VJ","2018/06/26 18:19:27","新北市新店區環河路5號","121.538088333333","24.9612183333333","6500600","新店區"
"231066","4716-K9","2018/06/26 18:19:09","新北市新店區安一路一段1-1號","121.518955","24.9614333333333","6500600","新店區"
"231056","4715-K9","2018/06/26 18:19:25","新北市新店區中央路192號","121.530875","24.9746166666667","6500600","新店區"
"231067","4772-VM","2018/06/26 18:19:19","新北市新店區安華路3號","121.518936666667","24.960355","6500600","新店區"
"231065","512-UM","2018/06/26 18:19:13","新北市新店區安一路一段1-1號","121.519046666667","24.961395","6500600","新店區"
"231049","513-UM","2018/06/26 18:19:20","新北市新店區安一路一段1-1號","121.519656666667","24.96118","6500600","新店區"
"231045","617-UM","2018/06/26 18:19:16","新北市新店區安華路28-1號","121.519471666667","24.9607633333333","6500600","新店區"
"231061","619-UM","2018/06/26 18:19:26","新北市新店區安華路28-1號","121.519306666667","24.9605733333333","6500600","新店區"
"231063","641-BX","2018/06/26 18:19:22","新北市新店區安華路1-1號","121.519573333333","24.9604916666667","6500600","新店區"
"231064","719-UM","2018/06/26 18:19:11","新北市新店區安一路一段1-1號","121.519475","24.9612416666667","6500600","新店區"
"231062","720-UM","2018/06/26 18:19:12","新北市新店區安康路一段359-25號","121.517658333333","24.9619216666667","6500600","新店區"
"231060","897-TW","2018/06/26 18:19:19","新北市新店區安華路28-1號","121.519738333333","24.96081","6500600","新店區"
"231055","AKT-0513","2018/06/26 18:19:18","新北市新店區北新路一段91號","121.53873","24.9617183333333","6500600","新店區"
"241033","AAC-255","2018/06/26 18:19:28","新北市三重區光復路一段61巷21號","121.473368333333","25.0492416666667","6500200","三重區"
"235066","003-UY","2018/06/26 18:19:23","新北市中和區中山路二段120號","121.502683333333","25.0037916666667","6500300","中和區"
"235028","005-UY","2018/06/26 18:19:26","新北市中和區圓通路141巷48弄15號","121.498255","24.9937583333333","6500300","中和區"
"235063","006-UY","2018/06/26 18:19:20","新北市中和區中正路569號","121.48664","24.9942316666667","6500300","中和區"
"235056","096-UM","2018/06/26 18:19:26","新北市中和區中山路二段594號","121.482185","25.0052716666667","6500300","中和區"
"235039","097-UM","2018/06/26 18:19:25","新北市中和區景安路116號","121.505376666667","24.9950016666667","6500300","中和區"
"235065","098-UM","2018/06/26 18:19:13","新北市中和區莊敬路49巷18號","121.501668333333","25.006065","6500300","中和區"
"235040","150-BY","2018/06/26 18:19:13","新北市中和區中正路190-1號","121.49794","24.9938633333333","6500300","中和區"
"235058","151-BY","2018/06/26 18:19:25","新北市中和區圓通路290-4號","121.490368333333","24.9893283333333","6500300","中和區"
"235055","183-VK","2018/06/26 18:19:18","新北市中和區中正路637巷60弄61號","121.485441666667","24.9932633333333","6500300","中和區"
"235038","185-VK","2018/06/26 18:19:22","新北市中和區大智街42巷13號","121.522741666667","24.9921166666667","6500300","中和區"
"235049","186-VK","2018/06/26 18:19:22","新北市中和區員山路36巷16-3號","121.484896666667","24.9914616666667","6500300","中和區"
"235072","301-VK","2018/06/26 18:19:28","新北市中和區錦和路105號","121.490143333333","24.9953283333333","6500300","中和區"
"235043","352-BY","2018/06/26 18:19:23","新北市中和區景平路381號","121.503908333333","24.9934033333333","6500300","中和區"
"235042","KEA-2878","2018/06/26 18:19:07","新北市中和區大仁街20巷25弄8號","121.51856","24.9934733333333","6500300","中和區"
"235050","4979-A6","2018/06/26 18:19:20","新北市中和區捷運路61巷9號","121.509195","24.989375","6500300","中和區"
"235069","4980-A6","2018/06/26 18:19:12","新北市中和區泰和街45號","121.498891666667","24.9993233333333","6500300","中和區"
"235070","558-UM","2018/06/26 18:19:28","新北市中和區圓通路113號","121.499383333333","24.9964716666667","6500300","中和區"
"235045","565-BX","2018/06/26 18:19:21","新北市中和區景安路200巷5號","121.503503333333","24.9915333333333","6500300","中和區"
"235054","640-BX","2018/06/26 18:19:14","新北市中和區民享街86巷32號","121.473088333333","25.00062","6500300","中和區"
"235060","647-TV","2018/06/26 18:19:24","新北市中和區連城路376號","121.481395","24.9952733333333","6500300","中和區"
"235047","732-UM","2018/06/26 18:19:10","新北市中和區南山路300號","121.507863333333","24.9871066666667","6500300","中和區"
"235046","733-UM","2018/06/26 18:19:12","新北市中和區員山路36巷16-3號","121.484826666667","24.99139","6500300","中和區"
"235062","800-TS","2018/06/26 18:19:12","新北市中和區景平路999巷1號","121.4956","25.0060183333333","6500300","中和區"
"235057","801-TS","2018/06/26 18:19:25","新北市中和區民享街97巷15號","121.475496666667","24.9999433333333","6500300","中和區"
"235041","802-TS","2018/06/26 18:19:26","新北市中和區中正路637巷60弄61號","121.485436666667","24.99328","6500300","中和區"
"235052","805-TS","2018/06/26 18:19:21","新北市中和區興南路二段32巷5號","121.507146666667","24.98553","6500300","中和區"
"235048","896-TW","2018/06/26 18:19:19","新北市中和區中正路637巷52弄1號","121.485428333333","24.9934733333333","6500300","中和區"
"235053","900-TW","2018/06/26 18:19:18","新北市中和區和城路一段271巷1號","121.485365","24.9918566666667","6500300","中和區"
"235051","157-BY","2018/06/26 18:19:18","新北市中和區捷運路3號","121.509501666667","24.9893433333333","6500300","中和區"
"235037","AAC-213","2018/06/26 18:19:20","新北市中和區景德街72號","121.516835","24.9914766666667","6500300","中和區"
"226004","205-ST","2018/06/26 18:19:23","新北市平溪區靜安路二段56號","121.714963333333","25.0206416666667","6502400","平溪區"
"228001","212-TW","2018/06/26 18:19:18","新北市貢寮區真理里新港街26巷55弄2-1號","121.927386666667","25.052865","6502600","貢寮區"
"228002","663-BX","2018/06/26 18:19:15","新北市貢寮區福連里福興街24-1號","121.990861666667","25.012045","6502600","貢寮區"
"228003","828-UM","2018/06/26 18:19:24","新北市貢寮區真理里美艷山街64號","121.919171666667","25.0728816666667","6502600","貢寮區"
"224010","AGQ-8101","2018/06/26 17:58:04","新北市瑞芳區烏勢巷145號","121.847781666667","25.10901","6501200","瑞芳區"
"224006","676-BX","2018/06/26 18:19:20","新北市瑞芳區三爪子坑路106巷39號","121.809126666667","25.10374","6501200","瑞芳區"
"224002","639-TC","2018/06/26 18:19:25","新北市瑞芳區三爪子坑路91巷27號","121.811896666667","25.1064816666667","6501200","瑞芳區"
"224008","285-BY","2018/06/26 18:19:26","新北市瑞芳區逢甲路15號","121.809815","25.1086816666667","6501200","瑞芳區"
"224007","275-VK","2018/06/26 18:19:13","新北市瑞芳區大埔路有勝新村2號","121.76487","25.1014366666667","6501200","瑞芳區"
"224009","273-VK","2018/06/26 18:19:15","新北市瑞芳區新山路43號","121.855941666667","25.1083483333333","6501200","瑞芳區"
"224005","271-BY","2018/06/26 18:19:27","新北市瑞芳區建基路二段110號","121.811781666667","25.1325333333333","6501200","瑞芳區"
"227003","642-TC","2018/06/26 18:19:11","新北市雙溪區共和里中山路2號","121.863776666667","25.0338033333333","6502500","雙溪區"
"227009","400-TW","2018/06/26 18:19:19","新北市雙溪區牡丹里牡丹73號","121.851711666667","25.0593566666667","6502500","雙溪區"
"253005","032-BX","2018/06/26 18:19:20","新北市石門區中央路1-9號","121.564443333333","25.2911433333333","6502200","石門區"
"253006","295-VK","2018/06/26 18:19:20","新北市石門區老梅路59號","121.54573","25.28931","6502200","石門區"
"222001","KEA-2212","2018/06/26 18:19:12","新北市深坑區北深路二段66號","121.618941666667","25.0042133333333","6501800","深坑區"
"208002","KEA-2872","2018/06/26 18:19:27","新北市金山區清泉里清水路60巷18號","121.633855","25.2340533333333","6502700","金山區"
"208003","665-BX","2018/06/26 18:19:26","新北市金山區民生路192號","121.646563333333","25.2225816666667","6502700","金山區"
"208001","761-BX","2018/06/26 18:19:22","新北市金山區自強路13號","121.640406666667","25.216425","6502700","金山區"
"251004","009-UM","2018/06/26 18:19:19","新北市淡水區民族路73號","121.462921666667","25.1342516666667","6501000","淡水區"
"251005","010-UM","2018/06/26 18:19:28","新北市淡水區水源街一段122巷38號","121.447071666667","25.170625","6501000","淡水區"
"251013","KEA-2871","2018/06/26 18:19:30","新北市淡水區後寮11號","121.47643","25.1991183333333","6501000","淡水區"
"251016","179-VK","2018/06/26 18:19:16","新北市淡水區淡金路三段212號","121.448958333333","25.2045666666667","6501000","淡水區"
"251014","180-VK","2018/06/26 18:19:11","新北市淡水區崙頂14號","121.49125","25.2217083333333","6501000","淡水區"
"251008","181-VK","2018/06/26 18:19:20","新北市淡水區水源街二段246號","121.462978333333","25.17601","6501000","淡水區"
"251015","182-VK","2018/06/26 18:19:24","新北市淡水區興福寮66巷541號","121.48457","25.1651733333333","6501000","淡水區"
"251010","413-VK","2018/06/26 18:19:25","新北市淡水區淡海路199號","121.420443333333","25.1848783333333","6501000","淡水區"
"251012","441-VK","2018/06/26 18:19:20","新北市淡水區北新路二段77-5號","121.48046","25.185425","6501000","淡水區"
"251001","559-UM","2018/06/26 18:19:17","新北市淡水區自強路299號","121.461458333333","25.1314766666667","6501000","淡水區"
"251006","561-UM","2018/06/26 18:19:28","新北市淡水區新民街35號","121.438816666667","25.1760066666667","6501000","淡水區"
"251011","650-BX","2018/06/26 18:19:07","新北市淡水區坪頂路50號","121.457875","25.1625","6501000","淡水區"
"251002","672-BX","2018/06/26 18:19:11","新北市淡水區中正東路一段36號","121.452578333333","25.1622816666667","6501000","淡水區"
"251003","766-UM","2018/06/26 18:19:29","新北市淡水區北新路135號","121.449358333333","25.1788616666667","6501000","淡水區"
"207003","550-UM","2018/06/26 18:19:09","新北市萬里區野柳里港東路23號","121.687378333333","25.2036983333333","6502800","萬里區"
"207004","291-VK","2018/06/26 18:19:25","新北市萬里區中幅里中福路39-1號","121.677766666667","25.1662066666667","6502800","萬里區"
"252002","178-VK","2018/06/26 18:19:13","新北市三芝區中山路二段41號","121.50294","25.2550466666667","6502100","三芝區"
"252003","249-BX","2018/06/26 18:19:14","新北市三芝區錫板里海尾14-33號","121.478171666667","25.2603583333333","6502100","三芝區"
"252001","292-VK","2018/06/26 18:19:21","新北市三芝區中興街二段2號","121.498431666667","25.2567133333333","6502100","三芝區"
"237004","KEA-2597","2018/06/26 18:19:14","新北市三峽區五寮86號","121.365753333333","24.8636683333333","6500900","三峽區"
"237007","153-BY","2018/06/26 18:19:19","新北市三峽區中正路三段68-1號","121.356231666667","24.9042633333333","6500900","三峽區"
"237009","210-TH","2018/06/26 18:19:21","新北市三峽區大勇路36巷21號","121.365651666667","24.9370583333333","6500900","三峽區"
"237013","252-BX","2018/06/26 18:19:22","新北市三峽區永安街9巷60號","121.376046666667","24.9295283333333","6500900","三峽區"
"237012","275-BY","2018/06/26 18:19:21","新北市三峽區三樹路42號","121.377728333333","24.9377283333333","6500900","三峽區"
"237008","302-VK","2018/06/26 18:19:24","新北市三峽區白雞68-317號","121.39161","24.9099366666667","6500900","三峽區"
"237014","433-BY","2018/06/26 18:19:19","新北市三峽區復興路78號","121.37317","24.9373733333333","6500900","三峽區"
"237011","KEA-2596","2018/06/26 18:19:11","新北市三峽區大同路2-1號","121.378383333333","24.9300583333333","6500900","三峽區"
"237016","649-BX","2018/06/26 18:19:26","新北市三峽區紫微南路5號","121.42557","24.9199316666667","6500900","三峽區"
"237010","706-TV","2018/06/26 18:19:16","新北市三峽區中山路126號","121.365478333333","24.93599","6500900","三峽區"
"237005","AKY-6261","2018/06/26 18:19:28","新北市三峽區長福街2號","121.369881666667","24.9338016666667","6500900","三峽區"
"236070","105-UM","2018/06/26 18:19:23","新北市土城區永豐路147-1號","121.467236666667","24.98299","6501300","土城區"
"236042","107-UM","2018/06/26 18:19:24","新北市土城區裕生路21巷6弄24號","121.448556666667","24.9865583333333","6501300","土城區"
"236079","166-UM","2018/06/26 18:19:24","新北市土城區中央路三段281巷15-1號","121.426038333333","24.9625016666667","6501300","土城區"
"236030","253-BX","2018/06/26 18:19:25","新北市土城區順風路25號","121.440623333333","24.9767883333333","6501300","土城區"
"236026","269-VK","2018/06/26 18:19:27","新北市土城區承天路18號","121.43949","24.9634866666667","6501300","土城區"
"236014","270-VK","2018/06/26 18:19:18","新北市土城區青雲路39巷7號","121.460281666667","24.9873383333333","6501300","土城區"
"236038","271-VK","2018/06/26 18:19:12","新北市土城區青雲路451巷8弄9號","121.45956","24.9743783333333","6501300","土城區"
"236021","401-BY","2018/06/26 18:19:21","新北市土城區明德路二段65號","121.451558333333","24.9809933333333","6501300","土城區"
"236059","912-UM","2018/06/26 18:19:27","新北市土城區中央路四段424-1號","121.410965","24.9519133333333","6501300","土城區"
"236049","913-UM","2018/06/26 18:19:12","新北市土城區明德路一段375-1號","121.454735","24.9782033333333","6501300","土城區"
"236063","915-UM","2018/06/26 18:19:11","新北市土城區金城路三段245號","121.471575","24.98982","6501300","土城區"
"236055","AAC-216","2018/06/26 18:18:56","新北市土城區中華路二段92號","121.438235","24.9747133333333","6501300","土城區"
"242058","986-R7","2018/06/26 18:19:29","新北市新莊區新北大道七段788號","121.41315","25.024635","6500500","新莊區"
"242054","751-BX","2018/06/26 18:19:19","新北市新莊區民安西路354號","121.42725","25.01118","6500500","新莊區"
"242027","615-BX","2018/06/26 18:19:17","新北市新莊區幸福路823號","121.445253333333","25.0490316666667","6500500","新莊區"
"242025","613-BX","2018/06/26 18:19:28","新北市新莊區五權一路12巷9弄13號","121.45771","25.0652283333333","6500500","新莊區"
"242042","566-BX","2018/06/26 18:19:20","新北市新莊區天祥街89號","121.415278333333","25.0294433333333","6500500","新莊區"
"242046","497-BY","2018/06/26 18:19:08","新北市新莊區福營路338號","121.42161","25.026855","6500500","新莊區"
"242051","441-UM","2018/06/26 18:19:27","新北市新莊區新樹路465號","121.432626666667","25.013015","6500500","新莊區"
"242007","413-TV","2018/06/26 18:19:23","新北市新莊區中安街38號","121.452856666667","25.0463883333333","6500500","新莊區"
"242044","400-BY","2018/06/26 18:19:24","新北市新莊區新北大道七段339號","121.413","25.027575","6500500","新莊區"
"242061","353-BY","2018/06/26 18:19:29","新北市新莊區新樹路69-34號","121.43818","25.0288483333333","6500500","新莊區"
"242009","132-UY","2018/06/26 18:19:24","新北市新莊區中華路二段152-1號","121.453196666667","25.0505133333333","6500500","新莊區"
"242039","133-UY","2018/06/26 18:19:09","新北市新莊區新樹路206巷4號","121.433613333333","25.0203766666667","6500500","新莊區"
"242032","135-UY","2018/06/26 18:19:24","新北市新莊區新泰路277巷57弄12號","121.443025","25.039815","6500500","新莊區"
"242048","172-VK","2018/06/26 18:19:20","新北市樹林區俊興街288號","121.41833","25.0172633333333","6500500","新莊區"
"242011","173-VK","2018/06/26 18:19:27","新北市新莊區中港路591巷34號","121.449565","25.0523533333333","6500500","新莊區"
"242056","175-VK","2018/06/26 18:19:28","新北市新莊區豐年街豐1巷43號","121.447933333333","25.0313366666667","6500500","新莊區"
"242015","346-TH","2018/06/26 18:19:24","新北市新莊區中平路198巷31號","121.446608333333","25.0485716666667","6500500","新莊區"
"242021","348-TH","2018/06/26 18:19:07","新北市新莊區新興街22號","121.450733333333","25.0366833333333","6500500","新莊區"
"242002","349-TH","2018/06/26 18:19:24","新北市新莊區大觀街4號","121.454566666667","25.0341883333333","6500500","新莊區"
"242019","350-TH","2018/06/26 18:19:20","新北市新莊區新泰路357巷1弄9號","121.442875","25.040855","6500500","新莊區"
"238015","755-BX","2018/06/26 18:19:22","新北市樹林區大安路323巷10弄20號","121.4171","24.9909216666667","6500700","樹林區"
"238023","601-UM","2018/06/26 18:19:29","新北市樹林區忠義街18號","121.409493333333","25.0142866666667","6500700","樹林區"
"238019","599-UM","2018/06/26 18:19:12","新北市樹林區八德街119號","121.421541666667","24.9799683333333","6500700","樹林區"
"238018","571-TV","2018/06/26 18:19:15","新北市樹林區樹新路34巷9號","121.428231666667","24.9945883333333","6500700","樹林區"
"238025","303-VK","2018/06/26 18:19:24","新北市樹林區保安街一段328號","121.418253333333","24.9977","6500700","樹林區"
"238017","283-BY","2018/06/26 18:19:15","新北市樹林區光榮街3巷1號","121.413058333333","25.0039866666667","6500700","樹林區"
"238014","282-BY","2018/06/26 18:19:24","新北市樹林區大安路47-1號","121.424215","24.9995516666667","6500700","樹林區"
"238020","268-VK","2018/06/26 18:19:15","新北市樹林區三龍街80巷17號","121.41397","25.018005","6500700","樹林區"
"238026","172-UY","2018/06/26 18:19:29","新北市樹林區佳園路一段41巷28弄14號","121.394643333333","24.9704166666667","6500700","樹林區"
"238016","169-UY","2018/06/26 18:19:23","新北市樹林區文化街28號","121.419275","24.9877866666667","6500700","樹林區"
"239006","891-R6","2018/06/26 18:19:25","新北市鶯歌區德昌街140巷6號","121.332063333333","24.9607416666667","6500800","鶯歌區"
"239008","527-UM","2018/06/26 18:19:27","新北市鶯歌區國際一路179號","121.33625","24.976495","6500800","鶯歌區"
"239005","526-UM","2018/06/26 18:19:27","新北市鶯歌區鳳吉三街15號","121.326811666667","24.973485","6500800","鶯歌區"
"239001","417-VK","2018/06/26 18:19:16","新北市鶯歌區國中街171-1號","121.337696666667","24.9387866666667","6500800","鶯歌區"
"239003","360-BY","2018/06/26 18:19:25","新北市鶯歌區福安街58號","121.335593333333","24.9652683333333","6500800","鶯歌區"
"239002","359-BY","2018/06/26 18:19:09","新北市鶯歌區中正一路59號","121.352286666667","24.954225","6500800","鶯歌區"
"239004","193-VK","2018/06/26 18:19:13","新北市鶯歌區尖山路卓厝巷1-3號","121.341613333333","24.9463116666667","6500800","鶯歌區"
"221008","489-VK","2018/06/26 18:19:14","新北市汐止區汐萬路一段256巷3號","121.653076666667","25.07442","6501100","汐止區"
"221036","130-UY","2018/06/26 18:19:11","新北市汐止區長興街一段15號","121.669565","25.0787283333333","6501100","汐止區"
"221015","131-UY","2018/06/26 18:19:25","新北市汐止區鄉長路二段29號","121.668068333333","25.0828783333333","6501100","汐止區"
"221010","269-BY","2018/06/26 18:19:17","新北市汐止區汐萬路二段339號","121.64474","25.090605","6501100","汐止區"
"221012","278-VK","2018/06/26 18:19:13","新北市汐止區保長路25號","121.672405","25.0796983333333","6501100","汐止區"
"221023","279-VK","2018/06/26 18:19:28","新北市汐止區康寧街398號","121.62982","25.067765","6501100","汐止區"
"221032","280-BY","2018/06/26 18:19:27","新北市汐止區橫科路2巷7號","121.616496666667","25.0509333333333","6501100","汐止區"
"221027","281-BY","2018/06/26 18:19:20","新北市汐止區和平街6巷5弄2號","121.663668333333","25.0717683333333","6501100","汐止區"
"221029","298-VK","2018/06/26 18:19:15","新北市汐止區樟樹二路330巷72-1號","121.642966666667","25.0699483333333","6501100","汐止區"
"221021","299-VK","2018/06/26 18:19:19","新北市汐止區連興街121號","121.653806666667","25.0623116666667","6501100","汐止區"
"221031","353-TW","2018/06/26 18:19:17","新北市汐止區大同路一段302巷42號","121.63719","25.0563116666667","6501100","汐止區"
"221035","622-UM","2018/06/26 18:19:07","新北市汐止區大同路二段169巷40-1號","121.650226666667","25.0652266666667","6501100","汐止區"
"221025","623-UM","2018/06/26 18:19:24","新北市汐止區勤進路12巷42號","121.659113333333","25.0628266666667","6501100","汐止區"
"221038","646-BX","2018/06/26 18:19:16","新北市汐止區忠孝東路303號","121.664203333333","25.0689433333333","6501100","汐止區"
"221033","647-BX","2018/06/26 18:19:17","新北市汐止區宜興街75號","121.622918333333","25.04328","6501100","汐止區"
"221002","707-TV","2018/06/26 18:19:21","新北市汐止區福德一路213巷35號","121.635673333333","25.0648833333333","6501100","汐止區"
"221018","753-BX","2018/06/26 18:19:17","新北市汐止區茄苳路94號","121.667288333333","25.0704416666667","6501100","汐止區"
"235068","KEA-2873","2018/06/26 18:18:59","新北市中和區員山路36巷16-3號","121.485133333333","24.9912983333333","6500300","中和區"
"235061","KEA-2875","2018/06/26 18:19:28","新北市中和區國光街215巷24弄1號","121.467055","25.0004","6500300","中和區"
