"lineid","car","time","location","longitude","latitude","cityid","cityname"
"234046","148-BY","2018/06/26 18:29:17","新北市永和區福和路1號","121.526415","25.0097566666667","6500400","永和區"
"234007","207-UY","2018/06/26 18:29:19","新北市永和區環河西路二段219號","121.50127","25.01022","6500400","永和區"
"234038","336-UY","2018/06/26 18:29:26","新北市永和區福和路1號","121.526578333333","25.01006","6500400","永和區"
"234086","338-UY","2018/06/26 18:29:12","新北市永和區環河東路二段92號","121.524438333333","25.0106183333333","6500400","永和區"
"234017","745-BX","2018/06/26 18:29:26","新北市永和區福和路1號","121.526315","25.0095966666667","6500400","永和區"
"234030","746-BX","2018/06/26 18:29:24","新北市永和區福和路7巷5弄7號","121.525576666667","25.0082483333333","6500400","永和區"
"234042","862-TW","2018/06/26 18:29:11","新北市永和區豫溪街217巷23號","121.52471","25.0102866666667","6500400","永和區"
"234050","863-TW","2018/06/26 18:29:29","新北市永和區福和路1號","121.526191666667","25.0098333333333","6500400","永和區"
"234026","9371-KE","2018/06/26 18:29:16","新北市永和區永和路二段8號","121.514606666667","25.0102783333333","6500400","永和區"
"234011","9373-KE","2018/06/26 18:29:14","新北市永和區保福路二段158巷1號","121.509091666667","25.01499","6500400","永和區"
"249005","172-UM","2018/06/26 18:29:16","新北市八里區中華路三段134號","121.3919","25.133985","6502300","八里區"
"249001","173-UM","2018/06/26 18:29:24","新北市八里區龍米路一段130號","121.453081666667","25.1254366666667","6502300","八里區"
"249004","303-UY","2018/06/26 18:29:14","新北市八里區忠孝路56號","121.42643","25.1603666666667","6502300","八里區"
"249002","305-UY","2018/06/26 18:29:10","新北市八里區龍形三街17號","121.449031666667","25.1316366666667","6502300","八里區"
"248014","025-BX","2018/06/26 18:29:15","新北市五股區自強路90巷51號","121.431463333333","25.0713566666667","6501500","五股區"
"248016","026-BX","2018/06/26 18:29:20","新北市五股區凌雲路一段83巷22弄1號","121.449866666667","25.100745","6501500","五股區"
"248006","077-UY","2018/06/26 18:29:23","新北市五股區四維路38號","121.467305","25.07163","6501500","五股區"
"248008","095-VK","2018/06/26 18:29:17","新北市蘆洲區永安南路二段150號","121.461986666667","25.078365","6501500","五股區"
"248020","225-UY","2018/06/26 18:29:10","新北市五股區孝義路55巷5號","121.451366666667","25.11201","6501500","五股區"
"248012","247-BX","2018/06/26 18:29:24","新北市五股區御成路148號","121.440871666667","25.0945083333333","6501500","五股區"
"248004","677-BX","2018/06/26 18:29:11","新北市五股區民義路一段152號","121.433123333333","25.0874316666667","6501500","五股區"
"248002","678-BX","2018/06/26 18:29:15","新北市五股區西雲路116-6號","121.444708333333","25.093705","6501500","五股區"
"248010","682-TV","2018/06/26 18:29:10","新北市五股區水碓路3-1號","121.433835","25.0722366666667","6501500","五股區"
"234023","9380-KE","2018/06/26 18:29:19","新北市永和區福和路1號","121.525585","25.0093183333333","6500400","永和區"
"234077","969-R7","2018/06/26 18:29:16","新北市永和區福和路1號","121.526508333333","25.0098116666667","6500400","永和區"
"234067","AAC-212","2018/06/26 18:29:25","新北市永和區福和路1號","121.526381666667","25.0096333333333","6500400","永和區"
"232011","375-UM","2018/06/26 18:19:29","新北市坪林區坪雙路一段41號","121.711676666667","24.9424266666667","6502000","坪林區"
"244007","080-UY","2018/06/26 18:29:12","新北市林口區湖子17-3號","121.384941666667","25.091075","6501700","林口區"
"244019","403-UM","2018/06/26 18:29:15","新北市林口區忠孝路604巷8號","121.376565","25.0676266666667","6501700","林口區"
"244013","742-UY","2018/06/26 18:29:14","新北市林口區中山路299號","121.383908333333","25.07993","6501700","林口區"
"244009","410-SL","2018/06/26 18:29:31","新北市林口區民生路46號","121.376511666667","25.0870316666667","6501700","林口區"
"244023","483-VK","2018/06/26 18:29:17","新北市林口區佳林路221號","121.38414","25.07676","6501700","林口區"
"244017","485-VK","2018/06/26 18:29:30","新北市林口區八德路78號","121.365475","25.0656866666667","6501700","林口區"
"244011","701-TV","2018/06/26 18:29:30","新北市林口區中正路99號","121.394296666667","25.077315","6501700","林口區"
"244025","837-TS","2018/06/26 18:29:26","新北市林口區南勢六街79號","121.354435","25.0722033333333","6501700","林口區"
"244021","838-TS","2018/06/26 18:29:13","新北市林口區自強四街17號","121.399361666667","25.0764966666667","6501700","林口區"
"243013","AAD-798","2018/06/26 18:28:08","新北市泰山區明志路三段206巷3號","121.423311666667","25.0379466666667","6501600","泰山區"
"243012","646-TV","2018/06/26 18:29:10","新北市泰山區泰林路二段462-1號","121.425718333333","25.0642583333333","6501600","泰山區"
"222003","436-BY","2018/06/26 18:29:17","新北市深坑區北深路一段288號","121.628158333333","25.0076366666667","6501800","深坑區"
"222002","659-BX","2018/06/26 18:29:23","新北市深坑區雲鄉路143號","121.62212","24.9982366666667","6501800","深坑區"
"231041","002-UM","2018/06/26 18:29:10","新北市新店區安華路28-1號","121.519783333333","24.9607583333333","6500600","新店區"
"231059","046-UY","2018/06/26 18:29:25","新北市新店區安華路28-1號","121.51951","24.96089","6500600","新店區"
"231040","047-UY","2018/06/26 18:29:21","新北市新店區安華路28-1號","121.51922","24.9608983333333","6500600","新店區"
"231044","106-UY","2018/06/26 18:29:11","新北市新店區安華路28-1號","121.519573333333","24.9608383333333","6500600","新店區"
"231053","108-UY","2018/06/26 18:29:21","新北市新店區新烏路一段58-1號","121.545961666667","24.9499066666667","6500600","新店區"
"231054","110-UY","2018/06/26 18:29:08","新北市新店區安一路一段1-1號","121.518908333333","24.96135","6500600","新店區"
"231048","187-VK","2018/06/26 18:29:11","新北市新店區安一路一段1-1號","121.519555","24.9611316666667","6500600","新店區"
"231046","188-VK","2018/06/26 18:29:09","新北市新店區直潭七街60號","121.532221666667","24.93993","6500600","新店區"
"231057","256-BX","2018/06/26 18:29:27","新北市新店區環河路29巷1-1號","121.536081666667","24.9611","6500600","新店區"
"231042","268-BY","2018/06/26 18:29:27","新北市新店區安華路1-1號","121.519196666667","24.9603466666667","6500600","新店區"
"231051","278-BY","2018/06/26 18:29:08","新北市新店區安康路一段319號","121.522056666667","24.963705","6500600","新店區"
"231050","AAD-862","2018/06/26 18:29:19","新北市新店區安華路28-1號","121.519908333333","24.961035","6500600","新店區"
"231058","3713-VJ","2018/06/26 18:29:15","新北市新店區新店後街46號","121.53791","24.95377","6500600","新店區"
"231066","4716-K9","2018/06/26 18:29:29","新北市新店區安一路一段1-1號","121.519","24.96133","6500600","新店區"
"231056","4715-K9","2018/06/26 18:29:25","新北市新店區二十張路105巷22號","121.536866666667","24.9789816666667","6500600","新店區"
"231067","4772-VM","2018/06/26 18:29:19","新北市新店區安華路3號","121.519143333333","24.9603066666667","6500600","新店區"
"231065","512-UM","2018/06/26 18:29:13","新北市新店區安一路一段1-1號","121.519183333333","24.961205","6500600","新店區"
"231049","513-UM","2018/06/26 18:29:20","新北市新店區安一路一段1-1號","121.519656666667","24.96118","6500600","新店區"
"231045","617-UM","2018/06/26 18:29:16","新北市新店區安一路一段1-1號","121.519293333333","24.96106","6500600","新店區"
"231061","619-UM","2018/06/26 18:29:26","新北市新店區安華路28-1號","121.519363333333","24.960705","6500600","新店區"
"231063","641-BX","2018/06/26 18:29:21","新北市新店區安華路1-1號","121.519526666667","24.9604983333333","6500600","新店區"
"231064","719-UM","2018/06/26 18:29:11","新北市新店區安一路一段1-1號","121.519303333333","24.9612783333333","6500600","新店區"
"231062","720-UM","2018/06/26 18:29:13","新北市新店區安一路一段1-1號","121.519045","24.9612","6500600","新店區"
"231060","897-TW","2018/06/26 18:28:59","新北市新店區安華路28-1號","121.519631666667","24.9606383333333","6500600","新店區"
"231043","899-TW","2018/06/26 18:29:19","新北市新店區安一路一段1-1號","121.51889","24.96121","6500600","新店區"
"231055","AKT-0513","2018/06/26 18:29:18","新北市新店區中華路143號","121.53833","24.9701916666667","6500600","新店區"
"235066","003-UY","2018/06/26 18:29:23","新北市中和區中山路二段120號","121.502668333333","25.0038266666667","6500300","中和區"
"235028","005-UY","2018/06/26 18:29:26","新北市中和區圓通路156號","121.49784","24.995655","6500300","中和區"
"235063","006-UY","2018/06/26 18:29:20","新北市中和區連城路389巷14號","121.48654","24.995375","6500300","中和區"
"235056","096-UM","2018/06/26 18:29:26","新北市中和區員山路611巷1號","121.47789","25.0112683333333","6500300","中和區"
"235039","097-UM","2018/06/26 18:29:24","新北市中和區安平路161號","121.512495","24.9984416666667","6500300","中和區"
"235065","098-UM","2018/06/26 18:29:13","新北市中和區中山路二段64巷9號","121.503213333333","25.005045","6500300","中和區"
"235040","150-BY","2018/06/26 18:29:13","新北市中和區安平路38號","121.509763333333","24.99495","6500300","中和區"
"235058","151-BY","2018/06/26 18:29:25","新北市中和區圓通路369巷30弄66號","121.488808333333","24.9849116666667","6500300","中和區"
"235055","183-VK","2018/06/26 18:29:17","新北市中和區民享街86巷31號","121.472718333333","25.000305","6500300","中和區"
"235038","185-VK","2018/06/26 18:29:22","新北市中和區秀朗路三段128巷17弄41號","121.522905","24.9932533333333","6500300","中和區"
"235049","186-VK","2018/06/26 18:29:22","新北市中和區景平路355號","121.50469","24.99327","6500300","中和區"
"235067","255-BX","2018/06/26 18:29:25","新北市中和區連城路469巷14號","121.483536666667","24.9952866666667","6500300","中和區"
"235044","293-VK","2018/06/26 18:29:13","新北市中和區復興路300號","121.501463333333","24.990295","6500300","中和區"
"235072","301-VK","2018/06/26 18:29:28","新北市中和區連城路137號","121.49588","24.998865","6500300","中和區"
"235043","352-BY","2018/06/26 18:29:23","新北市中和區景平路293號","121.507093333333","24.993185","6500300","中和區"
"235042","KEA-2878","2018/06/26 18:29:27","新北市中和區秀朗路三段150巷25號","121.523275","24.99103","6500300","中和區"
"235050","4979-A6","2018/06/26 18:29:20","新北市中和區景新街362巷5號","121.511951666667","24.99007","6500300","中和區"
"235069","4980-A6","2018/06/26 18:29:12","新北市中和區連城路127巷25號","121.497125","24.9977033333333","6500300","中和區"
"235070","558-UM","2018/06/26 18:29:09","新北市中和區南山路127巷18弄44號","121.503396666667","24.9964883333333","6500300","中和區"
"235045","565-BX","2018/06/26 18:29:21","新北市中和區南山路236巷24弄22號","121.504911666667","24.9890666666667","6500300","中和區"
"235054","640-BX","2018/06/26 18:29:11","新北市中和區民享街85號","121.47428","25.0016416666667","6500300","中和區"
"235060","647-TV","2018/06/26 18:29:24","新北市中和區員山路370-3號","121.480791666667","25.0039966666667","6500300","中和區"
"235047","732-UM","2018/06/26 18:29:10","新北市中和區南山路300號","121.507885","24.9871266666667","6500300","中和區"
"235046","733-UM","2018/06/26 18:29:12","新北市中和區板南路100號","121.50376","24.992355","6500300","中和區"
"235062","800-TS","2018/06/26 18:29:12","新北市中和區景平路754號","121.496501666667","25.0045933333333","6500300","中和區"
"235057","801-TS","2018/06/26 18:29:25","新北市中和區民安街71號","121.478328333333","24.999705","6500300","中和區"
"235041","802-TS","2018/06/26 18:29:26","新北市中和區景平路361號","121.50459","24.9933516666667","6500300","中和區"
"235052","805-TS","2018/06/26 18:29:21","新北市中和區興南路二段145號","121.505091666667","24.9839733333333","6500300","中和區"
"235048","896-TW","2018/06/26 18:29:18","新北市中和區中正路83號","121.500635","24.993475","6500300","中和區"
"235053","900-TW","2018/06/26 18:29:18","新北市中和區民享街457號","121.470425","24.9931633333333","6500300","中和區"
"235051","157-BY","2018/06/26 18:29:18","新北市中和區忠孝街2-9號","121.50929","24.9828533333333","6500300","中和區"
"235037","AAC-213","2018/06/26 18:29:20","新北市中和區景德街95號","121.515786666667","24.99135","6500300","中和區"
"220069","AAD-861","2018/06/26 18:29:21","新北市板橋區華東街1-10號","121.44825","24.9949766666667","6500100","板橋區"
"226004","205-ST","2018/06/26 18:29:23","新北市平溪區靜安路二段348號","121.737423333333","25.0243466666667","6502400","平溪區"
"228001","212-TW","2018/06/26 18:29:18","新北市貢寮區仁理村仁和路112號","121.922943333333","25.0510016666667","6502600","貢寮區"
"228002","663-BX","2018/06/26 18:29:15","新北市貢寮區福連里福連街5號","121.988223333333","25.0153916666667","6502600","貢寮區"
"228003","828-UM","2018/06/26 18:29:24","新北市貢寮區和美里和美街32-7號","121.91267","25.0849516666667","6502600","貢寮區"
"224006","676-BX","2018/06/26 18:29:20","新北市瑞芳區民權街3-2號","121.80806","25.1074516666667","6501200","瑞芳區"
"224002","639-TC","2018/06/26 18:29:29","新北市瑞芳區三爪子坑路29巷20號","121.813621666667","25.107135","6501200","瑞芳區"
"224008","285-BY","2018/06/26 18:29:06","新北市瑞芳區岳王路1巷33號","121.805845","25.1104483333333","6501200","瑞芳區"
"224007","275-VK","2018/06/26 18:29:13","新北市瑞芳區大埔路吉慶公園城35號","121.764395","25.0995933333333","6501200","瑞芳區"
"224009","273-VK","2018/06/26 18:29:15","新北市瑞芳區祈堂路219號","121.85619","25.1091466666667","6501200","瑞芳區"
"224005","271-BY","2018/06/26 18:29:27","新北市瑞芳區台電新村28號","121.813738333333","25.1285283333333","6501200","瑞芳區"
"227003","642-TC","2018/06/26 18:29:11","新北市雙溪區魚行里坤溪25號","121.870503333333","25.0296566666667","6502500","雙溪區"
"227009","400-TW","2018/06/26 18:29:19","新北市雙溪區牡丹里牡丹113號","121.850923333333","25.05956","6502500","雙溪區"
"253005","032-BX","2018/06/26 18:29:20","新北市石門區老崩山11-1號","121.552446666667","25.290905","6502200","石門區"
"253006","295-VK","2018/06/26 18:29:21","新北市石門區公地20號","121.54581","25.2902066666667","6502200","石門區"
"222001","KEA-2212","2018/06/26 18:29:28","新北市深坑區北深路一段199號","121.630615","25.009155","6501800","深坑區"
"208002","KEA-2872","2018/06/26 18:29:27","新北市金山區民生路45號","121.64188","25.22097","6502700","金山區"
"208003","665-BX","2018/06/26 18:29:15","新北市金山區中山路152號","121.638728333333","25.2206833333333","6502700","金山區"
"208001","761-BX","2018/06/26 18:29:22","新北市金山區文化一路14號","121.6368","25.2246116666667","6502700","金山區"
"251004","009-UM","2018/06/26 18:29:10","新北市淡水區民族路33巷12-5號","121.463241666667","25.13623","6501000","淡水區"
"251005","010-UM","2018/06/26 18:29:28","新北市淡水區中山路8號","121.445091666667","25.1687716666667","6501000","淡水區"
"251013","KEA-2871","2018/06/26 18:29:10","新北市淡水區椿子林19號","121.480733333333","25.2030083333333","6501000","淡水區"
"251016","179-VK","2018/06/26 18:29:16","新北市淡水區下圭柔山73號","121.443616666667","25.2069933333333","6501000","淡水區"
"251014","180-VK","2018/06/26 18:29:11","新北市淡水區南平28號","121.49255","25.21503","6501000","淡水區"
"251008","181-VK","2018/06/26 18:29:20","新北市淡水區北投子83-1號","121.46882","25.1809566666667","6501000","淡水區"
"251015","182-VK","2018/06/26 18:29:24","新北市淡水區興福寮88巷216號","121.485958333333","25.16659","6501000","淡水區"
"251010","413-VK","2018/06/26 18:29:25","新北市淡水區沙崙路181巷1號","121.424183333333","25.18421","6501000","淡水區"
"251012","441-VK","2018/06/26 18:29:20","新北市淡水區北新路一段156-1號","121.460691666667","25.1824666666667","6501000","淡水區"
"251001","559-UM","2018/06/26 18:29:28","新北市淡水區自強路122-9號","121.464631666667","25.1332266666667","6501000","淡水區"
"251006","561-UM","2018/06/26 18:29:28","新北市淡水區大信街26號","121.442056666667","25.1768666666667","6501000","淡水區"
"251011","650-BX","2018/06/26 18:29:27","新北市淡水區中正東路81巷1號","121.44776","25.167025","6501000","淡水區"
"251002","672-BX","2018/06/26 18:29:10","新北市淡水區中正東路一段21巷12號","121.452423333333","25.1642083333333","6501000","淡水區"
"251003","766-UM","2018/06/26 18:29:08","新北市淡水區北新路169巷16號","121.449803333333","25.1801416666667","6501000","淡水區"
"207003","550-UM","2018/06/26 18:29:29","新北市萬里區野柳里港東路160號","121.689978333333","25.2048583333333","6502800","萬里區"
"207004","291-VK","2018/06/26 18:29:25","新北市萬里區萬里里瑪鋉路216號","121.689196666667","25.1801116666667","6502800","萬里區"
"252002","178-VK","2018/06/26 18:29:13","新北市三芝區中山路二段43號","121.502935","25.2550383333333","6502100","三芝區"
"252003","249-BX","2018/06/26 18:29:23","新北市三芝區後厝里北勢子45-32號","121.469476666667","25.2509","6502100","三芝區"
"252001","292-VK","2018/06/26 18:29:21","新北市三芝區中興街二段2號","121.498436666667","25.25668","6502100","三芝區"
"237004","KEA-2597","2018/06/26 18:29:14","新北市三峽區五寮28號","121.374661666667","24.870255","6500900","三峽區"
"237007","153-BY","2018/06/26 18:29:19","新北市三峽區中正路三段178-1號","121.351725","24.9035333333333","6500900","三峽區"
"237009","210-TH","2018/06/26 18:29:21","新北市三峽區大同路251號","121.36672","24.926035","6500900","三峽區"
"237013","252-BX","2018/06/26 18:29:22","新北市三峽區光明路69巷31號","121.376945","24.9291466666667","6500900","三峽區"
"237012","275-BY","2018/06/26 18:29:21","新北市三峽區三樹路214巷13號","121.380003333333","24.9414766666667","6500900","三峽區"
"237008","302-VK","2018/06/26 18:29:16","新北市三峽區白雞68-26號","121.390195","24.9087916666667","6500900","三峽區"
"237014","433-BY","2018/06/26 18:29:19","新北市三峽區文化路113號","121.370423333333","24.936075","6500900","三峽區"
"237011","KEA-2596","2018/06/26 18:29:11","新北市三峽區溪北街109號","121.398246666667","24.9355066666667","6500900","三峽區"
"237016","649-BX","2018/06/26 18:29:26","新北市三峽區紫微路3號","121.426561666667","24.9224933333333","6500900","三峽區"
"237010","706-TV","2018/06/26 18:29:16","新北市三峽區復興路449號","121.362631666667","24.9384883333333","6500900","三峽區"
"237005","AKY-6261","2018/06/26 18:29:08","新北市三峽區清水街314號","121.372536666667","24.934405","6500900","三峽區"
"236070","105-UM","2018/06/26 18:29:23","新北市土城區永豐路255巷21弄2-1號","121.475046666667","24.97373","6501300","土城區"
"236042","107-UM","2018/06/26 18:29:28","新北市土城區學成路91巷7號","121.450278333333","24.9876483333333","6501300","土城區"
"236079","166-UM","2018/06/26 18:29:24","新北市土城區大暖路61-2號","121.422046666667","24.9582733333333","6501300","土城區"
"236030","253-BX","2018/06/26 18:29:25","新北市土城區福仁街30巷10號","121.439453333333","24.9759766666667","6501300","土城區"
"236026","269-VK","2018/06/26 18:29:09","新北市土城區南天母路135巷20號","121.448705","24.9547316666667","6501300","土城區"
"236014","270-VK","2018/06/26 18:29:18","新北市土城區立清街69號","121.460291666667","24.9873116666667","6501300","土城區"
"236038","271-VK","2018/06/26 18:29:12","新北市土城區青雲路449號","121.45879","24.9750616666667","6501300","土城區"
"236021","401-BY","2018/06/26 18:29:21","新北市土城區永豐路202巷14號","121.466148333333","24.9834133333333","6501300","土城區"
"236059","912-UM","2018/06/26 18:29:27","新北市土城區中央路四段139-1號","121.415805","24.95726","6501300","土城區"
"236049","913-UM","2018/06/26 18:29:12","新北市土城區青雲路398號","121.458831666667","24.9727266666667","6501300","土城區"
"236063","915-UM","2018/06/26 18:29:22","新北市土城區延壽路77巷6-3號","121.468541666667","24.9926233333333","6501300","土城區"
"236055","AAC-216","2018/06/26 18:29:16","新北市土城區中華路二段61號","121.439511666667","24.9787583333333","6501300","土城區"
"242058","986-R7","2018/06/26 18:29:23","桃園市龜山區萬壽路一段78號","121.408348333333","25.01898","6500500","新莊區"
"242054","751-BX","2018/06/26 18:29:19","新北市新莊區民安西路408號","121.428846666667","25.0098816666667","6500500","新莊區"
"242025","613-BX","2018/06/26 18:29:28","新北市新莊區中央路232號","121.45466","25.0592166666667","6500500","新莊區"
"242042","566-BX","2018/06/26 18:29:20","新北市新莊區天祥街53號","121.414943333333","25.0304","6500500","新莊區"
"242046","497-BY","2018/06/26 18:29:28","新北市新莊區民安路16-29號","121.422296666667","25.0279133333333","6500500","新莊區"
"242007","413-TV","2018/06/26 18:29:23","新北市泰山區磚雅厝3號","121.442156666667","25.0415883333333","6500500","新莊區"
"242044","400-BY","2018/06/26 18:29:24","新北市新莊區中正路新旺巷31號","121.416226666667","25.0228583333333","6500500","新莊區"
"242061","353-BY","2018/06/26 18:29:14","新北市新莊區民安路144巷9號","121.423995","25.025195","6500500","新莊區"
"242009","132-UY","2018/06/26 18:29:14","新北市新莊區幸福路600號","121.453073333333","25.0493466666667","6500500","新莊區"
"242056","175-VK","2018/06/26 18:29:28","新北市新莊區瓊林路13-3號","121.448843333333","25.0309133333333","6500500","新莊區"
"242002","349-TH","2018/06/26 18:29:24","新北市新莊區環漢路三段1號","121.442338333333","25.024295","6500500","新莊區"
"238015","755-BX","2018/06/26 18:29:22","新北市樹林區啟智街172號","121.41487","24.98702","6500700","樹林區"
"238023","601-UM","2018/06/26 18:29:09","新北市樹林區三福街114號","121.40646","25.0163083333333","6500700","樹林區"
"238019","599-UM","2018/06/26 18:29:12","新北市樹林區中華路190-16號","121.411736666667","24.98065","6500700","樹林區"
"238018","571-TV","2018/06/26 18:29:12","新北市樹林區樹新路50巷5弄7號","121.429601666667","24.9970116666667","6500700","樹林區"
"238025","303-VK","2018/06/26 18:29:24","新北市樹林區保安街一段195號","121.421093333333","24.9959433333333","6500700","樹林區"
"238017","283-BY","2018/06/26 18:29:15","新北市樹林區光興街50號","121.40985","25.002735","6500700","樹林區"
"238014","282-BY","2018/06/26 18:29:24","新北市樹林區大安路111巷25號","121.423113333333","24.9975283333333","6500700","樹林區"
"238020","268-VK","2018/06/26 18:29:15","新北市樹林區三龍街14巷2號","121.410243333333","25.018045","6500700","樹林區"
"238026","172-UY","2018/06/26 18:29:29","新北市樹林區八德街624號","121.39708","24.9697683333333","6500700","樹林區"
"238016","169-UY","2018/06/26 18:29:23","新北市樹林區文化街26號","121.4194","24.987635","6500700","樹林區"
"239006","891-R6","2018/06/26 18:29:25","新北市鶯歌區鶯桃路296巷51號","121.33577","24.9613733333333","6500800","鶯歌區"
"239008","527-UM","2018/06/26 18:29:27","新北市鶯歌區國際一路179號","121.336241666667","24.9764883333333","6500800","鶯歌區"
"239005","526-UM","2018/06/26 18:29:27","新北市鶯歌區鳳吉一街109號","121.32762","24.9744533333333","6500800","鶯歌區"
"239001","417-VK","2018/06/26 18:29:16","新北市鶯歌區國中街178號","121.33824","24.9391933333333","6500800","鶯歌區"
"239003","360-BY","2018/06/26 18:29:25","新北市鶯歌區永和街47號","121.332615","24.967465","6500800","鶯歌區"
"239002","359-BY","2018/06/26 18:29:29","新北市鶯歌區中正一路阿四巷7-1號","121.368396666667","24.9576066666667","6500800","鶯歌區"
"239004","193-VK","2018/06/26 18:29:13","新北市鶯歌區高職南街5號","121.337211666667","24.9395733333333","6500800","鶯歌區"
"221008","489-VK","2018/06/26 18:29:14","新北市汐止區康寧街901號","121.651366666667","25.0749483333333","6501100","汐止區"
"221036","130-UY","2018/06/26 18:29:27","新北市汐止區大同路三段41號","121.666746666667","25.0764783333333","6501100","汐止區"
"221015","131-UY","2018/06/26 18:29:25","新北市汐止區鄉友街54號","121.669313333333","25.08191","6501100","汐止區"
"221010","269-BY","2018/06/26 18:29:16","新北市汐止區瑞松街49巷6號","121.645251666667","25.106905","6501100","汐止區"
"221012","278-VK","2018/06/26 18:29:13","新北市汐止區保長路149號","121.677043333333","25.0765166666667","6501100","汐止區"
"221023","279-VK","2018/06/26 18:29:28","新北市汐止區康寧街541巷9號","121.63383","25.069355","6501100","汐止區"
"221032","280-BY","2018/06/26 18:29:27","新北市汐止區民權街二段102號","121.618671666667","25.0468616666667","6501100","汐止區"
"221027","281-BY","2018/06/26 18:29:29","新北市汐止區和平街40號","121.662588333333","25.070945","6501100","汐止區"
"221029","298-VK","2018/06/26 18:29:16","新北市汐止區樟樹一路272-7號","121.642683333333","25.0688733333333","6501100","汐止區"
"221021","299-VK","2018/06/26 18:29:19","新北市汐止區新台五路一段161號","121.654246666667","25.0625716666667","6501100","汐止區"
"221031","353-TW","2018/06/26 18:29:17","新北市汐止區光復街7巷34號","121.640925","25.0601383333333","6501100","汐止區"
"221035","622-UM","2018/06/26 18:29:07","新北市汐止區大同路二段9-1號","121.647013333333","25.0629183333333","6501100","汐止區"
"221025","623-UM","2018/06/26 18:29:24","新北市汐止區仁愛路122巷14號","121.663285","25.06335","6501100","汐止區"
"221038","646-BX","2018/06/26 18:29:16","新北市汐止區汐萬路一段165號","121.652975","25.0710266666667","6501100","汐止區"
"221033","647-BX","2018/06/26 18:29:17","新北市汐止區宜興街1號","121.620846666667","25.0412566666667","6501100","汐止區"
"221002","707-TV","2018/06/26 18:29:21","新北市汐止區福德一路143號","121.636808333333","25.0668733333333","6501100","汐止區"
"221018","753-BX","2018/06/26 18:29:17","新北市汐止區茄苳路220號","121.6709","25.068705","6501100","汐止區"
"220079","145-BY","2018/06/26 18:29:18","新北市板橋區華東街1-10號","121.448305","24.995115","6500100","板橋區"
"220030","610-BX","2018/06/26 18:29:19","新北市板橋區華東街1-9號","121.44818","24.9949683333333","6500100","板橋區"
"220056","276-BY","2018/06/26 18:29:24","新北市板橋區華東街1-10號","121.448515","24.9950583333333","6500100","板橋區"
"220071","283-VK","2018/06/26 18:29:15","新北市板橋區華東街1-10號","121.448631666667","24.9949966666667","6500100","板橋區"
"220084","296-UM","2018/06/26 18:29:15","新北市板橋區華東街1-9號","121.448141666667","24.99498","6500100","板橋區"
"220065","461-BY","2018/06/26 18:29:26","新北市板橋區南雅南路二段20號","121.454545","25.0032866666667","6500100","板橋區"
"220064","486-VK","2018/06/26 18:29:25","新北市板橋區大觀路2段435-7號","121.447835","24.9954916666667","6500100","板橋區"
"220035","560-BX","2018/06/26 18:29:12","新北市板橋區四川路二段130巷25弄10號","121.448833333333","24.99467","6500100","板橋區"
"220057","686-BX","2018/06/26 18:29:23","新北市板橋區華東街1-9號","121.448196666667","24.9948483333333","6500100","板橋區"
"220054","741-BX","2018/06/26 18:29:19","新北市板橋區華東街1-9號","121.448083333333","24.9949383333333","6500100","板橋區"
"220077","806-UM","2018/06/26 18:29:19","新北市板橋區華東街1-9號","121.448291666667","24.9948683333333","6500100","板橋區"
"220074","895-R6","2018/06/26 18:29:12","新北市板橋區華東街1-10號","121.448225","24.9949866666667","6500100","板橋區"
"220073","985-R7","2018/06/26 18:29:22","新北市板橋區華東街1-10號","121.448281666667","24.9950533333333","6500100","板橋區"
"235068","KEA-2873","2018/06/26 18:28:59","新北市中和區圓通路284號","121.491468333333","24.990625","6500300","中和區"
"235061","KEA-2875","2018/06/26 18:29:02","新北市中和區民享街97巷14號","121.475283333333","24.9996466666667","6500300","中和區"
