"lineid","car","time","location","longitude","latitude","cityid","cityname"
"234046","148-BY","2018/06/26 18:39:17","新北市永和區永元路68號","121.522533333333","25.0015733333333","6500400","永和區"
"234007","207-UY","2018/06/26 18:39:19","新北市永和區文化路170號","121.511805","25.01554","6500400","永和區"
"234081","298-R6","2018/06/26 18:39:16","新北市永和區林森路73號","121.524055","25.0039566666667","6500400","永和區"
"234038","336-UY","2018/06/26 18:39:26","新北市永和區福和路1號","121.526628333333","25.0100033333333","6500400","永和區"
"234086","338-UY","2018/06/26 18:39:12","新北市永和區安樂路250號","121.514558333333","25.0035633333333","6500400","永和區"
"234017","745-BX","2018/06/26 18:39:26","新北市永和區福和路1號","121.525533333333","25.0095316666667","6500400","永和區"
"234030","746-BX","2018/06/26 18:39:24","新北市永和區得和路321號","121.523358333333","24.99965","6500400","永和區"
"234042","862-TW","2018/06/26 18:39:31","新北市永和區福和路303號","121.516378333333","25.0072833333333","6500400","永和區"
"234050","863-TW","2018/06/26 18:39:09","新北市永和區福和路1號","121.526265","25.0095933333333","6500400","永和區"
"234026","9371-KE","2018/06/26 18:39:16","新北市永和區永貞路376號","121.50979","25.0068833333333","6500400","永和區"
"234011","9373-KE","2018/06/26 18:39:14","新北市永和區文化路9巷22弄42號","121.514183333333","25.0145833333333","6500400","永和區"
"249005","172-UM","2018/06/26 18:39:24","新北市八里區中華路三段200號","121.388633333333","25.1257233333333","6502300","八里區"
"249001","173-UM","2018/06/26 18:39:19","新北市八里區龍米路一段352號","121.451565","25.1311466666667","6502300","八里區"
"249004","303-UY","2018/06/26 18:39:14","新北市八里區中山路一段42-1號","121.422226666667","25.1590283333333","6502300","八里區"
"249002","305-UY","2018/06/26 18:39:10","新北市八里區龍形一街12巷8號","121.449901666667","25.1306883333333","6502300","八里區"
"248014","025-BX","2018/06/26 18:39:15","新北市五股區成泰路一段231-11號","121.435435","25.0776266666667","6501500","五股區"
"248016","026-BX","2018/06/26 18:39:20","新北市五股區凌雲路一段149巷13-1號","121.448611666667","25.1008933333333","6501500","五股區"
"248008","095-VK","2018/06/26 18:39:17","新北市五股區中興路一段150巷12號","121.464638333333","25.0744333333333","6501500","五股區"
"248020","225-UY","2018/06/26 18:39:10","新北市五股區孝義路94號","121.446768333333","25.11919","6501500","五股區"
"248012","247-BX","2018/06/26 18:39:20","新北市五股區御史路22號","121.442048333333","25.0912233333333","6501500","五股區"
"248004","677-BX","2018/06/26 18:39:11","新北市五股區民義路一段236-6號","121.427463333333","25.091275","6501500","五股區"
"248002","678-BX","2018/06/26 18:39:22","新北市五股區西雲路222號","121.448293333333","25.0961283333333","6501500","五股區"
"248010","682-TV","2018/06/26 18:39:10","新北市五股區明德路31號","121.434513333333","25.071365","6501500","五股區"
"234023","9380-KE","2018/06/26 18:39:19","新北市永和區福和路8巷3號","121.524795","25.0090983333333","6500400","永和區"
"234077","969-R7","2018/06/26 18:39:16","新北市永和區福和路278號","121.517858333333","25.007505","6500400","永和區"
"234067","AAC-212","2018/06/26 18:39:25","新北市永和區中正路513號","121.516948333333","25.0072916666667","6500400","永和區"
"234003","AAC-295","2018/06/26 18:39:10","新北市永和區福和路1號","121.52655","25.0099283333333","6500400","永和區"
"232011","375-UM","2018/06/26 18:19:29","新北市坪林區坪雙路一段41號","121.711676666667","24.9424266666667","6502000","坪林區"
"244007","080-UY","2018/06/26 18:39:12","新北市林口區後湖11號","121.387243333333","25.0976866666667","6501700","林口區"
"244019","403-UM","2018/06/26 18:39:15","新北市林口區麗園二街12巷4-2號","121.378398333333","25.068445","6501700","林口區"
"244013","742-UY","2018/06/26 18:39:14","新北市林口區中正路446號","121.383708333333","25.077745","6501700","林口區"
"244009","410-SL","2018/06/26 18:39:11","新北市林口區竹林路326巷18號","121.392286666667","25.0821866666667","6501700","林口區"
"244023","483-VK","2018/06/26 18:39:17","新北市林口區文化一路二段2號","121.380248333333","25.07635","6501700","林口區"
"244017","485-VK","2018/06/26 18:39:10","新北市林口區文化二路一段66號","121.365651666667","25.0687816666667","6501700","林口區"
"244011","701-TV","2018/06/26 18:39:10","新北市林口區興林路15號","121.38976","25.0770833333333","6501700","林口區"
"244025","837-TS","2018/06/26 18:39:26","新北市林口區南勢街250巷9號","121.357695","25.0766133333333","6501700","林口區"
"244021","838-TS","2018/06/26 18:39:14","新北市林口區工六路2號","121.397528333333","25.079385","6501700","林口區"
"243013","AAD-798","2018/06/26 18:28:08","新北市泰山區明志路三段206巷3號","121.423311666667","25.0379466666667","6501600","泰山區"
"243016","380-SR","2018/06/26 18:39:27","新北市泰山區黎明路6號","121.421038333333","25.06187","6501600","泰山區"
"243012","646-TV","2018/06/26 18:39:30","新北市泰山區福興三街13號","121.434446666667","25.057805","6501600","泰山區"
"222003","436-BY","2018/06/26 18:39:23","新北市深坑區翠谷街14號","121.627048333333","25.0085433333333","6501800","深坑區"
"222002","659-BX","2018/06/26 18:39:23","新北市深坑區文山路一段62巷33號","121.62134","25.000475","6501800","深坑區"
"231041","002-UM","2018/06/26 18:39:30","新北市新店區安華路28-1號","121.519723333333","24.9606533333333","6500600","新店區"
"231059","046-UY","2018/06/26 18:39:25","新北市新店區安華路28-1號","121.519548333333","24.96079","6500600","新店區"
"231040","047-UY","2018/06/26 18:39:21","新北市新店區安華路28-1號","121.519266666667","24.9608216666667","6500600","新店區"
"231044","106-UY","2018/06/26 18:39:11","新北市新店區秀山路20號","121.532561666667","24.960355","6500600","新店區"
"231053","108-UY","2018/06/26 18:39:21","新北市新店區永興路38號","121.543368333333","24.9385966666667","6500600","新店區"
"231054","110-UY","2018/06/26 18:39:28","新北市新店區安一路一段1-1號","121.518798333333","24.961455","6500600","新店區"
"231048","187-VK","2018/06/26 18:39:11","新北市新店區安康路一段323-3號","121.52107","24.9638083333333","6500600","新店區"
"231046","188-VK","2018/06/26 18:39:09","新北市新店區直潭二街1號","121.535528333333","24.943175","6500600","新店區"
"231057","256-BX","2018/06/26 18:39:27","新北市新店區新烏路一段215號","121.548698333333","24.9316716666667","6500600","新店區"
"231042","268-BY","2018/06/26 18:39:27","新北市新店區安華路1-1號","121.519293333333","24.9605016666667","6500600","新店區"
"231051","278-BY","2018/06/26 18:39:22","新北市新店區安康路一段65號","121.53038","24.9610666666667","6500600","新店區"
"231050","AAD-862","2018/06/26 18:39:19","新北市新店區安一路一段1-1號","121.519796666667","24.961115","6500600","新店區"
"231058","3713-VJ","2018/06/26 18:39:15","新北市新店區能仁街12-2號","121.540596666667","24.9554683333333","6500600","新店區"
"231066","4716-K9","2018/06/26 18:39:09","新北市新店區安一路一段1-1號","121.519186666667","24.9612066666667","6500600","新店區"
"231056","4715-K9","2018/06/26 18:39:25","新北市新店區自立街1號","121.538823333333","24.9781","6500600","新店區"
"231067","4772-VM","2018/06/26 18:39:19","新北市新店區安華路3號","121.519051666667","24.9602916666667","6500600","新店區"
"231065","512-UM","2018/06/26 18:39:13","新北市新店區安一路一段1-1號","121.519201666667","24.96109","6500600","新店區"
"231049","513-UM","2018/06/26 18:39:20","新北市新店區安一路一段1-1號","121.519651666667","24.9611616666667","6500600","新店區"
"231045","617-UM","2018/06/26 18:39:16","新北市新店區安華路28-1號","121.519296666667","24.9608116666667","6500600","新店區"
"231061","619-UM","2018/06/26 18:39:26","新北市新店區安華路28-1號","121.519526666667","24.9609616666667","6500600","新店區"
"231063","641-BX","2018/06/26 18:39:21","新北市新店區安華路28-1號","121.519586666667","24.9605266666667","6500600","新店區"
"231064","719-UM","2018/06/26 18:39:11","新北市新店區安一路一段1-1號","121.519503333333","24.9612666666667","6500600","新店區"
"231062","720-UM","2018/06/26 18:39:13","新北市新店區安一路一段1-1號","121.519035","24.96115","6500600","新店區"
"231060","897-TW","2018/06/26 18:39:19","新北市新店區安華路28-1號","121.519428333333","24.960555","6500600","新店區"
"231043","899-TW","2018/06/26 18:39:19","新北市新店區安康路一段359-27號","121.518755","24.9610533333333","6500600","新店區"
"231055","AKT-0513","2018/06/26 18:39:18","新北市新店區北新路一段271巷35號","121.539605","24.9670166666667","6500600","新店區"
"235066","003-UY","2018/06/26 18:39:23","新北市中和區水源路37號","121.504458333333","25.0035466666667","6500300","中和區"
"235028","005-UY","2018/06/26 18:39:26","新北市中和區連城路109巷41號","121.497033333333","24.9984216666667","6500300","中和區"
"235063","006-UY","2018/06/26 18:39:20","新北市中和區連城路347巷4弄35-3號","121.486773333333","24.9955783333333","6500300","中和區"
"235056","096-UM","2018/06/26 18:39:26","新北市中和區員山路611巷1號","121.477875","25.0112616666667","6500300","中和區"
"235039","097-UM","2018/06/26 18:39:04","新北市永和區安樂路50巷1弄1號","121.514841666667","24.99733","6500300","中和區"
"235065","098-UM","2018/06/26 18:39:13","新北市中和區莊敬路49巷27號","121.501513333333","25.006215","6500300","中和區"
"235040","150-BY","2018/06/26 18:39:13","新北市中和區宜安路41號","121.511948333333","24.996455","6500300","中和區"
"235058","151-BY","2018/06/26 18:39:25","新北市中和區員山路59號","121.480865","24.9932883333333","6500300","中和區"
"235055","183-VK","2018/06/26 18:39:17","新北市中和區中山路三段229巷49號","121.469228333333","25.0055183333333","6500300","中和區"
"235038","185-VK","2018/06/26 18:39:22","新北市中和區大勇街60巷2號","121.518338333333","24.9946833333333","6500300","中和區"
"235049","186-VK","2018/06/26 18:39:22","新北市中和區景安路169號","121.505353333333","24.9945116666667","6500300","中和區"
"235067","255-BX","2018/06/26 18:39:25","新北市中和區新生街6號","121.483126666667","25.00463","6500300","中和區"
"235044","293-VK","2018/06/26 18:39:14","新北市中和區復興路280巷5號","121.502241666667","24.9910066666667","6500300","中和區"
"235072","301-VK","2018/06/26 18:39:28","新北市中和區中山路二段92號","121.503393333333","25.0042316666667","6500300","中和區"
"235043","352-BY","2018/06/26 18:39:23","新北市中和區景平路111巷2號","121.516626666667","24.9918716666667","6500300","中和區"
"235042","KEA-2878","2018/06/26 18:39:27","新北市中和區成功路97巷18弄1號","121.52672","24.99174","6500300","中和區"
"235050","4979-A6","2018/06/26 18:39:20","新北市中和區信義街115號","121.51215","24.9869133333333","6500300","中和區"
"235069","4980-A6","2018/06/26 18:39:12","新北市中和區連城路66-1號","121.497575","25.0014533333333","6500300","中和區"
"235070","558-UM","2018/06/26 18:39:09","新北市中和區景平路590號","121.501163333333","24.9960716666667","6500300","中和區"
"235045","565-BX","2018/06/26 18:39:21","新北市中和區南山路236巷63弄1號","121.503806666667","24.9876433333333","6500300","中和區"
"235054","640-BX","2018/06/26 18:39:11","新北市中和區莒光路68號","121.472283333333","25.0031866666667","6500300","中和區"
"235060","647-TV","2018/06/26 18:39:24","新北市中和區中山路三段8號","121.4796","25.0060283333333","6500300","中和區"
"235047","732-UM","2018/06/26 18:39:10","新北市中和區南山路320巷10弄21號","121.506783333333","24.986735","6500300","中和區"
"235046","733-UM","2018/06/26 18:39:12","新北市中和區忠孝街126號","121.512041666667","24.9864366666667","6500300","中和區"
"235062","800-TS","2018/06/26 18:39:12","新北市中和區中山路二段312巷23號","121.495775","25.0034083333333","6500300","中和區"
"235057","801-TS","2018/06/26 18:39:25","新北市中和區員山路327巷9號","121.48071","25.0014616666667","6500300","中和區"
"235041","802-TS","2018/06/26 18:39:26","新北市中和區宜安路116號","121.510283333333","24.99804","6500300","中和區"
"235052","805-TS","2018/06/26 18:39:21","新北市中和區興南路三段46號","121.495693333333","24.97679","6500300","中和區"
"235048","896-TW","2018/06/26 18:39:18","新北市中和區南山路162號","121.50474","24.99157","6500300","中和區"
"235053","900-TW","2018/06/26 18:39:18","新北市土城區延壽路118-6號","121.46906","24.9945816666667","6500300","中和區"
"235051","157-BY","2018/06/26 18:39:17","新北市中和區興南路二段142巷37弄1號","121.502256666667","24.984645","6500300","中和區"
"235037","AAC-213","2018/06/26 18:39:20","新北市中和區景德街34號","121.518133333333","24.9913783333333","6500300","中和區"
"235059","AAC-215","2018/06/26 18:39:25","新北市中和區錦和路354巷15號","121.489735","24.9915483333333","6500300","中和區"
"220072","015-TV","2018/06/26 18:39:22","新北市板橋區大觀路二段443-2號","121.438961666667","24.9952183333333","6500100","板橋區"
"220086","073-UY","2018/06/26 18:39:26","新北市板橋區南雅西路二段192巷1弄1號","121.451983333333","25.0144183333333","6500100","板橋區"
"220069","AAD-861","2018/06/26 18:39:21","新北市板橋區華東街1-10號","121.448288333333","24.9950366666667","6500100","板橋區"
"226004","205-ST","2018/06/26 18:39:25","新北市平溪區平溪里三坑路2號","121.73779","25.0279","6502400","平溪區"
"228001","212-TW","2018/06/26 18:39:18","新北市貢寮區仁理村研海街12-1號","121.923773333333","25.0516766666667","6502600","貢寮區"
"228002","663-BX","2018/06/26 18:39:15","新北市貢寮區福隆里東興街6-11號","121.950733333333","25.0210683333333","6502600","貢寮區"
"228003","828-UM","2018/06/26 18:39:24","新北市貢寮區和美里龍洞街35號","121.916053333333","25.1116016666667","6502600","貢寮區"
"224010","AGQ-8101","2018/06/26 18:37:44","新北市瑞芳區街頂巷21號","121.844451666667","25.10738","6501200","瑞芳區"
"224006","676-BX","2018/06/26 18:39:20","新北市瑞芳區明燈路三段37-4號","121.806953333333","25.1078716666667","6501200","瑞芳區"
"224002","639-TC","2018/06/26 18:39:09","新北市瑞芳區東和路5號","121.804591666667","25.1061683333333","6501200","瑞芳區"
"224008","285-BY","2018/06/26 18:39:26","新北市瑞芳區瑞芳街5號","121.806803333333","25.1098783333333","6501200","瑞芳區"
"224007","275-VK","2018/06/26 18:39:27","新北市瑞芳區大埔路115巷24-4號","121.762785","25.1013683333333","6501200","瑞芳區"
"224009","273-VK","2018/06/26 18:39:15","新北市瑞芳區祈堂路53-1號","121.859378333333","25.1110183333333","6501200","瑞芳區"
"224005","271-BY","2018/06/26 18:39:27","新北市瑞芳區建基路一段22號","121.81997","25.1209333333333","6501200","瑞芳區"
"227003","642-TC","2018/06/26 18:39:11","新北市雙溪區魚行里坤溪3-5號","121.876183333333","25.0208333333333","6502500","雙溪區"
"227009","400-TW","2018/06/26 18:39:19","新北市雙溪區牡丹里下坑11號","121.851013333333","25.0561916666667","6502500","雙溪區"
"253005","032-BX","2018/06/26 18:39:19","新北市石門區石門街47號","121.566503333333","25.290345","6502200","石門區"
"253006","295-VK","2018/06/26 18:39:20","新北市石門區崁子腳46號","121.533773333333","25.2884433333333","6502200","石門區"
"222001","KEA-2212","2018/06/26 18:39:20","新北市深坑區北深路一段84號","121.636173333333","25.010725","6501800","深坑區"
"208002","KEA-2872","2018/06/26 18:39:27","新北市金山區忠孝一路19巷5號","121.638058333333","25.2180583333333","6502700","金山區"
"208003","665-BX","2018/06/26 18:39:15","新北市金山區中山路280號","121.634956666667","25.2244266666667","6502700","金山區"
"208001","761-BX","2018/06/26 18:39:22","新北市金山區文化三路7號","121.63517","25.2248933333333","6502700","金山區"
"251004","009-UM","2018/06/26 18:39:09","新北市淡水區民權路41號","121.46061","25.1403666666667","6501000","淡水區"
"251005","010-UM","2018/06/26 18:39:28","新北市淡水區中正路18巷6號","121.437638333333","25.1728","6501000","淡水區"
"251013","KEA-2871","2018/06/26 18:39:10","新北市淡水區椿子林10號","121.486828333333","25.203325","6501000","淡水區"
"251016","179-VK","2018/06/26 18:39:16","新北市淡水區下圭柔山72-4號","121.445393333333","25.2055933333333","6501000","淡水區"
"251014","180-VK","2018/06/26 18:39:11","新北市淡水區崙頂12-8號","121.495551666667","25.2172366666667","6501000","淡水區"
"251008","181-VK","2018/06/26 18:39:20","新北市淡水區北投子19-8號","121.453905","25.1839183333333","6501000","淡水區"
"251015","182-VK","2018/06/26 18:39:24","新北市淡水區興福寮66巷267號","121.486813333333","25.1621583333333","6501000","淡水區"
"251010","413-VK","2018/06/26 18:39:25","新北市淡水區沙崙路126號","121.423485","25.1829383333333","6501000","淡水區"
"251012","441-VK","2018/06/26 18:39:20","新北市淡水區北新路121號","121.449051666667","25.17867","6501000","淡水區"
"251001","559-UM","2018/06/26 18:39:17","新北市淡水區自強路415巷2號","121.465526666667","25.1342633333333","6501000","淡水區"
"251006","561-UM","2018/06/26 18:39:28","新北市淡水區崁頂37-11號","121.438735","25.19458","6501000","淡水區"
"251011","650-BX","2018/06/26 18:39:27","新北市淡水區鄧公路42-1號","121.458433333333","25.1688383333333","6501000","淡水區"
"251002","672-BX","2018/06/26 18:39:10","新北市淡水區中正東路一段3巷14弄1號","121.450891666667","25.1641366666667","6501000","淡水區"
"251003","766-UM","2018/06/26 18:39:08","新北市淡水區北新路69巷26號","121.446701666667","25.1800766666667","6501000","淡水區"
"207003","550-UM","2018/06/26 18:39:09","新北市萬里區野柳里八斗60號","121.660375","25.2072333333333","6502800","萬里區"
"207004","291-VK","2018/06/26 18:39:25","新北市萬里區萬里里獅頭路7號","121.692005","25.178365","6502800","萬里區"
"252002","178-VK","2018/06/26 18:39:13","新北市三芝區民生街64巷10號","121.50365","25.2551416666667","6502100","三芝區"
"252003","249-BX","2018/06/26 18:39:14","新北市三芝區後厝里土地公坑73-3號","121.460498333333","25.24748","6502100","三芝區"
"252001","292-VK","2018/06/26 18:39:21","新北市三芝區中興街二段260號","121.501901666667","25.252925","6502100","三芝區"
"237004","KEA-2597","2018/06/26 18:39:14","新北市三峽區插角115號","121.408133333333","24.8704083333333","6500900","三峽區"
"237007","153-BY","2018/06/26 18:39:18","新北市三峽區柑樹路2巷11號","121.362123333333","24.9051966666667","6500900","三峽區"
"237009","210-TH","2018/06/26 18:39:20","新北市三峽區大同路240巷6號","121.365798333333","24.9260666666667","6500900","三峽區"
"237013","252-BX","2018/06/26 18:39:22","新北市三峽區大同路52號","121.376843333333","24.9289783333333","6500900","三峽區"
"237012","275-BY","2018/06/26 18:39:21","新北市三峽區三樹路340號","121.383963333333","24.943335","6500900","三峽區"
"237008","302-VK","2018/06/26 18:39:16","新北市三峽區白雞63-5號","121.39997","24.910795","6500900","三峽區"
"237014","433-BY","2018/06/26 18:39:19","新北市三峽區復興路480巷52-1號","121.361925","24.941235","6500900","三峽區"
"237011","KEA-2596","2018/06/26 18:39:11","新北市三峽區溪東路250號","121.408653333333","24.9315583333333","6500900","三峽區"
"237016","649-BX","2018/06/26 18:39:26","新北市三峽區竹崙路157號","121.436641666667","24.9057883333333","6500900","三峽區"
"237010","706-TV","2018/06/26 18:39:16","新北市三峽區復興路174巷4號","121.370698333333","24.9389116666667","6500900","三峽區"
"237005","AKY-6261","2018/06/26 18:39:28","新北市三峽區新興街4號","121.372591666667","24.935895","6500900","三峽區"
"236070","105-UM","2018/06/26 18:39:23","新北市土城區永豐路157巷29弄6-1號","121.468281666667","24.9815166666667","6501300","土城區"
"236042","107-UM","2018/06/26 18:39:24","新北市土城區裕民路55巷17號","121.449336666667","24.988805","6501300","土城區"
"236079","166-UM","2018/06/26 18:39:24","新北市土城區中央路四段176號","121.416566666667","24.9578866666667","6501300","土城區"
"236030","253-BX","2018/06/26 18:39:25","新北市土城區慶利街33號","121.438825","24.9744533333333","6501300","土城區"
"236026","269-VK","2018/06/26 18:39:07","新北市土城區忠義路49-1號","121.440443333333","24.96904","6501300","土城區"
"236014","270-VK","2018/06/26 18:39:18","新北市土城區清水路207巷17號","121.45979","24.98237","6501300","土城區"
"236038","271-VK","2018/06/26 18:39:21","新北市土城區明德路一段313巷9號","121.459771666667","24.975825","6501300","土城區"
"236021","401-BY","2018/06/26 18:39:21","新北市土城區永豐路12號","121.465738333333","24.9845683333333","6501300","土城區"
"236059","912-UM","2018/06/26 18:39:27","新北市土城區中央路三段285號","121.42585","24.96302","6501300","土城區"
"236049","913-UM","2018/06/26 18:39:29","新北市土城區明德路一段56號","121.465491666667","24.983635","6501300","土城區"
"236063","915-UM","2018/06/26 18:39:11","新北市土城區延壽路55巷9弄2號","121.469446666667","24.9916433333333","6501300","土城區"
"236055","AAC-216","2018/06/26 18:39:23","新北市土城區裕民路42號","121.448188333333","24.9883166666667","6501300","土城區"
"242058","986-R7","2018/06/26 18:39:23","新北市新莊區中正路887-17號","121.416145","25.0241883333333","6500500","新莊區"
"242054","751-BX","2018/06/26 18:39:21","新北市新莊區大安路10巷6號","121.430728333333","25.006515","6500500","新莊區"
"242025","613-BX","2018/06/26 18:39:08","新北市新莊區新泰路255巷83號","121.442113333333","25.03908","6500500","新莊區"
"242007","413-TV","2018/06/26 18:30:48","新北市新莊區新泰路357巷3弄57號","121.441993333333","25.0393466666667","6500500","新莊區"
"242061","353-BY","2018/06/26 18:39:14","新北市新莊區民安路186號","121.4253","25.0235766666667","6500500","新莊區"
"242009","132-UY","2018/06/26 18:39:14","新北市新莊區中港路271號","121.453486666667","25.043525","6500500","新莊區"
"242002","349-TH","2018/06/26 18:39:24","新北市新莊區瓊林南路77-41號","121.437693333333","25.0125433333333","6500500","新莊區"
"238023","601-UM","2018/06/26 18:39:09","新北市樹林區三福街114號","121.406445","25.0163166666667","6500700","樹林區"
"238019","599-UM","2018/06/26 18:39:12","新北市樹林區中華路190-16號","121.41173","24.9806383333333","6500700","樹林區"
"238018","571-TV","2018/06/26 18:39:12","新北市樹林區四德街22號","121.426303333333","24.992205","6500700","樹林區"
"238024","5061-A6","2018/06/26 18:39:27","新北市樹林區太順街49巷7號","121.418186666667","24.97889","6500700","樹林區"
"238022","KEA-2213","2018/06/26 18:39:31","新北市樹林區中華路377號","121.412533333333","24.9797733333333","6500700","樹林區"
"238025","303-VK","2018/06/26 18:39:24","新北市樹林區中山路三段22號","121.3956","24.9729783333333","6500700","樹林區"
"238017","283-BY","2018/06/26 18:39:15","新北市樹林區光興街50號","121.409848333333","25.00274","6500700","樹林區"
"238014","282-BY","2018/06/26 18:39:24","新北市樹林區大安路111巷11號","121.423108333333","24.9976433333333","6500700","樹林區"
"238020","268-VK","2018/06/26 18:39:19","新北市樹林區俊興街232號","121.4181","25.015475","6500700","樹林區"
"238026","172-UY","2018/06/26 18:39:29","新北市樹林區育德街78-1號","121.3881","24.968105","6500700","樹林區"
"238016","169-UY","2018/06/26 18:39:23","新北市樹林區日新街148巷35號","121.419521666667","24.9879133333333","6500700","樹林區"
"239006","891-R6","2018/06/26 18:39:25","新北市鶯歌區鶯桃路296巷46-1號","121.33571","24.9613216666667","6500800","鶯歌區"
"239008","527-UM","2018/06/26 18:39:27","新北市鶯歌區國際一路179號","121.336231666667","24.9764566666667","6500800","鶯歌區"
"239005","526-UM","2018/06/26 18:39:27","新北市鶯歌區鳳吉一街118號","121.327656666667","24.9747433333333","6500800","鶯歌區"
"239001","417-VK","2018/06/26 18:39:16","新北市鶯歌區中正三路195-1號","121.335855","24.9392216666667","6500800","鶯歌區"
"239003","360-BY","2018/06/26 18:39:25","新北市鶯歌區永和街55號","121.332658333333","24.967515","6500800","鶯歌區"
"239002","359-BY","2018/06/26 18:39:09","新北市鶯歌區中山路288號","121.343946666667","24.957145","6500800","鶯歌區"
"239004","193-VK","2018/06/26 18:39:13","新北市鶯歌區中正三路247巷67弄8號","121.334296666667","24.9363466666667","6500800","鶯歌區"
"221008","489-VK","2018/06/26 18:39:14","新北市汐止區康寧街901號","121.651403333333","25.07499","6501100","汐止區"
"221036","130-UY","2018/06/26 18:39:11","新北市汐止區忠孝東路340號","121.665183333333","25.069525","6501100","汐止區"
"221015","131-UY","2018/06/26 18:39:25","新北市汐止區鄉長路二段4號","121.668831666667","25.0807166666667","6501100","汐止區"
"221010","269-BY","2018/06/26 18:39:16","新北市汐止區汐萬路三段74巷2號","121.644385","25.0944683333333","6501100","汐止區"
"221012","278-VK","2018/06/26 18:39:13","新北市汐止區汐萬路一段165號","121.65297","25.0710516666667","6501100","汐止區"
"221023","279-VK","2018/06/26 18:39:28","新北市汐止區汐萬路一段312號","121.650438333333","25.075435","6501100","汐止區"
"221032","280-BY","2018/06/26 18:39:27","新北市汐止區福山街58巷18號","121.61801","25.0459866666667","6501100","汐止區"
"221027","281-BY","2018/06/26 18:39:20","新北市汐止區汐萬路一段147號","121.65331","25.0710783333333","6501100","汐止區"
"221029","298-VK","2018/06/26 18:39:15","新北市汐止區樟樹一路125號","121.642055","25.064805","6501100","汐止區"
"221021","299-VK","2018/06/26 18:39:19","新北市汐止區新興路51號","121.657191666667","25.0630366666667","6501100","汐止區"
"221031","353-TW","2018/06/26 18:39:17","新北市汐止區福德一路270號","121.632243333333","25.0640016666667","6501100","汐止區"
"221035","622-UM","2018/06/26 18:39:27","新北市汐止區禮門街1號","121.656735","25.0671533333333","6501100","汐止區"
"221025","623-UM","2018/06/26 18:39:24","新北市汐止區仁愛路119巷10號","121.662386666667","25.0640366666667","6501100","汐止區"
"221038","646-BX","2018/06/26 18:39:16","新北市汐止區汐萬路一段312號","121.650615","25.0753116666667","6501100","汐止區"
"221033","647-BX","2018/06/26 18:39:17","新北市汐止區南勢街1巷1號","121.627015","25.0374283333333","6501100","汐止區"
"221002","707-TV","2018/06/26 18:39:21","新北市汐止區中興路25號","121.636913333333","25.0596133333333","6501100","汐止區"
"221018","753-BX","2018/06/26 18:39:17","新北市汐止區茄苳路258號","121.67174","25.0681666666667","6501100","汐止區"
"220079","145-BY","2018/06/26 18:39:18","新北市板橋區館前西路162號","121.45285","25.0085133333333","6500100","板橋區"
"220080","200-UY","2018/06/26 18:39:17","新北市板橋區大觀路二段265巷76弄35號","121.441153333333","24.9967433333333","6500100","板橋區"
"220082","610-BX","2018/06/26 18:39:19","新北市板橋區大觀路三段5-4號","121.43255","24.99592","6500100","板橋區"
"220055","256-TC","2018/06/26 18:39:10","新北市板橋區華東街1-9號","121.448161666667","24.9949083333333","6500100","板橋區"
"220103","257-TC","2018/06/26 18:39:21","新北市板橋區民生路二段161巷1號","121.470198333333","25.0198916666667","6500100","板橋區"
"220056","276-BY","2018/06/26 18:39:24","新北市板橋區華東街1號","121.448415","24.9941466666667","6500100","板橋區"
"220094","280-UM","2018/06/26 18:39:20","新北市板橋區民生路二段161巷3號","121.470171666667","25.0198216666667","6500100","板橋區"
"220071","283-VK","2018/06/26 18:39:15","新北市板橋區華東街1號","121.44839","24.9941416666667","6500100","板橋區"
"220083","286-VK","2018/06/26 18:39:20","新北市板橋區大觀路二段111號","121.446218333333","25.0016066666667","6500100","板橋區"
"220081","287-VK","2018/06/26 18:39:24","新北市板橋區板城路421號","121.448066666667","24.9963283333333","6500100","板橋區"
"220061","293-UM","2018/06/26 18:39:24","新北市板橋區民生路二段120號","121.470493333333","25.0195216666667","6500100","板橋區"
"220084","296-UM","2018/06/26 18:39:15","新北市板橋區大觀路二段力行2巷65號","121.445965","24.9989616666667","6500100","板橋區"
"220075","303-R5","2018/06/26 18:39:25","新北市板橋區華東街322號","121.452743333333","25.0031866666667","6500100","板橋區"
"220062","305-R5","2018/06/26 18:39:30","新北市板橋區民生路二段120號","121.470413333333","25.01964","6500100","板橋區"
"220065","461-BY","2018/06/26 18:39:26","新北市板橋區海山路51號","121.466941666667","25.0102933333333","6500100","板橋區"
"220064","486-VK","2018/06/26 18:39:25","新北市板橋區民權路45號","121.462076666667","25.0111616666667","6500100","板橋區"
"220035","560-BX","2018/06/26 18:39:12","新北市板橋區南雅西路二段145巷10號","121.451598333333","25.0119","6500100","板橋區"
"220057","686-BX","2018/06/26 18:39:23","新北市板橋區華東街1-9號","121.4482","24.9948566666667","6500100","板橋區"
"220054","741-BX","2018/06/26 18:39:19","新北市板橋區南雅南路二段144巷46號","121.449905","24.9970316666667","6500100","板橋區"
"220077","806-UM","2018/06/26 18:39:19","新北市板橋區大觀路二段431-1號","121.441266666667","24.9950916666667","6500100","板橋區"
"220074","895-R6","2018/06/26 18:39:12","新北市板橋區南雅南路二段7巷12號","121.454345","25.0029416666667","6500100","板橋區"
"220073","985-R7","2018/06/26 18:39:22","新北市板橋區貴興路52號","121.457005","25.0031533333333","6500100","板橋區"
"235068","KEA-2873","2018/06/26 18:39:29","新北市中和區中正路155號","121.498996666667","24.9936133333333","6500300","中和區"
"235061","KEA-2875","2018/06/26 18:39:16","新北市中和區民享街92巷6號","121.474713333333","24.999935","6500300","中和區"
