"lineid","car","time","location","longitude","latitude","cityid","cityname"
"234046","148-BY","2018/06/26 18:59:17","新北市永和區得和路373巷31弄9號","121.52466","25.000615","6500400","永和區"
"234007","207-UY","2018/06/26 18:59:19","新北市永和區永和路二段82號","121.51493","25.0112866666667","6500400","永和區"
"234081","298-R6","2018/06/26 18:59:17","新北市永和區永貞路39巷13號","121.522516666667","25.0064133333333","6500400","永和區"
"234038","336-UY","2018/06/26 18:59:26","新北市永和區成功路二段207號","121.52658","24.9958533333333","6500400","永和區"
"234064","337-UY","2018/06/26 18:59:23","新北市永和區秀朗路一段199號","121.517906666667","25.0035483333333","6500400","永和區"
"234086","338-UY","2018/06/26 18:59:12","新北市永和區中正路393號","121.517281666667","25.004005","6500400","永和區"
"234070","552-UM","2018/06/26 18:59:14","新北市永和區竹林路96巷4號","121.51911","25.0121766666667","6500400","永和區"
"234017","745-BX","2018/06/26 18:59:25","新北市永和區永和路二段297號","121.51608","25.016025","6500400","永和區"
"234030","746-BX","2018/06/26 18:59:24","新北市永和區秀朗路二段269號","121.526186666667","24.9986133333333","6500400","永和區"
"234054","KEA-2590","2018/06/26 18:59:23","新北市永和區竹林路64號","121.518365","25.013615","6500400","永和區"
"234013","KEA-2591","2018/06/26 18:59:27","新北市永和區中山路一段60巷10號","121.513203333333","25.010935","6500400","永和區"
"234061","AAD-866","2018/06/26 18:59:19","新北市永和區福和路307號","121.516266666667","25.00709","6500400","永和區"
"234042","862-TW","2018/06/26 18:59:11","新北市永和區永貞路267號","121.511823333333","25.0047583333333","6500400","永和區"
"234050","863-TW","2018/06/26 18:59:09","新北市永和區保安路36號","121.510425","25.01698","6500400","永和區"
"234026","9371-KE","2018/06/26 18:59:19","新北市永和區安樂路453號","121.514283333333","25.0050266666667","6500400","永和區"
"234011","9373-KE","2018/06/26 18:59:29","新北市永和區忠孝街40號","121.51456","25.015685","6500400","永和區"
"249005","172-UM","2018/06/26 18:59:16","新北市八里區長道坑11號","121.395603333333","25.1227383333333","6502300","八里區"
"249001","173-UM","2018/06/26 18:59:19","新北市八里區渡船頭街3-1號","121.4344","25.1583133333333","6502300","八里區"
"249003","593-UM","2018/06/26 18:59:12","新北市八里區博物館路10-1號","121.415063333333","25.1642566666667","6502300","八里區"
"248016","026-BX","2018/06/26 18:59:20","新北市五股區成泰路三段543巷16號","121.450953333333","25.1022183333333","6501500","五股區"
"248006","077-UY","2018/06/26 18:59:23","新北市五股區中興路一段32號","121.468653333333","25.07248","6501500","五股區"
"248008","095-VK","2018/06/26 18:59:17","新北市五股區中興路一段128巷43號","121.465683333333","25.075085","6501500","五股區"
"248020","225-UY","2018/06/26 18:59:31","新北市五股區凌雲路三段71-6號","121.424383333333","25.1245533333333","6501500","五股區"
"248012","247-BX","2018/06/26 18:59:20","新北市五股區工商路38號","121.43933","25.083735","6501500","五股區"
"248004","677-BX","2018/06/26 18:59:11","新北市五股區民義路二段42號","121.414913333333","25.10062","6501500","五股區"
"248002","678-BX","2018/06/26 18:59:15","新北市五股區凌雲路一段85號","121.4507","25.1013466666667","6501500","五股區"
"248010","682-TV","2018/06/26 18:59:30","新北市五股區水碓七路28號","121.428921666667","25.0715966666667","6501500","五股區"
"234023","9380-KE","2018/06/26 18:59:19","新北市永和區環河東路二段10號","121.522318333333","25.0132033333333","6500400","永和區"
"234077","969-R7","2018/06/26 18:59:16","新北市永和區智光街32巷1號","121.517786666667","24.9987516666667","6500400","永和區"
"234074","AAC-211","2018/06/26 18:59:23","新北市永和區豫溪街217巷19號","121.52488","25.0101466666667","6500400","永和區"
"234067","AAC-212","2018/06/26 18:59:25","新北市永和區自由街52號","121.513646666667","25.0060183333333","6500400","永和區"
"234003","AAC-295","2018/06/26 18:59:20","新北市永和區和平街19號","121.513506666667","25.0099166666667","6500400","永和區"
"232011","375-UM","2018/06/26 18:59:28","新北市坪林區水聳淒坑19-1號","121.712561666667","24.9348333333333","6502000","坪林區"
"244007","080-UY","2018/06/26 18:59:12","新北市林口區太平里20-1號","121.377536666667","25.1155716666667","6501700","林口區"
"244019","403-UM","2018/06/26 18:59:15","新北市林口區麗園二街42巷14號","121.381705","25.067045","6501700","林口區"
"244013","742-UY","2018/06/26 18:59:14","新北市林口區麗園一街6巷2-3號","121.376438333333","25.0699016666667","6501700","林口區"
"244009","410-SL","2018/06/26 18:59:11","新北市林口區竹林路446巷2弄10號","121.38792","25.0856833333333","6501700","林口區"
"244023","483-VK","2018/06/26 18:59:17","新北市林口區民權路153號","121.373953333333","25.0836166666667","6501700","林口區"
"244017","485-VK","2018/06/26 18:59:10","新北市林口區文化二路一段68巷39號","121.366988333333","25.069065","6501700","林口區"
"244011","701-TV","2018/06/26 18:59:09","新北市林口區粉寮路一段25號","121.396416666667","25.0768","6501700","林口區"
"244025","837-TS","2018/06/26 18:59:26","新北市林口區南勢街192巷7號","121.360975","25.07498","6501700","林口區"
"244021","838-TS","2018/06/26 18:59:13","新北市八里區長道坑14-2號","121.394078333333","25.1196583333333","6501700","林口區"
"243013","AAD-798","2018/06/26 18:59:10","新北市泰山區明志路三段239號","121.423488333333","25.03778","6501600","泰山區"
"243009","297-R6","2018/06/26 18:59:25","新北市泰山區泰林路二段362號","121.428751666667","25.0636016666667","6501600","泰山區"
"243016","380-SR","2018/06/26 18:59:27","新北市泰山區明志路二段135號","121.427795","25.0507766666667","6501600","泰山區"
"243015","421-VK","2018/06/26 18:59:23","新北市泰山區泰林路二段216號","121.432781666667","25.06185","6501600","泰山區"
"243011","KEA-2215","2018/06/26 18:59:18","新北市泰山區明志路二段246-1號","121.427016666667","25.0481533333333","6501600","泰山區"
"243010","KEA-2216","2018/06/26 18:59:25","新北市泰山區辭修路26巷16號","121.429285","25.0585866666667","6501600","泰山區"
"243012","646-TV","2018/06/26 18:59:25","新北市泰山區同義街13巷32號","121.432263333333","25.0571216666667","6501600","泰山區"
"243014","680-BX","2018/06/26 18:59:23","新北市泰山區黎明路23號","121.42092","25.0625866666667","6501600","泰山區"
"222003","436-BY","2018/06/26 18:59:17","新北市深坑區深南路51-1號","121.621345","25.01015","6501800","深坑區"
"222002","659-BX","2018/06/26 18:59:23","新北市深坑區文山路一段31巷2號","121.629848333333","25.0033566666667","6501800","深坑區"
"231041","002-UM","2018/06/26 18:59:30","新北市新店區環河路76號","121.53701","24.9632","6500600","新店區"
"231059","046-UY","2018/06/26 18:59:25","新北市新店區安華路28-1號","121.519541666667","24.9608616666667","6500600","新店區"
"231040","047-UY","2018/06/26 18:59:21","新北市新店區中正路379號","121.534755","24.9767616666667","6500600","新店區"
"231044","106-UY","2018/06/26 18:59:11","新北市新店區寶中路72號","121.547855","24.9806083333333","6500600","新店區"
"231053","108-UY","2018/06/26 18:59:27","新北市新店區屈尺路6號","121.549438333333","24.9228433333333","6500600","新店區"
"231054","110-UY","2018/06/26 18:59:28","新北市新店區新店路23號","121.540171666667","24.9528466666667","6500600","新店區"
"231048","187-VK","2018/06/26 18:59:30","新北市新店區德正街23巷12-1號","121.544716666667","24.9721483333333","6500600","新店區"
"231046","188-VK","2018/06/26 18:59:09","新北市新店區直潭五街30號","121.5341","24.941575","6500600","新店區"
"231042","268-BY","2018/06/26 18:59:27","新北市新店區中正路30號","121.545093333333","24.9697816666667","6500600","新店區"
"231051","278-BY","2018/06/26 18:59:22","新北市新店區百忍街28號","121.534063333333","24.9757816666667","6500600","新店區"
"231050","AAD-862","2018/06/26 18:59:19","新北市新店區北宜路二段30巷5弄2號","121.547985","24.9508533333333","6500600","新店區"
"231058","3713-VJ","2018/06/26 18:59:15","新北市新店區光明街92號","121.539015","24.9602516666667","6500600","新店區"
"231066","4716-K9","2018/06/26 18:59:16","新北市新店區安豐路30-1號","121.500856666667","24.9567333333333","6500600","新店區"
"231056","4715-K9","2018/06/26 18:59:25","新北市新店區二十張路33巷16號","121.538908333333","24.9810116666667","6500600","新店區"
"231067","4772-VM","2018/06/26 18:59:19","新北市新店區安華路3號","121.519163333333","24.9603666666667","6500600","新店區"
"231065","512-UM","2018/06/26 18:59:13","新北市新店區安祥路190巷1號","121.47839","24.95667","6500600","新店區"
"231049","513-UM","2018/06/26 18:59:20","新北市新店區中正路454-5號","121.534436666667","24.9790366666667","6500600","新店區"
"231045","617-UM","2018/06/26 18:59:16","新北市新店區北宜路一段36號","121.538271666667","24.9566783333333","6500600","新店區"
"231061","619-UM","2018/06/26 18:59:26","新北市新店區安華路28-1號","121.51942","24.9608566666667","6500600","新店區"
"231063","641-BX","2018/06/26 18:59:21","新北市新店區安忠路57巷11弄14號","121.515555","24.9580016666667","6500600","新店區"
"231064","719-UM","2018/06/26 18:59:11","新北市新店區安一路一段1-1號","121.519468333333","24.9612216666667","6500600","新店區"
"231062","720-UM","2018/06/26 18:59:13","新北市新店區安豐路60-1號","121.497796666667","24.95364","6500600","新店區"
"231060","897-TW","2018/06/26 18:59:19","新北市新店區安華路30巷3號","121.518695","24.9584133333333","6500600","新店區"
"231043","899-TW","2018/06/26 18:59:19","新北市新店區北新路一段128-2號","121.542638333333","24.9703783333333","6500600","新店區"
"231055","AKT-0513","2018/06/26 18:59:18","新北市新店區環河路116號","121.537223333333","24.96696","6500600","新店區"
"235066","003-UY","2018/06/26 18:59:23","新北市中和區中山路二段131巷8號","121.502728333333","25.0024566666667","6500300","中和區"
"235028","005-UY","2018/06/26 18:59:26","新北市中和區泰和街38巷41號","121.498315","25.0015016666667","6500300","中和區"
"235063","006-UY","2018/06/26 18:59:20","新北市中和區中正路577號","121.486333333333","24.9944983333333","6500300","中和區"
"235056","096-UM","2018/06/26 18:59:27","新北市中和區新民街96號","121.481223333333","25.0083466666667","6500300","中和區"
"235039","097-UM","2018/06/26 18:59:24","新北市中和區安樂路217巷32號","121.513603333333","24.9982116666667","6500300","中和區"
"235065","098-UM","2018/06/26 18:59:23","新北市中和區勝利路35巷6號","121.498901666667","25.0075366666667","6500300","中和區"
"235040","150-BY","2018/06/26 18:59:17","新北市中和區宜安路19號","121.513083333333","24.9958116666667","6500300","中和區"
"235058","151-BY","2018/06/26 18:59:25","新北市中和區連城路428巷13號","121.479853333333","24.9955633333333","6500300","中和區"
"235055","183-VK","2018/06/26 18:59:18","新北市中和區民德路25巷1號","121.469126666667","25.002715","6500300","中和區"
"235038","185-VK","2018/06/26 18:59:22","新北市中和區立人街24-5號","121.51884","24.99416","6500300","中和區"
"235049","186-VK","2018/06/26 18:59:22","新北市中和區景安路167巷17號","121.506336666667","24.9948383333333","6500300","中和區"
"235067","255-BX","2018/06/26 18:59:25","新北市中和區民樂路77號","121.484386666667","25.00129","6500300","中和區"
"235044","293-VK","2018/06/26 18:59:13","新北市中和區中興街161巷4弄2號","121.500425","24.9908833333333","6500300","中和區"
"235072","301-VK","2018/06/26 18:59:08","新北市中和區福美路307號","121.496988333333","25.0047266666667","6500300","中和區"
"235043","352-BY","2018/06/26 18:59:23","新北市中和區秀朗路三段101號","121.526411666667","24.9948383333333","6500300","中和區"
"235042","KEA-2878","2018/06/26 18:59:29","新北市中和區秀朗路三段36巷14號","121.525891666667","24.9959416666667","6500300","中和區"
"235050","4979-A6","2018/06/26 18:59:20","新北市中和區忠孝街2-9號","121.509298333333","24.982915","6500300","中和區"
"235069","4980-A6","2018/06/26 18:59:21","新北市中和區圓通路109巷16號","121.49983","24.9961566666667","6500300","中和區"
"235070","558-UM","2018/06/26 18:59:28","新北市中和區安和路217號","121.505995","24.99943","6500300","中和區"
"235045","565-BX","2018/06/26 18:59:21","新北市中和區景新街467巷20弄7號","121.514346666667","24.9880116666667","6500300","中和區"
"235054","640-BX","2018/06/26 18:59:29","新北市中和區中山路三段147號","121.473716666667","25.0060633333333","6500300","中和區"
"235060","647-TV","2018/06/26 18:59:24","新北市中和區民治街11巷1號","121.475211666667","25.0043216666667","6500300","中和區"
"235047","732-UM","2018/06/26 18:59:10","新北市中和區興南路二段54巷2-8號","121.506025","24.9855416666667","6500300","中和區"
"235046","733-UM","2018/06/26 18:59:32","新北市中和區興南路二段11號","121.508195","24.9861466666667","6500300","中和區"
"235062","800-TS","2018/06/26 18:59:12","新北市中和區中山路二段408號","121.490065","25.0039083333333","6500300","中和區"
"235057","801-TS","2018/06/26 18:59:25","新北市中和區民利街71號","121.478658333333","24.9984483333333","6500300","中和區"
"235041","802-TS","2018/06/26 18:59:26","新北市中和區宜安路125號","121.509953333333","24.9980916666667","6500300","中和區"
"235052","805-TS","2018/06/26 18:59:21","新北市中和區興南路二段244號","121.503353333333","24.9820733333333","6500300","中和區"
"235048","896-TW","2018/06/26 18:59:18","新北市中和區華新街109巷16號","121.50872","24.9809766666667","6500300","中和區"
"235053","900-TW","2018/06/26 18:59:19","新北市中和區壽德街20-1號","121.466188333333","24.994865","6500300","中和區"
"235051","157-BY","2018/06/26 18:59:18","新北市中和區忠孝街106巷33號","121.51337","24.9843383333333","6500300","中和區"
"235037","AAC-213","2018/06/26 18:59:20","新北市中和區秀朗路三段10巷37弄4號","121.524148333333","24.9959933333333","6500300","中和區"
"235059","AAC-215","2018/06/26 18:59:25","新北市中和區圓通路367巷20弄29號","121.491308333333","24.9881933333333","6500300","中和區"
"220016","013-TV","2018/06/26 18:59:24","新北市板橋區三民路一段31巷42號","121.48114","25.0229666666667","6500100","板橋區"
"220072","015-TV","2018/06/26 18:59:22","新北市板橋區溪北路154號","121.43045","24.988245","6500100","板橋區"
"220086","073-UY","2018/06/26 18:59:26","新北市板橋區中正路80巷19號","121.45755","25.0146933333333","6500100","板橋區"
"220106","075-UY","2018/06/26 18:59:14","新北市板橋區文化路二段124巷28-2號","121.471213333333","25.0256433333333","6500100","板橋區"
"220069","AAD-861","2018/06/26 18:59:21","新北市板橋區華興街77號","121.456945","25.0050516666667","6500100","板橋區"
"226004","205-ST","2018/06/26 18:59:23","新北市平溪區南山里南山坪5號","121.76146","25.0324133333333","6502400","平溪區"
"228001","212-TW","2018/06/26 18:59:18","新北市貢寮區仁理村研海街12-1號","121.923828333333","25.05164","6502600","貢寮區"
"228002","663-BX","2018/06/26 18:59:15","新北市貢寮區福隆里東興街106巷25弄1號","121.946425","25.0183283333333","6502600","貢寮區"
"228003","828-UM","2018/06/26 18:59:24","新北市貢寮區和美里龍洞街60號","121.914246666667","25.1163183333333","6502600","貢寮區"
"224010","AGQ-8101","2018/06/26 18:57:24","新北市瑞芳區輕便路81號","121.845141666667","25.1092916666667","6501200","瑞芳區"
"224006","676-BX","2018/06/26 18:59:20","新北市瑞芳區民權街6巷16號","121.80731","25.1065633333333","6501200","瑞芳區"
"224002","639-TC","2018/06/26 18:59:09","新北市瑞芳區靜安路四段3號","121.793588333333","25.081025","6501200","瑞芳區"
"224008","285-BY","2018/06/26 18:59:26","新北市瑞芳區逢甲路229號","121.802803333333","25.1118116666667","6501200","瑞芳區"
"224007","275-VK","2018/06/26 18:59:13","新北市瑞芳區中央路48巷180號","121.75852","25.1027166666667","6501200","瑞芳區"
"224009","273-VK","2018/06/26 18:58:55","新北市瑞芳區洞頂路148號","121.859853333333","25.1178","6501200","瑞芳區"
"224005","271-BY","2018/06/26 18:59:27","新北市瑞芳區瑞濱路67號","121.822168333333","25.12096","6501200","瑞芳區"
"227003","642-TC","2018/06/26 18:59:11","新北市雙溪區平林里康福家園10號","121.858708333333","25.03733","6502500","雙溪區"
"227009","400-TW","2018/06/26 18:59:19","新北市雙溪區牡丹里中正路58巷23號","121.866425","25.0415466666667","6502500","雙溪區"
"253005","032-BX","2018/06/26 18:59:19","新北市石門區中央路37-5號","121.569555","25.29637","6502200","石門區"
"253006","295-VK","2018/06/26 18:59:20","新北市石門區八甲4-1號","121.521176666667","25.2825283333333","6502200","石門區"
"222001","KEA-2212","2018/06/26 18:59:21","新北市深坑區北深路一段242號","121.629873333333","25.0088016666667","6501800","深坑區"
"208002","KEA-2872","2018/06/26 18:59:27","新北市金山區信義路32號","121.63524","25.219695","6502700","金山區"
"208003","665-BX","2018/06/26 18:59:15","新北市金山區中正路36號","121.635281666667","25.2221766666667","6502700","金山區"
"208001","761-BX","2018/06/26 18:59:22","新北市金山區中山路79號","121.640458333333","25.2185483333333","6502700","金山區"
"251005","010-UM","2018/06/26 18:59:28","新北市淡水區中正路18巷6號","121.437661666667","25.1728233333333","6501000","淡水區"
"251013","KEA-2871","2018/06/26 18:59:10","新北市淡水區頂田寮路1111號","121.491286666667","25.2130383333333","6501000","淡水區"
"251016","179-VK","2018/06/26 18:59:22","新北市淡水區淡金路三段329號","121.448706666667","25.2062166666667","6501000","淡水區"
"251014","180-VK","2018/06/26 18:59:11","新北市淡水區小中寮32-1號","121.49128","25.226125","6501000","淡水區"
"251015","182-VK","2018/06/26 18:59:24","新北市淡水區糞箕湖62號","121.485196666667","25.17225","6501000","淡水區"
"251010","413-VK","2018/06/26 18:59:25","新北市淡水區淡海路92號","121.422966666667","25.1819483333333","6501000","淡水區"
"251007","442-VK","2018/06/26 18:59:18","新北市淡水區民生路113巷1弄47號","121.462658333333","25.1386066666667","6501000","淡水區"
"251001","559-UM","2018/06/26 18:59:17","新北市淡水區自強路58-1號","121.463318333333","25.12757","6501000","淡水區"
"251002","672-BX","2018/06/26 18:59:30","新北市淡水區中正東路49號","121.446586666667","25.1680333333333","6501000","淡水區"
"251003","766-UM","2018/06/26 18:59:08","新北市淡水區中山北路一段149巷31號","121.443045","25.1779516666667","6501000","淡水區"
"207003","550-UM","2018/06/26 18:59:29","新北市萬里區大鵬里頂社1-2號","121.657325","25.2097083333333","6502800","萬里區"
"207004","291-VK","2018/06/26 18:59:25","新北市萬里區萬里里獅頭路23號","121.69319","25.1782266666667","6502800","萬里區"
"252002","178-VK","2018/06/26 18:59:13","新北市三芝區中正路一段68號","121.503755","25.2577333333333","6502100","三芝區"
"252003","249-BX","2018/06/26 18:59:14","新北市三芝區後厝里北勢子42-1號","121.471835","25.2522833333333","6502100","三芝區"
"252001","292-VK","2018/06/26 18:59:21","新北市三芝區中興街二段260號","121.501785","25.2529933333333","6502100","三芝區"
"237004","KEA-2597","2018/06/26 18:59:14","新北市三峽區有木205-1號","121.439028333333","24.8516766666667","6500900","三峽區"
"237007","153-BY","2018/06/26 18:59:18","新北市三峽區中正路二段269號","121.365961666667","24.911765","6500900","三峽區"
"237013","252-BX","2018/06/26 18:59:22","新北市三峽區光明路69巷25號","121.376735","24.929235","6500900","三峽區"
"237012","275-BY","2018/06/26 18:59:20","新北市三峽區三樹路222巷150-1號","121.386015","24.942835","6500900","三峽區"
"237008","302-VK","2018/06/26 18:59:16","新北市三峽區中正路一段456號","121.370638333333","24.9217333333333","6500900","三峽區"
"237014","433-BY","2018/06/26 18:59:19","新北市三峽區隆恩街232號","121.357778333333","24.9411883333333","6500900","三峽區"
"237011","KEA-2596","2018/06/26 18:59:31","新北市三峽區溪北街109號","121.398221666667","24.9354533333333","6500900","三峽區"
"237016","649-BX","2018/06/26 18:59:25","新北市三峽區安坑34-8號","121.451155","24.92986","6500900","三峽區"
"237010","706-TV","2018/06/26 18:59:28","新北市三峽區復興路47號","121.373426666667","24.9369816666667","6500900","三峽區"
"237005","AKY-6261","2018/06/26 18:59:28","新北市三峽區中山路459巷163-3號","121.348631666667","24.932985","6500900","三峽區"
"236070","105-UM","2018/06/26 18:59:23","新北市土城區金城路二段211號","121.454348333333","24.9816","6501300","土城區"
"236042","107-UM","2018/06/26 18:59:23","新北市土城區學府路一段209巷10號","121.451993333333","24.984065","6501300","土城區"
"236079","166-UM","2018/06/26 18:59:24","新北市土城區龍泉路10-1號","121.409556666667","24.9492616666667","6501300","土城區"
"236030","253-BX","2018/06/26 18:59:25","新北市土城區慶利街9號","121.439586666667","24.9736233333333","6501300","土城區"
"236026","269-VK","2018/06/26 18:59:27","新北市土城區光明街7號","121.442","24.9747166666667","6501300","土城區"
"236014","270-VK","2018/06/26 18:59:18","新北市土城區延和路13巷1號","121.463603333333","24.98849","6501300","土城區"
"236038","271-VK","2018/06/26 18:59:26","新北市土城區仁愛路20-2號","121.460981666667","24.9801116666667","6501300","土城區"
"236021","401-BY","2018/06/26 18:59:21","新北市土城區延吉街168巷10號","121.468005","24.9860583333333","6501300","土城區"
"236059","912-UM","2018/06/26 18:59:27","新北市土城區明德路一段385-1號","121.45323","24.9805033333333","6501300","土城區"
"236049","913-UM","2018/06/26 18:59:27","新北市土城區青雲路322巷2弄4號","121.458045","24.97729","6501300","土城區"
"236063","915-UM","2018/06/26 18:59:23","新北市土城區延和路90號","121.466481666667","24.9894266666667","6501300","土城區"
"236055","AAC-216","2018/06/26 18:59:16","新北市土城區學成路97-2號","121.450425","24.9887416666667","6501300","土城區"
"242058","986-R7","2018/06/26 18:59:23","新北市新莊區新泰路357巷3弄57號","121.442091666667","25.0393883333333","6500500","新莊區"
"242007","413-TV","2018/06/26 18:59:20","新北市新莊區新泰路357巷3弄57號","121.442063333333","25.03944","6500500","新莊區"
"242002","349-TH","2018/06/26 18:59:24","新北市新莊區瓊林南路77-41號","121.437655","25.01255","6500500","新莊區"
"238023","601-UM","2018/06/26 18:59:09","新北市樹林區大慶街158號","121.396813333333","25.01304","6500700","樹林區"
"238019","599-UM","2018/06/26 18:59:12","新北市樹林區東榮街91巷2弄2號","121.416016666667","24.9823","6500700","樹林區"
"238022","KEA-2213","2018/06/26 18:59:27","新北市樹林區東興街16巷6弄2號","121.409016666667","24.9781383333333","6500700","樹林區"
"238021","KEA-2539","2018/06/26 18:59:26","新北市樹林區柑園街二段328巷6弄29號","121.373265","24.9526516666667","6500700","樹林區"
"238025","303-VK","2018/06/26 18:59:29","新北市樹林區中山路三段198號","121.387035","24.9689016666667","6500700","樹林區"
"238017","283-BY","2018/06/26 18:59:15","新北市樹林區光興街83-8號","121.40987","25.0026483333333","6500700","樹林區"
"238014","282-BY","2018/06/26 18:59:24","新北市樹林區千歲街61巷48號","121.425318333333","24.9987066666667","6500700","樹林區"
"238020","268-VK","2018/06/26 18:59:15","新北市樹林區俊英街280號","121.423731666667","25.0132983333333","6500700","樹林區"
"238026","172-UY","2018/06/26 18:59:29","新北市樹林區吉祥街31號","121.396148333333","24.973915","6500700","樹林區"
"238016","169-UY","2018/06/26 18:42:03","新北市樹林區文化街25巷3號","121.419185","24.9874533333333","6500700","樹林區"
"239006","891-R6","2018/06/26 18:59:25","新北市鶯歌區鶯桃路296巷98號","121.336955","24.96219","6500800","鶯歌區"
"239008","527-UM","2018/06/26 18:59:30","新北市鶯歌區國際二路14巷6號","121.337821666667","24.97478","6500800","鶯歌區"
"239005","526-UM","2018/06/26 18:59:27","新北市鶯歌區中湖街76號","121.347961666667","24.972805","6500800","鶯歌區"
"239001","417-VK","2018/06/26 18:59:16","新北市鶯歌區西湖街2-11號","121.341203333333","24.9568333333333","6500800","鶯歌區"
"239003","360-BY","2018/06/26 18:59:25","新北市鶯歌區鶯桃路419號","121.332695","24.9647983333333","6500800","鶯歌區"
"239002","359-BY","2018/06/26 18:59:29","新北市鶯歌區中山路125號","121.3498","24.9569333333333","6500800","鶯歌區"
"239004","193-VK","2018/06/26 18:59:13","新北市鶯歌區鶯華新村39-3號","121.331045","24.9339816666667","6500800","鶯歌區"
"221008","489-VK","2018/06/26 18:59:14","新北市汐止區伯爵街2巷27號","121.64299","25.075615","6501100","汐止區"
"221036","130-UY","2018/06/26 18:59:31","新北市汐止區信義路1號","121.662595","25.0691733333333","6501100","汐止區"
"221015","131-UY","2018/06/26 18:59:25","新北市汐止區中正路311號","121.655871666667","25.067665","6501100","汐止區"
"221010","269-BY","2018/06/26 18:59:16","新北市汐止區康寧街901號","121.6514","25.075015","6501100","汐止區"
"221012","278-VK","2018/06/26 18:59:13","新北市汐止區康寧街901號","121.650798333333","25.0752533333333","6501100","汐止區"
"221023","279-VK","2018/06/26 18:59:08","新北市汐止區康寧街901號","121.651015","25.0752433333333","6501100","汐止區"
"221032","280-BY","2018/06/26 18:59:27","新北市汐止區橫科路407巷30弄28-5號","121.627588333333","25.0488216666667","6501100","汐止區"
"221027","281-BY","2018/06/26 18:59:20","新北市汐止區康寧街901號","121.651423333333","25.07499","6501100","汐止區"
"221029","298-VK","2018/06/26 18:59:15","新北市汐止區樟樹一路254號","121.642438333333","25.0672016666667","6501100","汐止區"
"221021","299-VK","2018/06/26 18:59:19","新北市汐止區康寧街901號","121.651463333333","25.0750116666667","6501100","汐止區"
"221031","353-TW","2018/06/26 18:59:17","新北市汐止區福德二路156巷12號","121.630083333333","25.0655033333333","6501100","汐止區"
"221035","622-UM","2018/06/26 18:59:27","新北市汐止區康寧街901號","121.65106","25.075185","6501100","汐止區"
"221025","623-UM","2018/06/26 18:59:24","新北市汐止區汐萬路一段256巷3號","121.652426666667","25.0745783333333","6501100","汐止區"
"221038","646-BX","2018/06/26 18:59:16","新北市汐止區汐萬路一段312號","121.650693333333","25.0753166666667","6501100","汐止區"
"221033","647-BX","2018/06/26 18:59:17","新北市汐止區南勢街1巷1號","121.627043333333","25.0375466666667","6501100","汐止區"
"221002","707-TV","2018/06/26 18:59:21","新北市汐止區大同路一段4號","121.62111","25.0550433333333","6501100","汐止區"
"221018","753-BX","2018/06/26 18:59:17","新北市汐止區汐萬路一段39-3號","121.655051666667","25.0692816666667","6501100","汐止區"
"220079","145-BY","2018/06/26 18:59:19","新北市板橋區民權路202巷10弄1號","121.460405","25.01536","6500100","板橋區"
"220080","200-UY","2018/06/26 18:59:17","新北市板橋區大觀路二段265巷3弄11號","121.443326666667","24.9982266666667","6500100","板橋區"
"220082","610-BX","2018/06/26 18:59:30","新北市板橋區滿平街133號","121.428848333333","24.9882483333333","6500100","板橋區"
"220101","245-BX","2018/06/26 18:59:25","新北市板橋區文化路二段182巷27號","121.472443333333","25.02649","6500100","板橋區"
"220055","256-TC","2018/06/26 18:59:10","新北市板橋區中山路一段158巷17號","121.46638","25.0113783333333","6500100","板橋區"
"220103","257-TC","2018/06/26 18:59:21","新北市板橋區縣民大道三段32號","121.471563333333","25.0185416666667","6500100","板橋區"
"220056","276-BY","2018/06/26 18:59:24","新北市板橋區信義路161號","121.458423333333","24.9925683333333","6500100","板橋區"
"220094","280-UM","2018/06/26 18:59:20","新北市板橋區文化路二段76號","121.469431666667","25.0249","6500100","板橋區"
"220071","283-VK","2018/06/26 18:59:15","新北市板橋區重慶路247號","121.4634","25.0004816666667","6500100","板橋區"
"220053","285-VK","2018/06/26 18:59:20","新北市板橋區中山路二段89巷48號","121.473766666667","25.017235","6500100","板橋區"
"220083","286-VK","2018/06/26 18:59:20","新北市板橋區大觀路一段38巷156弄5號","121.442365","25.0048016666667","6500100","板橋區"
"220081","287-VK","2018/06/26 18:59:24","新北市板橋區光華街19巷70號","121.452915","25.0119416666667","6500100","板橋區"
"220090","288-VK","2018/06/26 18:59:18","新北市板橋區四維路162號","121.464766666667","25.025975","6500100","板橋區"
"220061","293-UM","2018/06/26 18:59:24","新北市板橋區太和街3巷4號","121.473791666667","25.0197766666667","6500100","板橋區"
"220084","296-UM","2018/06/26 18:59:15","新北市板橋區龍興街2號","121.4427","24.9993866666667","6500100","板橋區"
"220075","303-R5","2018/06/26 18:59:25","新北市板橋區館前西路87號","121.457251666667","25.0072666666667","6500100","板橋區"
"220062","305-R5","2018/06/26 18:59:10","新北市板橋區民享街142巷2號","121.477818333333","25.0165516666667","6500100","板橋區"
"220092","307-R5","2018/06/26 18:59:13","新北市板橋區漢生東路7號","121.46462","25.0174","6500100","板橋區"
"220098","317-R6","2018/06/26 18:59:18","新北市板橋區民有街16號","121.466275","25.024915","6500100","板橋區"
"220065","461-BY","2018/06/26 18:59:26","新北市板橋區民族路287巷3號","121.471148333333","25.0071283333333","6500100","板橋區"
"220064","486-VK","2018/06/26 18:59:24","新北市板橋區縣民大道二段106號","121.466741666667","25.015245","6500100","板橋區"
"220088","491-VK","2018/06/26 18:59:26","新北市板橋區民生路二段206號","121.469608333333","25.0211216666667","6500100","板橋區"
"220035","560-BX","2018/06/26 18:59:12","新北市板橋區中正路273-1號","121.455478333333","25.0189","6500100","板橋區"
"220063","609-BX","2018/06/26 18:59:18","新北市板橋區中山路二段159號","121.475773333333","25.0166883333333","6500100","板橋區"
"220091","637-BX","2018/06/26 18:59:27","新北市板橋區莒光路165巷46號","121.474688333333","25.0253266666667","6500100","板橋區"
"220057","686-BX","2018/06/26 18:59:22","新北市板橋區重慶路99號","121.462228333333","25.0055583333333","6500100","板橋區"
"220093","689-BX","2018/06/26 18:59:15","新北市板橋區民生路三段66號","121.466965","25.0257116666667","6500100","板橋區"
"220054","741-BX","2018/06/26 18:59:19","新北市板橋區成都街103號","121.463515","25.0054783333333","6500100","板橋區"
"220102","KEA-2699","2018/06/26 18:59:22","新北市板橋區雙十路一段44巷36號","121.477356666667","25.024985","6500100","板橋區"
"220077","806-UM","2018/06/26 18:59:19","新北市板橋區大觀路二段142-2號","121.442591666667","24.99915","6500100","板橋區"
"220067","830-TW","2018/06/26 18:59:29","新北市板橋區三民路二段186巷34號","121.477595","25.014015","6500100","板橋區"
"220096","831-TW","2018/06/26 18:59:23","新北市板橋區莒光路103號","121.47263","25.0241283333333","6500100","板橋區"
"220089","833-TW","2018/06/26 18:59:19","新北市板橋區文化路二段317號","121.47222","25.0298216666667","6500100","板橋區"
"220074","895-R6","2018/06/26 18:59:32","新北市板橋區府中路98號","121.4561","25.0096333333333","6500100","板橋區"
"220073","985-R7","2018/06/26 18:59:22","新北市板橋區民權路240號","121.458466666667","25.0144866666667","6500100","板橋區"
"220097","AAC-210","2018/06/26 18:59:19","新北市板橋區漢生東路5號","121.464653333333","25.0175633333333","6500100","板橋區"
"220070","AAC-253","2018/06/26 18:59:13","新北市板橋區四川路一段246號","121.459155","25.0014516666667","6500100","板橋區"
"235068","KEA-2873","2018/06/26 18:59:29","新北市中和區圓通路220號","121.495233333333","24.9931033333333","6500300","中和區"
"235061","KEA-2875","2018/06/26 18:59:20","新北市中和區民治街130巷5號","121.475023333333","25.0026116666667","6500300","中和區"
