"lineid","car","time","location","longitude","latitude","cityid","cityname"
"234046","148-BY","2018/06/26 19:09:27","新北市永和區永元路18巷40弄2號","121.524168333333","25.0002566666667","6500400","永和區"
"234007","207-UY","2018/06/26 19:09:27","新北市永和區中山路一段193號","121.509338333333","25.008785","6500400","永和區"
"234081","298-R6","2018/06/26 19:09:16","新北市永和區國中路150號","121.522678333333","25.0068066666667","6500400","永和區"
"234038","336-UY","2018/06/26 19:09:26","新北市永和區民樂街92巷2號","121.527315","24.9972366666667","6500400","永和區"
"234064","337-UY","2018/06/26 19:09:23","新北市永和區秀朗路二段17號","121.52109","25.002735","6500400","永和區"
"234086","338-UY","2018/06/26 19:09:12","新北市永和區永貞路134號","121.51833","25.00447","6500400","永和區"
"234070","552-UM","2018/06/26 19:09:14","新北市永和區豫溪街95巷8號","121.51814","25.0107716666667","6500400","永和區"
"234017","745-BX","2018/06/26 19:09:25","新北市永和區文化路90巷15弄1號","121.513815","25.0158616666667","6500400","永和區"
"234030","746-BX","2018/06/26 19:09:24","新北市永和區四維街68號","121.523993333333","24.9982716666667","6500400","永和區"
"234054","KEA-2590","2018/06/26 19:09:23","新北市永和區竹林路72巷2號","121.519088333333","25.0130166666667","6500400","永和區"
"234013","KEA-2591","2018/06/26 19:09:27","新北市永和區中山路一段72號","121.512493333333","25.01085","6500400","永和區"
"234061","AAD-866","2018/06/26 19:09:19","新北市永和區安樂路304巷7號","121.514536666667","25.0052733333333","6500400","永和區"
"234042","862-TW","2018/06/26 19:09:24","新北市永和區保平路111巷5號","121.511708333333","25.0059833333333","6500400","永和區"
"234050","863-TW","2018/06/26 19:09:29","新北市永和區文化路135巷24弄2號","121.510458333333","25.0145333333333","6500400","永和區"
"234026","9371-KE","2018/06/26 19:09:16","新北市永和區安樂路272巷11號","121.514928333333","25.0044266666667","6500400","永和區"
"234011","9373-KE","2018/06/26 19:09:14","新北市永和區仁愛路141巷9號","121.511688333333","25.011875","6500400","永和區"
"249005","172-UM","2018/06/26 19:09:16","新北市八里區中華路三段89-3號","121.393518333333","25.1393083333333","6502300","八里區"
"249001","173-UM","2018/06/26 19:09:19","新北市八里區龍米路二段228-1號","121.432726666667","25.1584783333333","6502300","八里區"
"249003","593-UM","2018/06/26 19:09:12","新北市八里區中山路二段500巷32號","121.398013333333","25.14857","6502300","八里區"
"248016","026-BX","2018/06/26 19:09:20","新北市五股區成泰路三段543巷54號","121.449635","25.103055","6501500","五股區"
"248006","077-UY","2018/06/26 19:09:23","新北市五股區四維路112號","121.467611666667","25.07372","6501500","五股區"
"248008","095-VK","2018/06/26 19:09:17","新北市五股區中興路一段118巷17號","121.46594","25.0742983333333","6501500","五股區"
"248020","225-UY","2018/06/26 19:09:10","新北市五股區凌雲路三段57號","121.425291666667","25.125015","6501500","五股區"
"248012","247-BX","2018/06/26 19:09:20","新北市五股區中興路四段38巷11-1號","121.438756666667","25.0836033333333","6501500","五股區"
"248004","677-BX","2018/06/26 19:09:22","新北市五股區五福路2號","121.434023333333","25.0872733333333","6501500","五股區"
"248002","678-BX","2018/06/26 19:09:15","新北市五股區凌雲路一段158巷13號","121.447721666667","25.1034566666667","6501500","五股區"
"248010","682-TV","2018/06/26 19:09:10","新北市五股區水碓二路1號","121.430558333333","25.071265","6501500","五股區"
"234023","9380-KE","2018/06/26 19:09:19","新北市永和區中興街133巷12號","121.518555","25.0125766666667","6500400","永和區"
"234077","969-R7","2018/06/26 19:09:16","新北市永和區民權路34號","121.52019","24.9988983333333","6500400","永和區"
"234074","AAC-211","2018/06/26 19:09:23","新北市永和區福和路81號","121.522431666667","25.0079016666667","6500400","永和區"
"234067","AAC-212","2018/06/26 19:09:29","新北市永和區永和路一段83號","121.513063333333","25.0073933333333","6500400","永和區"
"234003","AAC-295","2018/06/26 19:09:30","新北市永和區保福路一段79號","121.511925","25.0104483333333","6500400","永和區"
"244019","403-UM","2018/06/26 19:09:15","新北市林口區麗園二街1巷6-3號","121.3779","25.0701533333333","6501700","林口區"
"244013","742-UY","2018/06/26 19:09:14","新北市林口區麗園一街11巷3號","121.377335","25.0705283333333","6501700","林口區"
"244023","483-VK","2018/06/26 19:09:17","新北市林口區文林六街20號","121.37108","25.08053","6501700","林口區"
"244017","485-VK","2018/06/26 19:09:30","新北市林口區公園路92號","121.369571666667","25.070495","6501700","林口區"
"244011","701-TV","2018/06/26 19:09:30","新北市林口區中正路316號","121.387911666667","25.0777933333333","6501700","林口區"
"244025","837-TS","2018/06/26 19:09:26","新北市林口區仁愛二路101-1號","121.367851666667","25.0752233333333","6501700","林口區"
"244021","838-TS","2018/06/26 19:09:13","新北市八里區中山路三段386號","121.3685","25.135915","6501700","林口區"
"243013","AAD-798","2018/06/26 19:09:09","新北市泰山區明志路三段277號","121.42318","25.036765","6501600","泰山區"
"243009","297-R6","2018/06/26 19:09:25","新北市泰山區明志路一段117巷24號","121.434171666667","25.06345","6501600","泰山區"
"243016","380-SR","2018/06/26 19:09:27","新北市泰山區明志路二段325號","121.425808333333","25.0450333333333","6501600","泰山區"
"243015","421-VK","2018/06/26 19:09:29","新北市泰山區明志路一段452號","121.430696666667","25.055765","6501600","泰山區"
"243011","KEA-2215","2018/06/26 19:09:18","新北市泰山區明志路二段314號","121.426255","25.0461066666667","6501600","泰山區"
"243010","KEA-2216","2018/06/26 19:09:25","新北市泰山區明志路一段483巷1弄3號","121.43107","25.0555316666667","6501600","泰山區"
"243012","646-TV","2018/06/26 19:09:10","新北市泰山區辭修路36巷8弄1號","121.427723333333","25.0585833333333","6501600","泰山區"
"243014","680-BX","2018/06/26 19:09:23","新北市泰山區泰林路二段480號","121.425125","25.0640916666667","6501600","泰山區"
"222003","436-BY","2018/06/26 19:09:17","新北市深坑區深南路162號","121.626101666667","25.0150016666667","6501800","深坑區"
"222002","659-BX","2018/06/26 19:09:23","新北市深坑區紅葉街61號","121.63228","25.013885","6501800","深坑區"
"231041","002-UM","2018/06/26 19:09:10","新北市新店區溪園路405號","121.52404","24.9782","6500600","新店區"
"231059","046-UY","2018/06/26 19:09:25","新北市新店區安康路一段351-1號","121.519471666667","24.9640833333333","6500600","新店區"
"231040","047-UY","2018/06/26 19:09:21","新北市新店區三民路98-4號","121.533975","24.9733933333333","6500600","新店區"
"231044","106-UY","2018/06/26 19:09:19","新北市新店區中興路三段172號","121.544208333333","24.9809666666667","6500600","新店區"
"231053","108-UY","2018/06/26 19:09:21","新北市新店區自強路94號","121.546315","24.923765","6500600","新店區"
"231054","110-UY","2018/06/26 19:09:28","新北市新店區新店路191號","121.537135","24.9562083333333","6500600","新店區"
"231048","187-VK","2018/06/26 19:09:30","新北市新店區德正街27巷29弄85號","121.545755","24.972505","6500600","新店區"
"231046","188-VK","2018/06/26 19:09:09","新北市新店區永業路117號","121.52851","24.9481083333333","6500600","新店區"
"231042","268-BY","2018/06/26 19:09:27","新北市新店區中興路一段167號","121.542761666667","24.96441","6500600","新店區"
"231051","278-BY","2018/06/26 19:09:22","新北市新店區中正路400巷11號","121.534971666667","24.9780583333333","6500600","新店區"
"231050","AAD-862","2018/06/26 19:09:19","新北市新店區竹林路2巷29弄9號","121.550493333333","24.9502416666667","6500600","新店區"
"231058","3713-VJ","2018/06/26 19:09:27","新北市新店區光明街138巷13弄7號","121.540228333333","24.961515","6500600","新店區"
"231066","4716-K9","2018/06/26 19:09:09","新北市新店區安康路二段454號","121.494371666667","24.9542566666667","6500600","新店區"
"231056","4715-K9","2018/06/26 19:09:25","新北市新店區民權路109號","121.536186666667","24.9819833333333","6500600","新店區"
"231067","4772-VM","2018/06/26 19:09:19","新北市新店區安康路一段76巷10-1號","121.528718333333","24.9625983333333","6500600","新店區"
"231065","512-UM","2018/06/26 19:09:13","新北市新店區安祥路147巷2號","121.475191666667","24.9554916666667","6500600","新店區"
"231049","513-UM","2018/06/26 19:09:20","新北市新店區二十張路25巷3號","121.538916666667","24.98213","6500600","新店區"
"231045","617-UM","2018/06/26 19:08:56","新北市新店區北宜路一段192巷2號","121.54272","24.9528683333333","6500600","新店區"
"231061","619-UM","2018/06/26 19:09:26","新北市新店區安康路一段355-10號","121.520176666667","24.9638916666667","6500600","新店區"
"231063","641-BX","2018/06/26 19:09:21","新北市新店區車子路134號","121.505123333333","24.9484816666667","6500600","新店區"
"231064","719-UM","2018/06/26 19:09:11","新北市新店區安忠路56巷6號","121.512908333333","24.95943","6500600","新店區"
"231062","720-UM","2018/06/26 19:09:13","新北市新店區安平路56號","121.520125","24.968535","6500600","新店區"
"231060","897-TW","2018/06/26 19:09:19","新北市新店區安康路二段348號","121.502633333333","24.957605","6500600","新店區"
"231043","899-TW","2018/06/26 19:09:19","新北市新店區中興路三段1-20號","121.546626666667","24.975955","6500600","新店區"
"241026","066-VK","2018/06/26 19:09:26","新北市三重區重安街139號","121.495373333333","25.0547016666667","6500200","三重區"
"241035","743-BX","2018/06/26 19:09:15","新北市三重區三寧街18號","121.489293333333","25.05973","6500200","三重區"
"241029","942-UM","2018/06/26 19:09:23","新北市三重區集美街222號","121.49195","25.0553616666667","6500200","三重區"
"235066","003-UY","2018/06/26 19:09:23","新北市中和區廣福路10號","121.505701666667","25.0029083333333","6500300","中和區"
"235028","005-UY","2018/06/26 19:09:27","新北市中和區連城路21號","121.498918333333","25.00188","6500300","中和區"
"235063","006-UY","2018/06/26 19:09:20","新北市中和區連城路249巷5號","121.493695","24.99676","6500300","中和區"
"235056","096-UM","2018/06/26 19:09:26","新北市中和區員山路536號","121.478836666667","25.009985","6500300","中和區"
"235039","097-UM","2018/06/26 19:09:24","新北市中和區自強路66號","121.520025","24.9943183333333","6500300","中和區"
"235065","098-UM","2018/06/26 19:09:13","新北市中和區中山路二段136巷66號","121.500601666667","25.00437","6500300","中和區"
"235040","150-BY","2018/06/26 19:09:13","新北市中和區宜安路119巷16號","121.509776666667","24.99759","6500300","中和區"
"235058","151-BY","2018/06/26 19:09:25","新北市中和區連城路523巷13弄17號","121.482075","24.9938983333333","6500300","中和區"
"235055","183-VK","2018/06/26 19:09:17","新北市中和區德光路18號","121.471128333333","25.0045283333333","6500300","中和區"
"235038","185-VK","2018/06/26 19:09:24","新北市中和區大仁街10巷9弄29號","121.519266666667","24.9930283333333","6500300","中和區"
"235049","186-VK","2018/06/26 19:09:22","新北市中和區明禮街39號","121.503953333333","24.9963283333333","6500300","中和區"
"235067","255-BX","2018/06/26 19:09:25","新北市中和區新生街176巷19號","121.482678333333","24.9998966666667","6500300","中和區"
"235044","293-VK","2018/06/26 19:09:13","新北市中和區中興街222-4號","121.500628333333","24.9895033333333","6500300","中和區"
"235072","301-VK","2018/06/26 19:09:28","新北市中和區連城路144巷4弄11號","121.49568","24.9987866666667","6500300","中和區"
"235043","352-BY","2018/06/26 19:09:23","新北市中和區景平路30號","121.523413333333","24.9905916666667","6500300","中和區"
"235042","KEA-2878","2018/06/26 19:09:26","新北市中和區自立路117巷1號","121.522273333333","24.9945966666667","6500300","中和區"
"235050","4979-A6","2018/06/26 19:09:20","新北市中和區復興路249巷11弄3號","121.50358","24.9897716666667","6500300","中和區"
"235069","4980-A6","2018/06/26 19:09:12","新北市中和區中和路217巷1弄9號","121.5037","25.00033","6500300","中和區"
"235070","558-UM","2018/06/26 19:09:08","新北市中和區中和路34號","121.499891666667","25.001615","6500300","中和區"
"235045","565-BX","2018/06/26 19:09:21","新北市中和區景新街447號","121.513466666667","24.9887083333333","6500300","中和區"
"235054","640-BX","2018/06/26 19:09:31","新北市中和區國光街38號","121.47114","25.0003166666667","6500300","中和區"
"235060","647-TV","2018/06/26 19:09:24","新北市中和區中山路三段147號","121.473753333333","25.0059616666667","6500300","中和區"
"235047","732-UM","2018/06/26 19:09:10","新北市中和區興南路一段142-6號","121.508528333333","24.9872266666667","6500300","中和區"
"235046","733-UM","2018/06/26 19:09:12","新北市中和區忠孝街1巷72號","121.508228333333","24.9848133333333","6500300","中和區"
"235071","783-BX","2018/06/26 19:09:22","新北市中和區連城路469巷24號","121.483488333333","24.9950083333333","6500300","中和區"
"235057","801-TS","2018/06/26 19:09:25","新北市中和區民利街80號","121.478065","24.9981583333333","6500300","中和區"
"235041","802-TS","2018/06/26 19:09:26","新北市永和區中和路323號","121.50719","24.9996666666667","6500300","中和區"
"235052","805-TS","2018/06/26 19:09:20","新北市中和區興南路二段142巷31弄63號","121.501581666667","24.98359","6500300","中和區"
"235048","896-TW","2018/06/26 19:09:18","新北市中和區忠孝街1巷2-1號","121.509005","24.982995","6500300","中和區"
"235053","900-TW","2018/06/26 19:09:18","新北市中和區華福街67號","121.466998333333","24.996645","6500300","中和區"
"235051","157-BY","2018/06/26 19:09:18","新北市中和區忠孝街19巷23號","121.50979","24.984255","6500300","中和區"
"235037","AAC-213","2018/06/26 19:09:20","新北市中和區秀朗路三段56號","121.526411666667","24.995135","6500300","中和區"
"235059","AAC-215","2018/06/26 19:09:24","新北市中和區圓通路296巷31弄1號","121.488608333333","24.9904716666667","6500300","中和區"
"220068","013-TV","2018/06/26 19:09:27","新北市板橋區中山路二段443巷72號","121.480885","25.0220616666667","6500100","板橋區"
"220072","015-TV","2018/06/26 19:09:22","新北市板橋區金門街260巷7號","121.429586666667","24.9869833333333","6500100","板橋區"
"220086","073-UY","2018/06/26 19:09:26","新北市板橋區中正路250巷109號","121.460121666667","25.020135","6500100","板橋區"
"220106","075-UY","2018/06/26 19:09:14","新北市板橋區文化路二段317號","121.472211666667","25.0298466666667","6500100","板橋區"
"220069","AAD-861","2018/06/26 19:09:23","新北市板橋區四川路一段102號","121.459566666667","25.0046816666667","6500100","板橋區"
"226004","205-ST","2018/06/26 19:09:23","新北市平溪區十分里十分街96-2號","121.776671666667","25.0426","6502400","平溪區"
"228001","212-TW","2018/06/26 19:09:18","新北市貢寮區真理里新港街10號","121.925506666667","25.054375","6502600","貢寮區"
"228002","663-BX","2018/06/26 19:09:15","新北市貢寮區福隆里福隆街32-1號","121.945096666667","25.0174116666667","6502600","貢寮區"
"228003","828-UM","2018/06/26 19:09:24","新北市貢寮區和美里和美街40-2號","121.913025","25.09068","6502600","貢寮區"
"224010","AGQ-8101","2018/06/26 19:09:24","新北市瑞芳區基山街38號","121.844903333333","25.108385","6501200","瑞芳區"
"224006","676-BX","2018/06/26 19:09:25","新北市瑞芳區中山路42號","121.803598333333","25.1062933333333","6501200","瑞芳區"
"224008","285-BY","2018/06/26 19:09:26","基隆市信義區深澳坑路346號","121.795718333333","25.1127566666667","6501200","瑞芳區"
"224009","273-VK","2018/06/26 19:09:15","新北市瑞芳區洞頂路101巷16號","121.860556666667","25.1217166666667","6501200","瑞芳區"
"227003","642-TC","2018/06/26 19:09:11","新北市雙溪區平林里外平林10-4號","121.859125","25.0381233333333","6502500","雙溪區"
"227009","400-TW","2018/06/26 19:09:19","新北市雙溪區牡丹里中正路26號","121.86441","25.037835","6502500","雙溪區"
"253005","032-BX","2018/06/26 19:09:20","新北市石門區阿里荖41-1號","121.60594","25.2807116666667","6502200","石門區"
"253006","295-VK","2018/06/26 19:09:20","新北市石門區崁子腳41-5號","121.533183333333","25.28749","6502200","石門區"
"222001","KEA-2212","2018/06/26 19:09:12","新北市深坑區北深路一段300號","121.624233333333","25.0057983333333","6501800","深坑區"
"208002","KEA-2872","2018/06/26 19:09:27","新北市金山區仁愛路67巷28號","121.634016666667","25.2208416666667","6502700","金山區"
"208003","665-BX","2018/06/26 19:09:26","新北市金山區中正路101號","121.63299","25.2216466666667","6502700","金山區"
"208001","761-BX","2018/06/26 19:09:22","新北市金山區福德街14號","121.639301666667","25.2217933333333","6502700","金山區"
"251005","010-UM","2018/06/26 19:09:28","新北市淡水區原德路11號","121.44205","25.1712116666667","6501000","淡水區"
"251013","KEA-2871","2018/06/26 19:09:30","新北市淡水區安子內12-1號","121.481523333333","25.21908","6501000","淡水區"
"251016","179-VK","2018/06/26 19:09:16","新北市淡水區下圭柔山119-51號","121.450585","25.2085933333333","6501000","淡水區"
"251014","180-VK","2018/06/26 19:09:30","新北市淡水區北勢子9號","121.48273","25.22822","6501000","淡水區"
"251015","182-VK","2018/06/26 19:09:04","新北市淡水區南勢埔34號","121.484186666667","25.1797116666667","6501000","淡水區"
"251010","413-VK","2018/06/26 19:09:25","新北市淡水區中正路一段156巷3號","121.421165","25.1803366666667","6501000","淡水區"
"251007","442-VK","2018/06/26 19:09:18","新北市淡水區民生路145巷33號","121.466741666667","25.139015","6501000","淡水區"
"251001","559-UM","2018/06/26 19:09:17","新北市淡水區自強路201巷39號","121.462076666667","25.1268216666667","6501000","淡水區"
"251006","561-UM","2018/06/26 19:09:28","新北市淡水區中山北路三段51號","121.444245","25.191105","6501000","淡水區"
"251002","672-BX","2018/06/26 19:09:09","新北市淡水區中山路87巷1號","121.442513333333","25.17043","6501000","淡水區"
"251003","766-UM","2018/06/26 19:09:29","新北市淡水區中山北路一段84號","121.442348333333","25.1761916666667","6501000","淡水區"
"207003","550-UM","2018/06/26 19:09:23","新北市萬里區大鵬里萬里加投14號","121.65015","25.208925","6502800","萬里區"
"207004","291-VK","2018/06/26 19:09:25","新北市萬里區萬里里瑪鋉下街50號","121.691571666667","25.1794433333333","6502800","萬里區"
"252002","178-VK","2018/06/26 19:09:13","新北市三芝區埔坪里埔頭坑84號","121.508095","25.2542666666667","6502100","三芝區"
"252003","249-BX","2018/06/26 19:09:14","新北市三芝區錫板里南勢崗6號","121.479591666667","25.261975","6502100","三芝區"
"252001","292-VK","2018/06/26 19:09:21","新北市三芝區長勤街45巷2號","121.500338333333","25.2550833333333","6502100","三芝區"
"237004","KEA-2597","2018/06/26 19:09:14","新北市三峽區有木206號","121.439093333333","24.8515183333333","6500900","三峽區"
"237007","153-BY","2018/06/26 19:09:18","新北市三峽區中正路二段42巷12-1號","121.364256666667","24.9205966666667","6500900","三峽區"
"237013","252-BX","2018/06/26 19:09:22","新北市三峽區光明路69巷25號","121.376655","24.929205","6500900","三峽區"
"237012","275-BY","2018/06/26 19:09:21","新北市三峽區三樹路222巷236弄59號","121.393093333333","24.9431333333333","6500900","三峽區"
"237008","302-VK","2018/06/26 19:09:16","新北市三峽區大同路178號","121.372485","24.926775","6500900","三峽區"
"237014","433-BY","2018/06/26 19:09:19","新北市三峽區中山路186號","121.364006666667","24.93692","6500900","三峽區"
"237011","KEA-2596","2018/06/26 19:09:11","新北市三峽區介壽路三段245號","121.407915","24.94945","6500900","三峽區"
"237016","649-BX","2018/06/26 19:09:25","新北市三峽區安坑50號","121.462976666667","24.9316383333333","6500900","三峽區"
"237010","706-TV","2018/06/26 19:09:16","新北市三峽區復興路77號","121.372683333333","24.9374583333333","6500900","三峽區"
"237005","AKY-6261","2018/06/26 19:09:28","新北市三峽區中山路459巷163-3號","121.348636666667","24.9329666666667","6500900","三峽區"
"236070","105-UM","2018/06/26 19:09:23","新北市土城區裕生路84巷10號","121.446831666667","24.985595","6501300","土城區"
"236042","107-UM","2018/06/26 19:09:23","新北市土城區學府路一段276號","121.450128333333","24.9830266666667","6501300","土城區"
"236079","166-UM","2018/06/26 19:09:24","新北市土城區龍泉路34號","121.41146","24.9470033333333","6501300","土城區"
"236026","269-VK","2018/06/26 19:09:27","新北市土城區中正路9號","121.4429","24.9752383333333","6501300","土城區"
"236014","270-VK","2018/06/26 19:09:18","新北市土城區學府路一段37巷30號","121.457366666667","24.987575","6501300","土城區"
"236021","401-BY","2018/06/26 19:09:20","新北市土城區延峰街31巷1號","121.469568333333","24.98493","6501300","土城區"
"236059","912-UM","2018/06/26 19:09:27","新北市土城區金城路二段2巷5號","121.4478","24.9763966666667","6501300","土城區"
"236049","913-UM","2018/06/26 19:09:12","新北市土城區明德路一段365-1號","121.453626666667","24.9790883333333","6501300","土城區"
"236055","AAC-216","2018/06/26 19:09:16","新北市土城區學府路一段276號","121.450111666667","24.9831416666667","6501300","土城區"
"242007","413-TV","2018/06/26 19:09:20","新北市新莊區新泰路357巷3弄57號","121.44206","25.0394216666667","6500500","新莊區"
"238015","755-BX","2018/06/26 19:09:25","新北市樹林區備內街150-2號","121.407838333333","24.9892466666667","6500700","樹林區"
"238023","601-UM","2018/06/26 19:09:29","新北市樹林區大慶街30號","121.396778333333","25.014255","6500700","樹林區"
"238019","599-UM","2018/06/26 19:09:12","新北市樹林區東榮街81號","121.41683","24.98295","6500700","樹林區"
"238022","KEA-2213","2018/06/26 19:09:27","新北市樹林區中山路二段151巷8弄9號","121.406451666667","24.977905","6500700","樹林區"
"238021","KEA-2539","2018/06/26 19:09:26","新北市樹林區柑園街二段382巷2號","121.368326666667","24.9494316666667","6500700","樹林區"
"238025","303-VK","2018/06/26 19:09:24","新北市樹林區中山路三段202-1號","121.386118333333","24.968345","6500700","樹林區"
"238017","283-BY","2018/06/26 19:09:15","新北市樹林區光興街223巷56號","121.406778333333","25.0048883333333","6500700","樹林區"
"238014","282-BY","2018/06/26 19:09:24","新北市樹林區千歲街70巷1弄21號","121.426766666667","24.9976866666667","6500700","樹林區"
"238020","268-VK","2018/06/26 19:09:15","新北市樹林區俊英街155巷9弄2號","121.423935","25.0120416666667","6500700","樹林區"
"238026","172-UY","2018/06/26 19:09:29","新北市樹林區佳園路一段41巷30號","121.394833333333","24.9709683333333","6500700","樹林區"
"238016","169-UY","2018/06/26 18:42:03","新北市樹林區文化街25巷3號","121.419185","24.9874533333333","6500700","樹林區"
"239006","891-R6","2018/06/26 19:09:25","新北市鶯歌區鶯桃路91巷14號","121.338866666667","24.95321","6500800","鶯歌區"
"239008","527-UM","2018/06/26 19:09:27","新北市鶯歌區國際二路2巷3號","121.338936666667","24.973","6500800","鶯歌區"
"239005","526-UM","2018/06/26 19:09:27","新北市鶯歌區中湖街152巷1號","121.349618333333","24.973625","6500800","鶯歌區"
"239001","417-VK","2018/06/26 19:09:16","新北市鶯歌區鶯桃路129巷14號","121.337665","24.954085","6500800","鶯歌區"
"239003","360-BY","2018/06/26 19:09:25","新北市鶯歌區中正二路183號","121.34173","24.9480516666667","6500800","鶯歌區"
"239002","359-BY","2018/06/26 19:09:29","新北市鶯歌區國際二路6巷17號","121.339176666667","24.974005","6500800","鶯歌區"
"239004","193-VK","2018/06/26 19:09:13","新北市鶯歌區中正三路291巷20弄2號","121.329728333333","24.9355616666667","6500800","鶯歌區"
"221008","489-VK","2018/06/26 19:09:14","新北市汐止區康寧街467號","121.631755","25.068355","6501100","汐止區"
"221036","130-UY","2018/06/26 19:09:11","新北市汐止區汐萬路一段256巷3號","121.653355","25.0747033333333","6501100","汐止區"
"221015","131-UY","2018/06/26 19:09:25","新北市汐止區康寧街901號","121.651663333333","25.074975","6501100","汐止區"
"221010","269-BY","2018/06/26 19:09:16","新北市汐止區康寧街901號","121.65143","25.075","6501100","汐止區"
"221012","278-VK","2018/06/26 19:09:13","新北市汐止區康寧街901號","121.650811666667","25.0752783333333","6501100","汐止區"
"221023","279-VK","2018/06/26 19:09:28","新北市汐止區康寧街901號","121.650998333333","25.0752183333333","6501100","汐止區"
"221032","280-BY","2018/06/26 19:09:27","新北市汐止區橫科路403巷18號","121.62531","25.047435","6501100","汐止區"
"221027","281-BY","2018/06/26 19:09:20","新北市汐止區康寧街901號","121.651433333333","25.0749866666667","6501100","汐止區"
"221029","298-VK","2018/06/26 19:09:15","新北市汐止區康寧街901號","121.651606666667","25.07491","6501100","汐止區"
"221021","299-VK","2018/06/26 19:09:19","新北市汐止區康寧街901號","121.651471666667","25.0750083333333","6501100","汐止區"
"221031","353-TW","2018/06/26 19:09:17","新北市汐止區福德三路75號","121.636351666667","25.0691766666667","6501100","汐止區"
"221025","623-UM","2018/06/26 19:09:24","新北市汐止區康寧街901號","121.651601666667","25.0749783333333","6501100","汐止區"
"221038","646-BX","2018/06/26 19:09:16","新北市汐止區康寧街901號","121.650738333333","25.0754216666667","6501100","汐止區"
"221033","647-BX","2018/06/26 19:09:17","新北市汐止區南勢街1巷1號","121.62705","25.0373916666667","6501100","汐止區"
"221002","707-TV","2018/06/26 19:09:21","新北市汐止區大同路一段89-3號","121.624785","25.0545616666667","6501100","汐止區"
"221018","753-BX","2018/06/26 19:09:17","新北市汐止區康寧街901號","121.650891666667","25.0752633333333","6501100","汐止區"
"220079","145-BY","2018/06/26 19:09:18","新北市板橋區民權路260巷16號","121.45835","25.0153483333333","6500100","板橋區"
"220080","200-UY","2018/06/26 19:09:29","新北市板橋區大觀路二段7巷35號","121.448113333333","25.0034516666667","6500100","板橋區"
"220082","610-BX","2018/06/26 19:09:19","新北市板橋區溪崑二街25號","121.428631666667","24.991295","6500100","板橋區"
"220101","245-BX","2018/06/26 19:09:20","新北市板橋區民生路二段89-6號","121.47047","25.018975","6500100","板橋區"
"220055","256-TC","2018/06/26 19:09:30","新北市板橋區新民街7巷16號","121.463698333333","25.0104216666667","6500100","板橋區"
"220103","257-TC","2018/06/26 19:09:21","新北市板橋區文化路一段188巷9弄21號","121.468463333333","25.0195016666667","6500100","板橋區"
"220056","276-BY","2018/06/26 19:09:24","新北市板橋區信義路74巷1弄1號","121.45729","24.9931816666667","6500100","板橋區"
"220094","280-UM","2018/06/26 19:09:25","新北市板橋區光武街112號","121.465626666667","25.0293233333333","6500100","板橋區"
"220071","283-VK","2018/06/26 19:09:15","新北市板橋區重慶路353巷7號","121.46478","24.9981716666667","6500100","板橋區"
"220053","285-VK","2018/06/26 19:09:11","新北市板橋區懷仁街35巷2弄2號","121.476813333333","25.0195366666667","6500100","板橋區"
"220083","286-VK","2018/06/26 19:09:20","新北市板橋區大觀路二段174巷176弄7號","121.442521666667","25.0033433333333","6500100","板橋區"
"220081","287-VK","2018/06/26 19:09:24","新北市板橋區南雅西路二段156巷55號","121.45254","25.01269","6500100","板橋區"
"220090","288-VK","2018/06/26 19:09:18","新北市板橋區裕民街47號","121.461413333333","25.02863","6500100","板橋區"
"220061","293-UM","2018/06/26 19:09:24","新北市板橋區中山路二段295巷17號","121.477863333333","25.018775","6500100","板橋區"
"220084","296-UM","2018/06/26 19:09:15","新北市板橋區溪崑二街56巷36號","121.428305","24.99152","6500100","板橋區"
"220075","303-R5","2018/06/26 19:09:25","新北市板橋區南雅西路一段10巷7弄2號","121.454536666667","25.0047266666667","6500100","板橋區"
"220062","305-R5","2018/06/26 19:09:30","新北市板橋區三民路二段245巷71號","121.481083333333","25.012805","6500100","板橋區"
"220092","307-R5","2018/06/26 19:09:13","新北市板橋區文化路二段225巷60弄17號","121.469181666667","25.0288783333333","6500100","板橋區"
"220098","317-R6","2018/06/26 19:09:18","新北市板橋區自由路51巷14弄5號","121.46465","25.0236733333333","6500100","板橋區"
"220065","461-BY","2018/06/26 19:09:26","新北市板橋區民族路219巷50號","121.469326666667","25.0087316666667","6500100","板橋區"
"220064","486-VK","2018/06/26 19:09:25","新北市板橋區民生路一段33-1號","121.475873333333","25.0122516666667","6500100","板橋區"
"220088","491-VK","2018/06/26 19:09:26","新北市板橋區文化路二段182巷1弄15號","121.471388333333","25.0278733333333","6500100","板橋區"
"220035","560-BX","2018/06/26 19:09:14","新北市板橋區中正路399巷13弄8號","121.453148333333","25.022335","6500100","板橋區"
"220063","609-BX","2018/06/26 19:09:17","新北市板橋區三民路二段115號","121.479195","25.015815","6500100","板橋區"
"220091","637-BX","2018/06/26 19:09:28","新北市板橋區八德路二段62號","121.482148333333","25.0271316666667","6500100","板橋區"
"220057","686-BX","2018/06/26 19:09:22","新北市板橋區重慶路351-1號","121.46422","24.9976533333333","6500100","板橋區"
"220093","689-BX","2018/06/26 19:09:22","新北市板橋區民生路三段207號","121.465305","25.02803","6500100","板橋區"
"220054","741-BX","2018/06/26 19:09:19","新北市板橋區重慶路71號","121.461818333333","25.006745","6500100","板橋區"
"220102","KEA-2699","2018/06/26 19:09:22","新北市板橋區田單街2巷38號","121.482263333333","25.0276316666667","6500100","板橋區"
"220077","806-UM","2018/06/26 19:09:22","新北市板橋區大觀路二段67號","121.446496666667","25.0024466666667","6500100","板橋區"
"220067","830-TW","2018/06/26 19:09:08","新北市板橋區中山路二段90巷43弄11號","121.476755","25.0151866666667","6500100","板橋區"
"220096","831-TW","2018/06/26 19:09:23","新北市板橋區雙十路二段33巷1-1號","121.476793333333","25.0257133333333","6500100","板橋區"
"220089","833-TW","2018/06/26 19:09:21","新北市板橋區文化路二段419號","121.474626666667","25.0326","6500100","板橋區"
"220074","895-R6","2018/06/26 19:09:25","新北市板橋區中正路自強新村44-1號","121.454865","25.0137883333333","6500100","板橋區"
"220073","985-R7","2018/06/26 19:09:22","新北市板橋區中正路280號","121.454988333333","25.0201383333333","6500100","板橋區"
"220097","AAC-210","2018/06/26 19:09:23","新北市板橋區幸福路70巷30號","121.460178333333","25.020935","6500100","板橋區"
"220070","AAC-253","2018/06/26 19:09:12","新北市板橋區忠孝路41-1號","121.461236666667","25.0020783333333","6500100","板橋區"
"235068","KEA-2873","2018/06/26 19:09:29","新北市中和區圓通路162巷37弄1號","121.496336666667","24.9954916666667","6500300","中和區"
"235061","KEA-2875","2018/06/26 19:09:02","新北市中和區中山路三段63巷13弄65號","121.476568333333","25.0033166666667","6500300","中和區"
