"lineid","car","time","location","longitude","latitude","cityid","cityname"
"234046","148-BY","2018/06/26 19:49:25","新北市永和區永利路248號","121.524185","25.0030116666667","6500400","永和區"
"234007","207-UY","2018/06/26 19:49:19","新北市中和區中和路236號","121.506965","24.9995766666667","6500400","永和區"
"234081","298-R6","2018/06/26 19:49:16","新北市永和區國中路2號","121.524288333333","25.004375","6500400","永和區"
"234038","336-UY","2018/06/26 19:49:26","新北市永和區民樂街55巷10號","121.527918333333","24.9985083333333","6500400","永和區"
"234064","337-UY","2018/06/26 19:49:26","新北市永和區中正路368巷17號","121.518233333333","25.0008633333333","6500400","永和區"
"234086","338-UY","2018/06/26 19:49:31","新北市永和區中正路564號","121.517231666667","25.0061033333333","6500400","永和區"
"234070","552-UM","2018/06/26 19:49:14","新北市永和區竹林路88號","121.519416666667","25.0126133333333","6500400","永和區"
"234017","745-BX","2018/06/26 19:49:25","新北市永和區永和路二段297號","121.516051666667","25.0160433333333","6500400","永和區"
"234030","746-BX","2018/06/26 19:49:24","新北市永和區民生路67巷32號","121.524333333333","24.99732","6500400","永和區"
"234054","KEA-2590","2018/06/26 19:49:25","新北市永和區竹林路72巷4號","121.518806666667","25.0131066666667","6500400","永和區"
"234013","KEA-2591","2018/06/26 19:49:19","新北市永和區永平路280號","121.507853333333","25.0118266666667","6500400","永和區"
"234061","AAD-866","2018/06/26 19:49:19","新北市永和區中正路71號","121.51488","24.9968","6500400","永和區"
"234042","862-TW","2018/06/26 19:49:11","新北市永和區中和路305巷10弄1號","121.506966666667","25.00076","6500400","永和區"
"234050","863-TW","2018/06/26 19:49:29","新北市永和區保安路144號","121.508548333333","25.0148883333333","6500400","永和區"
"234026","9371-KE","2018/06/26 19:49:16","新北市永和區雙和街25巷5號","121.508955","25.001915","6500400","永和區"
"234011","9373-KE","2018/06/26 19:49:14","新北市永和區仁愛路310號","121.502993333333","25.0075283333333","6500400","永和區"
"249001","173-UM","2018/06/26 19:49:19","新北市八里區中華路二段252號","121.405365","25.1496666666667","6502300","八里區"
"249004","303-UY","2018/06/26 19:49:16","新北市八里區仁愛路79號","121.411586666667","25.1598916666667","6502300","八里區"
"249002","305-UY","2018/06/26 19:49:30","新北市八里區頂寮五街17號","121.451455","25.12601","6502300","八里區"
"249003","593-UM","2018/06/26 19:49:12","新北市八里區中華路二段508號","121.399648333333","25.1455216666667","6502300","八里區"
"248014","025-BX","2018/06/26 19:49:26","新北市五股區五福路42巷7號","121.434178333333","25.089585","6501500","五股區"
"248016","026-BX","2018/06/26 19:49:19","新北市五股區成泰路三段601巷17-1號","121.451778333333","25.103295","6501500","五股區"
"248008","095-VK","2018/06/26 19:49:18","新北市五股區國道路三段7號","121.469623333333","25.0750916666667","6501500","五股區"
"248020","225-UY","2018/06/26 19:49:31","新北市五股區中直路51-6號","121.41955","25.1164816666667","6501500","五股區"
"248012","247-BX","2018/06/26 19:49:20","新北市五股區蓬萊路24號","121.433888333333","25.079915","6501500","五股區"
"248004","677-BX","2018/06/26 19:49:11","新北市五股區成泰路一段152-1號","121.435076666667","25.076355","6501500","五股區"
"248002","678-BX","2018/06/26 19:49:15","新北市五股區成泰路四段14號","121.453393333333","25.1068116666667","6501500","五股區"
"248010","682-TV","2018/06/26 19:49:10","新北市五股區登林路76-5號","121.430533333333","25.0695333333333","6501500","五股區"
"234077","969-R7","2018/06/26 19:49:16","新北市永和區民治街97巷5號","121.517005","24.9981483333333","6500400","永和區"
"234074","AAC-211","2018/06/26 19:49:23","新北市永和區竹林路211號","121.520741666667","25.0089166666667","6500400","永和區"
"234067","AAC-212","2018/06/26 19:49:25","新北市永和區中山路一段146號","121.509808333333","25.0095833333333","6500400","永和區"
"234003","AAC-295","2018/06/26 19:49:10","新北市永和區福和路310-1號","121.516221666667","25.007335","6500400","永和區"
"244023","483-VK","2018/06/26 19:49:17","新北市林口區文化北路二段300號","121.37419","25.0873633333333","6501700","林口區"
"243013","AAD-798","2018/06/26 19:49:30","新北市泰山區明志路三段6巷16號","121.423918333333","25.04366","6501600","泰山區"
"243009","297-R6","2018/06/26 19:49:25","新北市泰山區美寧街64號","121.431001666667","25.064625","6501600","泰山區"
"243016","380-SR","2018/06/26 19:49:27","新北市泰山區中山路三段114號","121.417888333333","25.032145","6501600","泰山區"
"243015","421-VK","2018/06/26 19:49:23","新北市泰山區明志路二段214巷9號","121.426725","25.0488316666667","6501600","泰山區"
"243011","KEA-2215","2018/06/26 19:49:18","新北市泰山區明志路三段206巷6號","121.423378333333","25.0383633333333","6501600","泰山區"
"243010","KEA-2216","2018/06/26 19:49:25","新北市泰山區民生路33號","121.430793333333","25.0521683333333","6501600","泰山區"
"243012","646-TV","2018/06/26 19:49:10","新北市泰山區全興路13號","121.432293333333","25.0589516666667","6501600","泰山區"
"243014","680-BX","2018/06/26 19:49:23","新北市泰山區泰林路二段33-9號","121.435056666667","25.0568533333333","6501600","泰山區"
"222003","436-BY","2018/06/26 19:49:17","新北市深坑區深南路51-1號","121.621226666667","25.0098066666667","6501800","深坑區"
"222002","659-BX","2018/06/26 19:49:23","新北市深坑區北深路一段361號","121.622286666667","25.0049416666667","6501800","深坑區"
"231041","002-UM","2018/06/26 19:49:30","新北市新店區中央路230號","121.529493333333","24.9727133333333","6500600","新店區"
"231059","046-UY","2018/06/26 19:49:25","新北市新店區安和路二段190號","121.518818333333","24.9745666666667","6500600","新店區"
"231040","047-UY","2018/06/26 19:49:21","新北市新店區中正路75巷71號","121.543253333333","24.9688016666667","6500600","新店區"
"231044","106-UY","2018/06/26 19:49:31","新北市新店區復興路44-2號","121.538561666667","24.986795","6500600","新店區"
"231053","108-UY","2018/06/26 19:49:21","新北市新店區新烏路二段482號","121.553","24.9079866666667","6500600","新店區"
"231054","110-UY","2018/06/26 19:49:28","新北市新店區光明街138巷22號","121.540488333333","24.9610183333333","6500600","新店區"
"231048","187-VK","2018/06/26 19:49:10","新北市新店區五峰路61巷7號","121.54894","24.96961","6500600","新店區"
"231046","188-VK","2018/06/26 19:49:29","新北市新店區三民路159巷19弄46號","121.532201666667","24.9731916666667","6500600","新店區"
"231057","256-BX","2018/06/26 19:49:16","新北市新店區梅崗三路1號","121.558365","24.931255","6500600","新店區"
"231042","268-BY","2018/06/26 19:48:47","新北市新店區中興路一段267號","121.54496","24.9676516666667","6500600","新店區"
"231051","278-BY","2018/06/26 19:49:22","新北市新店區中央三街53號","121.527381666667","24.9746966666667","6500600","新店區"
"231050","AAD-862","2018/06/26 19:49:18","新北市新店區北宜路二段579巷3號","121.565008333333","24.95333","6500600","新店區"
"231058","3713-VJ","2018/06/26 19:49:15","新北市新店區安民街133巷26號","121.515468333333","24.96961","6500600","新店區"
"231066","4716-K9","2018/06/26 19:49:09","新北市新店區安康路二段341巷50號","121.496653333333","24.954325","6500600","新店區"
"231056","4715-K9","2018/06/26 19:49:25","新北市新店區中央路238號","121.529105","24.9721583333333","6500600","新店區"
"231065","512-UM","2018/06/26 19:49:13","新北市新店區安祥路109巷90弄68號","121.476151666667","24.9586133333333","6500600","新店區"
"231049","513-UM","2018/06/26 19:49:20","新北市新店區民權路90巷30號","121.536306666667","24.9838633333333","6500600","新店區"
"231045","617-UM","2018/06/26 19:49:16","新北市新店區北宜路二段384號","121.564551666667","24.9528616666667","6500600","新店區"
"231061","619-UM","2018/06/26 19:49:26","新北市新店區安民街125號","121.516336666667","24.96872","6500600","新店區"
"231063","641-BX","2018/06/26 19:49:22","新北市新店區車子路11號","121.503018333333","24.95202","6500600","新店區"
"231064","719-UM","2018/06/26 19:49:31","新北市新店區安和路一段52巷2-1號","121.517661666667","24.9666183333333","6500600","新店區"
"231062","720-UM","2018/06/26 19:49:13","新北市新店區永業路86號","121.531005","24.951575","6500600","新店區"
"231060","897-TW","2018/06/26 19:49:19","新北市新店區安康路二段199號","121.5091","24.958985","6500600","新店區"
"231043","899-TW","2018/06/26 19:49:19","新北市新店區中正路235號","121.539388333333","24.9731666666667","6500600","新店區"
"231055","AKT-0513","2018/06/26 19:49:18","新北市新店區力行路12號","121.539401666667","24.9646266666667","6500600","新店區"
"241011","013-R5","2018/06/26 19:49:26","新北市三重區三和路二段173巷49號","121.499358333333","25.07024","6500200","三重區"
"241028","022-UY","2018/06/26 19:49:26","新北市三重區中正南路163號","121.49376","25.055995","6500200","三重區"
"241008","059-VK","2018/06/26 19:49:21","新北市三重區永福街68號","121.479136666667","25.0769766666667","6500200","三重區"
"241022","060-VK","2018/06/26 19:49:24","新北市三重區新北大道一段7號","121.489606666667","25.06156","6500200","三重區"
"241031","061-VK","2018/06/26 19:49:22","新北市三重區重新路四段244巷4號","121.486136666667","25.0537183333333","6500200","三重區"
"241015","062-VK","2018/06/26 19:49:20","新北市三重區重新路一段1號","121.503818333333","25.0643083333333","6500200","三重區"
"241017","063-VK","2018/06/26 19:49:25","新北市三重區重陽路三段5巷8弄20號","121.489613333333","25.0665266666667","6500200","三重區"
"241024","065-VK","2018/06/26 19:49:13","新北市三重區大勇街82巷6號","121.47938","25.07158","6500200","三重區"
"241026","066-VK","2018/06/26 19:49:26","新北市三重區文化南路42號","121.50031","25.0602433333333","6500200","三重區"
"241003","265-UM","2018/06/26 19:49:28","新北市三重區五華街132號","121.491528333333","25.08355","6500200","三重區"
"241016","266-UM","2018/06/26 19:49:21","新北市三重區正義北路16巷16號","121.497018333333","25.0628416666667","6500200","三重區"
"241009","267-UM","2018/06/26 19:49:26","新北市三重區三和路四段396巷22號","121.480255","25.07888","6500200","三重區"
"241018","268-UM","2018/06/26 19:49:11","新北市三重區雙園街57巷36號","121.49435","25.06843","6500200","三重區"
"241032","269-UM","2018/06/26 19:49:28","新北市三重區重陽路一段10號","121.486298333333","25.05766","6500200","三重區"
"241013","270-UM","2018/06/26 19:49:13","新北市三重區仁愛街112巷16號","121.494711666667","25.07386","6500200","三重區"
"241025","271-UM","2018/06/26 19:49:17","新北市三重區忠孝路三段52號","121.480686666667","25.065665","6500200","三重區"
"241007","398-BY","2018/06/26 19:49:29","新北市三重區三和路四段143號","121.484338333333","25.0781166666667","6500200","三重區"
"241004","475-VK","2018/06/26 19:49:20","新北市三重區五華街74號","121.493523333333","25.0819633333333","6500200","三重區"
"241020","478-VK","2018/06/26 19:49:20","新北市三重區後竹圍街86號","121.489618333333","25.0729866666667","6500200","三重區"
"241030","480-VK","2018/06/26 19:49:30","新北市三重區環河南路254巷43-2號","121.489463333333","25.05153","6500200","三重區"
"241014","543-UM","2018/06/26 19:49:12","新北市三重區長安街84號","121.501643333333","25.067485","6500200","三重區"
"241001","547-UM","2018/06/26 19:49:25","新北市三重區仁愛街327巷25號","121.492945","25.0798583333333","6500200","三重區"
"241019","KEA-2593","2018/06/26 19:49:14","新北市三重區大智街188號","121.489448333333","25.0703666666667","6500200","三重區"
"241006","AAD-863","2018/06/26 19:49:25","新北市三重區力行路二段78號","121.48158","25.0737416666667","6500200","三重區"
"241035","743-BX","2018/06/26 19:49:15","新北市三重區文化北路8號","121.499303333333","25.0635516666667","6500200","三重區"
"241023","887-TS","2018/06/26 19:49:20","新北市三重區頂崁街172號","121.47754","25.0659666666667","6500200","三重區"
"241012","941-UM","2018/06/26 19:49:17","新北市三重區仁興街56巷52號","121.497928333333","25.07546","6500200","三重區"
"241029","942-UM","2018/06/26 19:49:18","新北市三重區重安街16號","121.490596666667","25.0584483333333","6500200","三重區"
"241033","AAC-255","2018/06/26 19:49:26","新北市三重區中興南街64號","121.470643333333","25.044075","6500200","三重區"
"235066","003-UY","2018/06/26 19:49:23","新北市中和區南工路18號","121.505431666667","25.0004116666667","6500300","中和區"
"235056","096-UM","2018/06/26 19:49:28","新北市中和區中山路三段136巷10弄13號","121.474058333333","25.0074833333333","6500300","中和區"
"235039","097-UM","2018/06/26 19:49:24","新北市中和區大勇街32號","121.517245","24.9932083333333","6500300","中和區"
"235065","098-UM","2018/06/26 19:49:32","新北市中和區莊敬路17號","121.499956666667","25.0045166666667","6500300","中和區"
"235040","150-BY","2018/06/26 19:49:13","新北市中和區安和路39號","121.509658333333","24.99486","6500300","中和區"
"235058","151-BY","2018/06/26 19:49:25","新北市中和區員山路209-2號","121.481165","24.9977233333333","6500300","中和區"
"235055","183-VK","2018/06/26 19:49:17","新北市中和區德光路27巷2號","121.470776666667","25.0039916666667","6500300","中和區"
"235038","185-VK","2018/06/26 19:49:22","新北市永和區民生路46巷56號","121.520728333333","24.9963966666667","6500300","中和區"
"235049","186-VK","2018/06/26 19:49:25","新北市中和區中興街37號","121.500748333333","24.994405","6500300","中和區"
"235067","255-BX","2018/06/26 19:49:27","新北市中和區新生街186巷1弄18號","121.483295","24.9989733333333","6500300","中和區"
"235044","293-VK","2018/06/26 19:49:13","新北市中和區南山路229巷4號","121.503796666667","24.9931116666667","6500300","中和區"
"235043","352-BY","2018/06/26 19:49:23","新北市中和區華新街230號","121.506068333333","24.9817183333333","6500300","中和區"
"235042","KEA-2878","2018/06/26 19:49:27","新北市中和區景安路79巷37弄26號","121.5077","24.9964533333333","6500300","中和區"
"235050","4979-A6","2018/06/26 19:49:20","新北市中和區景平路241巷84弄54號","121.506063333333","24.9923583333333","6500300","中和區"
"235069","4980-A6","2018/06/26 19:49:12","新北市中和區中正路637巷52弄1號","121.485438333333","24.9933916666667","6500300","中和區"
"235070","558-UM","2018/06/26 19:49:28","新北市中和區景平路481號","121.500253333333","24.99746","6500300","中和區"
"235045","565-BX","2018/06/26 19:49:21","新北市中和區景平路298號","121.512768333333","24.9925633333333","6500300","中和區"
"235054","640-BX","2018/06/26 19:49:11","新北市中和區德光路26號","121.470865","25.0043916666667","6500300","中和區"
"235060","647-TV","2018/06/26 19:49:24","新北市中和區新生街30巷1號","121.483031666667","25.003845","6500300","中和區"
"235047","732-UM","2018/06/26 19:49:30","新北市中和區和平街3-2號","121.509801666667","24.990055","6500300","中和區"
"235046","733-UM","2018/06/26 19:49:12","新北市中和區仁愛街92號","121.511486666667","24.9873066666667","6500300","中和區"
"235071","783-BX","2018/06/26 19:49:22","新北市中和區環中路128號","121.48192","25.0127466666667","6500300","中和區"
"235057","801-TS","2018/06/26 19:49:25","新北市中和區員山路271-1號","121.481253333333","24.9995316666667","6500300","中和區"
"235041","802-TS","2018/06/26 19:49:26","新北市中和區永貞路239巷17號","121.512571666667","25.0031083333333","6500300","中和區"
"235052","805-TS","2018/06/26 19:49:28","新北市中和區興南路二段62號","121.506323333333","24.9849","6500300","中和區"
"235048","896-TW","2018/06/26 19:49:18","新北市中和區興南路二段45號","121.507423333333","24.9856933333333","6500300","中和區"
"235053","900-TW","2018/06/26 19:49:24","新北市中和區國光街171巷6號","121.467571666667","25.001385","6500300","中和區"
"235051","157-BY","2018/06/26 19:49:17","新北市中和區中興街132巷11號","121.498796666667","24.9915816666667","6500300","中和區"
"235037","AAC-213","2018/06/26 19:49:20","新北市中和區秀朗路三段177號","121.524423333333","24.9911616666667","6500300","中和區"
"235059","AAC-215","2018/06/26 19:49:24","新北市中和區圓通路305巷29弄2號","121.495081666667","24.98914","6500300","中和區"
"220068","013-TV","2018/06/26 19:49:24","新北市板橋區中山路二段412巷16-1號","121.483336666667","25.0202433333333","6500100","板橋區"
"220072","015-TV","2018/06/26 19:49:22","新北市板橋區金門街127巷10號","121.433325","24.9911683333333","6500100","板橋區"
"220086","073-UY","2018/06/26 19:49:26","新北市板橋區南雅西路二段7巷25號","121.451855","25.00949","6500100","板橋區"
"220106","075-UY","2018/06/26 19:49:15","新北市板橋區文化路二段606號","121.477161666667","25.0350866666667","6500100","板橋區"
"220069","AAD-861","2018/06/26 19:49:21","新北市板橋區貴興路114號","121.455","25.001925","6500100","板橋區"
"247014","546-UM","2018/06/26 19:49:22","新北市蘆洲區復興路30-1號","121.472383333333","25.0849833333333","6501400","蘆洲區"
"247004","337-TH","2018/06/26 19:49:21","新北市蘆洲區中原路61號","121.458898333333","25.0821066666667","6501400","蘆洲區"
"247006","336-TH","2018/06/26 19:49:09","新北市蘆洲區永安南路二段26號","121.467248333333","25.077065","6501400","蘆洲區"
"247008","056-VK","2018/06/26 19:49:25","新北市蘆洲區中山一路1號","121.478776666667","25.0800933333333","6501400","蘆洲區"
"247016","007-UY","2018/06/26 19:49:28","新北市蘆洲區中正路261號","121.467535","25.0873166666667","6501400","蘆洲區"
"247002","002-UY","2018/06/26 19:45:39","新北市蘆洲區永平街32巷12弄18號","121.459955","25.091065","6501400","蘆洲區"
"226004","205-ST","2018/06/26 19:49:23","新北市平溪區靜安路二段530巷7號","121.744883333333","25.0273716666667","6502400","平溪區"
"228001","212-TW","2018/06/26 19:49:17","新北市貢寮區真理里新港街113-1號","121.926551666667","25.0566833333333","6502600","貢寮區"
"228003","828-UM","2018/06/26 19:49:24","新北市貢寮區真理里美艷山街5-1號","121.926531666667","25.0597083333333","6502600","貢寮區"
"224002","639-TC","2018/06/26 19:49:09","新北市瑞芳區三爪子坑路303-2號","121.818026666667","25.1060983333333","6501200","瑞芳區"
"227003","642-TC","2018/06/26 19:49:11","新北市雙溪區雙溪里內挖路47號","121.863375","25.0367266666667","6502500","雙溪區"
"227009","400-TW","2018/06/26 19:49:19","新北市雙溪區新基里中華路81號","121.865781666667","25.0384783333333","6502500","雙溪區"
"222001","KEA-2212","2018/06/26 19:49:12","新北市深坑區北深路三段108號","121.606873333333","25.001565","6501800","深坑區"
"208002","KEA-2872","2018/06/26 19:49:27","新北市金山區三民街34號","121.634893333333","25.223595","6502700","金山區"
"208003","665-BX","2018/06/26 19:49:24","新北市金山區海興路8號","121.630081666667","25.2372916666667","6502700","金山區"
"208001","761-BX","2018/06/26 19:49:22","新北市金山區重和里林口15號","121.598921666667","25.21036","6502700","金山區"
"251005","010-UM","2018/06/26 19:49:28","新北市淡水區學府路104號","121.449793333333","25.1717316666667","6501000","淡水區"
"251013","KEA-2871","2018/06/26 19:49:30","新北市淡水區頂田寮11-8號","121.464231666667","25.21424","6501000","淡水區"
"251016","179-VK","2018/06/26 19:49:15","新北市淡水區三塊厝3-3號","121.456398333333","25.2096116666667","6501000","淡水區"
"251014","180-VK","2018/06/26 19:49:30","新北市淡水區石頭厝17-1號","121.467506666667","25.2372583333333","6501000","淡水區"
"251008","181-VK","2018/06/26 19:49:20","新北市淡水區中正路二段24巷2-1號","121.42675","25.17699","6501000","淡水區"
"251015","182-VK","2018/06/26 19:49:24","新北市淡水區北新路二段91號","121.481746666667","25.1853166666667","6501000","淡水區"
"251010","413-VK","2018/06/26 19:49:25","新北市淡水區崁頂78-3號","121.429845","25.2062416666667","6501000","淡水區"
"251012","441-VK","2018/06/26 19:49:26","新北市淡水區淡金路三段66號","121.448223333333","25.1999366666667","6501000","淡水區"
"251007","442-VK","2018/06/26 19:47:37","新北市淡水區中正東路一段3巷30號","121.451998333333","25.1655566666667","6501000","淡水區"
"251001","559-UM","2018/06/26 19:49:17","新北市淡水區淡金路57號","121.456248333333","25.16133","6501000","淡水區"
"251006","561-UM","2018/06/26 19:49:28","新北市淡水區大忠街5巷3號","121.443493333333","25.17693","6501000","淡水區"
"251009","575-R6","2018/06/26 19:49:22","新北市淡水區中正路36號","121.443815","25.169295","6501000","淡水區"
"251011","650-BX","2018/06/26 19:49:17","新北市淡水區淡金路二段401號","121.44662","25.1866","6501000","淡水區"
"251003","766-UM","2018/06/26 19:49:29","新北市淡水區崁頂57-6號","121.441803333333","25.19775","6501000","淡水區"
"207003","550-UM","2018/06/26 19:49:29","新北市萬里區大鵬里萬里加投45-2號","121.641525","25.2105833333333","6502800","萬里區"
"207004","291-VK","2018/06/26 19:49:25","新北市萬里區萬里里瑪鋉路221號","121.689711666667","25.179835","6502800","萬里區"
"252002","178-VK","2018/06/26 19:49:13","新北市三芝區三民街24號","121.504645","25.2586383333333","6502100","三芝區"
"252001","292-VK","2018/06/26 19:49:21","新北市三芝區公正街9號","121.499771666667","25.2575133333333","6502100","三芝區"
"237004","KEA-2597","2018/06/26 19:49:14","新北市三峽區添福58-5號","121.377185","24.8891916666667","6500900","三峽區"
"237007","153-BY","2018/06/26 19:49:18","新北市三峽區二鬮路24號","121.362463333333","24.9109633333333","6500900","三峽區"
"237009","210-TH","2018/06/26 19:49:20","新北市三峽區清水街428號","121.368721666667","24.926055","6500900","三峽區"
"237013","252-BX","2018/06/26 19:49:22","新北市三峽區溪北街33號","121.396785","24.9361366666667","6500900","三峽區"
"237012","275-BY","2018/06/26 19:49:20","新北市三峽區光明路1-11號","121.37276","24.9322","6500900","三峽區"
"237008","302-VK","2018/06/26 19:49:16","新北市三峽區大同路147巷9號","121.371076666667","24.9263883333333","6500900","三峽區"
"237014","433-BY","2018/06/26 19:49:19","新北市三峽區添福59-1號","121.374693333333","24.90343","6500900","三峽區"
"237016","649-BX","2018/06/26 19:49:25","新北市三峽區溪東路218巷25號","121.407061666667","24.9304766666667","6500900","三峽區"
"237005","AKY-6261","2018/06/26 19:49:28","新北市三峽區長泰街52號","121.377916666667","24.9326166666667","6500900","三峽區"
"236070","105-UM","2018/06/26 19:49:23","新北市土城區水源街37號","121.440758333333","24.9755533333333","6501300","土城區"
"236042","107-UM","2018/06/26 19:49:23","新北市土城區裕民路233巷1號","121.45484","24.9836633333333","6501300","土城區"
"236079","166-UM","2018/06/26 19:49:24","新北市土城區中山路10號","121.416226666667","24.9621883333333","6501300","土城區"
"236030","253-BX","2018/06/26 19:49:25","新北市土城區中央路一段318巷4弄6號","121.443133333333","24.982125","6501300","土城區"
"236026","269-VK","2018/06/26 19:49:27","新北市土城區中央路二段61巷26號","121.44329","24.97873","6501300","土城區"
"236038","271-VK","2018/06/26 19:49:12","新北市土城區國際路158巷47號","121.46825","24.9753683333333","6501300","土城區"
"236021","401-BY","2018/06/26 19:49:20","新北市土城區延吉街137巷12弄11號","121.470525","24.9853383333333","6501300","土城區"
"236059","912-UM","2018/06/26 19:49:27","新北市土城區中央路一段186-4號","121.445408333333","24.9862","6501300","土城區"
"236049","913-UM","2018/06/26 19:49:12","新北市土城區青雲路220號","121.459013333333","24.9812733333333","6501300","土城區"
"236063","915-UM","2018/06/26 19:49:21","新北市土城區延和路105巷1弄2號","121.467438333333","24.990515","6501300","土城區"
"236055","AAC-216","2018/06/26 19:49:16","新北市土城區延和路148號","121.467726666667","24.9901816666667","6501300","土城區"
"242034","AAC-296","2018/06/26 19:49:14","新北市新莊區仁愛街54巷1號","121.445021666667","25.0371966666667","6500500","新莊區"
"242058","986-R7","2018/06/26 19:49:28","新北市新莊區新泰路357巷3弄45號","121.44201","25.0401816666667","6500500","新莊區"
"242054","751-BX","2018/06/26 19:49:19","新北市新莊區民安西路415巷2號","121.430876666667","25.0091183333333","6500500","新莊區"
"242023","705-TV","2018/06/26 19:49:23","新北市新莊區化成路129號","121.46563","25.0474583333333","6500500","新莊區"
"242029","612-BX","2018/06/26 19:49:31","新北市新莊區中平路290號","121.44484","25.0513883333333","6500500","新莊區"
"242037","415-TV","2018/06/26 19:49:29","新北市新莊區民安路207巷30弄4號","121.427733333333","25.023755","6500500","新莊區"
"242007","413-TV","2018/06/26 19:49:20","新北市新莊區思源路593巷6弄23號","121.457676666667","25.0597716666667","6500500","新莊區"
"242061","353-BY","2018/06/26 19:49:12","新北市新莊區瓊林路118號","121.442326666667","25.02563","6500500","新莊區"
"242039","133-UY","2018/06/26 19:49:29","新北市新莊區民安路299巷55弄2號","121.4294","25.023875","6500500","新莊區"
"242032","135-UY","2018/06/26 19:49:25","新北市新莊區忠孝街59號","121.443821666667","25.036195","6500500","新莊區"
"242048","172-VK","2018/06/26 19:49:20","新北市新莊區建安街92巷11號","121.425743333333","25.0242083333333","6500500","新莊區"
"242011","173-VK","2018/06/26 19:49:26","新北市新莊區中原路301號","121.447498333333","25.0542466666667","6500500","新莊區"
"242056","175-VK","2018/06/26 19:49:27","新北市新莊區新莊路364號","121.449471666667","25.033565","6500500","新莊區"
"242005","176-VK","2018/06/26 19:49:26","新北市新莊區化成路63巷24弄49號","121.461865","25.0459416666667","6500500","新莊區"
"242021","348-TH","2018/06/26 19:49:27","新北市新莊區建中街14號","121.449531666667","25.0375216666667","6500500","新莊區"
"242002","349-TH","2018/06/26 19:49:24","新北市新莊區新泰路2-11號","121.450141666667","25.0324266666667","6500500","新莊區"
"242019","350-TH","2018/06/26 19:49:27","新北市新莊區明智街8號","121.454643333333","25.0414216666667","6500500","新莊區"
"238015","755-BX","2018/06/26 19:49:24","新北市樹林區中山路二段10號","121.417663333333","24.9851383333333","6500700","樹林區"
"238023","601-UM","2018/06/26 19:49:29","新北市樹林區中正路391號","121.417803333333","25.007135","6500700","樹林區"
"238021","KEA-2539","2018/06/26 19:49:25","新北市樹林區佳園路三段181巷77號","121.390985","24.9483016666667","6500700","樹林區"
"238025","303-VK","2018/06/26 19:49:04","新北市樹林區中山路一段324號","121.419878333333","24.986285","6500700","樹林區"
"238014","282-BY","2018/06/26 19:49:24","新北市樹林區千歲街67號","121.427215","24.9988366666667","6500700","樹林區"
"239006","891-R6","2018/06/26 19:49:25","新北市鶯歌區文化路145巷4號","121.356673333333","24.95402","6500800","鶯歌區"
"221008","489-VK","2018/06/26 19:49:17","新北市汐止區康寧街67號","121.619153333333","25.0665216666667","6501100","汐止區"
"221036","130-UY","2018/06/26 19:49:30","新北市汐止區仁愛路317號","121.664511666667","25.0675916666667","6501100","汐止區"
"221015","131-UY","2018/06/26 19:49:25","新北市汐止區大同路二段533號","121.661925","25.0689833333333","6501100","汐止區"
"221010","269-BY","2018/06/26 19:49:24","新北市汐止區八連路一段11號","121.648515","25.08056","6501100","汐止區"
"221012","278-VK","2018/06/26 19:49:13","新北市汐止區大同路三段579號","121.682516666667","25.0734466666667","6501100","汐止區"
"221023","279-VK","2018/06/26 19:49:28","新北市汐止區明峰街180號","121.62865","25.0700733333333","6501100","汐止區"
"221032","280-BY","2018/06/26 19:49:27","新北市汐止區橫科路403巷13號","121.624818333333","25.0476483333333","6501100","汐止區"
"221027","281-BY","2018/06/26 19:49:26","新北市汐止區大同路二段577號","121.663463333333","25.0700933333333","6501100","汐止區"
"221029","298-VK","2018/06/26 19:49:15","新北市汐止區康寧街901號","121.651646666667","25.0749166666667","6501100","汐止區"
"221021","299-VK","2018/06/26 19:49:19","新北市汐止區新興路108號","121.657356666667","25.0609166666667","6501100","汐止區"
"221031","353-TW","2018/06/26 19:49:17","新北市汐止區福德三路127號","121.633718333333","25.0675083333333","6501100","汐止區"
"221035","622-UM","2018/06/26 19:49:27","新北市汐止區長江街13巷5弄2號","121.654645","25.07172","6501100","汐止區"
"221025","623-UM","2018/06/26 19:49:24","新北市汐止區秀峰路81巷11號","121.660688333333","25.0644133333333","6501100","汐止區"
"221038","646-BX","2018/06/26 19:49:16","新北市汐止區忠孝東路357號","121.665686666667","25.070645","6501100","汐止區"
"221033","647-BX","2018/06/26 19:49:17","新北市汐止區東勢街76巷100-1號","121.636451666667","25.0390316666667","6501100","汐止區"
"221002","707-TV","2018/06/26 19:49:21","新北市汐止區大同路一段219巷27號","121.633258333333","25.05838","6501100","汐止區"
"221018","753-BX","2018/06/26 19:49:17","新北市汐止區汐萬路一段18號","121.656056666667","25.06751","6501100","汐止區"
"220079","145-BY","2018/06/26 19:49:29","新北市板橋區中正路183巷31號","121.45479","25.015875","6500100","板橋區"
"220080","200-UY","2018/06/26 19:49:17","新北市板橋區大觀路二段37巷17號","121.447705","25.0027683333333","6500100","板橋區"
"220082","610-BX","2018/06/26 19:49:19","新北市板橋區溪北路101號","121.428788333333","24.989225","6500100","板橋區"
"220101","245-BX","2018/06/26 19:49:20","新北市板橋區縣民大道三段79巷13號","121.475103333333","25.0220333333333","6500100","板橋區"
"220055","256-TC","2018/06/26 19:49:30","新北市板橋區國慶路167巷13號","121.461888333333","24.997055","6500100","板橋區"
"220103","257-TC","2018/06/26 19:49:21","新北市板橋區陽明街29巷3號","121.465181666667","25.021675","6500100","板橋區"
"220056","276-BY","2018/06/26 19:49:24","新北市板橋區四川路二段99巷2弄2號","121.452613333333","24.9945","6500100","板橋區"
"220094","280-UM","2018/06/26 19:49:19","新北市板橋區民生路三段321號","121.46292","25.0309583333333","6500100","板橋區"
"220071","283-VK","2018/06/26 19:49:19","新北市板橋區五權街32巷11號","121.464481666667","24.9929533333333","6500100","板橋區"
"220053","285-VK","2018/06/26 19:49:11","新北市板橋區中山路二段60巷7號","121.474276666667","25.01538","6500100","板橋區"
"220083","286-VK","2018/06/26 19:49:20","新北市板橋區僑中二街126巷2號","121.445316666667","25.005145","6500100","板橋區"
"220081","287-VK","2018/06/26 19:49:24","新北市板橋區大觀路一段29巷4弄2號","121.450165","25.0078983333333","6500100","板橋區"
"220090","288-VK","2018/06/26 19:49:18","新北市板橋區新海路431巷20號","121.45771","25.0268733333333","6500100","板橋區"
"220061","293-UM","2018/06/26 19:49:24","新北市板橋區板新路200巷20號","121.468753333333","25.0165133333333","6500100","板橋區"
"220084","296-UM","2018/06/26 19:49:15","新北市板橋區滿平街11號","121.426315","24.9900933333333","6500100","板橋區"
"220075","303-R5","2018/06/26 19:49:25","新北市板橋區金華街10巷48弄24-3號","121.45784","25.0199366666667","6500100","板橋區"
"220062","305-R5","2018/06/26 19:49:29","新北市板橋區中山路二段416巷38弄36號","121.481736666667","25.0194766666667","6500100","板橋區"
"220092","307-R5","2018/06/26 19:49:18","新北市板橋區四維路264號","121.463393333333","25.02837","6500100","板橋區"
"220098","317-R6","2018/06/26 19:49:28","新北市板橋區四維路269巷80號","121.460103333333","25.026915","6500100","板橋區"
"220065","461-BY","2018/06/26 19:49:26","新北市板橋區民族路270巷39號","121.469315","25.0059666666667","6500100","板橋區"
"220064","486-VK","2018/06/26 19:49:24","新北市板橋區實踐路76-2號","121.463856666667","25.0055816666667","6500100","板橋區"
"242013","280-VK","2018/06/26 19:49:16","新北市新莊區中泰街27號","121.450931666667","25.046925","6500500","新莊區"
"220088","491-VK","2018/06/26 19:49:25","新北市板橋區文聖街151號","121.478605","25.0279583333333","6500100","板橋區"
"220035","560-BX","2018/06/26 19:49:12","新北市板橋區公館街256號","121.459861666667","25.0212083333333","6500100","板橋區"
"220063","609-BX","2018/06/26 19:49:17","新北市板橋區三民路一段133號","121.479263333333","25.02019","6500100","板橋區"
"220091","637-BX","2018/06/26 19:49:28","新北市板橋區懷德街127巷18號","121.47964","25.031185","6500100","板橋區"
"220057","686-BX","2018/06/26 19:49:23","新北市板橋區信義路201號","121.45919","24.9916783333333","6500100","板橋區"
"220093","689-BX","2018/06/26 19:49:23","新北市板橋區長江路二段271號","121.469786666667","25.0330716666667","6500100","板橋區"
"220054","741-BX","2018/06/26 19:49:19","新北市板橋區實踐路93巷50號","121.465956666667","25.005035","6500100","板橋區"
"220102","KEA-2699","2018/06/26 19:49:22","新北市板橋區松柏街50巷3號","121.475683333333","25.0302733333333","6500100","板橋區"
"220077","806-UM","2018/06/26 19:49:19","新北市板橋區僑中一街102巷1弄16號","121.445935","25.0122233333333","6500100","板橋區"
"220067","830-TW","2018/06/26 19:49:28","新北市板橋區民生路一段13號","121.475425","25.0114533333333","6500100","板橋區"
"220096","831-TW","2018/06/26 19:49:23","新北市板橋區萬板路63號","121.471525","25.0219433333333","6500100","板橋區"
"220089","833-TW","2018/06/26 19:49:18","新北市板橋區龍泉街71號","121.456488333333","25.0253683333333","6500100","板橋區"
"220074","895-R6","2018/06/26 19:49:12","新北市板橋區文化路一段46巷19號","121.46027","25.01152","6500100","板橋區"
"220073","985-R7","2018/06/26 19:49:22","新北市板橋區大仁街37號","121.455148333333","25.016645","6500100","板橋區"
"220097","AAC-210","2018/06/26 19:49:26","新北市板橋區文化路一段285巷2弄12號","121.464621666667","25.0193033333333","6500100","板橋區"
"220070","AAC-253","2018/06/26 19:49:25","新北市板橋區成都街12號","121.460475","25.0047916666667","6500100","板橋區"
"235068","KEA-2873","2018/06/26 19:48:59","新北市中和區永和路8巷23弄7號","121.500645","25.0038333333333","6500300","中和區"
"235061","KEA-2875","2018/06/26 19:49:02","新北市中和區員山路194號","121.481285","25.0004766666667","6500300","中和區"
