"lineid","car","time","location","longitude","latitude","cityid","cityname"
"234046","148-BY","2018/06/26 20:09:17","新北市永和區得和路328號","121.523368333333","24.9995116666667","6500400","永和區"
"234007","207-UY","2018/06/26 20:09:19","新北市永和區保順路37巷15號","121.502915","25.0103366666667","6500400","永和區"
"234081","298-R6","2018/06/26 20:09:15","新北市永和區國中路53號","121.524556666667","25.0061116666667","6500400","永和區"
"234038","336-UY","2018/06/26 20:09:26","新北市永和區成功路一段76號","121.526641666667","25.00339","6500400","永和區"
"234064","337-UY","2018/06/26 20:09:23","新北市永和區永元路95號","121.522415","25.001735","6500400","永和區"
"234086","338-UY","2018/06/26 20:09:12","新北市永和區中正路660-1號","121.5168","25.0087133333333","6500400","永和區"
"234070","552-UM","2018/06/26 20:09:29","新北市永和區福和路175號","121.519955","25.0074233333333","6500400","永和區"
"234017","745-BX","2018/06/26 20:09:25","新北市永和區文化路82號","121.514008333333","25.0151933333333","6500400","永和區"
"234030","746-BX","2018/06/26 20:09:24","新北市永和區民權路49巷5弄18號","121.52127","24.9976916666667","6500400","永和區"
"234054","KEA-2590","2018/06/26 20:09:23","新北市永和區博愛街20巷2號","121.517795","25.015785","6500400","永和區"
"234013","KEA-2591","2018/06/26 20:09:27","新北市永和區永貞路387號","121.508008333333","25.0087116666667","6500400","永和區"
"234061","AAD-866","2018/06/26 20:09:19","新北市永和區中正路151巷14號","121.515608333333","24.9988333333333","6500400","永和區"
"234042","862-TW","2018/06/26 20:09:31","新北市永和區雙和街14號","121.509473333333","25.0020133333333","6500400","永和區"
"234050","863-TW","2018/06/26 20:09:29","新北市永和區新生路192號","121.505836666667","25.0135166666667","6500400","永和區"
"234026","9371-KE","2018/06/26 20:09:16","新北市永和區保生路55-1號","121.504745","25.01088","6500400","永和區"
"234011","9373-KE","2018/06/26 20:09:14","新北市永和區環河西路二段243號","121.500516666667","25.0092183333333","6500400","永和區"
"249005","172-UM","2018/06/26 20:09:16","新北市八里區下罟子61號","121.387018333333","25.13639","6502300","八里區"
"249001","173-UM","2018/06/26 20:09:27","新北市八里區中華路二段312號","121.403726666667","25.1483283333333","6502300","八里區"
"249004","303-UY","2018/06/26 20:09:16","新北市八里區中山路一段398巷51弄22號","121.410521666667","25.1585933333333","6502300","八里區"
"249002","305-UY","2018/06/26 20:09:30","新北市五股區成泰路四段40號","121.455653333333","25.1097833333333","6502300","八里區"
"249003","593-UM","2018/06/26 20:09:12","新北市八里區訊塘路96號","121.397488333333","25.1464683333333","6502300","八里區"
"248014","025-BX","2018/06/26 20:09:26","新北市五股區成泰路三段55號","121.44316","25.0895","6501500","五股區"
"248016","026-BX","2018/06/26 20:09:19","新北市五股區凌雲路一段158巷50弄19號","121.447801666667","25.1043783333333","6501500","五股區"
"248008","095-VK","2018/06/26 20:09:17","新北市三重區中正北路598巷4號","121.469693333333","25.071925","6501500","五股區"
"248020","225-UY","2018/06/26 20:09:10","新北市五股區凌雲路二段38號","121.440068333333","25.10241","6501500","五股區"
"248012","247-BX","2018/06/26 20:09:20","新北市五股區民義路一段212號","121.430445","25.0895","6501500","五股區"
"248004","677-BX","2018/06/26 20:09:31","新北市五股區成泰路一段127號","121.43554","25.0724966666667","6501500","五股區"
"248002","678-BX","2018/06/26 20:09:24","新北市五股區成泰路三段280號","121.447295","25.094125","6501500","五股區"
"248010","682-TV","2018/06/26 20:09:18","新北市五股區成泰路一段7巷40號","121.432546666667","25.067125","6501500","五股區"
"234023","9380-KE","2018/06/26 20:09:19","新北市永和區中正路704號","121.51628","25.0099516666667","6500400","永和區"
"234077","969-R7","2018/06/26 20:09:16","新北市永和區民享街23巷5弄8號","121.516098333333","24.9956566666667","6500400","永和區"
"234074","AAC-211","2018/06/26 20:09:22","新北市永和區豫溪街165號","121.521775","25.0104283333333","6500400","永和區"
"234067","AAC-212","2018/06/26 20:09:25","新北市永和區保平路218號","121.509711666667","25.0059716666667","6500400","永和區"
"234003","AAC-295","2018/06/26 20:09:14","新北市永和區中正路607號","121.516238333333","25.009605","6500400","永和區"
"243013","AAD-798","2018/06/26 20:09:30","新北市泰山區明志路三段74巷3號","121.424556666667","25.0417266666667","6501600","泰山區"
"243009","297-R6","2018/06/26 20:09:25","新北市泰山區泰林路二段138號","121.434226666667","25.0598166666667","6501600","泰山區"
"243016","380-SR","2018/06/26 20:09:27","新北市泰山區中山路二段845號","121.4248","25.0347366666667","6501600","泰山區"
"243015","421-VK","2018/06/26 20:09:23","新北市泰山區明志路一段386號","121.430673333333","25.0573433333333","6501600","泰山區"
"243011","KEA-2215","2018/06/26 20:09:18","新北市泰山區明志路三段182巷22號","121.423516666667","25.0393366666667","6501600","泰山區"
"243010","KEA-2216","2018/06/26 20:09:25","新北市泰山區明志路二段214巷16弄41號","121.426848333333","25.050375","6501600","泰山區"
"243012","646-TV","2018/06/26 20:09:24","新北市泰山區楓江路86巷9號","121.437415","25.0627083333333","6501600","泰山區"
"243014","680-BX","2018/06/26 20:09:23","新北市泰山區明志路一段42號","121.43352","25.06519","6501600","泰山區"
"222003","436-BY","2018/06/26 20:09:17","新北市深坑區埔新街62號","121.620103333333","25.00251","6501800","深坑區"
"222002","659-BX","2018/06/26 20:09:23","新北市深坑區北深路三段28號","121.609256666667","25.0011733333333","6501800","深坑區"
"231041","002-UM","2018/06/26 20:09:30","新北市新店區中正路468號","121.534001666667","24.97944","6500600","新店區"
"231059","046-UY","2018/06/26 20:09:25","新北市新店區安成街27號","121.510053333333","24.9610066666667","6500600","新店區"
"231040","047-UY","2018/06/26 20:09:21","新北市新店區中正路106號","121.543193333333","24.970675","6500600","新店區"
"231044","106-UY","2018/06/26 20:09:11","新北市新店區寶慶街66號","121.541995","24.9868266666667","6500600","新店區"
"231053","108-UY","2018/06/26 20:09:20","新北市新店區新烏路三段寶島巷2弄2號","121.551935","24.8985433333333","6500600","新店區"
"231054","110-UY","2018/06/26 20:09:28","新北市新店區中興路一段136號","121.542073333333","24.9635216666667","6500600","新店區"
"231048","187-VK","2018/06/26 20:09:10","新北市新店區寶橋路61號","121.545135","24.9750933333333","6500600","新店區"
"231057","256-BX","2018/06/26 20:09:15","新北市新店區花園一路一段2號","121.553046666667","24.932415","6500600","新店區"
"231042","268-BY","2018/06/26 20:09:27","新北市新店區中興路二段89號","121.547081666667","24.97144","6500600","新店區"
"231051","278-BY","2018/06/26 20:09:22","新北市新店區中央六街12號","121.530023333333","24.9745666666667","6500600","新店區"
"231050","AAD-862","2018/06/26 20:09:18","新北市新店區北新路一段96巷23號","121.542873333333","24.9687333333333","6500600","新店區"
"231056","4715-K9","2018/06/26 20:09:30","新北市新店區北新路二段59巷1號","121.542321666667","24.9729233333333","6500600","新店區"
"231065","512-UM","2018/06/26 20:09:13","新北市新店區安祥路106巷151號","121.47348","24.9589683333333","6500600","新店區"
"231049","513-UM","2018/06/26 20:09:20","新北市新店區北新路二段139巷12弄1號","121.542146666667","24.9760033333333","6500600","新店區"
"231045","617-UM","2018/06/26 20:09:16","新北市新店區北宜路一段152號","121.540295","24.9538416666667","6500600","新店區"
"231061","619-UM","2018/06/26 20:09:26","新北市新店區安民街349號","121.516913333333","24.9754283333333","6500600","新店區"
"231063","641-BX","2018/06/26 20:09:21","新北市新店區黎明路54巷2號","121.502343333333","24.9483483333333","6500600","新店區"
"231068","718-UY","2018/06/26 20:09:27","新北市新店區中興路二段188號","121.548156666667","24.9729333333333","6500600","新店區"
"231064","719-UM","2018/06/26 20:09:11","新北市新店區安康路二段58巷9號","121.513068333333","24.963795","6500600","新店區"
"231062","720-UM","2018/06/26 20:09:13","新北市新店區安康路二段130-1號","121.512655","24.962245","6500600","新店區"
"231060","897-TW","2018/06/26 20:09:32","新北市新店區安康路三段440-5號","121.484595","24.9512966666667","6500600","新店區"
"231043","899-TW","2018/06/26 20:09:19","新北市新店區民族路192號","121.536203333333","24.9754783333333","6500600","新店區"
"231055","AKT-0513","2018/06/26 20:09:27","新北市新店區中華路42巷14號","121.540546666667","24.968645","6500600","新店區"
"241011","013-R5","2018/06/26 20:09:26","新北市三重區仁愛街51號","121.496513333333","25.071785","6500200","三重區"
"241028","022-UY","2018/06/26 20:09:26","新北市三重區仁化街168號","121.494746666667","25.0573683333333","6500200","三重區"
"241008","059-VK","2018/06/26 20:09:21","新北市三重區永福街197巷35號","121.478305","25.0743816666667","6500200","三重區"
"241022","060-VK","2018/06/26 20:09:24","新北市三重區重陽路二段3號","121.486886666667","25.0618083333333","6500200","三重區"
"241031","061-VK","2018/06/26 20:09:22","新北市三重區過圳街9-1號","121.488641666667","25.0600916666667","6500200","三重區"
"241015","062-VK","2018/06/26 20:09:20","新北市三重區福德北路26-3號","121.502176666667","25.06491","6500200","三重區"
"241017","063-VK","2018/06/26 20:09:25","新北市三重區自強路一段185號","121.49222","25.0679","6500200","三重區"
"241024","065-VK","2018/06/26 20:09:13","新北市三重區中正北路284號","121.480436666667","25.068525","6500200","三重區"
"241026","066-VK","2018/06/26 20:09:26","新北市三重區福德南路65巷4號","121.50216","25.06056","6500200","三重區"
"241002","090-VK","2018/06/26 20:09:11","新北市三重區五華街35巷68號","121.495885","25.0819633333333","6500200","三重區"
"241005","262-UM","2018/06/26 20:09:16","新北市三重區溪尾街327號","121.488585","25.0847766666667","6500200","三重區"
"241003","265-UM","2018/06/26 20:09:28","新北市三重區仁愛街472號","121.48965","25.08245","6500200","三重區"
"241016","266-UM","2018/06/26 20:09:26","新北市三重區大同北路59號","121.495366666667","25.063395","6500200","三重區"
"241009","267-UM","2018/06/26 20:09:26","新北市三重區三和路四段382巷137號","121.479398333333","25.07813","6500200","三重區"
"241018","268-UM","2018/06/26 20:09:31","新北市三重區自強路一段163號","121.49325","25.0672366666667","6500200","三重區"
"241032","269-UM","2018/06/26 20:09:28","新北市三重區捷運路65號","121.48343","25.0555066666667","6500200","三重區"
"241013","270-UM","2018/06/26 20:09:13","新北市三重區三和路三段151巷43號","121.493885","25.0743116666667","6500200","三重區"
"241025","271-UM","2018/06/26 20:09:17","新北市三重區中正北路430號","121.474506666667","25.071105","6500200","三重區"
"241007","398-BY","2018/06/26 20:09:29","新北市三重區三和路四段111-8號","121.48632","25.0775133333333","6500200","三重區"
"241004","475-VK","2018/06/26 20:09:20","新北市三重區自強路四段80號","121.490553333333","25.078915","6500200","三重區"
"241020","478-VK","2018/06/26 20:09:20","新北市三重區三和路三段117號","121.493028333333","25.0732016666667","6500200","三重區"
"241030","480-VK","2018/06/26 20:09:10","新北市三重區成功路145巷33號","121.487631666667","25.0531633333333","6500200","三重區"
"241014","543-UM","2018/06/26 20:09:12","新北市三重區長樂街114號","121.501635","25.0695383333333","6500200","三重區"
"241001","547-UM","2018/06/26 20:09:25","新北市三重區溪尾街24號","121.490625","25.0761283333333","6500200","三重區"
"241019","KEA-2593","2018/06/26 20:09:14","新北市三重區自強路二段33巷57號","121.490941666667","25.0699033333333","6500200","三重區"
"241006","AAD-863","2018/06/26 20:09:25","新北市三重區車路頭街139巷14號","121.484378333333","25.0762366666667","6500200","三重區"
"241035","743-BX","2018/06/26 20:09:28","新北市三重區平安街29號","121.498323333333","25.0642066666667","6500200","三重區"
"241023","887-TS","2018/06/26 20:09:20","新北市三重區頂崁街218號","121.476981666667","25.0680583333333","6500200","三重區"
"241012","941-UM","2018/06/26 20:09:16","新北市三重區仁福街64巷31號","121.497596666667","25.0755733333333","6500200","三重區"
"241029","942-UM","2018/06/26 20:09:17","新北市三重區光明路32巷16號","121.491743333333","25.0586716666667","6500200","三重區"
"241033","AAC-255","2018/06/26 20:09:26","新北市三重區光復路一段70號","121.472046666667","25.04934","6500200","三重區"
"235066","003-UY","2018/06/26 20:09:23","新北市中和區中山路二段3巷28號","121.506745","25.0052783333333","6500300","中和區"
"235039","097-UM","2018/06/26 20:09:24","新北市中和區大勇街29巷12號","121.515921666667","24.9944983333333","6500300","中和區"
"235065","098-UM","2018/06/26 20:09:13","新北市中和區永和路90巷2弄1號","121.497416666667","25.0058966666667","6500300","中和區"
"235040","150-BY","2018/06/26 20:09:13","新北市中和區保健路45號","121.509156666667","24.997475","6500300","中和區"
"235050","4979-A6","2018/06/26 20:09:20","新北市中和區安樂路37號","121.511778333333","24.993075","6500300","中和區"
"235069","4980-A6","2018/06/26 20:09:12","新北市中和區景新街98號","121.50472","24.9985016666667","6500300","中和區"
"235070","558-UM","2018/06/26 20:09:28","新北市中和區中正路766號","121.485188333333","24.9996066666667","6500300","中和區"
"235046","733-UM","2018/06/26 20:09:12","新北市中和區忠孝街33號","121.510448333333","24.9832733333333","6500300","中和區"
"235048","896-TW","2018/06/26 20:09:18","新北市中和區景新街396號","121.512548333333","24.9896483333333","6500300","中和區"
"235051","157-BY","2018/06/26 20:09:17","新北市中和區景安路198號","121.504228333333","24.9913883333333","6500300","中和區"
"235037","AAC-213","2018/06/26 20:09:00","新北市中和區立人街63號","121.52008","24.99432","6500300","中和區"
"235059","AAC-215","2018/06/26 20:09:24","新北市中和區圓通路335巷33弄35號","121.493755","24.9888133333333","6500300","中和區"
"220068","013-TV","2018/06/26 20:09:24","新北市板橋區中山路二段290號","121.479643333333","25.01884","6500100","板橋區"
"220106","075-UY","2018/06/26 20:09:30","新北市板橋區文聖街11巷15號","121.475896666667","25.0328066666667","6500100","板橋區"
"220069","AAD-861","2018/06/26 20:09:21","新北市板橋區貴興路50號","121.457058333333","25.0031983333333","6500100","板橋區"
"247024","893-R6","2018/06/26 20:09:13","新北市蘆洲區光明路110號","121.463546666667","25.0881333333333","6501400","蘆洲區"
"247014","546-UM","2018/06/26 20:09:22","新北市蘆洲區中山二路218號","121.469935","25.0798833333333","6501400","蘆洲區"
"247022","500-BY","2018/06/26 20:09:15","新北市蘆洲區三民路122-1號","121.471051666667","25.087345","6501400","蘆洲區"
"247010","341-TH","2018/06/26 20:09:29","新北市蘆洲區信義路154號","121.479358333333","25.0834166666667","6501400","蘆洲區"
"247012","339-TH","2018/06/26 20:09:24","新北市蘆洲區復興路197號","121.479418333333","25.089485","6501400","蘆洲區"
"247004","337-TH","2018/06/26 20:09:21","新北市蘆洲區長安街285巷26號","121.456905","25.0839416666667","6501400","蘆洲區"
"247006","336-TH","2018/06/26 20:09:29","新北市蘆洲區永安南路二段14號","121.467641666667","25.0769166666667","6501400","蘆洲區"
"247018","057-VK","2018/06/26 20:09:27","新北市蘆洲區民族路314巷16號","121.478076666667","25.09046","6501400","蘆洲區"
"247008","056-VK","2018/06/26 20:09:25","新北市蘆洲區中山一路135巷6弄30號","121.474916666667","25.0810316666667","6501400","蘆洲區"
"247016","007-UY","2018/06/26 20:09:28","新北市蘆洲區光華路121號","121.466718333333","25.0823566666667","6501400","蘆洲區"
"247002","002-UY","2018/06/26 20:05:59","新北市蘆洲區長安街274巷10-1號","121.458105","25.086825","6501400","蘆洲區"
"247020","001-UY","2018/06/26 20:09:22","新北市蘆洲區民權路106巷5弄22號","121.474315","25.089135","6501400","蘆洲區"
"228002","663-BX","2018/06/26 19:57:13","新北市貢寮區貢寮里朝陽街1-2號","121.912246666667","25.0212733333333","6502600","貢寮區"
"224010","AGQ-8101","2018/06/26 20:09:24","新北市瑞芳區輕便路131號","121.843568333333","25.1087666666667","6501200","瑞芳區"
"227003","642-TC","2018/06/26 20:09:11","新北市雙溪區魚行里新店74-1號","121.872031666667","25.0299783333333","6502500","雙溪區"
"222001","KEA-2212","2018/06/26 20:09:20","新北市深坑區北深路三段196號","121.601521666667","25.003615","6501800","深坑區"
"208002","KEA-2872","2018/06/26 20:09:27","新北市金山區環金路19號","121.640735","25.21762","6502700","金山區"
"251004","009-UM","2018/06/26 19:52:11","新北市淡水區民權路187巷30弄5號","121.460371666667","25.1330833333333","6501000","淡水區"
"251005","010-UM","2018/06/26 20:09:29","新北市淡水區學府路110號","121.450086666667","25.1722","6501000","淡水區"
"251013","KEA-2871","2018/06/26 20:09:30","新北市淡水區奎柔山路309號","121.461806666667","25.2047466666667","6501000","淡水區"
"251016","179-VK","2018/06/26 20:09:15","新北市淡水區番子田18號","121.457235","25.2291683333333","6501000","淡水區"
"251014","180-VK","2018/06/26 20:09:30","新北市淡水區石頭厝3號","121.45869","25.2356","6501000","淡水區"
"251008","181-VK","2018/06/26 20:09:20","新北市淡水區沙崙路131巷11號","121.421923333333","25.1829866666667","6501000","淡水區"
"251015","182-VK","2018/06/26 20:09:24","新北市淡水區埤島79號","121.449451666667","25.190245","6501000","淡水區"
"251010","413-VK","2018/06/26 20:09:25","新北市淡水區崁頂五路303號","121.424528333333","25.1983983333333","6501000","淡水區"
"251012","441-VK","2018/06/26 20:09:20","新北市淡水區淡金路三段329號","121.44894","25.2061383333333","6501000","淡水區"
"251001","559-UM","2018/06/26 20:09:17","新北市淡水區新市二路四段265號","121.445675","25.1924866666667","6501000","淡水區"
"251006","561-UM","2018/06/26 20:09:28","新北市淡水區北新路141巷29號","121.44828","25.1796116666667","6501000","淡水區"
"251009","575-R6","2018/06/26 20:09:22","新北市淡水區清水街1號","121.445233333333","25.17038","6501000","淡水區"
"251002","672-BX","2018/06/26 20:09:30","新北市淡水區中正路296號","121.437523333333","25.1720716666667","6501000","淡水區"
"251003","766-UM","2018/06/26 20:09:28","新北市淡水區中山北路二段157號","121.443716666667","25.1838216666667","6501000","淡水區"
"207003","550-UM","2018/06/26 20:09:29","新北市萬里區大鵬里萬里加投192號","121.642876666667","25.2157183333333","6502800","萬里區"
"207004","291-VK","2018/06/26 20:09:25","新北市萬里區北基里仁一街30號","121.682405","25.1766833333333","6502800","萬里區"
"252002","178-VK","2018/06/26 20:09:13","新北市三芝區中正路一段72號","121.503916666667","25.2577083333333","6502100","三芝區"
"252001","292-VK","2018/06/26 20:09:21","新北市三芝區公正街66號","121.499773333333","25.257455","6502100","三芝區"
"237008","302-VK","2018/06/26 20:09:16","新北市三峽區中正路一段174巷9號","121.371941666667","24.92887","6500900","三峽區"
"237016","649-BX","2018/06/26 20:09:25","新北市三峽區介壽路二段138巷1弄166號","121.40322","24.927565","6500900","三峽區"
"237005","AKY-6261","2018/06/26 20:09:28","新北市三峽區三樹路98巷74弄25號","121.38504","24.9384633333333","6500900","三峽區"
"236070","105-UM","2018/06/26 20:09:23","新北市土城區中央路三段185-6號","121.431705","24.9648466666667","6501300","土城區"
"236042","107-UM","2018/06/26 20:09:23","新北市土城區學成路6號","121.453428333333","24.98642","6501300","土城區"
"236079","166-UM","2018/06/26 20:09:24","新北市土城區金安街40號","121.42058","24.965115","6501300","土城區"
"236030","253-BX","2018/06/26 20:09:25","新北市土城區中央路一段116號","121.446526666667","24.98806","6501300","土城區"
"236026","269-VK","2018/06/26 20:09:27","新北市土城區裕生路102巷26號","121.446141666667","24.9849","6501300","土城區"
"236014","270-VK","2018/06/26 20:09:18","新北市土城區廣明街4號","121.456026666667","24.9917933333333","6501300","土城區"
"236038","271-VK","2018/06/26 20:09:12","新北市土城區延吉街353巷8號","121.464511666667","24.983495","6501300","土城區"
"236021","401-BY","2018/06/26 20:09:21","新北市土城區和城路二段253號","121.472971666667","24.9875183333333","6501300","土城區"
"236059","912-UM","2018/06/26 20:09:27","新北市土城區中央路二段191號","121.442138333333","24.9755733333333","6501300","土城區"
"236049","913-UM","2018/06/26 20:09:12","新北市土城區金城路三段38號","121.465466666667","24.9864583333333","6501300","土城區"
"236063","915-UM","2018/06/26 20:09:31","新北市土城區立德路135巷18號","121.465","24.9869883333333","6501300","土城區"
"236055","AAC-216","2018/06/26 20:09:15","新北市土城區中華路一段166號","121.441395","24.9831783333333","6501300","土城區"
"242034","AAC-296","2018/06/26 20:09:14","新北市新莊區建中街95號","121.44673","25.0360516666667","6500500","新莊區"
"242058","986-R7","2018/06/26 20:09:28","新北市新莊區八德街102號","121.424246666667","25.021285","6500500","新莊區"
"242054","751-BX","2018/06/26 20:09:19","新北市新莊區西盛街395巷7號","121.428145","25.0127533333333","6500500","新莊區"
"242023","705-TV","2018/06/26 20:09:23","新北市新莊區化成路283號","121.466095","25.054635","6500500","新莊區"
"242027","615-BX","2018/06/26 20:09:15","新北市新莊區幸福路732號","121.448786666667","25.0491883333333","6500500","新莊區"
"242025","613-BX","2018/06/26 20:09:23","新北市新莊區五工路68巷11號","121.458525","25.0642133333333","6500500","新莊區"
"242029","612-BX","2018/06/26 20:09:30","新北市新莊區中原路261號","121.448488333333","25.0544583333333","6500500","新莊區"
"242042","566-BX","2018/06/26 20:09:13","新北市新莊區青山路一段177號","121.400795","25.0301483333333","6500500","新莊區"
"242046","497-BY","2018/06/26 20:09:28","新北市新莊區裕民街85巷22弄1號","121.419531666667","25.0229616666667","6500500","新莊區"
"242051","441-UM","2018/06/26 20:09:27","新北市新莊區民安西路170號","121.425916666667","25.0159783333333","6500500","新莊區"
"242037","415-TV","2018/06/26 20:09:20","新北市新莊區建安街9巷7號","121.429145","25.0266683333333","6500500","新莊區"
"242007","413-TV","2018/06/26 20:09:20","新北市新莊區福壽街164巷20號","121.459298333333","25.0527966666667","6500500","新莊區"
"242044","400-BY","2018/06/26 20:09:04","桃園市龜山區萬壽路一段21巷8號","121.41041","25.02033","6500500","新莊區"
"242061","353-BY","2018/06/26 20:09:12","新北市新莊區瓊林路100巷1號","121.4435","25.026425","6500500","新莊區"
"242009","132-UY","2018/06/26 20:09:14","新北市新莊區昌盛街35巷1弄2號","121.454023333333","25.0503666666667","6500500","新莊區"
"242039","133-UY","2018/06/26 20:09:29","新北市新莊區龍安路478號","121.426455","25.017785","6500500","新莊區"
"242032","135-UY","2018/06/26 20:09:25","新北市新莊區中正路449號","121.443121666667","25.0340383333333","6500500","新莊區"
"242048","172-VK","2018/06/26 20:09:20","新北市新莊區四維路167號","121.422388333333","25.021655","6500500","新莊區"
"242011","173-VK","2018/06/26 20:08:46","新北市新莊區中和街220號","121.448295","25.0509433333333","6500500","新莊區"
"242056","175-VK","2018/06/26 20:09:27","新北市新莊區新莊路649巷15弄1號","121.444981666667","25.0315116666667","6500500","新莊區"
"242005","176-VK","2018/06/26 20:09:21","新北市新莊區頭興街1-7號","121.46387","25.05351","6500500","新莊區"
"242015","346-TH","2018/06/26 20:08:56","新北市新莊區中平路26巷41號","121.44673","25.0433","6500500","新莊區"
"242017","347-TH","2018/06/26 20:09:23","新北市新莊區中安街5巷27號","121.452183333333","25.0460183333333","6500500","新莊區"
"242021","348-TH","2018/06/26 20:09:27","新北市新莊區中興街3號","121.449185","25.0358383333333","6500500","新莊區"
"242002","349-TH","2018/06/26 20:09:24","新北市新莊區中正路97號","121.460603333333","25.038935","6500500","新莊區"
"242019","350-TH","2018/06/26 20:09:27","新北市新莊區博愛路1巷2號","121.456438333333","25.0427883333333","6500500","新莊區"
"221008","489-VK","2018/06/26 20:09:14","台北市內湖區康樂街180號","121.620208333333","25.0755383333333","6501100","汐止區"
"221036","130-UY","2018/06/26 20:09:31","新北市汐止區仁愛路143號","121.663325","25.0643183333333","6501100","汐止區"
"221015","131-UY","2018/06/26 20:09:25","新北市汐止區建成路34號","121.66411","25.0727616666667","6501100","汐止區"
"221010","269-BY","2018/06/26 20:09:16","新北市汐止區八連路一段253號","121.640456666667","25.083805","6501100","汐止區"
"221012","278-VK","2018/06/26 20:09:13","新北市汐止區汐平路二段32-1號","121.694935","25.0653","6501100","汐止區"
"221023","279-VK","2018/06/26 20:09:28","新北市汐止區明峰街312號","121.624916666667","25.0674533333333","6501100","汐止區"
"221032","280-BY","2018/06/26 20:09:27","新北市汐止區弘道街10號","121.617035","25.0485516666667","6501100","汐止區"
"221027","281-BY","2018/06/26 20:09:00","新北市汐止區民生街10號","121.660118333333","25.069045","6501100","汐止區"
"221029","298-VK","2018/06/26 20:09:15","新北市汐止區樟樹一路123巷19號","121.641396666667","25.0645216666667","6501100","汐止區"
"221021","299-VK","2018/06/26 20:09:19","新北市汐止區連興街138號","121.653923333333","25.0615816666667","6501100","汐止區"
"221031","353-TW","2018/06/26 20:09:17","新北市汐止區原興路77號","121.63188","25.0663366666667","6501100","汐止區"
"221035","622-UM","2018/06/26 20:09:27","新北市汐止區長江街79巷1號","121.657148333333","25.0725983333333","6501100","汐止區"
"221025","623-UM","2018/06/26 20:09:24","新北市汐止區秀峰路60號","121.659728333333","25.0647016666667","6501100","汐止區"
"221038","646-BX","2018/06/26 20:09:16","新北市汐止區大同路三段66-3號","121.668155","25.0770283333333","6501100","汐止區"
"221033","647-BX","2018/06/26 20:09:17","新北市汐止區東勢街201巷129弄2號","121.633438333333","25.0428433333333","6501100","汐止區"
"221002","707-TV","2018/06/26 20:09:21","新北市汐止區中興路62號","121.635245","25.06122","6501100","汐止區"
"221018","753-BX","2018/06/26 20:09:17","新北市汐止區茄福街35巷29號","121.673283333333","25.0663983333333","6501100","汐止區"
"220080","200-UY","2018/06/26 20:09:17","新北市板橋區大觀路二段153巷44弄23號","121.446158333333","24.9992183333333","6500100","板橋區"
"220082","610-BX","2018/06/26 20:09:19","新北市板橋區金門街337巷14弄18號","121.431658333333","24.9825483333333","6500100","板橋區"
"220101","245-BX","2018/06/26 20:09:20","新北市板橋區莒光路171巷1弄18-3號","121.474475","25.0247083333333","6500100","板橋區"
"220055","256-TC","2018/06/26 20:09:30","新北市板橋區重慶路290巷22弄16號","121.462285","24.9995533333333","6500100","板橋區"
"220103","257-TC","2018/06/26 20:09:21","新北市板橋區陽明街245號","121.462946666667","25.024755","6500100","板橋區"
"220094","280-UM","2018/06/26 20:09:19","新北市板橋區文化路一段479巷44號","121.467886666667","25.0226533333333","6500100","板橋區"
"220053","285-VK","2018/06/26 20:09:15","新北市板橋區懷仁街49-1號","121.476855","25.01919","6500100","板橋區"
"220083","286-VK","2018/06/26 20:09:20","新北市板橋區僑中二街88巷38號","121.44427","25.0096683333333","6500100","板橋區"
"220081","287-VK","2018/06/26 20:09:24","新北市板橋區僑中一街124巷18弄36號","121.447528333333","25.013575","6500100","板橋區"
"220090","288-VK","2018/06/26 20:09:18","新北市板橋區幸福路32巷54號","121.460423333333","25.0222283333333","6500100","板橋區"
"220061","293-UM","2018/06/26 20:09:23","新北市板橋區民生路二段91號","121.471535","25.0176166666667","6500100","板橋區"
"220092","307-R5","2018/06/26 20:09:32","新北市板橋區文化路一段45巷8號","121.460161666667","25.0136683333333","6500100","板橋區"
"220098","317-R6","2018/06/26 20:09:22","新北市板橋區新海路72巷5弄9號","121.461901666667","25.0224683333333","6500100","板橋區"
"220065","461-BY","2018/06/26 20:09:26","新北市板橋區中山路一段154巷3弄2號","121.465446666667","25.010425","6500100","板橋區"
"242013","280-VK","2018/06/26 20:09:16","新北市新莊區幸福路710巷5弄16號","121.449176666667","25.0497666666667","6500500","新莊區"
"220088","491-VK","2018/06/26 20:09:25","新北市板橋區民治街92-1號","121.479173333333","25.0317066666667","6500100","板橋區"
"220035","560-BX","2018/06/26 20:09:32","新北市板橋區新生街37號","121.456745","25.0210833333333","6500100","板橋區"
"220093","689-BX","2018/06/26 20:09:27","新北市板橋區長江路一段148號","121.46088","25.0302166666667","6500100","板橋區"
"220102","KEA-2699","2018/06/26 20:09:22","新北市板橋區懷德街68號","121.477418333333","25.0322133333333","6500100","板橋區"
"220067","830-TW","2018/06/26 20:09:28","新北市板橋區中山路一段206巷22號","121.471035","25.0127666666667","6500100","板橋區"
"220089","833-TW","2018/06/26 20:09:18","新北市板橋區互助街56號","121.461426666667","25.0268333333333","6500100","板橋區"
"220074","895-R6","2018/06/26 20:09:27","新北市板橋區南雅南路一段5巷22號","121.456413333333","25.0052783333333","6500100","板橋區"
"220073","985-R7","2018/06/26 20:09:22","新北市板橋區南雅西路二段2-2號","121.453163333333","25.0090283333333","6500100","板橋區"
"220097","AAC-210","2018/06/26 20:09:19","新北市板橋區光正街9巷22弄7號","121.462313333333","25.016525","6500100","板橋區"
"220070","AAC-253","2018/06/26 20:09:12","新北市板橋區四川路二段243號","121.450445","24.9934083333333","6500100","板橋區"
"235068","KEA-2873","2018/06/26 20:09:29","新北市中和區福美路232號","121.498985","25.0052616666667","6500300","中和區"
