"lineid","car","time","location","longitude","latitude","cityid","cityname"
"234007","207-UY","2018/06/26 20:19:19","新北市永和區環河西路二段229巷1號","121.501401666667","25.01002","6500400","永和區"
"234081","298-R6","2018/06/26 20:19:20","新北市永和區福和路7巷10弄28號","121.524835","25.0073983333333","6500400","永和區"
"234038","336-UY","2018/06/26 20:19:26","新北市永和區成功路一段93巷16號","121.527736666667","25.0027133333333","6500400","永和區"
"234064","337-UY","2018/06/26 20:19:23","新北市永和區得和路108號","121.518248333333","25.0001066666667","6500400","永和區"
"234086","338-UY","2018/06/26 20:19:13","新北市永和區永和路二段207號","121.515383333333","25.013715","6500400","永和區"
"234070","552-UM","2018/06/26 20:19:18","新北市永和區福和路263巷11號","121.518008333333","25.0067933333333","6500400","永和區"
"234017","745-BX","2018/06/26 20:19:25","新北市永和區仁愛路24號","121.514731666667","25.013535","6500400","永和區"
"234030","746-BX","2018/06/26 20:19:24","新北市永和區民有街25巷10號","121.517418333333","24.9964416666667","6500400","永和區"
"234054","KEA-2590","2018/06/26 20:19:23","新北市永和區光復街2巷16弄15號","121.517641666667","25.0164233333333","6500400","永和區"
"234013","KEA-2591","2018/06/26 20:19:27","新北市永和區保生路54號","121.505386666667","25.0087316666667","6500400","永和區"
"234061","AAD-866","2018/06/26 20:19:19","新北市中和區安平路222號","121.514056666667","25.0000416666667","6500400","永和區"
"234042","862-TW","2018/06/26 20:19:11","新北市永和區雙和街1號","121.509813333333","25.0016733333333","6500400","永和區"
"234050","863-TW","2018/06/26 20:19:30","新北市永和區環河西路二段7-9號","121.508975","25.0168316666667","6500400","永和區"
"249005","172-UM","2018/06/26 20:19:16","新北市八里區下罟子1-16號","121.389795","25.14198","6502300","八里區"
"249001","173-UM","2018/06/26 20:19:19","新北市八里區中華路二段468號","121.400728333333","25.1460916666667","6502300","八里區"
"249004","303-UY","2018/06/26 20:19:18","新北市八里區中山路一段129巷19號","121.41387","25.1587083333333","6502300","八里區"
"249002","305-UY","2018/06/26 20:19:30","新北市八里區龍米路一段470號","121.450198333333","25.135485","6502300","八里區"
"249003","593-UM","2018/06/26 20:19:20","新北市八里區成昌新村23號","121.396295","25.145945","6502300","八里區"
"248014","025-BX","2018/06/26 20:19:26","新北市八里區荖阡坑路32-6號","121.404163333333","25.1270533333333","6501500","五股區"
"248016","026-BX","2018/06/26 20:19:19","新北市五股區天乙路16號","121.448518333333","25.1034783333333","6501500","五股區"
"248012","247-BX","2018/06/26 20:19:20","新北市五股區民義路一段212號","121.430553333333","25.0893716666667","6501500","五股區"
"248004","677-BX","2018/06/26 20:19:11","新北市五股區中興路四段56號","121.43778","25.0830866666667","6501500","五股區"
"248002","678-BX","2018/06/26 20:19:15","新北市五股區成泰路三段101-1號","121.44402","25.09024","6501500","五股區"
"248010","682-TV","2018/06/26 20:19:10","新北市泰山區楓江路111號","121.4381","25.0652066666667","6501500","五股區"
"234023","9380-KE","2018/06/26 20:19:19","新北市永和區中正路659號","121.514706666667","25.0102183333333","6500400","永和區"
"234077","969-R7","2018/06/26 20:19:16","新北市永和區民享街18號","121.515386666667","24.9951183333333","6500400","永和區"
"234074","AAC-211","2018/06/26 20:19:23","新北市永和區豫溪街160巷2號","121.523238333333","25.0096633333333","6500400","永和區"
"234067","AAC-212","2018/06/26 20:19:25","新北市永和區保平路270號","121.50844","25.0052116666667","6500400","永和區"
"234003","AAC-295","2018/06/26 20:19:30","新北市永和區自強街17號","121.51467","25.0081083333333","6500400","永和區"
"243013","AAD-798","2018/06/26 20:19:10","新北市泰山區新民路42號","121.427346666667","25.044295","6501600","泰山區"
"243009","297-R6","2018/06/26 20:19:25","新北市泰山區福泰街33號","121.433128333333","25.0600633333333","6501600","泰山區"
"243016","380-SR","2018/06/26 20:19:27","新北市泰山區明志路三段247號","121.423458333333","25.03754","6501600","泰山區"
"243015","421-VK","2018/06/26 20:19:23","新北市泰山區仁愛路92號","121.433115","25.05529","6501600","泰山區"
"243011","KEA-2215","2018/06/26 20:19:18","新北市新莊區明志路19號","121.41998","25.0292233333333","6501600","泰山區"
"243010","KEA-2216","2018/06/26 20:19:25","新北市泰山區明志路二段273巷10-1號","121.427171666667","25.04715","6501600","泰山區"
"243012","646-TV","2018/06/26 20:19:10","新北市泰山區楓江路121號","121.439061666667","25.0645616666667","6501600","泰山區"
"243014","680-BX","2018/06/26 20:19:23","新北市泰山區泰林路二段387號","121.427288333333","25.06429","6501600","泰山區"
"222003","436-BY","2018/06/26 20:19:17","新北市深坑區文化街74號","121.618165","25.001865","6501800","深坑區"
"222002","659-BX","2018/06/26 20:19:23","新北市深坑區萬福路83號","121.601698333333","25.009365","6501800","深坑區"
"231041","002-UM","2018/06/26 20:19:30","新北市新店區民權路39號","121.54056","24.982885","6500600","新店區"
"231059","046-UY","2018/06/26 20:19:25","新北市新店區安成街36號","121.510053333333","24.96127","6500600","新店區"
"231040","047-UY","2018/06/26 20:19:21","新北市新店區中正路184號","121.541031666667","24.97213","6500600","新店區"
"231044","106-UY","2018/06/26 20:19:20","新北市新店區北新路三段115號","121.54141","24.982405","6500600","新店區"
"231053","108-UY","2018/06/26 20:19:20","新北市新店區松林路10號","121.54718","24.9108","6500600","新店區"
"231054","110-UY","2018/06/26 20:19:28","新北市新店區檳榔路174號","121.544105","24.9618633333333","6500600","新店區"
"231048","187-VK","2018/06/26 20:19:10","新北市新店區寶橋路132號","121.547343333333","24.9760133333333","6500600","新店區"
"231057","256-BX","2018/06/26 20:19:16","新北市新店區花園五路二段27號","121.554716666667","24.9347266666667","6500600","新店區"
"231042","268-BY","2018/06/26 20:19:27","新北市新店區中興路二段100巷1號","121.547381666667","24.9715466666667","6500600","新店區"
"231051","278-BY","2018/06/26 20:19:22","新北市新店區溪園路465號","121.525445","24.9772416666667","6500600","新店區"
"231050","AAD-862","2018/06/26 20:19:19","新北市新店區博愛街11巷1號","121.54083","24.9730483333333","6500600","新店區"
"231066","4716-K9","2018/06/26 20:19:29","新北市新店區柴埕路60巷7-2號","121.508816666667","24.96485","6500600","新店區"
"231056","4715-K9","2018/06/26 20:19:05","新北市新店區中正路277號","121.537658333333","24.9743883333333","6500600","新店區"
"231067","4772-VM","2018/06/26 20:19:19","新北市新店區溪洲路6巷86號","121.533406666667","24.9633816666667","6500600","新店區"
"231065","512-UM","2018/06/26 20:19:13","新北市新店區安祥路106巷66號","121.475431666667","24.96066","6500600","新店區"
"231049","513-UM","2018/06/26 20:19:20","新北市新店區北新路二段35號","121.54284","24.9724466666667","6500600","新店區"
"231045","617-UM","2018/06/26 20:19:16","新北市新店區新坡一街10號","121.54836","24.9618716666667","6500600","新店區"
"231061","619-UM","2018/06/26 20:19:26","新北市新店區安興路32號","121.515528333333","24.9699566666667","6500600","新店區"
"231063","641-BX","2018/06/26 20:19:21","新北市新店區柴埕路116號","121.504536666667","24.9597566666667","6500600","新店區"
"231068","718-UY","2018/06/26 20:19:27","新北市新店區民權路7號","121.542638333333","24.9828166666667","6500600","新店區"
"231064","719-UM","2018/06/26 20:19:31","新北市新店區安和路二段192號","121.51905","24.9747116666667","6500600","新店區"
"231062","720-UM","2018/06/26 20:17:13","新北市新店區安康路三段148號","121.490693333333","24.951765","6500600","新店區"
"231060","897-TW","2018/06/26 20:19:19","新北市新店區錦秀路11巷90弄1號","121.480321666667","24.942895","6500600","新店區"
"231043","899-TW","2018/06/26 20:19:19","新北市新店區建國路133號","121.539273333333","24.9781433333333","6500600","新店區"
"231055","AKT-0513","2018/06/26 20:19:18","新北市新店區新明街19號","121.54079","24.9684133333333","6500600","新店區"
"241011","013-R5","2018/06/26 20:19:26","新北市三重區龍門路199號","121.499785","25.0732916666667","6500200","三重區"
"241028","022-UY","2018/06/26 20:19:26","新北市三重區大同南路124號","121.49632","25.0583683333333","6500200","三重區"
"241008","059-VK","2018/06/26 20:19:21","新北市三重區永福街211巷8號","121.479611666667","25.0740716666667","6500200","三重區"
"241022","060-VK","2018/06/26 20:19:24","新北市三重區新北大道一段32號","121.48828","25.061445","6500200","三重區"
"241031","061-VK","2018/06/26 20:19:22","新北市三重區三寧街15號","121.489446666667","25.0597633333333","6500200","三重區"
"241015","062-VK","2018/06/26 20:19:20","新北市三重區重新路一段122號","121.500351666667","25.062925","6500200","三重區"
"241017","063-VK","2018/06/26 20:19:25","新北市三重區長壽西街211號","121.491745","25.066305","6500200","三重區"
"241024","065-VK","2018/06/26 20:19:13","新北市三重區忠孝路三段12號","121.481745","25.0674216666667","6500200","三重區"
"241026","066-VK","2018/06/26 20:19:26","新北市三重區中央南路31號","121.50133","25.0621683333333","6500200","三重區"
"241002","090-VK","2018/06/26 20:19:31","新北市三重區仁義街101巷42號","121.499171666667","25.0808116666667","6500200","三重區"
"241005","262-UM","2018/06/26 20:19:16","新北市三重區富華街2號","121.489215","25.082415","6500200","三重區"
"241003","265-UM","2018/06/26 20:19:28","新北市三重區五華街136-1號","121.491485","25.08369","6500200","三重區"
"241016","266-UM","2018/06/26 20:19:21","新北市三重區大同北路54巷3號","121.494091666667","25.0635316666667","6500200","三重區"
"241009","267-UM","2018/06/26 20:19:26","新北市三重區永福街12號","121.482941666667","25.07821","6500200","三重區"
"241018","268-UM","2018/06/26 20:19:30","新北市三重區正義北路250號","121.496131666667","25.0684316666667","6500200","三重區"
"241032","269-UM","2018/06/26 20:19:28","新北市三重區捷運路19巷6弄21號","121.484321666667","25.0568983333333","6500200","三重區"
"241013","270-UM","2018/06/26 20:19:13","新北市三重區三和路三段163號","121.491961666667","25.074045","6500200","三重區"
"241025","271-UM","2018/06/26 20:19:17","新北市三重區自由街14號","121.47991","25.0664633333333","6500200","三重區"
"241007","398-BY","2018/06/26 20:19:29","新北市三重區溪尾街108巷40號","121.487891666667","25.0783016666667","6500200","三重區"
"241004","475-VK","2018/06/26 20:19:20","新北市三重區仁愛街390號","121.490848333333","25.0807966666667","6500200","三重區"
"241020","478-VK","2018/06/26 20:19:20","新北市三重區三和路三段144巷25號","121.491846666667","25.07229","6500200","三重區"
"241030","480-VK","2018/06/26 20:19:30","新北市三重區環河南路254巷55號","121.488005","25.0523583333333","6500200","三重區"
"241014","543-UM","2018/06/26 20:19:32","新北市三重區龍門路244號","121.500845","25.0737983333333","6500200","三重區"
"241001","547-UM","2018/06/26 20:19:25","新北市三重區溪尾街34號","121.490925","25.076775","6500200","三重區"
"241019","KEA-2593","2018/06/26 20:19:14","新北市三重區忠孝路一段38號","121.49131","25.0718833333333","6500200","三重區"
"241006","AAD-863","2018/06/26 20:19:25","新北市三重區車路頭街139巷14號","121.484273333333","25.0761883333333","6500200","三重區"
"241035","743-BX","2018/06/26 20:19:15","新北市三重區正義北路33巷25號","121.49843","25.06382","6500200","三重區"
"241023","887-TS","2018/06/26 20:19:20","新北市三重區頂崁街139號","121.477723333333","25.06509","6500200","三重區"
"241012","941-UM","2018/06/26 20:19:16","新北市三重區河邊北街262號","121.501701666667","25.07643","6500200","三重區"
"241029","942-UM","2018/06/26 20:19:17","新北市三重區重安街98號","121.492658333333","25.0561116666667","6500200","三重區"
"241033","AAC-255","2018/06/26 20:19:26","新北市三重區五谷王北街50巷38號","121.475181666667","25.0513666666667","6500200","三重區"
"235066","003-UY","2018/06/26 20:19:23","新北市中和區水源路91號","121.506975","25.0035466666667","6500300","中和區"
"235039","097-UM","2018/06/26 20:19:24","新北市中和區自強路56號","121.520061666667","24.99461","6500300","中和區"
"235065","098-UM","2018/06/26 20:19:12","新北市中和區永和路128巷26號","121.497561666667","25.0069483333333","6500300","中和區"
"235050","4979-A6","2018/06/26 20:19:20","新北市中和區景安路177巷8號","121.505791666667","24.993975","6500300","中和區"
"235069","4980-A6","2018/06/26 20:19:12","新北市中和區圓通路189號","121.497443333333","24.9946933333333","6500300","中和區"
"235059","AAC-215","2018/06/26 20:19:24","新北市中和區圓通路391-4號","121.489845","24.989165","6500300","中和區"
"220069","AAD-861","2018/06/26 20:19:21","新北市板橋區貴興路111號","121.455825","25.00255","6500100","板橋區"
"247024","893-R6","2018/06/26 20:19:13","新北市蘆洲區光榮路120巷8弄41號","121.464556666667","25.087895","6501400","蘆洲區"
"247014","546-UM","2018/06/26 20:19:22","新北市蘆洲區中山二路137巷28號","121.472345","25.08084","6501400","蘆洲區"
"247022","500-BY","2018/06/26 20:19:15","新北市蘆洲區民族路455號","121.46753","25.0884166666667","6501400","蘆洲區"
"247010","341-TH","2018/06/26 20:19:21","新北市蘆洲區信義路204號","121.479033333333","25.0848083333333","6501400","蘆洲區"
"247012","339-TH","2018/06/26 20:19:24","新北市蘆洲區中興街15巷5號","121.480361666667","25.087255","6501400","蘆洲區"
"247004","337-TH","2018/06/26 20:19:21","新北市蘆洲區永康街30號","121.458618333333","25.085495","6501400","蘆洲區"
"247006","336-TH","2018/06/26 20:19:09","新北市蘆洲區九芎街136號","121.465156666667","25.0790266666667","6501400","蘆洲區"
"247018","057-VK","2018/06/26 20:19:27","新北市蘆洲區民族路392號","121.475108333333","25.0913633333333","6501400","蘆洲區"
"247008","056-VK","2018/06/26 20:19:25","新北市蘆洲區集賢路228號","121.482341666667","25.086245","6501400","蘆洲區"
"247016","007-UY","2018/06/26 20:19:28","新北市蘆洲區中正路185巷69號","121.465035","25.0836383333333","6501400","蘆洲區"
"247002","002-UY","2018/06/26 20:19:11","新北市蘆洲區長安街331巷40號","121.455596666667","25.0867066666667","6501400","蘆洲區"
"247020","001-UY","2018/06/26 20:19:22","新北市蘆洲區仁愛街37號","121.472235","25.0927766666667","6501400","蘆洲區"
"228002","663-BX","2018/06/26 19:57:13","新北市貢寮區貢寮里朝陽街1-2號","121.912246666667","25.0212733333333","6502600","貢寮區"
"222001","KEA-2212","2018/06/26 20:19:32","新北市深坑區北深路三段213號","121.60039","25.0040633333333","6501800","深坑區"
"251004","009-UM","2018/06/26 19:52:11","新北市淡水區民權路187巷30弄5號","121.460371666667","25.1330833333333","6501000","淡水區"
"251005","010-UM","2018/06/26 20:19:28","新北市淡水區淡金路二段138號","121.44683","25.1876633333333","6501000","淡水區"
"251013","KEA-2871","2018/06/26 20:19:10","新北市淡水區相公山1號","121.475293333333","25.2063883333333","6501000","淡水區"
"251016","179-VK","2018/06/26 20:19:15","新北市淡水區淡金路五段20號","121.453395","25.2324866666667","6501000","淡水區"
"251014","180-VK","2018/06/26 20:19:11","新北市淡水區石頭厝3號","121.458696666667","25.23559","6501000","淡水區"
"251008","181-VK","2018/06/26 20:19:20","新北市淡水區淡海路180巷17號","121.421436666667","25.1846033333333","6501000","淡水區"
"251015","182-VK","2018/06/26 20:19:24","新北市淡水區中山北路三段171號","121.446048333333","25.196855","6501000","淡水區"
"251010","413-VK","2018/06/26 20:19:25","新北市淡水區新民街一段132號","121.427745","25.1888916666667","6501000","淡水區"
"251012","441-VK","2018/06/26 20:19:20","新北市淡水區下圭柔山431-1號","121.450108333333","25.2106866666667","6501000","淡水區"
"251001","559-UM","2018/06/26 20:19:17","新北市淡水區新市二路四段265號","121.445723333333","25.1925","6501000","淡水區"
"251006","561-UM","2018/06/26 20:19:28","新北市淡水區北新路169巷2號","121.450291666667","25.1794633333333","6501000","淡水區"
"251009","575-R6","2018/06/26 20:19:22","新北市淡水區中正路8巷1號","121.441696666667","25.1696916666667","6501000","淡水區"
"251002","672-BX","2018/06/26 20:19:09","新北市淡水區中正路156號","121.440613333333","25.1697216666667","6501000","淡水區"
"251003","766-UM","2018/06/26 20:19:28","新北市淡水區中山北路一段229號","121.4445","25.1795366666667","6501000","淡水區"
"207004","291-VK","2018/06/26 20:19:25","新北市萬里區北基里仁二街1號","121.68249","25.175575","6502800","萬里區"
"252002","178-VK","2018/06/26 20:19:13","新北市三芝區中正路一段35號","121.503088333333","25.2583916666667","6502100","三芝區"
"252001","292-VK","2018/06/26 20:19:21","新北市三芝區中山路一段14號","121.500655","25.2580166666667","6502100","三芝區"
"237016","649-BX","2018/06/26 20:19:25","新北市三峽區介壽路二段138巷24號","121.3953","24.933325","6500900","三峽區"
"236070","105-UM","2018/06/26 20:19:23","新北市土城區三民路9號","121.42045","24.9632433333333","6501300","土城區"
"236042","107-UM","2018/06/26 20:19:23","新北市土城區裕民路10號","121.447353333333","24.988885","6501300","土城區"
"236030","253-BX","2018/06/26 20:19:25","新北市土城區學成路128巷11號","121.449525","24.9901016666667","6501300","土城區"
"236026","269-VK","2018/06/26 20:19:27","新北市土城區中央路一段249巷27號","121.446345","24.9854233333333","6501300","土城區"
"236014","270-VK","2018/06/26 20:19:18","新北市土城區廣明街90巷18號","121.455491666667","24.9944933333333","6501300","土城區"
"236059","912-UM","2018/06/26 20:19:27","新北市土城區中央路三段140號","121.433295","24.965565","6501300","土城區"
"242034","AAC-296","2018/06/26 20:19:19","新北市新莊區建中街124號","121.445415","25.0365383333333","6500500","新莊區"
"242058","986-R7","2018/06/26 20:19:32","新北市新莊區八德街220號","121.423253333333","25.01912","6500500","新莊區"
"242054","751-BX","2018/06/26 20:19:19","新北市新莊區民安西路269-2號","121.42623","25.01269","6500500","新莊區"
"242023","705-TV","2018/06/26 20:19:26","新北市新莊區化成路800號","121.465063333333","25.05945","6500500","新莊區"
"242027","615-BX","2018/06/26 20:19:15","新北市新莊區幸福路586號","121.453748333333","25.0493","6500500","新莊區"
"242025","613-BX","2018/06/26 20:19:16","新北市新莊區五工二路78巷22號","121.460756666667","25.0666566666667","6500500","新莊區"
"242029","612-BX","2018/06/26 20:19:30","新北市新莊區中華路二段145號","121.452683333333","25.05114","6500500","新莊區"
"242042","566-BX","2018/06/26 20:19:12","新北市新莊區壽山路45號","121.414813333333","25.0310483333333","6500500","新莊區"
"242046","497-BY","2018/06/26 20:19:28","新北市新莊區中正路新生巷43號","121.417458333333","25.023365","6500500","新莊區"
"242051","441-UM","2018/06/26 20:19:27","新北市新莊區民安西路214號","121.42574","25.0148183333333","6500500","新莊區"
"242037","415-TV","2018/06/26 20:19:26","新北市新莊區後港一路56巷24弄3號","121.426531666667","25.025275","6500500","新莊區"
"242007","413-TV","2018/06/26 20:19:20","新北市新莊區福壽街142巷38號","121.459173333333","25.0518683333333","6500500","新莊區"
"242044","400-BY","2018/06/26 20:19:24","新北市新莊區中正路新建巷28弄71號","121.413735","25.02102","6500500","新莊區"
"242061","353-BY","2018/06/26 20:19:12","新北市新莊區新樹路210號","121.433876666667","25.0204766666667","6500500","新莊區"
"242009","132-UY","2018/06/26 20:19:14","新北市新莊區昌平街11號","121.454841666667","25.051755","6500500","新莊區"
"242039","133-UY","2018/06/26 20:19:12","新北市新莊區成功街83巷3號","121.424616666667","25.0194283333333","6500500","新莊區"
"242032","135-UY","2018/06/26 20:19:24","新北市新莊區中正路508巷148號","121.438453333333","25.0354433333333","6500500","新莊區"
"242048","172-VK","2018/06/26 20:19:20","新北市新莊區成功街208號","121.421183333333","25.0179583333333","6500500","新莊區"
"242011","173-VK","2018/06/26 20:19:26","新北市新莊區中信街37巷1弄11號","121.450955","25.0505766666667","6500500","新莊區"
"242056","175-VK","2018/06/26 20:19:27","新北市新莊區豐年街28巷14號","121.445616666667","25.0323866666667","6500500","新莊區"
"242005","176-VK","2018/06/26 20:19:26","新北市新莊區頭前路30號","121.467726666667","25.0524666666667","6500500","新莊區"
"242015","346-TH","2018/06/26 20:19:16","新北市新莊區永樂街228號","121.446375","25.0444066666667","6500500","新莊區"
"242017","347-TH","2018/06/26 20:19:23","新北市新莊區中港一街140號","121.447896666667","25.0452183333333","6500500","新莊區"
"242021","348-TH","2018/06/26 20:19:27","新北市新莊區和興街3號","121.447655","25.0389816666667","6500500","新莊區"
"242002","349-TH","2018/06/26 20:19:24","新北市新莊區化成路14號","121.46471","25.0424633333333","6500500","新莊區"
"242019","350-TH","2018/06/26 20:19:27","新北市新莊區復興路二段196巷1號","121.459451666667","25.0440433333333","6500500","新莊區"
"221008","489-VK","2018/06/26 20:19:21","新北市汐止區康寧街309號","121.627088333333","25.0674233333333","6501100","汐止區"
"221036","130-UY","2018/06/26 20:19:11","新北市汐止區福安街53號","121.66359","25.06397","6501100","汐止區"
"221015","131-UY","2018/06/26 20:19:25","新北市汐止區建成路142巷19弄10號","121.66208","25.0739266666667","6501100","汐止區"
"221010","269-BY","2018/06/26 20:19:17","新北市汐止區八連路二段439號","121.628415","25.1040916666667","6501100","汐止區"
"221012","278-VK","2018/06/26 20:19:13","新北市汐止區保新街283號","121.692631666667","25.0683633333333","6501100","汐止區"
"221023","279-VK","2018/06/26 20:19:28","新北市汐止區湖東街5巷112-1號","121.635245","25.07443","6501100","汐止區"
"221032","280-BY","2018/06/26 20:19:27","新北市汐止區民權街二段70號","121.619145","25.0482283333333","6501100","汐止區"
"221027","281-BY","2018/06/26 20:19:20","新北市汐止區大同路二段370號","121.657666666667","25.0671883333333","6501100","汐止區"
"221029","298-VK","2018/06/26 20:19:15","新北市汐止區工建路31號","121.639533333333","25.0634866666667","6501100","汐止區"
"221021","299-VK","2018/06/26 20:19:19","新北市汐止區水源路一段273號","121.654041666667","25.0589183333333","6501100","汐止區"
"221031","353-TW","2018/06/26 20:19:17","新北市汐止區中興路150巷13號","121.632928333333","25.0649516666667","6501100","汐止區"
"221035","622-UM","2018/06/26 20:19:27","新北市汐止區長江街101-5號","121.658653333333","25.0731733333333","6501100","汐止區"
"221025","623-UM","2018/06/26 20:19:24","新北市汐止區水源路二段34號","121.654901666667","25.0572766666667","6501100","汐止區"
"221038","646-BX","2018/06/26 20:19:16","新北市汐止區忠孝東路478號","121.666276666667","25.07373","6501100","汐止區"
"221033","647-BX","2018/06/26 20:19:17","新北市汐止區東勢街215巷2號","121.634538333333","25.0430283333333","6501100","汐止區"
"221002","707-TV","2018/06/26 20:19:21","新北市汐止區福德三路26號","121.636923333333","25.0693883333333","6501100","汐止區"
"221018","753-BX","2018/06/26 20:19:17","新北市汐止區茄安路19號","121.672995","25.0679666666667","6501100","汐止區"
"220082","610-BX","2018/06/26 20:19:19","新北市樹林區中山路三段214號","121.379731666667","24.9676633333333","6500100","板橋區"
"220101","245-BX","2018/06/26 20:19:20","新北市板橋區雙十路二段167號","121.474053333333","25.028445","6500100","板橋區"
"220103","257-TC","2018/06/26 20:19:21","新北市板橋區新海路2號","121.46256","25.02072","6500100","板橋區"
"220083","286-VK","2018/06/26 20:19:20","新北市板橋區僑中二街100巷24號","121.445045","25.0086566666667","6500100","板橋區"
"220081","287-VK","2018/06/26 20:19:24","新北市板橋區僑中一街80巷1弄3-2號","121.447408333333","25.0119033333333","6500100","板橋區"
"220061","293-UM","2018/06/26 20:19:23","新北市板橋區四川路一段60號","121.459618333333","25.0056316666667","6500100","板橋區"
"220092","307-R5","2018/06/26 20:19:12","新北市板橋區館前西路168-1號","121.452323333333","25.008525","6500100","板橋區"
"242013","280-VK","2018/06/26 20:19:16","新北市新莊區中和街155巷24弄18號","121.446668333333","25.0504116666667","6500500","新莊區"
"220088","491-VK","2018/06/26 20:19:25","新北市五股區五工一路106號","121.457203333333","25.0703933333333","6500100","板橋區"
"220102","KEA-2699","2018/06/26 20:19:22","新北市板橋區縣民大道三段209號","121.480013333333","25.0250866666667","6500100","板橋區"
"220089","833-TW","2018/06/26 20:19:18","新北市板橋區四維路137巷17號","121.464283333333","25.024925","6500100","板橋區"
"220097","AAC-210","2018/06/26 20:19:19","新北市板橋區公館街106號","121.461146666667","25.01678","6500100","板橋區"
"220070","AAC-253","2018/06/26 20:19:12","新北市新莊區新泰路357巷3弄1號","121.442256666667","25.0412066666667","6500100","板橋區"
"235068","KEA-2873","2018/06/26 20:19:29","新北市中和區勝利路35巷1弄24號","121.499903333333","25.0077083333333","6500300","中和區"
