"lineid","car","time","location","longitude","latitude","cityid","cityname"
"241017","063-VK","2018/06/26 22:09:25","新北市林口區汕頭32號","121.36647","25.134755","6500200","三重區"
"241032","269-UM","2018/06/26 22:09:28","新北市五股區芳洲路49號","121.441831666667","25.0839766666667","6500200","三重區"
"235010","733-UM","2018/06/26 21:40:04","新北市中和區員山路36巷13號","121.484135","24.990755","6500300","中和區"
"247010","341-TH","2018/06/26 22:09:21","新北市八里區中華路三段7巷1號","121.397236666667","25.14373","6501400","蘆洲區"
"247012","339-TH","2018/06/26 22:09:24","新北市五股區孝義路13-1號","121.450568333333","25.106675","6501400","蘆洲區"
"251004","009-UM","2018/06/26 22:09:15","新北市淡水區民族路33號","121.4623","25.135785","6501000","淡水區"
"251008","181-VK","2018/06/26 22:09:23","新北市淡水區學府路104號","121.449841666667","25.171765","6501000","淡水區"
"251010","413-VK","2018/06/26 22:09:25","新北市淡水區沙崙路200號","121.424716666667","25.1839066666667","6501000","淡水區"
"251011","650-BX","2018/06/26 22:09:17","新北市淡水區水碓街7號","121.443168333333","25.17716","6501000","淡水區"
