"lineid","car","time","location","longitude","latitude","cityid","cityname"
"248005","653-BX","2018/09/04 07:59:25","新北市五股區明德路12巷3號","121.433316666667","25.071815","6501500","五股區"
"244002","248-BX","2018/09/04 07:59:30","新北市林口區下福里10-1號","121.313048333333","25.11189","6501700","林口區"
"244001","658-BX","2018/09/04 07:59:10","新北市林口區粉寮路二段14號","121.401616666667","25.08535","6501700","林口區"
"222004","289-BY","2018/09/04 07:59:20","新北市深坑區文化街45號","121.61694","25.00176","6501800","深坑區"
"231007","189-VK","2018/09/04 07:59:27","新北市新店區安康路一段323-3號","121.521243333333","24.963795","6500600","新店區"
"231009","192-VK","2018/09/04 07:59:20","新北市新店區安一路一段1-1號","121.519153333333","24.9613016666667","6500600","新店區"
"235001","611-BX","2018/09/04 07:59:10","新北市中和區圓通路367巷4號","121.491376666667","24.9892666666667","6500300","中和區"
"226005","4501-MT","2018/09/04 07:59:07","新北市平溪區石底里公園街18-3號","121.733468333333","25.0256566666667","6502400","平溪區"
"226002","7418-A5","2018/09/04 07:59:21","新北市平溪區南山里乾坑11號","121.782721666667","25.04719","6502400","平溪區"
"226006","AGD-0702","2018/09/04 07:59:22","新北市平溪區十分里十分街45-1號","121.774563333333","25.0409083333333","6502400","平溪區"
"223006","022-BY","2018/09/04 07:59:24","新北市坪林區鶯子瀨1-2號","121.708388333333","24.918535","6501900","石碇區"
"223002","KEA-2673","2018/09/04 07:59:17","新北市石碇區大格門5號","121.666533333333","24.9566383333333","6501900","石碇區"
"223001","592-UM","2018/09/04 07:59:21","新北市石碇區橫坪1-4號","121.66965","24.9655366666667","6501900","石碇區"
"223004","660-BX","2018/09/04 07:59:10","新北市石碇區雙溪48號","121.651336666667","25.0067866666667","6501900","石碇區"
"223007","661-BX","2018/09/04 07:42:09","新北市石碇區靜安路一段337號","121.698865","25.0145533333333","6501900","石碇區"
"223005","677-TV","2018/09/04 07:59:12","新北市石碇區外按11-1號","121.65085","24.9985566666667","6501900","石碇區"
"227006","282-VK","2018/09/04 07:59:08","新北市雙溪區平林里梅竹蹊17號","121.861966666667","25.0359116666667","6502500","雙溪區"
"252005","073-UM","2018/09/04 07:59:12","新北市三芝區中山路二段50號","121.503106666667","25.25434","6502100","三芝區"
"252004","249-BX","2018/09/04 07:59:21","新北市三芝區興華里車埕36-8號","121.505766666667","25.1930633333333","6502100","三芝區"
"252007","AAC-283","2018/09/04 07:59:15","新北市三芝區後厝里土地公坑61-6號","121.465013333333","25.2462533333333","6502100","三芝區"
"237001","159-UY","2018/09/04 07:59:18","新北市三峽區大學路65巷1號","121.376836666667","24.9414183333333","6500900","三峽區"
"236008","165-UM","2018/09/04 07:59:20","新北市土城區永豐路171號","121.469463333333","24.9790983333333","6501300","土城區"
"236002","339-SR","2018/09/04 07:59:23","新北市土城區龍泉路43號","121.416703333333","24.943365","6501300","土城區"
"236006","498-BY","2018/09/04 07:59:23","新北市土城區永平街51號","121.427681666667","24.959215","6501300","土城區"
