"lineid","car","time","location","longitude","latitude","cityid","cityname"
"248005","653-BX","2018/09/04 08:33:38","新北市五股區明德路8號","121.43338","25.0716933333333","6501500","五股區"
"244002","248-BX","2018/09/04 08:39:10","新北市林口區嘉溪雅坑39號","121.316941666667","25.1211283333333","6501700","林口區"
"244001","658-BX","2018/09/04 08:39:09","新北市林口區仁愛路二段239號","121.375166666667","25.0762966666667","6501700","林口區"
"222004","289-BY","2018/09/04 08:39:20","新北市深坑區文山路三段15號","121.612896666667","24.9979566666667","6501800","深坑區"
"231007","189-VK","2018/09/04 08:39:27","新北市新店區小坑二路15號","121.53085","24.9169783333333","6500600","新店區"
"231009","192-VK","2018/09/04 08:39:20","新北市新店區新烏路三段95號","121.552605","24.9030683333333","6500600","新店區"
"235001","611-BX","2018/09/04 08:39:30","新北市中和區民利街14巷5弄20號","121.479783333333","24.9992683333333","6500300","中和區"
"226005","4501-MT","2018/09/04 08:39:27","新北市平溪區南山里乾坑2-5號","121.787751666667","25.04627","6502400","平溪區"
"226002","7418-A5","2018/09/04 08:39:21","新北市平溪區東勢里東勢格11號","121.735181666667","25.0025066666667","6502400","平溪區"
"226006","AGD-0702","2018/09/04 08:39:22","新北市平溪區十分里十分街236號","121.778128333333","25.0440666666667","6502400","平溪區"
"223006","022-BY","2018/09/04 08:39:17","新北市深坑區文山路一段2號","121.647608333333","25.0087433333333","6501900","石碇區"
"223008","406-TH","2018/09/04 08:39:15","新北市石碇區碇南路二段松柏崎巷35號","121.677331666667","25.0216216666667","6501900","石碇區"
"223001","592-UM","2018/09/04 08:39:25","新北市石碇區北宜路六段塗潭巷55號","121.652496666667","24.935085","6501900","石碇區"
"223004","660-BX","2018/09/04 08:39:26","新北市石碇區崩山24-2號","121.678613333333","24.967875","6501900","石碇區"
"223005","677-TV","2018/09/04 08:39:12","新北市石碇區崩山24-2號","121.678576666667","24.967845","6501900","石碇區"
"227006","282-VK","2018/09/04 08:39:28","新北市雙溪區上林里新寮子25號","121.83097","25.0267283333333","6502500","雙溪區"
"227012","030-BX","2018/09/04 08:35:38","新北市坪林區坪雙路三段66號","121.796148333333","24.9879033333333","6502500","雙溪區"
"252004","249-BX","2018/09/04 08:39:21","新北市三芝區興華里楓子林38號","121.490855","25.2069566666667","6502100","三芝區"
"252007","AAC-283","2018/09/04 08:39:15","新北市三芝區後厝里番子崙10號","121.48888","25.2384233333333","6502100","三芝區"
"237001","159-UY","2018/09/04 08:39:18","新北市三峽區大觀路117號","121.374591666667","24.9454683333333","6500900","三峽區"
"236008","165-UM","2018/09/04 08:39:20","新北市土城區金城路三段18-35號","121.454661666667","24.9770233333333","6501300","土城區"
"236002","339-SR","2018/09/04 08:39:23","新北市土城區中央路三段185號","121.431111666667","24.9650866666667","6501300","土城區"
"236006","498-BY","2018/09/04 08:39:23","新北市土城區永安街57號","121.43261","24.9639366666667","6501300","土城區"
