"lineid","car","time","location","longitude","latitude","cityid","cityname"
"248005","653-BX","2018/09/04 10:09:14","新北市五股區成泰路一段106-1號","121.435676666667","25.07182","6501500","五股區"
"231007","189-VK","2018/09/04 10:09:07","新北市新店區新潭路三段215巷25號","121.508118333333","24.9040966666667","6500600","新店區"
"231009","192-VK","2018/09/04 10:09:20","新北市新店區小坑一路21-1號","121.531371666667","24.9116583333333","6500600","新店區"
"227006","282-VK","2018/09/04 10:09:28","新北市雙溪區長源里柑腳18號","121.804686666667","25.0141083333333","6502500","雙溪區"
"227012","030-BX","2018/09/04 10:09:18","新北市雙溪區泰平里料角坑43-1號","121.790538333333","24.9545166666667","6502500","雙溪區"
"252004","249-BX","2018/09/04 10:09:21","新北市三芝區福德里埔尾2-1號","121.501795","25.2476683333333","6502100","三芝區"
"252007","AAC-283","2018/09/04 10:09:15","新北市三芝區古庄里古庄99-7號","121.493701666667","25.27082","6502100","三芝區"
"237001","159-UY","2018/09/04 10:06:18","新北市三峽區學成路238號","121.374703333333","24.9418633333333","6500900","三峽區"
