"lineid","car","time","location","longitude","latitude","cityid","cityname"
"248005","653-BX","2018/09/04 10:19:14","新北市五股區新五路二段220號","121.438945","25.0792333333333","6501500","五股區"
"231007","189-VK","2018/09/04 10:19:07","新北市新店區新潭路三段215巷25號","121.508131666667","24.9040783333333","6500600","新店區"
"231009","192-VK","2018/09/04 10:15:12","新北市新店區小坑一路73巷6號","121.530741666667","24.9076633333333","6500600","新店區"
"227006","282-VK","2018/09/04 10:19:08","新北市雙溪區長源里柑腳18號","121.80472","25.01411","6502500","雙溪區"
"252007","AAC-283","2018/09/04 10:19:15","新北市三芝區新庄里番社后18號","121.496416666667","25.2746","6502100","三芝區"
"237001","159-UY","2018/09/04 10:19:04","新北市鶯歌區三鶯路5號","121.356873333333","24.9409516666667","6500900","三峽區"
