"lineid","car","time","location","longitude","latitude","cityid","cityname"
"234070","149-BY","2018/09/04 12:09:27","新北市永和區福和路1號","121.526301666667","25.0099583333333","6500400","永和區"
"231009","192-VK","2018/09/04 12:09:20","新北市新店區新烏路一段171號","121.54539","24.934225","6500600","新店區"
"228004","212-TW","2018/09/04 12:09:26","新北市貢寮區貢寮里貢寮街6號","121.907923333333","25.0189066666667","6502600","貢寮區"
"228005","828-UM","2018/09/04 12:09:10","新北市貢寮區福隆里興隆街36號","121.941558333333","25.0170283333333","6502600","貢寮區"
"227006","282-VK","2018/09/04 12:09:28","新北市雙溪區魚行里魚杭1號","121.883861666667","25.02666","6502500","雙溪區"
