"lineid","car","time","location","longitude","latitude","cityid","cityname"
"234044","148-BY","2018/09/04 12:49:16","新北市永和區秀朗路二段169-1號","121.52538","25.0016283333333","6500400","永和區"
"234070","149-BY","2018/09/04 12:49:27","新北市永和區得和路415號","121.525808333333","24.9992433333333","6500400","永和區"
"234005","207-UY","2018/09/04 12:49:24","新北市永和區文化路166號","121.512131666667","25.0153833333333","6500400","永和區"
"234078","298-R6","2018/09/04 12:49:17","新北市永和區永利路130號","121.521703333333","25.0029933333333","6500400","永和區"
"234036","336-UY","2018/09/04 12:49:29","新北市永和區成功路一段35號","121.5271","25.004415","6500400","永和區"
"234062","337-UY","2018/09/04 12:49:31","新北市永和區福和路1號","121.525805","25.0094266666667","6500400","永和區"
"234084","338-UY","2018/09/04 12:49:25","新北市永和區中正路39-1號","121.514305","24.9960216666667","6500400","永和區"
"234068","552-UM","2018/09/04 12:49:24","新北市永和區福和路1號","121.5255","25.0095583333333","6500400","永和區"
"234015","745-BX","2018/09/04 12:49:16","新北市永和區永和路二段425巷5號","121.515236666667","25.0177466666667","6500400","永和區"
"234028","746-BX","2018/09/04 12:49:25","新北市永和區得和路327號","121.523478333333","24.9996283333333","6500400","永和區"
"234052","KEA-2590","2018/09/04 12:49:18","新北市永和區福和路1號","121.526145","25.0095533333333","6500400","永和區"
"234060","AAD-866","2018/09/04 12:49:26","新北市永和區福和路301號","121.516408333333","25.0071616666667","6500400","永和區"
"234012","847-RS","2018/09/04 12:49:27","新北市永和區保福路二段109巷43號","121.509121666667","25.0127183333333","6500400","永和區"
"234040","862-TW","2018/09/04 12:49:23","新北市永和區永貞路308號","121.511875","25.0048983333333","6500400","永和區"
"234025","9371-KE","2018/09/04 12:49:25","新北市永和區中正路655號","121.514988333333","25.01019","6500400","永和區"
"234010","9373-KE","2018/09/04 12:49:27","新北市永和區保福路二段158巷1號","121.50917","25.0150683333333","6500400","永和區"
"234022","9380-KE","2018/09/04 12:49:29","新北市永和區竹林路119巷27號","121.52121","25.0118833333333","6500400","永和區"
"234076","969-R7","2018/09/04 12:49:27","新北市永和區中正路48號","121.513133333333","24.9944633333333","6500400","永和區"
"234066","AAC-212","2018/09/04 12:49:28","新北市永和區永和路一段22號","121.51302","25.0047883333333","6500400","永和區"
"234001","AAC-295","2018/09/04 12:49:21","新北市永和區福和路159號","121.520315","25.0077066666667","6500400","永和區"
"244002","248-BX","2018/09/04 12:49:22","新北市林口區粉寮路二段160巷28號","121.40544","25.09094","6501700","林口區"
"231002","002-UM","2018/09/04 12:49:29","新北市新店區安華路28-1號","121.519685","24.9608816666667","6500600","新店區"
"231028","046-UY","2018/09/04 12:49:20","新北市新店區安華路28-1號","121.519611666667","24.960915","6500600","新店區"
"231001","047-UY","2018/09/04 12:49:24","新北市新店區安華路28-1號","121.519158333333","24.9609183333333","6500600","新店區"
"231005","106-UY","2018/09/04 12:49:15","新北市新店區安華路28-1號","121.51971","24.9606933333333","6500600","新店區"
"231020","108-UY","2018/09/04 12:49:23","新北市新店區安一路一段1-1號","121.519645","24.9611266666667","6500600","新店區"
"231035","110-UY","2018/09/04 12:49:28","新北市新店區安一路一段1-1號","121.519413333333","24.9612866666667","6500600","新店區"
"231018","278-BY","2018/09/04 12:49:21","新北市新店區安一路一段1-1號","121.51964","24.9612366666667","6500600","新店區"
"231015","AAD-862","2018/09/04 12:49:22","新北市新店區安華路28-1號","121.520113333333","24.9609583333333","6500600","新店區"
"231036","512-UM","2018/09/04 12:49:28","新北市新店區安一路一段1-1號","121.519155","24.9610133333333","6500600","新店區"
"231013","513-UM","2018/09/04 12:49:24","新北市新店區安一路一段1-1號","121.51967","24.9612566666667","6500600","新店區"
"231030","619-UM","2018/09/04 12:49:22","新北市新店區安華路28-1號","121.519523333333","24.9608816666667","6500600","新店區"
"231034","641-BX","2018/09/04 12:49:28","新北市新店區安華路28-1號","121.519575","24.96063","6500600","新店區"
"231029","897-TW","2018/09/04 12:49:11","新北市新店區安華路28-1號","121.519596666667","24.9607583333333","6500600","新店區"
"231024","AKT-0513","2018/09/04 12:49:26","新北市新店區安華路28-1號","121.519488333333","24.9606416666667","6500600","新店區"
"235027","006-UY","2018/09/04 12:49:13","新北市中和區員山路36巷16-3號","121.48494","24.991195","6500300","中和區"
"235029","098-UM","2018/09/04 12:49:30","新北市中和區員山路36巷16-8號","121.485428333333","24.9922066666667","6500300","中和區"
"235022","151-BY","2018/09/04 12:49:10","新北市中和區員山路36巷16-2號","121.485288333333","24.991665","6500300","中和區"
"235002","185-VK","2018/09/04 12:49:23","新北市中和區員山路36巷16號","121.484535","24.9913","6500300","中和區"
"235031","255-BX","2018/09/04 12:49:26","新北市中和區新民街12-3號","121.482153333333","25.0069816666667","6500300","中和區"
"235001","611-BX","2018/09/04 12:49:14","新北市中和區中山路三段120-17號","121.474246666667","25.0084366666667","6500300","中和區"
"235035","783-BX","2018/09/04 12:49:12","新北市中和區員山路36巷16-3號","121.485035","24.9912733333333","6500300","中和區"
"228004","212-TW","2018/09/04 12:49:26","新北市貢寮區吉林里內寮街20-1號","121.889816666667","24.9947433333333","6502600","貢寮區"
"228005","828-UM","2018/09/04 12:49:10","新北市貢寮區福連里福連街37號","121.988746666667","25.01105","6502600","貢寮區"
"207002","749-BX","2018/09/04 12:47:32","新北市萬里區雙興里太和路18-2號","121.655705","25.174715","6502800","萬里區"
"207001","662-BX","2018/09/04 12:49:20","新北市萬里區萬里里瑪鋉頂街29-1號","121.6899","25.179325","6502800","萬里區"
"236006","498-BY","2018/09/04 12:49:20","新北市土城區永寧路20號","121.429833333333","24.9615633333333","6501300","土城區"
"221010","269-BY","2018/09/04 12:49:24","新北市汐止區忠二街3號","121.623491666667","25.077065","6501100","汐止區"
"221032","280-BY","2018/09/04 12:49:15","新北市汐止區大同路二段533號","121.661833333333","25.069015","6501100","汐止區"
"221025","623-UM","2018/09/04 12:49:08","新北市汐止區汐萬路一段310號","121.650406666667","25.0749333333333","6501100","汐止區"
"221018","753-BX","2018/09/04 12:49:14","新北市汐止區康寧街753巷8號","121.638473333333","25.075215","6501100","汐止區"
"235032","KEA-2873","2018/09/04 12:49:11","新北市中和區員山路36巷16-3號","121.484976666667","24.9912816666667","6500300","中和區"
"235025","KEA-2875","2018/09/04 12:28:52","新北市中和區和城路一段271巷1號","121.485423333333","24.991785","6500300","中和區"
