"lineid","car","time","location","longitude","latitude","cityid","cityname"
"234044","148-BY","2018/09/04 13:39:15","新北市永和區永利路105號","121.523306666667","25.0026733333333","6500400","永和區"
"234070","149-BY","2018/09/04 13:39:27","新北市永和區自由街77巷20弄1號","121.513765","25.0042683333333","6500400","永和區"
"234005","207-UY","2018/09/04 13:39:24","新北市永和區永和路一段112-1號","121.513525","25.0073966666667","6500400","永和區"
"234078","298-R6","2018/09/04 13:39:27","新北市永和區國中路104巷8弄28號","121.525483333333","25.0061466666667","6500400","永和區"
"234036","336-UY","2018/09/04 13:39:29","新北市永和區民樂街31巷10弄2號","121.528158333333","25.0007066666667","6500400","永和區"
"234062","337-UY","2018/09/04 13:39:31","新北市永和區秀朗路二段24巷28弄14號","121.519611666667","25.001905","6500400","永和區"
"234084","338-UY","2018/09/04 13:39:23","新北市永和區永亨路142號","121.525135","25.0039366666667","6500400","永和區"
"234068","552-UM","2018/09/04 13:39:24","新北市永和區永和路二段237-1號","121.515615","25.0144383333333","6500400","永和區"
"234015","745-BX","2018/09/04 13:39:15","新北市永和區永和路二段299號","121.516046666667","25.0161266666667","6500400","永和區"
"234028","746-BX","2018/09/04 13:39:25","新北市永和區民權路1巷30號","121.521773333333","24.9982566666667","6500400","永和區"
"234052","KEA-2590","2018/09/04 13:39:18","新北市永和區竹林路39巷24弄3號","121.519126666667","25.0144966666667","6500400","永和區"
"234060","AAD-866","2018/09/04 13:39:26","新北市永和區中正路456號","121.51744","25.002965","6500400","永和區"
"234012","847-RS","2018/09/04 13:39:21","新北市永和區永平路238巷12號","121.509491666667","25.0116766666667","6500400","永和區"
"234040","862-TW","2018/09/04 13:39:23","新北市永和區中和路385號","121.50869","25.0000083333333","6500400","永和區"
"234048","863-TW","2018/09/04 13:39:15","新北市永和區文化路165號","121.510111666667","25.016485","6500400","永和區"
"234025","9371-KE","2018/09/04 13:39:25","新北市永和區永平路161號","121.510806666667","25.0088366666667","6500400","永和區"
"234010","9373-KE","2018/09/04 13:39:27","新北市永和區保福路二段62-1號","121.510821666667","25.0123883333333","6500400","永和區"
"248017","225-UY","2018/09/04 13:39:18","新北市五股區民義路二段58號","121.406426666667","25.1076433333333","6501500","五股區"
"234022","9380-KE","2018/09/04 13:39:29","新北市永和區中正路662巷23號","121.517555","25.0088616666667","6500400","永和區"
"234076","969-R7","2018/09/04 13:39:15","新北市永和區民權路28號","121.520395","24.9991266666667","6500400","永和區"
"234072","AAC-211","2018/09/04 13:39:30","新北市永和區竹林路213巷25號","121.522476666667","25.0090333333333","6500400","永和區"
"234066","AAC-212","2018/09/04 13:39:28","新北市永和區中山路一段191巷4號","121.509413333333","25.008455","6500400","永和區"
"234001","AAC-295","2018/09/04 13:39:21","新北市永和區永和路一段105號","121.513746666667","25.0076866666667","6500400","永和區"
"244002","248-BX","2018/09/04 13:39:22","新北市林口區民族路10號","121.36405","25.07355","6501700","林口區"
"244001","658-BX","2018/09/04 13:39:18","新北市林口區太平里180號","121.366383333333","25.1345266666667","6501700","林口區"
"231002","002-UM","2018/09/04 13:39:29","新北市新店區溪園路403號","121.524041666667","24.9781316666667","6500600","新店區"
"231027","0293-UT","2018/09/04 13:39:23","新北市新店區北宜路一段105巷12號","121.5402","24.9558083333333","6500600","新店區"
"231028","046-UY","2018/09/04 13:39:30","新北市新店區安和路一段39號","121.51707","24.96529","6500600","新店區"
"231001","047-UY","2018/09/04 13:39:23","新北市新店區中央路7號","121.533446666667","24.9786283333333","6500600","新店區"
"231005","106-UY","2018/09/04 13:39:15","新北市新店區寶中路72號","121.54779","24.9805033333333","6500600","新店區"
"231010","107-UY","2018/09/04 13:39:21","新北市新店區中正路305號","121.536501666667","24.9745516666667","6500600","新店區"
"231020","108-UY","2018/09/04 13:39:23","新北市新店區永興路88-1號","121.544021666667","24.9337316666667","6500600","新店區"
"231035","110-UY","2018/09/04 13:39:28","新北市新店區安忠路56巷6號","121.512988333333","24.9594666666667","6500600","新店區"
"231012","187-VK","2018/09/04 13:39:21","新北市新店區德正街23巷12-1號","121.544755","24.97215","6500600","新店區"
"231032","188-VK","2018/09/04 13:39:20","新北市新店區安華路30巷12-1號","121.518768333333","24.9578083333333","6500600","新店區"
"231023","KEA-2219","2018/09/04 13:39:24","新北市新店區新店路140號","121.53715","24.95522","6500600","新店區"
"231026","256-BX","2018/09/04 13:39:27","新北市新店區中正路134號","121.541995","24.9714116666667","6500600","新店區"
"231003","268-BY","2018/09/04 13:39:27","新北市新店區中正路69號","121.543625","24.97005","6500600","新店區"
"231018","278-BY","2018/09/04 13:39:21","新北市新店區百忍街33號","121.533658333333","24.9757416666667","6500600","新店區"
"231015","AAD-862","2018/09/04 13:39:22","新北市新店區竹林路63號","121.552923333333","24.951345","6500600","新店區"
"231038","3712-VJ","2018/09/04 13:39:26","新北市新店區安華路1-1號","121.519213333333","24.96056","6500600","新店區"
"231037","4716-K9","2018/09/04 13:38:22","新北市新店區薏仁坑路53-1號","121.492086666667","24.963555","6500600","新店區"
"231025","4715-K9","2018/09/04 13:39:27","新北市新店區中央六街58號","121.527943333333","24.9758466666667","6500600","新店區"
"231036","512-UM","2018/09/04 13:39:28","新北市新店區安祥路142號","121.474315","24.955505","6500600","新店區"
"231013","513-UM","2018/09/04 13:39:23","新北市新店區中正路454-5號","121.534466666667","24.9790666666667","6500600","新店區"
"231034","616-UM","2018/09/04 13:39:18","新北市新店區車子路134號","121.50495","24.94861","6500600","新店區"
"231006","617-UM","2018/09/04 13:39:31","新北市新店區北宜路一段94號","121.538925","24.9554966666667","6500600","新店區"
"231030","619-UM","2018/09/04 13:39:22","新北市新店區安康路一段323-3號","121.521261666667","24.9638533333333","6500600","新店區"
"231029","897-TW","2018/09/04 13:39:31","新北市新店區車子路1-1號","121.504613333333","24.9579283333333","6500600","新店區"
"231004","899-TW","2018/09/04 13:39:23","新北市新店區北新路二段7號","121.542645","24.97131","6500600","新店區"
"231024","AKT-0513","2018/09/04 13:33:26","新北市新店區華興街38巷3號","121.53716","24.9692283333333","6500600","新店區"
"235030","003-UY","2018/09/04 13:39:26","新北市中和區光華街48號","121.505068333333","25.0035716666667","6500300","中和區"
"235027","006-UY","2018/09/04 13:39:13","新北市中和區連城路389巷10弄7號","121.486273333333","24.9956066666667","6500300","中和區"
"235020","096-UM","2018/09/04 13:39:19","新北市中和區員山路466巷17弄8號","121.48057","25.0072516666667","6500300","中和區"
"235003","097-UM","2018/09/04 13:39:19","新北市中和區景平路278巷16弄28號","121.514475","24.99387","6500300","中和區"
"235029","098-UM","2018/09/04 13:39:30","新北市中和區莊敬路33巷44號","121.500336666667","25.006915","6500300","中和區"
"235004","150-BY","2018/09/04 13:39:27","新北市中和區保健路50巷68號","121.509138333333","24.99515","6500300","中和區"
"235022","151-BY","2018/09/04 13:39:30","新北市中和區圓通路369巷39-30號","121.489743333333","24.9858933333333","6500300","中和區"
"235019","183-VK","2018/09/04 13:39:17","新北市中和區國光街102巷29號","121.47136","25.0007316666667","6500300","中和區"
"235002","185-VK","2018/09/04 13:39:23","新北市中和區立人街14巷52號","121.518323333333","24.9957033333333","6500300","中和區"
"235013","186-VK","2018/09/04 13:39:13","新北市中和區景平路480號","121.505225","24.9938016666667","6500300","中和區"
"235031","255-BX","2018/09/04 13:39:26","新北市中和區新生街220巷4號","121.482918333333","24.99862","6500300","中和區"
"235008","293-VK","2018/09/04 13:39:28","新北市中和區復興路261號","121.502865","24.9903633333333","6500300","中和區"
"235036","301-VK","2018/09/04 13:39:21","新北市中和區連城路171巷41弄1號","121.496185","24.996515","6500300","中和區"
"235007","352-BY","2018/09/04 13:39:28","新北市中和區景平路296號","121.512968333333","24.9925116666667","6500300","中和區"
"235014","4979-A6","2018/09/04 13:39:14","新北市中和區景新街496巷28弄8號","121.51312","24.9859633333333","6500300","中和區"
"235033","4980-A6","2018/09/04 13:39:15","新北市中和區連城路89巷1號","121.496706666667","25.0001","6500300","中和區"
"235006","551-UM","2018/09/04 13:39:26","新北市中和區成功路36號","121.526013333333","24.993245","6500300","中和區"
"235034","558-UM","2018/09/04 13:39:21","新北市中和區圓通路42號","121.500828333333","24.9977983333333","6500300","中和區"
"235009","565-BX","2018/09/04 13:39:18","新北市中和區南山路236巷63弄1號","121.503835","24.9876516666667","6500300","中和區"
"235018","640-BX","2018/09/04 13:39:26","新北市中和區民享街43號","121.474095","25.002915","6500300","中和區"
"235011","732-UM","2018/09/04 13:39:24","新北市中和區南山路320巷10弄14號","121.506878333333","24.9867883333333","6500300","中和區"
"235010","733-UM","2018/09/04 13:39:20","新北市中和區仁愛街95號","121.511875","24.98679","6500300","中和區"
"235035","783-BX","2018/09/04 13:39:12","新北市中和區光環路二段27號","121.487616666667","25.0123133333333","6500300","中和區"
"235026","800-TS","2018/09/04 13:39:12","新北市中和區中山路二段312巷33弄22號","121.4948","25.0042616666667","6500300","中和區"
"235021","801-TS","2018/09/04 13:39:20","新北市中和區民安街42巷42號","121.47864","25.001495","6500300","中和區"
"235005","802-TS","2018/09/04 13:39:12","新北市永和區中和路581號","121.51195","25.0039383333333","6500300","中和區"
"235016","805-TS","2018/09/04 13:39:20","新北市中和區興南路三段52巷6-2號","121.493606666667","24.97625","6500300","中和區"
"235012","896-TW","2018/09/04 13:39:12","新北市中和區中正路83號","121.500611666667","24.9934983333333","6500300","中和區"
"235017","900-TW","2018/09/04 13:39:31","新北市中和區民享街482號","121.46941","24.9924216666667","6500300","中和區"
"235024","911-UM","2018/09/04 13:39:09","新北市中和區中山路二段525號","121.481648333333","25.0053266666667","6500300","中和區"
"235015","157-BY","2018/09/04 13:39:22","新北市中和區華新街143巷106弄34號","121.506251666667","24.978405","6500300","中和區"
"235001","AAC-213","2018/09/04 13:39:18","新北市中和區景德街122號","121.51459","24.9912883333333","6500300","中和區"
"235023","AAC-215","2018/09/04 13:39:29","新北市中和區錦和路350-1號","121.490288333333","24.99355","6500300","中和區"
"220016","013-TV","2018/09/04 13:39:12","新北市板橋區民生路二段120號","121.470398333333","25.0196383333333","6500100","板橋區"
"220013","072-UY","2018/09/04 13:39:11","新北市板橋區漢生東路258號","121.468166666667","25.013745","6500100","板橋區"
"220034","073-UY","2018/09/04 13:39:13","新北市板橋區南雅西路二段177號","121.451831666667","25.0125966666667","6500100","板橋區"
"220017","AAD-861","2018/09/04 13:39:17","新北市板橋區華東街1-10號","121.448265","24.9949883333333","6500100","板橋區"
"247023","500-BY","2018/09/04 13:39:13","新北市蘆洲區長興路312號","121.461461666667","25.0920833333333","6501400","蘆洲區"
"247007","336-TH","2018/09/04 13:39:26","新北市蘆洲區國道路二段105號","121.47055","25.0749466666667","6501400","蘆洲區"
"247009","056-VK","2018/09/04 13:39:20","新北市五股區中興路三段2巷10號","121.449088333333","25.0809283333333","6501400","蘆洲區"
"228004","212-TW","2018/09/04 13:39:26","新北市貢寮區龍崗里嵩陽街17號","121.907686666667","25.0093566666667","6502600","貢寮區"
"228005","828-UM","2018/09/04 13:39:30","新北市貢寮區美豐里文秀坑5-1號","121.90321","25.051295","6502600","貢寮區"
"207002","749-BX","2018/09/04 13:39:13","新北市萬里區崁腳里崁腳路166號","121.64511","25.1558233333333","6502800","萬里區"
"207001","662-BX","2018/09/04 13:39:20","新北市萬里區大鵬里萬里加投46-1號","121.641925","25.211045","6502800","萬里區"
"252005","AAC-283","2018/09/04 13:39:25","新北市三芝區圓山里二坪頂71號","121.537963333333","25.2416983333333","6502100","三芝區"
"236032","271-VK","2018/09/04 13:39:19","新北市土城區城林路6巷80號","121.4385","24.9798116666667","6501300","土城區"
"236006","498-BY","2018/09/04 13:39:20","新北市土城區慶祥街59巷1-1號","121.435926666667","24.97283","6501300","土城區"
"236057","912-UM","2018/09/04 13:39:16","新北市土城區城林路6巷80號","121.438495","24.979735","6501300","土城區"
"221010","269-BY","2018/09/04 13:39:24","新北市汐止區長青路210巷190號","121.61613","25.113085","6501100","汐止區"
"221032","280-BY","2018/09/04 13:39:15","新北市汐止區仁愛路27號","121.65937","25.0636816666667","6501100","汐止區"
"221029","298-VK","2018/09/04 13:39:09","新北市汐止區南陽街1巷2號","121.624696666667","25.0663","6501100","汐止區"
"221025","623-UM","2018/09/04 13:39:28","新北市汐止區大同路一段156-2號","121.632486666667","25.0562583333333","6501100","汐止區"
"221018","753-BX","2018/09/04 13:39:14","新北市汐止區福德二路77-2號","121.633218333333","25.0658666666667","6501100","汐止區"
"220027","145-BY","2018/09/04 13:39:19","新北市板橋區館前西路164號","121.452545","25.0086033333333","6500100","板橋區"
"220028","200-UY","2018/09/04 13:39:16","新北市板橋區大觀路二段265巷76弄35號","121.44117","24.9967166666667","6500100","板橋區"
"220030","610-BX","2018/09/04 13:39:29","新北市板橋區篤行路一段29號","121.432068333333","24.9945966666667","6500100","板橋區"
"220020","277-BY","2018/09/04 13:39:29","新北市板橋區大觀路三段68號","121.433103333333","24.9950133333333","6500100","板橋區"
"220043","283-UM","2018/09/04 13:39:12","新北市板橋區民生路二段161巷1號","121.470021666667","25.0200733333333","6500100","板橋區"
"220019","283-VK","2018/09/04 13:39:27","新北市板橋區四川路二段140巷18號","121.449308333333","24.9933916666667","6500100","板橋區"
"220031","286-VK","2018/09/04 13:39:30","新北市板橋區大觀路二段33號","121.446773333333","25.0030366666667","6500100","板橋區"
"220029","287-VK","2018/09/04 13:39:30","新北市板橋區大觀路二段101巷27號","121.447193333333","25.0013116666667","6500100","板橋區"
"220061","295-UM","2018/09/04 13:39:18","新北市板橋區民生路二段161巷1號","121.470075","25.0201616666667","6500100","板橋區"
"220032","296-UM","2018/09/04 13:39:19","新北市板橋區板城路421號","121.448028333333","24.99635","6500100","板橋區"
"220010","299-UM","2018/09/04 13:39:24","新北市板橋區民生路二段161巷1號","121.470183333333","25.0200566666667","6500100","板橋區"
"220023","303-R5","2018/09/04 13:39:18","新北市板橋區華東街328號","121.452783333333","25.0034316666667","6500100","板橋區"
"220012","486-VK","2018/09/04 13:39:27","新北市板橋區縣民大道二段82號","121.46542","25.014405","6500100","板橋區"
"220104","560-BX","2018/09/04 13:39:24","新北市板橋區南雅西路二段145巷10號","121.451583333333","25.01191","6500100","板橋區"
"220011","609-BX","2018/09/04 13:39:28","新北市板橋區民生路二段188號","121.469833333333","25.02052","6500100","板橋區"
"220005","686-BX","2018/09/04 13:39:15","新北市板橋區華東街1-9號","121.448215","24.9949133333333","6500100","板橋區"
"220025","687-BX","2018/09/04 13:39:20","新北市板橋區大觀路三段212巷70號","121.429748333333","24.9935333333333","6500100","板橋區"
"220002","741-BX","2018/09/04 13:39:15","新北市板橋區華東街1-9號","121.448086666667","24.9949283333333","6500100","板橋區"
"220003","827-TW","2018/09/04 13:39:26","新北市板橋區板城路407號","121.447455","24.995185","6500100","板橋區"
"220022","895-R6","2018/09/04 13:39:17","新北市板橋區南雅東路1號","121.4555","25.0055333333333","6500100","板橋區"
"220021","985-R7","2018/09/04 13:39:16","新北市板橋區南雅南路二段4巷26號","121.453321666667","25.0036733333333","6500100","板橋區"
"220018","AAC-253","2018/09/04 13:39:22","新北市板橋區華東街1-9號","121.44809","24.9948983333333","6500100","板橋區"
"235032","KEA-2873","2018/09/04 13:39:10","新北市中和區中正路211巷36弄22號","121.496793333333","24.9923933333333","6500300","中和區"
"235025","KEA-2875","2018/09/04 13:39:16","新北市中和區民享街87號","121.47426","25.00158","6500300","中和區"
