"lineid","car","time","location","longitude","latitude","cityid","cityname"
"234044","148-BY","2018/09/04 13:49:15","新北市永和區永利路137號","121.524076666667","25.0034583333333","6500400","永和區"
"234070","149-BY","2018/09/04 13:49:27","新北市永和區中正路282號","121.517085","24.9988933333333","6500400","永和區"
"234005","207-UY","2018/09/04 13:49:24","新北市永和區中和路525號","121.511323333333","25.0029433333333","6500400","永和區"
"234078","298-R6","2018/09/04 13:49:17","新北市永和區永亨路100號","121.523085","25.004925","6500400","永和區"
"234036","336-UY","2018/09/04 13:49:33","新北市永和區成功路二段127號","121.526813333333","24.998265","6500400","永和區"
"234062","337-UY","2018/09/04 13:49:14","新北市永和區中正路362號","121.517895","25.0008216666667","6500400","永和區"
"234084","338-UY","2018/09/04 13:49:29","新北市永和區福和路286號","121.517583333333","25.0076183333333","6500400","永和區"
"234068","552-UM","2018/09/04 13:49:24","新北市永和區竹林路81號","121.519533333333","25.0125716666667","6500400","永和區"
"234015","745-BX","2018/09/04 13:49:16","新北市永和區文化路29號","121.514958333333","25.0149783333333","6500400","永和區"
"234028","746-BX","2018/09/04 13:49:25","新北市永和區四維街103巷16號","121.523698333333","24.9971483333333","6500400","永和區"
"234052","KEA-2590","2018/09/04 13:49:18","新北市永和區竹林路75巷25弄7號","121.520063333333","25.0144666666667","6500400","永和區"
"234060","AAD-866","2018/09/04 13:49:26","新北市永和區中正路342號","121.517785","25.00018","6500400","永和區"
"234012","847-RS","2018/09/04 13:49:22","新北市永和區永平路296號","121.5075","25.0122116666667","6500400","永和區"
"234040","862-TW","2018/09/04 13:49:23","新北市永和區中和路389巷10號","121.508121666667","25.0009883333333","6500400","永和區"
"234048","863-TW","2018/09/04 13:49:15","新北市永和區保安路75號","121.508693333333","25.0149666666667","6500400","永和區"
"234025","9371-KE","2018/09/04 13:49:25","新北市永和區自由街58號","121.513833333333","25.0059716666667","6500400","永和區"
"234010","9373-KE","2018/09/04 13:49:27","新北市永和區仁愛路302號","121.503526666667","25.0080216666667","6500400","永和區"
"248017","225-UY","2018/09/04 13:49:18","新北市五股區民義路二段22巷24號","121.423928333333","25.0984166666667","6501500","五股區"
"234022","9380-KE","2018/09/04 13:49:29","新北市永和區復興街16巷9號","121.515916666667","25.0124516666667","6500400","永和區"
"234076","969-R7","2018/09/04 13:49:15","新北市永和區民權路36巷19號","121.518898333333","24.9990433333333","6500400","永和區"
"234072","AAC-211","2018/09/04 13:49:30","新北市永和區豫溪街215巷8號","121.524251666667","25.0095333333333","6500400","永和區"
"234066","AAC-212","2018/09/04 13:49:29","新北市永和區中山路一段255巷22號","121.508515","25.0071383333333","6500400","永和區"
"234001","AAC-295","2018/09/04 13:49:21","新北市永和區永和路一段136號","121.513978333333","25.007995","6500400","永和區"
"244002","248-BX","2018/09/04 13:49:21","新北市林口區中山路206號","121.387016666667","25.07923","6501700","林口區"
"244001","658-BX","2018/09/04 13:49:19","新北市林口區太平里180號","121.36652","25.1344766666667","6501700","林口區"
"231002","002-UM","2018/09/04 13:49:29","新北市新店區溪園路87號","121.528415","24.985925","6500600","新店區"
"231027","0293-UT","2018/09/04 13:49:23","新北市新店區中興路一段24號","121.538695","24.9584233333333","6500600","新店區"
"231028","046-UY","2018/09/04 13:49:22","新北市新店區安和路二段207號","121.517796666667","24.9754216666667","6500600","新店區"
"231001","047-UY","2018/09/04 13:49:26","新北市新店區三民路125號","121.534673333333","24.972395","6500600","新店區"
"231005","106-UY","2018/09/04 13:49:15","新北市新店區寶中路123號","121.549713333333","24.9793433333333","6500600","新店區"
"231010","107-UY","2018/09/04 13:49:20","新北市新店區平等街48巷8號","121.535816666667","24.9731616666667","6500600","新店區"
"231020","108-UY","2018/09/04 13:49:23","新北市新店區永興路95-3號","121.544543333333","24.9324983333333","6500600","新店區"
"231035","110-UY","2018/09/04 13:49:29","新北市新店區安忠路57巷17號","121.513246666667","24.9585283333333","6500600","新店區"
"231012","187-VK","2018/09/04 13:49:21","新北市新店區德正街27巷29弄9號","121.545315","24.9718616666667","6500600","新店區"
"231032","188-VK","2018/09/04 13:49:20","新北市新店區莒光路44巷21弄11-6號","121.518513333333","24.9522566666667","6500600","新店區"
"231023","KEA-2219","2018/09/04 13:49:24","新北市新店區國校路6號","121.537933333333","24.9562733333333","6500600","新店區"
"231026","256-BX","2018/09/04 13:49:27","新北市新店區三民路159巷19弄46號","121.5322","24.9731983333333","6500600","新店區"
"231003","268-BY","2018/09/04 13:49:27","新北市新店區大新街9巷28號","121.544315","24.9666716666667","6500600","新店區"
"231018","278-BY","2018/09/04 13:49:21","新北市新店區中正路399巷22號","121.533921666667","24.97675","6500600","新店區"
"231015","AAD-862","2018/09/04 13:49:22","新北市新店區北宜路二段112-1號","121.556425","24.9539166666667","6500600","新店區"
"231038","3712-VJ","2018/09/04 13:49:26","新北市新店區安華路28-1號","121.519133333333","24.960605","6500600","新店區"
"231037","4716-K9","2018/09/04 13:49:22","新北市新店區安康路二段438號","121.495741666667","24.954915","6500600","新店區"
"231025","4715-K9","2018/09/04 13:49:27","新北市新店區民族路192號","121.536205","24.9753033333333","6500600","新店區"
"231036","512-UM","2018/09/04 13:49:28","新北市新店區安祥路141號","121.474505","24.955905","6500600","新店區"
"231013","513-UM","2018/09/04 13:49:23","新北市新店區二十張路25巷18弄27號","121.539278333333","24.9813666666667","6500600","新店區"
"231034","616-UM","2018/09/04 13:49:18","新北市新店區達觀路16號","121.503423333333","24.94036","6500600","新店區"
"231006","617-UM","2018/09/04 13:49:11","新北市新店區北宜路一段260號","121.545648333333","24.9528","6500600","新店區"
"231030","619-UM","2018/09/04 13:49:22","新北市新店區安康路一段48號","121.530358333333","24.9611033333333","6500600","新店區"
"231029","897-TW","2018/09/04 13:49:31","新北市新店區安康路二段125-1號","121.512391666667","24.9609283333333","6500600","新店區"
"231004","899-TW","2018/09/04 13:49:23","新北市新店區寶橋路48號","121.545891666667","24.9751","6500600","新店區"
"231024","AKT-0513","2018/09/04 13:33:26","新北市新店區華興街38巷3號","121.53716","24.9692283333333","6500600","新店區"
"235030","003-UY","2018/09/04 13:49:26","新北市中和區廣福路56巷6號","121.503551666667","25.002385","6500300","中和區"
"235027","006-UY","2018/09/04 13:49:13","新北市中和區連城路319巷3弄1號","121.489225","24.995705","6500300","中和區"
"235020","096-UM","2018/09/04 13:49:12","新北市中和區中正路1196號","121.480498333333","25.0104983333333","6500300","中和區"
"235003","097-UM","2018/09/04 13:49:19","新北市中和區自強路27巷1號","121.520695","24.9929883333333","6500300","中和區"
"235029","098-UM","2018/09/04 13:49:10","新北市中和區莊敬路33巷7號","121.50001","25.0067333333333","6500300","中和區"
"235004","150-BY","2018/09/04 13:49:27","新北市中和區保健路67巷3弄4號","121.509815","24.9975383333333","6500300","中和區"
"235022","151-BY","2018/09/04 13:49:10","新北市中和區連城路571-1號","121.479295","24.9944733333333","6500300","中和區"
"235019","183-VK","2018/09/04 13:49:17","新北市中和區民生街85巷5弄2號","121.469336666667","25.004035","6500300","中和區"
"235002","185-VK","2018/09/04 13:49:24","新北市中和區大勇街43巷14號","121.51724","24.994735","6500300","中和區"
"235013","186-VK","2018/09/04 13:49:11","新北市中和區景安路122巷18號","121.504526666667","24.9945066666667","6500300","中和區"
"235031","255-BX","2018/09/04 13:49:26","新北市中和區連城路340巷14弄2號","121.483353333333","24.9973333333333","6500300","中和區"
"235008","293-VK","2018/09/04 13:49:27","新北市中和區中興街123號","121.499988333333","24.9918233333333","6500300","中和區"
"235036","301-VK","2018/09/04 13:49:21","新北市中和區中山路二段136號","121.502176666667","25.0031533333333","6500300","中和區"
"235007","352-BY","2018/09/04 13:49:28","新北市中和區景平路1號","121.525718333333","24.9898716666667","6500300","中和區"
"235014","4979-A6","2018/09/04 13:49:14","新北市中和區忠孝街62巷9弄10號","121.513145","24.9839733333333","6500300","中和區"
"235033","4980-A6","2018/09/04 13:49:15","新北市中和區南山路51-1號","121.502085","24.9984016666667","6500300","中和區"
"235006","551-UM","2018/09/04 13:49:06","新北市中和區秀朗路三段72號","121.526273333333","24.9944466666667","6500300","中和區"
"235034","558-UM","2018/09/04 13:49:21","新北市中和區中和路170號","121.50454","24.9997633333333","6500300","中和區"
"235009","565-BX","2018/09/04 13:49:18","新北市中和區興南路一段86號","121.509943333333","24.9893766666667","6500300","中和區"
"235018","640-BX","2018/09/04 13:49:26","新北市中和區民享街35巷3號","121.474353333333","25.0039616666667","6500300","中和區"
"235011","732-UM","2018/09/04 13:49:24","新北市中和區興南路二段34巷32號","121.504791666667","24.9861966666667","6500300","中和區"
"235010","733-UM","2018/09/04 13:49:19","新北市中和區仁愛街36巷45號","121.511321666667","24.9866833333333","6500300","中和區"
"235035","783-BX","2018/09/04 13:49:12","新北市中和區立德街7巷12號","121.489713333333","25.0060583333333","6500300","中和區"
"235026","800-TS","2018/09/04 13:49:12","新北市中和區中山路二段332巷37號","121.493606666667","25.0037683333333","6500300","中和區"
"235021","801-TS","2018/09/04 13:49:20","新北市中和區民利街14巷3-3號","121.480648333333","24.99948","6500300","中和區"
"235005","802-TS","2018/09/04 13:49:33","新北市中和區中安街8號","121.513608333333","25.0033083333333","6500300","中和區"
"235016","805-TS","2018/09/04 13:49:30","新北市中和區興南路二段399巷65-1號","121.501216666667","24.97518","6500300","中和區"
"235012","896-TW","2018/09/04 13:49:27","新北市中和區南山路333號","121.505543333333","24.9909883333333","6500300","中和區"
"235017","900-TW","2018/09/04 13:49:31","新北市中和區華福街40號","121.46637","24.9966616666667","6500300","中和區"
"235024","911-UM","2018/09/04 13:49:29","新北市中和區中山路三段178號","121.4726","25.0064933333333","6500300","中和區"
"235015","157-BY","2018/09/04 13:49:22","新北市中和區忠孝街106巷43號","121.51362","24.9842766666667","6500300","中和區"
"235001","AAC-213","2018/09/04 13:49:18","新北市中和區秀朗路三段128巷2號","121.524685","24.9924116666667","6500300","中和區"
"235023","AAC-215","2018/09/04 13:49:29","新北市中和區圓通路391-7號","121.489661666667","24.9889916666667","6500300","中和區"
"220016","013-TV","2018/09/04 13:49:32","新北市板橋區民生路二段89-4號","121.471401666667","25.018505","6500100","板橋區"
"220013","072-UY","2018/09/04 13:49:11","新北市板橋區漢生東路217號","121.47113","25.0093933333333","6500100","板橋區"
"220034","073-UY","2018/09/04 13:49:33","新北市板橋區大智街71巷3弄1號","121.453495","25.0153083333333","6500100","板橋區"
"220105","075-UY","2018/09/04 13:49:27","新北市板橋區民生路二段120號","121.470385","25.0197233333333","6500100","板橋區"
"220017","AAD-861","2018/09/04 13:49:17","新北市板橋區館前西路53號","121.457746666667","25.00651","6500100","板橋區"
"247023","500-BY","2018/09/04 13:49:13","新北市蘆洲區長興路22號","121.464298333333","25.0828433333333","6501400","蘆洲區"
"247005","337-TH","2018/09/04 13:49:11","新北市蘆洲區中山二路279號","121.469351666667","25.07903","6501400","蘆洲區"
"247007","336-TH","2018/09/04 13:49:26","新北市蘆洲區永安北路二段76巷6號","121.48351","25.084855","6501400","蘆洲區"
"247009","056-VK","2018/09/04 13:49:20","新北市蘆洲區復興路355巷39號","121.477096666667","25.0967466666667","6501400","蘆洲區"
"228004","212-TW","2018/09/04 13:45:26","新北市貢寮區龍崗里嵩陽街8號","121.901881666667","25.01084","6502600","貢寮區"
"228005","828-UM","2018/09/04 13:49:10","新北市貢寮區美豐里土地公嶺10號","121.889553333333","25.0568933333333","6502600","貢寮區"
"207002","749-BX","2018/09/04 13:49:13","新北市萬里區崁腳里崁腳路166號","121.645091666667","25.1558183333333","6502800","萬里區"
"207001","662-BX","2018/09/04 13:49:20","新北市金山區月眉2號","121.635051666667","25.2138983333333","6502800","萬里區"
"252005","AAC-283","2018/09/04 13:49:25","新北市三芝區圓山里二坪頂47號","121.539043333333","25.2439916666667","6502100","三芝區"
"236065","105-UM","2018/09/04 13:49:13","新北市土城區城林路6巷80號","121.438665","24.97967","6501300","土城區"
"236040","107-UM","2018/09/04 13:49:14","新北市土城區城林路6巷80號","121.438475","24.9797866666667","6501300","土城區"
"236029","253-BX","2018/09/04 13:49:19","新北市土城區城林路6巷80號","121.438571666667","24.979645","6501300","土城區"
"236024","269-VK","2018/09/04 13:49:17","新北市土城區城林路6巷80號","121.438681666667","24.9798366666667","6501300","土城區"
"236013","270-VK","2018/09/04 13:49:30","新北市土城區城林路6巷80號","121.438471666667","24.9797833333333","6501300","土城區"
"236032","271-VK","2018/09/04 13:49:19","新北市土城區城林路6巷80號","121.438421666667","24.97975","6501300","土城區"
"236017","401-BY","2018/09/04 13:49:12","新北市土城區城林路6巷80號","121.438505","24.9798233333333","6501300","土城區"
"236006","498-BY","2018/09/04 13:49:20","新北市土城區慶祥街1巷27號","121.43718","24.9738333333333","6501300","土城區"
"236057","912-UM","2018/09/04 13:49:17","新北市土城區中華路二段120號","121.437888333333","24.9738683333333","6501300","土城區"
"236045","913-UM","2018/09/04 13:49:09","新北市土城區城林路6巷80號","121.438553333333","24.9797366666667","6501300","土城區"
"236054","AAC-216","2018/09/04 13:49:27","新北市土城區中華路二段2號","121.438831666667","24.9797083333333","6501300","土城區"
"242048","172-VK","2018/09/04 13:49:16","新北市新莊區民安路291號","121.429366666667","25.02245","6500500","新莊區"
"221010","269-BY","2018/09/04 13:48:44","新北市汐止區八連路三段196號","121.615126666667","25.1198966666667","6501100","汐止區"
"221029","298-VK","2018/09/04 13:49:29","新北市汐止區福德二路81號","121.633511666667","25.0666583333333","6501100","汐止區"
"221025","623-UM","2018/09/04 13:49:28","新北市汐止區大同路一段336號","121.637825","25.0590316666667","6501100","汐止區"
"221018","753-BX","2018/09/04 13:49:14","新北市汐止區汐萬路一段256巷1號","121.652016666667","25.0747483333333","6501100","汐止區"
"220027","145-BY","2018/09/04 13:49:19","新北市板橋區民權路202巷4弄1號","121.45957","25.0142116666667","6500100","板橋區"
"220028","200-UY","2018/09/04 13:49:18","新北市板橋區大觀路二段265巷60弄2號","121.442635","24.99811","6500100","板橋區"
"220030","610-BX","2018/09/04 13:49:14","新北市板橋區篤行路三段67號","121.427553333333","24.98572","6500100","板橋區"
"220004","276-BY","2018/09/04 13:49:21","新北市土城區四川路18號","121.455445","24.9959883333333","6500100","板橋區"
"220020","277-BY","2018/09/04 13:49:16","新北市板橋區大觀路三段20號","121.434418333333","24.9957783333333","6500100","板橋區"
"220038","280-UM","2018/09/04 13:49:24","新北市板橋區民生路二段161巷1號","121.47028","25.0198816666667","6500100","板橋區"
"220043","283-UM","2018/09/04 13:49:32","新北市板橋區民生路二段161巷1號","121.47009","25.01999","6500100","板橋區"
"220019","283-VK","2018/09/04 13:49:27","新北市中和區國光街215巷4弄18號","121.465895","25.0018433333333","6500100","板橋區"
"220001","285-VK","2018/09/04 13:49:29","新北市板橋區民生路二段89-1號","121.471323333333","25.0180266666667","6500100","板橋區"
"220031","286-VK","2018/09/04 13:49:30","新北市板橋區大觀路二段20巷2號","121.444883333333","25.0041566666667","6500100","板橋區"
"220029","287-VK","2018/09/04 13:49:30","新北市板橋區光華街20號","121.454065","25.0119033333333","6500100","板橋區"
"220039","288-VK","2018/09/04 13:49:27","新北市板橋區民生路二段120號","121.470556666667","25.0196483333333","6500100","板橋區"
"220009","295-UM","2018/09/04 13:49:18","新北市板橋區民生路二段121號","121.470918333333","25.018415","6500100","板橋區"
"220032","296-UM","2018/09/04 13:49:19","新北市板橋區大觀路二段150巷32號","121.441648333333","24.999915","6500100","板橋區"
"220010","299-UM","2018/09/04 13:49:24","新北市板橋區中山路二段40巷17號","121.473373333333","25.0148216666667","6500100","板橋區"
"220023","303-R5","2018/09/04 13:49:18","新北市板橋區南雅東路89號","121.453265","25.008575","6500100","板橋區"
"220012","486-VK","2018/09/04 13:49:27","新北市板橋區民生路二段15-1號","121.472778333333","25.0159566666667","6500100","板橋區"
"220037","491-VK","2018/09/04 13:49:13","新北市板橋區民生路二段161巷1號","121.470021666667","25.0201983333333","6500100","板橋區"
"220104","560-BX","2018/09/04 13:49:24","新北市板橋區中正路275巷73號","121.452506666667","25.0181433333333","6500100","板橋區"
"220052","561-BX","2018/09/04 13:49:25","新北市板橋區民生路二段161巷5號","121.470285","25.0197616666667","6500100","板橋區"
"220011","609-BX","2018/09/04 13:49:31","新北市板橋區民生路一段131號","121.473725","25.0150333333333","6500100","板橋區"
"220005","686-BX","2018/09/04 13:49:15","新北市板橋區南雅南路二段120-2號","121.452431666667","25.0001","6500100","板橋區"
"220025","687-BX","2018/09/04 13:49:20","新北市板橋區大觀路三段121號","121.432728333333","24.9944383333333","6500100","板橋區"
"220042","689-BX","2018/09/04 13:49:20","新北市板橋區民生路二段188號","121.469923333333","25.0203716666667","6500100","板橋區"
"220002","741-BX","2018/09/04 13:49:15","新北市板橋區館前西路46巷2號","121.458888333333","25.0070866666667","6500100","板橋區"
"220051","KEA-2699","2018/09/04 13:49:27","新北市板橋區民生路二段161巷1號","121.470256666667","25.0200666666667","6500100","板橋區"
"220003","827-TW","2018/09/04 13:49:26","新北市板橋區中山路一段160-6號","121.466443333333","25.01224","6500100","板橋區"
"220014","830-TW","2018/09/04 13:49:19","新北市板橋區民生路二段89-1號","121.47132","25.0182216666667","6500100","板橋區"
"220022","895-R6","2018/09/04 13:49:17","新北市板橋區府中路30號","121.458803333333","25.0094983333333","6500100","板橋區"
"220021","985-R7","2018/09/04 13:49:16","新北市板橋區府中路67號","121.458138333333","25.0095166666667","6500100","板橋區"
"220018","AAC-253","2018/09/04 13:49:22","新北市板橋區館前西路46巷2號","121.459061666667","25.0070816666667","6500100","板橋區"
"235032","KEA-2873","2018/09/04 13:49:11","新北市中和區圓通路162巷35號","121.49659","24.9956116666667","6500300","中和區"
"235025","KEA-2875","2018/09/04 13:49:16","新北市中和區民治街134巷10號","121.474856666667","25.0020716666667","6500300","中和區"
