"lineid","car","time","location","longitude","latitude","cityid","cityname"
"234070","149-BY","2018/09/04 15:17:27","新北市永和區福和路1號","121.525523333333","25.0095033333333","6500400","永和區"
"234025","9371-KE","2018/09/04 15:17:25","新北市永和區保平路196號","121.510278333333","25.0062633333333","6500400","永和區"
"248017","225-UY","2018/09/04 15:17:18","新北市五股區自強路90巷52號","121.431468333333","25.071715","6501500","五股區"
"244001","658-BX","2018/09/04 15:17:15","新北市林口區忠孝路377號","121.369256666667","25.0716283333333","6501700","林口區"
"231002","002-UM","2018/09/04 15:17:29","新北市新店區中正路707號","121.533701666667","24.9912316666667","6500600","新店區"
"231028","046-UY","2018/09/04 15:17:20","新北市新店區僑愛一路1號","121.499938333333","24.9447283333333","6500600","新店區"
"231001","047-UY","2018/09/04 15:17:23","新北市新店區北新路一段311-1號","121.541535","24.96802","6500600","新店區"
"231005","106-UY","2018/09/04 15:17:15","新北市新店區建國路219-1號","121.537598333333","24.9813283333333","6500600","新店區"
"231020","108-UY","2018/09/04 15:17:23","新北市新店區永福路90號","121.560986666667","24.92846","6500600","新店區"
"231035","110-UY","2018/09/04 15:17:28","新北市新店區永平街23巷7號","121.516773333333","24.98304","6500600","新店區"
"231012","187-VK","2018/09/04 15:17:21","新北市新店區寶元路一段65號","121.542231666667","24.985845","6500600","新店區"
"231032","188-VK","2018/09/04 15:17:20","新北市新店區安泰路172號","121.489336666667","24.9339883333333","6500600","新店區"
"231023","KEA-2219","2018/09/04 15:17:24","新北市新店區北新路一段64巷37號","121.542175","24.96574","6500600","新店區"
"231026","256-BX","2018/09/04 15:17:31","新北市新店區中正路247巷6弄2號","121.538646666667","24.97273","6500600","新店區"
"231003","268-BY","2018/09/04 15:17:27","新北市新店區寶橋路230號","121.551365","24.9788366666667","6500600","新店區"
"231018","278-BY","2018/09/04 15:17:21","新北市新店區中央八街86號","121.52702","24.9773966666667","6500600","新店區"
"231015","AAD-862","2018/09/04 15:17:22","新北市新店區明山路45號","121.563786666667","24.95591","6500600","新店區"
"231038","3712-VJ","2018/09/04 15:17:26","新北市新店區安華路28-1號","121.519653333333","24.960865","6500600","新店區"
"231025","4715-K9","2018/09/04 15:17:27","新北市新店區環河路105-11號","121.531926666667","24.97002","6500600","新店區"
"231036","512-UM","2018/09/04 15:17:28","新北市新店區安祥路69巷19號","121.481861666667","24.961345","6500600","新店區"
"231034","616-UM","2018/09/04 15:17:33","新北市新店區如意街2巷2號","121.495828333333","24.94969","6500600","新店區"
"231006","617-UM","2018/09/04 15:17:31","新北市新店區中興路一段205號","121.543416666667","24.965665","6500600","新店區"
"231030","619-UM","2018/09/04 15:17:22","新北市新店區安民街341-1號","121.516825","24.9749283333333","6500600","新店區"
"231039","718-UY","2018/09/04 15:17:25","新北市新店區寶元路一段65號","121.542228333333","24.9857716666667","6500600","新店區"
"231029","897-TW","2018/09/04 15:17:31","新北市新店區安康路三段738號","121.473826666667","24.941995","6500600","新店區"
"231004","899-TW","2018/09/04 15:17:23","新北市新店區建國路27號","121.54013","24.9740583333333","6500600","新店區"
"235030","003-UY","2018/09/04 15:17:26","新北市中和區保平路269號","121.506973333333","25.0040233333333","6500300","中和區"
"235014","4979-A6","2018/09/04 15:17:14","新北市中和區景安路177巷8號","121.50579","24.9939566666667","6500300","中和區"
"235033","4980-A6","2018/09/04 15:17:19","新北市中和區圓通路189號","121.497245","24.9945033333333","6500300","中和區"
"235035","783-BX","2018/09/04 15:17:32","新北市板橋區三民路二段62-1號","121.481645","25.0116866666667","6500300","中和區"
"235012","896-TW","2018/09/04 15:17:12","新北市中和區捷運路6號","121.510201666667","24.9897433333333","6500300","中和區"
"235001","AAC-213","2018/09/04 15:17:18","新北市中和區成功路88號","121.525871666667","24.9913633333333","6500300","中和區"
"235023","AAC-215","2018/09/04 15:17:29","新北市中和區圓通路435巷2-10號","121.487436666667","24.986725","6500300","中和區"
"220016","013-TV","2018/09/04 15:17:32","新北市板橋區民治街61巷33號","121.481525","25.034845","6500100","板橋區"
"207002","749-BX","2018/09/04 15:17:12","新北市萬里區崁腳里內中福路21-1號","121.660706666667","25.1658516666667","6502800","萬里區"
"207001","662-BX","2018/09/04 15:17:20","新北市萬里區磺潭里員潭路1-1號","121.646501666667","25.2024716666667","6502800","萬里區"
"236065","105-UM","2018/09/04 15:17:33","新北市土城區裕民路185巷36弄10號","121.45437","24.984525","6501300","土城區"
"236040","107-UM","2018/09/04 15:17:34","新北市土城區學府路一段146號","121.454948333333","24.9871216666667","6501300","土城區"
"236074","166-UM","2018/09/04 15:17:25","新北市土城區中州路26-4號","121.414293333333","24.9577016666667","6501300","土城區"
"236029","253-BX","2018/09/04 15:17:25","新北市土城區中央路一段262巷7號","121.443568333333","24.98406","6501300","土城區"
"236024","269-VK","2018/09/04 15:17:17","新北市土城區員林街61巷2弄15號","121.444508333333","24.9777916666667","6501300","土城區"
"236013","270-VK","2018/09/04 15:17:30","新北市土城區學府路一段46號","121.457783333333","24.9884966666667","6501300","土城區"
"236032","271-VK","2018/09/04 15:17:28","新北市土城區國際路93號","121.467496666667","24.9756833333333","6501300","土城區"
"236017","401-BY","2018/09/04 15:17:32","新北市土城區峰廷街3號","121.469045","24.98738","6501300","土城區"
"236057","912-UM","2018/09/04 15:17:16","新北市土城區中央路三段7號","121.439388333333","24.9706116666667","6501300","土城區"
"236045","913-UM","2018/09/04 15:17:32","新北市土城區明德路一段58號","121.465511666667","24.98361","6501300","土城區"
"236060","915-UM","2018/09/04 15:17:15","新北市土城區延和路105巷6弄2號","121.467383333333","24.9909016666667","6501300","土城區"
"236054","AAC-216","2018/09/04 15:17:28","新北市土城區學府路一段70號","121.456796666667","24.9883433333333","6501300","土城區"
"221029","298-VK","2018/09/04 15:17:29","新北市五股區中興路一段150巷20號","121.464235","25.0757283333333","6501100","汐止區"
"220050","245-BX","2018/09/04 15:17:27","新北市板橋區萬板路32號","121.471928333333","25.0222833333333","6500100","板橋區"
"220038","280-UM","2018/09/04 15:17:24","新北市板橋區互助街7號","121.463163333333","25.02766","6500100","板橋區"
"220031","286-VK","2018/09/04 15:17:29","新北市板橋區僑中二街104巷22號","121.445141666667","25.00807","6500100","板橋區"
"220052","561-BX","2018/09/04 15:17:24","新北市板橋區漢生東路21-1號","121.465128333333","25.01725","6500100","板橋區"
"220025","687-BX","2018/09/04 15:17:20","新北市板橋區大觀路一段29巷131弄125號","121.451738333333","25.0056616666667","6500100","板橋區"
"220042","689-BX","2018/09/04 15:17:20","新北市板橋區新海路438號","121.458033333333","25.02774","6500100","板橋區"
"220051","KEA-2699","2018/09/04 15:17:26","新北市板橋區永豐街89巷5弄10號","121.472645","25.0196633333333","6500100","板橋區"
"220018","AAC-253","2018/09/04 15:17:22","新北市板橋區華東街1-9號","121.448061666667","24.9948966666667","6500100","板橋區"
