"lineid","car","time","location","longitude","latitude","cityid","cityname"
"249005","172-UM","2018/09/04 16:59:29","新北市八里區渡船頭2號","121.434008333333","25.1518216666667","6502300","八里區"
"249001","173-UM","2018/09/04 16:59:28","新北市八里區中山路三段109號","121.390246666667","25.1421066666667","6502300","八里區"
"249004","303-UY","2018/09/04 16:59:23","新北市八里區仁愛路10號","121.413183333333","25.1622116666667","6502300","八里區"
"249002","305-UY","2018/09/04 16:59:34","新北市八里區牛寮埔11號","121.432981666667","25.1424883333333","6502300","八里區"
"249003","593-UM","2018/09/04 16:59:33","新北市八里區中山路二段301號","121.401073333333","25.14818","6502300","八里區"
"244013","KEA-2802","2018/09/04 16:59:20","新北市林口區粉寮路二段88巷100-12號","121.409601666667","25.0901833333333","6501700","林口區"
"244017","485-VK","2018/09/04 16:59:33","新北市林口區粉寮路二段88巷100-12號","121.40963","25.0902033333333","6501700","林口區"
"244025","837-TS","2018/09/04 16:59:27","新北市林口區粉寮路一段55號","121.39693","25.0778166666667","6501700","林口區"
"231046","107-UY","2018/09/04 16:59:28","新北市新店區永業路81巷12號","121.531303333333","24.945695","6500600","新店區"
"241011","013-R5","2018/09/04 16:59:31","新北市三重區仁愛街55巷126號","121.498893333333","25.0728183333333","6500200","三重區"
"241028","022-UY","2018/09/04 16:59:28","新北市三重區中正南路50號","121.493963333333","25.0599616666667","6500200","三重區"
"241008","059-VK","2018/09/04 16:59:18","新北市三重區永福街179巷21號","121.478195","25.0749283333333","6500200","三重區"
"241031","061-VK","2018/09/04 16:59:31","新北市三重區重新路三段115巷4號","121.490588333333","25.060105","6500200","三重區"
"241015","062-VK","2018/09/04 16:59:31","新北市三重區福德北路82號","121.501661666667","25.0664133333333","6500200","三重區"
"241017","063-VK","2018/09/04 16:59:17","新北市三重區大仁街3巷12號","121.491933333333","25.0638383333333","6500200","三重區"
"241024","065-VK","2018/09/04 16:59:23","新北市三重區大勇街82巷15弄30號","121.481166666667","25.0719133333333","6500200","三重區"
"241026","066-VK","2018/09/04 16:59:17","新北市三重區文化南路42號","121.500431666667","25.0602733333333","6500200","三重區"
"241002","090-VK","2018/09/04 16:59:36","新北市三重區仁義街101巷2號","121.49757","25.0802333333333","6500200","三重區"
"241016","266-UM","2018/09/04 16:59:22","新北市三重區大同北路120巷1-5號","121.493173333333","25.0640133333333","6500200","三重區"
"241009","267-UM","2018/09/04 16:59:18","新北市三重區仁美街108巷21號","121.48452","25.0805233333333","6500200","三重區"
"241018","268-UM","2018/09/04 16:59:29","新北市三重區六張街126巷2弄6號","121.492253333333","25.0693933333333","6500200","三重區"
"241032","269-UM","2018/09/04 16:59:35","新北市三重區新北大道一段33號","121.486053333333","25.06113","6500200","三重區"
"241013","270-UM","2018/09/04 16:59:26","新北市三重區仁昌街40號","121.497203333333","25.074305","6500200","三重區"
"241025","271-UM","2018/09/04 16:59:22","新北市三重區中正北路510號","121.472645","25.0717266666667","6500200","三重區"
"241007","398-BY","2018/09/04 16:59:32","新北市三重區三和路四段145巷205號","121.488621666667","25.0793866666667","6500200","三重區"
"241004","475-VK","2018/09/04 16:59:15","新北市三重區五華街106號","121.492426666667","25.082525","6500200","三重區"
"241020","478-VK","2018/09/04 16:59:33","新北市三重區後竹圍街175巷16號","121.485761666667","25.07252","6500200","三重區"
"241030","480-VK","2018/09/04 16:59:21","新北市三重區昌隆街65號","121.490986666667","25.0509483333333","6500200","三重區"
"241014","543-UM","2018/09/04 16:59:25","新北市三重區介壽路189號","121.501336666667","25.0708883333333","6500200","三重區"
"241023","545-UM","2018/09/04 16:59:32","新北市三重區新北大道一段252號","121.479863333333","25.0617033333333","6500200","三重區"
"241001","547-UM","2018/09/04 16:59:26","新北市三重區仁愛街245巷30號","121.494173333333","25.078535","6500200","三重區"
"241019","KEA-2593","2018/09/04 16:59:26","新北市三重區三張街104號","121.487871666667","25.069925","6500200","三重區"
"241006","AAD-863","2018/09/04 16:59:26","新北市三重區車路頭街131巷28號","121.485575","25.0759333333333","6500200","三重區"
"241005","887-TS","2018/09/04 16:59:20","新北市三重區仁華街65號","121.484356666667","25.08269","6500200","三重區"
"241012","941-UM","2018/09/04 16:59:23","新北市三重區仁和街205號","121.500575","25.0749766666667","6500200","三重區"
"241029","942-UM","2018/09/04 16:59:32","新北市三重區環河南路220-8號","121.493351666667","25.0527","6500200","三重區"
"241033","AAC-255","2018/09/04 16:59:26","新北市三重區中興北街275號","121.469213333333","25.0607333333333","6500200","三重區"
"235065","098-UM","2018/09/04 16:55:04","新北市中和區員山路36巷16-3號","121.48514","24.9912066666667","6500300","中和區"
"247012","KEA-2869","2018/09/04 16:59:21","新北市蘆洲區復興路231號","121.480075","25.0898033333333","6501400","蘆洲區"
"247016","546-UM","2018/09/04 16:59:28","新北市蘆洲區正和街12號","121.470176666667","25.08256","6501400","蘆洲區"
"247024","500-BY","2018/09/04 16:59:26","新北市蘆洲區長興路255號","121.46053","25.0875133333333","6501400","蘆洲區"
"247014","339-TH","2018/09/04 16:59:32","新北市蘆洲區中山二路36巷31號","121.474065","25.0831683333333","6501400","蘆洲區"
"247006","337-TH","2018/09/04 16:59:19","新北市蘆洲區長安街111巷31號","121.460561666667","25.0800333333333","6501400","蘆洲區"
"247008","336-TH","2018/09/04 16:59:23","新北市蘆洲區信義路58號","121.475555","25.07972","6501400","蘆洲區"
"247020","057-VK","2018/09/04 16:59:33","新北市蘆洲區民族路422巷48弄13號","121.474186666667","25.0935883333333","6501400","蘆洲區"
"247010","056-VK","2018/09/04 16:59:24","新北市蘆洲區信義路172號","121.479371666667","25.0839216666667","6501400","蘆洲區"
"247018","007-UY","2018/09/04 16:59:24","新北市蘆洲區民族路227巷25號","121.476693333333","25.089085","6501400","蘆洲區"
"247004","002-UY","2018/09/04 16:59:24","新北市蘆洲區長安街108巷5弄2號","121.461376666667","25.0819966666667","6501400","蘆洲區"
"247022","001-UY","2018/09/04 16:59:24","新北市蘆洲區三民路128巷85號","121.468376666667","25.0925033333333","6501400","蘆洲區"
"228001","212-TW","2018/09/04 16:59:21","新北市貢寮區貢寮里朝陽街1-2號","121.91219","25.021275","6502600","貢寮區"
"228002","663-BX","2018/09/04 16:59:24","新北市貢寮區貢寮里朝陽街68號","121.90979","25.0218616666667","6502600","貢寮區"
"228003","828-UM","2018/09/04 16:59:24","新北市貢寮區福隆里興隆街24-1號","121.944368333333","25.016615","6502600","貢寮區"
"224006","676-BX","2018/09/04 16:59:32","新北市瑞芳區大寮路14號","121.783601666667","25.09932","6501200","瑞芳區"
"224008","285-BY","2018/09/04 16:59:25","新北市瑞芳區明燈路一段267號","121.816738333333","25.1085166666667","6501200","瑞芳區"
"224007","275-VK","2018/09/04 16:59:27","新北市瑞芳區瑞竹路6號","121.765276666667","25.1030916666667","6501200","瑞芳區"
"224009","273-VK","2018/09/04 16:59:25","新北市瑞芳區濱二路28號","121.83929","25.1146733333333","6501200","瑞芳區"
"224005","271-BY","2018/09/04 16:59:20","新北市瑞芳區明里路4號","121.868771666667","25.1209616666667","6501200","瑞芳區"
"227009","642-TC","2018/09/04 16:59:28","新北市雙溪區牡丹里中正路103號","121.862146666667","25.0479483333333","6502500","雙溪區"
"227003","400-TW","2018/09/04 16:59:27","新北市雙溪區長源里柑腳8號","121.80467","25.0146083333333","6502500","雙溪區"
"251004","009-UM","2018/09/04 16:59:23","新北市淡水區中正路257號","121.4333","25.174455","6501000","淡水區"
"251005","010-UM","2018/09/04 16:59:34","新北市淡水區水源街一段139號","121.44713","25.1719016666667","6501000","淡水區"
"251013","KEA-2871","2018/09/04 16:59:28","新北市淡水區泉洲厝32號","121.489343333333","25.1925933333333","6501000","淡水區"
"251016","179-VK","2018/09/04 16:59:24","新北市淡水區瓦坑3號","121.477558333333","25.1806733333333","6501000","淡水區"
"251014","180-VK","2018/09/04 16:59:20","新北市淡水區八里堆2-8號","121.453578333333","25.2241433333333","6501000","淡水區"
"251015","181-VK","2018/09/04 16:59:20","新北市淡水區忠愛街9-1號","121.456786666667","25.1743733333333","6501000","淡水區"
"251010","413-VK","2018/09/04 16:46:29","新北市淡水區中正路二段31號","121.419473333333","25.181475","6501000","淡水區"
"251012","441-VK","2018/09/04 16:59:23","新北市淡水區沙崙路214號","121.425038333333","25.1842083333333","6501000","淡水區"
"251007","442-VK","2018/09/04 16:59:21","新北市淡水區淡金路二段30號","121.451948333333","25.1812783333333","6501000","淡水區"
"251008","443-VK","2018/09/04 16:58:01","新北市淡水區樹梅坑9號","121.472735","25.1427","6501000","淡水區"
"251006","561-UM","2018/09/04 16:59:17","新北市淡水區中正東路36-1號","121.448941666667","25.1657166666667","6501000","淡水區"
"251009","575-R6","2018/09/04 16:59:21","新北市淡水區中正路一段87巷1號","121.421353333333","25.1795816666667","6501000","淡水區"
"251011","650-BX","2018/09/04 16:59:16","新北市淡水區中正東路71號","121.447168333333","25.1675766666667","6501000","淡水區"
"252002","178-VK","2018/09/04 16:59:30","新北市三芝區忠孝街145號","121.506208333333","25.260675","6502100","三芝區"
"252001","292-VK","2018/09/04 16:59:24","新北市三芝區淡金路二段47-2號","121.503711666667","25.2606716666667","6502100","三芝區"
"242058","986-R7","2018/09/04 16:59:18","新北市新莊區三和路18-25號","121.441831666667","25.0391233333333","6500500","新莊區"
"242054","751-BX","2018/09/04 16:59:34","新北市新莊區新泰路255巷83號","121.442005","25.0389016666667","6500500","新莊區"
"242007","413-TV","2018/09/04 16:59:18","新北市新莊區新泰路255巷83號","121.442085","25.0389666666667","6500500","新莊區"
"242061","353-BY","2018/09/04 16:59:20","新北市新莊區三和路12-21號","121.44214","25.0387366666667","6500500","新莊區"
"242039","133-UY","2018/09/04 16:59:27","新北市新莊區三和路12-21號","121.44207","25.0386783333333","6500500","新莊區"
"242017","175-VK","2018/09/04 16:59:16","新北市新莊區三和路12-21號","121.442025","25.0383466666667","6500500","新莊區"
"242021","348-TH","2018/09/04 16:59:34","新北市新莊區新泰路357巷3弄57號","121.442113333333","25.0392566666667","6500500","新莊區"
"242002","349-TH","2018/09/04 16:59:19","新北市新莊區三和路12-14號","121.441918333333","25.0372733333333","6500500","新莊區"
"242013","351-TH","2018/09/04 16:59:31","新北市新莊區新泰路357巷3弄57號","121.442095","25.0392283333333","6500500","新莊區"
"238018","571-TV","2018/09/04 16:59:23","新北市樹林區育德街78-1號","121.388266666667","24.9681316666667","6500700","樹林區"
"238022","KEA-2213","2018/09/04 16:59:17","新北市樹林區育德街78-1號","121.387763333333","24.9682883333333","6500700","樹林區"
"238017","283-BY","2018/09/04 16:59:21","新北市樹林區育德街78號","121.387965","24.968365","6500700","樹林區"
"238014","282-BY","2018/09/04 16:59:18","新北市樹林區育德街78-1號","121.387608333333","24.968115","6500700","樹林區"
"238020","268-VK","2018/09/04 16:59:35","新北市樹林區育德街78-1號","121.388131666667","24.96829","6500700","樹林區"
"239007","AAC-297","2018/09/04 16:59:22","新北市鶯歌區二甲路12-2號","121.345605","24.9350816666667","6500800","鶯歌區"
"239006","891-R6","2018/09/04 16:59:28","新北市鶯歌區二甲路12-2號","121.345503333333","24.93511","6500800","鶯歌區"
"239008","527-UM","2018/09/04 16:50:47","新北市鶯歌區環河路177-23號","121.34504","24.9356333333333","6500800","鶯歌區"
