"lineid","car","time","location","longitude","latitude","cityid","cityname"
"249005","172-UM","2018/09/04 17:24:49","新北市八里區荖阡坑路73號","121.408733333333","25.125405","6502300","八里區"
"249001","173-UM","2018/09/04 17:25:00","新北市八里區中華路一段359號","121.41533","25.1547566666667","6502300","八里區"
"249004","303-UY","2018/09/04 17:25:03","新北市八里區民有街81號","121.414115","25.1556266666667","6502300","八里區"
"249002","305-UY","2018/09/04 17:24:54","新北市八里區龍米路二段65巷17號","121.446641666667","25.1410533333333","6502300","八里區"
"249003","593-UM","2018/09/04 17:24:53","新北市八里區中山路二段398號","121.400483333333","25.1478716666667","6502300","八里區"
"232011","375-UM","2018/09/04 17:24:52","新北市坪林區北宜路八段553號","121.716568333333","24.9109783333333","6502000","坪林區"
"244007","080-UY","2018/09/04 17:24:58","新北市林口區湖子17-9號","121.38505","25.091345","6501700","林口區"
"244019","403-UM","2018/09/04 17:24:59","新北市林口區文化一路一段135巷30號","121.3731","25.0726816666667","6501700","林口區"
"244013","KEA-2802","2018/09/04 17:24:59","新北市林口區粉寮路二段88巷100-12號","121.409583333333","25.09018","6501700","林口區"
"244023","483-VK","2018/09/04 17:24:56","新北市林口區興林一街96巷20號","121.391083333333","25.07206","6501700","林口區"
"244017","485-VK","2018/09/04 17:24:53","新北市林口區中山路37號","121.394966666667","25.0784416666667","6501700","林口區"
"244009","656-BX","2018/09/04 17:25:03","新北市林口區竹林一路113號","121.385225","25.085925","6501700","林口區"
"244025","837-TS","2018/09/04 17:24:47","新北市林口區民族路181號","121.367246666667","25.07656","6501700","林口區"
"244021","838-TS","2018/09/04 17:25:00","新北市林口區粉寮路一段84號","121.397308333333","25.0797566666667","6501700","林口區"
"231046","107-UY","2018/09/04 17:24:48","新北市新店區直潭路92號","121.530903333333","24.9376066666667","6500600","新店區"
"241011","013-R5","2018/09/04 17:25:06","新北市三重區河邊北街110巷45號","121.502965","25.07066","6500200","三重區"
"241015","062-VK","2018/09/04 17:25:04","新北市三重區長元街96-3號","121.502571666667","25.0666016666667","6500200","三重區"
"241017","063-VK","2018/09/04 17:24:57","新北市三重區重新路三段45-3號","121.493291666667","25.0617033333333","6500200","三重區"
"241024","065-VK","2018/09/04 17:24:43","新北市三重區後竹圍街295號","121.478815","25.0697616666667","6500200","三重區"
"241026","066-VK","2018/09/04 17:24:56","新北市三重區光興街37號","121.499536666667","25.0602716666667","6500200","三重區"
"241016","266-UM","2018/09/04 17:25:01","新北市三重區大同北路54巷1號","121.494145","25.0635966666667","6500200","三重區"
"241009","267-UM","2018/09/04 17:24:58","新北市三重區三和路四段147號","121.484266666667","25.0783783333333","6500200","三重區"
"241018","268-UM","2018/09/04 17:24:49","新北市三重區國隆路26號","121.492445","25.06435","6500200","三重區"
"241025","271-UM","2018/09/04 17:25:01","新北市三重區中正北路177號","121.477858333333","25.0695133333333","6500200","三重區"
"241007","398-BY","2018/09/04 17:24:52","新北市三重區三和路四段145巷122號","121.487453333333","25.07926","6500200","三重區"
"241020","478-VK","2018/09/04 17:24:53","新北市三重區自強路三段7巷9號","121.488948333333","25.0723816666667","6500200","三重區"
"241030","480-VK","2018/09/04 17:25:02","新北市三重區新興路41號","121.491751666667","25.0537433333333","6500200","三重區"
"241014","543-UM","2018/09/04 17:24:45","新北市三重區長壽街48號","121.500408333333","25.0681966666667","6500200","三重區"
"241023","545-UM","2018/09/04 17:25:05","新北市三重區忠孝路三段50巷17號","121.481468333333","25.065335","6500200","三重區"
"241019","KEA-2593","2018/09/04 17:25:06","新北市三重區自強路二段49號","121.489125","25.0696233333333","6500200","三重區"
"241005","887-TS","2018/09/04 17:25:00","新北市三重區永安北路二段43巷27號","121.483186666667","25.0826316666667","6500200","三重區"
"241012","941-UM","2018/09/04 17:25:03","新北市三重區仁昌街74號","121.498716666667","25.074825","6500200","三重區"
"241033","AAC-255","2018/09/04 17:25:06","新北市三重區光復路二段42巷40號","121.469065","25.054235","6500200","三重區"
"247012","KEA-2869","2018/09/04 17:25:01","新北市蘆洲區民族路51號","121.478506666667","25.0853733333333","6501400","蘆洲區"
"247002","893-R6","2018/09/04 17:24:47","新北市蘆洲區環堤大道186號","121.456538333333","25.0905266666667","6501400","蘆洲區"
"247016","546-UM","2018/09/04 17:24:48","新北市蘆洲區光華路22巷5號","121.469268333333","25.0836783333333","6501400","蘆洲區"
"247024","500-BY","2018/09/04 17:25:06","新北市蘆洲區長榮路707號","121.46091","25.09277","6501400","蘆洲區"
"247014","339-TH","2018/09/04 17:24:51","新北市蘆洲區復興路42號","121.472551666667","25.0854033333333","6501400","蘆洲區"
"247006","337-TH","2018/09/04 17:24:59","新北市蘆洲區九芎街90巷11-1號","121.464965","25.080985","6501400","蘆洲區"
"247008","336-TH","2018/09/04 17:25:03","新北市蘆洲區信義路34巷115號","121.475551666667","25.07698","6501400","蘆洲區"
"247020","057-VK","2018/09/04 17:24:53","新北市蘆洲區仁愛街116號","121.469775","25.0948516666667","6501400","蘆洲區"
"247010","056-VK","2018/09/04 17:25:04","新北市蘆洲區中山一路120巷12號","121.477603333333","25.081785","6501400","蘆洲區"
"247018","007-UY","2018/09/04 17:25:04","新北市蘆洲區民權路87號","121.473091666667","25.0887433333333","6501400","蘆洲區"
"247004","002-UY","2018/09/04 17:25:04","新北市蘆洲區中原路32號","121.45997","25.0827283333333","6501400","蘆洲區"
"247022","001-UY","2018/09/04 17:25:04","新北市蘆洲區三民路160號","121.470245","25.0881433333333","6501400","蘆洲區"
"228001","212-TW","2018/09/04 17:25:01","新北市貢寮區仁理村尖山腳街20號","121.925048333333","25.0478883333333","6502600","貢寮區"
"228002","663-BX","2018/09/04 17:25:04","新北市貢寮區雙玉里田寮洋街25-4號","121.930415","25.0175166666667","6502600","貢寮區"
"228003","828-UM","2018/09/04 17:25:04","新北市貢寮區龍門里復興街8-2號","121.926898333333","25.0271666666667","6502600","貢寮區"
"224006","676-BX","2018/09/04 17:25:05","新北市瑞芳區傑魚坑路173-7號","121.789301666667","25.1091016666667","6501200","瑞芳區"
"224008","285-BY","2018/09/04 17:25:05","新北市瑞芳區九芎橋路8號","121.832426666667","25.0903133333333","6501200","瑞芳區"
"224009","273-VK","2018/09/04 17:25:05","新北市瑞芳區汽車路3號","121.847288333333","25.1113566666667","6501200","瑞芳區"
"224005","271-BY","2018/09/04 17:25:00","新北市瑞芳區南雅路27-1號","121.888795","25.12038","6501200","瑞芳區"
"227009","642-TC","2018/09/04 17:24:48","新北市雙溪區三貂里十三層17-3號","121.853526666667","25.0795416666667","6502500","雙溪區"
"227003","400-TW","2018/09/04 17:24:56","新北市雙溪區上林里新寮子24號","121.832088333333","25.0259466666667","6502500","雙溪區"
"251004","009-UM","2018/09/04 17:16:26","新北市淡水區中正東路二段88巷15號","121.459181666667","25.1505633333333","6501000","淡水區"
"251005","010-UM","2018/09/04 17:24:51","新北市淡水區鄧公路19號","121.451415","25.1700133333333","6501000","淡水區"
"251002","012-UM","2018/09/04 17:25:04","新北市淡水區沙崙路1號","121.420366666667","25.1807833333333","6501000","淡水區"
"251013","KEA-2871","2018/09/04 17:24:48","新北市淡水區水尾子6號","121.46296","25.1955683333333","6501000","淡水區"
"251016","179-VK","2018/09/04 17:25:04","新北市淡水區社厝坑9-1號","121.466406666667","25.192475","6501000","淡水區"
"251014","180-VK","2018/09/04 17:24:22","新北市淡水區公埔子20-2號","121.469663333333","25.2289183333333","6501000","淡水區"
"251015","181-VK","2018/09/04 17:25:00","新北市淡水區三空泉15號","121.472691666667","25.163325","6501000","淡水區"
"251010","413-VK","2018/09/04 17:24:59","新北市淡水區中正路二段211號","121.426218333333","25.1891516666667","6501000","淡水區"
"251012","441-VK","2018/09/04 17:25:04","新北市淡水區北新路72號","121.446383333333","25.1784116666667","6501000","淡水區"
"251007","442-VK","2018/09/04 17:25:00","新北市淡水區民生路47-4號","121.462076666667","25.137995","6501000","淡水區"
"251008","443-VK","2018/09/04 17:25:01","新北市淡水區大同路100巷5號","121.462505","25.13963","6501000","淡水區"
"251006","561-UM","2018/09/04 17:24:58","新北市淡水區大智街45號","121.443006666667","25.1742483333333","6501000","淡水區"
"251009","575-R6","2018/09/04 17:25:01","新北市淡水區新生街90巷12號","121.439786666667","25.1739183333333","6501000","淡水區"
"251011","650-BX","2018/09/04 17:24:56","新北市淡水區三空泉8-1號","121.47564","25.1613016666667","6501000","淡水區"
"251003","673-BX","2018/09/04 17:24:46","新北市淡水區中正路一段87巷1號","121.421758333333","25.1792933333333","6501000","淡水區"
"207003","550-UM","2018/09/04 17:24:46","新北市萬里區龜吼里美崙路53-1號","121.687528333333","25.1835783333333","6502800","萬里區"
"207004","225-TW","2018/09/04 17:24:54","新北市萬里區萬里里瑪鋉下街2號","121.69104","25.1781916666667","6502800","萬里區"
"252002","178-VK","2018/09/04 17:24:50","新北市三芝區忠孝街1-15號","121.5056","25.2539483333333","6502100","三芝區"
"252001","292-VK","2018/09/04 17:25:04","新北市三芝區長安街119號","121.497975","25.2596766666667","6502100","三芝區"
"237012","275-BY","2018/09/04 17:24:50","新北市三峽區中山路459巷163-3號","121.348911666667","24.933225","6500900","三峽區"
"236079","166-UM","2018/09/04 17:24:55","新北市土城區城林路6巷80號","121.438516666667","24.9796983333333","6501300","土城區"
"242034","AAC-296","2018/09/04 17:24:57","新北市新莊區瓊林路50-1號","121.44616","25.028805","6500500","新莊區"
"242058","986-R7","2018/09/04 17:25:03","新北市新莊區中正路480號","121.43849","25.0333066666667","6500500","新莊區"
"242054","751-BX","2018/09/04 17:24:55","新北市新莊區環河路636-7號","121.436685","25.0108266666667","6500500","新莊區"
"242025","705-TV","2018/09/04 17:24:52","新北市新莊區復興路一段222號","121.453133333333","25.0437166666667","6500500","新莊區"
"242027","615-BX","2018/09/04 17:24:48","新北市新莊區思源路51號","121.459996666667","25.0401283333333","6500500","新莊區"
"242042","566-BX","2018/09/04 17:24:57","新北市新莊區新樹路52號","121.437278333333","25.02662","6500500","新莊區"
"242046","497-BY","2018/09/04 17:25:02","新北市新莊區新樹路65-5號","121.439421666667","25.03081","6500500","新莊區"
"242051","441-UM","2018/09/04 17:24:53","新北市新莊區瓊林南路75-8號","121.434766666667","25.0141666666667","6500500","新莊區"
"242056","440-UM","2018/09/04 17:25:02","新北市新莊區新莊路763巷11號","121.442523333333","25.0324266666667","6500500","新莊區"
"242037","415-TV","2018/09/04 17:24:48","新北市新莊區民安路429巷3號","121.433896666667","25.0232483333333","6500500","新莊區"
"242007","413-TV","2018/09/04 17:24:58","新北市新莊區自強街28號","121.45477","25.0461283333333","6500500","新莊區"
"242044","400-BY","2018/09/04 17:24:53","新北市新莊區富國路101-1號","121.42136","25.0255283333333","6500500","新莊區"
"242023","362-BY","2018/09/04 17:25:02","新北市新莊區復興路一段153號","121.450561666667","25.043315","6500500","新莊區"
"242061","353-BY","2018/09/04 17:24:59","新北市新莊區瓊林南路12-3號","121.436238333333","25.0188166666667","6500500","新莊區"
"242009","132-UY","2018/09/04 17:24:58","新北市新莊區中華路二段245號","121.452158333333","25.0538083333333","6500500","新莊區"
"242039","133-UY","2018/09/04 17:24:47","新北市新莊區民安路316號","121.42854","25.0221066666667","6500500","新莊區"
"242032","135-UY","2018/09/04 17:25:04","新北市新莊區新泰路476巷10號","121.443548333333","25.045285","6500500","新莊區"
"242048","172-VK","2018/09/04 17:24:47","新北市新莊區龍安路252-2號","121.421231666667","25.0195633333333","6500500","新莊區"
"242017","175-VK","2018/09/04 17:24:56","新北市新莊區中港路287號","121.452723333333","25.0439833333333","6500500","新莊區"
"242005","176-VK","2018/09/04 17:25:01","新北市新莊區中港路276號","121.453136666667","25.0440883333333","6500500","新莊區"
"242021","348-TH","2018/09/04 17:24:53","新北市新莊區中正路132號","121.45277","25.0362333333333","6500500","新莊區"
"242002","349-TH","2018/09/04 17:24:59","新北市新莊區碧江街20號","121.454308333333","25.034055","6500500","新莊區"
"242019","350-TH","2018/09/04 17:24:55","新北市新莊區中港路216號","121.4545","25.04262","6500500","新莊區"
"242013","351-TH","2018/09/04 17:24:51","新北市新莊區中和街61號","121.447446666667","25.0469233333333","6500500","新莊區"
"238015","755-BX","2018/09/04 17:24:52","新北市樹林區大安路269號","121.419016666667","24.99366","6500700","樹林區"
"238019","599-UM","2018/09/04 17:24:47","新北市樹林區國凱街82-2號","121.42136","24.9790966666667","6500700","樹林區"
"238018","571-TV","2018/09/04 17:25:03","新北市樹林區鎮前街261-1號","121.420468333333","24.98619","6500700","樹林區"
"238024","5061-A6","2018/09/04 17:25:02","新北市樹林區樹新路13號","121.426771666667","24.9940833333333","6500700","樹林區"
"238022","KEA-2213","2018/09/04 17:24:57","新北市樹林區信義街3號","121.422198333333","24.98172","6500700","樹林區"
"238021","KEA-2539","2018/09/04 17:25:03","新北市樹林區民權街38號","121.39882","24.9594166666667","6500700","樹林區"
"238025","303-VK","2018/09/04 17:25:03","新北市樹林區保安二街163號","121.422023333333","24.9956233333333","6500700","樹林區"
"238017","283-BY","2018/09/04 17:25:02","新北市樹林區光武街32巷2號","121.416156666667","25.0057183333333","6500700","樹林區"
"238014","282-BY","2018/09/04 17:24:58","新北市樹林區大安路211號","121.420346666667","24.9952266666667","6500700","樹林區"
"238020","268-VK","2018/09/04 17:24:55","新北市樹林區俊興街164號","121.417218333333","25.0130683333333","6500700","樹林區"
"238026","172-UY","2018/09/04 17:25:04","新北市樹林區味王街6號","121.40285","24.97622","6500700","樹林區"
"238016","169-UY","2018/09/04 17:23:55","新北市樹林區日新街6號","121.423525","24.993345","6500700","樹林區"
"239007","AAC-297","2018/09/04 17:25:02","新北市鶯歌區中正一路62巷40號","121.35417","24.9554866666667","6500800","鶯歌區"
"239006","891-R6","2018/09/04 17:24:48","新北市鶯歌區福昌街30號","121.332803333333","24.96101","6500800","鶯歌區"
"239008","527-UM","2018/09/04 17:24:48","新北市鶯歌區大湖路532號","121.337473333333","24.9724333333333","6500800","鶯歌區"
"239005","526-UM","2018/09/04 17:24:48","新北市鶯歌區福德三街24號","121.329256666667","24.9673133333333","6500800","鶯歌區"
"239001","417-VK","2018/09/04 17:24:54","新北市鶯歌區中正三路68號","121.338691666667","24.9412916666667","6500800","鶯歌區"
"239003","360-BY","2018/09/04 17:24:56","新北市鶯歌區德昌街70號","121.332956666667","24.9599066666667","6500800","鶯歌區"
"239002","359-BY","2018/09/04 17:25:05","新北市鶯歌區建國路278號","121.34691","24.95349","6500800","鶯歌區"
"239004","193-VK","2018/09/04 17:24:46","新北市鶯歌區三鶯路31巷1號","121.354931666667","24.942585","6500800","鶯歌區"
"221010","269-BY","2018/09/04 17:24:59","新北市汐止區汐萬路一段256巷3號","121.652091666667","25.0746366666667","6501100","汐止區"
"242011","281-VK","2018/09/04 17:24:59","新北市新莊區中港一街110號","121.448786666667","25.0452466666667","6500500","新莊區"
