"lineid","car","time","location","longitude","latitude","cityid","cityname"
"234046","148-BY","2018/09/04 19:09:35","新北市永和區永元路18巷35號","121.523983333333","25.0002733333333","6500400","永和區"
"234007","207-UY","2018/09/04 19:09:27","新北市永和區中山路一段177號","121.509288333333","25.009015","6500400","永和區"
"234081","298-R6","2018/09/04 19:09:33","新北市永和區福和路57巷14弄1號","121.522755","25.0070016666667","6500400","永和區"
"234038","336-UY","2018/09/04 19:09:35","新北市永和區民樂街69巷3號","121.527468333333","24.9978366666667","6500400","永和區"
"234064","337-UY","2018/09/04 19:09:23","新北市永和區秀朗路二段46號","121.521348333333","25.002285","6500400","永和區"
"234086","338-UY","2018/09/04 19:09:29","新北市永和區永貞路111號","121.517763333333","25.00433","6500400","永和區"
"234070","552-UM","2018/09/04 19:09:23","新北市永和區豫溪街137巷1弄11號","121.519136666667","25.0104416666667","6500400","永和區"
"234017","745-BX","2018/09/04 19:09:35","新北市永和區文化路90巷26號","121.51378","25.0163783333333","6500400","永和區"
"234030","746-BX","2018/09/04 19:09:36","新北市永和區民生路21號","121.522835","24.9989133333333","6500400","永和區"
"234054","KEA-2590","2018/09/04 19:09:27","新北市永和區竹林路72巷6號","121.518771666667","25.0128816666667","6500400","永和區"
"234061","AAD-866","2018/09/04 19:09:38","新北市永和區安樂路328號","121.51439","25.005805","6500400","永和區"
"234013","847-RS","2018/09/04 19:09:35","新北市永和區永和路二段94號","121.515005","25.0116083333333","6500400","永和區"
"234042","862-TW","2018/09/04 19:09:38","新北市永和區永貞路334-1號","121.511306666667","25.00565","6500400","永和區"
"234050","863-TW","2018/09/04 19:09:38","新北市永和區文化路135巷26弄1號","121.510603333333","25.014385","6500400","永和區"
"234026","9371-KE","2018/09/04 19:09:24","新北市永和區安樂路278號","121.514578333333","25.0042966666667","6500400","永和區"
"234011","9373-KE","2018/09/04 19:09:30","新北市永和區仁愛路141巷30弄1號","121.511723333333","25.0116233333333","6500400","永和區"
"249005","172-UM","2018/09/04 19:09:29","新北市八里區中華路三段77號","121.394385","25.1405316666667","6502300","八里區"
"249001","173-UM","2018/09/04 19:09:20","新北市八里區龍米路二段203-9號","121.432378333333","25.1583433333333","6502300","八里區"
"248014","025-BX","2018/09/04 18:52:49","新北市五股區民義路一段107巷32號","121.43214","25.0844883333333","6501500","五股區"
"248006","077-UY","2018/09/04 19:09:26","新北市五股區四維路114號","121.467866666667","25.0740683333333","6501500","五股區"
"248008","095-VK","2018/09/04 19:09:23","新北市五股區中興路一段118巷24號","121.466086666667","25.0745783333333","6501500","五股區"
"248020","225-UY","2018/09/04 19:09:19","新北市五股區凌雲路三段57號","121.425273333333","25.1250016666667","6501500","五股區"
"248012","247-BX","2018/09/04 19:09:33","新北市五股區中興路四段38巷11-1號","121.438818333333","25.083595","6501500","五股區"
"248016","261-SL","2018/09/04 19:09:36","新北市五股區凌雲路一段122號","121.449938333333","25.10198","6501500","五股區"
"248010","272-BY","2018/09/04 19:09:20","新北市五股區水碓二路1號","121.430586666667","25.0712516666667","6501500","五股區"
"248004","677-BX","2018/09/04 19:09:26","新北市五股區民義路一段152號","121.433068333333","25.087435","6501500","五股區"
"248002","678-BX","2018/09/04 19:09:32","新北市五股區天乙路1號","121.44842","25.1028483333333","6501500","五股區"
"234023","9380-KE","2018/09/04 19:09:26","新北市永和區中興街10巷19號","121.515865","25.0112066666667","6500400","永和區"
"234077","969-R7","2018/09/04 19:09:27","新北市永和區民權路34號","121.520186666667","24.9988416666667","6500400","永和區"
"234074","AAC-211","2018/09/04 19:09:26","新北市永和區福和路129號","121.521463333333","25.00777","6500400","永和區"
"234067","AAC-212","2018/09/04 19:09:26","新北市永和區永和路一段65巷1號","121.512746666667","25.0070683333333","6500400","永和區"
"234003","AAC-295","2018/09/04 19:09:34","新北市永和區保福路一段77巷1號","121.511948333333","25.0102516666667","6500400","永和區"
"232011","375-UM","2018/09/04 19:09:32","新北市坪林區北宜路八段558號","121.716953333333","24.909345","6502000","坪林區"
"244019","403-UM","2018/09/04 19:09:19","新北市林口區文化二路一段498號","121.37638","25.078505","6501700","林口區"
"244013","KEA-2802","2018/09/04 19:09:19","新北市林口區文化一路一段126號","121.375751666667","25.0722216666667","6501700","林口區"
"244023","483-VK","2018/09/04 19:09:36","新北市林口區仁愛路二段377號","121.370341666667","25.080025","6501700","林口區"
"244017","485-VK","2018/09/04 19:09:33","新北市林口區文化二路一段120巷5號","121.367931666667","25.0699416666667","6501700","林口區"
"244025","837-TS","2018/09/04 19:09:27","新北市林口區民族路67-1號","121.365588333333","25.0751666666667","6501700","林口區"
"243013","AAD-798","2018/09/04 19:09:18","新北市泰山區台麗街6巷11號","121.424105","25.03771","6501600","泰山區"
"243009","297-R6","2018/09/04 19:09:28","新北市泰山區明志路一段122巷9號","121.433126666667","25.0636066666667","6501600","泰山區"
"243016","KEA-2801","2018/09/04 19:09:36","新北市泰山區明志路二段374號","121.425525","25.04478","6501600","泰山區"
"243015","421-VK","2018/09/04 19:09:35","新北市泰山區明志路一段412號","121.430793333333","25.0568","6501600","泰山區"
"243011","KEA-2215","2018/09/04 19:09:16","新北市泰山區明志路二段318號","121.42618","25.046005","6501600","泰山區"
"243010","KEA-2216","2018/09/04 19:09:20","新北市泰山區明志路一段483巷1弄4號","121.431133333333","25.0554483333333","6501600","泰山區"
"243012","646-TV","2018/09/04 19:09:34","新北市泰山區辭修路34巷1號","121.428656666667","25.0580483333333","6501600","泰山區"
"243014","680-BX","2018/09/04 19:09:33","新北市泰山區泰林路二段462號","121.425933333333","25.06421","6501600","泰山區"
"222003","436-BY","2018/09/04 19:09:23","新北市深坑區深南路162號","121.62611","25.0149683333333","6501800","深坑區"
"222002","659-BX","2018/09/04 19:09:33","新北市深坑區紅葉街22號","121.632585","25.0135516666667","6501800","深坑區"
"231041","002-UM","2018/09/04 19:09:32","新北市新店區中央一街45號","121.526903333333","24.97398","6500600","新店區"
"231059","046-UY","2018/09/04 19:09:31","新北市新店區安康路一段351-1號","121.519378333333","24.9640983333333","6500600","新店區"
"231040","047-UY","2018/09/04 19:09:19","新北市新店區三民路98-3號","121.533956666667","24.973445","6500600","新店區"
"231044","106-UY","2018/09/04 19:09:27","新北市新店區中興路三段184號","121.544061666667","24.981425","6500600","新店區"
"231046","107-UY","2018/09/04 19:09:28","新北市新店區新潭路一段1-1號","121.523506666667","24.944825","6500600","新店區"
"231053","108-UY","2018/09/04 19:09:27","新北市新店區屈尺路123號","121.5452","24.9234516666667","6500600","新店區"
"231064","110-UY","2018/09/04 19:09:25","新北市新店區安忠路56巷6號","121.512973333333","24.9594216666667","6500600","新店區"
"231048","187-VK","2018/09/04 19:09:13","新北市新店區德正街27巷29弄46-1號","121.545791666667","24.9726516666667","6500600","新店區"
"231062","188-VK","2018/09/04 19:09:33","新北市新店區安平路35巷2-1號","121.521285","24.9678416666667","6500600","新店區"
"231054","KEA-2219","2018/09/04 19:09:28","新北市新店區新店路122號","121.537105","24.9549016666667","6500600","新店區"
"231042","268-BY","2018/09/04 19:09:22","新北市新店區中興路一段252號","121.544308333333","24.96652","6500600","新店區"
"231051","278-BY","2018/09/04 19:09:17","新北市新店區中正路400巷18號","121.535131666667","24.97811","6500600","新店區"
"231050","AAD-862","2018/09/04 19:09:27","新北市新店區竹林路28號","121.551716666667","24.9513033333333","6500600","新店區"
"231058","3713-VJ","2018/09/04 19:09:26","新北市新店區檳榔路36巷14號","121.541123333333","24.963395","6500600","新店區"
"231066","4716-K9","2018/09/04 19:09:34","新北市新店區安祥路35-1號","121.492231666667","24.9551433333333","6500600","新店區"
"231056","4715-K9","2018/09/04 19:09:22","新北市新店區中央路2號","121.533788333333","24.9787966666667","6500600","新店區"
"231067","4772-VM","2018/09/04 19:09:17","新北市新店區安康路一段106巷14號","121.527746666667","24.9629566666667","6500600","新店區"
"231065","512-UM","2018/09/04 19:09:30","新北市新店區安祥路147巷13號","121.475521666667","24.9560533333333","6500600","新店區"
"231049","513-UM","2018/09/04 19:09:27","新北市新店區二十張路25巷1號","121.53889","24.9821316666667","6500600","新店區"
"231063","616-UM","2018/09/04 19:09:39","新北市新店區車子路148號","121.505263333333","24.94726","6500600","新店區"
"231045","617-UM","2018/09/04 19:09:33","新北市新店區北宜路一段140巷13號","121.540038333333","24.9543733333333","6500600","新店區"
"231061","619-UM","2018/09/04 19:09:26","新北市新店區安康路一段228號","121.523185","24.9636366666667","6500600","新店區"
"231060","897-TW","2018/09/04 19:09:25","新北市新店區安康路二段356號","121.502201666667","24.9574916666667","6500600","新店區"
"231043","899-TW","2018/09/04 19:09:20","新北市新店區寶橋路48號","121.54581","24.9751666666667","6500600","新店區"
"241026","066-VK","2018/09/04 19:09:26","新北市三重區泉州街72號","121.494841666667","25.054825","6500200","三重區"
"241035","KEA-2210","2018/09/04 19:09:30","新北市三重區信義西街138號","121.495561666667","25.064415","6500200","三重區"
"241029","942-UM","2018/09/04 19:09:25","新北市三重區重安街83號","121.492493333333","25.055825","6500200","三重區"
"235066","003-UY","2018/09/04 19:09:21","新北市中和區廣福路44號","121.504233333333","25.00196","6500300","中和區"
"235064","005-UY","2018/09/04 19:09:36","新北市中和區連城路47號","121.498091666667","25.001795","6500300","中和區"
"235063","006-UY","2018/09/04 19:09:23","新北市中和區連城路361號","121.48772","24.9961416666667","6500300","中和區"
"235056","096-UM","2018/09/04 19:09:34","新北市中和區員山路526號","121.47876","25.009665","6500300","中和區"
"235039","097-UM","2018/09/04 19:09:23","新北市中和區景平路64巷13弄9號","121.521848333333","24.991165","6500300","中和區"
"235065","098-UM","2018/09/04 19:09:30","新北市中和區中山路二段136巷1號","121.501888333333","25.0036516666667","6500300","中和區"
"235004","150-BY","2018/09/04 19:09:31","新北市中和區宜安路9號","121.513131666667","24.9954616666667","6500300","中和區"
"235058","151-BY","2018/09/04 19:09:22","新北市中和區員山路143巷1號","121.480701666667","24.99613","6500300","中和區"
"235055","183-VK","2018/09/04 19:09:29","新北市中和區德光路11號","121.471236666667","25.0044333333333","6500300","中和區"
"235038","185-VK","2018/09/04 19:09:31","新北市中和區大仁街20巷32號","121.519213333333","24.993025","6500300","中和區"
"235049","186-VK","2018/09/04 19:09:28","新北市中和區明禮街13號","121.504905","24.99585","6500300","中和區"
"235067","255-BX","2018/09/04 19:09:25","新北市中和區新生街176巷22號","121.482628333333","24.9999483333333","6500300","中和區"
"235044","293-VK","2018/09/04 19:09:36","新北市中和區中興街222-6號","121.50068","24.9896766666667","6500300","中和區"
"235072","301-VK","2018/09/04 19:09:24","新北市中和區永和路1-5號","121.499528333333","25.0031433333333","6500300","中和區"
"235043","352-BY","2018/09/04 19:09:28","新北市中和區景平路116號","121.519381666667","24.9916466666667","6500300","中和區"
"235050","4979-A6","2018/09/04 19:09:28","新北市中和區復興路263巷9弄10號","121.503181666667","24.9895833333333","6500300","中和區"
"235069","4980-A6","2018/09/04 19:09:31","新北市中和區中和路217巷16號","121.504693333333","25.0003666666667","6500300","中和區"
"235042","551-UM","2018/09/04 19:09:25","新北市中和區自強路15巷2號","121.520613333333","24.9934833333333","6500300","中和區"
"235070","558-UM","2018/09/04 19:09:29","新北市中和區中和路102-1號","121.502343333333","24.99971","6500300","中和區"
"235045","565-BX","2018/09/04 19:09:32","新北市中和區景新街447號","121.513423333333","24.98871","6500300","中和區"
"235054","640-BX","2018/09/04 19:09:23","新北市中和區民德路101號","121.468906666667","25.0009116666667","6500300","中和區"
"235047","732-UM","2018/09/04 19:09:25","新北市中和區興南路一段106號","121.509633333333","24.988825","6500300","中和區"
"235046","733-UM","2018/09/04 19:09:23","新北市中和區忠孝街1巷86號","121.508156666667","24.98501","6500300","中和區"
"235071","783-BX","2018/09/04 19:09:24","新北市中和區連城路469巷3號","121.483748333333","24.9957916666667","6500300","中和區"
"235062","800-TS","2018/09/04 19:09:24","新北市中和區建一路1-1號","121.4882","25.0044533333333","6500300","中和區"
"235057","801-TS","2018/09/04 19:09:22","新北市中和區民利街70號","121.478555","24.9984833333333","6500300","中和區"
"235041","802-TS","2018/09/04 19:09:36","新北市中和區中和路260號","121.50789","24.9992533333333","6500300","中和區"
"235052","805-TS","2018/09/04 19:09:21","新北市中和區興南路二段142巷19弄7號","121.502971666667","24.9833733333333","6500300","中和區"
"235048","896-TW","2018/09/04 19:09:30","新北市中和區華新街140號","121.50798","24.9826133333333","6500300","中和區"
"235053","900-TW","2018/09/04 19:09:18","新北市中和區華福街54-1號","121.466783333333","24.996565","6500300","中和區"
"235060","911-UM","2018/09/04 19:09:21","新北市中和區中山路三段149號","121.473666666667","25.005995","6500300","中和區"
"235051","157-BY","2018/09/04 19:09:22","新北市中和區忠孝街101巷13號","121.511241666667","24.98606","6500300","中和區"
"235037","AAC-213","2018/09/04 19:09:31","新北市中和區秀朗路三段58-3號","121.525705","24.9951133333333","6500300","中和區"
"235059","AAC-215","2018/09/04 19:09:37","新北市中和區圓通路294巷17-5號","121.488653333333","24.99045","6500300","中和區"
"220068","013-TV","2018/09/04 19:09:24","新北市板橋區中山路二段443巷57號","121.480851666667","25.0217666666667","6500100","板橋區"
"220065","072-UY","2018/09/04 19:09:21","新北市板橋區民族路219巷77號","121.468876666667","25.00902","6500100","板橋區"
"220086","073-UY","2018/09/04 19:09:38","新北市板橋區中正路216巷118號","121.45943","25.01929","6500100","板橋區"
"220106","075-UY","2018/09/04 19:09:36","新北市板橋區文化路二段317號","121.472211666667","25.0297483333333","6500100","板橋區"
"220069","AAD-861","2018/09/04 19:09:32","新北市板橋區四川路一段102號","121.459711666667","25.0047166666667","6500100","板橋區"
"226004","205-ST","2018/09/04 19:09:23","新北市平溪區嶺腳里嶺腳寮13號","121.747866666667","25.0298816666667","6502400","平溪區"
"228001","212-TW","2018/09/04 19:09:21","新北市貢寮區真理里新港街10號","121.92551","25.0543633333333","6502600","貢寮區"
"228002","663-BX","2018/09/04 19:09:24","新北市貢寮區福隆里虎子山街21號","121.938483333333","25.0184866666667","6502600","貢寮區"
"228003","828-UM","2018/09/04 19:09:24","新北市貢寮區和美里和美街48號","121.917551666667","25.10129","6502600","貢寮區"
"224008","285-BY","2018/09/04 19:09:25","新北市瑞芳區明燈路三段259號","121.799038333333","25.11195","6501200","瑞芳區"
"224007","275-VK","2018/09/04 19:09:31","新北市瑞芳區瑞竹路42號","121.763918333333","25.1033516666667","6501200","瑞芳區"
"224009","273-VK","2018/09/04 19:09:25","新北市瑞芳區洞頂路295號","121.858111666667","25.1237933333333","6501200","瑞芳區"
"227009","642-TC","2018/09/04 19:09:28","新北市雙溪區牡丹里中正路38號","121.864705","25.0384566666667","6502500","雙溪區"
"227003","400-TW","2018/09/04 19:09:27","新北市雙溪區平林里梅竹蹊56-4號","121.860738333333","25.0366683333333","6502500","雙溪區"
"253006","032-BX","2018/09/04 19:09:19","新北市石門區崁子腳58-4號","121.530078333333","25.2862116666667","6502200","石門區"
"253005","295-VK","2018/09/04 19:09:30","新北市石門區阿里荖42號","121.605366666667","25.2802766666667","6502200","石門區"
"222001","KEA-2212","2018/09/04 19:09:38","新北市深坑區北深路一段300號","121.624141666667","25.005435","6501800","深坑區"
"208002","KEA-2872","2018/09/04 19:09:19","新北市金山區中正路67號","121.633878333333","25.2216533333333","6502700","金山區"
"208003","665-BX","2018/09/04 19:09:33","新北市金山區中正路32號","121.635458333333","25.222205","6502700","金山區"
"208001","761-BX","2018/09/04 19:09:24","新北市金山區福德街16巷4號","121.639175","25.2216066666667","6502700","金山區"
"251005","010-UM","2018/09/04 19:09:30","新北市淡水區原德路13號","121.442166666667","25.1713583333333","6501000","淡水區"
"251002","012-UM","2018/09/04 19:09:24","新北市淡水區中山路87巷3號","121.44242","25.170375","6501000","淡水區"
"251013","KEA-2871","2018/09/04 19:09:28","新北市淡水區安子內13號","121.479786666667","25.2198083333333","6501000","淡水區"
"251016","179-VK","2018/09/04 19:09:24","新北市淡水區淡金路三段352號","121.449366666667","25.2089966666667","6501000","淡水區"
"251014","180-VK","2018/09/04 19:09:40","新北市淡水區小中寮19-8號","121.486326666667","25.22795","6501000","淡水區"
"251015","181-VK","2018/09/04 19:09:31","新北市淡水區南勢埔6-3號","121.482811666667","25.180935","6501000","淡水區"
"251010","413-VK","2018/09/04 19:09:19","新北市淡水區中正路一段156巷10-3號","121.421368333333","25.1801566666667","6501000","淡水區"
"251007","442-VK","2018/09/04 19:09:21","新北市淡水區民生路145巷35號","121.466878333333","25.138955","6501000","淡水區"
"251001","559-UM","2018/09/04 19:09:31","新北市淡水區自強路201巷43號","121.462113333333","25.126895","6501000","淡水區"
"251009","575-R6","2018/09/04 19:09:21","新北市淡水區清水街192號","121.440486666667","25.1709116666667","6501000","淡水區"
"251011","650-BX","2018/09/04 19:09:36","新北市淡水區中正東路二段95號","121.459341666667","25.152155","6501000","淡水區"
"251003","673-BX","2018/09/04 19:09:26","新北市淡水區中山北路一段94號","121.442431666667","25.176365","6501000","淡水區"
"207003","550-UM","2018/09/04 19:09:26","新北市萬里區大鵬里萬里加投29號","121.647988333333","25.2063216666667","6502800","萬里區"
"207004","225-TW","2018/09/04 19:09:34","新北市萬里區萬里里瑪鋉下街31號","121.691411666667","25.1790033333333","6502800","萬里區"
"252002","178-VK","2018/09/04 19:09:30","新北市三芝區埔坪里埔頭坑77號","121.509423333333","25.2544116666667","6502100","三芝區"
"252003","249-BX","2018/09/04 19:09:27","新北市三芝區錫板里南勢崗5-5號","121.480575","25.262735","6502100","三芝區"
"252001","292-VK","2018/09/04 19:09:24","新北市三芝區長勤街45巷2號","121.50037","25.2551983333333","6502100","三芝區"
"237004","KEA-2597","2018/09/04 19:09:20","新北市三峽區有木203號","121.439278333333","24.851465","6500900","三峽區"
"237007","153-BY","2018/09/04 19:09:33","新北市三峽區中正路二段83巷12號","121.36715","24.91778","6500900","三峽區"
"237009","210-TH","2018/09/04 19:09:19","新北市三峽區文化路212號","121.36885","24.9359983333333","6500900","三峽區"
"237013","252-BX","2018/09/04 19:09:27","新北市三峽區光明路69巷25號","121.376663333333","24.9291966666667","6500900","三峽區"
"237012","275-BY","2018/09/04 19:09:30","新北市三峽區三樹路222巷236弄59號","121.393053333333","24.9429616666667","6500900","三峽區"
"237008","302-VK","2018/09/04 19:09:22","新北市三峽區大同路98-6號","121.375263333333","24.9275083333333","6500900","三峽區"
"237014","433-BY","2018/09/04 19:09:25","新北市三峽區中山路257巷39號","121.362131666667","24.9365216666667","6500900","三峽區"
"237006","5529-G3","2018/09/04 19:09:35","新北市三峽區介壽路三段1號","121.394921666667","24.9361216666667","6500900","三峽區"
"237011","KEA-2596","2018/09/04 19:09:36","新北市三峽區介壽路一段225號","121.378928333333","24.9303783333333","6500900","三峽區"
"237016","649-BX","2018/09/04 19:09:32","新北市三峽區安坑46-3號","121.45564","24.931955","6500900","三峽區"
"237010","706-TV","2018/09/04 19:09:31","新北市三峽區民生街34號","121.375601666667","24.9364783333333","6500900","三峽區"
"237005","AKY-6261","2018/09/04 19:09:22","新北市三峽區中山路459巷163-3號","121.348641666667","24.9329133333333","6500900","三峽區"
"236070","105-UM","2018/09/04 19:09:37","新北市土城區裕生路84巷3號","121.44707","24.985365","6501300","土城區"
"236042","107-UM","2018/09/04 19:09:25","新北市土城區學府路一段239號","121.450426666667","24.98336","6501300","土城區"
"236079","166-UM","2018/09/04 19:09:35","新北市土城區龍泉路14號","121.409761666667","24.94888","6501300","土城區"
"236030","253-BX","2018/09/04 19:09:27","新北市土城區城林路6巷80號","121.438553333333","24.97961","6501300","土城區"
"236026","269-VK","2018/09/04 19:09:37","新北市土城區中正路17號","121.442948333333","24.9755516666667","6501300","土城區"
"236014","270-VK","2018/09/04 19:09:33","新北市土城區學府路一段77號","121.456883333333","24.98827","6501300","土城區"
"236038","271-VK","2018/09/04 19:09:29","新北市土城區清水路166號","121.459885","24.9812233333333","6501300","土城區"
"236021","401-BY","2018/09/04 19:09:23","新北市土城區延峰街28號","121.469181666667","24.985415","6501300","土城區"
"236059","912-UM","2018/09/04 19:09:25","新北市土城區金城路二段2巷5號","121.447611666667","24.9761833333333","6501300","土城區"
"236049","913-UM","2018/09/04 19:09:32","新北市土城區明德路一段365-1號","121.453676666667","24.9791","6501300","土城區"
"236055","AAC-216","2018/09/04 19:09:21","新北市土城區學府路一段215號","121.451495","24.9844333333333","6501300","土城區"
"242039","133-UY","2018/09/04 19:09:27","新北市新莊區建國二路108號","121.430785","25.0273333333333","6500500","新莊區"
"242048","172-VK","2018/09/04 19:09:27","新北市新莊區後港一路13號","121.424226666667","25.026335","6500500","新莊區"
"238015","755-BX","2018/09/04 19:09:37","新北市樹林區備內街114號","121.410451666667","24.98893","6500700","樹林區"
"238023","601-UM","2018/09/04 19:09:21","新北市樹林區三興路51號","121.395383333333","25.0143733333333","6500700","樹林區"
"238019","599-UM","2018/09/04 19:09:35","新北市樹林區大同街48號","121.41605","24.9817866666667","6500700","樹林區"
"238022","KEA-2213","2018/09/04 19:09:17","新北市樹林區中山路二段151巷12號","121.40677","24.9782783333333","6500700","樹林區"
"238021","KEA-2539","2018/09/04 19:09:36","新北市樹林區柑園街二段384巷1號","121.367971666667","24.94911","6500700","樹林區"
"238025","303-VK","2018/09/04 19:09:23","新北市樹林區民和街20號","121.385281666667","24.968655","6500700","樹林區"
"238017","283-BY","2018/09/04 19:09:21","新北市樹林區光興街44號","121.40988","25.00275","6500700","樹林區"
"238014","282-BY","2018/09/04 19:09:18","新北市樹林區中正路22-1號","121.427691666667","24.9994133333333","6500700","樹林區"
"238020","268-VK","2018/09/04 19:09:35","新北市樹林區俊英街133巷19號","121.423346666667","25.0109883333333","6500700","樹林區"
"238026","172-UY","2018/09/04 19:09:24","新北市樹林區地政街1號","121.393771666667","24.97184","6500700","樹林區"
"238016","169-UY","2018/09/04 19:09:35","新北市樹林區中山路一段282號","121.420585","24.9868033333333","6500700","樹林區"
"239007","AAC-297","2018/09/04 19:09:22","新北市鶯歌區中山路162號","121.34938","24.9571366666667","6500800","鶯歌區"
"239006","891-R6","2018/09/04 19:09:28","新北市鶯歌區鶯桃路16號","121.342161666667","24.9516716666667","6500800","鶯歌區"
"239008","527-UM","2018/09/04 19:09:28","新北市鶯歌區國際二路4巷18號","121.339228333333","24.9734783333333","6500800","鶯歌區"
"239005","526-UM","2018/09/04 19:09:28","新北市鶯歌區東湖路30號","121.355986666667","24.97209","6500800","鶯歌區"
"239001","417-VK","2018/09/04 19:09:34","新北市鶯歌區建國路588號","121.339991666667","24.9524816666667","6500800","鶯歌區"
"239003","360-BY","2018/09/04 19:09:35","新北市鶯歌區中正二路93號","121.348396666667","24.950125","6500800","鶯歌區"
"239002","359-BY","2018/09/04 19:09:25","新北市鶯歌區湖山路27巷1號","121.340315","24.9742216666667","6500800","鶯歌區"
"239004","193-VK","2018/09/04 19:09:26","新北市鶯歌區二甲路2號","121.334815","24.9345966666667","6500800","鶯歌區"
"221008","489-VK","2018/09/04 19:09:37","新北市汐止區康寧街386號","121.629283333333","25.0677383333333","6501100","汐止區"
"221036","130-UY","2018/09/04 19:09:27","新北市汐止區汐萬路一段256巷1號","121.651801666667","25.0748766666667","6501100","汐止區"
"221015","131-UY","2018/09/04 19:09:29","新北市汐止區汐萬路一段284號","121.650751666667","25.0742616666667","6501100","汐止區"
"221010","269-BY","2018/09/04 19:09:19","新北市汐止區汐萬路一段256巷1號","121.651801666667","25.07482","6501100","汐止區"
"221012","278-VK","2018/09/04 19:09:24","新北市汐止區康寧街901號","121.650773333333","25.0752616666667","6501100","汐止區"
"221023","279-VK","2018/09/04 19:09:30","新北市汐止區康寧街901號","121.650908333333","25.0751183333333","6501100","汐止區"
"221027","281-BY","2018/09/04 19:09:17","新北市汐止區康寧街901號","121.651503333333","25.0749116666667","6501100","汐止區"
"221029","298-VK","2018/09/04 19:09:29","新北市汐止區汐萬路一段256巷3號","121.652391666667","25.0746516666667","6501100","汐止區"
"221021","299-VK","2018/09/04 19:09:32","新北市汐止區康寧街901號","121.651431666667","25.0750566666667","6501100","汐止區"
"221031","353-TW","2018/09/04 19:09:24","新北市汐止區福德一路10號","121.638925","25.0696783333333","6501100","汐止區"
"221025","623-UM","2018/09/04 19:09:18","新北市汐止區康寧街901號","121.651496666667","25.07497","6501100","汐止區"
"221038","646-BX","2018/09/04 19:09:21","新北市汐止區康寧街901號","121.65072","25.0752866666667","6501100","汐止區"
"221002","707-TV","2018/09/04 19:09:24","新北市汐止區大同路一段89-2號","121.62435","25.0547","6501100","汐止區"
"221018","753-BX","2018/09/04 19:09:38","新北市汐止區康寧街901號","121.651083333333","25.07513","6501100","汐止區"
"220079","145-BY","2018/09/04 19:09:34","新北市板橋區民權路260巷48號","121.459695","25.0151483333333","6500100","板橋區"
"220080","200-UY","2018/09/04 19:09:33","新北市板橋區大觀路二段1巷16號","121.449006666667","25.0038316666667","6500100","板橋區"
"220082","610-BX","2018/09/04 19:09:32","新北市板橋區溪崑二街136號","121.425821666667","24.9876833333333","6500100","板橋區"
"220101","245-BX","2018/09/04 19:09:35","新北市板橋區民生路二段226巷8弄14號","121.470236666667","25.02143","6500100","板橋區"
"220091","267-BY","2018/09/04 19:09:27","新北市板橋區八德路二段62號","121.482175","25.0271183333333","6500100","板橋區"
"220056","276-BY","2018/09/04 19:09:33","新北市板橋區信義路110巷1弄3號","121.458041666667","24.9921966666667","6500100","板橋區"
"220072","277-BY","2018/09/04 19:09:37","新北市板橋區金門街260巷2號","121.429746666667","24.9870716666667","6500100","板橋區"
"220089","280-UM","2018/09/04 19:09:32","新北市板橋區文化路二段402號","121.473661666667","25.0314133333333","6500100","板橋區"
"220094","283-UM","2018/09/04 19:09:31","新北市板橋區光武街151號","121.465535","25.02932","6500100","板橋區"
"220071","283-VK","2018/09/04 19:09:18","新北市板橋區重慶路351-1號","121.46419","24.99783","6500100","板橋區"
"220053","285-VK","2018/09/04 19:09:26","新北市板橋區懷仁街35巷2弄1號","121.476948333333","25.0196716666667","6500100","板橋區"
"220083","286-VK","2018/09/04 19:09:34","新北市板橋區大觀路二段174巷175號","121.442011666667","25.00364","6500100","板橋區"
"220081","287-VK","2018/09/04 19:09:37","新北市板橋區南雅西路二段203號","121.451705","25.0134016666667","6500100","板橋區"
"220090","288-VK","2018/09/04 19:09:36","新北市板橋區裕民街43號","121.461528333333","25.028635","6500100","板橋區"
"220061","295-UM","2018/09/04 19:09:28","新北市板橋區三民路二段19號","121.479275","25.0181216666667","6500100","板橋區"
"220084","296-UM","2018/09/04 19:09:27","新北市板橋區溪崑二街22巷30號","121.428181666667","24.9919716666667","6500100","板橋區"
"220062","299-UM","2018/09/04 19:09:25","新北市板橋區三民路二段居仁巷1弄18號","121.479813333333","25.0135666666667","6500100","板橋區"
"220075","303-R5","2018/09/04 19:09:31","新北市板橋區南雅南路一段60-1號","121.455448333333","25.0054116666667","6500100","板橋區"
"220092","307-R5","2018/09/04 19:09:33","新北市板橋區文化路二段225巷60弄39號","121.469101666667","25.029345","6500100","板橋區"
"220098","317-R6","2018/09/04 19:09:17","新北市板橋區自由路51巷14弄5號","121.464633333333","25.0236333333333","6500100","板橋區"
"220064","486-VK","2018/09/04 19:09:37","新北市板橋區板新路2號","121.475071666667","25.01297","6500100","板橋區"
"220088","491-VK","2018/09/04 19:09:25","新北市板橋區文化路二段182巷3弄25號","121.471903333333","25.0280416666667","6500100","板橋區"
"220035","560-BX","2018/09/04 19:09:23","新北市板橋區中正路326巷5號","121.454906666667","25.0220366666667","6500100","板橋區"
"220103","561-BX","2018/09/04 19:09:19","新北市板橋區文化路一段188巷9弄23號","121.468616666667","25.01944","6500100","板橋區"
"220063","609-BX","2018/09/04 19:09:19","新北市板橋區三民路二段222號","121.478865","25.0116383333333","6500100","板橋區"
"220057","686-BX","2018/09/04 19:09:27","新北市板橋區重慶路368號","121.464421666667","24.997315","6500100","板橋區"
"220077","687-BX","2018/09/04 19:09:23","新北市板橋區大觀路二段22-1號","121.44661","25.0031883333333","6500100","板橋區"
"220093","689-BX","2018/09/04 19:09:31","新北市板橋區民生路三段187號","121.465225","25.0273833333333","6500100","板橋區"
"220054","741-BX","2018/09/04 19:09:22","新北市板橋區實踐路55-1號","121.463858333333","25.0066533333333","6500100","板橋區"
"220102","KEA-2699","2018/09/04 19:09:35","新北市板橋區田單街2巷26號","121.482136666667","25.027995","6500100","板橋區"
"220055","827-TW","2018/09/04 19:09:27","新北市板橋區新民街7巷14號","121.463668333333","25.0104233333333","6500100","板橋區"
"220067","830-TW","2018/09/04 19:09:37","新北市板橋區長安街224巷3號","121.475111666667","25.01201","6500100","板橋區"
"220096","831-TW","2018/09/04 19:09:33","新北市板橋區雙十路二段33巷16號","121.476126666667","25.025385","6500100","板橋區"
"220074","895-R6","2018/09/04 19:09:15","新北市板橋區中正路自強新村45-1號","121.454846666667","25.0139366666667","6500100","板橋區"
"220073","985-R7","2018/09/04 19:09:18","新北市板橋區中正路241號","121.455885","25.0181533333333","6500100","板橋區"
"220097","AAC-210","2018/09/04 19:09:36","新北市板橋區幸福路70巷19號","121.460273333333","25.02062","6500100","板橋區"
"220070","AAC-253","2018/09/04 19:09:31","新北市板橋區忠孝路25號","121.460571666667","25.00198","6500100","板橋區"
"235068","KEA-2873","2018/09/04 19:09:18","新北市中和區圓通路162巷4號","121.4969","24.9952833333333","6500300","中和區"
"235061","KEA-2875","2018/09/04 19:09:34","新北市中和區員山路394巷6號","121.481063333333","25.0045933333333","6500300","中和區"
