"lineid","car","time","location","longitude","latitude","cityid","cityname"
"234046","148-BY","2018/09/04 19:29:35","新北市永和區秀朗路二段247號","121.526288333333","24.999585","6500400","永和區"
"234007","207-UY","2018/09/04 19:29:27","新北市永和區永和路二段2號","121.514433333333","25.0098083333333","6500400","永和區"
"234081","298-R6","2018/09/04 19:29:35","新北市永和區環河東路三段54號","121.526705","25.006155","6500400","永和區"
"234038","336-UY","2018/09/04 19:29:38","新北市永和區民樂街30巷2號","121.527575","25.0012183333333","6500400","永和區"
"234064","337-UY","2018/09/04 19:29:20","新北市永和區永元路17巷25弄7號","121.520841666667","25.0016183333333","6500400","永和區"
"234086","338-UY","2018/09/04 19:29:29","新北市永和區林森路29巷2號","121.52603","25.0050466666667","6500400","永和區"
"234070","552-UM","2018/09/04 19:29:23","新北市永和區竹林路182號","121.520413333333","25.00975","6500400","永和區"
"234017","745-BX","2018/09/04 19:29:31","新北市永和區環河西路一段87號","121.512308333333","25.0179083333333","6500400","永和區"
"234030","746-BX","2018/09/04 19:29:36","新北市永和區民生路4號","121.522651666667","24.997955","6500400","永和區"
"234054","KEA-2590","2018/09/04 19:29:27","新北市永和區復興街19巷7號","121.51606","25.0131533333333","6500400","永和區"
"234061","AAD-866","2018/09/04 19:29:38","新北市永和區中正路558號","121.51707","25.0056916666667","6500400","永和區"
"234013","847-RS","2018/09/04 19:29:35","新北市永和區信義路14-1號","121.51439","25.0120383333333","6500400","永和區"
"234042","862-TW","2018/09/04 19:29:18","新北市永和區中和路519巷10號","121.51095","25.00318","6500400","永和區"
"234050","863-TW","2018/09/04 19:29:18","新北市永和區信義路120號","121.512333333333","25.01469","6500400","永和區"
"234026","9371-KE","2018/09/04 19:29:24","新北市中和區安樂路213號","121.514326666667","24.9987783333333","6500400","永和區"
"234011","9373-KE","2018/09/04 19:29:25","新北市永和區保福路二段159巷2號","121.509121666667","25.0145666666667","6500400","永和區"
"249005","172-UM","2018/09/04 19:29:29","新北市八里區中華路三段170-1號","121.392186666667","25.1303883333333","6502300","八里區"
"249002","305-UY","2018/09/04 19:29:34","新北市八里區龍形一街33巷6-1號","121.449291666667","25.1296066666667","6502300","八里區"
"249003","593-UM","2018/09/04 19:29:22","新北市八里區商港六路11號","121.396911666667","25.1481583333333","6502300","八里區"
"248008","095-VK","2018/09/04 19:29:23","新北市五股區中興路二段31號","121.46249","25.0751616666667","6501500","五股區"
"248020","225-UY","2018/09/04 19:29:39","新北市五股區凌雲路三段45-2號","121.427716666667","25.1203116666667","6501500","五股區"
"248012","247-BX","2018/09/04 19:29:33","新北市五股區成泰路二段97號","121.437985","25.0842766666667","6501500","五股區"
"248016","261-SL","2018/09/04 19:29:35","新北市五股區凌雲路一段22巷9號","121.452596666667","25.1007383333333","6501500","五股區"
"248010","272-BY","2018/09/04 19:29:21","新北市五股區水碓二路1號","121.430568333333","25.0712383333333","6501500","五股區"
"248004","677-BX","2018/09/04 19:29:26","新北市五股區工商路151號","121.43498","25.0865233333333","6501500","五股區"
"248002","678-BX","2018/09/04 19:29:31","新北市五股區凌雲路一段158巷1號","121.447698333333","25.1030683333333","6501500","五股區"
"234023","9380-KE","2018/09/04 19:29:26","新北市永和區竹林路91巷45號","121.52127","25.01295","6500400","永和區"
"234077","969-R7","2018/09/04 19:29:27","新北市永和區民權路58巷3號","121.519613333333","24.9982716666667","6500400","永和區"
"234074","AAC-211","2018/09/04 19:29:26","新北市永和區竹林路6號","121.516305","25.0148433333333","6500400","永和區"
"234067","AAC-212","2018/09/04 19:29:26","新北市永和區保平路123號","121.510656666667","25.006475","6500400","永和區"
"234003","AAC-295","2018/09/04 19:29:34","新北市永和區福和路352號","121.514658333333","25.0074166666667","6500400","永和區"
"244023","483-VK","2018/09/04 19:29:36","新北市林口區民有街73號","121.372908333333","25.0773366666667","6501700","林口區"
"244011","657-BX","2018/09/04 19:29:12","新北市林口區竹林路55號","121.387443333333","25.0782533333333","6501700","林口區"
"243013","AAD-798","2018/09/04 19:29:38","新北市泰山區貴子路14號","121.42549","25.0418766666667","6501600","泰山區"
"243009","297-R6","2018/09/04 19:29:26","新北市五股區成泰路一段7巷7號","121.433288333333","25.0667166666667","6501600","泰山區"
"243016","KEA-2801","2018/09/04 19:29:36","新北市泰山區明志路三段166號","121.424135","25.0394083333333","6501600","泰山區"
"243015","421-VK","2018/09/04 19:29:30","新北市泰山區明志路二段136巷8號","121.427211666667","25.05134","6501600","泰山區"
"243011","KEA-2215","2018/09/04 19:29:36","新北市泰山區貴子路120號","121.428296666667","25.0406633333333","6501600","泰山區"
"243010","KEA-2216","2018/09/04 19:29:21","新北市泰山區民生路17巷3號","121.429973333333","25.05233","6501600","泰山區"
"243012","646-TV","2018/09/04 19:29:34","新北市泰山區仁愛路68號","121.43244","25.0548083333333","6501600","泰山區"
"243014","680-BX","2018/09/04 19:29:33","新北市泰山區中港西路490號","121.432575","25.0525283333333","6501600","泰山區"
"222003","436-BY","2018/09/04 19:29:23","新北市深坑區深南路51-1號","121.62133","25.0097433333333","6501800","深坑區"
"222002","659-BX","2018/09/04 19:29:32","新北市深坑區北深路一段177號","121.632511666667","25.0108266666667","6501800","深坑區"
"231041","002-UM","2018/09/04 19:29:32","新北市新店區中正路568號","121.533961666667","24.9877","6500600","新店區"
"231059","046-UY","2018/09/04 19:29:30","新北市新店區安和路三段7號","121.518131666667","24.9805116666667","6500600","新店區"
"231040","047-UY","2018/09/04 19:29:19","新北市新店區中華路12-1號","121.54069","24.9674616666667","6500600","新店區"
"231044","106-UY","2018/09/04 19:29:27","新北市新店區中興路三段143號","121.54445","24.9798716666667","6500600","新店區"
"231046","107-UY","2018/09/04 19:29:28","新北市新店區光明街123號","121.539166666667","24.9618466666667","6500600","新店區"
"231053","108-UY","2018/09/04 19:29:27","新北市新店區廣興路5巷19號","121.545755","24.91368","6500600","新店區"
"231064","110-UY","2018/09/04 19:29:25","新北市新店區安康路二段85巷44號","121.514411666667","24.9613783333333","6500600","新店區"
"231048","187-VK","2018/09/04 19:29:33","新北市新店區五峰路77號","121.546351666667","24.9678216666667","6500600","新店區"
"231062","188-VK","2018/09/04 19:29:33","新北市新店區莒光路85巷2號","121.523193333333","24.95608","6500600","新店區"
"231054","KEA-2219","2018/09/04 19:29:28","新北市新店區文中路40號","121.539713333333","24.9564916666667","6500600","新店區"
"231057","256-BX","2018/09/04 19:29:33","新北市新店區花園一路二段23號","121.55109","24.93271","6500600","新店區"
"231042","268-BY","2018/09/04 19:29:37","新北市新店區中興路一段57號","121.539816666667","24.960505","6500600","新店區"
"231051","278-BY","2018/09/04 19:29:37","新北市新店區中央五街84號","121.526421666667","24.97622","6500600","新店區"
"231050","AAD-862","2018/09/04 19:29:27","新北市新店區竹林路94號","121.553711666667","24.950005","6500600","新店區"
"231058","3713-VJ","2018/09/04 19:29:26","新北市新店區寶橋路85巷5弄3號","121.545895","24.9757","6500600","新店區"
"231066","4716-K9","2018/09/04 19:29:34","新北市新店區安康路三段355巷41號","121.485","24.9495","6500600","新店區"
"231065","512-UM","2018/09/04 19:29:30","新北市新店區安祥路109巷3弄26號","121.47609","24.9601683333333","6500600","新店區"
"231049","513-UM","2018/09/04 19:29:27","新北市新店區二十張路1巷3弄3號","121.540611666667","24.98216","6500600","新店區"
"231063","616-UM","2018/09/04 19:29:39","新北市新店區達觀路16-7號","121.502265","24.940875","6500600","新店區"
"231045","617-UM","2018/09/04 19:29:28","新北市新店區北宜路二段209號","121.553171666667","24.9533783333333","6500600","新店區"
"231061","619-UM","2018/09/04 19:29:26","新北市新店區安康路一段228號","121.523288333333","24.9636516666667","6500600","新店區"
"231060","897-TW","2018/09/04 19:29:25","新北市新店區安康路二段1-3號","121.51678","24.9637166666667","6500600","新店區"
"231043","899-TW","2018/09/04 19:29:20","新北市新店區北新路二段228巷1號","121.542981666667","24.9776733333333","6500600","新店區"
"241028","022-UY","2018/09/04 19:29:25","新北市三重區中正南路97巷20號","121.493615","25.057725","6500200","三重區"
"241008","059-VK","2018/09/04 19:29:20","新北市三重區永福街135巷36號","121.477361666667","25.077195","6500200","三重區"
"241022","060-VK","2018/09/04 19:29:17","新北市三重區三民街153號","121.484215","25.064305","6500200","三重區"
"241017","063-VK","2018/09/04 19:29:37","新北市三重區中正北路25巷2號","121.493151666667","25.0626666666667","6500200","三重區"
"241026","066-VK","2018/09/04 19:29:26","新北市三重區文化南路47巷40號","121.498728333333","25.060985","6500200","三重區"
"241009","267-UM","2018/09/04 19:29:38","新北市三重區溪尾街257號","121.487806666667","25.0817733333333","6500200","三重區"
"241032","269-UM","2018/09/04 19:29:19","新北市三重區三陽路64號","121.48382","25.0586883333333","6500200","三重區"
"241013","270-UM","2018/09/04 19:29:27","新北市三重區仁愛街129巷4號","121.495773333333","25.075045","6500200","三重區"
"241025","271-UM","2018/09/04 19:29:23","新北市三重區頂崁街210巷28弄9號","121.475823333333","25.06719","6500200","三重區"
"241007","398-BY","2018/09/04 19:29:37","新北市三重區慈愛街145號","121.489318333333","25.07963","6500200","三重區"
"241035","KEA-2210","2018/09/04 19:29:30","新北市三重區信義西街1巷1號","121.498016666667","25.06487","6500200","三重區"
"241020","478-VK","2018/09/04 19:29:31","新北市三重區三和路四段42號","121.490396666667","25.0744566666667","6500200","三重區"
"241030","480-VK","2018/09/04 19:29:29","新北市三重區成功路41巷3號","121.49024","25.0514233333333","6500200","三重區"
"241014","543-UM","2018/09/04 19:29:25","新北市三重區長興街29號","121.5003","25.06863","6500200","三重區"
"241006","AAD-863","2018/09/04 19:29:26","新北市三重區自強路三段76巷34號","121.484441666667","25.0734716666667","6500200","三重區"
"241029","942-UM","2018/09/04 19:29:25","新北市三重區大同南路161巷68號","121.495103333333","25.055105","6500200","三重區"
"235066","003-UY","2018/09/04 19:29:21","新北市中和區景新街41巷10號","121.50408","24.9993583333333","6500300","中和區"
"235064","005-UY","2018/09/04 19:29:36","新北市中和區圓通路4號","121.50192","24.9981733333333","6500300","中和區"
"235063","006-UY","2018/09/04 19:29:23","新北市中和區板南路335號","121.494108333333","24.9977116666667","6500300","中和區"
"235056","096-UM","2018/09/04 19:29:37","新北市中和區民富街40號","121.476696666667","25.006725","6500300","中和區"
"235039","097-UM","2018/09/04 19:29:23","新北市中和區秀峰街119巷8弄7號","121.51914","24.9898766666667","6500300","中和區"
"235065","098-UM","2018/09/04 19:29:30","新北市中和區莊敬路30號","121.501205","25.0050983333333","6500300","中和區"
"235040","150-BY","2018/09/04 19:29:31","新北市中和區保健路46巷33號","121.508783333333","24.9958333333333","6500300","中和區"
"235058","151-BY","2018/09/04 19:29:22","新北市中和區員山路36巷16-3號","121.484995","24.9915466666667","6500300","中和區"
"235055","183-VK","2018/09/04 19:29:29","新北市中和區莒光路120巷15弄1號","121.471668333333","25.0012616666667","6500300","中和區"
"235038","185-VK","2018/09/04 19:29:21","新北市中和區自立路125號","121.521921666667","24.9942116666667","6500300","中和區"
"235049","186-VK","2018/09/04 19:29:28","新北市中和區安和路19號","121.510898333333","24.9937716666667","6500300","中和區"
"235067","255-BX","2018/09/04 19:29:25","新北市中和區中正路716-8號","121.485393333333","24.9970466666667","6500300","中和區"
"235044","293-VK","2018/09/04 19:29:16","新北市中和區捷運路122號","121.50543","24.99149","6500300","中和區"
"235072","301-VK","2018/09/04 19:29:24","新北市中和區連城路263巷8弄7號","121.491825","24.99517","6500300","中和區"
"235043","352-BY","2018/09/04 19:29:28","新北市中和區南山路90號","121.502771666667","24.9949083333333","6500300","中和區"
"235050","4979-A6","2018/09/04 19:29:22","新北市中和區中正路571巷2弄1號","121.486503333333","24.9937783333333","6500300","中和區"
"235042","551-UM","2018/09/04 19:29:32","新北市中和區中和路350巷8弄14號","121.510245","25.000215","6500300","中和區"
"235070","558-UM","2018/09/04 19:29:29","新北市中和區中和路78號","121.501023333333","25.0006383333333","6500300","中和區"
"235045","565-BX","2018/09/04 19:29:32","新北市中和區景新街401號","121.512708333333","24.989805","6500300","中和區"
"235054","640-BX","2018/09/04 19:29:23","新北市中和區國光街102巷11弄11號","121.470625","25.00113","6500300","中和區"
"235047","732-UM","2018/09/04 19:29:25","新北市中和區景平路239巷32號","121.50846","24.9923033333333","6500300","中和區"
"235046","733-UM","2018/09/04 19:29:23","新北市中和區忠孝街37巷30號","121.510771666667","24.9843033333333","6500300","中和區"
"235071","783-BX","2018/09/04 19:29:30","新北市中和區連城路469巷21弄22號","121.484113333333","24.9950766666667","6500300","中和區"
"235057","801-TS","2018/09/04 19:29:22","新北市中和區中山路三段37巷35號","121.479553333333","25.0047916666667","6500300","中和區"
"235041","802-TS","2018/09/04 19:29:36","新北市中和區中和路390號","121.511305","25.002475","6500300","中和區"
"235052","805-TS","2018/09/04 19:29:21","新北市中和區華新街143巷69弄9號","121.50728","24.9788333333333","6500300","中和區"
"235048","896-TW","2018/09/04 19:29:30","新北市中和區景新街483號","121.513713333333","24.9875966666667","6500300","中和區"
"235053","900-TW","2018/09/04 19:29:38","新北市中和區華順街21號","121.467353333333","24.9986466666667","6500300","中和區"
"235060","911-UM","2018/09/04 19:29:32","新北市中和區員山路266巷31號","121.482468333333","25.001815","6500300","中和區"
"235051","157-BY","2018/09/04 19:29:22","新北市中和區景新街172號","121.506096666667","24.9965083333333","6500300","中和區"
"235037","AAC-213","2018/09/04 19:29:31","新北市中和區秀朗路三段10巷14弄28號","121.524805","24.9966266666667","6500300","中和區"
"235059","AAC-215","2018/09/04 19:29:37","新北市中和區圓通路252巷7號","121.493163333333","24.991555","6500300","中和區"
"220068","013-TV","2018/09/04 19:29:24","新北市板橋區林森街1巷21號","121.482488333333","25.02428","6500100","板橋區"
"220065","072-UY","2018/09/04 19:29:21","新北市板橋區國泰街111巷3號","121.465926666667","25.0062633333333","6500100","板橋區"
"220086","073-UY","2018/09/04 19:29:18","新北市板橋區中正路250巷4號","121.455881666667","25.01932","6500100","板橋區"
"220106","075-UY","2018/09/04 19:29:36","新北市板橋區長江路三段62號","121.473623333333","25.0338466666667","6500100","板橋區"
"220069","AAD-861","2018/09/04 19:29:32","新北市板橋區稚暉街46巷1號","121.456433333333","25.00432","6500100","板橋區"
"226004","205-ST","2018/09/04 19:29:23","新北市平溪區十分里十分街138號","121.777458333333","25.0433033333333","6502400","平溪區"
"228001","212-TW","2018/09/04 19:29:21","新北市貢寮區真理里延平街68號","121.925381666667","25.0574033333333","6502600","貢寮區"
"228003","828-UM","2018/09/04 19:29:24","新北市貢寮區和美里和美街19-2號","121.912855","25.0825716666667","6502600","貢寮區"
"224002","639-TC","2018/09/04 19:29:30","新北市瑞芳區三爪子坑路13巷61號","121.814325","25.1066566666667","6501200","瑞芳區"
"227009","642-TC","2018/09/04 19:29:28","新北市雙溪區新基里新基北街43號","121.868231666667","25.03973","6502500","雙溪區"
"227003","400-TW","2018/09/04 19:29:27","新北市雙溪區雙溪里光復街3號","121.865108333333","25.035505","6502500","雙溪區"
"253006","032-BX","2018/09/04 19:29:40","新北市石門區內石門2號","121.564985","25.291135","6502200","石門區"
"222001","KEA-2212","2018/09/04 19:29:18","新北市深坑區北深路二段134號","121.615898333333","25.0029766666667","6501800","深坑區"
"208002","KEA-2872","2018/09/04 19:29:39","新北市金山區中正路6號","121.636551666667","25.2223883333333","6502700","金山區"
"208003","665-BX","2018/09/04 19:29:23","新北市金山區中山路263巷10號","121.636245","25.2216816666667","6502700","金山區"
"208001","761-BX","2018/09/04 19:29:24","新北市金山區中正路52號","121.634473333333","25.2219883333333","6502700","金山區"
"251005","010-UM","2018/09/04 19:29:10","新北市淡水區水源街一段71巷18號","121.444413333333","25.172975","6501000","淡水區"
"251013","KEA-2871","2018/09/04 19:29:29","新北市淡水區安子內13號","121.479461666667","25.2192816666667","6501000","淡水區"
"251016","179-VK","2018/09/04 19:29:24","新北市淡水區下圭柔山119-51號","121.450671666667","25.2085066666667","6501000","淡水區"
"251014","180-VK","2018/09/04 19:29:19","新北市淡水區小中寮15-2號","121.484781666667","25.229825","6501000","淡水區"
"251015","181-VK","2018/09/04 19:29:20","新北市淡水區山子頂22-2號","121.492308333333","25.18849","6501000","淡水區"
"251010","413-VK","2018/09/04 19:29:19","新北市淡水區中正路二段131-1號","121.422096666667","25.1875816666667","6501000","淡水區"
"251012","441-VK","2018/09/04 19:29:23","新北市淡水區崁頂107號","121.43337","25.20409","6501000","淡水區"
"251007","442-VK","2018/09/04 19:29:00","新北市淡水區大同路113巷2號","121.463881666667","25.1411033333333","6501000","淡水區"
"251008","443-VK","2018/09/04 19:29:21","新北市淡水區中正路一段49號","121.424381666667","25.177395","6501000","淡水區"
"251001","559-UM","2018/09/04 19:29:31","新北市淡水區民權路167號","121.459893333333","25.1358016666667","6501000","淡水區"
"251006","561-UM","2018/09/04 19:29:37","新北市淡水區大義街36號","121.442173333333","25.178375","6501000","淡水區"
"251009","575-R6","2018/09/04 19:29:21","新北市淡水區大忠街5巷9號","121.443396666667","25.1765316666667","6501000","淡水區"
"251011","650-BX","2018/09/04 19:29:18","新北市淡水區中正東路二段143巷2弄1號","121.460715","25.1473983333333","6501000","淡水區"
"207003","550-UM","2018/09/04 19:29:30","新北市萬里區大鵬里萬里加投249號","121.64434","25.2155733333333","6502800","萬里區"
"207004","225-TW","2018/09/04 19:29:34","新北市萬里區萬里里瑪鋉路135號","121.688963333333","25.1777733333333","6502800","萬里區"
"252002","178-VK","2018/09/04 19:29:30","新北市三芝區淡金路二段20號","121.502666666667","25.2596033333333","6502100","三芝區"
"252001","292-VK","2018/09/04 19:29:24","新北市三芝區長勤街63-1號","121.500091666667","25.2561233333333","6502100","三芝區"
"237004","KEA-2597","2018/09/04 19:29:20","新北市三峽區有木206號","121.439081666667","24.8516283333333","6500900","三峽區"
"237007","153-BY","2018/09/04 19:29:33","新北市三峽區二鬮路136巷18弄22號","121.358881666667","24.9087516666667","6500900","三峽區"
"237009","210-TH","2018/09/04 19:29:19","新北市三峽區民權街100號","121.369106666667","24.9325633333333","6500900","三峽區"
"237013","252-BX","2018/09/04 19:29:07","新北市三峽區介壽路一段237號","121.379485","24.9301983333333","6500900","三峽區"
"237012","275-BY","2018/09/04 19:29:30","新北市三峽區民生街1巷1-7號","121.376728333333","24.9371366666667","6500900","三峽區"
"237008","302-VK","2018/09/04 19:29:22","新北市三峽區永安街95巷4號","121.374698333333","24.9287316666667","6500900","三峽區"
"237014","433-BY","2018/09/04 19:29:25","新北市三峽區中園街18號","121.368098333333","24.92718","6500900","三峽區"
"237006","5529-G3","2018/09/04 19:29:35","新北市三峽區中正路一段336巷15弄2號","121.36996","24.9249466666667","6500900","三峽區"
"237011","KEA-2596","2018/09/04 19:29:36","新北市三峽區中正路一段532號","121.368888333333","24.9201283333333","6500900","三峽區"
"237016","649-BX","2018/09/04 19:29:32","新北市三峽區安坑35-5號","121.452861666667","24.9312083333333","6500900","三峽區"
"237010","706-TV","2018/09/04 19:29:21","新北市三峽區復興路31號","121.373755","24.9365216666667","6500900","三峽區"
"237005","AKY-6261","2018/09/04 19:29:22","新北市三峽區復興路367巷1弄12號","121.364183333333","24.937785","6500900","三峽區"
"236070","105-UM","2018/09/04 19:29:21","新北市土城區裕民路185巷36弄10號","121.454368333333","24.98451","6501300","土城區"
"236042","107-UM","2018/09/04 19:29:25","新北市土城區學府路一段239號","121.4504","24.983405","6501300","土城區"
"236079","166-UM","2018/09/04 19:29:35","新北市土城區中州路12巷23號","121.415321666667","24.95774","6501300","土城區"
"236030","253-BX","2018/09/04 19:29:27","新北市土城區中央路一段318巷2號","121.443038333333","24.9817866666667","6501300","土城區"
"236026","269-VK","2018/09/04 19:29:17","新北市土城區中央路二段61巷26號","121.443276666667","24.9787233333333","6501300","土城區"
"236021","401-BY","2018/09/04 19:29:23","新北市土城區明峰街83號","121.468968333333","24.9874066666667","6501300","土城區"
"236059","912-UM","2018/09/04 19:29:25","新北市土城區中央路二段144號","121.441936666667","24.9771866666667","6501300","土城區"
"236049","913-UM","2018/09/04 19:29:31","新北市土城區清水路209號","121.460381666667","24.981915","6501300","土城區"
"242039","133-UY","2018/09/04 19:29:27","新北市新莊區建國二路108號","121.430755","25.0273316666667","6500500","新莊區"
"242032","135-UY","2018/09/04 19:29:31","新北市新莊區新泰路225巷20號","121.445253333333","25.0392366666667","6500500","新莊區"
"242048","172-VK","2018/09/04 19:29:27","新北市新莊區後港一路3號","121.424095","25.0263","6500500","新莊區"
"242005","176-VK","2018/09/04 19:29:22","新北市新莊區化成路11巷70號","121.462195","25.0435266666667","6500500","新莊區"
"242021","348-TH","2018/09/04 19:29:33","新北市新莊區新泰路357巷3弄37號","121.441941666667","25.0403783333333","6500500","新莊區"
"242013","351-TH","2018/09/04 19:29:30","新北市新莊區新泰路500號","121.442428333333","25.0460666666667","6500500","新莊區"
"238015","755-BX","2018/09/04 19:29:27","新北市樹林區復興路197號","121.420565","24.9917366666667","6500700","樹林區"
"238023","601-UM","2018/09/04 19:29:21","新北市樹林區三福街114號","121.406496666667","25.01624","6500700","樹林區"
"238019","599-UM","2018/09/04 19:29:26","新北市樹林區鎮前街365號","121.416031666667","24.9840183333333","6500700","樹林區"
"238024","5061-A6","2018/09/04 19:29:22","新北市樹林區中山路三段155巷1號","121.395655","24.9726266666667","6500700","樹林區"
"238022","KEA-2213","2018/09/04 19:29:23","新北市樹林區名園街31號","121.419486666667","24.9790516666667","6500700","樹林區"
"238021","KEA-2539","2018/09/04 19:29:36","新北市樹林區大雅路55號","121.38038","24.9451583333333","6500700","樹林區"
"238025","303-VK","2018/09/04 19:29:23","新北市樹林區中山路一段296號","121.420385","24.9864883333333","6500700","樹林區"
"238017","283-BY","2018/09/04 19:29:21","新北市樹林區光興街63巷8號","121.410691666667","25.002065","6500700","樹林區"
"238014","282-BY","2018/09/04 19:29:18","新北市樹林區保安二街40巷18號","121.425691666667","24.9946466666667","6500700","樹林區"
"238020","268-VK","2018/09/04 19:29:34","新北市樹林區俊英街83巷2號","121.425771666667","25.0081816666667","6500700","樹林區"
"238026","172-UY","2018/09/04 19:29:24","新北市樹林區寶園街8-2號","121.385725","24.95366","6500700","樹林區"
"238016","169-UY","2018/09/04 19:29:35","新北市樹林區復興路447號","121.413556666667","24.9839883333333","6500700","樹林區"
"239007","AAC-297","2018/09/04 19:29:22","新北市鶯歌區大湖路326巷55號","121.346048333333","24.9696216666667","6500800","鶯歌區"
"239006","891-R6","2018/09/04 19:29:28","新北市鶯歌區文化路265號","121.353293333333","24.953005","6500800","鶯歌區"
"239001","417-VK","2018/09/04 19:29:34","新北市鶯歌區中山路6號","121.353068333333","24.9571533333333","6500800","鶯歌區"
"239002","359-BY","2018/09/04 19:29:25","新北市鶯歌區中山路142號","121.349543333333","24.9571316666667","6500800","鶯歌區"
"239004","193-VK","2018/09/04 19:29:26","新北市鶯歌區二甲路83-4號","121.339416666667","24.932895","6500800","鶯歌區"
"221008","489-VK","2018/09/04 19:29:17","新北市汐止區康寧街145號","121.621905","25.0666533333333","6501100","汐止區"
"221036","130-UY","2018/09/04 19:29:27","新北市汐止區汐萬路一段256巷1號","121.651795","25.0748666666667","6501100","汐止區"
"221015","131-UY","2018/09/04 19:29:29","新北市汐止區康寧街901號","121.651486666667","25.07492","6501100","汐止區"
"221010","269-BY","2018/09/04 19:29:18","新北市汐止區連峰街7號","121.646435","25.0772666666667","6501100","汐止區"
"221012","278-VK","2018/09/04 19:29:32","新北市汐止區大同路三段184號","121.674313333333","25.0746033333333","6501100","汐止區"
"221023","279-VK","2018/09/04 19:29:29","新北市汐止區康寧街480號","121.6322","25.068385","6501100","汐止區"
"221032","280-BY","2018/09/04 19:29:24","新北市汐止區新台五路一段129號","121.652268333333","25.06183","6501100","汐止區"
"221027","281-BY","2018/09/04 19:29:37","新北市汐止區忠孝東路9號","121.658301666667","25.0660633333333","6501100","汐止區"
"221021","299-VK","2018/09/04 19:29:32","新北市汐止區康寧街901號","121.651371666667","25.0749516666667","6501100","汐止區"
"221031","353-TW","2018/09/04 19:29:24","新北市汐止區康寧街901號","121.650725","25.075205","6501100","汐止區"
"221025","623-UM","2018/09/04 19:29:28","新北市汐止區新台五路二段2號","121.660043333333","25.0649216666667","6501100","汐止區"
"221038","646-BX","2018/09/04 19:29:21","新北市汐止區大同路二段341-1號","121.656125","25.0672416666667","6501100","汐止區"
"221002","707-TV","2018/09/04 19:29:24","新北市汐止區大同路一段337巷15弄2號","121.637538333333","25.0599716666667","6501100","汐止區"
"221018","753-BX","2018/09/04 19:29:18","新北市汐止區康寧街901號","121.651111666667","25.0751566666667","6501100","汐止區"
"220079","145-BY","2018/09/04 19:29:30","新北市板橋區民權路202巷13弄17號","121.459893333333","25.0161066666667","6500100","板橋區"
"220080","200-UY","2018/09/04 19:29:19","新北市板橋區大觀路二段37巷180號","121.44953","25.0021666666667","6500100","板橋區"
"220082","610-BX","2018/09/04 19:29:32","新北市板橋區大觀路三段261號","121.429308333333","24.991985","6500100","板橋區"
"220101","245-BX","2018/09/04 19:29:35","新北市板橋區縣民大道三段133巷27號","121.477116666667","25.0239866666667","6500100","板橋區"
"220091","267-BY","2018/09/04 19:29:26","新北市板橋區文聖街149巷22號","121.4796","25.0285333333333","6500100","板橋區"
"220056","276-BY","2018/09/04 19:29:33","新北市板橋區信義路1巷26弄36號","121.458725","24.9965816666667","6500100","板橋區"
"220072","277-BY","2018/09/04 19:29:37","新北市板橋區金門街253巷17弄1號","121.433168333333","24.9886716666667","6500100","板橋區"
"220089","280-UM","2018/09/04 19:29:32","新北市板橋區民權路182號","121.459418333333","25.0134316666667","6500100","板橋區"
"220094","283-UM","2018/09/04 19:29:31","新北市板橋區吳鳳路50巷10號","121.468841666667","25.0301733333333","6500100","板橋區"
"220071","283-VK","2018/09/04 19:29:38","新北市板橋區四川路一段283巷2號","121.45964","25.0014216666667","6500100","板橋區"
"220053","285-VK","2018/09/04 19:29:26","新北市板橋區富山街53巷1弄19號","121.477976666667","25.0206316666667","6500100","板橋區"
"220083","286-VK","2018/09/04 19:29:34","新北市板橋區大觀路二段174巷163弄7號","121.441373333333","25.0032","6500100","板橋區"
"220081","287-VK","2018/09/04 19:29:37","新北市板橋區大觀路一段75巷22號","121.448096666667","25.004185","6500100","板橋區"
"220090","288-VK","2018/09/04 19:29:36","新北市板橋區裕民街86號","121.460443333333","25.0281683333333","6500100","板橋區"
"220061","295-UM","2018/09/04 19:29:28","新北市板橋區中山路二段62號","121.4742","25.01578","6500100","板橋區"
"220084","296-UM","2018/09/04 19:29:27","新北市板橋區滿平街84巷120弄14號","121.426565","24.9859266666667","6500100","板橋區"
"220062","299-UM","2018/09/04 19:29:25","新北市板橋區三民路二段109巷27號","121.480551666667","25.0161316666667","6500100","板橋區"
"242011","281-VK","2018/09/04 19:29:18","新北市新莊區新泰路255巷83號","121.442206666667","25.0388383333333","6500500","新莊區"
"220075","303-R5","2018/09/04 19:29:31","新北市板橋區中正路253巷64號","121.453146666667","25.0174216666667","6500100","板橋區"
"220092","307-R5","2018/09/04 19:29:13","新北市板橋區光武街4巷14號","121.468305","25.0256883333333","6500100","板橋區"
"220098","317-R6","2018/09/04 19:29:37","新北市板橋區民生路三段281巷1號","121.463638333333","25.0297766666667","6500100","板橋區"
"220064","486-VK","2018/09/04 19:29:34","新北市板橋區中山路一段121號","121.462076666667","25.0104433333333","6500100","板橋區"
"220088","491-VK","2018/09/04 19:29:24","新北市板橋區雙十路二段44號","121.475733333333","25.0275433333333","6500100","板橋區"
"220035","560-BX","2018/09/04 19:29:20","新北市板橋區中正路375巷14弄2號","121.454028333333","25.0211233333333","6500100","板橋區"
"220103","561-BX","2018/09/04 19:29:19","新北市板橋區文化路一段216號","121.466518333333","25.020285","6500100","板橋區"
"220063","609-BX","2018/09/04 19:29:19","新北市板橋區萬安街55-1號","121.483836666667","25.0239166666667","6500100","板橋區"
"220057","686-BX","2018/09/04 19:29:27","新北市板橋區和平路82-1號","121.461418333333","24.9944883333333","6500100","板橋區"
"220077","687-BX","2018/09/04 19:29:23","新北市板橋區僑中二街116巷2號","121.445771666667","25.006545","6500100","板橋區"
"220093","689-BX","2018/09/04 19:29:35","新北市板橋區英士路49-1號","121.461183333333","25.0245983333333","6500100","板橋區"
"220054","741-BX","2018/09/04 19:29:22","新北市板橋區忠孝路8號","121.459653333333","25.001725","6500100","板橋區"
"220102","KEA-2699","2018/09/04 19:29:35","新北市板橋區雙十路二段130巷2弄2號","121.474241666667","25.02911","6500100","板橋區"
"220055","827-TW","2018/09/04 19:29:27","新北市板橋區重慶路278巷15號","121.462425","24.99961","6500100","板橋區"
"220067","830-TW","2018/09/04 19:29:37","新北市板橋區長安街138巷28號","121.473141666667","25.008885","6500100","板橋區"
"220096","831-TW","2018/09/04 19:29:38","新北市板橋區大同街10號","121.477141666667","25.0268483333333","6500100","板橋區"
"220074","895-R6","2018/09/04 19:29:36","新北市板橋區南門街1號","121.457661666667","25.0094116666667","6500100","板橋區"
"220073","985-R7","2018/09/04 19:29:18","新北市板橋區中正路403號","121.454235","25.02225","6500100","板橋區"
"220097","AAC-210","2018/09/04 19:29:36","新北市板橋區漢生西路151巷1號","121.463188333333","25.022235","6500100","板橋區"
"220070","AAC-253","2018/09/04 19:29:30","新北市板橋區四川路一段8-2號","121.459365","25.006735","6500100","板橋區"
"235068","KEA-2873","2018/09/04 19:29:18","新北市中和區連勝街57巷21號","121.498071666667","24.9966783333333","6500300","中和區"
"235061","KEA-2875","2018/09/04 19:29:34","新北市中和區民利街9巷2弄12號","121.480233333333","24.9988416666667","6500300","中和區"
