"lineid","car","time","location","longitude","latitude","cityid","cityname"
"234046","148-BY","2018/09/04 20:09:35","新北市永和區得和路291號","121.522571666667","24.9996466666667","6500400","永和區"
"234007","207-UY","2018/09/04 20:09:27","新北市永和區仁愛路306巷23號","121.502731666667","25.0086366666667","6500400","永和區"
"234081","298-R6","2018/09/04 20:09:33","新北市永和區國中路16號","121.524391666667","25.005035","6500400","永和區"
"234038","336-UY","2018/09/04 20:09:38","新北市永和區成功路一段91號","121.526931666667","25.00275","6500400","永和區"
"234064","337-UY","2018/09/04 20:09:40","新北市永和區秀朗路二段33號","121.52143","25.0024266666667","6500400","永和區"
"234086","338-UY","2018/09/04 20:09:29","新北市永和區中正路664號","121.516813333333","25.008895","6500400","永和區"
"234070","552-UM","2018/09/04 20:09:23","新北市永和區永貞路10巷9號","121.52004","25.00722","6500400","永和區"
"234017","745-BX","2018/09/04 20:09:31","新北市永和區文化路82號","121.514008333333","25.0151883333333","6500400","永和區"
"234030","746-BX","2018/09/04 20:09:35","新北市永和區民權路49巷37號","121.522033333333","24.9976216666667","6500400","永和區"
"234054","KEA-2590","2018/09/04 20:09:27","新北市永和區博愛街18巷2號","121.51724","25.0157816666667","6500400","永和區"
"234061","AAD-866","2018/09/04 20:09:38","新北市永和區中正路151巷5弄2-1號","121.515618333333","24.9987283333333","6500400","永和區"
"234013","847-RS","2018/09/04 20:09:35","新北市永和區永貞路443號","121.506426666667","25.0101516666667","6500400","永和區"
"234042","862-TW","2018/09/04 20:09:39","新北市永和區雙和街64巷22弄5-1號","121.509808333333","25.0029183333333","6500400","永和區"
"234050","863-TW","2018/09/04 20:09:38","新北市永和區新生路210巷2號","121.505578333333","25.013185","6500400","永和區"
"234011","9373-KE","2018/09/04 20:09:25","新北市永和區環河西路二段245-1號","121.50035","25.0091366666667","6500400","永和區"
"249005","172-UM","2018/09/04 20:09:29","新北市八里區下罟子58-10號","121.387646666667","25.1374616666667","6502300","八里區"
"249001","173-UM","2018/09/04 20:09:33","新北市八里區中華路二段326號","121.403225","25.148045","6502300","八里區"
"249004","303-UY","2018/09/04 20:09:29","新北市八里區中山路一段203號","121.411481666667","25.1581083333333","6502300","八里區"
"249002","305-UY","2018/09/04 20:09:34","新北市八里區龍米路一段2-1號","121.458288333333","25.11468","6502300","八里區"
"249003","593-UM","2018/09/04 20:09:22","新北市八里區中山路二段540巷9弄7號","121.396966666667","25.1467033333333","6502300","八里區"
"248008","095-VK","2018/09/04 20:09:23","新北市五股區中興路一段3號","121.469738333333","25.0721166666667","6501500","五股區"
"248020","225-UY","2018/09/04 20:09:22","新北市五股區凌雲路二段40-2號","121.439885","25.1025816666667","6501500","五股區"
"248012","247-BX","2018/09/04 20:09:33","新北市五股區六合街118號","121.430276666667","25.0907966666667","6501500","五股區"
"248016","261-SL","2018/09/04 20:09:36","新北市五股區成泰路三段577巷80弄72號","121.448926666667","25.1046783333333","6501500","五股區"
"248010","272-BY","2018/09/04 20:09:20","新北市五股區成泰路一段7巷4號","121.433346666667","25.0666933333333","6501500","五股區"
"248004","677-BX","2018/09/04 20:09:26","新北市五股區成泰路一段194-2號","121.435753333333","25.07819","6501500","五股區"
"248002","678-BX","2018/09/04 20:09:31","新北市五股區成泰路三段369-3號","121.44893","25.0960133333333","6501500","五股區"
"234023","9380-KE","2018/09/04 20:09:26","新北市永和區中正路662巷25號","121.517668333333","25.00885","6500400","永和區"
"234077","969-R7","2018/09/04 20:09:27","新北市永和區智光街107巷15號","121.515858333333","24.9958766666667","6500400","永和區"
"234074","AAC-211","2018/09/04 20:09:26","新北市永和區豫溪街185號","121.52253","25.0103383333333","6500400","永和區"
"234067","AAC-212","2018/09/04 20:09:35","新北市永和區保平路208號","121.509926666667","25.0060866666667","6500400","永和區"
"234003","AAC-295","2018/09/04 20:09:38","新北市永和區中正路614號","121.517136666667","25.007535","6500400","永和區"
"243013","AAD-798","2018/09/04 20:09:22","新北市泰山區明志路三段76號","121.424786666667","25.0417583333333","6501600","泰山區"
"243009","297-R6","2018/09/04 20:09:26","新北市泰山區泰林路二段142巷6號","121.434755","25.06013","6501600","泰山區"
"243016","KEA-2801","2018/09/04 20:09:36","新北市泰山區貴陽街4-1號","121.42171","25.0332183333333","6501600","泰山區"
"243015","421-VK","2018/09/04 20:09:30","新北市泰山區明志路一段282號","121.432016666667","25.0599883333333","6501600","泰山區"
"243011","KEA-2215","2018/09/04 20:09:36","新北市泰山區明志路三段385號","121.42158","25.034725","6501600","泰山區"
"243010","KEA-2216","2018/09/04 20:09:20","新北市泰山區明志路二段47號","121.42953","25.0527633333333","6501600","泰山區"
"243012","646-TV","2018/09/04 20:09:34","新北市泰山區楓江路39-2號","121.435155","25.06248","6501600","泰山區"
"243014","680-BX","2018/09/04 20:09:33","新北市泰山區明志路一段154號","121.433346666667","25.0629683333333","6501600","泰山區"
"222003","436-BY","2018/09/04 20:09:34","新北市深坑區埔新街62號","121.62012","25.0024383333333","6501800","深坑區"
"222002","659-BX","2018/09/04 20:09:32","新北市深坑區北深路三段206巷1弄18號","121.601565","25.0044966666667","6501800","深坑區"
"231041","002-UM","2018/09/04 20:09:32","新北市新店區中正路468號","121.534055","24.9794333333333","6500600","新店區"
"231059","046-UY","2018/09/04 20:09:31","新北市新店區安成街28-1號","121.510141666667","24.9609583333333","6500600","新店區"
"231040","047-UY","2018/09/04 20:09:19","新北市新店區中正路108號","121.543058333333","24.9705383333333","6500600","新店區"
"231044","106-UY","2018/09/04 20:09:27","新北市新店區寶慶街58巷2號","121.54204","24.9868416666667","6500600","新店區"
"231053","108-UY","2018/09/04 20:09:27","新北市新店區新烏路三段332號","121.546846666667","24.8962766666667","6500600","新店區"
"231064","110-UY","2018/09/04 20:09:25","新北市新店區安康路二段58巷9號","121.513263333333","24.9638433333333","6500600","新店區"
"231048","187-VK","2018/09/04 20:09:33","新北市新店區寶橋路59-1號","121.545076666667","24.9751016666667","6500600","新店區"
"231062","188-VK","2018/09/04 20:09:33","新北市新店區安康路一段222-2號","121.523133333333","24.9636683333333","6500600","新店區"
"231054","KEA-2219","2018/09/04 20:09:39","新北市新店區檳榔路16號","121.54117","24.9644416666667","6500600","新店區"
"231057","256-BX","2018/09/04 20:09:21","新北市新店區花園一路一段2號","121.553105","24.9324883333333","6500600","新店區"
"231042","268-BY","2018/09/04 20:09:22","新北市新店區中興路二段89號","121.547083333333","24.9714166666667","6500600","新店區"
"231051","278-BY","2018/09/04 20:09:37","新北市新店區中央六街7號","121.53027","24.9745066666667","6500600","新店區"
"231050","AAD-862","2018/09/04 20:09:27","新北市新店區北新路一段337號","121.541878333333","24.96867","6500600","新店區"
"231066","4716-K9","2018/09/04 20:09:34","新北市新店區柴埕路57號","121.513628333333","24.9651433333333","6500600","新店區"
"231056","4715-K9","2018/09/04 20:09:22","新北市新店區中正路275巷37號","121.536735","24.97264","6500600","新店區"
"231067","4772-VM","2018/09/04 20:09:37","新北市新店區溪洲路101-1號","121.532528333333","24.9618816666667","6500600","新店區"
"231065","512-UM","2018/09/04 20:09:30","新北市新店區安祥路106巷325號","121.472431666667","24.958595","6500600","新店區"
"231049","513-UM","2018/09/04 20:09:27","新北市新店區北新路二段121巷1-1號","121.542266666667","24.97491","6500600","新店區"
"231063","616-UM","2018/09/04 20:09:39","新北市新店區黎明路52巷11號","121.501976666667","24.9487783333333","6500600","新店區"
"231045","617-UM","2018/09/04 20:09:28","新北市新店區北宜路一段121-1號","121.540346666667","24.9537983333333","6500600","新店區"
"231061","619-UM","2018/09/04 20:09:26","新北市新店區安興路83-8號","121.51528","24.9758083333333","6500600","新店區"
"231068","718-UY","2018/09/04 20:09:33","新北市新店區中興路二段190號","121.548273333333","24.973215","6500600","新店區"
"231060","897-TW","2018/09/04 20:09:26","新北市新店區安康路三段452號","121.484421666667","24.9512166666667","6500600","新店區"
"231043","899-TW","2018/09/04 20:09:20","新北市新店區民族路164號","121.537335","24.9765616666667","6500600","新店區"
"231055","AKT-0513","2018/09/04 20:09:26","新北市新店區中華路42巷22號","121.540765","24.9688116666667","6500600","新店區"
"241011","013-R5","2018/09/04 20:09:26","新北市三重區仁愛街34號","121.496346666667","25.0718283333333","6500200","三重區"
"241028","022-UY","2018/09/04 20:09:25","新北市三重區仁化街137號","121.494691666667","25.05743","6500200","三重區"
"241008","059-VK","2018/09/04 20:09:39","新北市三重區永福街197巷17號","121.478756666667","25.0744666666667","6500200","三重區"
"241022","060-VK","2018/09/04 20:09:36","新北市三重區重陽路二段9號","121.486898333333","25.0620483333333","6500200","三重區"
"241015","062-VK","2018/09/04 20:09:20","新北市三重區福德北路45號","121.502295","25.065005","6500200","三重區"
"241017","063-VK","2018/09/04 20:09:37","新北市三重區自強路一段232號","121.493221666667","25.0668333333333","6500200","三重區"
"241024","065-VK","2018/09/04 20:09:23","新北市三重區後竹圍街279-5號","121.48089","25.0704333333333","6500200","三重區"
"241026","066-VK","2018/09/04 20:09:26","新北市三重區福德南路26號","121.502796666667","25.0630366666667","6500200","三重區"
"241002","090-VK","2018/09/04 20:09:16","新北市三重區五華街55巷69號","121.49614","25.0823233333333","6500200","三重區"
"241003","091-VK","2018/09/04 20:09:19","新北市三重區富華街22號","121.48966","25.0825183333333","6500200","三重區"
"241016","266-UM","2018/09/04 20:09:21","新北市三重區大同北路54巷4號","121.494048333333","25.0633966666667","6500200","三重區"
"241009","267-UM","2018/09/04 20:09:18","新北市三重區力行路二段182-3號","121.483383333333","25.0776316666667","6500200","三重區"
"241018","268-UM","2018/09/04 20:09:29","新北市三重區正義北路256巷104號","121.493815","25.0678766666667","6500200","三重區"
"241032","269-UM","2018/09/04 20:09:19","新北市三重區捷運路65號","121.48342","25.0556233333333","6500200","三重區"
"241013","270-UM","2018/09/04 20:09:27","新北市三重區三和路三段139巷40號","121.494126666667","25.074175","6500200","三重區"
"241025","271-UM","2018/09/04 20:09:23","新北市三重區中正北路430號","121.47456","25.0710283333333","6500200","三重區"
"241007","398-BY","2018/09/04 20:09:32","新北市三重區三和路四段111-11號","121.48667","25.0775766666667","6500200","三重區"
"241035","KEA-2210","2018/09/04 20:09:30","新北市三重區平安街27號","121.498395","25.064235","6500200","三重區"
"241004","475-VK","2018/09/04 20:09:35","新北市三重區自強路四段80號","121.49059","25.0789333333333","6500200","三重區"
"241020","478-VK","2018/09/04 20:09:31","新北市三重區三和路三段168號","121.492678333333","25.0731483333333","6500200","三重區"
"241030","480-VK","2018/09/04 20:09:25","新北市三重區集美街75巷27號","121.488006666667","25.05301","6500200","三重區"
"241014","543-UM","2018/09/04 20:09:25","新北市三重區長壽街120巷43號","121.502105","25.06961","6500200","三重區"
"241023","545-UM","2018/09/04 20:09:32","新北市三重區頂崁街220巷2號","121.476876666667","25.0680616666667","6500200","三重區"
"241001","547-UM","2018/09/04 20:09:21","新北市三重區三和路四段89巷22號","121.490046666667","25.075935","6500200","三重區"
"241019","KEA-2593","2018/09/04 20:09:24","新北市三重區自強路二段33巷66號","121.490985","25.0699716666667","6500200","三重區"
"241006","AAD-863","2018/09/04 20:09:26","新北市三重區車路頭街139巷14號","121.484306666667","25.0762533333333","6500200","三重區"
"241005","887-TS","2018/09/04 20:09:20","新北市三重區溪尾街327號","121.488463333333","25.0848","6500200","三重區"
"241012","941-UM","2018/09/04 20:09:22","新北市三重區仁愛街125巷32號","121.497856666667","25.07595","6500200","三重區"
"241029","942-UM","2018/09/04 20:09:24","新北市三重區重新路三段128號","121.49196","25.0598016666667","6500200","三重區"
"241033","AAC-255","2018/09/04 20:09:29","新北市三重區光復路一段70號","121.471921666667","25.049305","6500200","三重區"
"235066","003-UY","2018/09/04 20:09:21","新北市中和區水源路154巷2號","121.508088333333","25.003345","6500300","中和區"
"235039","097-UM","2018/09/04 20:09:23","新北市中和區大勇街25巷14號","121.5167","24.99335","6500300","中和區"
"235065","098-UM","2018/09/04 20:09:34","新北市中和區永和路82號","121.497526666667","25.00516","6500300","中和區"
"235040","150-BY","2018/09/04 20:09:31","新北市中和區保健路33巷7號","121.509081666667","24.9979966666667","6500300","中和區"
"247012","KEA-2869","2018/09/04 20:05:44","新北市蘆洲區復興路290巷6弄14號","121.480236666667","25.0891616666667","6501400","蘆洲區"
"235050","4979-A6","2018/09/04 20:09:23","新北市中和區安樂路37號","121.5119","24.9929983333333","6500300","中和區"
"235069","4980-A6","2018/09/04 20:09:31","新北市中和區景新街98號","121.504733333333","24.998535","6500300","中和區"
"235070","558-UM","2018/09/04 20:09:29","新北市中和區中正路422號","121.491736666667","24.9942166666667","6500300","中和區"
"235046","733-UM","2018/09/04 20:09:23","新北市中和區忠孝街31巷25-3號","121.510183333333","24.9838816666667","6500300","中和區"
"235051","157-BY","2018/09/04 20:09:22","新北市中和區景安路220巷16號","121.502811666667","24.9913683333333","6500300","中和區"
"235037","AAC-213","2018/09/04 20:09:30","新北市中和區自立路17號","121.522421666667","24.9960966666667","6500300","中和區"
"235059","AAC-215","2018/09/04 20:09:37","新北市中和區圓通路367巷13弄29-7號","121.493138333333","24.988245","6500300","中和區"
"220068","013-TV","2018/09/04 20:09:24","新北市板橋區光復街35號","121.48164","25.0189383333333","6500100","板橋區"
"220106","075-UY","2018/09/04 20:09:36","新北市板橋區文聖街11巷24號","121.476123333333","25.0329766666667","6500100","板橋區"
"220069","AAD-861","2018/09/04 20:09:32","新北市板橋區貴興路115號","121.455726666667","25.0025283333333","6500100","板橋區"
"247002","893-R6","2018/09/04 20:09:22","新北市蘆洲區長榮路269巷32號","121.459395","25.0859966666667","6501400","蘆洲區"
"247016","546-UM","2018/09/04 20:09:34","新北市蘆洲區光華路133號","121.466383333333","25.0822883333333","6501400","蘆洲區"
"247024","500-BY","2018/09/04 20:09:36","新北市蘆洲區光榮路120巷9號","121.465353333333","25.08864","6501400","蘆洲區"
"247014","339-TH","2018/09/04 20:09:31","新北市蘆洲區中山二路189號","121.470873333333","25.080805","6501400","蘆洲區"
"247006","337-TH","2018/09/04 20:09:35","新北市蘆洲區永安南路二段18號","121.467705","25.077115","6501400","蘆洲區"
"247008","336-TH","2018/09/04 20:09:23","新北市蘆洲區中山一路135巷6弄25號","121.474958333333","25.0808866666667","6501400","蘆洲區"
"247020","057-VK","2018/09/04 20:09:30","新北市蘆洲區民義街102號","121.47381","25.0906983333333","6501400","蘆洲區"
"247010","056-VK","2018/09/04 20:09:29","新北市蘆洲區信義路148號","121.479505","25.0832383333333","6501400","蘆洲區"
"247018","007-UY","2018/09/04 20:09:23","新北市蘆洲區民族路314巷5號","121.477508333333","25.0904083333333","6501400","蘆洲區"
"247004","002-UY","2018/09/04 20:09:23","新北市蘆洲區永安南路二段328巷2號","121.457105","25.083135","6501400","蘆洲區"
"247022","001-UY","2018/09/04 20:09:18","新北市蘆洲區三民路165號","121.471248333333","25.0871616666667","6501400","蘆洲區"
"226004","205-ST","2018/09/04 20:09:23","新北市平溪區十分里十分街311號","121.775175","25.0435","6502400","平溪區"
"224002","639-TC","2018/09/04 20:09:22","新北市瑞芳區中山路316號","121.796878333333","25.1100033333333","6501200","瑞芳區"
"222001","KEA-2212","2018/09/04 20:09:17","新北市深坑區北深路三段210號","121.601228333333","25.0037433333333","6501800","深坑區"
"208002","KEA-2872","2018/09/04 20:09:19","新北市金山區南勢湖69號","121.616671666667","25.2147583333333","6502700","金山區"
"208003","665-BX","2018/09/04 20:09:25","新北市金山區永興里跳石4號","121.633613333333","25.2548583333333","6502700","金山區"
"251004","009-UM","2018/09/04 20:09:24","新北市淡水區民族路29巷24-1號","121.461703333333","25.13674","6501000","淡水區"
"251005","010-UM","2018/09/04 20:09:30","新北市淡水區學府路3號","121.447388333333","25.1679466666667","6501000","淡水區"
"251002","012-UM","2018/09/04 20:09:38","新北市淡水區中正路334號","121.435815","25.1730816666667","6501000","淡水區"
"251013","KEA-2871","2018/09/04 20:09:28","新北市淡水區奎柔山路75號","121.453286666667","25.2060283333333","6501000","淡水區"
"251016","179-VK","2018/09/04 20:09:24","新北市淡水區番子田18-7號","121.456471666667","25.229605","6501000","淡水區"
"251014","180-VK","2018/09/04 20:09:39","新北市淡水區石頭厝1號","121.458746666667","25.2355316666667","6501000","淡水區"
"251015","181-VK","2018/09/04 20:09:27","新北市淡水區埤島3-23號","121.447635","25.18971","6501000","淡水區"
"251010","413-VK","2018/09/04 20:09:19","新北市淡水區崁頂五路303號","121.424205","25.1977516666667","6501000","淡水區"
"251012","441-VK","2018/09/04 20:09:24","新北市淡水區淡金路三段266號","121.448935","25.2065933333333","6501000","淡水區"
"251007","442-VK","2018/09/04 20:09:20","新北市淡水區淡金路137號","121.457705","25.164655","6501000","淡水區"
"251008","443-VK","2018/09/04 20:09:21","新北市淡水區沙崙路145-1號","121.423433333333","25.1830833333333","6501000","淡水區"
"251001","559-UM","2018/09/04 20:09:31","新北市淡水區新市二路四段265號","121.445736666667","25.19247","6501000","淡水區"
"251006","561-UM","2018/09/04 20:09:37","新北市淡水區北新路141巷29號","121.448238333333","25.179595","6501000","淡水區"
"251009","575-R6","2018/09/04 20:09:21","新北市淡水區清水街1號","121.445143333333","25.170335","6501000","淡水區"
"251003","673-BX","2018/09/04 20:09:26","新北市淡水區中山北路二段189巷15弄29號","121.443416666667","25.1841716666667","6501000","淡水區"
"207003","550-UM","2018/09/04 20:09:26","新北市萬里區大鵬里萬里加投192號","121.642895","25.2157283333333","6502800","萬里區"
"207004","225-TW","2018/09/04 20:09:33","新北市萬里區北基里愛三街13號","121.681835","25.1766983333333","6502800","萬里區"
"252002","178-VK","2018/09/04 20:09:30","新北市三芝區中正路一段68號","121.503801666667","25.2577433333333","6502100","三芝區"
"252001","292-VK","2018/09/04 20:09:24","新北市三芝區公正街9號","121.499746666667","25.2575183333333","6502100","三芝區"
"237006","5529-G3","2018/09/04 20:09:35","新北市三峽區大利路18號","121.366838333333","24.9116883333333","6500900","三峽區"
"237016","649-BX","2018/09/04 20:09:32","新北市三峽區介壽路三段1號","121.395018333333","24.9361933333333","6500900","三峽區"
"237005","AKY-6261","2018/09/04 20:09:22","新北市三峽區三樹路98巷113號","121.382733333333","24.938725","6500900","三峽區"
"236070","105-UM","2018/09/04 20:09:21","新北市土城區中央路三段147巷2弄16號","121.431883333333","24.9648683333333","6501300","土城區"
"236042","107-UM","2018/09/04 20:09:25","新北市土城區學成路4號","121.453551666667","24.9864916666667","6501300","土城區"
"236079","166-UM","2018/09/04 20:09:35","新北市土城區中山路47號","121.42066","24.9628816666667","6501300","土城區"
"236030","253-BX","2018/09/04 20:09:31","新北市土城區中央路一段141號","121.44674","24.9879783333333","6501300","土城區"
"236026","269-VK","2018/09/04 20:09:17","新北市土城區中央路一段254號","121.444375","24.9844166666667","6501300","土城區"
"236014","270-VK","2018/09/04 20:09:32","新北市土城區德興街137號","121.45516","24.9916683333333","6501300","土城區"
"236038","271-VK","2018/09/04 20:09:28","新北市土城區延吉街373巷7號","121.463926666667","24.9834516666667","6501300","土城區"
"236021","401-BY","2018/09/04 20:09:23","新北市土城區和城路二段255巷140號","121.476146666667","24.9880483333333","6501300","土城區"
"236059","912-UM","2018/09/04 20:09:25","新北市土城區中央路二段223-17號","121.440461666667","24.972855","6501300","土城區"
"236049","913-UM","2018/09/04 20:09:32","新北市土城區清水路108號","121.457848333333","24.9815866666667","6501300","土城區"
"236063","915-UM","2018/09/04 20:09:34","新北市土城區金城路三段33巷21號","121.465118333333","24.9872833333333","6501300","土城區"
"236055","AAC-216","2018/09/04 20:09:21","新北市土城區中華路一段166號","121.441411666667","24.9830966666667","6501300","土城區"
"242034","AAC-296","2018/09/04 20:09:19","新北市新莊區中正路318巷16號","121.446433333333","25.035975","6500500","新莊區"
"242058","986-R7","2018/09/04 20:09:30","新北市新莊區八德街145號","121.423561666667","25.0197883333333","6500500","新莊區"
"242025","705-TV","2018/09/04 20:09:36","新北市新莊區五工路68巷9號","121.458511666667","25.063945","6500500","新莊區"
"242027","615-BX","2018/09/04 20:09:27","新北市新莊區幸福路700號","121.449956666667","25.049235","6500500","新莊區"
"242042","566-BX","2018/09/04 20:09:36","新北市新莊區新北大道七段219號","121.41372","25.03027","6500500","新莊區"
"242046","497-BY","2018/09/04 20:09:22","新北市新莊區裕民街103巷9號","121.418986666667","25.02292","6500500","新莊區"
"242051","441-UM","2018/09/04 20:09:33","新北市新莊區民安西路150巷23號","121.425221666667","25.016565","6500500","新莊區"
"242056","440-UM","2018/09/04 20:09:30","新北市新莊區新莊路649巷13弄12號","121.445513333333","25.0318233333333","6500500","新莊區"
"242037","415-TV","2018/09/04 20:09:28","新北市新莊區後港一路130巷11號","121.429673333333","25.0267333333333","6500500","新莊區"
"242007","413-TV","2018/09/04 20:09:28","新北市新莊區福壽街164巷20號","121.45927","25.0527916666667","6500500","新莊區"
"242044","400-BY","2018/09/04 20:09:32","桃園市龜山區萬壽路一段21巷8號","121.410491666667","25.0203333333333","6500500","新莊區"
"242023","362-BY","2018/09/04 20:09:32","新北市新莊區化成路636號","121.466111666667","25.0553166666667","6500500","新莊區"
"242061","353-BY","2018/09/04 20:09:37","新北市新莊區瓊林路100巷1號","121.44349","25.0264166666667","6500500","新莊區"
"242009","132-UY","2018/09/04 20:09:25","新北市新莊區昌盛街35巷4弄1號","121.454131666667","25.0506316666667","6500500","新莊區"
"242039","133-UY","2018/09/04 20:09:27","新北市新莊區龍安路503號","121.426178333333","25.018025","6500500","新莊區"
"242032","135-UY","2018/09/04 20:09:37","新北市新莊區中正路428號","121.440705","25.0336766666667","6500500","新莊區"
"242048","172-VK","2018/09/04 20:09:27","新北市新莊區四維路182巷4號","121.42196","25.0217166666667","6500500","新莊區"
"242017","175-VK","2018/09/04 20:09:36","新北市新莊區中港一街51號","121.45051","25.0454483333333","6500500","新莊區"
"242005","176-VK","2018/09/04 20:09:23","新北市新莊區頭興街5巷2號","121.462798333333","25.0535233333333","6500500","新莊區"
"242015","346-TH","2018/09/04 20:09:36","新北市新莊區中平路26巷41號","121.446746666667","25.043365","6500500","新莊區"
"242021","348-TH","2018/09/04 20:09:33","新北市新莊區中正路206號","121.449318333333","25.0354716666667","6500500","新莊區"
"242002","349-TH","2018/09/04 20:09:18","新北市新莊區中正路55-4號","121.461851666667","25.039725","6500500","新莊區"
"242019","350-TH","2018/09/04 20:09:22","新北市新莊區長青街33號","121.457005","25.0421816666667","6500500","新莊區"
"242013","351-TH","2018/09/04 20:09:31","新北市新莊區幸福路710巷1弄2號","121.449665","25.0496633333333","6500500","新莊區"
"221008","489-VK","2018/09/04 20:09:37","新北市汐止區忠三街9巷5號","121.62469","25.07881","6501100","汐止區"
"221036","130-UY","2018/09/04 20:09:27","新北市汐止區新台五路二段39號","121.663133333333","25.06635","6501100","汐止區"
"221015","131-UY","2018/09/04 20:09:29","新北市汐止區建成路37巷3號","121.66354","25.0727616666667","6501100","汐止區"
"221010","269-BY","2018/09/04 20:09:18","新北市汐止區八連路一段317號","121.639811666667","25.0859883333333","6501100","汐止區"
"221012","278-VK","2018/09/04 20:09:24","新北市汐止區汐平路二段51號","121.698958333333","25.06092","6501100","汐止區"
"221023","279-VK","2018/09/04 20:09:29","新北市汐止區明峰街310號","121.62506","25.06759","6501100","汐止區"
"221032","280-BY","2018/09/04 20:09:24","新北市汐止區弘道街8巷5弄2號","121.61726","25.04786","6501100","汐止區"
"221027","281-BY","2018/09/04 20:09:37","新北市汐止區光明街28號","121.660165","25.068565","6501100","汐止區"
"221033","297-VK","2018/09/04 20:09:26","新北市汐止區東勢街201巷129弄2號","121.633515","25.042815","6501100","汐止區"
"221029","298-VK","2018/09/04 19:55:09","新北市汐止區樟樹二路351-1號","121.643326666667","25.07382","6501100","汐止區"
"221021","299-VK","2018/09/04 20:09:31","新北市汐止區連興街120號","121.653758333333","25.06238","6501100","汐止區"
"221031","353-TW","2018/09/04 20:09:24","新北市汐止區原興路74巷1號","121.632021666667","25.0663116666667","6501100","汐止區"
"221035","622-UM","2018/09/04 20:09:29","新北市汐止區長江街79巷13號","121.657566666667","25.0728583333333","6501100","汐止區"
"221025","623-UM","2018/09/04 20:09:38","新北市汐止區秀峰路60號","121.659683333333","25.0649666666667","6501100","汐止區"
"221038","646-BX","2018/09/04 20:09:41","新北市汐止區大同路三段41號","121.666868333333","25.0764183333333","6501100","汐止區"
"221002","707-TV","2018/09/04 20:09:24","新北市汐止區福德一路201巷35號","121.635958333333","25.0635216666667","6501100","汐止區"
"221018","753-BX","2018/09/04 20:09:38","新北市汐止區茄福街35巷39號","121.673521666667","25.06613","6501100","汐止區"
"220101","245-BX","2018/09/04 20:09:35","新北市板橋區莒光路165巷32號","121.474418333333","25.0247166666667","6500100","板橋區"
"220089","280-UM","2018/09/04 20:09:32","新北市板橋區四維路253號","121.463521666667","25.027885","6500100","板橋區"
"220083","286-VK","2018/09/04 20:09:34","新北市板橋區僑中二街88巷30號","121.444915","25.00974","6500100","板橋區"
"220081","287-VK","2018/09/04 20:09:37","新北市板橋區僑中一街102巷7弄20號","121.44602","25.0130133333333","6500100","板橋區"
"220061","295-UM","2018/09/04 20:09:28","新北市板橋區中山路一段291-2號","121.470406666667","25.0141466666667","6500100","板橋區"
"242011","281-VK","2018/09/04 20:09:18","新北市新莊區中信街67巷6號","121.448611666667","25.0507633333333","6500500","新莊區"
"220092","307-R5","2018/09/04 20:09:33","新北市板橋區文化路一段37號","121.46048","25.012995","6500100","板橋區"
"220088","491-VK","2018/09/04 20:09:24","新北市板橋區民治街85號","121.479493333333","25.0321733333333","6500100","板橋區"
"220103","561-BX","2018/09/04 20:09:19","新北市板橋區陽明街54號","121.4652","25.02239","6500100","板橋區"
"220093","689-BX","2018/09/04 20:09:35","新北市板橋區長江路一段44號","121.45863","25.028945","6500100","板橋區"
"220102","KEA-2699","2018/09/04 20:09:34","新北市板橋區懷德街78巷21號","121.477895","25.0311516666667","6500100","板橋區"
"220055","827-TW","2018/09/04 20:09:27","新北市板橋區仁愛路75號","121.460966666667","24.99966","6500100","板橋區"
"220067","830-TW","2018/09/04 20:09:38","新北市板橋區中山路一段206巷9號","121.470066666667","25.013445","6500100","板橋區"
"220074","895-R6","2018/09/04 20:09:35","新北市板橋區館前西路105號","121.456975","25.0073866666667","6500100","板橋區"
"220097","AAC-210","2018/09/04 20:09:36","新北市板橋區光正街9巷22弄7號","121.462255","25.0165083333333","6500100","板橋區"
"220070","AAC-253","2018/09/04 20:09:30","新北市板橋區四川路二段245巷49號","121.452035","24.992415","6500100","板橋區"
"235068","KEA-2873","2018/09/04 20:09:18","新北市中和區福美路267號","121.498318333333","25.0051283333333","6500300","中和區"
