"lineid","car","time","location","longitude","latitude","cityid","cityname"
"234081","298-R6","2018/09/04 20:39:32","新北市永和區永貞路82號","121.520118333333","25.0051016666667","6500400","永和區"
"234064","337-UY","2018/09/04 20:39:40","新北市永和區環河西路二段215號","121.501268333333","25.0105016666667","6500400","永和區"
"234030","746-BX","2018/09/04 20:39:35","新北市板橋區民生路二段89-1號","121.471463333333","25.0182016666667","6500400","永和區"
"234061","AAD-866","2018/09/04 20:39:38","新北市永和區秀朗路一段108巷6號","121.516305","25.003785","6500400","永和區"
"234042","862-TW","2018/09/04 20:39:38","新北市永和區安樂路348號","121.514448333333","25.0064433333333","6500400","永和區"
"234050","863-TW","2018/09/04 20:39:38","新北市永和區保安路75號","121.50865","25.01497","6500400","永和區"
"249001","173-UM","2018/09/04 20:39:32","新北市八里區中山路三段323號","121.3777","25.138855","6502300","八里區"
"249004","303-UY","2018/09/04 20:39:29","新北市八里區中山路一段286號","121.413808333333","25.1596866666667","6502300","八里區"
"249003","593-UM","2018/09/04 20:39:22","新北市八里區中山路三段382號","121.368546666667","25.136175","6502300","八里區"
"234023","9380-KE","2018/09/04 20:39:26","新北市永和區竹林路25巷21號","121.518175","25.0150016666667","6500400","永和區"
"234077","969-R7","2018/09/04 20:39:27","新北市五股區中興路三段2巷10號","121.448028333333","25.0838833333333","6500400","永和區"
"234074","AAC-211","2018/09/04 20:39:26","新北市永和區竹林路119巷22弄3號","121.521493333333","25.011555","6500400","永和區"
"244023","483-VK","2018/09/04 20:39:36","新北市林口區粉寮路二段88巷100-12號","121.409505","25.0902316666667","6501700","林口區"
"243009","297-R6","2018/09/04 20:39:26","新北市泰山區泰林路二段522巷48號","121.42346","25.0642283333333","6501600","泰山區"
"243016","KEA-2801","2018/09/04 20:39:36","新北市泰山區文程路111號","121.430525","25.0482283333333","6501600","泰山區"
"243011","KEA-2215","2018/09/04 20:39:36","新北市泰山區明志路二段137號","121.427605","25.0505633333333","6501600","泰山區"
"243010","KEA-2216","2018/09/04 20:39:20","新北市泰山區新生路33-5號","121.427735","25.0456033333333","6501600","泰山區"
"243012","646-TV","2018/09/04 20:39:33","新北市泰山區橫窠雅20-3號","121.412478333333","25.068985","6501600","泰山區"
"222003","436-BY","2018/09/04 20:39:34","新北市深坑區阿柔洋3-1號","121.61294","25.0000183333333","6501800","深坑區"
"222002","659-BX","2018/09/04 20:39:32","新北市深坑區萬福路45號","121.59947","25.0068416666667","6501800","深坑區"
"231041","002-UM","2018/09/04 20:39:31","新北市新店區中正路695巷2號","121.533936666667","24.9905433333333","6500600","新店區"
"231059","046-UY","2018/09/04 20:39:30","新北市新店區僑信路111號","121.500555","24.9463166666667","6500600","新店區"
"231040","047-UY","2018/09/04 20:39:39","新北市新店區中正路268號","121.538991666667","24.973565","6500600","新店區"
"231044","106-UY","2018/09/04 20:39:27","新北市新店區建國路257號","121.53738","24.98323","6500600","新店區"
"231046","107-UY","2018/09/04 20:39:23","新北市新店區安一路一段1-1號","121.519558333333","24.96133","6500600","新店區"
"231053","108-UY","2018/09/04 20:39:27","新北市新店區廣興路7-10號","121.54565","24.9116916666667","6500600","新店區"
"231064","110-UY","2018/09/04 20:39:25","新北市新店區安和路三段169號","121.516023333333","24.9859933333333","6500600","新店區"
"231048","187-VK","2018/09/04 20:39:33","新北市新店區寶慶街5號","121.54425","24.9866533333333","6500600","新店區"
"231062","188-VK","2018/09/04 20:39:33","新北市新店區安泰路60巷55弄39號","121.484473333333","24.9455816666667","6500600","新店區"
"231054","KEA-2219","2018/09/04 20:39:28","新北市新店區行政街45號","121.543048333333","24.96561","6500600","新店區"
"231057","256-BX","2018/09/04 20:39:21","新北市新店區花園二路一段9-6號","121.556338333333","24.93285","6500600","新店區"
"231042","268-BY","2018/09/04 20:39:22","新北市新店區寶橋路230號","121.551428333333","24.9787566666667","6500600","新店區"
"231051","278-BY","2018/09/04 20:39:37","新北市新店區溪園路511號","121.523801666667","24.9771733333333","6500600","新店區"
"231050","AAD-862","2018/09/04 20:39:27","新北市新店區中正路263-1號","121.53858","24.9736833333333","6500600","新店區"
"231058","3713-VJ","2018/09/04 20:39:26","新北市新店區平等街48巷8號","121.535805","24.9730916666667","6500600","新店區"
"231066","4716-K9","2018/09/04 20:39:34","新北市新店區安興路112號","121.514645","24.9776316666667","6500600","新店區"
"231056","4715-K9","2018/09/04 20:39:42","新北市新店區中央七街61巷3號","121.528371666667","24.9765833333333","6500600","新店區"
"231067","4772-VM","2018/09/04 20:39:37","新北市新店區安華路28-1號","121.519838333333","24.9607983333333","6500600","新店區"
"231065","512-UM","2018/09/04 20:39:30","新北市新店區安祥路102巷111號","121.48656","24.9642133333333","6500600","新店區"
"231049","513-UM","2018/09/04 20:39:27","新北市新店區永業路81巷1弄1號","121.529636666667","24.949455","6500600","新店區"
"231063","616-UM","2018/09/04 20:39:24","新北市新店區玫瑰路14號","121.494573333333","24.950475","6500600","新店區"
"231045","617-UM","2018/09/04 20:39:28","新北市新店區長春路56號","121.550838333333","24.957865","6500600","新店區"
"231061","619-UM","2018/09/04 20:39:26","新北市新店區新和街33號","121.519198333333","24.9848766666667","6500600","新店區"
"231068","718-UY","2018/09/04 20:39:33","新北市新店區寶慶街37號","121.54309","24.9866183333333","6500600","新店區"
"231060","897-TW","2018/09/04 20:39:25","新北市新店區安康路三段738號","121.47388","24.9419716666667","6500600","新店區"
"231043","899-TW","2018/09/04 20:39:40","新北市新店區建國路2號","121.53979","24.9732866666667","6500600","新店區"
"241011","013-R5","2018/09/04 20:39:25","新北市三重區龍濱路285號","121.501096666667","25.0733566666667","6500200","三重區"
"241028","022-UY","2018/09/04 20:39:25","新北市三重區光興街91號","121.497355","25.05996","6500200","三重區"
"241008","059-VK","2018/09/04 20:39:20","新北市三重區下竹圍街91號","121.481131666667","25.0747966666667","6500200","三重區"
"241022","060-VK","2018/09/04 20:39:36","新北市三重區中正北路20巷12號","121.488003333333","25.0624633333333","6500200","三重區"
"241015","062-VK","2018/09/04 20:39:20","新北市三重區文化北路103號","121.497856666667","25.0683883333333","6500200","三重區"
"241017","063-VK","2018/09/04 20:39:37","新北市三重區大同北路263號","121.490871666667","25.067145","6500200","三重區"
"241024","065-VK","2018/09/04 20:39:35","新北市三重區忠孝路三段51號","121.480911666667","25.0666966666667","6500200","三重區"
"241026","066-VK","2018/09/04 20:39:26","新北市三重區福德南路24巷2-3號","121.503195","25.0632166666667","6500200","三重區"
"241002","090-VK","2018/09/04 20:39:36","新北市三重區仁義街169號","121.496903333333","25.0814283333333","6500200","三重區"
"241016","266-UM","2018/09/04 20:39:21","新北市三重區長壽西街89號","121.49504","25.0669783333333","6500200","三重區"
"241009","267-UM","2018/09/04 20:39:17","新北市三重區碧華街57號","121.484741666667","25.0813116666667","6500200","三重區"
"241018","268-UM","2018/09/04 20:39:29","新北市三重區重陽路四段5號","121.490935","25.0689016666667","6500200","三重區"
"241032","269-UM","2018/09/04 20:39:39","新北市三重區重陽路一段120巷46號","121.485091666667","25.06016","6500200","三重區"
"241013","270-UM","2018/09/04 20:39:27","新北市三重區仁愛街118號","121.495158333333","25.0745033333333","6500200","三重區"
"241025","271-UM","2018/09/04 20:39:23","新北市三重區頂崁街192巷23號","121.475785","25.0659216666667","6500200","三重區"
"241007","398-BY","2018/09/04 20:39:32","新北市三重區自強路四段14號","121.488481666667","25.076315","6500200","三重區"
"241035","KEA-2210","2018/09/04 20:39:40","新北市三重區正義北路279號","121.49515","25.070295","6500200","三重區"
"241004","475-VK","2018/09/04 20:39:35","新北市三重區仁愛街415號","121.490668333333","25.0813466666667","6500200","三重區"
"241020","478-VK","2018/09/04 20:39:38","新北市三重區忠孝路一段87號","121.489825","25.072105","6500200","三重區"
"241030","480-VK","2018/09/04 20:39:21","新北市三重區成功路73巷20號","121.489435","25.0519833333333","6500200","三重區"
"241014","543-UM","2018/09/04 20:39:25","新北市三重區三和路二段119號","121.498848333333","25.0689483333333","6500200","三重區"
"241023","545-UM","2018/09/04 20:39:32","新北市三重區自由街37巷1號","121.478776666667","25.0670683333333","6500200","三重區"
"241001","547-UM","2018/09/04 20:39:21","新北市三重區自強路三段110巷23號","121.48601","25.0746383333333","6500200","三重區"
"241019","KEA-2593","2018/09/04 20:39:24","新北市三重區忠孝路一段30巷58號","121.490485","25.0711883333333","6500200","三重區"
"241006","AAD-863","2018/09/04 20:39:26","新北市三重區車路頭街139巷14號","121.484313333333","25.0762783333333","6500200","三重區"
"241005","887-TS","2018/09/04 20:39:20","新北市三重區碧華街452號","121.49328","25.0859983333333","6500200","三重區"
"241012","941-UM","2018/09/04 20:39:22","新北市三重區秀江街28號","121.50216","25.0729566666667","6500200","三重區"
"241029","942-UM","2018/09/04 20:39:24","新北市三重區集美街126巷27號","121.490123333333","25.0538816666667","6500200","三重區"
"241033","AAC-255","2018/09/04 20:39:29","新北市三重區光復路二段87巷59號","121.475335","25.0580833333333","6500200","三重區"
"247012","KEA-2869","2018/09/04 20:39:24","新北市蘆洲區集賢路224巷46弄10-3號","121.4818","25.08766","6501400","蘆洲區"
"235069","4980-A6","2018/09/04 20:39:31","新北市中和區新生街214號","121.483758333333","24.9987366666667","6500300","中和區"
"247002","893-R6","2018/09/04 20:39:22","新北市蘆洲區長榮路357號","121.45908","25.0882633333333","6501400","蘆洲區"
"247016","546-UM","2018/09/04 20:39:27","新北市蘆洲區中正路16號","121.471488333333","25.081975","6501400","蘆洲區"
"247024","500-BY","2018/09/04 20:39:30","新北市蘆洲區長樂路159號","121.462045","25.0881716666667","6501400","蘆洲區"
"247014","339-TH","2018/09/04 20:39:31","新北市蘆洲區復興路56-1號","121.473213333333","25.0855083333333","6501400","蘆洲區"
"247006","337-TH","2018/09/04 20:39:35","新北市蘆洲區和平路139號","121.467156666667","25.0803233333333","6501400","蘆洲區"
"247008","336-TH","2018/09/04 20:39:41","新北市蘆洲區重陽街2號","121.480511666667","25.0812333333333","6501400","蘆洲區"
"247020","057-VK","2018/09/04 20:39:30","新北市蘆洲區民族路424-1號","121.473786666667","25.0918316666667","6501400","蘆洲區"
"247004","002-UY","2018/09/04 20:39:23","新北市蘆洲區長安街297號","121.458053333333","25.084905","6501400","蘆洲區"
"247022","001-UY","2018/09/04 20:39:18","新北市蘆洲區中正路243巷7弄40號","121.467391666667","25.0859266666667","6501400","蘆洲區"
"222001","KEA-2212","2018/09/04 20:39:38","新北市深坑區北深路三段234號","121.600653333333","25.00395","6501800","深坑區"
"251002","012-UM","2018/09/04 20:39:24","新北市淡水區中正路38-1號","121.443751666667","25.169255","6501000","淡水區"
"251013","KEA-2871","2018/09/04 20:39:29","新北市淡水區下圭柔山28巷3號","121.457161666667","25.2042866666667","6501000","淡水區"
"251016","179-VK","2018/09/04 20:39:24","新北市淡水區後洲子8-2號","121.449658333333","25.2240183333333","6501000","淡水區"
"251014","180-VK","2018/09/04 20:39:39","新北市淡水區公埔子28-2號","121.465681666667","25.2328233333333","6501000","淡水區"
"251015","181-VK","2018/09/04 20:39:20","新北市淡水區淡金路四段542巷17號","121.452741666667","25.22709","6501000","淡水區"
"251010","413-VK","2018/09/04 20:39:19","新北市淡水區沙崙路181巷15號","121.423976666667","25.184375","6501000","淡水區"
"251012","441-VK","2018/09/04 20:39:23","新北市淡水區興仁路108號","121.451656666667","25.21815","6501000","淡水區"
"251007","442-VK","2018/09/04 20:39:20","新北市淡水區忠愛街3-2號","121.458946666667","25.1723616666667","6501000","淡水區"
"251001","559-UM","2018/09/04 20:39:31","新北市淡水區淡金路一段69號","121.458851666667","25.1731083333333","6501000","淡水區"
"251006","561-UM","2018/09/04 20:39:37","新北市淡水區商工路188號","121.450235","25.1884016666667","6501000","淡水區"
"251009","575-R6","2018/09/04 20:39:26","新北市淡水區民權路187巷17號","121.460443333333","25.1334933333333","6501000","淡水區"
"251011","650-BX","2018/09/04 20:39:38","新北市淡水區新市一路一段361號","121.436341666667","25.1861883333333","6501000","淡水區"
"251003","673-BX","2018/09/04 20:39:26","新北市淡水區新民街152巷6弄16號","121.438533333333","25.1783983333333","6501000","淡水區"
"252002","178-VK","2018/09/04 20:39:30","新北市三芝區淡金路二段47-2號","121.503678333333","25.26054","6502100","三芝區"
"252001","292-VK","2018/09/04 20:39:24","新北市三芝區中山路一段77號","121.501301666667","25.2568516666667","6502100","三芝區"
"236042","107-UM","2018/09/04 20:39:25","新北市樹林區中山路三段214號","121.380065","24.9678983333333","6501300","土城區"
"242034","AAC-296","2018/09/04 20:39:32","新北市新莊區建中街127號","121.445378333333","25.0364433333333","6500500","新莊區"
"242058","986-R7","2018/09/04 20:39:30","新北市新莊區四維路95號","121.4234","25.0237866666667","6500500","新莊區"
"242054","751-BX","2018/09/04 20:39:34","新北市新莊區西盛街324巷10號","121.427603333333","25.014805","6500500","新莊區"
"242025","705-TV","2018/09/04 20:37:36","新北市三重區五谷王南街46巷37號","121.475688333333","25.04531","6500500","新莊區"
"242027","615-BX","2018/09/04 20:39:27","新北市新莊區新莊路141號","121.457008333333","25.0356683333333","6500500","新莊區"
"242042","566-BX","2018/09/04 20:39:36","新北市新莊區天祥街47巷12號","121.416196666667","25.0280783333333","6500500","新莊區"
"242046","497-BY","2018/09/04 20:39:22","新北市新莊區龍安路108號","121.418463333333","25.0204766666667","6500500","新莊區"
"242051","441-UM","2018/09/04 20:39:33","新北市新莊區西盛街258巷2號","121.427891666667","25.0159133333333","6500500","新莊區"
"242056","440-UM","2018/09/04 20:39:27","新北市新莊區瓊泰路2巷10號","121.445033333333","25.0292016666667","6500500","新莊區"
"242037","415-TV","2018/09/04 20:39:28","新北市新莊區建安街10號","121.428576666667","25.0266283333333","6500500","新莊區"
"242007","413-TV","2018/09/04 20:39:26","新北市新莊區福壽街56巷5號","121.458691666667","25.04885","6500500","新莊區"
"242044","400-BY","2018/09/04 20:39:32","新北市新莊區中正路新生巷85弄1號","121.4171","25.0217616666667","6500500","新莊區"
"242023","362-BY","2018/09/04 20:39:28","新北市新莊區復興路三段50號","121.461776666667","25.0444083333333","6500500","新莊區"
"242061","353-BY","2018/09/04 20:39:37","新北市新莊區新樹路258巷3號","121.432136666667","25.0155983333333","6500500","新莊區"
"242009","132-UY","2018/09/04 20:39:30","新北市新莊區昌隆街104號","121.456741666667","25.05092","6500500","新莊區"
"242039","133-UY","2018/09/04 20:39:27","新北市新莊區瓊林路204-13號","121.437448333333","25.0213016666667","6500500","新莊區"
"242032","135-UY","2018/09/04 20:39:30","新北市新莊區中正路535-11號","121.43753","25.033005","6500500","新莊區"
"242048","172-VK","2018/09/04 20:39:27","新北市新莊區中正路603號","121.432721666667","25.0320433333333","6500500","新莊區"
"242017","175-VK","2018/09/04 20:39:36","新北市新莊區新泰路368號","121.444475","25.0425716666667","6500500","新莊區"
"242015","346-TH","2018/09/04 20:39:42","新北市新莊區中和街1號","121.448383333333","25.04287","6500500","新莊區"
"242002","349-TH","2018/09/04 20:39:34","新北市新莊區中港路22號","121.45504","25.03724","6500500","新莊區"
"242019","350-TH","2018/09/04 20:39:22","新北市新莊區銘德街140號","121.454645","25.042845","6500500","新莊區"
"242013","351-TH","2018/09/04 20:39:38","新北市新莊區中和街169號","121.447531666667","25.0503433333333","6500500","新莊區"
"221008","489-VK","2018/09/04 20:39:37","新北市汐止區康寧街511號","121.633088333333","25.0686583333333","6501100","汐止區"
"221036","130-UY","2018/09/04 20:39:27","新北市汐止區新昌路85號","121.663893333333","25.069215","6501100","汐止區"
"221015","131-UY","2018/09/04 20:39:29","新北市汐止區建成路26號","121.664466666667","25.072615","6501100","汐止區"
"221023","279-VK","2018/09/04 20:39:30","新北市汐止區明峰街11號","121.635186666667","25.07134","6501100","汐止區"
"221027","281-BY","2018/09/04 20:39:37","新北市汐止區大同路二段563-1號","121.662808333333","25.0699083333333","6501100","汐止區"
"221033","297-VK","2018/09/04 20:39:26","新北市汐止區合順街18巷8弄5號","121.620298333333","25.0419416666667","6501100","汐止區"
"221029","298-VK","2018/09/04 20:27:29","新北市汐止區樟樹二路106巷8號","121.640051666667","25.0641966666667","6501100","汐止區"
"221021","299-VK","2018/09/04 20:39:31","新北市汐止區水源路一段282巷3號","121.65396","25.0582016666667","6501100","汐止區"
"221031","353-TW","2018/09/04 20:39:23","新北市汐止區工建路161-5號","121.637378333333","25.063055","6501100","汐止區"
"221035","622-UM","2018/09/04 20:39:29","新北市汐止區長江街101-5號","121.658743333333","25.0732266666667","6501100","汐止區"
"221025","623-UM","2018/09/04 20:39:38","新北市汐止區水源路二段189號","121.65784","25.0528716666667","6501100","汐止區"
"221038","646-BX","2018/09/04 20:39:01","新北市汐止區汐萬路一段158號","121.652711666667","25.071365","6501100","汐止區"
"221002","707-TV","2018/09/04 20:39:24","新北市汐止區福德二路167號","121.63094","25.065175","6501100","汐止區"
"221018","753-BX","2018/09/04 20:39:18","新北市汐止區茄苳路109號","121.66793","25.071275","6501100","汐止區"
"220101","245-BX","2018/09/04 20:39:35","新北市八里區商港路120號","121.392885","25.150115","6500100","板橋區"
"220083","286-VK","2018/09/04 20:39:34","新北市板橋區僑中二街108巷11號","121.445236666667","25.0072516666667","6500100","板橋區"
"242011","281-VK","2018/09/04 20:39:33","新北市新莊區中榮街122巷3號","121.446533333333","25.05322","6500500","新莊區"
"220103","561-BX","2018/09/04 20:39:19","新北市板橋區漢生東路53巷14-1號","121.46651","25.0171383333333","6500100","板橋區"
"220070","AAC-253","2018/09/04 20:39:30","新北市八里區商港路88-3號","121.394465","25.147675","6500100","板橋區"
