"lineid","car","time","location","longitude","latitude","cityid","cityname"
"234077","969-R7","2018/09/04 20:59:27","新北市八里區中山路三段409號","121.368535","25.1349533333333","6500400","永和區"
"231059","046-UY","2018/09/04 20:59:30","新北市新店區僑信路132巷1號","121.500716666667","24.94578","6500600","新店區"
"231040","047-UY","2018/09/04 20:59:19","新北市新店區中正路156號","121.54155","24.97183","6500600","新店區"
"231046","107-UY","2018/09/04 20:39:23","新北市新店區安一路一段1-1號","121.519558333333","24.96133","6500600","新店區"
"231053","108-UY","2018/09/04 20:59:27","新北市新店區北宜路一段2號","121.53802","24.958885","6500600","新店區"
"231064","110-UY","2018/09/04 20:59:34","新北市新店區安民街251巷10弄1號","121.516778333333","24.9728016666667","6500600","新店區"
"231048","187-VK","2018/09/04 20:59:33","新北市新店區寶元路一段109號","121.545696666667","24.98313","6500600","新店區"
"231062","188-VK","2018/09/04 20:59:33","新北市新店區裕合街74號","121.490276666667","24.948525","6500600","新店區"
"231054","KEA-2219","2018/09/04 20:59:28","新北市新店區中正路75巷71號","121.543205","24.9688133333333","6500600","新店區"
"231042","268-BY","2018/09/04 20:59:22","新北市新店區中興路二段233-1號","121.547488333333","24.975255","6500600","新店區"
"231051","278-BY","2018/09/04 20:59:37","新北市新店區中正路663巷1弄34-6號","121.532315","24.989665","6500600","新店區"
"231050","AAD-862","2018/09/04 20:59:27","新北市新店區三民路77號","121.536","24.9715366666667","6500600","新店區"
"231066","4716-K9","2018/09/04 20:59:34","新北市新店區吉安街10號","121.516818333333","24.9658066666667","6500600","新店區"
"231067","4772-VM","2018/09/04 20:59:37","新北市新店區安德街130巷36號","121.507485","24.9603016666667","6500600","新店區"
"231065","512-UM","2018/09/04 20:59:30","新北市新店區安祥路69巷83號","121.483133333333","24.9589416666667","6500600","新店區"
"231063","616-UM","2018/09/04 20:59:39","新北市新店區玫瑰路58巷1號","121.495486666667","24.94657","6500600","新店區"
"231061","619-UM","2018/09/04 20:59:27","新北市新店區永安街109巷11號","121.521328333333","24.9859433333333","6500600","新店區"
"231068","718-UY","2018/09/04 20:59:33","新北市新店區寶元路二段37號","121.546933333333","24.9814916666667","6500600","新店區"
"231060","897-TW","2018/09/04 20:59:25","新北市新店區安康路三段172號","121.489531666667","24.9518016666667","6500600","新店區"
"231043","899-TW","2018/09/04 20:59:40","新北市新店區中央路200號","121.530525","24.97414","6500600","新店區"
"241011","013-R5","2018/09/04 20:59:25","新北市三重區秀江街117號","121.499778333333","25.0722233333333","6500200","三重區"
"241028","022-UY","2018/09/04 20:59:25","新北市三重區重新路三段2號","121.495503333333","25.0616233333333","6500200","三重區"
"241008","059-VK","2018/09/04 20:59:39","新北市三重區力行路二段162巷3號","121.482768333333","25.0766","6500200","三重區"
"241022","060-VK","2018/09/04 20:59:36","新北市三重區中正北路20巷10號","121.488081666667","25.062595","6500200","三重區"
"241015","062-VK","2018/09/04 20:59:20","新北市三重區福德北路46號","121.502026666667","25.0654666666667","6500200","三重區"
"241017","063-VK","2018/09/04 20:59:37","新北市三重區國隆路31號","121.492288333333","25.064535","6500200","三重區"
"241024","065-VK","2018/09/04 20:59:23","新北市三重區國道路一段58巷20號","121.481291666667","25.07211","6500200","三重區"
"241026","066-VK","2018/09/04 20:59:26","新北市三重區文化南路36號","121.500278333333","25.061425","6500200","三重區"
"241002","090-VK","2018/09/04 20:59:36","新北市三重區仁義街143巷2號","121.49731","25.0806433333333","6500200","三重區"
"241003","091-VK","2018/09/04 20:59:19","新北市三重區進安街198號","121.493856666667","25.0859816666667","6500200","三重區"
"241016","266-UM","2018/09/04 20:59:21","新北市三重區正義北路87號","121.497108333333","25.0650916666667","6500200","三重區"
"241009","267-UM","2018/09/04 20:59:38","新北市三重區三和路四段165-5號","121.48322","25.07877","6500200","三重區"
"241018","268-UM","2018/09/04 20:59:29","新北市三重區雙園街134號","121.493923333333","25.0672883333333","6500200","三重區"
"241032","269-UM","2018/09/04 20:59:19","新北市三重區興華街133號","121.48314","25.0599516666667","6500200","三重區"
"241013","270-UM","2018/09/04 20:59:27","新北市三重區仁賢街12-1號","121.495666666667","25.0749283333333","6500200","三重區"
"241025","271-UM","2018/09/04 20:59:23","新北市三重區貴陽街16號","121.48405","25.0618116666667","6500200","三重區"
"241007","398-BY","2018/09/04 20:59:32","新北市三重區慈愛街45號","121.485818333333","25.0790216666667","6500200","三重區"
"241004","475-VK","2018/09/04 20:59:35","新北市三重區仁愛街423-1號","121.490381666667","25.08145","6500200","三重區"
"241020","478-VK","2018/09/04 20:59:31","新北市三重區忠孝路二段35號","121.485965","25.071065","6500200","三重區"
"241030","480-VK","2018/09/04 20:59:21","新北市三重區環河南路220-8號","121.493358333333","25.0527133333333","6500200","三重區"
"241014","543-UM","2018/09/04 20:59:25","新北市三重區長榮路75號","121.502566666667","25.0691283333333","6500200","三重區"
"241023","545-UM","2018/09/04 20:59:32","新北市三重區洛陽街45巷15號","121.48234","25.0637666666667","6500200","三重區"
"241001","547-UM","2018/09/04 20:59:21","新北市三重區三和路四段140號","121.48868","25.07554","6500200","三重區"
"241019","KEA-2593","2018/09/04 20:59:24","新北市三重區自強路二段74巷19號","121.488008333333","25.0698783333333","6500200","三重區"
"241006","AAD-863","2018/09/04 20:59:28","新北市三重區永福街46-4號","121.481773333333","25.0780966666667","6500200","三重區"
"241005","887-TS","2018/09/04 20:59:20","新北市三重區五華街166號","121.489243333333","25.0859516666667","6500200","三重區"
"241012","941-UM","2018/09/04 20:59:22","新北市三重區仁信街27號","121.501301666667","25.0755816666667","6500200","三重區"
"241029","942-UM","2018/09/04 20:59:24","新北市三重區正義南路111號","121.498308333333","25.0586166666667","6500200","三重區"
"241033","AAC-255","2018/09/04 20:59:29","新北市三重區光復路二段1號","121.47239","25.0533216666667","6500200","三重區"
"247012","KEA-2869","2018/09/04 20:59:24","新北市蘆洲區民權路5號","121.476541666667","25.08568","6501400","蘆洲區"
"247002","893-R6","2018/09/04 20:59:38","新北市蘆洲區永樂街38巷29號","121.458183333333","25.0892183333333","6501400","蘆洲區"
"247016","546-UM","2018/09/04 20:59:27","新北市蘆洲區正和街76號","121.468613333333","25.0810783333333","6501400","蘆洲區"
"247024","500-BY","2018/09/04 20:59:30","新北市蘆洲區長興路213號","121.46119","25.086365","6501400","蘆洲區"
"247014","339-TH","2018/09/04 20:59:31","新北市蘆洲區得勝街111號","121.472713333333","25.0834083333333","6501400","蘆洲區"
"247006","337-TH","2018/09/04 20:59:35","新北市蘆洲區永安南路二段16巷8號","121.467855","25.077345","6501400","蘆洲區"
"247008","336-TH","2018/09/04 20:59:22","新北市蘆洲區民生街76號","121.47275","25.0791116666667","6501400","蘆洲區"
"247020","057-VK","2018/09/04 20:59:30","新北市蘆洲區民族路488號","121.471145","25.09134","6501400","蘆洲區"
"247010","056-VK","2018/09/04 20:59:39","新北市蘆洲區鷺江街87號","121.476955","25.08369","6501400","蘆洲區"
"247018","007-UY","2018/09/04 20:59:23","新北市蘆洲區民權路87-2號","121.473078333333","25.0887633333333","6501400","蘆洲區"
"247004","002-UY","2018/09/04 20:59:23","新北市蘆洲區永安南路二段258號","121.459533333333","25.0804183333333","6501400","蘆洲區"
"247022","001-UY","2018/09/04 20:59:18","新北市蘆洲區水湳街97號","121.47015","25.090385","6501400","蘆洲區"
"251005","010-UM","2018/09/04 20:59:30","新北市淡水區學府路51巷2弄9號","121.447766666667","25.1698133333333","6501000","淡水區"
"251002","012-UM","2018/09/04 20:59:24","新北市淡水區英專路77號","121.44568","25.17156","6501000","淡水區"
"251013","KEA-2871","2018/09/04 20:59:28","新北市淡水區行忠路252號","121.458105","25.200445","6501000","淡水區"
"251016","179-VK","2018/09/04 20:59:24","新北市淡水區牛埔子11-1號","121.450193333333","25.21844","6501000","淡水區"
"251014","180-VK","2018/09/04 20:59:39","新北市淡水區溪口28號","121.45515","25.2367116666667","6501000","淡水區"
"251015","181-VK","2018/09/04 20:59:40","新北市淡水區淡金路四段542巷17號","121.452746666667","25.2270783333333","6501000","淡水區"
"251010","413-VK","2018/09/04 20:59:19","新北市淡水區中正路一段116-3號","121.423916666667","25.178755","6501000","淡水區"
"251012","441-VK","2018/09/04 20:59:23","新北市淡水區淡金路五段116-1號","121.45655","25.23692","6501000","淡水區"
"251007","442-VK","2018/09/04 20:59:40","新北市淡水區仁愛街2巷26號","121.446688333333","25.1713933333333","6501000","淡水區"
"251001","559-UM","2018/09/04 20:59:31","新北市淡水區淡金路二段145號","121.450175","25.1825533333333","6501000","淡水區"
"251009","575-R6","2018/09/04 20:59:26","新北市淡水區民族路112巷70號","121.46173","25.1339366666667","6501000","淡水區"
"251011","650-BX","2018/09/04 20:59:38","新北市淡水區新民街322巷1號","121.4353","25.1838216666667","6501000","淡水區"
"251003","673-BX","2018/09/04 20:59:37","新北市淡水區新春街137號","121.441958333333","25.1818133333333","6501000","淡水區"
"242025","705-TV","2018/09/04 20:59:36","新北市樹林區中山路三段214號","121.379726666667","24.96767","6500500","新莊區"
"242051","441-UM","2018/09/04 20:59:33","新北市新莊區新樹路559號","121.432843333333","25.007385","6500500","新莊區"
"242007","413-TV","2018/09/04 20:59:26","新北市板橋區金門街121巷62-1號","121.435071666667","24.9912733333333","6500500","新莊區"
"242044","400-BY","2018/09/04 20:59:32","新北市樹林區中正路99號","121.425673333333","25.00071","6500500","新莊區"
"220101","245-BX","2018/09/04 20:57:35","新北市林口區太平里11鄰38號","121.361958333333","25.1297566666667","6500100","板橋區"
"220070","AAC-253","2018/09/04 20:59:30","新北市林口區太平里180號","121.368195","25.1345983333333","6500100","板橋區"
