"lineid","car","time","location","longitude","latitude","cityid","cityname"
"234077","969-R7","2018/09/04 21:39:27","新北市永和區環河東路二段58號","121.523555","25.0113116666667","6500400","永和區"
"241028","022-UY","2018/09/04 21:39:25","新北市三重區中正北路560巷38號","121.471278333333","25.06792","6500200","三重區"
"241005","887-TS","2018/09/04 21:39:20","新北市三重區碧華街1號","121.483466666667","25.0811866666667","6500200","三重區"
"247012","KEA-2869","2018/09/04 21:39:24","新北市五股區中直路21號","121.421285","25.1119966666667","6501400","蘆洲區"
"251004","009-UM","2018/09/04 21:39:39","新北市淡水區民生路7號","121.460476666667","25.1378533333333","6501000","淡水區"
"251005","010-UM","2018/09/04 21:39:30","新北市淡水區鄧公路19-1號","121.45028","25.1699583333333","6501000","淡水區"
"251002","012-UM","2018/09/04 21:39:24","新北市淡水區學府路173號","121.44639","25.17438","6501000","淡水區"
"251016","179-VK","2018/09/04 21:39:23","新北市淡水區中山北路三段165號","121.44537","25.1968116666667","6501000","淡水區"
"251014","180-VK","2018/09/04 21:39:39","新北市淡水區興仁路103巷82號","121.450195","25.2156816666667","6501000","淡水區"
"251010","413-VK","2018/09/04 21:39:39","新北市淡水區沙崙路232號","121.425558333333","25.1846133333333","6501000","淡水區"
"251012","441-VK","2018/09/04 21:39:23","新北市淡水區淡金路四段203號","121.451608333333","25.2219716666667","6501000","淡水區"
"251007","442-VK","2018/09/04 21:39:20","新北市淡水區水源街二段194號","121.456811666667","25.1760366666667","6501000","淡水區"
"251008","443-VK","2018/09/04 21:39:40","新北市淡水區水源街二段38號","121.450175","25.173745","6501000","淡水區"
"251001","559-UM","2018/09/04 21:39:31","新北市淡水區新市二路三段152號","121.435373333333","25.1941016666667","6501000","淡水區"
"251006","561-UM","2018/09/04 21:39:37","新北市淡水區中正路11巷3號","121.437796666667","25.1707783333333","6501000","淡水區"
"251009","575-R6","2018/09/04 21:39:40","新北市淡水區民生路52巷22弄5號","121.462651666667","25.1374833333333","6501000","淡水區"
"251011","650-BX","2018/09/04 21:39:37","新北市淡水區新民街320號","121.435236666667","25.1833766666667","6501000","淡水區"
"251003","673-BX","2018/09/04 21:39:06","新北市淡水區新春街44號","121.4374","25.1815983333333","6501000","淡水區"
"220070","AAC-253","2018/09/04 21:39:30","新北市板橋區華東街1-9號","121.448266666667","24.99487","6500100","板橋區"
