"lineid","car","time","location","longitude","latitude","cityid","cityname"
"231046","107-UY","2018/09/04 21:56:13","新北市新店區安一路一段1-1號","121.51939","24.96115","6500600","新店區"
"247012","KEA-2869","2018/09/04 22:09:24","新北市五股區芳洲八路98號","121.447616666667","25.08689","6501400","蘆洲區"
"251004","009-UM","2018/09/04 22:09:39","新北市淡水區民族路33號","121.462231666667","25.1357216666667","6501000","淡水區"
"251005","010-UM","2018/09/04 22:09:30","新北市淡水區鄧公路19號","121.451383333333","25.1700116666667","6501000","淡水區"
"251010","413-VK","2018/09/04 22:09:39","新北市淡水區沙崙路200號","121.424636666667","25.1838933333333","6501000","淡水區"
"251007","442-VK","2018/09/04 22:09:40","新北市淡水區北新路139號","121.449513333333","25.178865","6501000","淡水區"
"251008","443-VK","2018/09/04 22:08:40","新北市淡水區學府路104號","121.449873333333","25.1718166666667","6501000","淡水區"
"251011","650-BX","2018/09/04 22:09:37","新北市淡水區水碓街7號","121.443141666667","25.1772066666667","6501000","淡水區"
