"lineid","car","time","location","longitude","latitude","cityid","cityname"
"231046","107-UY","2018/09/04 21:56:13","新北市新店區安一路一段1-1號","121.51939","24.96115","6500600","新店區"
"247012","KEA-2869","2018/09/04 22:19:24","新北市五股區中興路三段2巷10號","121.449123333333","25.081245","6501400","蘆洲區"
"247007","336-TH","2018/09/04 22:19:22","新北市五股區中興路三段2巷10號","121.449141666667","25.080935","6501400","蘆洲區"
"251004","009-UM","2018/09/04 22:19:39","新北市淡水區民族路72號","121.46217","25.1357083333333","6501000","淡水區"
"251010","413-VK","2018/09/04 22:19:19","新北市淡水區沙崙路200號","121.424703333333","25.1839","6501000","淡水區"
"251007","442-VK","2018/09/04 22:19:40","新北市淡水區北新路137號","121.449501666667","25.1788266666667","6501000","淡水區"
"251008","443-VK","2018/09/04 22:19:40","新北市淡水區學府路104號","121.44984","25.1718083333333","6501000","淡水區"
"251011","650-BX","2018/09/04 22:19:37","新北市淡水區水碓街7號","121.443188333333","25.1772","6501000","淡水區"
