"lineid","car","time","location","longitude","latitude","cityid","cityname"
"232001","290-BY","2018/12/03 06:59:42","新北市坪林區下坑子口15-1號","121.717193333333","24.94774","6502000","坪林區"
"232012","291-BY","2018/12/03 06:59:47","新北市坪林區黃舉皮寮4-2號","121.68883","24.94251","6502000","坪林區"
"232010","375-UM","2018/12/03 06:59:38","新北市坪林區北宜路八段337號","121.710965","24.9337133333333","6502000","坪林區"
"232017","705-BZ","2018/12/03 06:59:29","新北市坪林區坪雙路一段115號","121.729081666667","24.9480583333333","6502000","坪林區"
"232005","758-BX","2018/12/03 06:59:46","新北市坪林區魚堀17-8號","121.703385","24.918085","6502000","坪林區"
"244001","248-BX","2018/12/03 06:59:37","新北市林口區中山路250號","121.386026666667","25.0794083333333","6501700","林口區"
"235001","611-BX","2018/12/03 06:59:36","新北市中和區圓通路367巷4號","121.491375","24.9892516666667","6500300","中和區"
"235010","733-UM","2018/12/03 06:59:42","新北市中和區和平街29-1號","121.507435","24.9909933333333","6500300","中和區"
"226001","7418-A5","2018/12/03 06:59:43","新北市平溪區石底里公園街18-3號","121.733483333333","25.025615","6502400","平溪區"
"226003","AGD-0702","2018/12/03 06:59:42","新北市平溪區石底里公園街18-3號","121.734303333333","25.025655","6502400","平溪區"
"223006","022-BY","2018/12/03 06:59:43","新北市石碇區八分寮55-5號","121.645558333333","25.01646","6501900","石碇區"
"223003","205-TH","2018/12/03 06:59:34","新北市石碇區石崁33號","121.658801666667","24.9919533333333","6501900","石碇區"
"223008","406-TH","2018/12/03 06:59:34","新北市石碇區十八重溪78-2號","121.672651666667","25.01098","6501900","石碇區"
"223004","437-BY","2018/12/03 06:59:32","新北市石碇區碇坪路一段58號","121.657076666667","24.9915783333333","6501900","石碇區"
"223001","592-UM","2018/12/03 06:59:35","新北市石碇區石崁33號","121.658651666667","24.991895","6501900","石碇區"
"223007","661-BX","2018/12/03 06:59:46","新北市石碇區十八重溪78號","121.673125","25.011515","6501900","石碇區"
"223005","677-TV","2018/12/03 06:59:46","新北市石碇區碇坪路一段62號","121.657196666667","24.99155","6501900","石碇區"
"227005","282-VK","2018/12/03 06:59:37","新北市雙溪區新基里自強路5號","121.866338333333","25.03905","6502500","雙溪區"
"252006","073-UM","2018/12/03 06:59:45","新北市三芝區中興街二段6號","121.49844","25.2565533333333","6502100","三芝區"
"252004","249-BX","2018/12/03 06:59:37","新北市三芝區埔坪里埔頭坑41號","121.504506666667","25.2644616666667","6502100","三芝區"
