"lineid","car","time","location","longitude","latitude","cityid","cityname"
"232001","290-BY","2018/12/03 07:29:42","新北市坪林區上坑子口5號","121.699631666667","24.96022","6502000","坪林區"
"232012","291-BY","2018/12/03 07:29:47","新北市坪林區金瓜寮3-2號","121.681081666667","24.9185616666667","6502000","坪林區"
"232010","375-UM","2018/12/03 07:29:38","新北市坪林區水聳淒坑7-1號","121.724848333333","24.9268016666667","6502000","坪林區"
"232017","705-BZ","2018/12/03 07:29:50","新北市坪林區樟空子5號","121.727438333333","24.967805","6502000","坪林區"
"232005","758-BX","2018/12/03 07:29:46","新北市坪林區魚堀35-1號","121.698831666667","24.929605","6502000","坪林區"
"244001","248-BX","2018/12/03 07:29:37","新北市林口區頂福里53-18號","121.347611666667","25.0859216666667","6501700","林口區"
"222005","289-BY","2018/12/03 07:29:32","新北市深坑區文化街39巷1號","121.618961666667","25.0013516666667","6501800","深坑區"
"235001","611-BX","2018/12/03 07:29:36","新北市中和區圓通路367巷6號","121.49151","24.98923","6500300","中和區"
"235010","733-UM","2018/12/03 07:29:42","新北市中和區和平街29-1號","121.5074","24.9909916666667","6500300","中和區"
"226005","5620-A6","2018/12/03 07:29:46","新北市平溪區靜安路二段119號","121.721078333333","25.023845","6502400","平溪區"
"226001","7418-A5","2018/12/03 07:16:22","新北市平溪區望古里灰4-2號","121.76366","25.0283816666667","6502400","平溪區"
"226003","AGD-0702","2018/12/03 07:29:43","新北市平溪區嶺腳里嶺腳寮89號","121.746706666667","25.03525","6502400","平溪區"
"223006","022-BY","2018/12/03 07:29:35","新北市石碇區靜安路一段29號","121.642368333333","25.01169","6501900","石碇區"
"223003","205-TH","2018/12/03 07:29:37","新北市石碇區烏塗窟26-1號","121.657258333333","24.975255","6501900","石碇區"
"223008","406-TH","2018/12/03 07:29:34","新北市石碇區靜安路一段245號","121.687838333333","25.00802","6501900","石碇區"
"223004","437-BY","2018/12/03 07:29:32","新北市石碇區八分寮54-1號","121.643426666667","25.0183733333333","6501900","石碇區"
"223001","592-UM","2018/12/03 07:29:35","新北市石碇區烏塗窟26-1號","121.657288333333","24.9753483333333","6501900","石碇區"
"223007","661-BX","2018/12/03 07:29:46","新北市石碇區大溪墘13號","121.694613333333","25.0083183333333","6501900","石碇區"
"223005","677-TV","2018/12/03 07:29:46","新北市石碇區八分寮45-1號","121.642151666667","25.0132266666667","6501900","石碇區"
"227005","282-VK","2018/12/03 07:29:37","新北市雙溪區牡丹里中正路46-3號","121.865005","25.0389983333333","6502500","雙溪區"
"252006","073-UM","2018/12/03 07:29:45","新北市三芝區埔頭里埔頭27-2號","121.497096666667","25.2597866666667","6502100","三芝區"
"252004","249-BX","2018/12/03 07:29:36","新北市三芝區店子里龜子山14號","121.499291666667","25.2167016666667","6502100","三芝區"
"242055","751-BX","2018/12/03 07:29:39","新北市新莊區新泰路255巷83號","121.442086666667","25.03896","6500500","新莊區"
"242026","705-TV","2018/12/03 07:29:36","新北市新莊區三和路12-17號","121.442263333333","25.0375366666667","6500500","新莊區"
"242043","566-BX","2018/12/03 07:29:41","新北市新莊區三和路12-21號","121.442406666667","25.0384983333333","6500500","新莊區"
"242008","413-TV","2018/12/03 07:29:37","新北市新莊區新泰路357巷3弄57號","121.441848333333","25.039335","6500500","新莊區"
"242045","400-BY","2018/12/03 07:29:42","新北市新莊區新泰路357巷3弄57號","121.44233","25.03961","6500500","新莊區"
"242022","362-BY","2018/12/03 07:29:52","新北市新莊區三和路18-23號","121.441705","25.038925","6500500","新莊區"
"242033","135-UY","2018/12/03 07:29:39","新北市新莊區三和路12-21號","121.441908333333","25.0387516666667","6500500","新莊區"
"242018","175-VK","2018/12/03 07:29:47","新北市新莊區三和路12-21號","121.441991666667","25.038505","6500500","新莊區"
"242016","346-TH","2018/12/03 07:29:48","新北市新莊區三和路12-21號","121.442143333333","25.038115","6500500","新莊區"
"242030","348-TH","2018/12/03 07:29:46","新北市新莊區新泰路357巷3弄57號","121.442006666667","25.039585","6500500","新莊區"
"242014","351-TH","2018/12/03 07:29:49","新北市新莊區新泰路357巷3弄57號","121.441983333333","25.0395183333333","6500500","新莊區"
