"lineid","car","time","location","longitude","latitude","cityid","cityname"
"232001","290-BY","2018/12/03 07:39:42","新北市坪林區上坑子口1號","121.69832","24.956385","6502000","坪林區"
"232012","291-BY","2018/12/03 07:39:47","新北市坪林區金瓜寮13-1號","121.681835","24.915995","6502000","坪林區"
"232010","375-UM","2018/12/03 07:39:38","新北市坪林區水聳淒坑18號","121.713228333333","24.9318616666667","6502000","坪林區"
"232017","705-BZ","2018/12/03 07:39:50","新北市平溪區東勢里芊蓁林28號","121.732566666667","24.9757783333333","6502000","坪林區"
"232005","758-BX","2018/12/03 07:39:46","新北市坪林區魚堀49號","121.701438333333","24.92992","6502000","坪林區"
"244001","248-BX","2018/12/03 07:39:37","新北市林口區頂福里16鄰79號","121.33496","25.093405","6501700","林口區"
"244012","KEA-2802","2018/12/03 07:39:39","新北市林口區粉寮69號","121.40471","25.0907716666667","6501700","林口區"
"222005","289-BY","2018/12/03 07:39:32","新北市深坑區文化街39巷13號","121.618895","25.0010583333333","6501800","深坑區"
"235001","611-BX","2018/12/03 07:39:36","新北市中和區圓通路367巷6號","121.491516666667","24.9892216666667","6500300","中和區"
"235010","733-UM","2018/12/03 07:39:42","新北市中和區和平街29-1號","121.507435","24.9909666666667","6500300","中和區"
"226005","5620-A6","2018/12/03 07:39:46","新北市平溪區靜安路二段300號","121.73612","25.02402","6502400","平溪區"
"226001","7418-A5","2018/12/03 07:39:42","新北市平溪區平湖里大湖9號","121.78122","25.02501","6502400","平溪區"
"226003","AGD-0702","2018/12/03 07:32:23","新北市平溪區嶺腳里嶺腳寮83-2號","121.750466666667","25.0350116666667","6502400","平溪區"
"223006","022-BY","2018/12/03 07:39:34","新北市石碇區靜安路一段128號","121.660565","25.007165","6501900","石碇區"
"223003","205-TH","2018/12/03 07:39:37","新北市石碇區中楒子腳5號","121.637841666667","24.9724916666667","6501900","石碇區"
"223008","406-TH","2018/12/03 07:33:09","新北市石碇區靜安路一段337號","121.69882","25.01472","6501900","石碇區"
"223004","437-BY","2018/12/03 07:39:32","新北市石碇區八分寮47-1號","121.642048333333","25.0135566666667","6501900","石碇區"
"223001","592-UM","2018/12/03 07:39:35","新北市石碇區中楒子腳2-15號","121.638626666667","24.97351","6501900","石碇區"
"223007","661-BX","2018/12/03 07:39:46","新北市石碇區靜安路一段349號","121.698853333333","25.01553","6501900","石碇區"
"223005","677-TV","2018/12/03 07:39:46","新北市石碇區八分寮47-1號","121.642115","25.013675","6501900","石碇區"
"227005","282-VK","2018/12/03 07:39:37","新北市雙溪區雙溪里太平路54號","121.864756666667","25.0354566666667","6502500","雙溪區"
"252006","073-UM","2018/12/03 07:39:45","新北市三芝區古庄里古庄83號","121.488981666667","25.2701366666667","6502100","三芝區"
"252004","249-BX","2018/12/03 07:39:36","新北市三芝區店子里店子48-1號","121.503733333333","25.20661","6502100","三芝區"
"242057","986-R7","2018/12/03 07:39:37","新北市新莊區新泰路357巷3弄57號","121.442143333333","25.039275","6500500","新莊區"
"242055","751-BX","2018/12/03 07:39:39","新北市新莊區新泰路357巷3弄37號","121.441856666667","25.0404316666667","6500500","新莊區"
"242026","705-TV","2018/12/03 07:39:36","新北市新莊區三和路12-18號","121.442155","25.03764","6500500","新莊區"
"242028","612-BX","2018/12/03 07:39:43","新北市新莊區新泰路357巷3弄57號","121.442023333333","25.0390483333333","6500500","新莊區"
"242043","566-BX","2018/12/03 07:39:41","新北市新莊區新泰路255巷83號","121.442381666667","25.0385616666667","6500500","新莊區"
"242047","497-BY","2018/12/03 07:39:50","新北市新莊區新泰路357巷3弄51號","121.441756666667","25.0400383333333","6500500","新莊區"
"242010","442-UM","2018/12/03 07:39:46","新北市新莊區三和路12-21號","121.441896666667","25.038675","6500500","新莊區"
"242052","441-UM","2018/12/03 07:39:48","新北市新莊區三和路12-11號","121.442176666667","25.036875","6500500","新莊區"
"242038","415-TV","2018/12/03 07:39:48","新北市泰山區磚雅厝3號","121.44191","25.0418616666667","6500500","新莊區"
"242008","413-TV","2018/12/03 07:39:37","新北市新莊區新泰路357巷3弄57號","121.441908333333","25.03937","6500500","新莊區"
"242045","400-BY","2018/12/03 07:39:42","新北市新莊區新泰路357巷3弄57號","121.442255","25.0395183333333","6500500","新莊區"
"242022","362-BY","2018/12/03 07:39:32","新北市新莊區三和路12-21號","121.44194","25.0387116666667","6500500","新莊區"
"242059","353-BY","2018/12/03 07:39:49","新北市新莊區新泰路357巷3弄57號","121.44189","25.0390466666667","6500500","新莊區"
"242033","135-UY","2018/12/03 07:39:39","新北市新莊區三和路12-21號","121.44166","25.038615","6500500","新莊區"
"242049","172-VK","2018/12/03 07:39:39","新北市新莊區中正路400號","121.441918333333","25.0341433333333","6500500","新莊區"
"242012","173-VK","2018/12/03 07:39:47","新北市新莊區三和路12-21號","121.441728333333","25.0386716666667","6500500","新莊區"
"242018","175-VK","2018/12/03 07:39:47","新北市新莊區三和路12-21號","121.441816666667","25.0385233333333","6500500","新莊區"
"242016","346-TH","2018/12/03 07:39:48","新北市新莊區三和路12-21號","121.442166666667","25.03809","6500500","新莊區"
"242030","348-TH","2018/12/03 07:39:46","新北市新莊區新泰路357巷3弄57號","121.442233333333","25.0397466666667","6500500","新莊區"
"242020","350-TH","2018/12/03 07:39:41","新北市新莊區新泰路255巷83號","121.442333333333","25.0389083333333","6500500","新莊區"
"242014","351-TH","2018/12/03 07:39:49","新北市新莊區新泰路357巷3弄57號","121.441988333333","25.0395383333333","6500500","新莊區"
"242040","281-VK","2018/12/03 07:39:48","新北市新莊區三和路12-21號","121.442153333333","25.0383466666667","6500500","新莊區"
