"lineid","car","time","location","longitude","latitude","cityid","cityname"
"232001","290-BY","2018/12/03 07:49:42","新北市坪林區下坑子口19-2號","121.707788333333","24.9481133333333","6502000","坪林區"
"232012","291-BY","2018/12/03 07:49:47","新北市坪林區金瓜寮23-1號","121.679208333333","24.911295","6502000","坪林區"
"232010","375-UM","2018/12/03 07:49:42","新北市坪林區苦苓腳3-1號","121.714775","24.9400833333333","6502000","坪林區"
"232017","705-BZ","2018/12/03 07:49:29","新北市坪林區乾溪2-1號","121.740595","24.9759033333333","6502000","坪林區"
"232005","758-BX","2018/12/03 07:49:46","新北市坪林區九芎林14-1號","121.706851666667","24.9313416666667","6502000","坪林區"
"244001","248-BX","2018/12/03 07:49:37","新北市林口區頂福里75-5號","121.340108333333","25.0963333333333","6501700","林口區"
"244012","KEA-2802","2018/12/03 07:49:39","新北市林口區粉寮69號","121.404781666667","25.0907633333333","6501700","林口區"
"222005","289-BY","2018/12/03 07:49:52","新北市深坑區文化街45號","121.616903333333","25.0017083333333","6501800","深坑區"
"231008","192-VK","2018/12/03 07:49:47","新北市新店區安康路一段89號","121.529161666667","24.9615733333333","6500600","新店區"
"235001","611-BX","2018/12/03 07:49:35","新北市中和區圓通路367巷6號","121.491538333333","24.98922","6500300","中和區"
"235010","733-UM","2018/12/03 07:49:42","新北市中和區和平街29-1號","121.507438333333","24.9909616666667","6500300","中和區"
"226005","5620-A6","2018/12/03 07:49:46","新北市平溪區嶺腳里中華街52號","121.73915","25.0248","6502400","平溪區"
"226001","7418-A5","2018/12/03 07:49:42","新北市平溪區南山里乾坑11號","121.78267","25.0471866666667","6502400","平溪區"
"226003","AGD-0702","2018/12/03 07:49:42","新北市平溪區靜安路三段331號","121.779378333333","25.044545","6502400","平溪區"
"223006","022-BY","2018/12/03 07:48:34","新北市石碇區番子坑17號","121.673938333333","25.0011116666667","6501900","石碇區"
"223003","205-TH","2018/12/03 07:40:04","新北市石碇區中楒子腳2-5號","121.637578333333","24.97256","6501900","石碇區"
"223008","406-TH","2018/12/03 07:33:09","新北市石碇區靜安路一段337號","121.69882","25.01472","6501900","石碇區"
"223004","437-BY","2018/12/03 07:49:52","新北市深坑區文山路一段10號","121.643173333333","25.00863","6501900","石碇區"
"223001","592-UM","2018/12/03 07:46:35","新北市石碇區中楒子腳1號","121.64687","24.971355","6501900","石碇區"
"223007","661-BX","2018/12/03 07:42:34","新北市石碇區靜安路一段337號","121.698948333333","25.0145016666667","6501900","石碇區"
"223005","677-TV","2018/12/03 07:49:46","新北市深坑區文山路一段10號","121.643115","25.008685","6501900","石碇區"
"227005","282-VK","2018/12/03 07:49:37","新北市雙溪區雙溪里太平路41號","121.864711666667","25.0355566666667","6502500","雙溪區"
"252006","073-UM","2018/12/03 07:49:45","新北市三芝區古庄里四棧橋48-1號","121.482716666667","25.2641866666667","6502100","三芝區"
"252004","249-BX","2018/12/03 07:49:36","新北市三芝區圓山里石曹子坑53-6號","121.518088333333","25.2075233333333","6502100","三芝區"
"242057","986-R7","2018/12/03 07:49:37","新北市新莊區新泰路357巷3弄41號","121.441978333333","25.0402433333333","6500500","新莊區"
"242055","751-BX","2018/12/03 07:49:39","新北市新莊區新莊路664號","121.442396666667","25.03281","6500500","新莊區"
"242026","705-TV","2018/12/03 07:49:36","新北市新莊區中港路279號","121.453313333333","25.0437483333333","6500500","新莊區"
"242024","613-BX","2018/12/03 07:49:32","新北市新莊區中港一街141號","121.448023333333","25.0450133333333","6500500","新莊區"
"242028","612-BX","2018/12/03 07:49:43","新北市新莊區幸福路610號","121.451735","25.0492383333333","6500500","新莊區"
"242043","566-BX","2018/12/03 07:49:41","新北市新莊區中正路480號","121.438633333333","25.03331","6500500","新莊區"
"242047","497-BY","2018/12/03 07:49:50","新北市新莊區龍安路120號","121.41901","25.02028","6500500","新莊區"
"242010","442-UM","2018/12/03 07:49:46","新北市新莊區新泰路502巷16號","121.44296","25.0464433333333","6500500","新莊區"
"242052","441-UM","2018/12/03 07:49:48","新北市新莊區瓊林路59-66號","121.44136","25.0226616666667","6500500","新莊區"
"242001","440-UM","2018/12/03 07:49:44","新北市新莊區瓊林路46-12號","121.446771666667","25.028995","6500500","新莊區"
"242038","415-TV","2018/12/03 07:49:48","新北市新莊區民安路343號","121.430635","25.0229266666667","6500500","新莊區"
"242008","413-TV","2018/12/03 07:49:37","新北市新莊區新泰路498號","121.442648333333","25.0460716666667","6500500","新莊區"
"242045","400-BY","2018/12/03 07:49:42","新北市新莊區新莊路773號","121.441918333333","25.0328616666667","6500500","新莊區"
"242022","362-BY","2018/12/03 07:49:52","新北市新莊區中華路一段130號","121.45266","25.0409683333333","6500500","新莊區"
"242059","353-BY","2018/12/03 07:49:49","新北市新莊區中正路400號","121.441955","25.034125","6500500","新莊區"
"242033","135-UY","2018/12/03 07:49:39","新北市新莊區中環路一段281號","121.442073333333","25.0316333333333","6500500","新莊區"
"242049","172-VK","2018/12/03 07:49:39","新北市新莊區瓊林南路75號","121.434878333333","25.0145216666667","6500500","新莊區"
"242012","173-VK","2018/12/03 07:49:47","新北市新莊區三和路12-18號","121.442063333333","25.037655","6500500","新莊區"
"242018","175-VK","2018/12/03 07:49:47","新北市新莊區中港一街72號","121.449808333333","25.0454616666667","6500500","新莊區"
"242016","346-TH","2018/12/03 07:49:48","新北市新莊區中華路一段103號","121.45274","25.0439116666667","6500500","新莊區"
"242030","348-TH","2018/12/03 07:49:46","新北市新莊區新泰路462號","121.443458333333","25.04494","6500500","新莊區"
"242003","349-TH","2018/12/03 07:49:42","新北市新莊區復興路一段163號","121.450978333333","25.0434","6500500","新莊區"
"242020","350-TH","2018/12/03 07:49:41","新北市新莊區中港路五守新村1巷15號","121.455246666667","25.0379266666667","6500500","新莊區"
"242014","351-TH","2018/12/03 07:49:49","新北市新莊區新泰路215號","121.44665","25.0388533333333","6500500","新莊區"
"242040","281-VK","2018/12/03 07:49:48","新北市新莊區新莊路773號","121.441918333333","25.0327383333333","6500500","新莊區"
