"lineid","car","time","location","longitude","latitude","cityid","cityname"
"248005","653-BX","2018/03/24 09:19:41","新北市五股區水碓三路63號","121.430403333333","25.0714983333333","6501500","五股區"
"248002","655-BX","2018/03/24 09:19:29","新北市五股區芳洲七路2號","121.445136666667","25.0876016666667","6501500","五股區"
"244002","657-BX","2018/03/24 09:19:37","新北市林口區文化一路一段15巷8-1號","121.36882","25.0693583333333","6501700","林口區"
"222004","289-BY","2018/03/24 09:19:27","新北市深坑區向天湖12號","121.61994","24.9915733333333","6501800","深坑區"
"231007","189-VK","2018/03/24 09:19:43","新北市新店區新潭路三段215巷25號","121.508113333333","24.9040183333333","6500600","新店區"
"231008","192-VK","2018/03/24 09:19:45","新北市新店區廣興路96號","121.537878333333","24.9129366666667","6500600","新店區"
"235001","611-BX","2018/03/24 09:19:28","新北市中和區中山路三段53號","121.4768","25.0056816666667","6500300","中和區"
"226002","7418-A5","2018/03/24 09:19:27","新北市平溪區東勢里芊蓁林33號","121.750741666667","25.0164866666667","6502400","平溪區"
"226003","AGD-0702","2018/03/24 09:10:40","新北市平溪區望古里望古坑21-5號","121.759755","25.0340233333333","6502400","平溪區"
"223006","022-BY","2018/03/24 09:19:33","新北市石碇區小粗坑(潭邊里)2-1號","121.671318333333","24.98245","6501900","石碇區"
"223001","205-TH","2018/03/24 09:19:29","新北市石碇區北宜路四段28號","121.62323","24.9597533333333","6501900","石碇區"
"223005","677-TV","2018/03/24 09:19:26","新北市石碇區碇坪路一段252號","121.675256666667","24.9781833333333","6501900","石碇區"
"227006","282-VK","2018/03/24 09:19:40","新北市雙溪區三貂里定福路1-2號","121.850713333333","25.0635066666667","6502500","雙溪區"
"252004","249-BX","2018/03/24 09:19:30","新北市三芝區店子里店子43-2號","121.50423","25.2070466666667","6502100","三芝區"
"252007","AAC-283","2018/03/24 09:19:33","新北市三芝區古庄里山豬堀7號","121.49432","25.2556933333333","6502100","三芝區"
"237001","159-UY","2018/03/24 09:19:34","新北市三峽區中山路459巷131號","121.351003333333","24.9348566666667","6500900","三峽區"
"236011","165-UM","2018/03/24 09:19:43","新北市土城區金城路一段72號","121.443751666667","24.9725733333333","6501300","土城區"
"236002","339-SR","2018/03/24 09:19:36","新北市土城區中正路1號","121.442353333333","24.9750733333333","6501300","土城區"
"236006","498-BY","2018/03/24 09:19:27","新北市土城區承天路62巷4號","121.440415","24.961515","6501300","土城區"
