"lineid","car","time","location","longitude","latitude","cityid","cityname"
"248005","653-BX","2018/03/24 09:59:41","新北市五股區新五路二段119-10號","121.438601666667","25.07858","6501500","五股區"
"248002","655-BX","2018/03/24 09:59:29","新北市五股區成泰路三段435巷10號","121.449575","25.0979433333333","6501500","五股區"
"244002","657-BX","2018/03/24 09:59:37","新北市林口區文化一路一段15巷8-1號","121.368765","25.069305","6501700","林口區"
"231007","189-VK","2018/03/24 09:59:23","新北市新店區新潭路三段215巷25號","121.508118333333","24.904095","6500600","新店區"
"231008","192-VK","2018/03/24 09:46:57","新北市新店區平廣路一段256號","121.50784","24.888195","6500600","新店區"
"227006","282-VK","2018/03/24 09:30:59","新北市雙溪區三貂里政光路3-1號","121.850838333333","25.0630516666667","6502500","雙溪區"
"227006","030-BX","2018/03/24 09:59:32","新北市雙溪區長源里柑腳18號","121.804693333333","25.014155","6502500","雙溪區"
"252004","249-BX","2018/03/24 09:59:10","新北市三芝區福德里土地公埔39號","121.51041","25.2348383333333","6502100","三芝區"
"252007","AAC-283","2018/03/24 09:59:33","新北市三芝區新庄里新庄子95-9號","121.514038333333","25.2743083333333","6502100","三芝區"
"237001","159-UY","2018/03/24 09:59:34","新北市三峽區隆恩街551號","121.356955","24.9401483333333","6500900","三峽區"
"236011","165-UM","2018/03/24 09:59:43","新北市土城區中央路四段321巷34弄5號","121.412655","24.9506816666667","6501300","土城區"
