"lineid","car","time","location","longitude","latitude","cityid","cityname"
"248005","653-BX","2018/03/24 10:39:36","新北市五股區中興路二段37巷24號","121.46074","25.075025","6501500","五股區"
"244002","657-BX","2018/03/24 10:39:37","新北市林口區文化一路一段15巷8-1號","121.368705","25.069295","6501700","林口區"
"231007","189-VK","2018/03/24 10:39:23","新北市新店區新潭路三段86號","121.503735","24.90983","6500600","新店區"
"231008","192-VK","2018/03/24 10:39:45","新北市新店區小坑一路8號","121.535485","24.9121933333333","6500600","新店區"
"227006","030-BX","2018/03/24 10:39:32","新北市雙溪區魚行里坤溪21-1號","121.87093","25.0272566666667","6502500","雙溪區"
"252007","AAC-283","2018/03/24 10:39:34","新北市三芝區埔頭里埔頭47號","121.501245","25.262825","6502100","三芝區"
