"lineid","car","time","location","longitude","latitude","cityid","cityname"
"234044","148-BY","2018/03/24 13:27:45","新北市永和區秀朗路二段192號","121.526431666667","25.00063","6500400","永和區"
"234068","149-BY","2018/03/24 13:27:46","新北市永和區警光街12號","121.519743333333","25.0095583333333","6500400","永和區"
"234005","207-UY","2018/03/24 13:27:34","新北市永和區中山路一段174號","121.509155","25.0089916666667","6500400","永和區"
"234078","298-R6","2018/03/24 13:27:45","新北市永和區福和路5-9號","121.525425","25.008485","6500400","永和區"
"234036","336-UY","2018/03/24 13:27:48","新北市永和區民樂街38號","121.527536666667","25.00072","6500400","永和區"
"234062","337-UY","2018/03/24 13:27:33","新北市永和區中正路368巷1弄86號","121.520438333333","25.0007566666667","6500400","永和區"
"234084","338-UY","2018/03/24 13:27:50","新北市永和區林森路114號","121.522776666667","25.0033466666667","6500400","永和區"
"234015","745-BX","2018/03/24 13:27:48","新北市永和區環河西路一段51巷1號","121.51418","25.0181583333333","6500400","永和區"
"234028","746-BX","2018/03/24 13:27:45","新北市永和區四維街107號","121.523803333333","24.9982966666667","6500400","永和區"
"234052","KEA-2590","2018/03/24 13:27:47","新北市永和區復興街19巷5號","121.516048333333","25.013085","6500400","永和區"
"234012","KEA-2591","2018/03/24 13:27:44","新北市永和區永貞路387號","121.507976666667","25.008805","6500400","永和區"
"234060","AAD-866","2018/03/24 13:27:43","新北市永和區中正路568號","121.517126666667","25.006195","6500400","永和區"
"234040","862-TW","2018/03/24 13:27:51","新北市永和區中和路593號","121.512255","25.004145","6500400","永和區"
"234048","863-TW","2018/03/24 13:27:28","新北市永和區信義路90號","121.512546666667","25.0135983333333","6500400","永和區"
"234025","9371-KE","2018/03/24 13:27:37","新北市永和區永和路二段3號","121.514338333333","25.0098566666667","6500400","永和區"
"234010","9373-KE","2018/03/24 13:27:44","新北市永和區仁愛路141巷9號","121.511685","25.0118766666667","6500400","永和區"
"248017","225-UY","2018/03/24 13:27:33","新北市五股區御史路300號","121.41755","25.10828","6501500","五股區"
"234022","9380-KE","2018/03/24 13:27:32","新北市永和區竹林路91巷54號","121.521356666667","25.0128166666667","6500400","永和區"
"234076","969-R7","2018/03/24 13:27:45","新北市永和區智光街42號","121.517161666667","24.99811","6500400","永和區"
"234072","AAC-211","2018/03/24 13:27:34","新北市永和區永和路二段28號","121.51461","25.0104266666667","6500400","永和區"
"234066","AAC-212","2018/03/24 13:27:37","新北市永和區永貞路360巷3號","121.510456666667","25.006895","6500400","永和區"
"234001","AAC-295","2018/03/24 13:27:43","新北市永和區永和路一段118號","121.513926666667","25.0078883333333","6500400","永和區"
"231002","002-UM","2018/03/24 13:27:43","新北市新店區環河路29巷1號","121.53693","24.9613766666667","6500600","新店區"
"231028","046-UY","2018/03/24 13:27:45","新北市新店區安華路28-1號","121.519561666667","24.9608766666667","6500600","新店區"
"231030","047-UY","2018/03/24 13:27:35","新北市新店區安康路一段355-4號","121.517538333333","24.96392","6500600","新店區"
"231029","106-UY","2018/03/24 13:27:33","新北市新店區安忠路57巷11弄14號","121.515251666667","24.95799","6500600","新店區"
"231018","107-UY","2018/03/24 13:27:34","新北市新店區中央路175-3號","121.534853333333","24.969585","6500600","新店區"
"231012","108-UY","2018/03/24 13:27:35","新北市新店區寶橋路6巷4號","121.543381666667","24.9735","6500600","新店區"
"231020","187-VK","2018/03/24 13:27:31","新北市新店區新烏路一段17巷12號","121.546158333333","24.9507533333333","6500600","新店區"
"231017","KEA-2219","2018/03/24 13:27:34","新北市新店區北宜路一段272-1號","121.546066666667","24.95276","6500600","新店區"
"231026","256-BX","2018/03/24 13:27:40","新北市新店區秀山路72號","121.53136","24.960925","6500600","新店區"
"231010","278-BY","2018/03/24 13:27:43","新北市新店區自由街40號","121.534678333333","24.9741283333333","6500600","新店區"
"231023","AAD-862","2018/03/24 13:27:33","新北市新店區北宜路一段154號","121.540351666667","24.9536116666667","6500600","新店區"
"231027","3712-VJ","2018/03/24 13:27:36","新北市新店區環河路19巷36號","121.537588333333","24.960085","6500600","新店區"
"231025","3713-VJ","2018/03/24 13:27:45","新北市新店區中央七街61巷2號","121.52823","24.9764783333333","6500600","新店區"
"231024","4716-K9","2018/03/24 13:27:44","新北市新店區北新路二段29巷2弄1號","121.542405","24.972805","6500600","新店區"
"231038","4715-K9","2018/03/24 13:27:34","新北市新店區安華路28-1號","121.519325","24.960635","6500600","新店區"
"231036","512-UM","2018/03/24 13:27:45","新北市新店區建業路47-1號","121.478743333333","24.9552","6500600","新店區"
"231035","513-UM","2018/03/24 13:27:43","新北市新店區安康路一段299-1號","121.522203333333","24.9637216666667","6500600","新店區"
"231006","617-UM","2018/03/24 13:27:42","新北市新店區安康路一段94-1號","121.527686666667","24.9621933333333","6500600","新店區"
"231001","619-UM","2018/03/24 13:27:33","新北市新店區安康路一段20號","121.531176666667","24.961005","6500600","新店區"
"231003","641-BX","2018/03/24 13:27:41","新北市新店區光明街284號","121.540415","24.9646833333333","6500600","新店區"
"231034","645-TV","2018/03/24 13:27:27","新北市新店區安忠路57巷13號","121.513065","24.9573416666667","6500600","新店區"
"231013","719-UM","2018/03/24 13:27:41","新北市新店區中正路454-5號","121.534435","24.9791","6500600","新店區"
"231033","720-UM","2018/03/24 13:27:30","新北市新店區安忠路57巷15號","121.51311","24.9571366666667","6500600","新店區"
"231005","897-TW","2018/03/24 13:27:42","新北市新店區北新路一段123號","121.539316666667","24.9624216666667","6500600","新店區"
"231004","899-TW","2018/03/24 13:27:46","新北市新店區安康路一段293號","121.52281","24.96365","6500600","新店區"
"231037","AKT-0513","2018/03/24 13:27:47","新北市新店區薏仁坑路8-2號","121.49949","24.95888","6500600","新店區"
"235030","003-UY","2018/03/24 13:27:44","新北市中和區中山路二段120號","121.502921666667","25.0038133333333","6500300","中和區"
"235028","005-UY","2018/03/24 13:27:42","新北市中和區連城路139巷58號","121.49682","24.997155","6500300","中和區"
"235027","006-UY","2018/03/24 13:27:44","新北市中和區連城路347巷18弄2號","121.488511666667","24.994805","6500300","中和區"
"235020","096-UM","2018/03/24 13:27:42","新北市中和區新生街132號","121.483573333333","25.00126","6500300","中和區"
"235003","097-UM","2018/03/24 13:27:47","新北市中和區景平路170號","121.516945","24.9925233333333","6500300","中和區"
"235029","098-UM","2018/03/24 13:27:49","新北市中和區莊敬路57號","121.501786666667","25.0053383333333","6500300","中和區"
"235004","150-BY","2018/03/24 13:04:24","新北市中和區和城路一段271巷1號","121.485405","24.9916816666667","6500300","中和區"
"235022","151-BY","2018/03/24 13:27:48","新北市中和區圓通路369巷156弄39號","121.489401666667","24.9821566666667","6500300","中和區"
"235019","183-VK","2018/03/24 13:27:46","新北市中和區民享街245號","121.47169","24.9961866666667","6500300","中和區"
"235002","185-VK","2018/03/24 13:27:34","新北市中和區立人街14巷40弄8號","121.519053333333","24.99577","6500300","中和區"
"235013","186-VK","2018/03/24 13:27:38","新北市中和區景安路142號","121.505018333333","24.9941733333333","6500300","中和區"
"235031","255-BX","2018/03/24 13:05:33","新北市中和區新生街187號","121.483738333333","25.0004116666667","6500300","中和區"
"235008","293-VK","2018/03/24 13:27:44","新北市中和區中興街180巷45號","121.498141666667","24.9896416666667","6500300","中和區"
"235036","301-VK","2018/03/24 13:27:42","新北市中和區連城路184號","121.492966666667","24.996875","6500300","中和區"
"235007","352-BY","2018/03/24 13:27:32","新北市中和區景平路353號","121.504761666667","24.9934716666667","6500300","中和區"
"235032","377-QA","2018/03/24 13:27:45","新北市中和區圓通路285號","121.495245","24.9929333333333","6500300","中和區"
"235025","378-QA","2018/03/24 13:27:49","新北市中和區民享街119巷1號","121.474523333333","24.9988866666667","6500300","中和區"
"235035","269-TV","2018/03/24 13:27:37","新北市中和區環中路128號","121.481965","25.0127283333333","6500300","中和區"
"235014","4979-A6","2018/03/24 13:27:36","新北市中和區景新街362巷5號","121.51196","24.9900883333333","6500300","中和區"
"235006","551-UM","2018/03/24 13:27:41","新北市中和區自立路56巷2號","121.523268333333","24.991795","6500300","中和區"
"235034","558-UM","2018/03/24 13:27:47","新北市中和區景平路433號","121.50117","24.995675","6500300","中和區"
"235009","565-BX","2018/03/24 13:27:46","新北市中和區復興路36號","121.50495","24.990045","6500300","中和區"
"235018","640-BX","2018/03/24 13:27:49","新北市中和區民享街99號","121.474943333333","24.9999266666667","6500300","中和區"
"235024","647-TV","2018/03/24 13:27:42","新北市中和區連城路338號","121.483013333333","24.9958816666667","6500300","中和區"
"235011","732-UM","2018/03/24 13:27:32","新北市中和區南山路320巷3號","121.50767","24.986515","6500300","中和區"
"235026","800-TS","2018/03/24 13:27:36","新北市中和區中山路二段312巷45弄25號","121.494938333333","25.0049016666667","6500300","中和區"
"235021","801-TS","2018/03/24 13:27:41","新北市中和區民安街81號","121.477968333333","24.9998116666667","6500300","中和區"
"235005","802-TS","2018/03/24 13:27:32","新北市中和區中和路324巷3弄2號","121.510126666667","25.000815","6500300","中和區"
"235016","805-TS","2018/03/24 13:27:41","新北市中和區興南路二段133號","121.505243333333","24.9841633333333","6500300","中和區"
"235012","896-TW","2018/03/24 13:27:45","新北市中和區中正路637巷52弄1號","121.485426666667","24.9934566666667","6500300","中和區"
"235017","900-TW","2018/03/24 13:27:37","新北市土城區金城路三段253號","121.47179","24.989965","6500300","中和區"
"235015","157-BY","2018/03/24 13:27:41","新北市中和區興南路二段242巷18號","121.502353333333","24.9831966666667","6500300","中和區"
"235001","AAC-213","2018/03/24 13:27:31","新北市中和區景德街137號","121.514683333333","24.9910033333333","6500300","中和區"
"220013","072-UY","2018/03/24 13:27:47","新北市板橋區華東街1-9號","121.448168333333","24.9949816666667","6500100","板橋區"
"220034","073-UY","2018/03/24 13:27:32","新北市板橋區華東街1-10號","121.448286666667","24.9950316666667","6500100","板橋區"
"247011","339-TH","2018/03/24 13:27:31","新北市五股區中興路三段163號","121.44928","25.0808066666667","6501400","蘆洲區"
"247007","056-VK","2018/03/24 13:27:40","新北市五股區中興路三段198號","121.44111","25.0830016666667","6501400","蘆洲區"
"228005","097-TW","2018/03/24 13:27:41","新北市貢寮區美豐里文秀坑8號","121.90245","25.0503433333333","6502600","貢寮區"
"228004","212-TW","2018/03/24 13:27:44","新北市貢寮區龍崗里石壁坑街17號","121.910381666667","24.9894966666667","6502600","貢寮區"
"253003","6232-TK","2018/03/24 13:27:46","新北市石門區內石門89號","121.568005","25.264955","6502200","石門區"
"253001","6251-TK","2018/03/24 13:27:48","新北市石門區下員坑33-2號","121.519718333333","25.2829566666667","6502200","石門區"
"253002","637-UY","2018/03/24 13:27:42","新北市石門區九芎林5-3號","121.559813333333","25.2699583333333","6502200","石門區"
"253004","8270-PC","2018/03/24 13:27:35","新北市石門區阿里荖54號","121.609516666667","25.2736033333333","6502200","石門區"
"207002","749-BX","2018/03/24 13:27:45","新北市萬里區崁腳里崁腳路166號","121.64507","25.1558466666667","6502800","萬里區"
"207001","662-BX","2018/03/24 13:27:32","新北市萬里區大鵬里頂社2-1號","121.659841666667","25.2073266666667","6502800","萬里區"
"252005","AAC-283","2018/03/24 13:27:45","新北市三芝區福德里土地公埔72號","121.522128333333","25.2240116666667","6502100","三芝區"
"236006","498-BY","2018/03/24 13:27:50","新北市土城區慶祥街44號","121.436961666667","24.9744616666667","6501300","土城區"
"242048","172-VK","2018/03/24 13:27:42","新北市新莊區龍安路59號","121.415715","25.021935","6500500","新莊區"
"220027","145-BY","2018/03/24 13:27:31","新北市板橋區華東街1-9號","121.448153333333","24.9949383333333","6500100","板橋區"
"220030","610-BX","2018/03/24 13:27:39","新北市板橋區華東街1-10號","121.448271666667","24.994945","6500100","板橋區"
"220052","257-TC","2018/03/24 13:27:34","新北市板橋區民生路二段161巷9號","121.47033","25.0194283333333","6500100","板橋區"
"220001","285-VK","2018/03/24 13:27:50","新北市板橋區民生路二段120號","121.470426666667","25.019875","6500100","板橋區"
"220005","686-BX","2018/03/24 13:27:41","新北市板橋區華東街1-9號","121.44822","24.99494","6500100","板橋區"
"220025","687-BX","2018/03/24 13:27:35","新北市板橋區板城路421號","121.447598333333","24.9962783333333","6500100","板橋區"
"220003","827-TW","2018/03/24 13:27:44","新北市板橋區華東街1-9號","121.448171666667","24.9949266666667","6500100","板橋區"
"220022","895-R6","2018/03/24 13:27:45","新北市板橋區華東街1-10號","121.448578333333","24.994995","6500100","板橋區"
"220018","AAC-253","2018/03/24 13:27:47","新北市板橋區華東街1-10號","121.448281666667","24.9949016666667","6500100","板橋區"
