"lineid","car","time","location","longitude","latitude","cityid","cityname"
"234044","148-BY","2018/03/24 13:59:33","新北市永和區成功路一段26號","121.527033333333","25.004765","6500400","永和區"
"234068","149-BY","2018/03/24 13:59:45","新北市永和區國光路6號","121.519843333333","25.0084616666667","6500400","永和區"
"234005","207-UY","2018/03/24 13:59:40","新北市中和區中和路314號","121.509218333333","25.0004116666667","6500400","永和區"
"234078","298-R6","2018/03/24 13:59:48","新北市永和區林森路112巷12弄12號","121.522758333333","25.0045766666667","6500400","永和區"
"234036","336-UY","2018/03/24 13:59:47","新北市永和區成功路二段141號","121.52661","24.997855","6500400","永和區"
"234062","337-UY","2018/03/24 13:59:42","新北市永和區中正路412巷20弄14號","121.518806666667","25.0015866666667","6500400","永和區"
"234084","338-UY","2018/03/24 13:59:30","新北市永和區福和路74號","121.522988333333","25.0080716666667","6500400","永和區"
"234015","745-BX","2018/03/24 13:59:48","新北市永和區文化路64號","121.51439","25.015245","6500400","永和區"
"234028","746-BX","2018/03/24 13:59:45","新北市永和區民生路47巷31號","121.524926666667","24.997855","6500400","永和區"
"234052","KEA-2590","2018/03/24 13:59:47","新北市永和區竹林路39巷42弄1號","121.520076666667","25.0151916666667","6500400","永和區"
"234012","KEA-2591","2018/03/24 13:59:40","新北市永和區保生路55號","121.504721666667","25.0106366666667","6500400","永和區"
"234060","AAD-866","2018/03/24 13:59:43","新北市永和區中正路151巷14號","121.515623333333","24.9988233333333","6500400","永和區"
"234040","862-TW","2018/03/24 13:59:31","新北市永和區中和路421巷5弄18號","121.508351666667","25.0006716666667","6500400","永和區"
"234048","863-TW","2018/03/24 13:59:48","新北市永和區保安路260號","121.506033333333","25.0123733333333","6500400","永和區"
"234025","9371-KE","2018/03/24 13:59:37","新北市永和區自由街58號","121.51379","25.0059683333333","6500400","永和區"
"234010","9373-KE","2018/03/24 13:59:44","新北市永和區仁愛路352巷112弄12號","121.501126666667","25.00854","6500400","永和區"
"248017","225-UY","2018/03/24 13:59:33","新北市五股區民義路一段220巷8-32號","121.428676666667","25.0917033333333","6501500","五股區"
"234022","9380-KE","2018/03/24 13:59:40","新北市永和區復興街29號","121.516361666667","25.01311","6500400","永和區"
"234076","969-R7","2018/03/24 13:59:45","新北市永和區民權路58巷3號","121.519665","24.9983","6500400","永和區"
"234072","AAC-211","2018/03/24 13:59:34","新北市永和區豫溪街185號","121.522473333333","25.0103683333333","6500400","永和區"
"234066","AAC-212","2018/03/24 13:59:37","新北市永和區永貞路358號","121.510158333333","25.0065933333333","6500400","永和區"
"234001","AAC-295","2018/03/24 13:59:43","新北市永和區福和路310-1號","121.51621","25.0073433333333","6500400","永和區"
"231002","002-UM","2018/03/24 13:59:43","新北市新店區中正路608號","121.533873333333","24.98845","6500600","新店區"
"231028","046-UY","2018/03/24 13:59:45","新北市新店區安和路三段99號","121.517858333333","24.9843166666667","6500600","新店區"
"231030","047-UY","2018/03/24 13:59:35","新北市新店區安民街65巷21-2號","121.515125","24.967525","6500600","新店區"
"231029","106-UY","2018/03/24 13:59:33","新北市新店區安康路二段71號","121.51387","24.96314","6500600","新店區"
"231018","107-UY","2018/03/24 13:59:34","新北市新店區中央路116號","121.531113333333","24.9751233333333","6500600","新店區"
"231012","108-UY","2018/03/24 13:59:35","新北市新店區中興路一段282-5號","121.546281666667","24.968225","6500600","新店區"
"231020","187-VK","2018/03/24 13:59:31","新北市新店區屈尺路161-3號","121.54224","24.9219083333333","6500600","新店區"
"231017","KEA-2219","2018/03/24 13:59:34","新北市新店區郵政路1巷6號","121.557338333333","24.95216","6500600","新店區"
"231026","256-BX","2018/03/24 13:59:40","新北市新店區安康路一段154號","121.526308333333","24.9630216666667","6500600","新店區"
"231010","278-BY","2018/03/24 13:59:43","新北市新店區安華路28-1號","121.519666666667","24.96097","6500600","新店區"
"231023","AAD-862","2018/03/24 13:59:33","新北市新店區文中路40號","121.539686666667","24.9566116666667","6500600","新店區"
"231027","3712-VJ","2018/03/24 13:59:36","新北市新店區北宜路一段39巷20號","121.539023333333","24.95849","6500600","新店區"
"231025","3713-VJ","2018/03/24 13:59:45","新北市新店區中正路275巷35號","121.536653333333","24.972695","6500600","新店區"
"231024","4716-K9","2018/03/24 13:59:30","新北市新店區新生街13巷42-1號","121.538808333333","24.9665233333333","6500600","新店區"
"231038","4715-K9","2018/03/24 13:59:34","新北市新店區溪洲路121號","121.53124","24.9630133333333","6500600","新店區"
"231036","512-UM","2018/03/24 13:59:45","新北市新店區安祥路108巷3號","121.47517","24.95861","6500600","新店區"
"231035","513-UM","2018/03/24 13:59:43","新北市新店區安和路一段52巷2號","121.517626666667","24.966145","6500600","新店區"
"231006","617-UM","2018/03/24 13:59:42","新北市新店區北宜路二段211號","121.553196666667","24.9534016666667","6500600","新店區"
"231001","619-UM","2018/03/24 13:59:33","新北市新店區三民路49號","121.537025","24.9709683333333","6500600","新店區"
"231003","641-BX","2018/03/24 13:59:40","新北市新店區中興路一段46巷2號","121.539093333333","24.9589166666667","6500600","新店區"
"231034","645-TV","2018/03/24 13:59:47","新北市新店區達觀路12號","121.505118333333","24.9410083333333","6500600","新店區"
"231013","719-UM","2018/03/24 13:59:33","新北市新店區明德路111號","121.54154","24.9794416666667","6500600","新店區"
"231033","720-UM","2018/03/24 13:59:49","新北市新店區安康路一段35號","121.531555","24.9607783333333","6500600","新店區"
"231005","897-TW","2018/03/24 13:59:42","新北市新店區中興路三段219-1號","121.543458333333","24.9823466666667","6500600","新店區"
"231004","899-TW","2018/03/24 13:59:46","新北市新店區北新路二段137號","121.542883333333","24.97556","6500600","新店區"
"231037","AKT-0513","2018/03/24 13:59:47","新北市新店區安康路三段165巷5號","121.489693333333","24.9513833333333","6500600","新店區"
"235030","003-UY","2018/03/24 13:59:44","新北市中和區中山路二段131巷5弄4號","121.502918333333","25.0028666666667","6500300","中和區"
"235028","005-UY","2018/03/24 13:59:42","新北市中和區泰和街44巷27號","121.498176666667","25.0010633333333","6500300","中和區"
"235027","006-UY","2018/03/24 13:59:44","新北市中和區中正路584號","121.48609","24.9949433333333","6500300","中和區"
"235020","096-UM","2018/03/24 13:59:42","新北市中和區員山路514巷2號","121.479396666667","25.009605","6500300","中和區"
"235003","097-UM","2018/03/24 13:59:47","新北市中和區自立路58巷9號","121.52339","24.9914116666667","6500300","中和區"
"235029","098-UM","2018/03/24 13:59:49","新北市中和區中山路二段2巷79號","121.50133","25.0075116666667","6500300","中和區"
"235022","151-BY","2018/03/24 13:59:29","新北市中和區連城路569巷9弄1號","121.479371666667","24.9943333333333","6500300","中和區"
"235019","183-VK","2018/03/24 13:59:46","新北市中和區中山路三段229巷31-1號","121.469956666667","25.0060266666667","6500300","中和區"
"235002","185-VK","2018/03/24 13:59:34","新北市中和區大勇街27巷2號","121.51735","24.9937016666667","6500300","中和區"
"235013","186-VK","2018/03/24 13:59:37","新北市中和區景安路147號","121.505495","24.9953566666667","6500300","中和區"
"235031","255-BX","2018/03/24 13:48:53","新北市中和區新生街220巷1弄9號","121.483385","24.998185","6500300","中和區"
"235008","293-VK","2018/03/24 13:59:44","新北市中和區中興街172巷12弄13號","121.499446666667","24.9908316666667","6500300","中和區"
"235036","301-VK","2018/03/24 13:59:42","新北市中和區中山路二段264號","121.49726","25.0024166666667","6500300","中和區"
"235007","352-BY","2018/03/24 13:59:32","新北市中和區成功路115號","121.525925","24.991005","6500300","中和區"
"235032","377-QA","2018/03/24 13:59:45","新北市中和區圓通路158巷1弄9號","121.497256666667","24.99609","6500300","中和區"
"235025","378-QA","2018/03/24 13:59:49","新北市中和區民有街59號","121.476305","25.0036066666667","6500300","中和區"
"235035","269-TV","2018/03/24 13:59:37","新北市中和區連城路246-4號","121.488035","24.9963483333333","6500300","中和區"
"235014","4979-A6","2018/03/24 13:59:39","新北市中和區華新街50巷3號","121.507765","24.9839783333333","6500300","中和區"
"235033","4980-A6","2018/03/24 13:59:41","新北市中和區中和路167號","121.502901666667","25.00017","6500300","中和區"
"235006","551-UM","2018/03/24 13:59:41","新北市中和區秀朗路三段128巷1弄6號","121.524248333333","24.9920066666667","6500300","中和區"
"235034","558-UM","2018/03/24 13:59:47","新北市中和區安和路216-1號","121.505973333333","24.9992033333333","6500300","中和區"
"235009","565-BX","2018/03/24 13:59:46","新北市中和區景新街467巷20弄166號","121.51442","24.987725","6500300","中和區"
"235018","640-BX","2018/03/24 13:59:29","新北市中和區民享街5號","121.473915","25.0057266666667","6500300","中和區"
"235024","647-TV","2018/03/24 13:59:42","新北市中和區中山路三段149號","121.47364","25.00618","6500300","中和區"
"235011","732-UM","2018/03/24 13:59:52","新北市中和區興南路二段107號","121.505745","24.984465","6500300","中和區"
"235010","733-UM","2018/03/24 13:59:42","新北市中和區興南路一段135巷22弄12號","121.509058333333","24.9868216666667","6500300","中和區"
"235026","800-TS","2018/03/24 13:59:36","新北市中和區中山路二段366巷36號","121.491685","25.0050816666667","6500300","中和區"
"235021","801-TS","2018/03/24 13:59:41","新北市中和區民利街40巷1弄11號","121.479011666667","24.9988766666667","6500300","中和區"
"235005","802-TS","2018/03/24 13:59:32","新北市中和區永貞路241號","121.513116666667","25.003815","6500300","中和區"
"235016","805-TS","2018/03/24 13:59:41","新北市中和區興南路二段120號","121.504516666667","24.9837616666667","6500300","中和區"
"235012","896-TW","2018/03/24 13:59:45","新北市中和區華新街63號","121.508095","24.9841866666667","6500300","中和區"
"235017","900-TW","2018/03/24 13:59:40","新北市中和區和平路200巷35弄1號","121.465325","24.9945666666667","6500300","中和區"
"235015","157-BY","2018/03/24 13:59:35","新北市中和區忠孝街17號","121.510176666667","24.9829116666667","6500300","中和區"
"235001","AAC-213","2018/03/24 13:59:31","新北市中和區秀朗路三段10巷37弄4號","121.524123333333","24.9960483333333","6500300","中和區"
"235023","AAC-215","2018/03/24 13:59:48","新北市中和區圓通路367巷20弄31號","121.491395","24.988075","6500300","中和區"
"220013","072-UY","2018/03/24 13:59:48","新北市板橋區民族路287巷10號","121.471215","25.007135","6500100","板橋區"
"220034","073-UY","2018/03/24 13:59:41","新北市板橋區中正路236巷16號","121.456435","25.01902","6500100","板橋區"
"220017","AAD-861","2018/03/24 13:59:32","新北市板橋區南雅南路一段3巷25-10號","121.456818333333","25.0056433333333","6500100","板橋區"
"247013","546-UM","2018/03/24 13:59:50","新北市蘆洲區中正路153號","121.46923","25.0848733333333","6501400","蘆洲區"
"247009","341-TH","2018/03/24 13:59:36","新北市蘆洲區中山一路138號","121.476348333333","25.0817366666667","6501400","蘆洲區"
"247011","339-TH","2018/03/24 13:59:30","新北市蘆洲區中興街23號","121.480778333333","25.087015","6501400","蘆洲區"
"247005","336-TH","2018/03/24 13:59:49","新北市蘆洲區永安南路二段62號","121.465098333333","25.07802","6501400","蘆洲區"
"247003","335-TH","2018/03/24 13:59:42","新北市蘆洲區長榮路39號","121.463141666667","25.0826116666667","6501400","蘆洲區"
"247017","057-VK","2018/03/24 13:59:43","新北市蘆洲區民族路327巷136號","121.475156666667","25.0893483333333","6501400","蘆洲區"
"247007","056-VK","2018/03/24 13:59:40","新北市蘆洲區重陽街15號","121.480905","25.08212","6501400","蘆洲區"
"247015","007-UY","2018/03/24 13:59:50","新北市蘆洲區光華路20號","121.469575","25.0834233333333","6501400","蘆洲區"
"247019","001-UY","2018/03/24 13:59:38","新北市蘆洲區民族路426巷40弄11號","121.473523333333","25.0931283333333","6501400","蘆洲區"
"228005","097-TW","2018/03/24 13:59:41","新北市貢寮區美豐里雞母嶺街52-1號","121.888586666667","25.0685816666667","6502600","貢寮區"
"228004","212-TW","2018/03/24 13:59:44","新北市貢寮區龍崗里嵩陽街35-1號","121.906726666667","25.0175266666667","6502600","貢寮區"
"253003","6232-TK","2018/03/24 13:59:46","新北市石門區尖子鹿17-4號","121.576293333333","25.2790483333333","6502200","石門區"
"253001","6251-TK","2018/03/24 13:59:48","新北市石門區下員坑50-1號","121.518551666667","25.272365","6502200","石門區"
"253002","637-UY","2018/03/24 13:59:42","新北市石門區七股35號","121.552773333333","25.2607633333333","6502200","石門區"
"253004","8270-PC","2018/03/24 13:59:35","新北市石門區草埔尾20-1號","121.603495","25.2627166666667","6502200","石門區"
"207002","749-BX","2018/03/24 13:59:45","新北市萬里區溪底里烏塗炭10號","121.632618333333","25.1505316666667","6502800","萬里區"
"207001","662-BX","2018/03/24 13:59:32","新北市萬里區磺潭里清水18號","121.637875","25.19765","6502800","萬里區"
"252005","AAC-283","2018/03/24 13:59:45","新北市三芝區橫山里橫山56-6號","121.535678333333","25.249295","6502100","三芝區"
"236068","105-UM","2018/03/24 13:59:41","新北市土城區金城路一段88巷20弄1號","121.445196666667","24.9729316666667","6501300","土城區"
"236041","107-UM","2018/03/24 13:59:44","新北市土城區亞洲路58巷5弄8號","121.43365","24.9743083333333","6501300","土城區"
"236075","166-UM","2018/03/24 13:59:33","新北市土城區永寧路32巷10弄21號","121.42895","24.96106","6501300","土城區"
"236029","253-BX","2018/03/24 13:59:36","新北市土城區中央路二段227號","121.440366666667","24.9725583333333","6501300","土城區"
"236024","269-VK","2018/03/24 13:59:47","新北市土城區中華路二段115號","121.439085","24.97694","6501300","土城區"
"236013","270-VK","2018/03/24 13:59:38","新北市土城區學府路二段225號","121.445181666667","24.9782416666667","6501300","土城區"
"236035","271-VK","2018/03/24 13:59:33","新北市土城區中正路82-1號","121.445406666667","24.975765","6501300","土城區"
"236017","401-BY","2018/03/24 13:59:48","新北市土城區亞洲路32巷23號","121.434883333333","24.9750933333333","6501300","土城區"
"236006","498-BY","2018/03/24 13:59:50","新北市土城區中華路一段50號","121.446061666667","24.9890133333333","6501300","土城區"
"236057","912-UM","2018/03/24 13:59:41","新北市土城區中央路三段42號","121.437386666667","24.9677933333333","6501300","土城區"
"236045","913-UM","2018/03/24 13:59:46","新北市土城區學士路181號","121.445946666667","24.9758016666667","6501300","土城區"
"236061","915-UM","2018/03/24 13:59:51","新北市土城區亞洲路32巷22號","121.435446666667","24.9752783333333","6501300","土城區"
"236054","AAC-216","2018/03/24 13:59:41","新北市土城區亞洲路46巷22號","121.434638333333","24.9750383333333","6501300","土城區"
"242048","172-VK","2018/03/24 13:59:42","新北市新莊區環漢路四段1號","121.434836666667","25.0003083333333","6500500","新莊區"
"220027","145-BY","2018/03/24 13:59:48","新北市板橋區民權路202巷9弄60號","121.459208333333","25.0157266666667","6500100","板橋區"
"220105","KEA-2550","2018/03/24 13:59:32","新北市板橋區莊敬路66號","121.471685","25.0254933333333","6500100","板橋區"
"220030","610-BX","2018/03/24 13:59:39","新北市板橋區滿平街70號","121.427358333333","24.9893066666667","6500100","板橋區"
"220050","245-BX","2018/03/24 13:59:49","新北市板橋區文化路二段182巷11號","121.472068333333","25.0268366666667","6500100","板橋區"
"220052","257-TC","2018/03/24 13:59:14","新北市板橋區介壽街106號","121.470535","25.0182133333333","6500100","板橋區"
"220004","276-BY","2018/03/24 13:59:47","新北市板橋區信義路150巷32號","121.45782","24.991835","6500100","板橋區"
"220020","277-BY","2018/03/24 13:59:48","新北市板橋區大觀路三段50巷49號","121.432196666667","24.9956983333333","6500100","板橋區"
"220038","280-UM","2018/03/24 13:59:52","新北市板橋區民生路二段120號","121.470886666667","25.0193466666667","6500100","板橋區"
"220019","283-VK","2018/03/24 13:59:46","新北市板橋區重慶路250號","121.46298","25.0009883333333","6500100","板橋區"
"220043","285-UM","2018/03/24 13:59:31","新北市板橋區文化路二段76號","121.469446666667","25.0250516666667","6500100","板橋區"
"220001","285-VK","2018/03/24 13:59:50","新北市板橋區中山路二段89巷53號","121.473621666667","25.0173816666667","6500100","板橋區"
"220031","286-VK","2018/03/24 13:59:47","新北市板橋區僑中二街152號","121.444843333333","25.0043733333333","6500100","板橋區"
"220029","287-VK","2018/03/24 13:59:46","新北市板橋區光華街19巷7號","121.453443333333","25.0120016666667","6500100","板橋區"
"220039","288-VK","2018/03/24 13:59:34","新北市板橋區四維路177巷2弄1號","121.464075","25.026255","6500100","板橋區"
"220009","293-UM","2018/03/24 13:59:37","新北市板橋區永豐街120巷2弄9-2號","121.47642","25.0203383333333","6500100","板橋區"
"220010","295-UM","2018/03/24 13:59:39","新北市板橋區三民路二段245巷4弄2號","121.480991666667","25.01222","6500100","板橋區"
"220032","296-UM","2018/03/24 13:59:37","新北市板橋區龍興街2號","121.442718333333","24.9994233333333","6500100","板橋區"
"220023","303-R5","2018/03/24 13:59:41","新北市板橋區南興路36號","121.454645","25.00764","6500100","板橋區"
"220041","307-R5","2018/03/24 13:59:40","新北市板橋區文化路一段104巷1弄7-1號","121.465291666667","25.0179933333333","6500100","板橋區"
"220047","317-R6","2018/03/24 13:59:50","新北市板橋區民有街32號","121.466025","25.0254583333333","6500100","板橋區"
"220028","461-BY","2018/03/24 13:59:29","新北市板橋區大觀路二段力行3巷5號","121.445616666667","24.99552","6500100","板橋區"
"220012","486-VK","2018/03/24 13:59:50","新北市板橋區板新路229號","121.467965","25.0158316666667","6500100","板橋區"
"220037","491-VK","2018/03/24 13:59:51","新北市板橋區文化路二段28號","121.469095","25.02485","6500100","板橋區"
"220104","560-BX","2018/03/24 13:59:44","新北市板橋區中正路375巷30號","121.453506666667","25.020715","6500100","板橋區"
"220011","609-BX","2018/03/24 13:59:51","新北市板橋區中山路二段130號","121.476276666667","25.0169316666667","6500100","板橋區"
"220040","637-BX","2018/03/24 13:59:47","新北市板橋區雙十路二段47巷20號","121.47582","25.025975","6500100","板橋區"
"220005","686-BX","2018/03/24 13:59:41","新北市板橋區重慶路67號","121.461971666667","25.006985","6500100","板橋區"
"220025","687-BX","2018/03/24 13:59:35","新北市板橋區大觀路二段174巷137號","121.441181666667","25.0020616666667","6500100","板橋區"
"220042","689-BX","2018/03/24 13:59:42","新北市板橋區民生路三段52號","121.467268333333","25.025185","6500100","板橋區"
"220002","741-BX","2018/03/24 13:59:50","新北市板橋區重慶路139巷21號","121.463741666667","25.0047733333333","6500100","板橋區"
"220051","KEA-2699","2018/03/24 13:59:48","新北市板橋區懷德街235巷2-1號","121.481301666667","25.0283933333333","6500100","板橋區"
"220003","827-TW","2018/03/24 13:59:44","新北市板橋區中山路一段158巷3號","121.466255","25.0117366666667","6500100","板橋區"
"220014","829-TW","2018/03/24 13:59:44","新北市板橋區三民路二段正隆巷18號","121.477713333333","25.0128833333333","6500100","板橋區"
"220016","830-TW","2018/03/24 13:59:36","新北市板橋區中山路二段443巷52弄2號","121.481073333333","25.0214733333333","6500100","板橋區"
"220045","831-TW","2018/03/24 13:59:40","新北市板橋區莒光路101號","121.472588333333","25.02398","6500100","板橋區"
"220038","833-TW","2018/03/24 13:53:50","新北市板橋區民生路二段161巷1號","121.469993333333","25.0199633333333","6500100","板橋區"
"220022","895-R6","2018/03/24 13:59:45","新北市板橋區林園街85號","121.453591666667","25.0106783333333","6500100","板橋區"
"220021","985-R7","2018/03/24 13:59:40","新北市板橋區北門街53號","121.45594","25.0116233333333","6500100","板橋區"
"220046","AAC-210","2018/03/24 13:59:43","新北市板橋區陽明街166號","121.463675","25.024575","6500100","板橋區"
"220018","AAC-253","2018/03/24 13:59:47","新北市板橋區四川路一段387號","121.457893333333","24.9990166666667","6500100","板橋區"
