"lineid","car","time","location","longitude","latitude","cityid","cityname"
"234044","148-BY","2018/03/24 14:09:33","新北市永和區得和路321號","121.52334","24.9996016666667","6500400","永和區"
"234068","149-BY","2018/03/24 14:09:45","新北市永和區中正路612號","121.517101666667","25.0073766666667","6500400","永和區"
"234005","207-UY","2018/03/24 14:09:34","新北市中和區南工路36號","121.505775","25.0011433333333","6500400","永和區"
"234078","298-R6","2018/03/24 14:09:48","新北市永和區永亨路100號","121.523113333333","25.00485","6500400","永和區"
"234036","336-UY","2018/03/24 14:09:47","新北市永和區環河東路三段96號","121.528156666667","25.0040733333333","6500400","永和區"
"234062","337-UY","2018/03/24 14:09:33","新北市永和區永利路150號","121.522353333333","25.0026583333333","6500400","永和區"
"234084","338-UY","2018/03/24 14:09:50","新北市永和區中正路561號","121.5168","25.0084566666667","6500400","永和區"
"234015","745-BX","2018/03/24 14:09:48","新北市永和區仁愛路60-1號","121.513448333333","25.0132783333333","6500400","永和區"
"234028","746-BX","2018/03/24 14:09:45","新北市永和區民權路47號","121.520175","24.997185","6500400","永和區"
"234052","KEA-2590","2018/03/24 14:09:47","新北市永和區博愛街20巷2號","121.51777","25.0158166666667","6500400","永和區"
"234012","KEA-2591","2018/03/24 14:09:47","新北市永和區中山路一段214號","121.508286666667","25.0085233333333","6500400","永和區"
"234060","AAD-866","2018/03/24 14:09:43","新北市中和區安樂路255號","121.514036666667","24.999875","6500400","永和區"
"234040","862-TW","2018/03/24 14:09:51","新北市永和區雙和街35號","121.508875","25.002305","6500400","永和區"
"234048","863-TW","2018/03/24 14:09:48","新北市永和區環河西路二段61號","121.507035","25.01534","6500400","永和區"
"234025","9371-KE","2018/03/24 14:09:37","新北市永和區安樂路272巷11號","121.514968333333","25.004345","6500400","永和區"
"234010","9373-KE","2018/03/24 14:09:44","新北市永和區環河西路二段245-1號","121.500551666667","25.0091083333333","6500400","永和區"
"248017","225-UY","2018/03/24 14:09:33","新北市五股區壟路1-4號","121.419366666667","25.0960183333333","6501500","五股區"
"234022","9380-KE","2018/03/24 14:09:32","新北市永和區博愛街31巷2號","121.518431666667","25.0159383333333","6500400","永和區"
"234076","969-R7","2018/03/24 14:09:45","新北市永和區民權路82號","121.5199","24.9971066666667","6500400","永和區"
"234072","AAC-211","2018/03/24 14:09:34","新北市永和區豫溪街160巷1號","121.523305","25.009595","6500400","永和區"
"234066","AAC-212","2018/03/24 14:09:37","新北市永和區保平路214巷3弄10號","121.50886","25.0061","6500400","永和區"
"234001","AAC-295","2018/03/24 14:09:43","新北市永和區豫溪街33號","121.516405","25.0098783333333","6500400","永和區"
"231002","002-UM","2018/03/24 14:09:43","新北市新店區中正路485號","121.533898333333","24.9820066666667","6500600","新店區"
"231028","046-UY","2018/03/24 14:09:45","新北市新店區安和路二段233號","121.517178333333","24.9763483333333","6500600","新店區"
"231030","047-UY","2018/03/24 14:09:35","新北市新店區安民街65巷21-2號","121.515183333333","24.9675283333333","6500600","新店區"
"231029","106-UY","2018/03/24 14:09:33","新北市新店區安康路二段161號","121.510263333333","24.95932","6500600","新店區"
"231018","107-UY","2018/03/24 14:09:34","新北市新店區中央五街22-1號","121.529225","24.97453","6500600","新店區"
"231012","108-UY","2018/03/24 14:09:35","新北市新店區五峰路63巷8弄72號","121.547973333333","24.9685483333333","6500600","新店區"
"231020","187-VK","2018/03/24 14:09:51","新北市新店區新烏路二段369巷353-1號","121.550588333333","24.91021","6500600","新店區"
"231017","KEA-2219","2018/03/24 14:09:34","新北市新店區中生路148-2號","121.5684","24.9489516666667","6500600","新店區"
"231023","AAD-862","2018/03/24 14:09:33","新北市新店區文中路45號","121.539536666667","24.9565966666667","6500600","新店區"
"231027","3712-VJ","2018/03/24 14:09:36","新北市新店區光明街138巷13弄7號","121.540268333333","24.96154","6500600","新店區"
"231025","3713-VJ","2018/03/24 14:09:45","新北市新店區建安街33巷28號","121.538338333333","24.97543","6500600","新店區"
"231038","4715-K9","2018/03/24 14:09:34","新北市新店區溪洲路121號","121.531386666667","24.962685","6500600","新店區"
"231036","512-UM","2018/03/24 14:09:45","新北市新店區安祥路109巷1弄51號","121.477391666667","24.9606733333333","6500600","新店區"
"231035","513-UM","2018/03/24 14:09:43","新北市新店區安和路一段52巷2號","121.517628333333","24.9661516666667","6500600","新店區"
"231006","617-UM","2018/03/24 14:09:45","新北市新店區北宜路二段142號","121.557375","24.9539116666667","6500600","新店區"
"231001","619-UM","2018/03/24 14:09:33","新北市新店區中華路40號","121.539935","24.9681416666667","6500600","新店區"
"231003","641-BX","2018/03/24 14:09:41","新北市新店區中興路一段199號","121.543435","24.9652233333333","6500600","新店區"
"231034","645-TV","2018/03/24 14:09:47","新北市新店區黎明路3號","121.503453333333","24.952415","6500600","新店區"
"231013","719-UM","2018/03/24 14:09:33","新北市新店區北新路三段65巷36號","121.540038333333","24.9811033333333","6500600","新店區"
"231033","720-UM","2018/03/24 14:09:50","新北市新店區永業路46號","121.531818333333","24.9539933333333","6500600","新店區"
"231005","897-TW","2018/03/24 14:09:42","新北市新店區中興路三段255號","121.542578333333","24.98446","6500600","新店區"
"231004","899-TW","2018/03/24 14:09:46","新北市新店區北新路二段158號","121.542973333333","24.97558","6500600","新店區"
"231037","AKT-0513","2018/03/24 14:09:47","新北市新店區安康路二段341巷28號","121.497036666667","24.95449","6500600","新店區"
"235030","003-UY","2018/03/24 14:09:44","新北市中和區廣福路36號","121.504466666667","25.0022883333333","6500300","中和區"
"235028","005-UY","2018/03/24 14:09:42","新北市中和區連城路23巷5號","121.499008333333","25.001725","6500300","中和區"
"235027","006-UY","2018/03/24 14:09:44","新北市中和區連城路249巷21弄2號","121.494066666667","24.9957666666667","6500300","中和區"
"235020","096-UM","2018/03/24 14:09:51","新北市中和區員山路565號","121.479435","25.007745","6500300","中和區"
"235003","097-UM","2018/03/24 14:09:47","新北市中和區秀峰街56號","121.521001666667","24.990365","6500300","中和區"
"235029","098-UM","2018/03/24 14:09:49","新北市中和區中山路二段64巷6號","121.50373","25.004965","6500300","中和區"
"235022","151-BY","2018/03/24 14:09:48","新北市中和區員山路115號","121.480993333333","24.9953183333333","6500300","中和區"
"235019","183-VK","2018/03/24 14:09:46","新北市中和區德光路113號","121.468118333333","25.0032166666667","6500300","中和區"
"235002","185-VK","2018/03/24 14:09:34","新北市中和區大仁街10巷27弄1號","121.519043333333","24.9925566666667","6500300","中和區"
"235013","186-VK","2018/03/24 14:09:37","新北市中和區景新街214號","121.507068333333","24.9951416666667","6500300","中和區"
"235031","255-BX","2018/03/24 14:04:53","新北市中和區新生街180號","121.48358","24.999855","6500300","中和區"
"235008","293-VK","2018/03/24 14:09:44","新北市中和區中興街214號","121.499436666667","24.9899383333333","6500300","中和區"
"235036","301-VK","2018/03/24 14:09:42","新北市中和區莊敬路30號","121.501208333333","25.00508","6500300","中和區"
"235007","352-BY","2018/03/24 14:09:32","新北市中和區景平路266號","121.514663333333","24.99262","6500300","中和區"
"235032","377-QA","2018/03/24 14:09:47","新北市中和區圓通路158巷9弄25號","121.497403333333","24.9963616666667","6500300","中和區"
"235025","378-QA","2018/03/24 14:09:34","新北市中和區員山路394巷5號","121.480985","25.0047066666667","6500300","中和區"
"235035","269-TV","2018/03/24 14:09:37","新北市中和區中正路747號","121.484846666667","24.9998066666667","6500300","中和區"
"235014","4979-A6","2018/03/24 14:09:45","新北市中和區復興路263巷9弄9號","121.503196666667","24.9898183333333","6500300","中和區"
"235033","4980-A6","2018/03/24 14:09:41","新北市中和區景平路736巷3弄11號","121.497573333333","25.0037983333333","6500300","中和區"
"235006","551-UM","2018/03/24 14:09:41","新北市中和區立人街12號","121.519393333333","24.9942783333333","6500300","中和區"
"235034","558-UM","2018/03/24 14:09:47","新北市中和區中和路128號","121.50345","24.9997316666667","6500300","中和區"
"235009","565-BX","2018/03/24 14:09:46","新北市中和區景新街467巷35弄19號","121.513958333333","24.9888533333333","6500300","中和區"
"235018","640-BX","2018/03/24 14:09:49","新北市中和區國光街107巷2弄29號","121.469375","24.9989866666667","6500300","中和區"
"235024","647-TV","2018/03/24 14:09:42","新北市中和區民享街91-8號","121.474518333333","25.00094","6500300","中和區"
"235011","732-UM","2018/03/24 14:09:52","新北市中和區興南路一段56巷5號","121.51053","24.9911183333333","6500300","中和區"
"235010","733-UM","2018/03/24 14:09:42","新北市中和區忠孝街1巷5號","121.508733333333","24.9833833333333","6500300","中和區"
"235026","800-TS","2018/03/24 14:09:36","新北市中和區中山路二段352號","121.492606666667","25.0027466666667","6500300","中和區"
"235021","801-TS","2018/03/24 14:09:41","新北市中和區民利街53號","121.479358333333","24.9987716666667","6500300","中和區"
"235005","802-TS","2018/03/24 14:09:35","新北市中和區中安街178巷4號","121.510863333333","24.9993633333333","6500300","中和區"
"235016","805-TS","2018/03/24 14:09:41","新北市中和區興南路二段142巷17弄32號","121.502713333333","24.9828283333333","6500300","中和區"
"235012","896-TW","2018/03/24 14:09:45","新北市中和區工專路139號","121.508458333333","24.9790016666667","6500300","中和區"
"235017","900-TW","2018/03/24 14:09:37","新北市中和區華福街71巷32號","121.467766666667","24.99697","6500300","中和區"
"235015","157-BY","2018/03/24 14:09:35","新北市中和區景新街332號","121.511911666667","24.99089","6500300","中和區"
"235001","AAC-213","2018/03/24 14:09:31","新北市中和區秀朗路三段50巷5-1號","121.525988333333","24.9954733333333","6500300","中和區"
"235023","AAC-215","2018/03/24 14:09:28","新北市中和區圓通路294巷17-5號","121.488651666667","24.990465","6500300","中和區"
"220013","072-UY","2018/03/24 14:09:48","新北市板橋區民族路219巷77號","121.46887","25.008965","6500100","板橋區"
"220034","073-UY","2018/03/24 14:09:32","新北市板橋區中正路236巷41號","121.457605","25.0193816666667","6500100","板橋區"
"220017","AAD-861","2018/03/24 14:09:30","新北市板橋區四川路一段104號","121.45945","25.0046616666667","6500100","板橋區"
"247023","893-R6","2018/03/24 14:09:46","新北市蘆洲區光明路135號","121.463963333333","25.0884366666667","6501400","蘆洲區"
"247013","546-UM","2018/03/24 14:09:50","新北市蘆洲區三民路145號","121.471736666667","25.086765","6501400","蘆洲區"
"247009","341-TH","2018/03/24 14:09:36","新北市蘆洲區信義路158-6號","121.479441666667","25.0839","6501400","蘆洲區"
"247011","339-TH","2018/03/24 14:09:30","新北市蘆洲區信義路345號","121.477761666667","25.0871416666667","6501400","蘆洲區"
"247005","336-TH","2018/03/24 14:09:30","新北市蘆洲區永安南路二段16巷17弄3號","121.467593333333","25.077865","6501400","蘆洲區"
"247003","335-TH","2018/03/24 14:09:42","新北市蘆洲區中華街6巷3號","121.462435","25.0824","6501400","蘆洲區"
"247017","057-VK","2018/03/24 14:09:32","新北市蘆洲區復興路186號","121.478026666667","25.08878","6501400","蘆洲區"
"247007","056-VK","2018/03/24 14:09:40","新北市五股區國道路三段17號","121.468815","25.0753166666667","6501400","蘆洲區"
"247001","053-VK","2018/03/24 14:09:36","新北市蘆洲區永平街62號","121.457338333333","25.0916683333333","6501400","蘆洲區"
"247015","007-UY","2018/03/24 14:09:30","新北市蘆洲區光華路46巷25號","121.468145","25.0838316666667","6501400","蘆洲區"
"247019","001-UY","2018/03/24 14:09:38","新北市蘆洲區民族路422巷15弄23號","121.472966666667","25.0929483333333","6501400","蘆洲區"
"228005","097-TW","2018/03/24 14:09:41","新北市貢寮區美豐里土地公嶺24號","121.890245","25.0630383333333","6502600","貢寮區"
"228004","212-TW","2018/03/24 14:09:44","新北市貢寮區雙玉里下雙溪街8號","121.91661","25.0159483333333","6502600","貢寮區"
"253003","6232-TK","2018/03/24 14:09:46","新北市石門區尖子鹿45號","121.582093333333","25.2683733333333","6502200","石門區"
"253001","6251-TK","2018/03/24 14:09:48","新北市石門區八甲73-2號","121.531038333333","25.2681816666667","6502200","石門區"
"253002","637-UY","2018/03/24 14:09:42","新北市石門區大溪墘3-1號","121.551735","25.2806616666667","6502200","石門區"
"253004","8270-PC","2018/03/24 14:09:41","新北市石門區小坑36號","121.596371666667","25.2676583333333","6502200","石門區"
"207002","749-BX","2018/03/24 14:09:45","新北市萬里區溪底里瑞泉路13-1號","121.604896666667","25.1451333333333","6502800","萬里區"
"207001","662-BX","2018/03/24 14:09:32","新北市萬里區磺潭里清水18號","121.637858333333","25.197705","6502800","萬里區"
"252005","AAC-283","2018/03/24 14:09:45","新北市三芝區橫山里橫山23-6號","121.541073333333","25.26058","6502100","三芝區"
"236068","105-UM","2018/03/24 14:09:41","新北市土城區明德路一段130號","121.46366","24.9791583333333","6501300","土城區"
"236041","107-UM","2018/03/24 14:09:44","新北市土城區中央路一段289號","121.444313333333","24.9842616666667","6501300","土城區"
"236075","166-UM","2018/03/24 14:09:33","新北市土城區永安街10號","121.434215","24.965245","6501300","土城區"
"236029","253-BX","2018/03/24 14:09:36","新北市土城區興城路75號","121.440033333333","24.970805","6501300","土城區"
"236024","269-VK","2018/03/24 14:09:47","新北市土城區承天路18號","121.439365","24.9635933333333","6501300","土城區"
"236013","270-VK","2018/03/24 14:09:38","新北市土城區青雲路39巷7號","121.460341666667","24.98756","6501300","土城區"
"236035","271-VK","2018/03/24 14:09:33","新北市土城區青雲路449-1號","121.45888","24.9746666666667","6501300","土城區"
"236017","401-BY","2018/03/24 14:09:48","新北市土城區中華路二段2號","121.43935","24.97967","6501300","土城區"
"236006","498-BY","2018/03/24 14:09:29","新北市土城區中華路一段94號","121.444675","24.9873416666667","6501300","土城區"
"236057","912-UM","2018/03/24 14:09:41","新北市土城區中央路四段22號","121.420963333333","24.96096","6501300","土城區"
"236045","913-UM","2018/03/24 14:09:46","新北市土城區明德路一段365-1號","121.453561666667","24.9790416666667","6501300","土城區"
"236061","915-UM","2018/03/24 14:09:31","新北市土城區金城路二段396號","121.463941666667","24.98578","6501300","土城區"
"236054","AAC-216","2018/03/24 14:09:41","新北市土城區中華路二段102號","121.438046666667","24.97432","6501300","土城區"
"242048","172-VK","2018/03/24 14:09:42","新北市樹林區八德街1146號","121.390906666667","24.968525","6500500","新莊區"
"220027","145-BY","2018/03/24 14:09:51","新北市板橋區民權路260巷7號","121.458358333333","25.0153933333333","6500100","板橋區"
"220105","KEA-2550","2018/03/24 14:09:32","新北市板橋區雙十路三段14號","121.471641666667","25.030375","6500100","板橋區"
"220030","610-BX","2018/03/24 14:09:39","新北市板橋區溪崑二街108號","121.426508333333","24.98866","6500100","板橋區"
"220050","245-BX","2018/03/24 14:09:45","新北市板橋區民生路二段161巷1號","121.46983","25.01999","6500100","板橋區"
"220052","257-TC","2018/03/24 14:09:34","新北市板橋區文化路一段188巷9弄39號","121.469306666667","25.0191333333333","6500100","板橋區"
"220004","276-BY","2018/03/24 14:09:39","新北市板橋區信義路150巷16號","121.458226666667","24.9918316666667","6500100","板橋區"
"220020","277-BY","2018/03/24 14:09:49","新北市板橋區金門街369巷81號","121.428465","24.9826483333333","6500100","板橋區"
"220038","280-UM","2018/03/24 14:09:52","新北市板橋區文化路二段503號","121.475941666667","25.0345233333333","6500100","板橋區"
"220019","283-VK","2018/03/24 14:09:50","新北市板橋區重慶路353巷7號","121.46485","24.9981033333333","6500100","板橋區"
"220043","285-UM","2018/03/24 14:09:51","新北市板橋區光武街169號","121.465271666667","25.030025","6500100","板橋區"
"220001","285-VK","2018/03/24 14:09:39","新北市板橋區懷仁街37-4號","121.476571666667","25.0194283333333","6500100","板橋區"
"220031","286-VK","2018/03/24 14:09:47","新北市板橋區大觀路二段174巷196弄3號","121.442646666667","25.0038816666667","6500100","板橋區"
"220029","287-VK","2018/03/24 14:09:33","新北市板橋區南雅西路二段158號","121.451865","25.013425","6500100","板橋區"
"220039","288-VK","2018/03/24 14:09:34","新北市板橋區裕民街54號","121.46143","25.0286416666667","6500100","板橋區"
"220009","293-UM","2018/03/24 14:09:36","新北市板橋區中山路二段248號","121.478593333333","25.0183033333333","6500100","板橋區"
"220010","295-UM","2018/03/24 14:09:50","新北市板橋區三民路二段居仁巷2弄23號","121.479885","25.012885","6500100","板橋區"
"220032","296-UM","2018/03/24 14:09:37","新北市板橋區大觀路三段178號","121.431196666667","24.9929066666667","6500100","板橋區"
"220023","303-R5","2018/03/24 14:09:35","新北市板橋區大智街25巷34號","121.454096666667","25.0149016666667","6500100","板橋區"
"220041","307-R5","2018/03/24 14:09:40","新北市板橋區文化路二段225巷60弄66號","121.469135","25.0299383333333","6500100","板橋區"
"220047","317-R6","2018/03/24 14:09:49","新北市板橋區自由路60-3號","121.465803333333","25.0236816666667","6500100","板橋區"
"220028","461-BY","2018/03/24 14:09:49","新北市板橋區大觀路二段3巷23號","121.448178333333","25.00369","6500100","板橋區"
"220012","486-VK","2018/03/24 14:09:39","新北市板橋區民生路一段33號","121.476346666667","25.0120333333333","6500100","板橋區"
"220037","491-VK","2018/03/24 14:09:51","新北市板橋區文化路二段182巷3弄29號","121.472116666667","25.028295","6500100","板橋區"
"220104","560-BX","2018/03/24 14:09:44","新北市板橋區瑞安街31巷3號","121.455858333333","25.0227666666667","6500100","板橋區"
"220011","609-BX","2018/03/24 14:09:51","新北市板橋區三民路二段202-5號","121.479083333333","25.014515","6500100","板橋區"
"220040","637-BX","2018/03/24 14:09:47","新北市板橋區縣民大道247巷80號","121.482163333333","25.0269566666667","6500100","板橋區"
"220005","686-BX","2018/03/24 14:09:41","新北市板橋區重慶路293-1號","121.463341666667","24.999115","6500100","板橋區"
"220025","687-BX","2018/03/24 14:09:35","新北市板橋區龍興街101巷2號","121.444408333333","25.0031916666667","6500100","板橋區"
"220042","689-BX","2018/03/24 14:09:42","新北市板橋區民生路三段239號","121.46471","25.0287566666667","6500100","板橋區"
"220002","741-BX","2018/03/24 14:09:50","新北市板橋區重慶路64號","121.461711666667","25.00678","6500100","板橋區"
"220051","KEA-2699","2018/03/24 14:09:48","新北市板橋區田單街49巷2號","121.482555","25.0281283333333","6500100","板橋區"
"220003","827-TW","2018/03/24 14:09:44","新北市板橋區新民街39號","121.46387","25.0105883333333","6500100","板橋區"
"220014","829-TW","2018/03/24 14:09:32","新北市板橋區民享街116巷2弄8號","121.477701666667","25.0156583333333","6500100","板橋區"
"220016","830-TW","2018/03/24 14:09:35","新北市板橋區翠華街6巷48號","121.481533333333","25.0248033333333","6500100","板橋區"
"220045","831-TW","2018/03/24 14:09:40","新北市板橋區雙十路二段6-12號","121.476796666667","25.02665","6500100","板橋區"
"220038","833-TW","2018/03/24 13:53:50","新北市板橋區民生路二段161巷1號","121.469993333333","25.0199633333333","6500100","板橋區"
"220022","895-R6","2018/03/24 14:09:45","新北市板橋區北門街55號","121.456133333333","25.0117133333333","6500100","板橋區"
"220021","985-R7","2018/03/24 14:09:40","新北市板橋區中正路146號","121.457011666667","25.016165","6500100","板橋區"
"220046","AAC-210","2018/03/24 14:09:43","新北市板橋區新海路135巷33號","121.45995","25.0228","6500100","板橋區"
"220018","AAC-253","2018/03/24 14:09:49","新北市板橋區忠孝路86號","121.461371666667","25.002035","6500100","板橋區"
