"lineid","car","time","location","longitude","latitude","cityid","cityname"
"234068","149-BY","2018/03/24 14:29:45","新北市永和區永亨路7號","121.519413333333","25.00568","6500400","永和區"
"234005","207-UY","2018/03/24 14:29:34","新北市永和區安樂路198號","121.515075","25.0015916666667","6500400","永和區"
"234078","298-R6","2018/03/24 14:29:36","新北市永和區永亨路66號","121.520866666667","25.0058883333333","6500400","永和區"
"234062","337-UY","2018/03/24 14:29:33","新北市永和區中正路435號","121.517058333333","25.0051066666667","6500400","永和區"
"234084","338-UY","2018/03/24 14:29:50","新北市永和區光復街21號","121.516468333333","25.0174566666667","6500400","永和區"
"234028","746-BX","2018/03/24 14:29:45","新北市永和區民權路51號","121.520018333333","24.99706","6500400","永和區"
"234052","KEA-2590","2018/03/24 14:29:48","新北市永和區環河東路一段76號","121.519431666667","25.0166516666667","6500400","永和區"
"234060","AAD-866","2018/03/24 14:29:43","新北市永和區中正路381號","121.517155","25.0037316666667","6500400","永和區"
"234040","862-TW","2018/03/24 14:29:31","新北市永和區安樂路348號","121.514471666667","25.0065033333333","6500400","永和區"
"234048","863-TW","2018/03/24 14:29:49","新北市永和區保安路138號","121.508738333333","25.015115","6500400","永和區"
"234025","9371-KE","2018/03/24 14:29:37","新北市永和區安樂路66號","121.514883333333","24.998205","6500400","永和區"
"248017","225-UY","2018/03/24 14:18:33","新北市五股區壟路16號","121.415463333333","25.085605","6501500","五股區"
"234072","AAC-211","2018/03/24 14:29:34","新北市永和區環河東路一段126號","121.520691666667","25.0153666666667","6500400","永和區"
"234001","AAC-295","2018/03/24 14:29:43","新北市永和區大新街56號","121.516211666667","25.00829","6500400","永和區"
"231002","002-UM","2018/03/24 14:29:43","新北市新店區中正路366號","121.535396666667","24.9760483333333","6500600","新店區"
"231028","046-UY","2018/03/24 14:29:45","新北市新店區安康路二段147-1號","121.511306666667","24.9598083333333","6500600","新店區"
"231030","047-UY","2018/03/24 14:29:35","新北市新店區安民街120號","121.516368333333","24.9687616666667","6500600","新店區"
"231029","106-UY","2018/03/24 14:29:33","新北市新店區安康路二段389號","121.494558333333","24.9543683333333","6500600","新店區"
"231018","107-UY","2018/03/24 14:29:34","新北市新店區中央三街35號","121.528201666667","24.9742716666667","6500600","新店區"
"231012","108-UY","2018/03/24 14:29:35","新北市新店區中興路二段236巷9號","121.547808333333","24.9760883333333","6500600","新店區"
"231020","187-VK","2018/03/24 14:29:34","新北市新店區桂山路37號","121.563115","24.9044733333333","6500600","新店區"
"231017","KEA-2219","2018/03/24 14:29:34","新北市新店區北宜路三段124號","121.580663333333","24.9503716666667","6500600","新店區"
"231023","AAD-862","2018/03/24 14:29:37","新北市新店區光明街103號","121.539133333333","24.9611533333333","6500600","新店區"
"231027","3712-VJ","2018/03/24 14:29:36","新北市新店區寶橋路69-1號","121.545405","24.9750416666667","6500600","新店區"
"231025","3713-VJ","2018/03/24 14:29:45","新北市新店區民族路161號","121.537691666667","24.9767916666667","6500600","新店區"
"231024","4716-K9","2018/03/24 14:29:50","新北市新店區安民街215號","121.516595","24.9720116666667","6500600","新店區"
"231038","4715-K9","2018/03/24 14:29:34","新北市新店區溪洲路160號","121.530258333333","24.9647066666667","6500600","新店區"
"231036","512-UM","2018/03/24 14:29:45","新北市新店區安祥路109巷104號","121.477633333333","24.9590516666667","6500600","新店區"
"231035","513-UM","2018/03/24 14:29:43","新北市新店區安光路11號","121.513475","24.9639583333333","6500600","新店區"
"231006","617-UM","2018/03/24 14:29:42","新北市新店區北宜路二段208號","121.559311666667","24.954405","6500600","新店區"
"231001","619-UM","2018/03/24 14:29:33","新北市新店區北新路一段96巷23號","121.543025","24.9688716666667","6500600","新店區"
"231003","641-BX","2018/03/24 14:29:40","新北市新店區中興路一段271號","121.545201666667","24.96802","6500600","新店區"
"231034","645-TV","2018/03/24 14:29:48","新北市新店區黎明路54巷2號","121.502313333333","24.94845","6500600","新店區"
"231013","719-UM","2018/03/24 14:29:33","新北市新店區民權路108-4號","121.536055","24.9833716666667","6500600","新店區"
"231033","720-UM","2018/03/24 14:29:30","新北市新店區安興路112號","121.515106666667","24.9772616666667","6500600","新店區"
"231005","897-TW","2018/03/24 14:29:42","新北市新店區北新路三段129號","121.541256666667","24.98265","6500600","新店區"
"231004","899-TW","2018/03/24 14:29:46","新北市新店區中正路263-2號","121.538491666667","24.9738166666667","6500600","新店區"
"231037","AKT-0513","2018/03/24 14:29:47","新北市新店區柴埕路51號","121.513716666667","24.965345","6500600","新店區"
"235030","003-UY","2018/03/24 14:29:44","新北市中和區景新街43號","121.504038333333","24.9991733333333","6500300","中和區"
"235028","005-UY","2018/03/24 14:29:42","新北市中和區南山路131-1號","121.502223333333","24.99662","6500300","中和區"
"235027","006-UY","2018/03/24 14:29:44","新北市中和區連城路203巷10弄4號","121.494888333333","24.9972833333333","6500300","中和區"
"235020","096-UM","2018/03/24 14:29:42","新北市中和區員山路514巷16號","121.47968","25.0095766666667","6500300","中和區"
"235003","097-UM","2018/03/24 14:29:47","新北市中和區秀峰街103巷7弄4號","121.51945","24.9890133333333","6500300","中和區"
"235029","098-UM","2018/03/24 14:29:49","新北市中和區永和路8巷21號","121.501041666667","25.0035983333333","6500300","中和區"
"235022","151-BY","2018/03/24 14:29:48","新北市中和區連城路521-2號","121.481806666667","24.99521","6500300","中和區"
"235019","183-VK","2018/03/24 14:29:46","新北市中和區中山路三段181巷18弄41號","121.47265","25.0051066666667","6500300","中和區"
"235002","185-VK","2018/03/24 14:29:37","新北市中和區自立路23號","121.522415","24.99575","6500300","中和區"
"235013","186-VK","2018/03/24 14:29:41","新北市中和區景新街256號","121.509421666667","24.99344","6500300","中和區"
"235031","255-BX","2018/03/24 14:20:33","新北市中和區連城路280號","121.484501666667","24.9963383333333","6500300","中和區"
"235008","293-VK","2018/03/24 14:29:46","新北市中和區南山路160號","121.504496666667","24.9918166666667","6500300","中和區"
"235036","301-VK","2018/03/24 14:29:42","新北市中和區中和路74號","121.500833333333","25.0002033333333","6500300","中和區"
"235007","352-BY","2018/03/24 14:29:32","新北市中和區景平路296號","121.51303","24.9925866666667","6500300","中和區"
"235032","377-QA","2018/03/24 14:29:45","新北市中和區永和路8巷21號","121.500893333333","25.003655","6500300","中和區"
"235025","378-QA","2018/03/24 14:29:49","新北市中和區民利街9巷2弄12號","121.480281666667","24.9986616666667","6500300","中和區"
"235035","269-TV","2018/03/24 14:29:37","新北市中和區中正路695號","121.485205","24.99831","6500300","中和區"
"235014","4979-A6","2018/03/24 14:29:36","新北市中和區中正路589巷15號","121.48605","24.9937616666667","6500300","中和區"
"235006","551-UM","2018/03/24 14:29:41","新北市中和區中和路378巷19號","121.511378333333","25.0017216666667","6500300","中和區"
"235034","558-UM","2018/03/24 14:29:47","新北市中和區中和路44號","121.500473333333","25.0010833333333","6500300","中和區"
"235009","565-BX","2018/03/24 14:29:46","新北市中和區景新街487號","121.513745","24.9873183333333","6500300","中和區"
"235018","640-BX","2018/03/24 14:29:49","新北市中和區國光街112巷16弄1號","121.469791666667","25.0016666666667","6500300","中和區"
"235024","647-TV","2018/03/24 14:29:42","新北市中和區新生街114巷14號","121.482853333333","25.0024366666667","6500300","中和區"
"235011","732-UM","2018/03/24 14:29:32","新北市中和區景平路259巷16號","121.507883333333","24.9927033333333","6500300","中和區"
"235010","733-UM","2018/03/24 14:29:42","新北市中和區忠孝街37巷44號","121.510681666667","24.98484","6500300","中和區"
"235021","801-TS","2018/03/24 14:29:47","新北市中和區員山路389號","121.481266666667","25.00263","6500300","中和區"
"235005","802-TS","2018/03/24 14:29:32","新北市中和區中和路232號","121.50661","24.9994866666667","6500300","中和區"
"235016","805-TS","2018/03/24 14:29:41","新北市中和區華新街143巷72號","121.506406666667","24.979165","6500300","中和區"
"235012","896-TW","2018/03/24 14:29:45","新北市中和區忠孝街76號","121.51205","24.9842316666667","6500300","中和區"
"235017","900-TW","2018/03/24 14:29:36","新北市中和區民德路197-2號","121.46895","24.9986166666667","6500300","中和區"
"235015","157-BY","2018/03/24 14:29:35","新北市中和區興南路一段71號","121.510068333333","24.98931","6500300","中和區"
"235001","AAC-213","2018/03/24 14:29:51","新北市中和區秀朗路三段12號","121.526046666667","24.9967333333333","6500300","中和區"
"235023","AAC-215","2018/03/24 14:29:48","新北市中和區圓通路252巷5弄4號","121.493291666667","24.99138","6500300","中和區"
"220013","072-UY","2018/03/24 14:29:47","新北市板橋區實踐路93巷101號","121.46739","25.00599","6500100","板橋區"
"220034","073-UY","2018/03/24 14:29:52","新北市板橋區中正路250巷31號","121.456911666667","25.0195366666667","6500100","板橋區"
"220017","AAD-861","2018/03/24 14:29:49","新北市板橋區稚暉街31號","121.456958333333","25.0042","6500100","板橋區"
"247023","893-R6","2018/03/24 14:29:46","新北市蘆洲區中正路263巷2號","121.467471666667","25.0874883333333","6501400","蘆洲區"
"247013","546-UM","2018/03/24 14:29:50","新北市蘆洲區忠孝路22號","121.47097","25.0841466666667","6501400","蘆洲區"
"247009","341-TH","2018/03/24 14:29:36","新北市蘆洲區鷺江街41號","121.47843","25.082385","6501400","蘆洲區"
"247011","339-TH","2018/03/24 14:29:30","新北市蘆洲區集賢路224巷37弄10-1號","121.480648333333","25.0881833333333","6501400","蘆洲區"
"247005","336-TH","2018/03/24 14:29:37","新北市蘆洲區長安街46巷21號","121.463936666667","25.08027","6501400","蘆洲區"
"247003","335-TH","2018/03/24 14:29:42","新北市蘆洲區長榮路269巷28號","121.459521666667","25.0859416666667","6501400","蘆洲區"
"247017","057-VK","2018/03/24 14:29:52","新北市蘆洲區民族路251號","121.476875","25.090415","6501400","蘆洲區"
"247007","056-VK","2018/03/24 14:29:40","新北市蘆洲區民生街119號","121.472965","25.0789516666667","6501400","蘆洲區"
"247001","053-VK","2018/03/24 14:29:36","新北市蘆洲區永樂街38巷33弄19號","121.45721","25.0896716666667","6501400","蘆洲區"
"247015","007-UY","2018/03/24 14:29:32","新北市蘆洲區中正路185巷78弄50號","121.465598333333","25.0853866666667","6501400","蘆洲區"
"247019","001-UY","2018/03/24 14:29:38","新北市蘆洲區仁愛街118巷2號","121.469645","25.0947666666667","6501400","蘆洲區"
"228005","097-TW","2018/03/24 14:29:41","新北市貢寮區美豐里巫里岸9-1號","121.901966666667","25.0701366666667","6502600","貢寮區"
"228004","212-TW","2018/03/24 14:29:44","新北市貢寮區雙玉里田寮洋街33-1號","121.932166666667","25.0136266666667","6502600","貢寮區"
"253003","6232-TK","2018/03/24 14:29:46","新北市石門區尖子鹿32號","121.582886666667","25.2641766666667","6502200","石門區"
"253001","6251-TK","2018/03/24 14:29:28","新北市石門區崁子腳65-3號","121.532685","25.2851883333333","6502200","石門區"
"253002","637-UY","2018/03/24 14:29:42","新北市三芝區橫山里橫山31號","121.54493","25.2584166666667","6502200","石門區"
"253004","8270-PC","2018/03/24 14:29:41","新北市石門區內阿里磅31-4號","121.588803333333","25.24164","6502200","石門區"
"207002","749-BX","2018/03/24 14:29:05","新北市萬里區溪底里富士坪路16-1號","121.621425","25.1541216666667","6502800","萬里區"
"207001","662-BX","2018/03/24 14:29:32","新北市萬里區磺潭里員潭路7號","121.646668333333","25.1994616666667","6502800","萬里區"
"252005","AAC-283","2018/03/24 14:29:45","新北市三芝區茂長里陳厝坑51-2號","121.511071666667","25.2522333333333","6502100","三芝區"
"236068","105-UM","2018/03/24 14:29:41","新北市土城區永豐路255巷27弄45號","121.47709","24.973765","6501300","土城區"
"236041","107-UM","2018/03/24 14:29:44","新北市土城區學成路99巷9號","121.450073333333","24.9884383333333","6501300","土城區"
"236075","166-UM","2018/03/24 14:29:53","新北市土城區中央路四段46巷28號","121.421925","24.961655","6501300","土城區"
"236029","253-BX","2018/03/24 14:29:36","新北市土城區順風路6號","121.440015","24.976385","6501300","土城區"
"236024","269-VK","2018/03/24 14:29:47","新北市土城區承天路18號","121.439503333333","24.9634933333333","6501300","土城區"
"236013","270-VK","2018/03/24 14:29:38","新北市土城區青雲路39巷7號","121.460301666667","24.9875833333333","6501300","土城區"
"236035","271-VK","2018/03/24 14:29:53","新北市土城區青雲路369-2號","121.458828333333","24.9754583333333","6501300","土城區"
"236017","401-BY","2018/03/24 14:29:48","新北市土城區永豐路135巷1號","121.466661666667","24.9833883333333","6501300","土城區"
"236057","912-UM","2018/03/24 14:29:41","新北市土城區中央路四段273-3號","121.41276","24.954195","6501300","土城區"
"236045","913-UM","2018/03/24 14:29:46","新北市土城區明德路一段182號","121.46236","24.97809","6501300","土城區"
"236061","915-UM","2018/03/24 14:29:40","新北市土城區延壽路77巷6弄13號","121.468355","24.993065","6501300","土城區"
"236054","AAC-216","2018/03/24 14:29:41","新北市土城區中華路二段1號","121.439701666667","24.9792133333333","6501300","土城區"
"220027","145-BY","2018/03/24 14:29:51","新北市板橋區建國街5號","121.457311666667","25.01686","6500100","板橋區"
"220105","KEA-2550","2018/03/24 14:29:53","新北市板橋區江寧路三段119號","121.473363333333","25.0331116666667","6500100","板橋區"
"220030","610-BX","2018/03/24 14:29:50","新北市板橋區金門街122號","121.432923333333","24.99147","6500100","板橋區"
"220050","245-BX","2018/03/24 14:29:45","新北市板橋區縣民大道三段97巷4號","121.476046666667","25.0222616666667","6500100","板橋區"
"220052","257-TC","2018/03/24 14:29:34","新北市板橋區文化路一段270巷2號","121.46735","25.0205583333333","6500100","板橋區"
"220004","276-BY","2018/03/24 14:29:39","新北市板橋區信義路1巷24號","121.457906666667","24.9973466666667","6500100","板橋區"
"220020","277-BY","2018/03/24 14:29:47","新北市板橋區篤行路二段141巷25號","121.430731666667","24.9877216666667","6500100","板橋區"
"220038","280-UM","2018/03/24 14:29:32","新北市板橋區文化路一段247號","121.464368333333","25.01791","6500100","板橋區"
"220019","283-VK","2018/03/24 14:29:50","新北市板橋區四川路一段283巷1號","121.459758333333","25.0014183333333","6500100","板橋區"
"220043","285-UM","2018/03/24 14:29:31","新北市板橋區吳鳳路50巷73號","121.469846666667","25.03035","6500100","板橋區"
"220001","285-VK","2018/03/24 14:29:50","新北市板橋區富山街53巷1弄7號","121.477665","25.0207133333333","6500100","板橋區"
"220031","286-VK","2018/03/24 14:29:47","新北市板橋區龍興街65巷2號","121.443565","25.0014133333333","6500100","板橋區"
"220029","287-VK","2018/03/24 14:29:33","新北市板橋區大觀路一段75巷39號","121.44894","25.004225","6500100","板橋區"
"220039","288-VK","2018/03/24 14:29:34","新北市板橋區裕民街55號","121.461071666667","25.0284433333333","6500100","板橋區"
"220009","293-UM","2018/03/24 14:29:36","新北市板橋區中山路二段17號","121.47217","25.0149916666667","6500100","板橋區"
"220010","295-UM","2018/03/24 14:29:35","新北市板橋區三民路二段157號","121.47915","25.01482","6500100","板橋區"
"220032","296-UM","2018/03/24 14:29:43","新北市板橋區滿平街84巷120弄21號","121.426368333333","24.9856616666667","6500100","板橋區"
"220023","303-R5","2018/03/24 14:29:35","新北市板橋區南雅西路一段10巷14號","121.45458","25.00481","6500100","板橋區"
"220041","307-R5","2018/03/24 14:29:46","新北市板橋區光武街2巷28號","121.468843333333","25.0254883333333","6500100","板橋區"
"220047","317-R6","2018/03/24 14:29:46","新北市板橋區民生路三段281巷2弄12號","121.463373333333","25.0304716666667","6500100","板橋區"
"220028","461-BY","2018/03/24 14:29:49","新北市板橋區大觀路二段37巷254號","121.44996","25.0021166666667","6500100","板橋區"
"220012","486-VK","2018/03/24 14:29:39","新北市板橋區中山路一段24號","121.46026","25.0081866666667","6500100","板橋區"
"220037","491-VK","2018/03/24 14:29:40","新北市板橋區雙十路二段143號","121.474853333333","25.0280833333333","6500100","板橋區"
"220104","560-BX","2018/03/24 14:29:44","新北市板橋區新生街89巷10號","121.457891666667","25.02233","6500100","板橋區"
"220011","609-BX","2018/03/24 14:29:51","新北市板橋區三民路二段140號","121.479081666667","25.01595","6500100","板橋區"
"220040","637-BX","2018/03/24 14:29:49","新北市板橋區文聖街135巷15號","121.478775","25.0288116666667","6500100","板橋區"
"220005","686-BX","2018/03/24 14:29:41","新北市中和區華順街136號","121.46492","24.9960016666667","6500100","板橋區"
"220025","687-BX","2018/03/24 14:29:45","新北市板橋區大觀路一段28巷18號","121.44998","25.008995","6500100","板橋區"
"220042","689-BX","2018/03/24 14:29:41","新北市板橋區雨農路50號","121.461098333333","25.02433","6500100","板橋區"
"220002","741-BX","2018/03/24 14:29:50","新北市板橋區光明街4號","121.45997","25.0024666666667","6500100","板橋區"
"220051","KEA-2699","2018/03/24 14:29:48","新北市板橋區松柏街22巷9-2號","121.47475","25.0295666666667","6500100","板橋區"
"220003","827-TW","2018/03/24 14:29:44","新北市板橋區重慶路290巷3號","121.461575","24.9986716666667","6500100","板橋區"
"220014","829-TW","2018/03/24 14:29:51","新北市板橋區漢生東路338號","121.471978333333","25.0075366666667","6500100","板橋區"
"220016","830-TW","2018/03/24 14:29:35","新北市板橋區中山路二段422-8號","121.483413333333","25.0213533333333","6500100","板橋區"
"220045","831-TW","2018/03/24 14:29:40","新北市板橋區大同街9號","121.47716","25.026885","6500100","板橋區"
"220038","833-TW","2018/03/24 14:28:04","新北市板橋區民生路二段161巷1號","121.470055","25.020035","6500100","板橋區"
"220022","895-R6","2018/03/24 14:29:45","新北市板橋區府中路42號","121.457406666667","25.0095933333333","6500100","板橋區"
"220021","985-R7","2018/03/24 14:29:46","新北市板橋區瑞安街73號","121.45547","25.0213533333333","6500100","板橋區"
"220046","AAC-210","2018/03/24 14:29:49","新北市板橋區漢生西路151號","121.463103333333","25.0220983333333","6500100","板橋區"
"220018","AAC-253","2018/03/24 14:29:47","新北市板橋區館前東路53號","121.461306666667","25.00737","6500100","板橋區"
