"lineid","car","time","location","longitude","latitude","cityid","cityname"
"234025","9371-KE","2018/03/24 14:49:37","新北市永和區雙和街25巷7號","121.508953333333","25.0018516666667","6500400","永和區"
"234072","AAC-211","2018/03/24 14:49:34","新北市中和區光環路二段27號","121.487706666667","25.0135033333333","6500400","永和區"
"231002","002-UM","2018/03/24 14:49:43","新北市新店區民權路42號","121.540405","24.9829733333333","6500600","新店區"
"231028","046-UY","2018/03/24 14:49:45","新北市新店區安德街153號","121.508283333333","24.959735","6500600","新店區"
"231030","047-UY","2018/03/24 14:49:37","新北市新店區安興路80號","121.515205","24.97588","6500600","新店區"
"231029","106-UY","2018/03/24 14:49:33","新北市新店區錦秀路11巷11號","121.479871666667","24.9447416666667","6500600","新店區"
"231018","107-UY","2018/03/24 14:49:34","新北市新店區中央六街7號","121.530276666667","24.97451","6500600","新店區"
"231012","108-UY","2018/03/24 14:49:35","新北市新店區永華街61號","121.54471","24.97548","6500600","新店區"
"231020","187-VK","2018/03/24 14:49:30","新北市新店區永福路54號","121.558126666667","24.9286933333333","6500600","新店區"
"231017","KEA-2219","2018/03/24 14:49:34","新北市新店區銀河路29號","121.574025","24.9574366666667","6500600","新店區"
"231026","256-BX","2018/03/24 14:49:37","新北市新店區安康路一段204號","121.524196666667","24.96344","6500600","新店區"
"231023","AAD-862","2018/03/24 14:49:53","新北市新店區檳榔路109號","121.544558333333","24.9616733333333","6500600","新店區"
"231027","3712-VJ","2018/03/24 14:49:36","新北市新店區薏仁坑路自強巷6號","121.49667","24.9585116666667","6500600","新店區"
"231025","3713-VJ","2018/03/24 14:49:45","新北市新店區建國路154號","121.53869","24.979245","6500600","新店區"
"231024","4716-K9","2018/03/24 14:49:52","新北市新店區新生街6號","121.540251666667","24.9660283333333","6500600","新店區"
"231036","512-UM","2018/03/24 14:49:45","新北市新店區安祥路106巷44號","121.47689","24.9616833333333","6500600","新店區"
"231035","513-UM","2018/03/24 14:49:43","新北市新店區安利街26號","121.519231666667","24.9746","6500600","新店區"
"231006","617-UM","2018/03/24 14:49:41","新北市新店區北宜路一段121號","121.540295","24.953885","6500600","新店區"
"231001","619-UM","2018/03/24 14:49:33","新北市新店區三民路159巷2號","121.534268333333","24.9743066666667","6500600","新店區"
"231003","641-BX","2018/03/24 14:49:46","新北市新店區中興路一段294號","121.546138333333","24.96929","6500600","新店區"
"231034","645-TV","2018/03/24 14:49:47","新北市新店區玫瑰路4-1號","121.493528333333","24.9514383333333","6500600","新店區"
"231039","718-UY","2018/03/24 14:49:35","新北市新店區北宜路一段39巷23號","121.539163333333","24.9584116666667","6500600","新店區"
"231005","897-TW","2018/03/24 14:49:42","新北市新店區復興路2號","121.532395","24.9883133333333","6500600","新店區"
"231004","899-TW","2018/03/24 14:49:46","新北市新店區建國路133號","121.539321666667","24.978245","6500600","新店區"
"231037","AKT-0513","2018/03/24 14:49:47","新北市新店區柴埕路52巷12號","121.512066666667","24.9644333333333","6500600","新店區"
"235030","003-UY","2018/03/24 14:49:44","新北市中和區南工路56號","121.506016666667","25.0015616666667","6500300","中和區"
"235020","096-UM","2018/03/24 14:49:42","新北市中和區中山路三段142號","121.47389","25.00645","6500300","中和區"
"235003","097-UM","2018/03/24 14:49:47","新北市中和區安樂路247號","121.51407","24.99961","6500300","中和區"
"235029","098-UM","2018/03/24 14:49:49","新北市中和區永和路90巷3號","121.497331666667","25.0059333333333","6500300","中和區"
"235022","151-BY","2018/03/24 14:49:48","新北市中和區員山路150巷2弄53號","121.482021666667","24.9972833333333","6500300","中和區"
"235019","183-VK","2018/03/24 14:49:46","新北市中和區民德路19號","121.46883","25.0028016666667","6500300","中和區"
"235002","185-VK","2018/03/24 14:49:34","新北市中和區立人街69巷2號","121.519935","24.9938933333333","6500300","中和區"
"235013","186-VK","2018/03/24 14:49:37","新北市中和區景平路431巷1號","121.501176666667","24.995275","6500300","中和區"
"235031","255-BX","2018/03/24 14:49:33","新北市中和區新生街186巷1弄19號","121.483451666667","24.9989816666667","6500300","中和區"
"235008","293-VK","2018/03/24 14:49:44","新北市中和區板南路152號","121.501925","24.9927016666667","6500300","中和區"
"235007","352-BY","2018/03/24 14:49:52","新北市中和區安和路7號","121.511633333333","24.9935733333333","6500300","中和區"
"235032","377-QA","2018/03/24 14:49:45","新北市中和區福祥路83號","121.499138333333","25.0056916666667","6500300","中和區"
"235035","269-TV","2018/03/24 14:49:37","新北市中和區員山路36巷16-3號","121.484775","24.9913983333333","6500300","中和區"
"235014","4979-A6","2018/03/24 14:49:36","新北市中和區景平路241巷84弄54號","121.506086666667","24.9924083333333","6500300","中和區"
"235033","4980-A6","2018/03/24 14:49:41","新北市中和區景新街64巷5號","121.50413","24.9986333333333","6500300","中和區"
"235034","558-UM","2018/03/24 14:49:47","新北市中和區連城路127巷35號","121.497441666667","24.9970733333333","6500300","中和區"
"235018","640-BX","2018/03/24 14:49:29","新北市中和區莒光路220號","121.470301666667","24.99632","6500300","中和區"
"235024","647-TV","2018/03/24 14:49:43","新北市中和區新生街16巷20號","121.482306666667","25.00439","6500300","中和區"
"235011","732-UM","2018/03/24 14:49:52","新北市中和區和平街58號","121.508428333333","24.990765","6500300","中和區"
"235010","733-UM","2018/03/24 14:49:42","新北市中和區仁愛街25號","121.51083","24.9888433333333","6500300","中和區"
"235026","800-TS","2018/03/24 14:49:36","新北市中和區中山路二段352號","121.49278","25.00261","6500300","中和區"
"235005","802-TS","2018/03/24 14:49:32","新北市中和區安平路30號","121.509611666667","24.99483","6500300","中和區"
"235016","805-TS","2018/03/24 14:49:41","新北市中和區華新街192巷22弄9號","121.506643333333","24.9832566666667","6500300","中和區"
"235012","896-TW","2018/03/24 14:49:45","新北市中和區忠孝街39-7號","121.51189","24.9840833333333","6500300","中和區"
"235017","900-TW","2018/03/24 14:49:50","新北市中和區民德路146巷14號","121.467795","25.000515","6500300","中和區"
"235015","157-BY","2018/03/24 14:49:35","新北市中和區復興路301巷16號","121.501478333333","24.9895366666667","6500300","中和區"
"235001","AAC-213","2018/03/24 14:49:51","新北市中和區秀朗路三段128巷1弄22號","121.523605","24.9916983333333","6500300","中和區"
"235023","AAC-215","2018/03/24 14:49:48","新北市中和區圓通路305巷5弄55號","121.494921666667","24.990215","6500300","中和區"
"220013","072-UY","2018/03/24 14:49:47","新北市板橋區民族路83號","121.465601666667","25.008545","6500100","板橋區"
"220034","073-UY","2018/03/24 14:49:32","新北市板橋區中正路1巷4號","121.455668333333","25.0119316666667","6500100","板橋區"
"220017","AAD-861","2018/03/24 14:49:51","新北市板橋區貴興路60號","121.456751666667","25.003005","6500100","板橋區"
"247011","339-TH","2018/03/24 14:49:50","新北市蘆洲區中山一路136號","121.476388333333","25.0817366666667","6501400","蘆洲區"
"247001","053-VK","2018/03/24 14:49:36","新北市蘆洲區永康街2巷10號","121.459315","25.0862166666667","6501400","蘆洲區"
"247015","007-UY","2018/03/24 14:49:50","新北市蘆洲區和平路202號","121.465856666667","25.0819216666667","6501400","蘆洲區"
"228005","097-TW","2018/03/24 14:49:41","新北市貢寮區美豐里丹裡街59-2號","121.910615","25.0585433333333","6502600","貢寮區"
"228004","212-TW","2018/03/24 14:49:44","新北市貢寮區福隆里裕隆街5號","121.94615","25.0159633333333","6502600","貢寮區"
"253003","6232-TK","2018/03/24 14:49:46","新北市石門區尖子鹿17-1號","121.575898333333","25.2781633333333","6502200","石門區"
"253001","6251-TK","2018/03/24 14:49:48","新北市石門區崁子腳47-7號","121.533963333333","25.2840233333333","6502200","石門區"
"253002","637-UY","2018/03/24 14:49:42","新北市石門區老梅路14號","121.544986666667","25.2878083333333","6502200","石門區"
"253004","8270-PC","2018/03/24 14:49:41","新北市石門區內阿里磅1號","121.59222","25.2546466666667","6502200","石門區"
"207002","749-BX","2018/03/24 14:49:45","新北市萬里區崁腳里崁腳路73號","121.647596666667","25.1596033333333","6502800","萬里區"
"207001","662-BX","2018/03/24 14:49:32","新北市萬里區雙興里二坪路11號","121.646161666667","25.1750266666667","6502800","萬里區"
"252005","AAC-283","2018/03/24 14:49:45","新北市三芝區埔坪里埔頭坑164-1號","121.508343333333","25.2481316666667","6502100","三芝區"
"236068","105-UM","2018/03/24 14:49:41","新北市土城區明德路二段99巷2弄4號","121.450286666667","24.9811216666667","6501300","土城區"
"236041","107-UM","2018/03/24 14:49:44","新北市土城區裕民路136巷1號","121.451501666667","24.9860533333333","6501300","土城區"
"236075","166-UM","2018/03/24 14:49:33","新北市土城區中央路四段65號","121.41803","24.9581183333333","6501300","土城區"
"236029","253-BX","2018/03/24 14:49:36","新北市土城區忠義路36巷20號","121.439866666667","24.969635","6501300","土城區"
"236024","269-VK","2018/03/24 14:49:47","新北市土城區慶安街46號","121.441215","24.97327","6501300","土城區"
"236013","270-VK","2018/03/24 14:49:38","新北市土城區金城路二段356號","121.461788333333","24.9851466666667","6501300","土城區"
"236035","271-VK","2018/03/24 14:49:46","新北市土城區仁愛路48-9號","121.462145","24.9789283333333","6501300","土城區"
"236017","401-BY","2018/03/24 14:49:48","新北市土城區明峰街45號","121.467143333333","24.9862766666667","6501300","土城區"
"236057","912-UM","2018/03/24 14:49:41","新北市土城區中央路三段81-2號","121.438383333333","24.9682833333333","6501300","土城區"
"236045","913-UM","2018/03/24 14:49:46","新北市土城區青雲路160號","121.459171666667","24.9831216666667","6501300","土城區"
"236061","915-UM","2018/03/24 14:49:51","新北市土城區金城路三段206巷1號","121.47143","24.9896966666667","6501300","土城區"
"236054","AAC-216","2018/03/24 14:49:41","新北市土城區裕民路175號","121.453311666667","24.9849433333333","6501300","土城區"
"220027","145-BY","2018/03/24 14:49:52","新北市板橋區中正路135巷14-2號","121.455448333333","25.015535","6500100","板橋區"
"220105","KEA-2550","2018/03/24 14:49:42","新北市板橋區民治街57巷26號","121.480086666667","25.0338683333333","6500100","板橋區"
"220030","610-BX","2018/03/24 14:49:39","新北市板橋區存德街17號","121.430216666667","24.9917566666667","6500100","板橋區"
"220050","245-BX","2018/03/24 14:49:46","新北市板橋區縣民大道三段81號","121.475391666667","25.021775","6500100","板橋區"
"220052","257-TC","2018/03/24 14:49:47","新北市板橋區陽明街29巷12號","121.464661666667","25.0220733333333","6500100","板橋區"
"220020","277-BY","2018/03/24 14:49:47","新北市板橋區金門街151巷13號","121.433566666667","24.9903666666667","6500100","板橋區"
"220038","280-UM","2018/03/24 14:49:38","新北市板橋區龍泉街71號","121.456481666667","25.0254616666667","6500100","板橋區"
"220019","283-VK","2018/03/24 14:49:50","新北市板橋區五權街30巷10號","121.46438","24.99331","6500100","板橋區"
"220043","285-UM","2018/03/24 14:49:51","新北市板橋區長江路一段105巷1弄1號","121.459321666667","25.0300483333333","6500100","板橋區"
"220001","285-VK","2018/03/24 14:49:50","新北市板橋區中山路二段60巷1弄1號","121.474386666667","25.0154116666667","6500100","板橋區"
"220031","286-VK","2018/03/24 14:49:47","新北市板橋區僑中二街26號","121.445896666667","25.010675","6500100","板橋區"
"220029","287-VK","2018/03/24 14:49:53","新北市板橋區僑中一街80巷1弄1號","121.44758","25.01185","6500100","板橋區"
"220039","288-VK","2018/03/24 14:49:34","新北市板橋區龍泉街90巷3號","121.456085","25.0249016666667","6500100","板橋區"
"220009","293-UM","2018/03/24 14:49:36","新北市板橋區觀光街3巷16-4號","121.471366666667","25.01555","6500100","板橋區"
"220010","295-UM","2018/03/24 14:49:50","新北市板橋區光復街33巷2號","121.48185","25.0189","6500100","板橋區"
"220032","296-UM","2018/03/24 14:49:37","新北市板橋區溪崑二街112巷6號","121.42627","24.9889333333333","6500100","板橋區"
"220023","303-R5","2018/03/24 14:49:38","新北市板橋區大勇街4巷1號","121.454841666667","25.01747","6500100","板橋區"
"220041","307-R5","2018/03/24 14:49:40","新北市板橋區四維路259巷60-2號","121.460735","25.0268183333333","6500100","板橋區"
"220047","317-R6","2018/03/24 14:49:49","新北市板橋區四維路269巷77號","121.46018","25.02688","6500100","板橋區"
"220028","461-BY","2018/03/24 14:49:49","新北市板橋區大觀路二段169巷21號","121.44631","24.9998866666667","6500100","板橋區"
"220012","486-VK","2018/03/24 14:49:39","新北市板橋區館前東路112號","121.463451666667","25.0076066666667","6500100","板橋區"
"220037","491-VK","2018/03/24 14:49:31","新北市板橋區文聖街105號","121.47776","25.0294416666667","6500100","板橋區"
"220104","560-BX","2018/03/24 14:49:44","新北市板橋區新生街39號","121.456911666667","25.02108","6500100","板橋區"
"220011","609-BX","2018/03/24 14:49:51","新北市板橋區中山路二段553巷4弄11號","121.4835","25.0227616666667","6500100","板橋區"
"220040","637-BX","2018/03/24 14:49:47","新北市板橋區懷德街127巷23弄31號","121.480268333333","25.032245","6500100","板橋區"
"220005","686-BX","2018/03/24 14:49:45","新北市板橋區廣和街130號","121.462643333333","24.992205","6500100","板橋區"
"220025","687-BX","2018/03/24 14:49:35","新北市板橋區僑中二街120巷2號","121.445505","25.005845","6500100","板橋區"
"220042","689-BX","2018/03/24 14:49:41","新北市板橋區民生路三段323號","121.46349","25.031175","6500100","板橋區"
"220002","741-BX","2018/03/24 14:49:50","新北市板橋區國泰街75巷28弄66號","121.467183333333","25.0046133333333","6500100","板橋區"
"220051","KEA-2699","2018/03/24 14:49:48","新北市板橋區文化路二段410巷1弄2號","121.47436","25.0310916666667","6500100","板橋區"
"220003","827-TW","2018/03/24 14:49:51","新北市板橋區仁愛路86巷20號","121.461096666667","24.9987366666667","6500100","板橋區"
"220014","829-TW","2018/03/24 14:49:39","新北市板橋區長安街210-5號","121.474806666667","25.0116716666667","6500100","板橋區"
"220016","830-TW","2018/03/24 14:49:50","新北市板橋區光復街192巷16弄6號","121.486295","25.0196683333333","6500100","板橋區"
"220045","831-TW","2018/03/24 14:49:48","新北市板橋區民生路二段226巷26號","121.471018333333","25.0220266666667","6500100","板橋區"
"220038","833-TW","2018/03/24 14:28:04","新北市板橋區民生路二段161巷1號","121.470055","25.020035","6500100","板橋區"
"220022","895-R6","2018/03/24 14:49:45","新北市板橋區府後街1巷2-2號","121.459101666667","25.0106683333333","6500100","板橋區"
"220021","985-R7","2018/03/24 14:49:40","新北市板橋區南雅西路二段136號","121.451965","25.01282","6500100","板橋區"
"220046","AAC-210","2018/03/24 14:49:43","新北市板橋區文化路一段285巷4號","121.464425","25.019075","6500100","板橋區"
"220018","AAC-253","2018/03/24 14:49:47","新北市板橋區成都街89號","121.463003333333","25.00525","6500100","板橋區"
