"lineid","car","time","location","longitude","latitude","cityid","cityname"
"234025","9371-KE","2018/03/24 15:09:17","新北市中和區永貞路244號","121.514428333333","25.003775","6500400","永和區"
"248017","225-UY","2018/03/24 15:09:33","新北市五股區登林路118號","121.418618333333","25.073585","6501500","五股區"
"231002","002-UM","2018/03/24 15:09:43","新北市新店區中正路698號","121.534028333333","24.990635","6500600","新店區"
"231028","046-UY","2018/03/24 15:09:45","新北市新店區僑信路117號","121.500703333333","24.9460366666667","6500600","新店區"
"231030","047-UY","2018/03/24 15:09:35","新北市新店區安民街341-1號","121.5168","24.9749266666667","6500600","新店區"
"231029","106-UY","2018/03/24 15:09:33","新北市新店區安康路三段738號","121.473865","24.9420516666667","6500600","新店區"
"231018","107-UY","2018/03/24 15:09:34","新北市新店區中央六街81號","121.526881666667","24.9766583333333","6500600","新店區"
"231012","108-UY","2018/03/24 15:09:35","新北市新店區寶元路一段61號","121.542063333333","24.9859966666667","6500600","新店區"
"231020","187-VK","2018/03/24 15:09:51","新北市新店區湖興路128-18號","121.56192","24.9304766666667","6500600","新店區"
"231017","KEA-2219","2018/03/24 15:06:54","新北市新店區明山路5號","121.563303333333","24.955305","6500600","新店區"
"231026","256-BX","2018/03/24 15:09:45","新北市新店區建興街4號","121.540073333333","24.9765583333333","6500600","新店區"
"231023","AAD-862","2018/03/24 15:09:48","新北市新店區檳榔路24號","121.541388333333","24.9640583333333","6500600","新店區"
"231025","3713-VJ","2018/03/24 15:09:45","新北市新店區建國路249號","121.537623333333","24.98259","6500600","新店區"
"231024","4716-K9","2018/03/24 15:09:30","新北市新店區中華路42巷10號","121.540418333333","24.968425","6500600","新店區"
"231036","512-UM","2018/03/24 15:09:45","新北市新店區安祥路102巷98弄2號","121.487358333333","24.96373","6500600","新店區"
"231035","513-UM","2018/03/24 15:09:43","新北市新店區安和路三段159號","121.516275","24.9857883333333","6500600","新店區"
"231006","617-UM","2018/03/24 15:09:41","新北市新店區新坡一街82號","121.547665","24.9622116666667","6500600","新店區"
"231001","619-UM","2018/03/24 15:09:33","新北市新店區中正路156號","121.54152","24.9717016666667","6500600","新店區"
"231003","641-BX","2018/03/24 15:09:46","新北市新店區寶高路7巷2號","121.551653333333","24.9776233333333","6500600","新店區"
"231034","645-TV","2018/03/24 15:09:47","新北市新店區玫瑰路4-1號","121.493538333333","24.9513966666667","6500600","新店區"
"231039","718-UY","2018/03/24 15:09:35","新北市新店區中興路三段248號","121.543001666667","24.9839833333333","6500600","新店區"
"231033","720-UM","2018/03/24 15:09:49","新北市新店區安康路三段406號","121.48584","24.9516433333333","6500600","新店區"
"231005","897-TW","2018/03/24 15:09:42","新北市新店區北新路三段173-3號","121.541065","24.9840166666667","6500600","新店區"
"231004","899-TW","2018/03/24 15:09:46","新北市新店區建國路6-1號","121.53989","24.97347","6500600","新店區"
"231037","AKT-0513","2018/03/24 15:09:47","新北市新店區安民街341-1號","121.516563333333","24.97504","6500600","新店區"
"235030","003-UY","2018/03/24 15:09:44","新北市中和區水源路109號","121.507641666667","25.0032183333333","6500300","中和區"
"235003","097-UM","2018/03/24 15:09:47","新北市中和區安樂路217巷20弄4號","121.513726666667","24.9987966666667","6500300","中和區"
"235002","185-VK","2018/03/24 15:09:34","新北市五股區天乙路102-18號","121.447391666667","25.1071533333333","6500300","中和區"
"235007","352-BY","2018/03/24 15:09:52","新北市中和區興南路二段159巷1號","121.505215","24.9832683333333","6500300","中和區"
"235014","4979-A6","2018/03/24 15:09:36","新北市中和區景新街323-1號","121.511346666667","24.9921016666667","6500300","中和區"
"235033","4980-A6","2018/03/24 15:09:41","新北市中和區中正路544號","121.487345","24.9945716666667","6500300","中和區"
"235034","558-UM","2018/03/24 15:09:47","新北市中和區中正路246號","121.495801666667","24.9940233333333","6500300","中和區"
"235026","800-TS","2018/03/24 15:09:36","新北市中和區永和路171巷1弄1號","121.492281666667","25.00704","6500300","中和區"
"235005","802-TS","2018/03/24 15:09:32","新北市三重區重新路五段283號","121.479345","25.05011","6500300","中和區"
"235012","896-TW","2018/03/24 15:09:45","新北市中和區南山路505巷2弄23號","121.508481666667","24.987385","6500300","中和區"
"235015","157-BY","2018/03/24 15:09:35","新北市中和區興南路一段83號","121.509886666667","24.988945","6500300","中和區"
"235023","AAC-215","2018/03/24 15:09:48","新北市中和區圓通路335巷37弄12號","121.493703333333","24.9888966666667","6500300","中和區"
"228004","212-TW","2018/03/24 15:09:44","新北市貢寮區雙玉里田寮洋街16-2號","121.921805","25.025185","6502600","貢寮區"
"253003","6232-TK","2018/03/24 15:09:46","新北市石門區尖子鹿101-2號","121.582063333333","25.292815","6502200","石門區"
"253001","6251-TK","2018/03/24 15:09:48","新北市石門區小坑9號","121.594513333333","25.2891833333333","6502200","石門區"
"253002","637-UY","2018/03/24 15:09:42","新北市石門區小坑9號","121.594388333333","25.2891866666667","6502200","石門區"
"253004","8270-PC","2018/03/24 15:09:35","新北市石門區茂林社區3-1號","121.592041666667","25.271085","6502200","石門區"
"207002","749-BX","2018/03/24 15:09:45","新北市萬里區崁腳里內中福路64號","121.655035","25.1672883333333","6502800","萬里區"
"207001","662-BX","2018/03/24 15:09:52","新北市萬里區磺潭里員潭路16-3號","121.645973333333","25.19592","6502800","萬里區"
"236068","105-UM","2018/03/24 15:09:41","新北市土城區學成路76巷6號","121.451548333333","24.9885516666667","6501300","土城區"
"236041","107-UM","2018/03/24 15:09:44","新北市土城區裕民路244號","121.454125","24.98322","6501300","土城區"
"236075","166-UM","2018/03/24 15:09:53","新北市土城區中州路27巷14-2號","121.413333333333","24.95741","6501300","土城區"
"236029","253-BX","2018/03/24 15:09:37","新北市土城區中央路二段48-3號","121.442541666667","24.97964","6501300","土城區"
"236024","269-VK","2018/03/24 15:09:47","新北市土城區中央路二段121巷22號","121.443758333333","24.9763383333333","6501300","土城區"
"236013","270-VK","2018/03/24 15:09:38","新北市土城區學府路一段77號","121.456906666667","24.9882366666667","6501300","土城區"
"236035","271-VK","2018/03/24 15:09:53","新北市土城區明德路一段143號","121.46518","24.9801633333333","6501300","土城區"
"236017","401-BY","2018/03/24 15:09:48","新北市土城區延峰街7號","121.46868","24.9865166666667","6501300","土城區"
"236057","912-UM","2018/03/24 15:09:41","新北市土城區金城路二段239號","121.455728333333","24.9825416666667","6501300","土城區"
"236045","913-UM","2018/03/24 15:09:46","新北市土城區清水路276號","121.46195","24.9834316666667","6501300","土城區"
"236061","915-UM","2018/03/24 15:09:51","新北市土城區延平街58號","121.467913333333","24.992525","6501300","土城區"
"236054","AAC-216","2018/03/24 15:09:41","新北市土城區學府路一段276號","121.45001","24.9831783333333","6501300","土城區"
"242001","233-RS","2018/03/24 15:09:44","新北市新莊區環河路636-7號","121.437055","25.0107116666667","6500500","新莊區"
"220027","145-BY","2018/03/24 15:09:51","新北市五股區成泰路三段544-1號","121.454528333333","25.103555","6500100","板橋區"
"220050","245-BX","2018/03/24 15:09:45","新北市板橋區莊敬路25巷9號","121.474998333333","25.0270116666667","6500100","板橋區"
"220052","257-TC","2018/03/24 15:09:44","新北市板橋區自由路7號","121.46543","25.0225416666667","6500100","板橋區"
"220038","280-UM","2018/03/24 15:09:32","新北市板橋區互助街45號","121.46113","25.0265816666667","6500100","板橋區"
"220019","283-VK","2018/03/24 15:09:50","新北市板橋區信義路8號","121.456918333333","24.99611","6500100","板橋區"
"220031","286-VK","2018/03/24 15:09:50","新北市板橋區僑中二街102巷32號","121.44491","25.00848","6500100","板橋區"
"220029","287-VK","2018/03/24 15:09:33","新北市板橋區僑中一街102巷1弄2號","121.446653333333","25.01207","6500100","板橋區"
"220009","293-UM","2018/03/24 15:09:36","新北市板橋區中山路一段2號","121.45978","25.0075183333333","6500100","板橋區"
"220010","295-UM","2018/03/24 15:09:50","新北市板橋區民生路二段171號","121.469855","25.0201016666667","6500100","板橋區"
"220023","303-R5","2018/03/24 15:09:34","新北市板橋區金華街9巷2號","121.455586666667","25.0204983333333","6500100","板橋區"
"220041","307-R5","2018/03/24 15:09:49","新北市板橋區民權路202巷6弄8號","121.460335","25.014205","6500100","板橋區"
"220047","317-R6","2018/03/24 15:09:50","新北市板橋區新海路72巷5弄8號","121.462088333333","25.0223583333333","6500100","板橋區"
"220012","486-VK","2018/03/24 15:09:52","新北市板橋區板新路81巷7號","121.473263333333","25.0132016666667","6500100","板橋區"
"220037","491-VK","2018/03/24 15:09:31","新北市板橋區文聖街207號","121.479786666667","25.0264283333333","6500100","板橋區"
"220011","609-BX","2018/03/24 15:09:30","新北市板橋區中山路二段91號","121.474223333333","25.015945","6500100","板橋區"
"220025","687-BX","2018/03/24 15:09:44","新北市板橋區大觀路一段28巷1弄57-3號","121.451463333333","25.0068116666667","6500100","板橋區"
"220042","689-BX","2018/03/24 15:09:41","新北市板橋區長江路二段216-1號","121.468091666667","25.0323833333333","6500100","板橋區"
"220002","741-BX","2018/03/24 15:09:30","新北市新莊區中環路一段10號","121.442461666667","25.0258516666667","6500100","板橋區"
"220051","KEA-2699","2018/03/24 15:09:48","新北市板橋區民治街126巷15號","121.47749","25.03158","6500100","板橋區"
"220003","827-TW","2018/03/24 15:09:44","新北市板橋區四川路一段367號","121.458376666667","24.9995816666667","6500100","板橋區"
"220014","829-TW","2018/03/24 15:09:51","新北市板橋區中山路一段206巷14號","121.470648333333","25.0126966666667","6500100","板橋區"
"220016","830-TW","2018/03/24 15:09:35","新北市板橋區光復街230號","121.484765","25.021305","6500100","板橋區"
"220046","AAC-210","2018/03/24 15:09:43","新北市板橋區復興街130號","121.46105","25.0178916666667","6500100","板橋區"
"220018","AAC-253","2018/03/24 15:09:47","新北市板橋區四川路二段245巷47號","121.451998333333","24.9925316666667","6500100","板橋區"
