"lineid","car","time","location","longitude","latitude","cityid","cityname"
"234025","9371-KE","2018/03/24 15:19:37","新北市永和區福和路1號","121.525528333333","25.0093733333333","6500400","永和區"
"231002","002-UM","2018/03/24 15:19:43","新北市新店區中正路700巷3號","121.533441666667","24.9917533333333","6500600","新店區"
"231028","046-UY","2018/03/24 15:19:45","新北市新店區僑信路114巷42號","121.499126666667","24.9462733333333","6500600","新店區"
"231030","047-UY","2018/03/24 15:19:35","新北市新店區安和路三段29-2號","121.517401666667","24.98128","6500600","新店區"
"231029","106-UY","2018/03/24 15:19:53","新北市新店區安康路三段738號","121.473858333333","24.942015","6500600","新店區"
"231018","107-UY","2018/03/24 15:19:34","新北市新店區中央七街13號","121.530183333333","24.9749683333333","6500600","新店區"
"231012","108-UY","2018/03/24 15:19:35","新北市新店區順安街74號","121.541116666667","24.9866483333333","6500600","新店區"
"231020","187-VK","2018/03/24 15:19:31","新北市新店區湖興路128-8號","121.564176666667","24.9307883333333","6500600","新店區"
"231026","256-BX","2018/03/24 15:19:37","新北市新店區中正路265巷15號","121.53792","24.9730833333333","6500600","新店區"
"231023","AAD-862","2018/03/24 15:19:33","新北市新店區行政街14巷2號","121.54309","24.9662933333333","6500600","新店區"
"231025","3713-VJ","2018/03/24 15:19:45","新北市新店區民權路105號","121.536548333333","24.9826716666667","6500600","新店區"
"231024","4716-K9","2018/03/24 15:19:50","新北市新店區新明街2號","121.541175","24.968025","6500600","新店區"
"231036","512-UM","2018/03/24 15:19:45","新北市新店區安祥路69巷17號","121.481866666667","24.9614033333333","6500600","新店區"
"231035","513-UM","2018/03/24 15:19:43","新北市新店區安興路94號","121.515096666667","24.976285","6500600","新店區"
"231006","617-UM","2018/03/24 15:19:41","新北市新店區環河路6號","121.538196666667","24.9617466666667","6500600","新店區"
"231001","619-UM","2018/03/24 15:19:50","新北市新店區光明街193號","121.539925","24.9634683333333","6500600","新店區"
"231003","641-BX","2018/03/24 15:19:40","新北市新店區寶高路116號","121.554563333333","24.9761","6500600","新店區"
"231034","645-TV","2018/03/24 15:19:47","新北市新店區如意街3巷2號","121.495558333333","24.9492233333333","6500600","新店區"
"231039","718-UY","2018/03/24 15:19:35","新北市新店區寶元路一段61號","121.542168333333","24.98587","6500600","新店區"
"231033","720-UM","2018/03/24 15:19:49","新北市新店區裕合街143號","121.489131666667","24.9491016666667","6500600","新店區"
"231005","897-TW","2018/03/24 15:19:42","新北市新店區民族路65號","121.539705","24.9783283333333","6500600","新店區"
"231004","899-TW","2018/03/24 15:19:46","新北市新店區建國路29號","121.540205","24.97412","6500600","新店區"
"231037","AKT-0513","2018/03/24 15:19:47","新北市新店區安興路91巷16號","121.51296","24.97542","6500600","新店區"
"241013","270-UM","2018/03/24 15:19:48","新北市三重區重新路四段121號","121.484751666667","25.052535","6500200","三重區"
"235030","003-UY","2018/03/24 15:19:44","新北市中和區保平路326巷21號","121.506511666667","25.0045833333333","6500300","中和區"
"235003","097-UM","2018/03/24 15:19:47","新北市中和區景平路183號","121.51176","24.9925966666667","6500300","中和區"
"235002","185-VK","2018/03/24 15:19:34","新北市八里區中山路三段382號","121.368538333333","25.1359366666667","6500300","中和區"
"235014","4979-A6","2018/03/24 15:19:36","新北市中和區景平路466號","121.505641666667","24.9937483333333","6500300","中和區"
"235033","4980-A6","2018/03/24 15:16:28","新北市中和區中正路756號","121.485413333333","24.99907","6500300","中和區"
"235026","800-TS","2018/03/24 15:19:36","新北市中和區建八路198-1號","121.491343333333","24.998675","6500300","中和區"
"235005","802-TS","2018/03/24 15:17:52","新北市五股區中直路17-3號","121.422145","25.111605","6500300","中和區"
"235012","896-TW","2018/03/24 15:19:45","新北市中和區景新街368號","121.512186666667","24.9903733333333","6500300","中和區"
"235023","AAC-215","2018/03/24 15:19:48","新北市中和區圓通路435巷2-11號","121.487591666667","24.986695","6500300","中和區"
"253003","6232-TK","2018/03/24 15:19:46","新北市石門區小坑9號","121.594721666667","25.2864716666667","6502200","石門區"
"253001","6251-TK","2018/03/24 15:19:48","新北市石門區小坑9號","121.594391666667","25.2884","6502200","石門區"
"253004","8270-PC","2018/03/24 15:19:35","新北市石門區小坑26-1號","121.595755","25.27602","6502200","石門區"
"207002","749-BX","2018/03/24 15:19:45","新北市萬里區崁腳里內中福路2-1號","121.669265","25.1654533333333","6502800","萬里區"
"207001","662-BX","2018/03/24 15:19:32","新北市萬里區大鵬里萬里加投10號","121.651633333333","25.20739","6502800","萬里區"
"236068","105-UM","2018/03/24 15:19:41","新北市土城區學士路17號","121.453521666667","24.9827516666667","6501300","土城區"
"236041","107-UM","2018/03/24 15:19:44","新北市土城區金城路二段239號","121.455755","24.982475","6501300","土城區"
"236075","166-UM","2018/03/24 15:19:33","新北市土城區溪頭路104號","121.40914","24.950865","6501300","土城區"
"236029","253-BX","2018/03/24 15:19:36","新北市土城區中央路一段262巷16號","121.44342","24.984155","6501300","土城區"
"236024","269-VK","2018/03/24 15:19:47","新北市土城區中央路二段61巷46號","121.44415","24.9785166666667","6501300","土城區"
"236013","270-VK","2018/03/24 15:19:38","新北市土城區廣福街5號","121.457273333333","24.9888333333333","6501300","土城區"
"236035","271-VK","2018/03/24 15:19:46","新北市土城區國際路89號","121.46726","24.9758466666667","6501300","土城區"
"236017","401-BY","2018/03/24 15:19:48","新北市土城區峰廷街3號","121.46903","24.9874066666667","6501300","土城區"
"236057","912-UM","2018/03/24 15:19:45","新北市土城區金城路一段9號","121.439373333333","24.9690833333333","6501300","土城區"
"236045","913-UM","2018/03/24 15:19:46","新北市土城區明德路一段153號","121.464923333333","24.9798633333333","6501300","土城區"
"236061","915-UM","2018/03/24 15:19:50","新北市土城區金城路三段149巷4弄10號","121.46869","24.9891116666667","6501300","土城區"
"236054","AAC-216","2018/03/24 15:19:41","新北市土城區學府路一段85號","121.456585","24.987985","6501300","土城區"
"242001","233-RS","2018/03/24 15:19:44","新北市新莊區環河路636-7號","121.437046666667","25.0107083333333","6500500","新莊區"
"220050","245-BX","2018/03/24 15:19:45","新北市板橋區縣民大道三段32號","121.471423333333","25.0189666666667","6500100","板橋區"
"220052","257-TC","2018/03/24 15:19:34","新北市板橋區陽明街243號","121.463126666667","25.0247233333333","6500100","板橋區"
"220038","280-UM","2018/03/24 15:19:51","新北市板橋區四維路137巷17號","121.464241666667","25.0249566666667","6500100","板橋區"
"220031","286-VK","2018/03/24 15:19:47","新北市板橋區僑中二街108巷1號","121.445865","25.0071866666667","6500100","板橋區"
"220009","293-UM","2018/03/24 15:19:36","新北市板橋區四川路一段284號","121.458678333333","25.000845","6500100","板橋區"
"220023","303-R5","2018/03/24 15:19:34","新北市五股區新五路二段118-1號","121.437518333333","25.0764216666667","6500100","板橋區"
"220025","687-BX","2018/03/24 15:19:35","新北市板橋區華東街1-10號","121.448311666667","24.994955","6500100","板橋區"
"220042","689-BX","2018/03/24 15:19:41","新北市板橋區長江路一段11號","121.458031666667","25.028845","6500100","板橋區"
"220051","KEA-2699","2018/03/24 15:19:48","新北市板橋區縣民大道三段33-1號","121.474556666667","25.0210616666667","6500100","板橋區"
"220046","AAC-210","2018/03/24 15:19:43","新北市板橋區文化路一段101巷13號","121.46084","25.0146666666667","6500100","板橋區"
"220018","AAC-253","2018/03/24 15:19:46","新北市板橋區華東街1-10號","121.448523333333","24.995025","6500100","板橋區"
