"lineid","car","time","location","longitude","latitude","cityid","cityname"
"234025","9371-KE","2018/03/24 15:49:37","新北市永和區福和路1號","121.526701666667","25.0101066666667","6500400","永和區"
"231030","047-UY","2018/03/24 15:49:35","新北市新店區永安街22-1號","121.517438333333","24.9864716666667","6500600","新店區"
"231018","107-UY","2018/03/24 15:49:34","新北市新店區中正路663巷7弄15號","121.53294","24.9901083333333","6500600","新店區"
"231012","108-UY","2018/03/24 15:49:35","新北市新店區寶強路15號","121.543003333333","24.9792783333333","6500600","新店區"
"231020","187-VK","2018/03/24 15:49:50","新北市新店區北宜路一段49號","121.53832","24.9569366666667","6500600","新店區"
"231017","KEA-2219","2018/03/24 15:49:34","新北市新店區中華路117巷3號","121.53797","24.9688566666667","6500600","新店區"
"231026","256-BX","2018/03/24 15:49:37","新北市新店區中正路444號","121.534073333333","24.978515","6500600","新店區"
"231023","AAD-862","2018/03/24 15:49:37","新北市新店區大新街9巷5號","121.543516666667","24.9679216666667","6500600","新店區"
"231038","4715-K9","2018/03/24 15:49:34","新北市新店區安康路二段211號","121.508913333333","24.958935","6500600","新店區"
"231035","513-UM","2018/03/24 15:49:43","新北市新店區安民街377號","121.516261666667","24.9762116666667","6500600","新店區"
"231003","641-BX","2018/03/24 15:49:40","新北市新店區寶興路60巷4號","121.54981","24.9719466666667","6500600","新店區"
"231034","645-TV","2018/03/24 15:49:47","新北市新店區玫瑰路58巷6號","121.495135","24.946695","6500600","新店區"
"231013","719-UM","2018/03/24 15:49:36","新北市新店區華潭街31號","121.529768333333","24.954395","6500600","新店區"
"231033","720-UM","2018/03/24 15:49:49","新北市新店區安忠路57巷13號","121.513201666667","24.95718","6500600","新店區"
"231037","AKT-0513","2018/03/24 15:49:47","新北市新店區安民街133巷13號","121.515891666667","24.9692516666667","6500600","新店區"
"241011","013-R5","2018/03/24 15:49:35","新北市三重區文化北路141號","121.497653333333","25.0692283333333","6500200","三重區"
"241028","022-UY","2018/03/24 15:49:49","新北市三重區中正南路47號","121.493936666667","25.0596933333333","6500200","三重區"
"241008","059-VK","2018/03/24 15:49:36","新北市三重區重新路四段121號","121.484946666667","25.051935","6500200","三重區"
"241015","062-VK","2018/03/24 15:49:42","新北市三重區重新路四段121號","121.485151666667","25.05203","6500200","三重區"
"241017","063-VK","2018/03/24 15:49:50","新北市三重區大仁街30-1號","121.491626666667","25.06392","6500200","三重區"
"241024","065-VK","2018/03/24 15:49:34","新北市三重區成功路110-3號","121.486813333333","25.0519383333333","6500200","三重區"
"241026","066-VK","2018/03/24 15:49:35","新北市三重區電信街128-1號","121.494536666667","25.0580383333333","6500200","三重區"
"241003","091-VK","2018/03/24 15:49:51","新北市三重區福德南路53號","121.503216666667","25.06135","6500200","三重區"
"241005","262-UM","2018/03/24 15:49:45","新北市三重區泉州街84巷18號","121.495963333333","25.054275","6500200","三重區"
"241016","265-UM","2018/03/24 15:49:44","新北市三重區重新路四段121號","121.485196666667","25.051995","6500200","三重區"
"241022","267-UM","2018/03/24 15:49:43","新北市三重區重新路四段121號","121.484468333333","25.051895","6500200","三重區"
"241013","270-UM","2018/03/24 15:49:48","新北市三重區六張街2號","121.495923333333","25.070725","6500200","三重區"
"241007","398-BY","2018/03/24 15:49:46","新北市三重區成功路108巷8號","121.486358333333","25.0504466666667","6500200","三重區"
"241014","543-UM","2018/03/24 15:49:35","新北市三重區重新路四段121號","121.48505","25.0519","6500200","三重區"
"241023","545-UM","2018/03/24 15:49:49","新北市三重區捷運路36號","121.482913333333","25.05517","6500200","三重區"
"241033","557-UM","2018/03/24 15:49:45","新北市三重區光復路一段138-1號","121.472138333333","25.0527583333333","6500200","三重區"
"241006","AAD-863","2018/03/24 15:49:43","新北市三重區重新路四段121號","121.484728333333","25.0521783333333","6500200","三重區"
"241012","941-UM","2018/03/24 15:49:36","新北市三重區文化北路83巷2-1號","121.498358333333","25.0670566666667","6500200","三重區"
"241029","942-UM","2018/03/24 15:49:39","新北市三重區大同南路242號","121.496948333333","25.0558516666667","6500200","三重區"
"235003","097-UM","2018/03/24 15:49:47","新北市新店區安康路一段266巷4號","121.519838333333","24.9640416666667","6500300","中和區"
"235002","185-VK","2018/03/24 15:49:34","新北市五股區天乙路102-22號","121.448736666667","25.1070083333333","6500300","中和區"
"235023","AAC-215","2018/03/24 15:49:48","新北市中和區員山路49-6號","121.480595","24.9914733333333","6500300","中和區"
"224007","275-VK","2018/03/24 15:49:51","新北市瑞芳區大寮路356-1號","121.784955","25.1033716666667","6501200","瑞芳區"
"227010","642-TC","2018/03/24 15:49:44","新北市雙溪區新基里自強路11號","121.865605","25.0392516666667","6502500","雙溪區"
"227002","400-TW","2018/03/24 15:49:44","新北市雙溪區平林里外平林44號","121.852896666667","25.0363933333333","6502500","雙溪區"
"251013","179-VK","2018/03/24 15:49:40","新北市淡水區沙崙路97號","121.42235","25.182205","6501000","淡水區"
"236068","105-UM","2018/03/24 15:49:32","新北市土城區中山路34號","121.424748333333","24.9638066666667","6501300","土城區"
"236075","166-UM","2018/03/24 15:49:33","新北市土城區德安街4巷8號","121.422106666667","24.9649833333333","6501300","土城區"
"236024","269-VK","2018/03/24 15:49:47","新北市土城區中央路一段211巷6弄2號","121.446343333333","24.9863366666667","6501300","土城區"
"236017","401-BY","2018/03/24 15:49:48","新北市土城區和城路二段253-6號","121.473461666667","24.9872866666667","6501300","土城區"
"236057","912-UM","2018/03/24 15:49:41","新北市土城區中央路二段71號","121.442436666667","24.9786466666667","6501300","土城區"
"236045","913-UM","2018/03/24 15:49:46","新北市土城區金城路二段67-2號","121.451828333333","24.9795866666667","6501300","土城區"
"236054","AAC-216","2018/03/24 15:49:41","新北市土城區中華路一段200號","121.44045","24.9811783333333","6501300","土城區"
"242001","233-RS","2018/03/24 15:49:44","新北市新莊區環河路636-7號","121.437026666667","25.0107283333333","6500500","新莊區"
"221015","131-UY","2018/03/24 15:48:38","新北市汐止區康寧街901號","121.651743333333","25.0749716666667","6501100","汐止區"
"220023","303-R5","2018/03/24 15:49:34","新北市八里區中山路三段409號","121.368561666667","25.134495","6500100","板橋區"
"220018","AAC-253","2018/03/24 15:49:46","新北市板橋區華東街1-10號","121.448271666667","24.99491","6500100","板橋區"
