"lineid","car","time","location","longitude","latitude","cityid","cityname"
"249005","172-UM","2018/03/24 16:39:51","新北市八里區仁愛路10號","121.413198333333","25.1622983333333","6502300","八里區"
"231046","278-BY","2018/03/24 16:39:45","新北市新店區灣潭路78號","121.538121666667","24.9414","6500600","新店區"
"241011","013-R5","2018/03/24 16:39:35","新北市三重區仁愛街49號","121.49654","25.0716466666667","6500200","三重區"
"241028","022-UY","2018/03/24 16:39:49","新北市三重區重新路三段68號","121.49352","25.0611616666667","6500200","三重區"
"241008","059-VK","2018/03/24 16:39:36","新北市三重區永安北路一段27巷28號","121.477388333333","25.07555","6500200","三重區"
"241009","060-VK","2018/03/24 16:39:45","新北市三重區三和路四段203巷90號","121.484211666667","25.0800633333333","6500200","三重區"
"241031","061-VK","2018/03/24 16:39:48","新北市三重區重新路四段41巷5弄1號","121.487423333333","25.0581566666667","6500200","三重區"
"241015","062-VK","2018/03/24 16:39:42","新北市三重區文化北路37-2號","121.498903333333","25.065045","6500200","三重區"
"241017","063-VK","2018/03/24 16:39:50","新北市三重區中正北路25巷16號","121.493531666667","25.0629433333333","6500200","三重區"
"241024","065-VK","2018/03/24 16:39:34","新北市三重區中正北路315巷6弄72號","121.476836666667","25.0724566666667","6500200","三重區"
"241026","066-VK","2018/03/24 16:39:35","新北市三重區福和街1號","121.502883333333","25.06186","6500200","三重區"
"241002","090-VK","2018/03/24 16:39:52","新北市三重區仁義街241巷26號","121.496956666667","25.0830066666667","6500200","三重區"
"241003","091-VK","2018/03/24 16:39:51","新北市三重區五華街71巷8號","121.492681666667","25.0829683333333","6500200","三重區"
"241019","156-TC","2018/03/24 16:39:35","新北市三重區力行路一段17號","121.488135","25.0669116666667","6500200","三重區"
"241005","262-UM","2018/03/24 16:39:53","新北市三重區碧華街202號","121.486665","25.0823166666667","6500200","三重區"
"241016","265-UM","2018/03/24 16:39:50","新北市三重區大智街17-2號","121.494405","25.06546","6500200","三重區"
"241022","267-UM","2018/03/24 16:39:43","新北市三重區貴陽街18-1號","121.48419","25.0618866666667","6500200","三重區"
"241018","268-UM","2018/03/24 16:39:48","新北市三重區六張街71號","121.49363","25.0702233333333","6500200","三重區"
"241032","269-UM","2018/03/24 16:39:55","新北市三重區中山路40巷1-1號","121.486008333333","25.061315","6500200","三重區"
"241013","270-UM","2018/03/24 16:39:48","新北市三重區三和路三段101巷40號","121.495338333333","25.0728283333333","6500200","三重區"
"241007","398-BY","2018/03/24 16:39:46","新北市三重區三和路四段181巷93號","121.48486","25.0794866666667","6500200","三重區"
"241020","413-TH","2018/03/24 16:39:47","新北市三重區車路頭街66號","121.484293333333","25.07278","6500200","三重區"
"241004","475-VK","2018/03/24 16:39:51","新北市三重區五華街72號","121.493238333333","25.0818266666667","6500200","三重區"
"241030","480-VK","2018/03/24 16:39:44","新北市三重區環河南路253號","121.491261666667","25.0504683333333","6500200","三重區"
"241014","543-UM","2018/03/24 16:39:35","新北市三重區龍濱路32號","121.502853333333","25.0681433333333","6500200","三重區"
"241023","545-UM","2018/03/24 16:39:49","新北市三重區忠孝路三段50巷47號","121.482941666667","25.0643583333333","6500200","三重區"
"241001","547-UM","2018/03/24 16:39:49","新北市三重區仁愛街264巷2號","121.49282","25.0780866666667","6500200","三重區"
"241033","557-UM","2018/03/24 16:39:45","新北市三重區光華路35號","121.467951666667","25.059865","6500200","三重區"
"241006","AAD-863","2018/03/24 16:39:43","新北市三重區力行路二段91巷12號","121.483223333333","25.07595","6500200","三重區"
"241025","887-TS","2018/03/24 16:39:51","新北市三重區中正北路311號","121.474106666667","25.071325","6500200","三重區"
"241012","941-UM","2018/03/24 16:39:36","新北市三重區仁興街4巷11號","121.499578333333","25.073765","6500200","三重區"
"241029","942-UM","2018/03/24 16:39:38","新北市三重區集美街112巷13號","121.489475","25.05412","6500200","三重區"
"235046","733-UM","2018/03/24 16:31:37","新北市中和區員山路36巷13號","121.484091666667","24.9908833333333","6500300","中和區"
"247006","336-TH","2018/03/24 16:39:52","新北市五股區中興路三段5號","121.448803333333","25.0797933333333","6501400","蘆洲區"
"247008","056-VK","2018/03/24 16:39:43","新北市五股區中興路三段5號","121.448533333333","25.0798866666667","6501400","蘆洲區"
"247020","001-UY","2018/03/24 16:39:52","新北市五股區成泰路三段358號","121.451081666667","25.0977983333333","6501400","蘆洲區"
"224007","275-VK","2018/03/24 16:39:51","新北市瑞芳區月眉路54號","121.760395","25.11049","6501200","瑞芳區"
"224005","271-BY","2018/03/24 16:39:35","新北市瑞芳區明里路122號","121.863665","25.1225583333333","6501200","瑞芳區"
"227010","642-TC","2018/03/24 16:39:44","新北市雙溪區牡丹里中正路97號","121.861968333333","25.0471383333333","6502500","雙溪區"
"227002","400-TW","2018/03/24 16:39:45","新北市雙溪區外柑里外柑腳51號","121.808293333333","25.0179883333333","6502500","雙溪區"
"251013","179-VK","2018/03/24 16:39:40","新北市淡水區楓樹湖1-1號","121.495055","25.18971","6501000","淡水區"
"251008","181-VK","2018/03/24 16:39:39","台北市北投區中央北路四段30巷160號","121.473946666667","25.14042","6501000","淡水區"
"251015","182-VK","2018/03/24 16:39:36","新北市淡水區學府路88號","121.449133333333","25.1710616666667","6501000","淡水區"
"251010","413-VK","2018/03/24 16:39:43","新北市淡水區沙崙路172號","121.424253333333","25.1835083333333","6501000","淡水區"
"251012","441-VK","2018/03/24 16:39:40","新北市淡水區中正路二段31號","121.419641666667","25.181545","6501000","淡水區"
"251007","577-R6","2018/03/24 16:39:53","新北市淡水區中正路二段31號","121.419496666667","25.1816233333333","6501000","淡水區"
"251011","650-BX","2018/03/24 16:39:44","新北市淡水區中正東路34-2號","121.44845","25.166","6501000","淡水區"
"252002","178-VK","2018/03/24 16:39:40","新北市三芝區芝柏路29號","121.511871666667","25.2556783333333","6502100","三芝區"
"242036","415-TV","2018/03/24 16:39:35","新北市新莊區新泰路357巷3弄57號","121.442025","25.0393783333333","6500500","新莊區"
