"lineid","car","time","location","longitude","latitude","cityid","cityname"
"249005","172-UM","2018/03/24 16:49:51","新北市八里區大堀湖2-3號","121.422358333333","25.1536966666667","6502300","八里區"
"249004","303-UY","2018/03/24 16:49:48","新北市八里區中山路二段210巷191號","121.403481666667","25.15793","6502300","八里區"
"244021","838-TS","2018/03/24 16:49:46","新北市林口區粉寮69號","121.404801666667","25.090815","6501700","林口區"
"231046","278-BY","2018/03/24 16:49:45","新北市新店區灣潭路15-2號","121.542515","24.9425716666667","6500600","新店區"
"241011","013-R5","2018/03/24 16:49:55","新北市三重區仁愛街53巷179號","121.500281666667","25.07275","6500200","三重區"
"241028","022-UY","2018/03/24 16:49:49","新北市三重區大同南路56號","121.496146666667","25.0597383333333","6500200","三重區"
"241008","059-VK","2018/03/24 16:49:49","新北市三重區永安北路一段17巷24號","121.477475","25.0751316666667","6500200","三重區"
"241009","060-VK","2018/03/24 16:49:45","新北市三重區三和路四段203巷278號","121.487748333333","25.0811316666667","6500200","三重區"
"241031","061-VK","2018/03/24 16:49:48","新北市三重區過圳街16號","121.488951666667","25.0588216666667","6500200","三重區"
"241015","062-VK","2018/03/24 16:49:53","新北市三重區長元西街1號","121.4988","25.065625","6500200","三重區"
"241017","063-VK","2018/03/24 16:49:51","新北市三重區大同北路60巷9號","121.49392","25.0638483333333","6500200","三重區"
"241024","065-VK","2018/03/24 16:49:54","新北市三重區中正北路317巷42號","121.47642","25.0734966666667","6500200","三重區"
"241026","066-VK","2018/03/24 16:49:35","新北市三重區文化南路17號","121.500036666667","25.0620716666667","6500200","三重區"
"241002","090-VK","2018/03/24 16:49:52","新北市三重區仁義街161-3號","121.496976666667","25.0813233333333","6500200","三重區"
"241003","091-VK","2018/03/24 16:49:51","新北市三重區五華街71巷52號","121.493278333333","25.0835783333333","6500200","三重區"
"241019","156-TC","2018/03/24 16:49:35","新北市三重區力行路一段179巷17弄1號","121.485151666667","25.0699466666667","6500200","三重區"
"241005","262-UM","2018/03/24 16:49:45","新北市三重區仁華街62巷18號","121.483708333333","25.083385","6500200","三重區"
"241016","265-UM","2018/03/24 16:49:44","新北市三重區大同北路135巷27號","121.493793333333","25.06472","6500200","三重區"
"241022","267-UM","2018/03/24 16:49:43","新北市三重區貴陽街47巷19弄20號","121.48493","25.0621033333333","6500200","三重區"
"241018","268-UM","2018/03/24 16:49:51","新北市三重區安樂街89號","121.494531666667","25.0693283333333","6500200","三重區"
"241032","269-UM","2018/03/24 16:49:35","新北市三重區重陽路一段120巷35號","121.485296666667","25.0601366666667","6500200","三重區"
"241013","270-UM","2018/03/24 16:49:48","新北市三重區仁壽街56號","121.497776666667","25.0737266666667","6500200","三重區"
"241007","398-BY","2018/03/24 16:49:46","新北市三重區三和路四段181巷56號","121.483808333333","25.0793966666667","6500200","三重區"
"241020","413-TH","2018/03/24 16:49:47","新北市三重區忠孝路二段35號","121.485835","25.0710816666667","6500200","三重區"
"241004","475-VK","2018/03/24 16:49:51","新北市三重區仁愛街397巷8號","121.491346666667","25.081065","6500200","三重區"
"241030","480-VK","2018/03/24 16:49:44","新北市三重區中正南路263號","121.492898333333","25.0528133333333","6500200","三重區"
"241014","543-UM","2018/03/24 16:49:35","新北市三重區長榮路75號","121.502601666667","25.0691283333333","6500200","三重區"
"241023","545-UM","2018/03/24 16:49:49","新北市三重區中華路76巷27號","121.482421666667","25.06266","6500200","三重區"
"241001","547-UM","2018/03/24 16:49:49","新北市三重區仁政街54巷19號","121.492395","25.0767783333333","6500200","三重區"
"241033","557-UM","2018/03/24 16:47:58","新北市三重區新北大道二段139巷18號","121.466046666667","25.0605983333333","6500200","三重區"
"241006","AAD-863","2018/03/24 16:49:43","新北市三重區車路頭街118號","121.484278333333","25.075175","6500200","三重區"
"241025","887-TS","2018/03/24 16:49:51","新北市三重區中正北路518號","121.472081666667","25.071715","6500200","三重區"
"241012","941-UM","2018/03/24 16:49:36","新北市三重區龍門路274巷19號","121.501553333333","25.0746966666667","6500200","三重區"
"241029","942-UM","2018/03/24 16:49:38","新北市三重區集美街207巷20號","121.492296666667","25.054155","6500200","三重區"
"235046","733-UM","2018/03/24 16:31:37","新北市中和區員山路36巷13號","121.484091666667","24.9908833333333","6500300","中和區"
"247012","339-TH","2018/03/24 16:49:34","新北市蘆洲區中正路516巷38-5號","121.461263333333","25.0984116666667","6501400","蘆洲區"
"247006","336-TH","2018/03/24 16:49:52","新北市蘆洲區長安街49巷8弄3號","121.462328333333","25.07868","6501400","蘆洲區"
"247008","056-VK","2018/03/24 16:49:43","新北市蘆洲區中山一路176號","121.474135","25.0813133333333","6501400","蘆洲區"
"247020","001-UY","2018/03/24 16:49:52","新北市蘆洲區民族路422巷8號","121.474263333333","25.0920666666667","6501400","蘆洲區"
"228003","097-TW","2018/03/24 16:49:52","新北市貢寮區貢寮里朝陽街1-2號","121.912355","25.0212466666667","6502600","貢寮區"
"228002","585-TW","2018/03/24 16:49:50","新北市貢寮區貢寮里朝陽街142號","121.906033333333","25.02303","6502600","貢寮區"
"224008","285-BY","2018/03/24 16:49:42","新北市瑞芳區明燈路三段1號","121.80937","25.107165","6501200","瑞芳區"
"224007","275-VK","2018/03/24 16:49:51","新北市瑞芳區中央路48巷56-7號","121.760471666667","25.103655","6501200","瑞芳區"
"224009","273-VK","2018/03/24 16:49:39","新北市瑞芳區中正路2號","121.809355","25.106965","6501200","瑞芳區"
"224005","271-BY","2018/03/24 16:49:35","新北市瑞芳區明里路122號","121.865356666667","25.1220983333333","6501200","瑞芳區"
"227010","642-TC","2018/03/24 16:49:44","新北市雙溪區牡丹里五分10號","121.866573333333","25.0471116666667","6502500","雙溪區"
"227002","400-TW","2018/03/24 16:49:44","新北市雙溪區外柑里外柑腳71號","121.807123333333","25.0176366666667","6502500","雙溪區"
"251009","008-UM","2018/03/24 16:49:38","新北市淡水區中正路二段31號","121.419515","25.1815833333333","6501000","淡水區"
"251013","179-VK","2018/03/24 16:49:40","新北市淡水區泉洲厝32號","121.48926","25.19253","6501000","淡水區"
"251014","180-VK","2018/03/24 16:49:44","新北市淡水區淡金路三段55號","121.44735","25.19823","6501000","淡水區"
"251008","181-VK","2018/03/24 16:49:39","新北市淡水區樹梅坑39號","121.474521666667","25.1440916666667","6501000","淡水區"
"251015","182-VK","2018/03/24 16:49:36","新北市淡水區忠愛街6號","121.460803333333","25.1715416666667","6501000","淡水區"
"251010","413-VK","2018/03/24 16:49:43","新北市淡水區淡金路二段599號","121.44633","25.1923133333333","6501000","淡水區"
"251012","441-VK","2018/03/24 16:49:40","新北市淡水區中正路二段31號","121.419673333333","25.1815233333333","6501000","淡水區"
"251007","577-R6","2018/03/24 16:49:33","新北市淡水區建設街1巷7-2號","121.439283333333","25.1727433333333","6501000","淡水區"
"251011","650-BX","2018/03/24 16:47:12","新北市淡水區坪頂路50號","121.457903333333","25.162495","6501000","淡水區"
"252002","178-VK","2018/03/24 16:49:40","新北市三芝區忠孝街132號","121.506061666667","25.25796","6502100","三芝區"
"252001","292-VK","2018/03/24 16:49:39","新北市三芝區埔坪里埔頭坑107號","121.504606666667","25.261655","6502100","三芝區"
"242053","751-BX","2018/03/24 16:49:50","新北市新莊區新泰路357巷3弄57號","121.442081666667","25.0391283333333","6500500","新莊區"
"242029","705-TV","2018/03/24 16:49:48","新北市新莊區新泰路357巷3弄57號","121.442063333333","25.03928","6500500","新莊區"
"242046","497-BY","2018/03/24 16:49:36","新北市新莊區新泰路357巷3弄57號","121.442083333333","25.0394183333333","6500500","新莊區"
"242036","415-TV","2018/03/24 16:49:35","新北市新莊區新泰路357巷3弄57號","121.442063333333","25.0393533333333","6500500","新莊區"
"242015","346-TH","2018/03/24 16:49:39","新北市新莊區三和路12-16號","121.441918333333","25.0374566666667","6500500","新莊區"
"242013","351-TH","2018/03/24 16:49:44","新北市新莊區新泰路357巷3弄57號","121.44202","25.039535","6500500","新莊區"
"238020","268-VK","2018/03/24 16:49:43","新北市板橋區金門街215巷119號","121.434226666667","24.9870033333333","6500700","樹林區"
"220038","833-TW","2018/03/24 16:46:10","新北市板橋區民生路二段188號","121.470318333333","25.0204483333333","6500100","板橋區"
