"lineid","car","time","location","longitude","latitude","cityid","cityname"
"249005","172-UM","2018/03/24 17:09:51","新北市八里區大堀湖28號","121.418623333333","25.1461233333333","6502300","八里區"
"249001","173-UM","2018/03/24 17:09:42","新北市八里區中華路二段177號","121.406755","25.1506166666667","6502300","八里區"
"249004","303-UY","2018/03/24 17:09:48","新北市八里區忠孝路189號","121.422578333333","25.16086","6502300","八里區"
"249002","305-UY","2018/03/24 17:09:36","新北市八里區米倉14號","121.439551666667","25.14993","6502300","八里區"
"249003","593-UM","2018/03/24 17:09:41","新北市八里區中山路二段508號","121.398026666667","25.1468333333333","6502300","八里區"
"244007","080-UY","2018/03/24 17:09:35","新北市林口區菁埔路8號","121.378785","25.0962633333333","6501700","林口區"
"244023","483-VK","2018/03/24 17:09:49","新北市林口區仁愛路一段252號","121.394625","25.075905","6501700","林口區"
"244019","657-BX","2018/03/24 17:09:52","新北市林口區竹林路17號","121.386496666667","25.0770566666667","6501700","林口區"
"244021","838-TS","2018/03/24 17:09:46","新北市林口區宏昌街15號","121.403825","25.085165","6501700","林口區"
"231046","278-BY","2018/03/24 17:09:45","新北市新店區直潭路92號","121.530926666667","24.9376083333333","6500600","新店區"
"241011","013-R5","2018/03/24 17:09:35","新北市三重區龍濱路285號","121.501121666667","25.0734016666667","6500200","三重區"
"241028","022-UY","2018/03/24 17:09:49","新北市三重區重新路三段110號","121.492318333333","25.0602983333333","6500200","三重區"
"241008","059-VK","2018/03/24 17:09:36","新北市三重區力行路二段136巷7號","121.482131666667","25.07573","6500200","三重區"
"241009","060-VK","2018/03/24 17:09:45","新北市三重區三和路四段211-10號","121.482086666667","25.0798233333333","6500200","三重區"
"241015","062-VK","2018/03/24 17:09:42","新北市三重區長生街28號","121.499565","25.0664266666667","6500200","三重區"
"241017","063-VK","2018/03/24 17:09:51","新北市三重區中正北路25巷2號","121.493288333333","25.0627683333333","6500200","三重區"
"241024","065-VK","2018/03/24 17:09:54","新北市三重區中正北路193巷11弄42號","121.478676666667","25.0705966666667","6500200","三重區"
"241026","066-VK","2018/03/24 17:09:55","新北市三重區重新路一段108號","121.500831666667","25.063295","6500200","三重區"
"241002","090-VK","2018/03/24 17:09:52","新北市三重區五華街35巷10號","121.494866666667","25.0811383333333","6500200","三重區"
"241003","091-VK","2018/03/24 17:09:51","新北市三重區五華街141巷58號","121.493338333333","25.0864616666667","6500200","三重區"
"241019","156-TC","2018/03/24 17:09:55","新北市三重區自強路二段74巷67號","121.486921666667","25.0694366666667","6500200","三重區"
"241005","262-UM","2018/03/24 17:09:45","新北市三重區仁愛街670號","121.482316666667","25.080605","6500200","三重區"
"241016","265-UM","2018/03/24 17:09:44","新北市三重區大仁街78號","121.492558333333","25.0652466666667","6500200","三重區"
"241022","267-UM","2018/03/24 17:09:43","新北市三重區中正北路64巷20號","121.486181666667","25.0638133333333","6500200","三重區"
"241018","268-UM","2018/03/24 17:09:48","新北市三重區六張街58號","121.494015","25.0702216666667","6500200","三重區"
"241032","269-UM","2018/03/24 17:09:35","新北市三重區三陽路13巷10號","121.485975","25.059435","6500200","三重區"
"241013","270-UM","2018/03/24 17:09:48","新北市三重區仁孝街62號","121.497336666667","25.074375","6500200","三重區"
"241007","398-BY","2018/03/24 17:09:46","新北市三重區三和路四段163巷67號","121.485491666667","25.0792533333333","6500200","三重區"
"241020","413-TH","2018/03/24 17:09:47","新北市三重區後竹圍街157號","121.486301666667","25.0719483333333","6500200","三重區"
"241004","475-VK","2018/03/24 17:09:51","新北市三重區五華街98巷2號","121.492566666667","25.0822433333333","6500200","三重區"
"241030","480-VK","2018/03/24 17:09:44","新北市三重區集成路37號","121.489116666667","25.0526566666667","6500200","三重區"
"241014","543-UM","2018/03/24 17:09:35","新北市三重區龍濱路199號","121.501831666667","25.0714816666667","6500200","三重區"
"241023","545-UM","2018/03/24 17:09:49","新北市三重區忠孝路三段84巷1號","121.480245","25.064515","6500200","三重區"
"241001","547-UM","2018/03/24 17:09:49","新北市三重區仁愛街255巷82號","121.494658333333","25.0791733333333","6500200","三重區"
"241033","557-UM","2018/03/24 17:04:25","新北市三重區中興北街271號","121.468981666667","25.06058","6500200","三重區"
"241006","AAD-863","2018/03/24 17:09:43","新北市三重區三和路四段250號","121.486131666667","25.0767133333333","6500200","三重區"
"241025","887-TS","2018/03/24 17:09:51","新北市三重區中正北路560巷61-3號","121.47096","25.068915","6500200","三重區"
"241012","941-UM","2018/03/24 17:09:36","新北市三重區龍門路274巷31號","121.50127","25.07506","6500200","三重區"
"241029","942-UM","2018/03/24 17:09:38","新北市三重區重新路四段120號","121.486935","25.056775","6500200","三重區"
"247024","893-R6","2018/03/24 17:09:43","新北市蘆洲區長興路15號","121.46415","25.0829133333333","6501400","蘆洲區"
"247014","546-UM","2018/03/24 17:09:35","新北市蘆洲區中央路2-1號","121.4733","25.0823733333333","6501400","蘆洲區"
"247022","500-BY","2018/03/24 17:09:40","新北市蘆洲區三民路224號","121.468721666667","25.0893033333333","6501400","蘆洲區"
"247010","341-TH","2018/03/24 17:09:42","新北市蘆洲區民族路26號","121.476181666667","25.0842083333333","6501400","蘆洲區"
"247012","339-TH","2018/03/24 17:09:34","新北市蘆洲區信義路292巷7號","121.478001666667","25.0877233333333","6501400","蘆洲區"
"247004","337-TH","2018/03/24 17:09:41","新北市蘆洲區長安街136-1號","121.460321666667","25.08204","6501400","蘆洲區"
"247006","336-TH","2018/03/24 17:09:52","新北市蘆洲區中華街6巷52號","121.462331666667","25.08269","6501400","蘆洲區"
"247018","057-VK","2018/03/24 17:09:53","新北市蘆洲區復興路154號","121.477273333333","25.087935","6501400","蘆洲區"
"247008","056-VK","2018/03/24 17:09:43","新北市蘆洲區信義路30巷71號","121.474923333333","25.07773","6501400","蘆洲區"
"247002","053-VK","2018/03/24 17:09:47","新北市蘆洲區永樂街108號","121.455928333333","25.0887966666667","6501400","蘆洲區"
"247016","007-UY","2018/03/24 17:09:50","新北市蘆洲區光華路65巷19號","121.468713333333","25.0821666666667","6501400","蘆洲區"
"247020","001-UY","2018/03/24 17:09:52","新北市蘆洲區仁愛街81號","121.471325","25.093965","6501400","蘆洲區"
"228003","097-TW","2018/03/24 17:09:52","新北市貢寮區福隆里東興街18-1號","121.950091666667","25.018235","6502600","貢寮區"
"228001","212-TW","2018/03/24 17:09:51","新北市貢寮區仁理村尖山腳街20號","121.924795","25.04784","6502600","貢寮區"
"228002","585-TW","2018/03/24 17:09:50","新北市貢寮區龍崗里嵩陽街55號","121.907613333333","25.01668","6502600","貢寮區"
"224008","285-BY","2018/03/24 17:09:42","新北市瑞芳區柴寮路40號","121.827463333333","25.0868216666667","6501200","瑞芳區"
"224009","273-VK","2018/03/24 17:09:39","新北市瑞芳區街頂巷36號","121.84359","25.11057","6501200","瑞芳區"
"224005","271-BY","2018/03/24 17:09:55","新北市瑞芳區鼻頭路111-1號","121.916193333333","25.1229116666667","6501200","瑞芳區"
"227010","642-TC","2018/03/24 17:09:44","新北市雙溪區三貂里子崙坑1-6號","121.849896666667","25.057475","6502500","雙溪區"
"227002","400-TW","2018/03/24 17:09:44","新北市雙溪區外柑里外柑腳37號","121.809956666667","25.0184216666667","6502500","雙溪區"
"251009","008-UM","2018/03/24 17:09:38","新北市淡水區三民街20號","121.439011666667","25.171735","6501000","淡水區"
"251004","009-UM","2018/03/24 17:09:35","新北市淡水區中正東路二段103號","121.459041666667","25.15143","6501000","淡水區"
"251013","179-VK","2018/03/24 17:09:48","新北市淡水區桂花樹1-3號","121.482775","25.1963516666667","6501000","淡水區"
"251014","180-VK","2018/03/24 17:09:44","新北市淡水區八里堆7-6號","121.460816666667","25.22463","6501000","淡水區"
"251008","181-VK","2018/03/24 17:09:39","新北市淡水區樹梅坑17號","121.47101","25.14416","6501000","淡水區"
"251015","182-VK","2018/03/24 17:09:56","新北市淡水區樹林口42-3號","121.470278333333","25.1687333333333","6501000","淡水區"
"251010","413-VK","2018/03/24 17:09:45","新北市淡水區新市三路一段312號","121.430935","25.1975983333333","6501000","淡水區"
"251012","441-VK","2018/03/24 17:09:40","新北市淡水區中山北路一段156號","121.444233333333","25.1780016666667","6501000","淡水區"
"251016","442-VK","2018/03/24 17:09:47","新北市淡水區泉洲厝1-2號","121.480455","25.1881616666667","6501000","淡水區"
"251005","443-VK","2018/03/24 17:09:42","新北市淡水區水源街一段159號","121.448053333333","25.1716316666667","6501000","淡水區"
"251007","577-R6","2018/03/24 17:09:33","新北市淡水區中正東路二段161巷11弄10號","121.461471666667","25.14582","6501000","淡水區"
"251011","650-BX","2018/03/24 17:09:38","新北市淡水區坪頂路52巷2號","121.458048333333","25.1624783333333","6501000","淡水區"
"252002","178-VK","2018/03/24 17:09:40","新北市三芝區埔坪里埔頭坑169-2號","121.50585","25.2527233333333","6502100","三芝區"
"252001","292-VK","2018/03/24 17:09:39","新北市三芝區埔頭里埔頭17-2號","121.494576666667","25.2602283333333","6502100","三芝區"
"237012","275-BY","2018/03/24 17:09:46","新北市三峽區中山路459巷137號","121.349918333333","24.9339716666667","6500900","三峽區"
"242053","751-BX","2018/03/24 17:09:50","新北市新莊區中正路384號","121.441953333333","25.0346033333333","6500500","新莊區"
"242029","705-TV","2018/03/24 17:09:48","新北市新莊區三和路12-21號","121.44214","25.0386366666667","6500500","新莊區"
"242046","497-BY","2018/03/24 17:09:36","新北市新莊區三和路12-18號","121.442083333333","25.0376766666667","6500500","新莊區"
"242004","442-UM","2018/03/24 17:09:45","新北市新莊區新泰路255巷83號","121.44263","25.038885","6500500","新莊區"
"242051","441-UM","2018/03/24 17:09:42","新北市新莊區中環路一段287號","121.442058333333","25.0320533333333","6500500","新莊區"
"242036","415-TV","2018/03/24 17:09:35","新北市新莊區新泰路357巷3弄57號","121.441996666667","25.0394016666667","6500500","新莊區"
"242007","413-TV","2018/03/24 17:09:47","新北市新莊區新泰路357巷3弄57號","121.441913333333","25.0394583333333","6500500","新莊區"
"242044","400-BY","2018/03/24 17:09:46","新北市新莊區新泰路357巷3弄49號","121.441975","25.0401233333333","6500500","新莊區"
"242023","362-BY","2018/03/24 17:09:45","新北市新莊區新泰路255巷83號","121.442385","25.0387733333333","6500500","新莊區"
"242061","353-BY","2018/03/24 17:09:34","新北市新莊區新泰路255巷83號","121.442396666667","25.038845","6500500","新莊區"
"242009","132-UY","2018/03/24 17:09:36","新北市新莊區三和路12-21號","121.441923333333","25.0388583333333","6500500","新莊區"
"242039","133-UY","2018/03/24 17:09:52","新北市泰山區磚雅厝3號","121.442106666667","25.0420566666667","6500500","新莊區"
"242031","135-UY","2018/03/24 17:09:39","新北市新莊區新泰路255巷83號","121.442318333333","25.0388466666667","6500500","新莊區"
"242048","172-VK","2018/03/24 17:09:45","新北市新莊區中正路480號","121.438448333333","25.0333216666667","6500500","新莊區"
"242017","175-VK","2018/03/24 17:09:46","新北市新莊區三和路12-21號","121.441941666667","25.0386983333333","6500500","新莊區"
"242015","346-TH","2018/03/24 17:09:39","新北市新莊區三和路12-18號","121.44191","25.0376433333333","6500500","新莊區"
"242021","348-TH","2018/03/24 17:09:47","新北市新莊區新泰路357巷1弄57號","121.44249","25.0395216666667","6500500","新莊區"
"242002","349-TH","2018/03/24 17:09:39","新北市新莊區三和路12-16號","121.441875","25.0374516666667","6500500","新莊區"
"242013","351-TH","2018/03/24 17:09:44","新北市新莊區新泰路357巷3弄57號","121.442023333333","25.0395383333333","6500500","新莊區"
"238015","755-BX","2018/03/24 17:09:50","新北市樹林區新興街35號","121.399931666667","24.9719983333333","6500700","樹林區"
"238019","599-UM","2018/03/24 17:09:46","新北市樹林區太平路247巷28號","121.42068","24.97551","6500700","樹林區"
"238024","5061-A6","2018/03/24 17:09:51","新北市樹林區環河路10號","121.42712","24.978145","6500700","樹林區"
"238025","303-VK","2018/03/24 17:09:48","新北市樹林區中山路二段89號","121.411503333333","24.9828583333333","6500700","樹林區"
"238017","283-BY","2018/03/24 17:09:42","新北市樹林區中山路三段125-9號","121.397881666667","24.9737933333333","6500700","樹林區"
"238014","282-BY","2018/03/24 17:09:40","新北市樹林區中山路二段157號","121.406275","24.9788716666667","6500700","樹林區"
"238020","268-VK","2018/03/24 17:09:43","新北市樹林區中正路271-1號","121.421005","25.0052083333333","6500700","樹林區"
"238016","169-UY","2018/03/24 17:09:36","新北市樹林區中山路二段153號","121.406366666667","24.9787216666667","6500700","樹林區"
"239007","AAC-297","2018/03/24 17:09:42","新北市鶯歌區中正一路21巷1號","121.352425","24.95343","6500800","鶯歌區"
"239006","891-R6","2018/03/24 17:09:46","新北市鶯歌區八德路29號","121.33505","24.951895","6500800","鶯歌區"
"239008","527-UM","2018/03/24 17:09:41","新北市鶯歌區尖山路57-3號","121.350185","24.9496866666667","6500800","鶯歌區"
"239005","526-UM","2018/03/24 17:08:25","新北市鶯歌區八德路37號","121.334266666667","24.9538116666667","6500800","鶯歌區"
"239001","417-VK","2018/03/24 17:09:52","新北市鶯歌區尖山路140巷6弄1號","121.346576666667","24.9489533333333","6500800","鶯歌區"
"239002","359-BY","2018/03/24 17:09:42","新北市鶯歌區建國路216號","121.348946666667","24.9534433333333","6500800","鶯歌區"
"239004","193-VK","2018/03/24 17:09:44","新北市鶯歌區文化路256巷15弄19號","121.352201666667","24.9471316666667","6500800","鶯歌區"
"242011","281-VK","2018/03/24 17:09:49","新北市新莊區三和路12-17號","121.441861666667","25.03752","6500500","新莊區"
"242042","280-VK","2018/03/24 17:09:34","新北市新莊區三和路12-21號","121.441831666667","25.0383766666667","6500500","新莊區"
"220038","833-TW","2018/03/24 16:46:10","新北市板橋區民生路二段188號","121.470318333333","25.0204483333333","6500100","板橋區"
