"lineid","car","time","location","longitude","latitude","cityid","cityname"
"234026","9371-KE","2018/03/24 17:49:37","新北市永和區和平街98號","121.510928333333","25.00992","6500400","永和區"
"249005","172-UM","2018/03/24 17:49:51","新北市八里區荖阡坑路27號","121.402013333333","25.13583","6502300","八里區"
"249001","173-UM","2018/03/24 17:49:42","新北市八里區龍米路二段129巷1號","121.445778333333","25.1469566666667","6502300","八里區"
"249004","303-UY","2018/03/24 17:49:48","新北市八里區賢一街75號","121.419278333333","25.1577066666667","6502300","八里區"
"249002","305-UY","2018/03/24 17:49:36","新北市八里區龍形五街37巷2號","121.448738333333","25.1326383333333","6502300","八里區"
"249003","593-UM","2018/03/24 17:49:41","新北市八里區中山路二段115號","121.405633333333","25.1521433333333","6502300","八里區"
"248004","682-TV","2018/03/24 17:49:50","新北市五股區中興路二段57-6號","121.460378333333","25.07539","6501500","五股區"
"232011","375-UM","2018/03/24 17:49:51","新北市坪林區北宜路八段168號","121.707511666667","24.9345166666667","6502000","坪林區"
"244013","069-UM","2018/03/24 17:49:45","新北市林口區中正路438號","121.383803333333","25.0777316666667","6501700","林口區"
"244007","080-UY","2018/03/24 17:49:48","新北市林口區林口路135號","121.388638333333","25.081205","6501700","林口區"
"244025","742-UY","2018/03/24 17:49:52","新北市林口區文化三路一段105號","121.36146","25.068275","6501700","林口區"
"244023","483-VK","2018/03/24 17:49:49","新北市林口區興林路318巷13號","121.388183333333","25.0704766666667","6501700","林口區"
"244009","656-BX","2018/03/24 17:49:36","新北市林口區文化一路二段232號","121.38425","25.0827433333333","6501700","林口區"
"244019","657-BX","2018/03/24 17:49:52","新北市林口區忠孝路512巷13號","121.371433333333","25.0688933333333","6501700","林口區"
"244011","701-TV","2018/03/24 17:49:54","新北市林口區佳林路253號","121.382931666667","25.0761216666667","6501700","林口區"
"244021","838-TS","2018/03/24 17:49:46","新北市林口區仁愛路一段61巷31號","121.396616666667","25.0697433333333","6501700","林口區"
"222003","436-BY","2018/03/24 17:49:54","新北市深坑區阿柔洋60-1號","121.608611666667","24.99853","6501800","深坑區"
"222002","659-BX","2018/03/24 17:49:43","新北市深坑區平埔街22巷17弄1號","121.614903333333","25.0008766666667","6501800","深坑區"
"231046","278-BY","2018/03/24 17:49:45","新北市新店區康雅崙路31號","121.537426666667","24.9260583333333","6500600","新店區"
"241024","065-VK","2018/03/24 17:49:54","新北市三重區車路頭街64號","121.484226666667","25.0726916666667","6500200","三重區"
"241019","156-TC","2018/03/24 17:49:55","新北市三重區中正北路111-1號","121.485501666667","25.0653383333333","6500200","三重區"
"241016","265-UM","2018/03/24 17:49:44","新北市三重區新北大道一段7號","121.489655","25.0614283333333","6500200","三重區"
"241033","557-UM","2018/03/24 17:49:45","新北市三重區重新路五段527號","121.471116666667","25.04629","6500200","三重區"
"235064","005-UY","2018/03/24 17:49:44","新北市中和區員山路36巷16-3號","121.485056666667","24.9914083333333","6500300","中和區"
"235065","098-UM","2018/03/24 17:49:53","新北市中和區員山路36巷16-3號","121.485026666667","24.99124","6500300","中和區"
"235044","293-VK","2018/03/24 17:49:53","新北市中和區員山路36巷16-2號","121.485326666667","24.9912766666667","6500300","中和區"
"235046","733-UM","2018/03/24 17:49:50","新北市中和區員山路36巷13號","121.484138333333","24.9908566666667","6500300","中和區"
"235052","805-TS","2018/03/24 17:40:08","新北市中和區員山路36巷16號","121.4845","24.9914083333333","6500300","中和區"
"235053","900-TW","2018/03/24 17:49:38","新北市中和區員山路36巷16-2號","121.485175","24.9914333333333","6500300","中和區"
"247024","893-R6","2018/03/24 17:49:43","新北市蘆洲區光榮路63號","121.461106666667","25.088705","6501400","蘆洲區"
"247014","546-UM","2018/03/24 17:49:35","新北市蘆洲區保和街69巷18號","121.469655","25.085275","6501400","蘆洲區"
"247022","500-BY","2018/03/24 17:49:39","新北市蘆洲區中正路410號","121.46296","25.0937733333333","6501400","蘆洲區"
"247010","341-TH","2018/03/24 17:49:42","新北市蘆洲區民族路39號","121.478253333333","25.0852783333333","6501400","蘆洲區"
"247012","339-TH","2018/03/24 17:49:34","新北市蘆洲區復興路88號","121.475378333333","25.08682","6501400","蘆洲區"
"247004","337-TH","2018/03/24 17:49:41","新北市蘆洲區永安南路二段330號","121.456906666667","25.0830116666667","6501400","蘆洲區"
"247006","336-TH","2018/03/24 17:49:52","新北市蘆洲區九芎街189號","121.464695","25.0785683333333","6501400","蘆洲區"
"247018","057-VK","2018/03/24 17:49:53","新北市蘆洲區復興路227巷2弄2號","121.479973333333","25.0900733333333","6501400","蘆洲區"
"247008","056-VK","2018/03/24 17:49:43","新北市蘆洲區中山一路197巷4弄19號","121.474115","25.08055","6501400","蘆洲區"
"247002","053-VK","2018/03/24 17:49:47","新北市蘆洲區永平街32巷33弄28號","121.458333333333","25.0925683333333","6501400","蘆洲區"
"247020","001-UY","2018/03/24 17:49:52","新北市蘆洲區民義街77號","121.473316666667","25.0902366666667","6501400","蘆洲區"
"228003","097-TW","2018/03/24 17:49:52","新北市貢寮區真理里美艷山街6-2號","121.928971666667","25.0607483333333","6502600","貢寮區"
"228001","212-TW","2018/03/24 17:49:50","新北市貢寮區仁理村仁愛路95-1號","121.927661666667","25.0554616666667","6502600","貢寮區"
"228002","585-TW","2018/03/24 17:49:50","新北市貢寮區福隆里龜壽谷街12號","121.956285","25.0061783333333","6502600","貢寮區"
"224010","AGQ-8101","2018/03/24 17:49:54","新北市瑞芳區明燈路二段44-1號","121.809581666667","25.1081883333333","6501200","瑞芳區"
"224008","285-BY","2018/03/24 17:49:42","新北市瑞芳區明燈路一段194號","121.818905","25.1079583333333","6501200","瑞芳區"
"224009","273-VK","2018/03/24 17:49:39","新北市瑞芳區新山路14號","121.852418333333","25.1111866666667","6501200","瑞芳區"
"224005","271-BY","2018/03/24 17:49:55","新北市瑞芳區建基路一段54號","121.817513333333","25.1273633333333","6501200","瑞芳區"
"227002","400-TW","2018/03/24 17:38:38","新北市雙溪區三貂里定福路1-2號","121.850753333333","25.0634233333333","6502500","雙溪區"
"222001","KEA-2212","2018/03/24 17:49:47","新北市深坑區文山路三段110號","121.608595","24.99943","6501800","深坑區"
"208002","KEA-2872","2018/03/24 17:49:51","新北市金山區磺清路121號","121.639836666667","25.2281833333333","6502700","金山區"
"208003","665-BX","2018/03/24 17:49:51","新北市金山區磺清路135號","121.63938","25.2274633333333","6502700","金山區"
"251009","008-UM","2018/03/24 17:49:38","新北市淡水區長興街20-1號","121.444005","25.17102","6501000","淡水區"
"251004","009-UM","2018/03/24 17:49:35","新北市淡水區民權一街17巷6號","121.458921666667","25.1365566666667","6501000","淡水區"
"251013","179-VK","2018/03/24 17:49:40","新北市淡水區泉洲厝31號","121.479586666667","25.1910566666667","6501000","淡水區"
"251014","180-VK","2018/03/24 17:49:44","新北市淡水區公埔子16-6號","121.481003333333","25.22458","6501000","淡水區"
"251008","181-VK","2018/03/24 17:49:39","新北市淡水區八勢路一段153號","121.46765","25.1567166666667","6501000","淡水區"
"251015","182-VK","2018/03/24 17:47:56","新北市淡水區興福寮6號","121.492013333333","25.1653483333333","6501000","淡水區"
"251010","413-VK","2018/03/24 17:49:45","新北市淡水區中正路二段96號","121.418271666667","25.1859616666667","6501000","淡水區"
"251012","441-VK","2018/03/24 17:49:40","新北市淡水區北新路二段79-7號","121.481245","25.18541","6501000","淡水區"
"251016","442-VK","2018/03/24 17:49:47","新北市淡水區埤島39-15號","121.452741666667","25.195885","6501000","淡水區"
"251005","443-VK","2018/03/24 17:49:44","新北市淡水區學府路100巷6號","121.450351666667","25.17201","6501000","淡水區"
"251001","559-UM","2018/03/24 17:49:42","新北市淡水區民權路92巷35-1號","121.462243333333","25.126705","6501000","淡水區"
"251006","561-UM","2018/03/24 17:49:41","新北市淡水區大信街1巷16號","121.440191666667","25.1768366666667","6501000","淡水區"
"251007","577-R6","2018/03/24 17:49:53","新北市淡水區民生路55-1號","121.462873333333","25.1382133333333","6501000","淡水區"
"251011","650-BX","2018/03/24 17:47:38","新北市淡水區吳(仔)厝38號","121.479523333333","25.149665","6501000","淡水區"
"251002","672-BX","2018/03/24 17:49:48","新北市淡水區中山路62號","121.443775","25.1704983333333","6501000","淡水區"
"251003","673-BX","2018/03/24 17:49:50","新北市淡水區大忠街5巷1號","121.443113333333","25.1764116666667","6501000","淡水區"
"207003","291-VK","2018/03/24 17:49:47","新北市萬里區野柳里東澳路55號","121.692001666667","25.2032766666667","6502800","萬里區"
"207004","225-TW","2018/03/24 17:49:45","新北市萬里區萬里里瑪鋉頂街100-1號","121.687771666667","25.18051","6502800","萬里區"
"252002","178-VK","2018/03/24 17:49:40","新北市三芝區中山路一段74號","121.50225","25.2565883333333","6502100","三芝區"
"252001","292-VK","2018/03/24 17:49:39","新北市三芝區中興街一段12號","121.497448333333","25.2592816666667","6502100","三芝區"
"237004","KEA-2597","2018/03/24 17:49:52","新北市三峽區仁愛街18號","121.368283333333","24.9324466666667","6500900","三峽區"
"237009","210-TH","2018/03/24 17:49:40","新北市三峽區大勇路3巷29號","121.367713333333","24.9367966666667","6500900","三峽區"
"237013","252-BX","2018/03/24 17:49:41","新北市三峽區愛國路16巷1號","121.374035","24.933465","6500900","三峽區"
"237012","275-BY","2018/03/24 17:49:46","新北市三峽區民生街79號","121.374746666667","24.9358733333333","6500900","三峽區"
"237014","433-BY","2018/03/24 17:49:43","新北市三峽區復興路101巷1弄61號","121.371326666667","24.937105","6500900","三峽區"
"237006","5529-G3","2018/03/24 17:49:37","新北市三峽區介壽路二段136巷83-6號","121.393306666667","24.931215","6500900","三峽區"
"237016","649-BX","2018/03/24 17:46:46","新北市三峽區白雞149-2號","121.40016","24.905595","6500900","三峽區"
"237010","706-TV","2018/03/24 17:49:39","新北市三峽區文化路197號","121.366568333333","24.9357266666667","6500900","三峽區"
"236073","105-UM","2018/03/24 17:49:40","新北市土城區青雲路503號","121.458805","24.973305","6501300","土城區"
"236043","107-UM","2018/03/24 17:49:53","新北市土城區亞洲路58巷5弄2號","121.433801666667","24.9745366666667","6501300","土城區"
"236079","166-UM","2018/03/24 17:49:43","新北市土城區大安路101號","121.433163333333","24.9685833333333","6501300","土城區"
"236031","253-BX","2018/03/24 17:49:33","新北市土城區亞洲路58巷5弄6號","121.433693333333","24.9743733333333","6501300","土城區"
"236015","270-VK","2018/03/24 17:49:45","新北市土城區亞洲路58巷5弄8號","121.433495","24.9744266666667","6501300","土城區"
"236038","271-VK","2018/03/24 17:49:51","新北市土城區亞洲路58巷5弄20號","121.433515","24.9740266666667","6501300","土城區"
"236023","401-BY","2018/03/24 17:49:40","新北市土城區亞洲路32巷23號","121.434916666667","24.97508","6501300","土城區"
"236059","912-UM","2018/03/24 17:49:43","新北市土城區亞洲路58巷5弄2號","121.434243333333","24.9743616666667","6501300","土城區"
"236049","913-UM","2018/03/24 17:49:50","新北市土城區亞洲路32巷23號","121.434871666667","24.975115","6501300","土城區"
"236063","915-UM","2018/03/24 17:49:50","新北市土城區亞洲路58巷5弄2號","121.433776666667","24.974525","6501300","土城區"
"242034","AAC-296","2018/03/24 17:49:55","新北市新莊區新莊路803號","121.440753333333","25.03267","6500500","新莊區"
"242058","986-R7","2018/03/24 17:49:51","新北市新莊區中正路730-6號","121.414745","25.02359","6500500","新莊區"
"242053","751-BX","2018/03/24 17:49:50","新北市新莊區民安西路468-1號","121.431641666667","25.0078883333333","6500500","新莊區"
"242029","705-TV","2018/03/24 17:49:48","新北市新莊區新泰路308號","121.44538","25.041275","6500500","新莊區"
"242027","615-BX","2018/03/24 17:49:36","新北市新莊區福壽街155號","121.458055","25.0533216666667","6500500","新莊區"
"242025","613-BX","2018/03/24 17:49:53","新北市三重區新北大道二段80-1號","121.469805","25.0616066666667","6500500","新莊區"
"242046","497-BY","2018/03/24 17:49:43","新北市新莊區福營路167號","121.431858333333","25.03111","6500500","新莊區"
"242004","442-UM","2018/03/24 17:49:45","新北市新莊區自立街237號","121.458125","25.0455416666667","6500500","新莊區"
"242051","441-UM","2018/03/24 17:49:42","新北市新莊區西盛街311巷19號","121.428688333333","25.0152516666667","6500500","新莊區"
"242056","440-UM","2018/03/24 17:49:52","新北市新莊區瓊林路38巷39號","121.446485","25.03041","6500500","新莊區"
"242036","415-TV","2018/03/24 17:49:55","新北市新莊區建福路59巷7號","121.42718","25.0274383333333","6500500","新莊區"
"242007","413-TV","2018/03/24 17:49:47","新北市新莊區福樂街108巷9號","121.45767","25.0480483333333","6500500","新莊區"
"242044","400-BY","2018/03/24 17:49:46","新北市新莊區中正路857號","121.419603333333","25.0279233333333","6500500","新莊區"
"242023","362-BY","2018/03/24 17:49:45","新北市新莊區福樂街35號","121.457696666667","25.0468566666667","6500500","新莊區"
"242061","353-BY","2018/03/24 17:49:53","新北市新莊區新樹路595號","121.433018333333","25.0064466666667","6500500","新莊區"
"242009","132-UY","2018/03/24 17:49:36","新北市新莊區昌明街42-2號","121.45613","25.0523483333333","6500500","新莊區"
"242039","133-UY","2018/03/24 17:49:52","新北市新莊區民安路162號","121.424786666667","25.0245366666667","6500500","新莊區"
"242031","135-UY","2018/03/24 17:49:46","新北市新莊區新泰路357巷1弄1號","121.442871666667","25.0412866666667","6500500","新莊區"
"242048","172-VK","2018/03/24 17:49:45","新北市新莊區萬安街102巷2號","121.420316666667","25.0225266666667","6500500","新莊區"
"242017","175-VK","2018/03/24 17:49:46","新北市新莊區永安街63號","121.451155","25.0446733333333","6500500","新莊區"
"242015","346-TH","2018/03/24 17:49:39","新北市新莊區新泰路502巷42弄1號","121.44377","25.046335","6500500","新莊區"
"242021","348-TH","2018/03/24 17:49:47","新北市新莊區永寧街32巷2號","121.452933333333","25.0392166666667","6500500","新莊區"
"242002","349-TH","2018/03/24 17:49:39","新北市新莊區景德路158號","121.450695","25.0341983333333","6500500","新莊區"
"242019","350-TH","2018/03/24 17:49:54","新北市新莊區中港路279號","121.453358333333","25.0437033333333","6500500","新莊區"
"242013","351-TH","2018/03/24 17:49:44","新北市新莊區中泰街104巷5弄8號","121.448286666667","25.0469683333333","6500500","新莊區"
"238015","755-BX","2018/03/24 17:49:49","新北市樹林區復興路139號","121.421468333333","24.9927333333333","6500700","樹林區"
"238023","601-UM","2018/03/24 17:49:44","新北市樹林區龍興街15號","121.403098333333","25.0163666666667","6500700","樹林區"
"238019","599-UM","2018/03/24 17:49:53","新北市樹林區太平路263號","121.418675","24.974245","6500700","樹林區"
"238018","571-TV","2018/03/24 17:49:38","新北市樹林區鎮前街8號","121.426381666667","24.99352","6500700","樹林區"
"238024","5061-A6","2018/03/24 17:49:51","新北市樹林區八德街1002號","121.3916","24.96862","6500700","樹林區"
"238022","KEA-2213","2018/03/24 17:49:48","新北市樹林區太順街62巷3弄2號","121.417515","24.9796766666667","6500700","樹林區"
"238021","KEA-2539","2018/03/24 17:49:47","新北市樹林區柑園街一段47號","121.403268333333","24.9602366666667","6500700","樹林區"
"238025","303-VK","2018/03/24 17:49:48","新北市樹林區三俊街164號","121.417175","25.0154516666667","6500700","樹林區"
"238017","283-BY","2018/03/24 17:49:42","新北市樹林區三德街30巷27號","121.414791666667","25.0123133333333","6500700","樹林區"
"238014","282-BY","2018/03/24 17:49:40","新北市樹林區保安街一段219號","121.420571666667","24.9961816666667","6500700","樹林區"
"238020","268-VK","2018/03/24 17:49:43","新北市樹林區三俊街133號","121.41827","25.0156","6500700","樹林區"
"238026","172-UY","2018/03/24 17:49:36","新北市樹林區中洲街41號","121.396905","24.9713483333333","6500700","樹林區"
"238016","169-UY","2018/03/24 17:49:56","新北市樹林區復興路373巷2號","121.417013333333","24.98681","6500700","樹林區"
"239007","AAC-297","2018/03/24 17:49:42","新北市鶯歌區鶯桃路120巷15號","121.33877","24.955055","6500800","鶯歌區"
"239006","891-R6","2018/03/24 17:49:46","新北市鶯歌區鶯桃路413巷34弄34號","121.330761666667","24.964135","6500800","鶯歌區"
"239008","527-UM","2018/03/24 17:49:54","新北市鶯歌區香賓街21號","121.33753","24.9796783333333","6500800","鶯歌區"
"239005","526-UM","2018/03/24 17:49:45","新北市鶯歌區鳳吉五街19號","121.326966666667","24.972485","6500800","鶯歌區"
"239001","417-VK","2018/03/24 17:49:41","新北市鶯歌區中正三路387號","121.326896666667","24.934485","6500800","鶯歌區"
"239003","360-BY","2018/03/24 17:49:55","新北市鶯歌區德昌二街61號","121.333861666667","24.9583483333333","6500800","鶯歌區"
"239002","359-BY","2018/03/24 17:49:42","新北市鶯歌區育智路1號","121.345071666667","24.9557233333333","6500800","鶯歌區"
"239004","193-VK","2018/03/24 17:49:44","新北市鶯歌區環河路58號","121.351806666667","24.9448433333333","6500800","鶯歌區"
"221036","130-UY","2018/03/24 17:49:46","新北市汐止區長江街95號","121.657873333333","25.0725816666667","6501100","汐止區"
"221015","131-UY","2018/03/24 17:49:37","新北市汐止區長江街43號","121.655835","25.0712933333333","6501100","汐止區"
"221010","269-BY","2018/03/24 17:49:50","新北市汐止區汐萬路二段121號","121.648273333333","25.08403","6501100","汐止區"
"221012","278-VK","2018/03/24 17:49:45","新北市汐止區長江街256巷3號","121.665278333333","25.0802783333333","6501100","汐止區"
"221023","279-VK","2018/03/24 17:49:50","新北市汐止區康寧街591巷4號","121.634913333333","25.0705383333333","6501100","汐止區"
"221032","280-BY","2018/03/24 17:49:49","新北市汐止區工建路213號","121.635686666667","25.0616833333333","6501100","汐止區"
"221027","281-BY","2018/03/24 17:49:47","新北市汐止區汐萬路一段273號","121.650533333333","25.0744716666667","6501100","汐止區"
"221029","298-VK","2018/03/24 17:49:55","新北市汐止區康寧街901號","121.651253333333","25.075095","6501100","汐止區"
"221021","299-VK","2018/03/24 17:49:43","新北市汐止區水源路一段56號","121.657381666667","25.0656633333333","6501100","汐止區"
"221031","353-TW","2018/03/24 17:49:38","新北市汐止區樟樹二路108號","121.639673333333","25.0645","6501100","汐止區"
"221008","129-UY","2018/03/24 17:49:39","新北市汐止區康寧街901號","121.651641666667","25.0748916666667","6501100","汐止區"
"221035","622-UM","2018/03/24 17:49:51","新北市汐止區汐萬路一段126號","121.653615","25.07124","6501100","汐止區"
"221025","623-UM","2018/03/24 17:49:50","新北市汐止區大同路二段169巷22弄32號","121.651693333333","25.0651483333333","6501100","汐止區"
"221038","646-BX","2018/03/24 17:49:42","新北市汐止區大同路二段187巷53號","121.652121666667","25.06618","6501100","汐止區"
"221033","647-BX","2018/03/24 17:39:03","新北市汐止區林森街124號","121.62455","25.0407616666667","6501100","汐止區"
"221018","753-BX","2018/03/24 17:49:39","新北市汐止區忠孝東路348號","121.665588333333","25.0697733333333","6501100","汐止區"
"242011","281-VK","2018/03/24 17:49:53","新北市新莊區中港路715號","121.450525","25.0575116666667","6500500","新莊區"
"242042","280-VK","2018/03/24 17:49:54","新北市新莊區中正路612-1號","121.42612","25.0302316666667","6500500","新莊區"
