"lineid","car","time","location","longitude","latitude","cityid","cityname"
"234046","148-BY","2018/03/24 18:29:42","新北市永和區福和路1號","121.52615","25.0097116666667","6500400","永和區"
"234007","207-UY","2018/03/24 18:29:40","新北市永和區環河西路二段215號","121.501311666667","25.0105616666667","6500400","永和區"
"234081","298-R6","2018/03/24 18:29:49","新北市永和區環河東路三段50號","121.526788333333","25.0063183333333","6500400","永和區"
"234086","338-UY","2018/03/24 18:29:54","新北市永和區環河東路二段92號","121.524363333333","25.0106383333333","6500400","永和區"
"234013","KEA-2591","2018/03/24 18:29:37","新北市永和區文化路165號","121.510208333333","25.0165516666667","6500400","永和區"
"234042","862-TW","2018/03/24 18:29:43","新北市永和區福和路8巷1號","121.525005","25.0090566666667","6500400","永和區"
"234026","9371-KE","2018/03/24 18:29:36","新北市永和區中山路一段84號","121.511946666667","25.01087","6500400","永和區"
"234011","9373-KE","2018/03/24 18:29:52","新北市永和區保福路二段158巷1號","121.509135","25.0150183333333","6500400","永和區"
"249005","172-UM","2018/03/24 18:29:51","新北市八里區中華路三段145巷5號","121.391705","25.1339683333333","6502300","八里區"
"249001","173-UM","2018/03/24 18:29:42","新北市八里區龍米路一段140號","121.45293","25.125605","6502300","八里區"
"249004","303-UY","2018/03/24 18:29:48","新北市八里區忠四街43號","121.425015","25.1611183333333","6502300","八里區"
"249002","305-UY","2018/03/24 18:29:35","新北市八里區龍形三街21號","121.449273333333","25.13155","6502300","八里區"
"248016","026-BX","2018/03/24 18:29:46","新北市五股區凌雲路一段83巷13弄2號","121.449241666667","25.1009983333333","6501500","五股區"
"248006","077-UY","2018/03/24 18:29:54","新北市五股區四維路25號","121.467128333333","25.07061","6501500","五股區"
"248008","095-VK","2018/03/24 18:29:48","新北市五股區四維路185巷42弄2號","121.463376666667","25.0771333333333","6501500","五股區"
"248020","225-UY","2018/03/24 18:29:43","新北市五股區孝義路55巷3-2號","121.45136","25.1119633333333","6501500","五股區"
"248012","247-BX","2018/03/24 18:29:46","新北市五股區御史路12號","121.442216666667","25.0904866666667","6501500","五股區"
"248014","261-SL","2018/03/24 18:29:53","新北市五股區自強路90巷88號","121.431526666667","25.0709766666667","6501500","五股區"
"248010","272-BY","2018/03/24 18:29:54","新北市五股區明德路12巷6號","121.433326666667","25.0718466666667","6501500","五股區"
"248002","655-BX","2018/03/24 18:29:44","新北市五股區西雲路167號","121.446743333333","25.09479","6501500","五股區"
"248004","682-TV","2018/03/24 18:29:50","新北市五股區民義路一段135號","121.433158333333","25.0872566666667","6501500","五股區"
"232011","375-UM","2018/03/24 18:22:01","新北市坪林區坪雙路一段43號","121.711688333333","24.9424516666667","6502000","坪林區"
"244013","069-UM","2018/03/24 18:29:45","新北市林口區佳林路101巷34號","121.386841666667","25.0799516666667","6501700","林口區"
"244007","080-UY","2018/03/24 18:29:55","新北市林口區後湖14鄰50號","121.385751666667","25.1001033333333","6501700","林口區"
"244025","742-UY","2018/03/24 18:29:52","新北市林口區南勢里53-7號","121.35505","25.0748116666667","6501700","林口區"
"244023","483-VK","2018/03/24 18:29:49","新北市林口區仁愛路二段50號","121.384793333333","25.0757833333333","6501700","林口區"
"244017","485-VK","2018/03/24 18:29:54","新北市林口區文化二路一段6號","121.364478333333","25.066625","6501700","林口區"
"244009","656-BX","2018/03/24 18:29:56","新北市林口區文林一街35號","121.377371666667","25.0866883333333","6501700","林口區"
"244019","657-BX","2018/03/24 18:29:52","新北市林口區忠孝路616巷25號","121.377356666667","25.0672983333333","6501700","林口區"
"244011","701-TV","2018/03/24 18:29:54","新北市林口區林口路27號","121.391161666667","25.07828","6501700","林口區"
"244021","838-TS","2018/03/24 18:29:46","新北市林口區自強二街48號","121.399178333333","25.0771183333333","6501700","林口區"
"243012","AAD-798","2018/03/24 18:29:38","新北市泰山區忠孝街17巷2號","121.42754","25.0653866666667","6501600","泰山區"
"243010","KEA-2215","2018/03/24 18:29:40","新北市泰山區黎明路25號","121.422048333333","25.0606866666667","6501600","泰山區"
"243013","646-TV","2018/03/24 18:29:46","新北市泰山區明志路三段206巷5號","121.423221666667","25.0379983333333","6501600","泰山區"
"222003","436-BY","2018/03/24 18:29:54","新北市深坑區翠谷街3號","121.627116666667","25.0075266666667","6501800","深坑區"
"222002","659-BX","2018/03/24 18:29:43","新北市深坑區雲鄉路143號","121.622181666667","24.9981966666667","6501800","深坑區"
"231041","002-UM","2018/03/24 18:29:53","新北市新店區安華路28-1號","121.519806666667","24.96088","6500600","新店區"
"231059","046-UY","2018/03/24 18:29:45","新北市新店區安華路28-1號","121.519695","24.96078","6500600","新店區"
"231061","047-UY","2018/03/24 18:29:41","新北市新店區安華路28-1號","121.519316666667","24.96101","6500600","新店區"
"231060","106-UY","2018/03/24 18:29:44","新北市新店區安華路28-1號","121.51972","24.9608","6500600","新店區"
"231051","107-UY","2018/03/24 18:29:40","新北市新店區安華路28-1號","121.519506666667","24.9613466666667","6500600","新店區"
"231048","108-UY","2018/03/24 18:29:49","新北市新店區安華路28-1號","121.519451666667","24.96113","6500600","新店區"
"231052","187-VK","2018/03/24 18:29:43","新北市新店區新烏路一段21號","121.54608","24.9503983333333","6500600","新店區"
"231050","KEA-2219","2018/03/24 18:29:43","新北市新店區安華路28-1號","121.519673333333","24.9613233333333","6500600","新店區"
"231057","256-BX","2018/03/24 18:29:53","新北市新店區光明街1-1號","121.537995","24.9591033333333","6500600","新店區"
"231046","278-BY","2018/03/24 18:29:45","新北市新店區直潭十街20號","121.533431666667","24.9387216666667","6500600","新店區"
"231054","AAD-862","2018/03/24 18:29:37","新北市新店區安華路28-1號","121.519841666667","24.9614216666667","6500600","新店區"
"231058","3712-VJ","2018/03/24 18:29:56","新北市新店區國校路10號","121.537833333333","24.9558833333333","6500600","新店區"
"231056","3713-VJ","2018/03/24 18:29:48","新北市新店區自立街45巷7號","121.5366","24.9795633333333","6500600","新店區"
"231055","4716-K9","2018/03/24 18:29:38","新北市新店區中正路128巷17號","121.54243","24.972405","6500600","新店區"
"231067","4772-VM","2018/03/24 18:29:37","新北市新店區安華路3號","121.518973333333","24.9605583333333","6500600","新店區"
"231065","512-UM","2018/03/24 18:29:50","新北市新店區安華路28-1號","121.51949","24.96116","6500600","新店區"
"231064","513-UM","2018/03/24 18:29:40","新北市新店區安華路28-1號","121.519653333333","24.9610933333333","6500600","新店區"
"231045","617-UM","2018/03/24 18:13:29","新北市新店區安華路28-1號","121.519416666667","24.9608333333333","6500600","新店區"
"231040","619-UM","2018/03/24 18:29:46","新北市新店區安華路28-1號","121.519703333333","24.9609116666667","6500600","新店區"
"231042","641-BX","2018/03/24 18:29:47","新北市新店區安華路1-1號","121.519568333333","24.9604983333333","6500600","新店區"
"231063","645-TV","2018/03/24 18:29:50","新北市新店區安華路28-1號","121.519313333333","24.9606716666667","6500600","新店區"
"231049","719-UM","2018/03/24 18:29:53","新北市新店區安華路28-1號","121.519576666667","24.9612783333333","6500600","新店區"
"231062","720-UM","2018/03/24 18:29:55","新北市新店區安華路28-1號","121.519505","24.9614733333333","6500600","新店區"
"231044","897-TW","2018/03/24 18:29:37","新北市新店區安華路28-1號","121.519796666667","24.9615133333333","6500600","新店區"
"231043","899-TW","2018/03/24 18:29:39","新北市新店區安華路28-1號","121.519308333333","24.96106","6500600","新店區"
"231066","AKT-0513","2018/03/24 18:29:38","新北市新店區安華路1-1號","121.519625","24.9604716666667","6500600","新店區"
"235066","003-UY","2018/03/24 18:29:38","新北市中和區中山路二段122號","121.502498333333","25.0037333333333","6500300","中和區"
"235064","005-UY","2018/03/24 18:29:24","新北市中和區圓通路124號","121.498675","24.9959416666667","6500300","中和區"
"235063","006-UY","2018/03/24 18:29:53","新北市中和區連城路347巷4弄37號","121.486635","24.99548","6500300","中和區"
"235056","096-UM","2018/03/24 18:29:51","新北市中和區員山路611巷2弄2號","121.477665","25.011345","6500300","中和區"
"235039","097-UM","2018/03/24 18:29:41","新北市中和區安平路114號","121.511716666667","24.9975016666667","6500300","中和區"
"235065","098-UM","2018/03/24 18:29:53","新北市中和區莊敬路49巷20弄26號","121.503116666667","25.00545","6500300","中和區"
"235040","150-BY","2018/03/24 18:14:02","新北市中和區中正路305號","121.492226666667","24.9936233333333","6500300","中和區"
"235058","151-BY","2018/03/24 18:29:45","新北市中和區圓通路369巷30弄16號","121.489558333333","24.98518","6500300","中和區"
"235055","183-VK","2018/03/24 18:29:43","新北市中和區莒光路88號","121.472371666667","25.0025916666667","6500300","中和區"
"235038","185-VK","2018/03/24 18:29:47","新北市中和區立人街14巷49號","121.519016666667","24.99554","6500300","中和區"
"235049","186-VK","2018/03/24 18:29:47","新北市中和區景安路142號","121.505123333333","24.9941866666667","6500300","中和區"
"235067","255-BX","2018/03/24 18:29:41","新北市中和區新生街116巷2號","121.48349","25.0021083333333","6500300","中和區"
"235044","293-VK","2018/03/24 18:28:53","新北市中和區復興路303號","121.501498333333","24.9902766666667","6500300","中和區"
"235072","301-VK","2018/03/24 18:29:46","新北市中和區連城路133-1號","121.495975","24.9990433333333","6500300","中和區"
"235043","352-BY","2018/03/24 18:29:40","新北市中和區景平路293號","121.507153333333","24.993145","6500300","中和區"
"235068","377-QA","2018/03/24 18:29:50","新北市中和區圓通路222號","121.49544","24.9930383333333","6500300","中和區"
"235061","378-QA","2018/03/24 18:29:47","新北市中和區民享街97巷18號","121.475233333333","24.999875","6500300","中和區"
"235069","4980-A6","2018/03/24 18:29:42","新北市中和區連城路103號","121.496456666667","24.9997133333333","6500300","中和區"
"235042","551-UM","2018/03/24 18:29:46","新北市中和區自立路56巷8號","121.52301","24.99177","6500300","中和區"
"235070","558-UM","2018/03/24 18:29:37","新北市中和區景平路429-2號","121.501385","24.9955133333333","6500300","中和區"
"235045","565-BX","2018/03/24 18:29:43","新北市中和區南山路236巷24弄20號","121.504926666667","24.9890266666667","6500300","中和區"
"235054","640-BX","2018/03/24 18:29:47","新北市中和區民享街86巷2號","121.474396666667","25.0009783333333","6500300","中和區"
"235060","647-TV","2018/03/24 18:29:45","新北市中和區員山路383號","121.481238333333","25.0024983333333","6500300","中和區"
"235047","732-UM","2018/03/24 18:29:38","新北市中和區南山路320巷3號","121.507615","24.9865333333333","6500300","中和區"
"235046","733-UM","2018/03/24 18:29:50","新北市中和區中正路171號","121.497881666667","24.9936383333333","6500300","中和區"
"235062","800-TS","2018/03/24 18:29:50","新北市中和區景平路754號","121.496418333333","25.004555","6500300","中和區"
"235057","801-TS","2018/03/24 18:29:46","新北市中和區民安街127號","121.477021666667","25.0000433333333","6500300","中和區"
"235041","802-TS","2018/03/24 18:29:42","新北市中和區景安路66號","121.505881666667","24.99673","6500300","中和區"
"235052","805-TS","2018/03/24 18:29:36","新北市中和區興南路二段120號","121.504441666667","24.98381","6500300","中和區"
"235048","896-TW","2018/03/24 18:29:36","新北市中和區中正路83號","121.500618333333","24.99349","6500300","中和區"
"235053","900-TW","2018/03/24 18:29:38","新北市土城區金城路三段283號","121.473323333333","24.990735","6500300","中和區"
"235051","157-BY","2018/03/24 18:29:53","新北市中和區興南路二段142巷25弄34號","121.5025","24.9843833333333","6500300","中和區"
"235037","AAC-213","2018/03/24 18:29:40","新北市中和區景德街95號","121.51567","24.99135","6500300","中和區"
"220065","072-UY","2018/03/24 18:29:40","新北市板橋區南雅南路二段144巷87號","121.450078333333","24.9949866666667","6500100","板橋區"
"220086","073-UY","2018/03/24 18:29:56","新北市板橋區南雅南路二段144巷8號","121.451221666667","24.9959383333333","6500100","板橋區"
"220069","AAD-861","2018/03/24 18:29:46","新北市板橋區華東街1-10號","121.448296666667","24.9950816666667","6500100","板橋區"
"226004","312-R5","2018/03/24 18:29:40","新北市平溪區靜安路二段336號","121.737016666667","25.02429","6502400","平溪區"
"228003","097-TW","2018/03/24 18:29:52","新北市貢寮區和美里和美街40-1號","121.91263","25.0900133333333","6502600","貢寮區"
"228001","212-TW","2018/03/24 18:29:50","新北市貢寮區仁理村仁和路76號","121.922723333333","25.050125","6502600","貢寮區"
"228002","585-TW","2018/03/24 18:29:50","新北市貢寮區福連里香蘭街34號","121.988145","25.0184333333333","6502600","貢寮區"
"224010","AGQ-8101","2018/03/24 18:26:14","新北市瑞芳區街頂巷49號","121.844533333333","25.1075966666667","6501200","瑞芳區"
"224002","639-TC","2018/03/24 18:29:52","新北市瑞芳區三爪子坑路91巷35號","121.811938333333","25.106295","6501200","瑞芳區"
"224008","285-BY","2018/03/24 18:29:42","新北市瑞芳區逢甲路169-1號","121.805398333333","25.1104183333333","6501200","瑞芳區"
"224007","275-VK","2018/03/24 18:29:30","新北市瑞芳區大埔路有勝二村13號","121.763988333333","25.0999333333333","6501200","瑞芳區"
"224009","273-VK","2018/03/24 18:29:39","新北市瑞芳區五號路36號","121.855315","25.1098716666667","6501200","瑞芳區"
"224005","271-BY","2018/03/24 18:29:35","新北市瑞芳區建基路一段44-6號","121.819368333333","25.12324","6501200","瑞芳區"
"227010","642-TC","2018/03/24 18:29:44","新北市雙溪區牡丹里牡丹111號","121.851096666667","25.059925","6502500","雙溪區"
"227002","400-TW","2018/03/24 18:29:40","新北市雙溪區魚行里新店76號","121.871715","25.02672","6502500","雙溪區"
"253005","032-BX","2018/03/24 18:29:44","新北市石門區老崩山8號","121.553115","25.29124","6502200","石門區"
"253006","295-VK","2018/03/24 18:29:44","新北市石門區公地47-3號","121.5455","25.29012","6502200","石門區"
"222001","KEA-2212","2018/03/24 18:29:47","新北市深坑區北深路一段201巷1號","121.630423333333","25.0088933333333","6501800","深坑區"
"208002","KEA-2872","2018/03/24 18:29:51","新北市金山區民生路204號","121.641345","25.2207883333333","6502700","金山區"
"208003","665-BX","2018/03/24 18:29:56","新北市金山區中山路307號","121.635775","25.22361","6502700","金山區"
"208001","761-BX","2018/03/24 18:29:54","新北市金山區金包里街146號","121.637675","25.222665","6502700","金山區"
"251004","009-UM","2018/03/24 18:29:55","新北市淡水區民族路29巷2弄9號","121.462885","25.1369833333333","6501000","淡水區"
"251013","179-VK","2018/03/24 18:29:40","新北市淡水區椿子林19-5號","121.481091666667","25.202915","6501000","淡水區"
"251014","180-VK","2018/03/24 18:29:54","新北市淡水區南平26-2號","121.493488333333","25.214665","6501000","淡水區"
"251008","181-VK","2018/03/24 18:29:39","新北市淡水區北投子87-3號","121.469245","25.1791666666667","6501000","淡水區"
"251015","182-VK","2018/03/24 18:29:36","新北市淡水區興福寮88巷216號","121.485973333333","25.1665666666667","6501000","淡水區"
"251010","413-VK","2018/03/24 18:29:45","新北市淡水區沙崙路181巷1號","121.424153333333","25.184195","6501000","淡水區"
"251012","441-VK","2018/03/24 18:29:40","新北市淡水區北新路一段129-1號","121.457138333333","25.181995","6501000","淡水區"
"251016","442-VK","2018/03/24 18:29:47","新北市淡水區下圭柔山61-8號","121.447876666667","25.20474","6501000","淡水區"
"251005","443-VK","2018/03/24 18:29:42","新北市淡水區中正東路37號","121.446218333333","25.1684083333333","6501000","淡水區"
"251001","559-UM","2018/03/24 18:29:42","新北市淡水區自強路154號","121.465236666667","25.1338166666667","6501000","淡水區"
"251006","561-UM","2018/03/24 18:29:41","新北市淡水區新生街51巷16號","121.440633333333","25.1753383333333","6501000","淡水區"
"251011","650-BX","2018/03/24 18:29:38","新北市淡水區平遠街4號","121.448046666667","25.1677033333333","6501000","淡水區"
"251002","672-BX","2018/03/24 18:29:48","新北市淡水區中正東路一段3巷14弄1號","121.450951666667","25.1642666666667","6501000","淡水區"
"251003","673-BX","2018/03/24 18:29:50","新北市淡水區北新路169巷35-1號","121.44947","25.1802883333333","6501000","淡水區"
"207003","291-VK","2018/03/24 18:29:49","新北市萬里區野柳里港東路151-2號","121.688418333333","25.2051083333333","6502800","萬里區"
"207004","225-TW","2018/03/24 18:29:54","新北市萬里區萬里里瑪鋉路252號","121.688878333333","25.180795","6502800","萬里區"
"252002","178-VK","2018/03/24 18:29:40","新北市三芝區中山路二段35號","121.502885","25.2552233333333","6502100","三芝區"
"252003","249-BX","2018/03/24 18:29:40","新北市三芝區後厝里北勢子41-5號","121.472545","25.25314","6502100","三芝區"
"252001","292-VK","2018/03/24 18:29:39","新北市三芝區中興街二段2號","121.498378333333","25.2566633333333","6502100","三芝區"
"237004","KEA-2597","2018/03/24 18:29:52","新北市三峽區圳頭95號","121.380756666667","24.87644","6500900","三峽區"
"237007","153-BY","2018/03/24 18:29:43","新北市三峽區中正路三段168號","121.352558333333","24.9036","6500900","三峽區"
"237009","210-TH","2018/03/24 18:29:40","新北市三峽區大同路268號","121.365401666667","24.9255216666667","6500900","三峽區"
"237013","252-BX","2018/03/24 18:29:41","新北市三峽區永安街9巷40號","121.376485","24.9298166666667","6500900","三峽區"
"237012","275-BY","2018/03/24 18:29:46","新北市三峽區三樹路110號","121.378371666667","24.9391833333333","6500900","三峽區"
"237008","302-VK","2018/03/24 18:29:46","新北市三峽區白雞68-225號","121.39076","24.90891","6500900","三峽區"
"237014","433-BY","2018/03/24 18:29:43","新北市三峽區和平街69號","121.370113333333","24.9370133333333","6500900","三峽區"
"237006","5529-G3","2018/03/24 18:29:37","新北市三峽區溪東路371巷4弄10號","121.412465","24.9297516666667","6500900","三峽區"
"237010","706-TV","2018/03/24 18:29:39","新北市三峽區復興路311號","121.36529","24.9388933333333","6500900","三峽區"
"237005","AKY-6261","2018/03/24 18:29:54","新北市三峽區民族街5巷31號","121.3698","24.932295","6500900","三峽區"
"236073","105-UM","2018/03/24 18:29:40","新北市土城區永豐路360-2號","121.474743333333","24.97458","6501300","土城區"
"236043","107-UM","2018/03/24 18:29:53","新北市土城區裕民路67巷13號","121.449903333333","24.988375","6501300","土城區"
"236079","166-UM","2018/03/24 18:29:43","新北市土城區大暖路38號","121.423303333333","24.9595266666667","6501300","土城區"
"236031","253-BX","2018/03/24 18:29:48","新北市土城區順風路7號","121.44007","24.9763","6501300","土城區"
"236026","269-VK","2018/03/24 18:29:47","新北市土城區南天母路135巷34號","121.448721666667","24.9543833333333","6501300","土城區"
"236015","270-VK","2018/03/24 18:29:44","新北市土城區立清街69號","121.460293333333","24.9873116666667","6501300","土城區"
"236038","271-VK","2018/03/24 18:29:51","新北市土城區青雲路449號","121.458821666667","24.9751266666667","6501300","土城區"
"236023","401-BY","2018/03/24 18:29:40","新北市土城區永豐路202巷1號","121.466611666667","24.983355","6501300","土城區"
"236059","912-UM","2018/03/24 18:29:43","新北市土城區信義路2號","121.412808333333","24.9543966666667","6501300","土城區"
"236049","913-UM","2018/03/24 18:29:52","新北市土城區明德路一段319號","121.459236666667","24.9771716666667","6501300","土城區"
"236063","915-UM","2018/03/24 18:29:50","新北市中和區民享街462號","121.469638333333","24.9922983333333","6501300","土城區"
"236055","AAC-216","2018/03/24 18:29:40","新北市土城區中華路一段243號","121.441183333333","24.982215","6501300","土城區"
"242058","986-R7","2018/03/24 18:29:51","新北市新莊區中正路887號","121.416911666667","25.0247583333333","6500500","新莊區"
"242053","751-BX","2018/03/24 18:29:50","新北市新莊區保安街一段14巷61弄7號","121.430515","24.996565","6500500","新莊區"
"242025","613-BX","2018/03/24 18:29:53","新北市新莊區中原路660號","121.442906666667","25.0543533333333","6500500","新莊區"
"242046","497-BY","2018/03/24 18:29:36","新北市新莊區富國路77巷23號","121.42037","25.026495","6500500","新莊區"
"242051","441-UM","2018/03/24 18:29:42","新北市新莊區新樹路210號","121.433706666667","25.020435","6500500","新莊區"
"242056","440-UM","2018/03/24 18:29:52","新北市新莊區瓊泰路63巷21弄9號","121.442663333333","25.0284516666667","6500500","新莊區"
"242044","400-BY","2018/03/24 18:28:26","新北市新莊區中正路新旺巷28號","121.416091666667","25.0229933333333","6500500","新莊區"
"238015","755-BX","2018/03/24 18:29:49","新北市樹林區備前街63號","121.415426666667","24.986325","6500700","樹林區"
"238023","601-UM","2018/03/24 18:29:44","新北市樹林區忠義街19號","121.40965","25.015125","6500700","樹林區"
"238018","571-TV","2018/03/24 18:29:38","新北市樹林區樹新路50巷28號","121.429636666667","24.99696","6500700","樹林區"
"238024","5061-A6","2018/03/24 18:29:51","新北市樹林區中山路二段78號","121.41529","24.9839833333333","6500700","樹林區"
"238025","303-VK","2018/03/24 18:29:48","新北市樹林區中山路二段145號","121.406366666667","24.97904","6500700","樹林區"
"238017","283-BY","2018/03/24 18:29:42","新北市樹林區光榮街79號","121.412036666667","25.003","6500700","樹林區"
"238014","282-BY","2018/03/24 18:29:40","新北市樹林區大安路111巷25號","121.423203333333","24.9975816666667","6500700","樹林區"
"238020","268-VK","2018/03/24 18:29:43","新北市樹林區三俊街157號","121.419101666667","25.0155966666667","6500700","樹林區"
"238026","172-UY","2018/03/24 18:29:56","新北市樹林區育德街78-1號","121.387595","24.9682466666667","6500700","樹林區"
"238016","169-UY","2018/03/24 18:29:56","新北市樹林區文化街30-2號","121.41909","24.9880116666667","6500700","樹林區"
"239007","AAC-297","2018/03/24 18:29:42","新北市鶯歌區重慶街126號","121.347828333333","24.9523433333333","6500800","鶯歌區"
"239006","891-R6","2018/03/24 18:29:46","新北市鶯歌區鶯桃路296巷72弄31號","121.337638333333","24.96099","6500800","鶯歌區"
"239008","527-UM","2018/03/24 18:29:34","新北市鶯歌區國際一路179號","121.336208333333","24.9765","6500800","鶯歌區"
"239005","526-UM","2018/03/24 18:29:45","新北市鶯歌區鳳吉二街31號","121.326108333333","24.9731033333333","6500800","鶯歌區"
"239001","417-VK","2018/03/24 18:29:41","新北市鶯歌區國中街171-9號","121.337388333333","24.9384666666667","6500800","鶯歌區"
"239003","360-BY","2018/03/24 18:29:35","新北市鶯歌區鶯桃路510號","121.3318","24.966365","6500800","鶯歌區"
"239002","359-BY","2018/03/24 18:29:42","新北市鶯歌區中正一路470號","121.364923333333","24.9564983333333","6500800","鶯歌區"
"239004","193-VK","2018/03/24 18:29:44","新北市鶯歌區尖山路302巷22號","121.342036666667","24.943295","6500800","鶯歌區"
"221036","130-UY","2018/03/24 18:29:46","新北市汐止區大同路二段553號","121.662443333333","25.0696083333333","6501100","汐止區"
"221015","131-UY","2018/03/24 18:29:37","新北市汐止區鄉長路二段23巷2號","121.66705","25.082985","6501100","汐止區"
"221010","269-BY","2018/03/24 18:29:50","新北市汐止區汐萬路三段252-1號","121.643486666667","25.102075","6501100","汐止區"
"221012","278-VK","2018/03/24 18:29:45","新北市汐止區保長路35巷11號","121.673086666667","25.079865","6501100","汐止區"
"221023","279-VK","2018/03/24 18:29:50","新北市汐止區康寧街534巷18-1號","121.634265","25.0688466666667","6501100","汐止區"
"221032","280-BY","2018/03/24 18:29:49","新北市汐止區福山街62巷1號","121.61796","25.0467766666667","6501100","汐止區"
"221027","281-BY","2018/03/24 18:29:55","新北市汐止區和平街40-1號","121.662581666667","25.0710066666667","6501100","汐止區"
"221029","298-VK","2018/03/24 18:29:55","新北市汐止區樟樹一路272-7號","121.642701666667","25.068885","6501100","汐止區"
"221021","299-VK","2018/03/24 18:29:42","新北市汐止區復興路65號","121.657206666667","25.0621716666667","6501100","汐止區"
"221031","353-TW","2018/03/24 18:29:38","新北市汐止區新台五路一段21-1號","121.6357","25.0563666666667","6501100","汐止區"
"221008","129-UY","2018/03/24 18:29:54","新北市汐止區康寧街901號","121.651498333333","25.07498","6501100","汐止區"
"221035","622-UM","2018/03/24 18:29:51","新北市汐止區大同路二段11號","121.647145","25.06303","6501100","汐止區"
"221025","623-UM","2018/03/24 18:29:50","新北市汐止區仁愛路122巷6號","121.663136666667","25.0635566666667","6501100","汐止區"
"221038","646-BX","2018/03/24 18:29:41","新北市汐止區汐萬路一段142號","121.653223333333","25.07112","6501100","汐止區"
"221033","647-BX","2018/03/24 18:29:43","新北市汐止區宜興街5號","121.62107","25.0414383333333","6501100","汐止區"
"221002","707-TV","2018/03/24 18:29:49","新北市汐止區福德一路130-1號","121.636823333333","25.067175","6501100","汐止區"
"221018","753-BX","2018/03/24 18:29:39","新北市汐止區茄苳路223號","121.670946666667","25.068715","6501100","汐止區"
"220079","145-BY","2018/03/24 18:29:46","新北市板橋區華東街1-10號","121.448306666667","24.99509","6500100","板橋區"
"220082","610-BX","2018/03/24 18:29:52","新北市板橋區華東街1-9號","121.448236666667","24.99491","6500100","板橋區"
"220083","286-VK","2018/03/24 18:29:41","新北市板橋區華東街1-10號","121.448323333333","24.9950166666667","6500100","板橋區"
"220064","486-VK","2018/03/24 18:29:42","新北市板橋區華東街1-10號","121.448268333333","24.9950016666667","6500100","板橋區"
"242042","280-VK","2018/03/24 18:29:45","新北市新莊區天祥街77號","121.415771666667","25.0292716666667","6500500","新莊區"
"220035","560-BX","2018/03/24 18:29:49","新北市板橋區南雅南路二段144巷87號","121.450021666667","24.9949866666667","6500100","板橋區"
"220057","686-BX","2018/03/24 18:29:35","新北市板橋區華東街1-9號","121.44822","24.994855","6500100","板橋區"
"220077","687-BX","2018/03/24 18:29:40","新北市板橋區華東街1-10號","121.44841","24.9949533333333","6500100","板橋區"
"220074","895-R6","2018/03/24 18:29:55","新北市板橋區華東街1-10號","121.448293333333","24.99497","6500100","板橋區"
"220018","AAC-253","2018/03/24 18:29:50","新北市板橋區華東街1-9號","121.448258333333","24.9948833333333","6500100","板橋區"
