"lineid","car","time","location","longitude","latitude","cityid","cityname"
"234046","148-BY","2018/03/24 18:49:54","新北市永和區秀朗路二段155號","121.5251","25.00159","6500400","永和區"
"234070","149-BY","2018/03/24 18:47:48","新北市永和區福和路1號","121.525573333333","25.0094483333333","6500400","永和區"
"234007","207-UY","2018/03/24 18:49:40","新北市永和區文化路128號","121.513015","25.0152666666667","6500400","永和區"
"234081","298-R6","2018/03/24 18:49:49","新北市永和區永利路108號","121.521208333333","25.003455","6500400","永和區"
"234038","336-UY","2018/03/24 18:49:45","新北市永和區成功路二段71號","121.526758333333","24.9998766666667","6500400","永和區"
"234064","337-UY","2018/03/24 18:49:45","新北市永和區福和路8巷1號","121.525025","25.0090366666667","6500400","永和區"
"234086","338-UY","2018/03/24 18:49:54","新北市永和區中正路77號","121.515111666667","24.9968433333333","6500400","永和區"
"234017","745-BX","2018/03/24 18:49:38","新北市永和區永和路二段303號","121.515681666667","25.0163966666667","6500400","永和區"
"234030","746-BX","2018/03/24 18:49:40","新北市永和區得和路321號","121.52341","24.9995883333333","6500400","永和區"
"234054","KEA-2590","2018/03/24 18:49:39","新北市永和區豫溪街189巷2號","121.522976666667","25.0103683333333","6500400","永和區"
"234013","KEA-2591","2018/03/24 18:49:37","新北市永和區保福路二段133巷24弄2號","121.509186666667","25.0137283333333","6500400","永和區"
"234061","AAD-866","2018/03/24 18:49:49","新北市永和區福和路309巷1號","121.5164","25.00705","6500400","永和區"
"234042","862-TW","2018/03/24 18:49:43","新北市永和區永貞路267號","121.51188","25.00479","6500400","永和區"
"234050","863-TW","2018/03/24 18:49:55","新北市永和區保安路2號","121.510756666667","25.0174516666667","6500400","永和區"
"234011","9373-KE","2018/03/24 18:49:52","新北市永和區文化路126巷8號","121.513091666667","25.0158066666667","6500400","永和區"
"249005","172-UM","2018/03/24 18:49:51","新北市八里區長道坑15號","121.394695","25.1184216666667","6502300","八里區"
"249001","173-UM","2018/03/24 18:49:42","新北市八里區龍米路二段56號","121.448201666667","25.1408233333333","6502300","八里區"
"248016","026-BX","2018/03/24 18:49:46","新北市五股區凌雲路一段149巷42號","121.448585","25.1008933333333","6501500","五股區"
"248006","077-UY","2018/03/24 18:49:54","新北市五股區四維路1巷2弄2號","121.466465","25.07017","6501500","五股區"
"248008","095-VK","2018/03/24 18:49:48","新北市五股區中興路一段147號","121.46519","25.0735866666667","6501500","五股區"
"248020","225-UY","2018/03/24 18:40:23","新北市五股區孝義路73-1號","121.445535","25.1195066666667","6501500","五股區"
"248012","247-BX","2018/03/24 18:49:46","新北市五股區成泰路二段147巷23-9號","121.437508333333","25.0873633333333","6501500","五股區"
"248014","261-SL","2018/03/24 18:49:52","新北市五股區民義路一段107巷23號","121.431918333333","25.0848983333333","6501500","五股區"
"248010","272-BY","2018/03/24 18:49:54","新北市五股區水碓七路81號","121.429646666667","25.07221","6501500","五股區"
"248002","655-BX","2018/03/24 18:49:44","新北市五股區成泰路三段527號","121.451561666667","25.1009766666667","6501500","五股區"
"248004","682-TV","2018/03/24 18:49:49","新北市五股區民義路二段50-5號","121.411028333333","25.1039033333333","6501500","五股區"
"234023","9380-KE","2018/03/24 18:49:53","新北市永和區竹林路119巷53弄13號","121.522296666667","25.0122516666667","6500400","永和區"
"234077","969-R7","2018/03/24 18:49:46","新北市永和區中正路2巷27號","121.513858333333","24.9935816666667","6500400","永和區"
"234074","AAC-211","2018/03/24 18:49:49","新北市永和區福和路1號","121.52652","25.0098616666667","6500400","永和區"
"234067","AAC-212","2018/03/24 18:49:38","新北市永和區永和路一段22號","121.513036666667","25.0048166666667","6500400","永和區"
"234003","AAC-295","2018/03/24 18:49:39","新北市永和區中正路637號","121.515428333333","25.0100883333333","6500400","永和區"
"232011","375-UM","2018/03/24 18:22:01","新北市坪林區坪雙路一段43號","121.711688333333","24.9424516666667","6502000","坪林區"
"244013","069-UM","2018/03/24 18:49:45","新北市林口區仁愛路二段201-1號","121.377948333333","25.0747483333333","6501700","林口區"
"244007","080-UY","2018/03/24 18:49:35","新北市林口區太平里25-3號","121.374891666667","25.1215933333333","6501700","林口區"
"244025","742-UY","2018/03/24 18:49:52","新北市林口區文化北路一段370號","121.362505","25.07445","6501700","林口區"
"244023","483-VK","2018/03/24 18:49:49","新北市林口區文化二路二段92號","121.378648333333","25.08144","6501700","林口區"
"244017","485-VK","2018/03/24 18:49:54","新北市林口區文化二路一段68巷18-2號","121.366221666667","25.067785","6501700","林口區"
"244009","656-BX","2018/03/24 18:49:36","新北市林口區竹林路358巷20號","121.393013333333","25.083955","6501700","林口區"
"244019","657-BX","2018/03/24 18:49:52","新北市林口區麗園二街60巷18號","121.380933333333","25.067845","6501700","林口區"
"244011","701-TV","2018/03/24 18:49:54","新北市林口區粉寮路一段46號","121.396488333333","25.0767866666667","6501700","林口區"
"243012","AAD-798","2018/03/24 18:49:38","新北市泰山區福興三街13號","121.434405","25.0578066666667","6501600","泰山區"
"243011","297-R6","2018/03/24 18:49:37","新北市泰山區公園路7號","121.429596666667","25.0540516666667","6501600","泰山區"
"243015","380-SR","2018/03/24 18:49:40","新北市泰山區美寧街58號","121.430625","25.06459","6501600","泰山區"
"243014","421-VK","2018/03/24 18:49:53","新北市泰山區黎明路25號","121.422076666667","25.0606166666667","6501600","泰山區"
"243010","KEA-2215","2018/03/24 18:49:40","新北市泰山區明志路一段380號","121.430716666667","25.0575633333333","6501600","泰山區"
"243013","646-TV","2018/03/24 18:47:54","新北市泰山區明志路三段206巷3號","121.423246666667","25.037885","6501600","泰山區"
"243016","680-BX","2018/03/24 18:49:47","新北市泰山區明志路二段137號","121.427648333333","25.0506883333333","6501600","泰山區"
"222003","436-BY","2018/03/24 18:49:54","新北市深坑區深南路37號","121.620338333333","25.0096","6501800","深坑區"
"222002","659-BX","2018/03/24 18:49:43","新北市深坑區文山路一段69號","121.627025","25.0018766666667","6501800","深坑區"
"231041","002-UM","2018/03/24 18:49:53","新北市新店區安華路28-1號","121.51955","24.9608683333333","6500600","新店區"
"231059","046-UY","2018/03/24 18:49:45","新北市新店區安華路28-1號","121.519585","24.960745","6500600","新店區"
"231061","047-UY","2018/03/24 18:49:41","新北市新店區安華路30巷12-1號","121.518621666667","24.9581416666667","6500600","新店區"
"231060","106-UY","2018/03/24 18:49:44","新北市新店區安華路28-1號","121.519605","24.9608266666667","6500600","新店區"
"231051","107-UY","2018/03/24 18:49:40","新北市新店區百忍街90號","121.532745","24.9772183333333","6500600","新店區"
"231048","108-UY","2018/03/24 18:49:49","新北市新店區寶橋路6巷4號","121.54336","24.9734533333333","6500600","新店區"
"231052","187-VK","2018/03/24 18:49:43","新北市新店區湖子內路1號","121.542645","24.9298116666667","6500600","新店區"
"231050","KEA-2219","2018/03/24 18:49:43","新北市新店區北宜路一段76號","121.538571666667","24.955875","6500600","新店區"
"231046","278-BY","2018/03/24 18:49:45","新北市新店區直潭七街60號","121.53227","24.93986","6500600","新店區"
"231054","AAD-862","2018/03/24 18:49:37","新北市新店區新店路13號","121.540266666667","24.9528533333333","6500600","新店區"
"231058","3712-VJ","2018/03/24 18:49:36","新北市新店區北宜路一段105巷4弄3號","121.53995","24.9556483333333","6500600","新店區"
"231056","3713-VJ","2018/03/24 18:49:48","新北市新店區大豐路68巷6號","121.539156666667","24.97976","6500600","新店區"
"231055","4716-K9","2018/03/24 18:49:38","新北市新店區新生街55號","121.53883","24.96693","6500600","新店區"
"231067","4772-VM","2018/03/24 18:49:54","新北市新店區安康路一段263巷36弄1號","121.523655","24.9618466666667","6500600","新店區"
"231065","512-UM","2018/03/24 18:49:50","新北市新店區安豐路74號","121.49615","24.952665","6500600","新店區"
"231064","513-UM","2018/03/24 18:49:40","新北市新店區安華路28-1號","121.519628333333","24.9611066666667","6500600","新店區"
"231045","617-UM","2018/03/24 18:49:53","新北市新店區安康路一段11號","121.533376666667","24.9604016666667","6500600","新店區"
"231040","619-UM","2018/03/24 18:49:26","新北市新店區環河路116號","121.536928333333","24.9673583333333","6500600","新店區"
"231042","641-BX","2018/03/24 18:49:47","新北市新店區北新路一段90號","121.541801666667","24.968435","6500600","新店區"
"231063","645-TV","2018/03/24 18:49:50","新北市新店區安華路28-1號","121.519238333333","24.960715","6500600","新店區"
"231049","719-UM","2018/03/24 18:49:53","新北市新店區中正路454-5號","121.534436666667","24.9790533333333","6500600","新店區"
"231062","720-UM","2018/03/24 18:49:55","新北市新店區安豐路54-1號","121.49975","24.9541216666667","6500600","新店區"
"231044","897-TW","2018/03/24 18:49:37","新北市新店區中興路一段294號","121.546083333333","24.9692483333333","6500600","新店區"
"231043","899-TW","2018/03/24 18:49:39","新北市新店區秀山路66號","121.530738333333","24.9609766666667","6500600","新店區"
"231066","AKT-0513","2018/03/24 18:49:38","新北市新店區安豐路22巷5-5號","121.501616666667","24.9561166666667","6500600","新店區"
"241035","462-BY","2018/03/24 18:49:51","新北市三重區重新路四段121號","121.484876666667","25.0519566666667","6500200","三重區"
"235066","003-UY","2018/03/24 18:49:38","新北市中和區水源路16號","121.504061666667","25.0035283333333","6500300","中和區"
"235064","005-UY","2018/03/24 18:49:44","新北市中和區景平路597號","121.49709","25.0006133333333","6500300","中和區"
"235063","006-UY","2018/03/24 18:49:53","新北市中和區連城路319巷3弄1號","121.4892","24.995685","6500300","中和區"
"235056","096-UM","2018/03/24 18:49:51","新北市中和區員山路611巷1號","121.477811666667","25.0112783333333","6500300","中和區"
"235039","097-UM","2018/03/24 18:49:41","新北市中和區安樂路143巷19號","121.513783333333","24.9969366666667","6500300","中和區"
"235065","098-UM","2018/03/24 18:49:53","新北市中和區中山路二段2巷31號","121.50297","25.006855","6500300","中和區"
"235040","150-BY","2018/03/24 18:49:48","新北市中和區保健路106巷15號","121.512356666667","24.9956066666667","6500300","中和區"
"235058","151-BY","2018/03/24 18:49:45","新北市中和區連城路585號","121.478645","24.994145","6500300","中和區"
"235055","183-VK","2018/03/24 18:49:43","新北市中和區民生街55號","121.469543333333","25.0050933333333","6500300","中和區"
"235038","185-VK","2018/03/24 18:49:47","新北市中和區大勇街45巷3號","121.517931666667","24.9946783333333","6500300","中和區"
"235049","186-VK","2018/03/24 18:49:47","新北市中和區景安路175-2號","121.505408333333","24.9941883333333","6500300","中和區"
"235067","255-BX","2018/03/24 18:49:41","新北市中和區中正路839巷5號","121.48433","25.002335","6500300","中和區"
"235044","293-VK","2018/03/24 18:49:53","新北市中和區中興街145號","121.499941666667","24.991185","6500300","中和區"
"235072","301-VK","2018/03/24 18:49:46","新北市中和區中山路二段120號","121.502753333333","25.003655","6500300","中和區"
"235043","352-BY","2018/03/24 18:49:40","新北市中和區成功路129號","121.525913333333","24.990735","6500300","中和區"
"235068","377-QA","2018/03/24 18:49:50","新北市中和區中正路211巷13弄1號","121.497041666667","24.9928483333333","6500300","中和區"
"235061","378-QA","2018/03/24 18:49:47","新北市中和區民享街30巷3號","121.473771666667","25.0033983333333","6500300","中和區"
"235069","4980-A6","2018/03/24 18:49:42","新北市中和區南山路111巷4號","121.502406666667","24.9975016666667","6500300","中和區"
"235042","551-UM","2018/03/24 18:49:46","新北市中和區秀朗路三段70巷40號","121.525368333333","24.99443","6500300","中和區"
"235070","558-UM","2018/03/24 18:49:37","新北市中和區圓通路6號","121.501793333333","24.9980866666667","6500300","中和區"
"235045","565-BX","2018/03/24 18:49:43","新北市中和區南山路160號","121.504493333333","24.9917816666667","6500300","中和區"
"235054","640-BX","2018/03/24 18:49:47","新北市中和區民享街68巷2號","121.473958333333","25.00187","6500300","中和區"
"235060","647-TV","2018/03/24 18:49:45","新北市中和區中山路三段178號","121.472576666667","25.0064","6500300","中和區"
"235047","732-UM","2018/03/24 18:49:38","新北市中和區興南路二段34巷55號","121.505005","24.9864383333333","6500300","中和區"
"235046","733-UM","2018/03/24 18:49:50","新北市中和區仁愛街36巷30號","121.511055","24.986945","6500300","中和區"
"235062","800-TS","2018/03/24 18:49:50","新北市中和區景平路722-2號","121.496756666667","25.003155","6500300","中和區"
"235057","801-TS","2018/03/24 18:49:46","新北市中和區民安街38號","121.480046666667","25.000435","6500300","中和區"
"235041","802-TS","2018/03/24 18:49:42","新北市中和區宜安路118巷14號","121.51075","24.9985","6500300","中和區"
"235052","805-TS","2018/03/24 18:49:36","新北市中和區興南路二段399巷98-2號","121.500163333333","24.9777083333333","6500300","中和區"
"235048","896-TW","2018/03/24 18:49:36","新北市中和區華新街45號","121.507763333333","24.9846216666667","6500300","中和區"
"235053","900-TW","2018/03/24 18:49:38","新北市中和區華福街42巷5號","121.466361666667","24.9961633333333","6500300","中和區"
"235051","157-BY","2018/03/24 18:49:44","新北市中和區忠孝街28號","121.510626666667","24.9832116666667","6500300","中和區"
"235037","AAC-213","2018/03/24 18:49:40","新北市中和區秀朗路三段128巷13號","121.52449","24.9933133333333","6500300","中和區"
"235059","AAC-215","2018/03/24 18:49:55","新北市中和區圓通路391-2號","121.489986666667","24.9891683333333","6500300","中和區"
"220065","072-UY","2018/03/24 18:49:40","新北市板橋區民族路247巷5弄42號","121.47016","25.00851","6500100","板橋區"
"220086","073-UY","2018/03/24 18:49:35","新北市板橋區大智街53號","121.4541","25.0154083333333","6500100","板橋區"
"220069","AAD-861","2018/03/24 18:49:46","新北市板橋區大華街5號","121.458916666667","25.006235","6500100","板橋區"
"226004","312-R5","2018/03/24 18:49:40","新北市平溪區靜安路二段482號","121.743315","25.0262883333333","6502400","平溪區"
"228003","097-TW","2018/03/24 18:49:52","新北市瑞芳區鼻頭路127號","121.917101666667","25.12123","6502600","貢寮區"
"228001","212-TW","2018/03/24 18:49:50","新北市貢寮區仁理村保健街73號","121.923735","25.0516583333333","6502600","貢寮區"
"228002","585-TW","2018/03/24 18:49:50","新北市貢寮區福隆里東興街6-11號","121.950735","25.02108","6502600","貢寮區"
"224010","AGQ-8101","2018/03/24 18:41:14","新北市瑞芳區烏勢巷145號","121.847846666667","25.1091366666667","6501200","瑞芳區"
"224002","639-TC","2018/03/24 18:49:52","新北市瑞芳區傑魚坑路311-1號","121.79387","25.107455","6501200","瑞芳區"
"224008","285-BY","2018/03/24 18:49:42","新北市瑞芳區逢甲路325號","121.801","25.1118433333333","6501200","瑞芳區"
"224007","275-VK","2018/03/24 18:49:50","新北市瑞芳區大埔路128號","121.761925","25.1009533333333","6501200","瑞芳區"
"224009","273-VK","2018/03/24 18:49:39","新北市瑞芳區祈堂路2號","121.859803333333","25.1116716666667","6501200","瑞芳區"
"224005","271-BY","2018/03/24 18:49:35","新北市瑞芳區濱二路40-1號","121.832578333333","25.1170583333333","6501200","瑞芳區"
"227010","642-TC","2018/03/24 18:49:49","新北市雙溪區牡丹里聖南14號","121.858245","25.0527333333333","6502500","雙溪區"
"227002","400-TW","2018/03/24 18:49:40","新北市雙溪區平林里梅竹蹊28號","121.861646666667","25.0360133333333","6502500","雙溪區"
"253005","032-BX","2018/03/24 18:49:44","新北市石門區中山路11-1號","121.565796666667","25.2904183333333","6502200","石門區"
"253006","295-VK","2018/03/24 18:49:44","新北市石門區下員坑16號","121.511065","25.2835866666667","6502200","石門區"
"222001","KEA-2212","2018/03/24 18:49:47","新北市深坑區松柏街34號","121.638655","25.0113483333333","6501800","深坑區"
"208002","KEA-2872","2018/03/24 18:49:51","新北市金山區信義路62號","121.635718333333","25.218945","6502700","金山區"
"208003","665-BX","2018/03/24 18:49:51","新北市金山區中山路339號","121.635053333333","25.224195","6502700","金山區"
"208001","761-BX","2018/03/24 18:49:54","新北市金山區文化三路66巷1號","121.634228333333","25.2256283333333","6502700","金山區"
"251009","008-UM","2018/03/24 18:49:38","新北市淡水區重建街187號","121.440925","25.17438","6501000","淡水區"
"251013","179-VK","2018/03/24 18:49:39","新北市淡水區安子內5號","121.484293333333","25.2148733333333","6501000","淡水區"
"251014","180-VK","2018/03/24 18:49:43","新北市淡水區崙頂3號","121.491","25.223895","6501000","淡水區"
"251015","182-VK","2018/03/24 18:49:36","新北市淡水區興福寮1-7號","121.487405","25.16483","6501000","淡水區"
"251010","413-VK","2018/03/24 18:49:45","新北市淡水區沙崙路13號","121.421195","25.181245","6501000","淡水區"
"251012","441-VK","2018/03/24 18:49:40","新北市淡水區新興街3號","121.44378","25.180335","6501000","淡水區"
"251016","442-VK","2018/03/24 18:49:47","新北市淡水區下圭柔山76號","121.442751666667","25.2053","6501000","淡水區"
"251001","559-UM","2018/03/24 18:49:42","新北市淡水區自強路86號","121.462733333333","25.128205","6501000","淡水區"
"251006","561-UM","2018/03/24 18:49:41","新北市淡水區下圭柔山91-2號","121.430645","25.2094066666667","6501000","淡水區"
"251011","650-BX","2018/03/24 18:49:38","新北市淡水區學府路1號","121.447401666667","25.1679033333333","6501000","淡水區"
"251002","672-BX","2018/03/24 18:49:47","新北市淡水區學府路79號","121.448541666667","25.1700266666667","6501000","淡水區"
"251003","673-BX","2018/03/24 18:49:50","新北市淡水區北新路65號","121.446185","25.178475","6501000","淡水區"
"207003","291-VK","2018/03/24 18:49:47","新北市萬里區大鵬里頂社1號","121.656996666667","25.2096983333333","6502800","萬里區"
"207004","225-TW","2018/03/24 18:49:54","新北市萬里區萬里里獅頭路23號","121.69321","25.1782916666667","6502800","萬里區"
"252002","178-VK","2018/03/24 18:49:40","新北市三芝區中正路一段112號","121.504808333333","25.2564033333333","6502100","三芝區"
"252003","249-BX","2018/03/24 18:49:40","新北市三芝區後厝里土地公坑73-16號","121.459975","25.24702","6502100","三芝區"
"252001","292-VK","2018/03/24 18:49:39","新北市三芝區中正路三段9號","121.502988333333","25.2539816666667","6502100","三芝區"
"237004","KEA-2597","2018/03/24 18:49:52","新北市三峽區有木212號","121.440158333333","24.8519866666667","6500900","三峽區"
"237007","153-BY","2018/03/24 18:49:43","新北市三峽區中正路二段399號","121.365011666667","24.9075516666667","6500900","三峽區"
"237013","252-BX","2018/03/24 18:49:41","新北市三峽區光明路69巷25號","121.376768333333","24.9292383333333","6500900","三峽區"
"237012","275-BY","2018/03/24 18:49:46","新北市三峽區三樹路340號","121.38397","24.94335","6500900","三峽區"
"237008","302-VK","2018/03/24 18:49:46","新北市三峽區白雞33-18號","121.370801666667","24.91208","6500900","三峽區"
"237014","433-BY","2018/03/24 18:49:43","新北市三峽區隆恩街202-1號","121.359753333333","24.9419333333333","6500900","三峽區"
"237006","5529-G3","2018/03/24 18:49:37","新北市三峽區溪東路233巷4弄19號","121.407256666667","24.9337733333333","6500900","三峽區"
"237010","706-TV","2018/03/24 18:49:49","新北市三峽區國光街340號","121.371758333333","24.9394866666667","6500900","三峽區"
"237005","AKY-6261","2018/03/24 18:49:34","新北市三峽區中山路219巷19弄4號","121.362875","24.9358283333333","6500900","三峽區"
"236073","105-UM","2018/03/24 18:49:45","新北市土城區青雲路72號","121.459513333333","24.9870783333333","6501300","土城區"
"236043","107-UM","2018/03/24 18:49:53","新北市土城區裕民路92巷25弄3號","121.4497","24.98586","6501300","土城區"
"236079","166-UM","2018/03/24 18:49:44","新北市土城區中央路四段125巷2弄1號","121.416673333333","24.9572183333333","6501300","土城區"
"236031","253-BX","2018/03/24 18:49:53","新北市土城區忠義路26巷19號","121.439798333333","24.9698766666667","6501300","土城區"
"236026","269-VK","2018/03/24 18:49:41","新北市土城區興城路72號","121.441081666667","24.9721216666667","6501300","土城區"
"236015","270-VK","2018/03/24 18:49:44","新北市土城區金城路二段354巷18號","121.460928333333","24.9841733333333","6501300","土城區"
"236038","271-VK","2018/03/24 18:49:56","新北市土城區明德路一段195巷2弄17號","121.463445","24.978215","6501300","土城區"
"236023","401-BY","2018/03/24 18:49:40","新北市土城區德峰街39號","121.467448333333","24.9856916666667","6501300","土城區"
"236059","912-UM","2018/03/24 18:49:43","新北市土城區中央路三段141-1號","121.433423333333","24.9654116666667","6501300","土城區"
"236049","913-UM","2018/03/24 18:49:50","新北市土城區青雲路113號","121.458931666667","24.9849233333333","6501300","土城區"
"236063","915-UM","2018/03/24 18:49:50","新北市土城區金城路三段153號","121.46865","24.9883783333333","6501300","土城區"
"236055","AAC-216","2018/03/24 18:49:41","新北市土城區裕民路113號","121.451111666667","24.9865783333333","6501300","土城區"
"238015","755-BX","2018/03/24 18:49:49","新北市樹林區中山路三段125號","121.39914","24.97431","6500700","樹林區"
"238023","601-UM","2018/03/24 18:49:44","新北市樹林區三福街114號","121.406471666667","25.0162916666667","6500700","樹林區"
"238019","599-UM","2018/03/24 18:49:46","新北市樹林區東榮街147巷27弄1號","121.414673333333","24.98073","6500700","樹林區"
"238024","5061-A6","2018/03/24 18:49:51","新北市樹林區育德街78-1號","121.38732","24.9681283333333","6500700","樹林區"
"238022","KEA-2213","2018/03/24 18:49:48","新北市樹林區東順街28號","121.411721666667","24.9784483333333","6500700","樹林區"
"238025","303-VK","2018/03/24 18:49:48","新北市樹林區中山路三段96號","121.392903333333","24.972225","6500700","樹林區"
"238017","283-BY","2018/03/24 18:49:42","新北市樹林區光興街50號","121.40983","25.0027666666667","6500700","樹林區"
"238014","282-BY","2018/03/24 18:49:40","新北市樹林區大安路111巷43號","121.423421666667","24.997605","6500700","樹林區"
"238020","268-VK","2018/03/24 18:49:43","新北市樹林區俊英街79號","121.426116666667","25.007555","6500700","樹林區"
"238026","172-UY","2018/03/24 18:49:56","新北市樹林區信和街5號","121.389543333333","24.9709983333333","6500700","樹林區"
"238016","169-UY","2018/03/24 18:49:16","新北市樹林區文化街28號","121.419308333333","24.9877183333333","6500700","樹林區"
"239007","AAC-297","2018/03/24 18:49:42","新北市鶯歌區中正一路461-2號","121.363658333333","24.9565516666667","6500800","鶯歌區"
"239006","891-R6","2018/03/24 18:49:46","新北市鶯歌區鶯桃路91巷8號","121.338945","24.9532983333333","6500800","鶯歌區"
"239008","527-UM","2018/03/24 18:49:54","新北市鶯歌區晨曦街2巷1號","121.336721666667","24.9763716666667","6500800","鶯歌區"
"239005","526-UM","2018/03/24 18:49:45","新北市鶯歌區鳳吉一街100號","121.327281666667","24.97456","6500800","鶯歌區"
"239001","417-VK","2018/03/24 18:49:41","新北市鶯歌區永安街6號","121.338076666667","24.9554666666667","6500800","鶯歌區"
"239003","360-BY","2018/03/24 18:49:55","新北市鶯歌區鶯桃路658巷87號","121.331503333333","24.970695","6500800","鶯歌區"
"239002","359-BY","2018/03/24 18:49:42","新北市鶯歌區中山路194號","121.348171666667","24.9571133333333","6500800","鶯歌區"
"239004","193-VK","2018/03/24 18:49:44","新北市鶯歌區中正三路230巷5-6號","121.330531666667","24.9386133333333","6500800","鶯歌區"
"221036","130-UY","2018/03/24 18:49:48","新北市汐止區南昌街2巷15號","121.662803333333","25.0688283333333","6501100","汐止區"
"221015","131-UY","2018/03/24 18:49:37","新北市汐止區鄉長路一段295號","121.669281666667","25.0794416666667","6501100","汐止區"
"221010","269-BY","2018/03/24 18:49:50","新北市汐止區汐萬路一段353號","121.650091666667","25.0773333333333","6501100","汐止區"
"221032","280-BY","2018/03/24 18:49:49","新北市汐止區橫科路40-2號","121.62134","25.0505533333333","6501100","汐止區"
"221027","281-BY","2018/03/24 18:49:47","新北市汐止區康寧街901號","121.651448333333","25.0749583333333","6501100","汐止區"
"221029","298-VK","2018/03/24 18:49:55","新北市汐止區工建路64號","121.640568333333","25.063085","6501100","汐止區"
"221021","299-VK","2018/03/24 18:49:42","新北市汐止區康寧街901號","121.65157","25.0749266666667","6501100","汐止區"
"221031","353-TW","2018/03/24 18:49:38","新北市汐止區福德二路156巷8號","121.630033333333","25.0654466666667","6501100","汐止區"
"221008","129-UY","2018/03/24 18:29:54","新北市汐止區康寧街901號","121.651498333333","25.07498","6501100","汐止區"
"221035","622-UM","2018/03/24 18:49:51","新北市汐止區汐萬路一段256巷3號","121.653441666667","25.07466","6501100","汐止區"
"221025","623-UM","2018/03/24 18:49:50","新北市汐止區秀峰路68號","121.65985","25.0644633333333","6501100","汐止區"
"221038","646-BX","2018/03/24 18:49:41","新北市汐止區汐萬路一段312號","121.65067","25.0752933333333","6501100","汐止區"
"221033","647-BX","2018/03/24 18:49:23","新北市汐止區南勢街3號","121.627085","25.0373833333333","6501100","汐止區"
"221002","707-TV","2018/03/24 18:49:49","新北市汐止區大同路一段154-1號","121.632108333333","25.0560166666667","6501100","汐止區"
"221018","753-BX","2018/03/24 18:49:39","新北市汐止區茄苳路2巷1號","121.664413333333","25.070895","6501100","汐止區"
"220079","145-BY","2018/03/24 18:49:46","新北市板橋區民權路202巷6弄2號","121.460043333333","25.0145533333333","6500100","板橋區"
"220106","KEA-2550","2018/03/24 18:49:55","新北市板橋區民生路二段161巷1號","121.470113333333","25.020115","6500100","板橋區"
"220082","610-BX","2018/03/24 18:49:52","新北市板橋區篤行路三段78-5號","121.426565","24.98501","6500100","板橋區"
"220056","276-BY","2018/03/24 18:49:51","新北市板橋區信義路28-6號","121.457086666667","24.9950916666667","6500100","板橋區"
"220072","277-BY","2018/03/24 18:49:49","新北市板橋區大觀路三段36巷30弄3號","121.434176666667","24.9965183333333","6500100","板橋區"
"220089","280-UM","2018/03/24 18:49:36","新北市板橋區民生路二段161巷9號","121.47009","25.0195666666667","6500100","板橋區"
"220071","283-VK","2018/03/24 18:49:47","新北市板橋區重慶路245巷59號","121.465448333333","25.00104","6500100","板橋區"
"220094","285-UM","2018/03/24 18:49:48","新北市板橋區民生路二段161巷3號","121.47","25.019725","6500100","板橋區"
"220053","285-VK","2018/03/24 18:49:46","新北市板橋區民生路二段89-1號","121.471626666667","25.0181616666667","6500100","板橋區"
"220083","286-VK","2018/03/24 18:49:41","新北市板橋區僑中一街120號","121.446065","25.0117783333333","6500100","板橋區"
"220081","287-VK","2018/03/24 18:49:47","新北市板橋區光華街13巷4號","121.454006666667","25.0116066666667","6500100","板橋區"
"220090","288-VK","2018/03/24 18:49:44","新北市板橋區民生路二段89-6號","121.47045","25.0194116666667","6500100","板橋區"
"220061","293-UM","2018/03/24 18:49:53","新北市板橋區太和街4巷9號","121.474221666667","25.019955","6500100","板橋區"
"220062","295-UM","2018/03/24 18:49:47","新北市板橋區中山路二段23號","121.472385","25.01518","6500100","板橋區"
"220084","296-UM","2018/03/24 18:49:58","新北市板橋區大觀路二段150巷11號","121.441665","24.9991966666667","6500100","板橋區"
"220080","461-BY","2018/03/24 18:49:50","新北市板橋區大觀路二段265巷60弄29號","121.44193","24.9978833333333","6500100","板橋區"
"220064","486-VK","2018/03/24 18:49:42","新北市板橋區民生路二段36-1號","121.472078333333","25.0167466666667","6500100","板橋區"
"220088","491-VK","2018/03/24 18:49:49","新北市板橋區民生路二段175號","121.46992","25.0202483333333","6500100","板橋區"
"220035","560-BX","2018/03/24 18:49:49","新北市板橋區中正路325巷3弄7號","121.453778333333","25.018925","6500100","板橋區"
"220063","609-BX","2018/03/24 18:49:44","新北市板橋區民生路二段36-1號","121.472056666667","25.0169033333333","6500100","板橋區"
"220057","686-BX","2018/03/24 18:49:55","新北市板橋區南雅南路一段1巷42號","121.457486666667","25.0062616666667","6500100","板橋區"
"220077","687-BX","2018/03/24 18:49:40","新北市板橋區龍興街97巷1號","121.444123333333","25.00253","6500100","板橋區"
"220054","741-BX","2018/03/24 18:49:43","新北市板橋區館前西路46巷2號","121.458881666667","25.00706","6500100","板橋區"
"220102","KEA-2699","2018/03/24 18:49:45","新北市板橋區民生路二段161巷1號","121.470193333333","25.0199966666667","6500100","板橋區"
"220055","827-TW","2018/03/24 18:49:47","新北市板橋區南雅南路一段1巷35號","121.45767","25.0065316666667","6500100","板橋區"
"220067","829-TW","2018/03/24 18:49:45","新北市板橋區民生路一段109號","121.474136666667","25.0144116666667","6500100","板橋區"
"220068","830-TW","2018/03/24 18:49:44","新北市板橋區富山街10號","121.478695","25.021845","6500100","板橋區"
"220074","895-R6","2018/03/24 18:49:35","新北市板橋區林園街7-1號","121.45392","25.0091516666667","6500100","板橋區"
"220073","985-R7","2018/03/24 18:49:56","新北市板橋區林園街7-1號","121.453938333333","25.0091816666667","6500100","板橋區"
"220070","AAC-253","2018/03/24 18:49:50","新北市板橋區館前西路4-1號","121.459086666667","25.0071566666667","6500100","板橋區"
