"lineid","car","time","location","longitude","latitude","cityid","cityname"
"234046","148-BY","2018/03/24 19:09:22","新北市永和區永元路18巷35號","121.523988333333","25.00027","6500400","永和區"
"234070","149-BY","2018/03/24 19:09:08","新北市永和區豫溪街95巷6號","121.51818","25.0106983333333","6500400","永和區"
"234007","207-UY","2018/03/24 19:09:20","新北市永和區保平路268巷51弄12號","121.50646","25.0063166666667","6500400","永和區"
"234081","298-R6","2018/03/24 19:09:09","新北市永和區永貞路39巷9弄1號","121.521843333333","25.0065633333333","6500400","永和區"
"234038","336-UY","2018/03/24 19:09:25","新北市永和區民樂街71巷1號","121.527355","24.9975533333333","6500400","永和區"
"234064","337-UY","2018/03/24 19:09:05","新北市永和區秀朗路二段48號","121.521633333333","25.0021766666667","6500400","永和區"
"234086","338-UY","2018/03/24 19:09:13","新北市永和區永貞路126號","121.518518333333","25.0044533333333","6500400","永和區"
"234017","745-BX","2018/03/24 19:09:18","新北市永和區文化路90巷15弄1號","121.513801666667","25.015885","6500400","永和區"
"234030","746-BX","2018/03/24 19:09:19","新北市永和區民生路23號","121.522821666667","24.9988133333333","6500400","永和區"
"234054","KEA-2590","2018/03/24 19:09:19","新北市永和區竹林路78號","121.519265","25.01292","6500400","永和區"
"234013","KEA-2591","2018/03/24 19:09:17","新北市永和區保福路二段48號","121.510953333333","25.012125","6500400","永和區"
"234061","AAD-866","2018/03/24 19:09:09","新北市永和區安樂路304巷6號","121.514605","25.0050366666667","6500400","永和區"
"234042","862-TW","2018/03/24 19:09:23","新北市永和區永貞路334號","121.511256666667","25.00556","6500400","永和區"
"234050","863-TW","2018/03/24 19:09:15","新北市永和區文化路135巷9號","121.510681666667","25.0143716666667","6500400","永和區"
"234026","9371-KE","2018/03/24 19:09:17","新北市永和區安樂路272巷9弄7號","121.51509","25.0045883333333","6500400","永和區"
"234011","9373-KE","2018/03/24 19:09:12","新北市永和區信義路25巷53號","121.512271666667","25.0115566666667","6500400","永和區"
"249005","172-UM","2018/03/24 19:09:11","新北市八里區中華路三段45號","121.39551","25.1418716666667","6502300","八里區"
"249001","173-UM","2018/03/24 19:09:21","新北市八里區龍米路二段230-1號","121.432","25.1585133333333","6502300","八里區"
"248016","026-BX","2018/03/24 19:09:26","新北市五股區成泰路三段577巷56號","121.45062","25.1032366666667","6501500","五股區"
"248006","077-UY","2018/03/24 19:09:14","新北市五股區四維路96號","121.467595","25.0734","6501500","五股區"
"248020","225-UY","2018/03/24 19:03:44","新北市五股區凌雲路三段57號","121.42532","25.125005","6501500","五股區"
"248012","247-BX","2018/03/24 19:09:26","新北市五股區中興路四段48巷16號","121.438626666667","25.0834116666667","6501500","五股區"
"248010","272-BY","2018/03/24 19:09:14","新北市五股區水碓一路23號","121.430625","25.0713066666667","6501500","五股區"
"248002","655-BX","2018/03/24 19:09:24","新北市五股區凌雲路一段158巷1號","121.447746666667","25.1030183333333","6501500","五股區"
"248004","682-TV","2018/03/24 19:09:11","新北市五股區六合街13號","121.431361666667","25.0885766666667","6501500","五股區"
"234023","9380-KE","2018/03/24 19:09:26","新北市永和區中興街10巷54號","121.516116666667","25.011025","6500400","永和區"
"234077","969-R7","2018/03/24 19:09:23","新北市永和區民族街40號","121.518533333333","24.9990033333333","6500400","永和區"
"234074","AAC-211","2018/03/24 19:09:27","新北市永和區竹林路207號","121.520643333333","25.008955","6500400","永和區"
"234067","AAC-212","2018/03/24 19:09:18","新北市永和區保平路30巷2號","121.512001666667","25.0073066666667","6500400","永和區"
"234003","AAC-295","2018/03/24 19:09:21","新北市永和區中山路一段89號","121.511856666667","25.0106466666667","6500400","永和區"
"244013","069-UM","2018/03/24 19:09:25","新北市林口區麗園二街23巷15-9號","121.379245","25.0702966666667","6501700","林口區"
"244023","483-VK","2018/03/24 19:09:09","新北市林口區文林六街13巷16號","121.370401666667","25.0806666666667","6501700","林口區"
"244017","485-VK","2018/03/24 19:09:14","新北市林口區文林三街139號","121.374548333333","25.087865","6501700","林口區"
"244019","657-BX","2018/03/24 19:09:12","新北市林口區麗園一街17號","121.376978333333","25.0690833333333","6501700","林口區"
"244011","701-TV","2018/03/24 19:09:13","新北市林口區中正路264巷16號","121.388503333333","25.07843","6501700","林口區"
"243012","AAD-798","2018/03/24 19:09:18","新北市泰山區辭修路36巷8弄5號","121.427866666667","25.0585866666667","6501600","泰山區"
"243011","297-R6","2018/03/24 19:09:17","新北市泰山區明志路二段341號","121.425586666667","25.04468","6501600","泰山區"
"243015","380-SR","2018/03/24 19:09:19","新北市泰山區明志路一段366號","121.430736666667","25.0580033333333","6501600","泰山區"
"243014","421-VK","2018/03/24 19:09:13","新北市泰山區泰林路二段464-1號","121.425578333333","25.0641583333333","6501600","泰山區"
"243010","KEA-2215","2018/03/24 19:09:20","新北市泰山區明志路一段376號","121.430738333333","25.0576033333333","6501600","泰山區"
"243009","KEA-2216","2018/03/24 19:09:19","新北市泰山區明志路一段117巷26號","121.434195","25.0634983333333","6501600","泰山區"
"243013","646-TV","2018/03/24 19:09:21","新北市泰山區明志路三段231巷2弄1號","121.424118333333","25.0376483333333","6501600","泰山區"
"243016","680-BX","2018/03/24 19:09:22","新北市泰山區明志路二段392號","121.42527","25.0443233333333","6501600","泰山區"
"222003","436-BY","2018/03/24 19:09:14","新北市深坑區深南路162號","121.626083333333","25.0149833333333","6501800","深坑區"
"222002","659-BX","2018/03/24 19:09:23","新北市深坑區烏月路1號","121.633408333333","25.0082666666667","6501800","深坑區"
"231041","002-UM","2018/03/24 19:09:26","新北市新店區溪園路389-7號","121.523646666667","24.979025","6500600","新店區"
"231059","046-UY","2018/03/24 19:09:05","新北市新店區安和路二段109號","121.518815","24.9699016666667","6500600","新店區"
"231061","047-UY","2018/03/24 19:09:21","新北市新店區安康路一段83號","121.529646666667","24.9612616666667","6500600","新店區"
"231060","106-UY","2018/03/24 19:09:24","新北市新店區安康路二段222號","121.509708333333","24.9593216666667","6500600","新店區"
"231051","107-UY","2018/03/24 19:09:21","新北市新店區中正路382巷16號","121.535303333333","24.97758","6500600","新店區"
"231048","108-UY","2018/03/24 19:09:09","新北市新店區德正街27巷29弄13號","121.545151666667","24.9718533333333","6500600","新店區"
"231052","187-VK","2018/03/24 19:09:22","新北市新店區自強路117號","121.5461","24.9229833333333","6500600","新店區"
"231050","KEA-2219","2018/03/24 19:09:23","新北市新店區竹林路2巷15號","121.550445","24.9515066666667","6500600","新店區"
"231046","278-BY","2018/03/24 19:09:25","新北市新店區華城路36巷1-1號","121.528488333333","24.95529","6500600","新店區"
"231054","AAD-862","2018/03/24 19:09:17","新北市新店區新店路97號","121.537313333333","24.953745","6500600","新店區"
"231058","3712-VJ","2018/03/24 19:09:16","新北市新店區光明街224巷14號","121.540695","24.962495","6500600","新店區"
"231056","3713-VJ","2018/03/24 19:09:08","新北市新店區二十張路46巷37弄21-5號","121.535416666667","24.9812933333333","6500600","新店區"
"231067","4772-VM","2018/03/24 19:09:17","新北市新店區安光路2號","121.514283333333","24.963445","6500600","新店區"
"231065","512-UM","2018/03/24 19:09:10","新北市新店區安祥路143號","121.474466666667","24.95584","6500600","新店區"
"231064","513-UM","2018/03/24 19:09:20","新北市新店區安忠路90號","121.511505","24.9580616666667","6500600","新店區"
"231045","617-UM","2018/03/24 19:09:13","新北市新店區北宜路一段164號","121.540435","24.9534333333333","6500600","新店區"
"231040","619-UM","2018/03/24 19:09:25","新北市新店區三民路98-3號","121.534026666667","24.9734383333333","6500600","新店區"
"231042","641-BX","2018/03/24 19:09:07","新北市新店區北宜路一段3號","121.53846","24.9585416666667","6500600","新店區"
"231063","645-TV","2018/03/24 19:09:10","新北市新店區車子路121號","121.505235","24.9506733333333","6500600","新店區"
"231049","719-UM","2018/03/24 19:09:13","新北市新店區中正路454-5號","121.53448","24.9790316666667","6500600","新店區"
"231062","720-UM","2018/03/24 19:09:15","新北市新店區安康路一段275-1號","121.523958333333","24.96345","6500600","新店區"
"231044","897-TW","2018/03/24 19:09:17","新北市新店區中興路三段221-1號","121.543478333333","24.9826433333333","6500600","新店區"
"231043","899-TW","2018/03/24 19:09:18","新北市新店區中興路二段252號","121.547438333333","24.975825","6500600","新店區"
"231066","AKT-0513","2018/03/24 19:09:18","新北市新店區安康路三段355巷8號","121.484841666667","24.95034","6500600","新店區"
"241026","066-VK","2018/03/24 19:09:25","新北市三重區泉州街65巷1號","121.494686666667","25.0543","6500200","三重區"
"241020","413-TH","2018/03/24 19:09:07","新北市三重區忠孝路二段65巷1弄9號","121.485235","25.07113","6500200","三重區"
"241035","462-BY","2018/03/24 19:09:11","新北市三重區捷運路11-2號","121.486045","25.05633","6500200","三重區"
"241029","942-UM","2018/03/24 19:09:25","新北市三重區集美街263號","121.492535","25.0557483333333","6500200","三重區"
"235066","003-UY","2018/03/24 19:09:18","新北市中和區水源路102號","121.506178333333","25.0032983333333","6500300","中和區"
"235064","005-UY","2018/03/24 19:09:23","新北市中和區泰和街38巷27號","121.498606666667","25.001085","6500300","中和區"
"235063","006-UY","2018/03/24 19:09:13","新北市中和區連城路249巷5號","121.493723333333","24.9967983333333","6500300","中和區"
"235056","096-UM","2018/03/24 19:09:11","新北市中和區中正路1230號","121.47932","25.010965","6500300","中和區"
"235039","097-UM","2018/03/24 19:09:21","新北市中和區大智街57號","121.521083333333","24.992205","6500300","中和區"
"235065","098-UM","2018/03/24 19:09:13","新北市中和區莊敬路35號","121.500561666667","25.004825","6500300","中和區"
"235040","150-BY","2018/03/24 19:09:22","新北市中和區宜安路81號","121.510916666667","24.997455","6500300","中和區"
"235058","151-BY","2018/03/24 19:09:25","新北市中和區員山路143巷1號","121.480796666667","24.996105","6500300","中和區"
"235055","183-VK","2018/03/24 19:09:24","新北市中和區德光路9號","121.471418333333","25.0045333333333","6500300","中和區"
"235038","185-VK","2018/03/24 19:09:08","新北市中和區大仁街10巷27弄1號","121.519151666667","24.99256","6500300","中和區"
"235049","186-VK","2018/03/24 19:09:07","新北市中和區南華路46號","121.503936666667","24.9965566666667","6500300","中和區"
"235067","255-BX","2018/03/24 19:09:21","新北市中和區新生街177巷8號","121.484236666667","25.0006483333333","6500300","中和區"
"235044","293-VK","2018/03/24 19:09:22","新北市中和區復興路327巷6號","121.500871666667","24.9898416666667","6500300","中和區"
"235072","301-VK","2018/03/24 19:09:26","新北市中和區連城路145號","121.4957","24.998725","6500300","中和區"
"235043","352-BY","2018/03/24 19:09:20","新北市中和區景平路134號","121.518713333333","24.99186","6500300","中和區"
"235068","377-QA","2018/03/24 19:09:10","新北市中和區圓通路158巷1弄9號","121.497251666667","24.9960683333333","6500300","中和區"
"235061","378-QA","2018/03/24 19:09:27","新北市中和區中山路三段63巷2號","121.476736666667","25.0051666666667","6500300","中和區"
"235071","269-TV","2018/03/24 19:09:20","新北市中和區連城路469-1號","121.483538333333","24.9959016666667","6500300","中和區"
"235069","4980-A6","2018/03/24 19:09:22","新北市中和區中山路二段181巷5號","121.501116666667","25.0019816666667","6500300","中和區"
"235042","551-UM","2018/03/24 19:09:06","新北市中和區立人街69巷13弄3號","121.520655","24.9935666666667","6500300","中和區"
"235070","558-UM","2018/03/24 19:09:17","新北市中和區中和路104號","121.50279","24.9997783333333","6500300","中和區"
"235045","565-BX","2018/03/24 19:09:23","新北市中和區景新街467巷35弄7號","121.514281666667","24.988995","6500300","中和區"
"235054","640-BX","2018/03/24 19:09:27","新北市中和區國光街62號","121.470373333333","25.0003083333333","6500300","中和區"
"235060","647-TV","2018/03/24 19:09:25","新北市中和區民享街66號","121.47413","25.00213","6500300","中和區"
"235047","732-UM","2018/03/24 19:09:18","新北市中和區興南路一段56巷3弄2號","121.510576666667","24.9910733333333","6500300","中和區"
"235046","733-UM","2018/03/24 19:09:17","新北市中和區忠孝街1巷44號","121.508501666667","24.9841316666667","6500300","中和區"
"235057","801-TS","2018/03/24 19:09:26","新北市中和區民利街68巷1弄2號","121.478395","24.9987516666667","6500300","中和區"
"235041","802-TS","2018/03/24 19:09:22","新北市中和區景安路55號","121.507375","24.9980466666667","6500300","中和區"
"235052","805-TS","2018/03/24 19:09:16","新北市中和區興南路二段242巷20號","121.502046666667","24.9833333333333","6500300","中和區"
"235048","896-TW","2018/03/24 19:09:16","新北市中和區忠孝街2-5號","121.509076666667","24.982955","6500300","中和區"
"235053","900-TW","2018/03/24 19:09:19","新北市中和區華福街86號","121.46749","24.9964516666667","6500300","中和區"
"235051","157-BY","2018/03/24 19:09:24","新北市中和區興南路一段104號","121.509765","24.9890016666667","6500300","中和區"
"235037","AAC-213","2018/03/24 19:09:20","新北市中和區秀朗路三段60巷9號","121.52571","24.9950566666667","6500300","中和區"
"235059","AAC-215","2018/03/24 19:09:05","新北市中和區圓通路294巷13號","121.48877","24.9900533333333","6500300","中和區"
"220065","072-UY","2018/03/24 19:09:20","新北市板橋區民族路129巷12弄19號","121.468678333333","25.00859","6500100","板橋區"
"220086","073-UY","2018/03/24 19:09:18","新北市板橋區中正路216巷133號","121.460433333333","25.0195266666667","6500100","板橋區"
"220069","AAD-861","2018/03/24 19:09:26","新北市板橋區四川路一段102號","121.459445","25.0046733333333","6500100","板橋區"
"226004","312-R5","2018/03/24 19:09:20","新北市平溪區十分里十分街110號","121.776858333333","25.04289","6502400","平溪區"
"228003","097-TW","2018/03/24 19:09:12","新北市貢寮區和美里和美街36號","121.912311666667","25.0851883333333","6502600","貢寮區"
"228001","212-TW","2018/03/24 19:09:10","新北市貢寮區真理里新港街10號","121.925488333333","25.0543616666667","6502600","貢寮區"
"228002","585-TW","2018/03/24 19:09:10","新北市貢寮區福隆里福隆街32-1號","121.945076666667","25.01743","6502600","貢寮區"
"224010","AGQ-8101","2018/03/24 19:09:14","新北市瑞芳區烏勢巷5號","121.845091666667","25.1083516666667","6501200","瑞芳區"
"224008","285-BY","2018/03/24 19:09:22","基隆市信義區深澳坑路346號","121.795755","25.112965","6501200","瑞芳區"
"224007","275-VK","2018/03/24 19:09:25","新北市瑞芳區瑞竹路46號","121.76345","25.1033516666667","6501200","瑞芳區"
"224009","273-VK","2018/03/24 19:09:19","新北市瑞芳區洞頂路101巷56號","121.860476666667","25.1219316666667","6501200","瑞芳區"
"224005","271-BY","2018/03/24 19:09:15","新北市瑞芳區三爪子坑路43號","121.813141666667","25.1073966666667","6501200","瑞芳區"
"227010","642-TC","2018/03/24 19:09:24","新北市雙溪區牡丹里自強路20號","121.86514","25.0392716666667","6502500","雙溪區"
"227002","400-TW","2018/03/24 19:09:19","新北市雙溪區平林里外平林9-2號","121.859395","25.038035","6502500","雙溪區"
"253005","032-BX","2018/03/24 19:09:24","新北市石門區阿里荖35-2號","121.606461666667","25.2806933333333","6502200","石門區"
"253006","295-VK","2018/03/24 19:09:24","新北市石門區崁子腳1-1號","121.531781666667","25.2877366666667","6502200","石門區"
"222001","KEA-2212","2018/03/24 19:09:07","新北市深坑區北深路一段300號","121.624216666667","25.005835","6501800","深坑區"
"208002","KEA-2872","2018/03/24 19:09:12","新北市金山區中華路112巷14號","121.633971666667","25.2207966666667","6502700","金山區"
"208003","665-BX","2018/03/24 19:09:17","新北市金山區中正路6號","121.636518333333","25.2224033333333","6502700","金山區"
"208001","761-BX","2018/03/24 19:09:16","新北市金山區溫泉路2巷1號","121.639731666667","25.221935","6502700","金山區"
"251009","008-UM","2018/03/24 19:09:26","新北市淡水區清水街139號","121.440238333333","25.1713983333333","6501000","淡水區"
"251013","179-VK","2018/03/24 19:09:20","新北市淡水區安子內12號","121.481578333333","25.2190733333333","6501000","淡水區"
"251014","180-VK","2018/03/24 19:09:23","新北市淡水區小中寮19-7號","121.484735","25.2296633333333","6501000","淡水區"
"251015","182-VK","2018/03/24 19:09:16","新北市淡水區埔子頂13號","121.483286666667","25.17286","6501000","淡水區"
"251010","413-VK","2018/03/24 19:09:05","新北市淡水區中正路一段156巷3號","121.421198333333","25.1802783333333","6501000","淡水區"
"251016","442-VK","2018/03/24 19:09:07","新北市淡水區淡金路三段28號","121.4477","25.198825","6501000","淡水區"
"251001","559-UM","2018/03/24 19:09:22","新北市淡水區自強路201巷39號","121.462068333333","25.1268166666667","6501000","淡水區"
"251006","561-UM","2018/03/24 19:09:21","新北市淡水區崁頂74號","121.434426666667","25.20146","6501000","淡水區"
"251007","577-R6","2018/03/24 19:09:13","新北市淡水區民生路145巷36-16號","121.46728","25.13897","6501000","淡水區"
"251002","672-BX","2018/03/24 19:09:27","新北市淡水區中山路87巷1號","121.442496666667","25.1704016666667","6501000","淡水區"
"251003","673-BX","2018/03/24 19:09:10","新北市淡水區中山北路一段104號","121.442643333333","25.1766583333333","6501000","淡水區"
"207003","291-VK","2018/03/24 19:09:27","新北市萬里區大鵬里萬里加投25-1號","121.648101666667","25.2064383333333","6502800","萬里區"
"207004","225-TW","2018/03/24 19:09:14","新北市萬里區萬里里瑪鋉下街50號","121.691535","25.1794883333333","6502800","萬里區"
"252002","178-VK","2018/03/24 19:09:20","新北市三芝區埔坪里埔頭坑78號","121.509256666667","25.2544083333333","6502100","三芝區"
"252003","249-BX","2018/03/24 19:09:20","新北市三芝區錫板里南勢崗7號","121.479391666667","25.261775","6502100","三芝區"
"252001","292-VK","2018/03/24 19:09:19","新北市三芝區長勤街80號","121.500243333333","25.255135","6502100","三芝區"
"237004","KEA-2597","2018/03/24 19:09:12","新北市三峽區有木205-1號","121.439023333333","24.8514733333333","6500900","三峽區"
"237007","153-BY","2018/03/24 19:09:23","新北市三峽區中正路二段42巷84號","121.364276666667","24.92052","6500900","三峽區"
"237009","210-TH","2018/03/24 19:09:20","新北市三峽區文化路84號","121.371906666667","24.93619","6500900","三峽區"
"237013","252-BX","2018/03/24 19:09:21","新北市三峽區光明路69巷25號","121.376721666667","24.9292383333333","6500900","三峽區"
"237012","275-BY","2018/03/24 19:09:26","新北市三峽區三樹路222巷236弄8號","121.391616666667","24.9427116666667","6500900","三峽區"
"237008","302-VK","2018/03/24 19:09:26","新北市三峽區大同路98-3號","121.37544","24.92759","6500900","三峽區"
"237014","433-BY","2018/03/24 19:09:23","新北市三峽區中山路277巷17號","121.361696666667","24.936775","6500900","三峽區"
"237006","5529-G3","2018/03/24 19:09:17","新北市三峽區橫溪路95號","121.39841","24.9354516666667","6500900","三峽區"
"237010","706-TV","2018/03/24 19:09:19","新北市三峽區復興路150號","121.371535","24.9381816666667","6500900","三峽區"
"237005","AKY-6261","2018/03/24 19:09:14","新北市三峽區中山路459巷163-3號","121.348645","24.93292","6500900","三峽區"
"236073","105-UM","2018/03/24 19:09:20","新北市土城區裕生路84巷1號","121.447226666667","24.9853883333333","6501300","土城區"
"236043","107-UM","2018/03/24 19:09:13","新北市土城區學府路一段276號","121.45004","24.983005","6501300","土城區"
"236079","166-UM","2018/03/24 19:09:22","新北市土城區龍泉路54號","121.413736666667","24.94408","6501300","土城區"
"236026","269-VK","2018/03/24 19:09:25","新北市土城區中正路11巷5號","121.44288","24.9755166666667","6501300","土城區"
"236015","270-VK","2018/03/24 19:09:04","新北市土城區學府路一段77號","121.456913333333","24.9882116666667","6501300","土城區"
"236038","271-VK","2018/03/24 19:09:13","新北市土城區清水路143號","121.45838","24.9816583333333","6501300","土城區"
"236023","401-BY","2018/03/24 19:09:20","新北市土城區延吉街185號","121.469161666667","24.9855683333333","6501300","土城區"
"236059","912-UM","2018/03/24 19:09:24","新北市土城區金城路二段241號","121.455745","24.9825733333333","6501300","土城區"
"236049","913-UM","2018/03/24 19:09:10","新北市土城區明德路一段398-1號","121.453685","24.9790766666667","6501300","土城區"
"236055","AAC-216","2018/03/24 19:09:21","新北市土城區學府路一段276號","121.449953333333","24.9830316666667","6501300","土城區"
"238015","755-BX","2018/03/24 19:09:09","新北市樹林區備內街99-3號","121.407541666667","24.9893","6500700","樹林區"
"238023","601-UM","2018/03/24 19:09:24","新北市樹林區大慶街74號","121.396255","25.01398","6500700","樹林區"
"238019","599-UM","2018/03/24 19:09:26","新北市樹林區東榮街48號","121.4172","24.98318","6500700","樹林區"
"238018","571-TV","2018/03/24 19:09:18","新北市樹林區太平路269號","121.419463333333","24.9730583333333","6500700","樹林區"
"238024","5061-A6","2018/03/24 19:09:10","新北市樹林區味王街20號","121.403295","24.9757433333333","6500700","樹林區"
"238022","KEA-2213","2018/03/24 19:09:08","新北市樹林區中山路二段151巷8弄17號","121.406346666667","24.97771","6500700","樹林區"
"238021","KEA-2539","2018/03/24 19:09:19","新北市樹林區柑園街二段328巷2弄1號","121.37287","24.951995","6500700","樹林區"
"238025","303-VK","2018/03/24 19:09:08","新北市樹林區中山路三段125-10號","121.397371666667","24.97355","6500700","樹林區"
"238017","283-BY","2018/03/24 19:09:22","新北市樹林區光興街44號","121.409898333333","25.0026966666667","6500700","樹林區"
"238014","282-BY","2018/03/24 19:09:19","新北市樹林區中正路22-1號","121.427765","24.9993916666667","6500700","樹林區"
"238020","268-VK","2018/03/24 19:09:23","新北市樹林區俊英街133巷20號","121.423613333333","25.01117","6500700","樹林區"
"238026","172-UY","2018/03/24 19:09:16","新北市樹林區佳園路二段70-2號","121.39077","24.9601133333333","6500700","樹林區"
"238016","169-UY","2018/03/24 19:09:16","新北市樹林區文化街2號","121.42046","24.9870816666667","6500700","樹林區"
"239007","AAC-297","2018/03/24 19:09:22","新北市鶯歌區中正一路237號","121.35439","24.9572766666667","6500800","鶯歌區"
"239006","891-R6","2018/03/24 19:09:26","新北市鶯歌區永昌街29-6號","121.342393333333","24.9497233333333","6500800","鶯歌區"
"239008","527-UM","2018/03/24 19:09:14","新北市鶯歌區國際二路6巷13號","121.33876","24.97386","6500800","鶯歌區"
"239005","526-UM","2018/03/24 19:09:25","新北市鶯歌區中湖街58號","121.347705","24.9728166666667","6500800","鶯歌區"
"239001","417-VK","2018/03/24 19:09:21","新北市鶯歌區建國路367巷1號","121.339136666667","24.9495516666667","6500800","鶯歌區"
"239003","360-BY","2018/03/24 19:09:15","新北市鶯歌區中正二路185號","121.341458333333","24.9479383333333","6500800","鶯歌區"
"239002","359-BY","2018/03/24 19:09:02","新北市鶯歌區西湖街249號","121.339421666667","24.967855","6500800","鶯歌區"
"239004","193-VK","2018/03/24 19:09:24","新北市鶯歌區中正三路鄭厝巷15號","121.332685","24.9337183333333","6500800","鶯歌區"
"221036","130-UY","2018/03/24 19:09:26","新北市汐止區汐萬路一段256巷1號","121.652041666667","25.074725","6501100","汐止區"
"221015","131-UY","2018/03/24 19:09:17","新北市汐止區汐萬路一段256巷3號","121.652796666667","25.07441","6501100","汐止區"
"221010","269-BY","2018/03/24 19:09:10","新北市汐止區康寧街901號","121.651431666667","25.0750483333333","6501100","汐止區"
"221032","280-BY","2018/03/24 19:09:08","新北市汐止區新台五路一段83號","121.64621","25.0607","6501100","汐止區"
"221027","281-BY","2018/03/24 19:09:07","新北市汐止區康寧街901號","121.651435","25.0749683333333","6501100","汐止區"
"221029","298-VK","2018/03/24 19:09:14","新北市汐止區汐萬路一段256巷1號","121.651815","25.0748733333333","6501100","汐止區"
"221021","299-VK","2018/03/24 19:09:23","新北市汐止區康寧街901號","121.651568333333","25.07498","6501100","汐止區"
"221031","353-TW","2018/03/24 19:09:18","新北市汐止區汐萬路一段256巷3號","121.652431666667","25.0745566666667","6501100","汐止區"
"221008","129-UY","2018/03/24 19:09:22","新北市汐止區康寧街426號","121.630775","25.06808","6501100","汐止區"
"221025","623-UM","2018/03/24 19:09:10","新北市汐止區康寧街901號","121.651495","25.07489","6501100","汐止區"
"221038","646-BX","2018/03/24 19:09:21","新北市汐止區汐萬路一段312號","121.650703333333","25.0752683333333","6501100","汐止區"
"221033","647-BX","2018/03/24 19:09:23","新北市汐止區南勢街3號","121.627058333333","25.0373733333333","6501100","汐止區"
"221002","707-TV","2018/03/24 19:09:09","台北市南港區南港路一段28號","121.618698333333","25.0550166666667","6501100","汐止區"
"220079","145-BY","2018/03/24 19:09:26","新北市板橋區民權路260巷12號","121.458245","25.0153633333333","6500100","板橋區"
"220106","KEA-2550","2018/03/24 19:09:15","新北市板橋區文化路二段317號","121.472251666667","25.0298316666667","6500100","板橋區"
"220082","610-BX","2018/03/24 19:09:12","新北市板橋區溪崑二街63號","121.428025","24.9903766666667","6500100","板橋區"
"220101","245-BX","2018/03/24 19:09:08","新北市板橋區萬板路31-1號","121.470963333333","25.0211933333333","6500100","板橋區"
"220103","257-TC","2018/03/24 19:09:20","新北市板橋區介壽街114號","121.469316666667","25.017635","6500100","板橋區"
"220056","276-BY","2018/03/24 19:09:11","新北市板橋區信義路74巷1弄9號","121.457478333333","24.9928883333333","6500100","板橋區"
"220072","277-BY","2018/03/24 19:09:26","新北市板橋區金門街260巷2-3號","121.429891666667","24.9867933333333","6500100","板橋區"
"220089","280-UM","2018/03/24 19:09:16","新北市板橋區文化路二段227號","121.470825","25.0282633333333","6500100","板橋區"
"220071","283-VK","2018/03/24 19:09:25","新北市板橋區重慶路253-3號","121.463313333333","25.0002033333333","6500100","板橋區"
"220094","285-UM","2018/03/24 19:09:08","新北市板橋區光武街133號","121.465681666667","25.0291416666667","6500100","板橋區"
"220053","285-VK","2018/03/24 19:09:06","新北市板橋區懷仁街35巷2弄1號","121.476948333333","25.01967","6500100","板橋區"
"220083","286-VK","2018/03/24 19:09:21","新北市板橋區大觀路二段174巷173弄5號","121.441583333333","25.00372","6500100","板橋區"
"220081","287-VK","2018/03/24 19:09:07","新北市板橋區南雅西路二段156巷17號","121.452331666667","25.0131683333333","6500100","板橋區"
"220090","288-VK","2018/03/24 19:09:24","新北市板橋區裕民街54號","121.461443333333","25.0287166666667","6500100","板橋區"
"220061","293-UM","2018/03/24 19:09:21","新北市板橋區三民路二段21巷2號","121.479685","25.0181366666667","6500100","板橋區"
"220062","295-UM","2018/03/24 19:09:27","新北市板橋區三民路二段居仁巷1弄2-1號","121.479371666667","25.0134533333333","6500100","板橋區"
"220084","296-UM","2018/03/24 19:09:18","新北市板橋區溪崑二街16巷9號","121.428413333333","24.99184","6500100","板橋區"
"220075","303-R5","2018/03/24 19:09:07","新北市板橋區南雅南路一段4巷12-1號","121.454728333333","25.0052133333333","6500100","板橋區"
"220092","307-R5","2018/03/24 19:09:16","新北市板橋區文化路二段155號","121.470195","25.0270633333333","6500100","板橋區"
"220098","317-R6","2018/03/24 19:09:21","新北市板橋區自由路51巷14弄3號","121.464768333333","25.0236066666667","6500100","板橋區"
"220080","461-BY","2018/03/24 19:09:10","新北市板橋區大觀路二段7巷2號","121.447118333333","25.0035216666667","6500100","板橋區"
"220064","486-VK","2018/03/24 19:09:22","新北市板橋區民生路一段35號","121.475716666667","25.0125116666667","6500100","板橋區"
"220088","491-VK","2018/03/24 19:09:09","新北市板橋區文化路二段182巷1弄2號","121.47075","25.02737","6500100","板橋區"
"220035","560-BX","2018/03/24 19:09:09","新北市板橋區瑞安街31巷2號","121.455715","25.0227433333333","6500100","板橋區"
"220063","609-BX","2018/03/24 19:09:24","新北市板橋區三民路二段226號","121.478805","25.0115383333333","6500100","板橋區"
"220057","686-BX","2018/03/24 19:09:14","新北市板橋區重慶路284號","121.463123333333","24.9993283333333","6500100","板橋區"
"220077","687-BX","2018/03/24 19:09:20","新北市板橋區大觀路二段17號","121.44681","25.0033866666667","6500100","板橋區"
"220093","689-BX","2018/03/24 19:09:13","新北市板橋區民生路三段209-5號","121.46517","25.028065","6500100","板橋區"
"220054","741-BX","2018/03/24 19:09:24","新北市板橋區重慶路62巷5號","121.461418333333","25.0067666666667","6500100","板橋區"
"220102","KEA-2699","2018/03/24 19:09:22","新北市板橋區田單街2巷35號","121.48225","25.027875","6500100","板橋區"
"220055","827-TW","2018/03/24 19:09:27","新北市板橋區新民街7巷23號","121.463496666667","25.0105083333333","6500100","板橋區"
"220067","829-TW","2018/03/24 19:09:25","新北市板橋區中山路二段90巷43弄14號","121.476855","25.0150833333333","6500100","板橋區"
"220068","830-TW","2018/03/24 19:09:17","新北市板橋區中山路二段443巷70號","121.480886666667","25.0220466666667","6500100","板橋區"
"220096","831-TW","2018/03/24 19:09:10","新北市板橋區雙十路二段33巷1-1號","121.476563333333","25.0257016666667","6500100","板橋區"
"220074","895-R6","2018/03/24 19:09:15","新北市板橋區中正路自強新村45-1號","121.45476","25.013905","6500100","板橋區"
"220073","985-R7","2018/03/24 19:09:05","新北市板橋區中正路370號","121.454516666667","25.0244083333333","6500100","板橋區"
"220097","AAC-210","2018/03/24 19:09:13","新北市板橋區新生街89巷2號","121.458281666667","25.02207","6500100","板橋區"
"220070","AAC-253","2018/03/24 19:09:09","新北市板橋區忠孝路19號","121.460291666667","25.00197","6500100","板橋區"
