"lineid","car","time","location","longitude","latitude","cityid","cityname"
"234046","148-BY","2018/03/24 19:49:22","新北市永和區永利路135號","121.524038333333","25.0033","6500400","永和區"
"234070","149-BY","2018/03/24 19:49:28","新北市永和區竹林路81號","121.519523333333","25.0125416666667","6500400","永和區"
"234007","207-UY","2018/03/24 19:49:20","新北市中和區中和路234號","121.50689","24.9994616666667","6500400","永和區"
"234081","298-R6","2018/03/24 19:49:09","新北市永和區林森路92號","121.523145","25.0035583333333","6500400","永和區"
"234038","336-UY","2018/03/24 19:49:25","新北市永和區成功路二段129巷10-1號","121.527285","24.9982616666667","6500400","永和區"
"234064","337-UY","2018/03/24 19:49:26","新北市永和區中正路368巷16號","121.518335","25.0007466666667","6500400","永和區"
"234086","338-UY","2018/03/24 19:49:13","新北市永和區永利路6號","121.517503333333","25.005825","6500400","永和區"
"234017","745-BX","2018/03/24 19:49:18","新北市永和區永和路二段299號","121.51612","25.0160766666667","6500400","永和區"
"234030","746-BX","2018/03/24 19:49:19","新北市永和區民生路67巷49號","121.52535","24.997535","6500400","永和區"
"234054","KEA-2590","2018/03/24 19:49:19","新北市永和區竹林路75巷15-1號","121.519681666667","25.0136433333333","6500400","永和區"
"234013","KEA-2591","2018/03/24 19:49:20","新北市永和區永平路286-1號","121.50765","25.0120133333333","6500400","永和區"
"234061","AAD-866","2018/03/24 19:49:09","新北市永和區中正路136號","121.514626666667","24.9961366666667","6500400","永和區"
"234042","862-TW","2018/03/24 19:49:23","新北市永和區中和路389巷36號","121.508183333333","25.001815","6500400","永和區"
"234050","863-TW","2018/03/24 19:49:20","新北市永和區保安路146號","121.50847","25.0147833333333","6500400","永和區"
"234026","9371-KE","2018/03/24 19:49:17","新北市永和區雙和街25巷4號","121.508846666667","25.0019083333333","6500400","永和區"
"234011","9373-KE","2018/03/24 19:49:12","新北市永和區仁愛路352巷94號","121.501168333333","25.00801","6500400","永和區"
"249001","173-UM","2018/03/24 19:49:20","新北市八里區中華路二段252號","121.405348333333","25.149665","6502300","八里區"
"249004","303-UY","2018/03/24 19:49:27","新北市八里區中山路一段398巷50-2號","121.411111666667","25.1595416666667","6502300","八里區"
"249002","305-UY","2018/03/24 19:49:15","新北市八里區頂寮五街26號","121.451231666667","25.1260883333333","6502300","八里區"
"249003","593-UM","2018/03/24 19:49:23","新北市八里區中華路二段538-4號","121.398703333333","25.1450983333333","6502300","八里區"
"248016","026-BX","2018/03/24 19:49:28","新北市五股區成泰路三段601巷17-1號","121.451741666667","25.1032983333333","6501500","五股區"
"248008","095-VK","2018/03/24 19:49:17","新北市五股區四維路169號","121.467671666667","25.075135","6501500","五股區"
"248020","225-UY","2018/03/24 19:49:15","新北市五股區中直路65-3號","121.418335","25.1180583333333","6501500","五股區"
"248012","247-BX","2018/03/24 19:49:21","新北市五股區蓬萊路24號","121.434213333333","25.0797416666667","6501500","五股區"
"248014","261-SL","2018/03/24 19:49:13","新北市五股區五福路42巷9號","121.43421","25.089635","6501500","五股區"
"248010","272-BY","2018/03/24 19:49:14","新北市五股區登林路76-5號","121.430621666667","25.0694766666667","6501500","五股區"
"248002","655-BX","2018/03/24 19:49:24","新北市五股區成泰路四段15-3號","121.453228333333","25.1068183333333","6501500","五股區"
"248004","682-TV","2018/03/24 19:49:10","新北市五股區成泰路一段126號","121.435278333333","25.074375","6501500","五股區"
"234077","969-R7","2018/03/24 19:49:06","新北市永和區智光街55號","121.517163333333","24.9978983333333","6500400","永和區"
"234074","AAC-211","2018/03/24 19:49:09","新北市永和區竹林路179巷26號","121.521693333333","25.0100366666667","6500400","永和區"
"234067","AAC-212","2018/03/24 19:49:18","新北市永和區永貞路353號","121.509151666667","25.0075616666667","6500400","永和區"
"234003","AAC-295","2018/03/24 19:49:20","新北市永和區福和路343號","121.51557","25.0071666666667","6500400","永和區"
"243012","AAD-798","2018/03/24 19:49:27","新北市泰山區全興路18巷1號","121.432008333333","25.0588183333333","6501600","泰山區"
"243011","297-R6","2018/03/24 19:49:17","新北市泰山區明志路三段182巷39號","121.423043333333","25.0393883333333","6501600","泰山區"
"243015","380-SR","2018/03/24 19:49:19","新北市泰山區民權街82號","121.428196666667","25.0496733333333","6501600","泰山區"
"243014","421-VK","2018/03/24 19:49:13","新北市泰山區泰林路二段33-7號","121.435235","25.0564283333333","6501600","泰山區"
"243010","KEA-2215","2018/03/24 19:49:20","新北市泰山區民生路33號","121.430581666667","25.05222","6501600","泰山區"
"243009","KEA-2216","2018/03/24 19:49:19","新北市泰山區美寧街60號","121.430935","25.0646983333333","6501600","泰山區"
"243013","646-TV","2018/03/24 19:47:58","新北市泰山區應化街13號","121.42385","25.04369","6501600","泰山區"
"243016","680-BX","2018/03/24 19:49:07","新北市泰山區中山路三段114號","121.418045","25.0322433333333","6501600","泰山區"
"222003","436-BY","2018/03/24 19:32:38","新北市深坑區深南路51-1號","121.62125","25.0098033333333","6501800","深坑區"
"222002","659-BX","2018/03/24 19:49:23","新北市深坑區北深路一段300號","121.623558333333","25.00545","6501800","深坑區"
"231041","002-UM","2018/03/24 19:49:13","新北市新店區中央路137號","121.530205","24.9736816666667","6500600","新店區"
"231059","046-UY","2018/03/24 19:49:25","新北市新店區安和路二段126號","121.519206666667","24.9715283333333","6500600","新店區"
"231061","047-UY","2018/03/24 19:49:20","新北市新店區安民街321號","121.517416666667","24.9744933333333","6500600","新店區"
"231060","106-UY","2018/03/24 19:49:25","新北市新店區安康路二段191號","121.509303333333","24.9590883333333","6500600","新店區"
"231051","107-UY","2018/03/24 19:49:21","新北市新店區中央三街48號","121.52746","24.97441","6500600","新店區"
"231048","108-UY","2018/03/24 19:49:19","新北市新店區中興路二段100巷1號","121.547731666667","24.9716866666667","6500600","新店區"
"231049","110-UY","2018/03/24 19:49:25","新北市新店區大豐路49號","121.540053333333","24.9797183333333","6500600","新店區"
"231052","187-VK","2018/03/24 19:49:22","新北市新店區新烏路三段206號","121.550848333333","24.9015933333333","6500600","新店區"
"231050","KEA-2219","2018/03/24 19:44:43","新北市新店區北宜路二段579巷7號","121.565153333333","24.954035","6500600","新店區"
"231057","256-BX","2018/03/24 19:49:11","新北市新店區梅崗三路1號","121.558378333333","24.9312316666667","6500600","新店區"
"231046","278-BY","2018/03/24 19:49:25","新北市新店區中央路97號","121.531305","24.9750233333333","6500600","新店區"
"231054","AAD-862","2018/03/24 19:49:17","新北市新店區光明街65號","121.53882","24.960445","6500600","新店區"
"231055","4716-K9","2018/03/24 19:49:18","新北市新店區新生街1號","121.540315","24.9656083333333","6500600","新店區"
"231067","4772-VM","2018/03/24 19:49:17","新北市新店區秀山路11巷14號","121.531858333333","24.95935","6500600","新店區"
"231065","512-UM","2018/03/24 19:49:10","新北市新店區安祥路109巷151弄16號","121.477733333333","24.9588133333333","6500600","新店區"
"231064","513-UM","2018/03/24 19:49:20","新北市新店區安和路二段111號","121.518641666667","24.9701133333333","6500600","新店區"
"231045","617-UM","2018/03/24 19:49:13","新北市新店區北宜路二段360-1號","121.564731666667","24.9523216666667","6500600","新店區"
"231040","619-UM","2018/03/24 19:49:25","新北市新店區北新路一段96巷23號","121.543038333333","24.968755","6500600","新店區"
"231042","641-BX","2018/03/24 19:49:07","新北市新店區中興路一段271號","121.545131666667","24.9680416666667","6500600","新店區"
"231063","645-TV","2018/03/24 19:49:10","新北市新店區黎明路3號","121.503381666667","24.9523433333333","6500600","新店區"
"231062","720-UM","2018/03/24 19:49:15","新北市新店區永業路119號","121.52843","24.94799","6500600","新店區"
"231044","897-TW","2018/03/24 19:49:17","新北市新店區復興路44-5號","121.538273333333","24.9868166666667","6500600","新店區"
"231043","899-TW","2018/03/24 19:49:18","新北市新店區中正路257號","121.538835","24.9735133333333","6500600","新店區"
"231066","AKT-0513","2018/03/24 19:49:18","新北市新店區安康路二段320巷15弄18號","121.502168333333","24.9588033333333","6500600","新店區"
"241011","013-R5","2018/03/24 19:49:10","新北市三重區介壽路39巷6號","121.498913333333","25.0701266666667","6500200","三重區"
"241028","022-UY","2018/03/24 19:49:09","新北市三重區中正南路186號","121.493896666667","25.0561683333333","6500200","三重區"
"241008","059-VK","2018/03/24 19:49:06","新北市三重區永福街68號","121.479113333333","25.0769716666667","6500200","三重區"
"241009","060-VK","2018/03/24 19:49:25","新北市三重區三和路四段396巷40號","121.479615","25.0787316666667","6500200","三重區"
"241031","061-VK","2018/03/24 19:49:08","新北市三重區重新路四段250-1號","121.486038333333","25.0535166666667","6500200","三重區"
"241015","062-VK","2018/03/24 19:49:14","新北市三重區重新路一段1號","121.503828333333","25.0642416666667","6500200","三重區"
"241017","063-VK","2018/03/24 19:49:17","新北市三重區重陽路三段5巷8弄3號","121.489576666667","25.0662883333333","6500200","三重區"
"241024","065-VK","2018/03/24 19:49:21","新北市三重區中正北路193巷37號","121.476018333333","25.0707883333333","6500200","三重區"
"241026","066-VK","2018/03/24 19:49:25","新北市三重區文化南路42號","121.500413333333","25.0602283333333","6500200","三重區"
"241003","091-VK","2018/03/24 19:49:28","新北市三重區五華街93巷14號","121.492443333333","25.0840616666667","6500200","三重區"
"241016","265-UM","2018/03/24 19:49:14","新北市三重區正德街39號","121.495736666667","25.062685","6500200","三重區"
"241022","267-UM","2018/03/24 19:49:23","新北市三重區重新路三段115巷16號","121.489771666667","25.0606816666667","6500200","三重區"
"241018","268-UM","2018/03/24 19:49:08","新北市三重區雙園街57巷34弄13號","121.494105","25.0683066666667","6500200","三重區"
"241032","269-UM","2018/03/24 19:49:14","新北市三重區重陽路一段44巷10號","121.486061666667","25.0577283333333","6500200","三重區"
"241013","270-UM","2018/03/24 19:49:25","新北市三重區仁愛街92巷13號","121.494746666667","25.0738916666667","6500200","三重區"
"241007","398-BY","2018/03/24 19:49:25","新北市三重區三和路四段147號","121.484201666667","25.0782683333333","6500200","三重區"
"241020","413-TH","2018/03/24 19:49:27","新北市三重區三和路四段20巷16-2號","121.490335","25.0732866666667","6500200","三重區"
"241035","462-BY","2018/03/24 19:49:11","新北市三重區文化北路6-1號","121.499363333333","25.0635083333333","6500200","三重區"
"241004","475-VK","2018/03/24 19:49:10","新北市三重區五華街74號","121.493406666667","25.081975","6500200","三重區"
"241019","478-VK","2018/03/24 19:49:11","新北市三重區自強路二段74巷25號","121.487745","25.069645","6500200","三重區"
"241030","480-VK","2018/03/24 19:49:24","新北市三重區環河南路254巷40號","121.489715","25.051225","6500200","三重區"
"241014","543-UM","2018/03/24 19:49:14","新北市三重區長元街98巷18弄31號","121.501693333333","25.067435","6500200","三重區"
"241023","545-UM","2018/03/24 19:49:09","新北市三重區頂崁街172號","121.477623333333","25.0659366666667","6500200","三重區"
"241001","547-UM","2018/03/24 19:49:27","新北市三重區仁愛街327巷55號","121.493498333333","25.080255","6500200","三重區"
"241033","557-UM","2018/03/24 19:49:27","新北市三重區中興南街64號","121.47065","25.0441066666667","6500200","三重區"
"241006","AAD-863","2018/03/24 19:49:23","新北市三重區永福街263號","121.481585","25.0741733333333","6500200","三重區"
"241025","887-TS","2018/03/24 19:49:10","新北市三重區忠孝路三段52號","121.480656666667","25.06559","6500200","三重區"
"241012","941-UM","2018/03/24 19:49:16","新北市三重區仁福街64巷20號","121.497665","25.0752016666667","6500200","三重區"
"241029","942-UM","2018/03/24 19:49:25","新北市三重區光明路15號","121.490983333333","25.058675","6500200","三重區"
"235066","003-UY","2018/03/24 19:49:18","新北市中和區南工路40號","121.50584","25.0013466666667","6500300","中和區"
"235056","096-UM","2018/03/24 19:49:11","新北市中和區中山路三段114巷46號","121.47576","25.0072816666667","6500300","中和區"
"235039","097-UM","2018/03/24 19:49:21","新北市中和區大勇街32號","121.51724","24.9931983333333","6500300","中和區"
"235065","098-UM","2018/03/24 19:49:13","新北市中和區莊敬路31巷21號","121.499635","25.0055866666667","6500300","中和區"
"235040","150-BY","2018/03/24 19:49:22","新北市中和區安平路59號","121.509618333333","24.9949433333333","6500300","中和區"
"235058","151-BY","2018/03/24 19:49:25","新北市中和區員山路142巷24號","121.482403333333","24.996515","6500300","中和區"
"235055","183-VK","2018/03/24 19:49:24","新北市中和區莒光路37巷2號","121.47206","25.0051083333333","6500300","中和區"
"235038","185-VK","2018/03/24 19:49:27","新北市中和區立人街69巷7弄2號","121.520035","24.9936483333333","6500300","中和區"
"235049","186-VK","2018/03/24 19:49:27","新北市中和區中正路76號","121.50078","24.9937466666667","6500300","中和區"
"235067","255-BX","2018/03/24 19:49:21","新北市中和區新生街186巷1弄1號","121.483526666667","24.9995483333333","6500300","中和區"
"235044","293-VK","2018/03/24 19:49:13","新北市中和區南山路230號","121.506556666667","24.9901583333333","6500300","中和區"
"235043","352-BY","2018/03/24 19:49:20","新北市中和區興南路二段159巷26號","121.505515","24.9825916666667","6500300","中和區"
"235068","377-QA","2018/03/24 19:49:10","新北市中和區莊敬路1-6號","121.49946","25.0043183333333","6500300","中和區"
"235061","378-QA","2018/03/24 19:49:27","新北市中和區員山路226巷6號","121.481626666667","25.0006866666667","6500300","中和區"
"235071","269-TV","2018/03/24 19:49:20","新北市中和區永和路335-1號","121.48489","25.0113716666667","6500300","中和區"
"235042","551-UM","2018/03/24 19:49:26","新北市中和區宜安路171號","121.508375","24.9990433333333","6500300","中和區"
"235070","558-UM","2018/03/24 19:49:17","新北市中和區連勝街33號","121.498295","24.997805","6500300","中和區"
"235045","565-BX","2018/03/24 19:49:23","新北市中和區景平路161-1號","121.51272","24.9923966666667","6500300","中和區"
"235054","640-BX","2018/03/24 19:49:27","新北市中和區莒光路63號","121.472276666667","25.00388","6500300","中和區"
"235060","647-TV","2018/03/24 19:49:25","新北市中和區員山路352號","121.481055","25.0035466666667","6500300","中和區"
"235047","732-UM","2018/03/24 19:49:18","新北市中和區和平街3-2號","121.509766666667","24.990045","6500300","中和區"
"235046","733-UM","2018/03/24 19:49:10","新北市中和區仁愛街114號","121.511678333333","24.98695","6500300","中和區"
"235057","801-TS","2018/03/24 19:49:26","新北市中和區員山路130號","121.481165","24.996255","6500300","中和區"
"235041","802-TS","2018/03/24 19:49:22","新北市中和區中安街8號","121.51352","25.0032933333333","6500300","中和區"
"235052","805-TS","2018/03/24 19:49:16","新北市中和區華新街30巷19號","121.506938333333","24.9841633333333","6500300","中和區"
"235048","896-TW","2018/03/24 19:49:16","新北市中和區興南路一段129號","121.508963333333","24.9876533333333","6500300","中和區"
"235053","900-TW","2018/03/24 19:49:19","新北市中和區國光街189巷1號","121.467771666667","25.0010333333333","6500300","中和區"
"235051","157-BY","2018/03/24 19:49:24","新北市中和區中興街127號","121.499941666667","24.9917433333333","6500300","中和區"
"235037","AAC-213","2018/03/24 19:49:20","新北市中和區自立路66號","121.523876666667","24.99136","6500300","中和區"
"235059","AAC-215","2018/03/24 19:49:25","新北市中和區圓通路305巷48號","121.495441666667","24.9889183333333","6500300","中和區"
"220065","072-UY","2018/03/24 19:49:20","新北市板橋區民族路239號","121.47","25.007035","6500100","板橋區"
"220086","073-UY","2018/03/24 19:49:15","新北市板橋區南雅西路二段20號","121.452955","25.00955","6500100","板橋區"
"220069","AAD-861","2018/03/24 19:49:06","新北市板橋區南雅南路二段11-17號","121.454901666667","25.0017516666667","6500100","板橋區"
"247004","337-TH","2018/03/24 19:49:21","新北市蘆洲區中原路55號","121.459115","25.082155","6501400","蘆洲區"
"247006","336-TH","2018/03/24 19:49:21","新北市蘆洲區永安南路二段26號","121.467285","25.0771433333333","6501400","蘆洲區"
"247008","056-VK","2018/03/24 19:49:22","新北市蘆洲區信義路139號","121.479286666667","25.0803833333333","6501400","蘆洲區"
"247002","053-VK","2018/03/24 19:49:22","新北市蘆洲區永平街24號","121.458948333333","25.090805","6501400","蘆洲區"
"226004","312-R5","2018/03/24 19:49:20","新北市平溪區石底里公園街18-3號","121.733425","25.025635","6502400","平溪區"
"228003","097-TW","2018/03/24 19:49:12","新北市貢寮區真理里美艷山街5-1號","121.926456666667","25.0596783333333","6502600","貢寮區"
"228001","212-TW","2018/03/24 19:49:10","新北市貢寮區真理里新港街82-2號","121.927053333333","25.0562183333333","6502600","貢寮區"
"224010","AGQ-8101","2018/03/24 19:49:14","新北市瑞芳區輕便路137號","121.84356","25.10905","6501200","瑞芳區"
"224002","639-TC","2018/03/24 19:49:15","新北市瑞芳區員山子路員山巷21-1號","121.816953333333","25.1043583333333","6501200","瑞芳區"
"227010","642-TC","2018/03/24 19:49:24","新北市雙溪區新基里中華路90-1號","121.866041666667","25.0390616666667","6502500","雙溪區"
"227002","400-TW","2018/03/24 19:49:19","新北市雙溪區雙溪里內挖路47號","121.863201666667","25.0368","6502500","雙溪區"
"222001","KEA-2212","2018/03/24 19:49:07","新北市深坑區北深路三段106號","121.60694","25.0016233333333","6501800","深坑區"
"208002","KEA-2872","2018/03/24 19:49:12","新北市金山區三民街34號","121.63492","25.2235883333333","6502700","金山區"
"208003","665-BX","2018/03/24 19:49:11","新北市金山區海興路30號","121.630593333333","25.23798","6502700","金山區"
"208001","761-BX","2018/03/24 19:49:14","新北市金山區重和里六股林口55號","121.601998333333","25.21982","6502700","金山區"
"251009","008-UM","2018/03/24 19:49:18","新北市淡水區中正路38-1號","121.443751666667","25.1692466666667","6501000","淡水區"
"251004","009-UM","2018/03/24 19:49:22","新北市淡水區民權路187巷34號","121.460528333333","25.1333366666667","6501000","淡水區"
"251013","179-VK","2018/03/24 19:49:20","新北市淡水區頂田寮路43號","121.456726666667","25.215985","6501000","淡水區"
"251014","180-VK","2018/03/24 19:49:23","新北市淡水區番社前4號","121.474451666667","25.2362783333333","6501000","淡水區"
"251008","181-VK","2018/03/24 19:49:18","新北市淡水區中正路二段24巷2-1號","121.42678","25.1769416666667","6501000","淡水區"
"251015","182-VK","2018/03/24 19:49:15","新北市淡水區大埤頭1-3號","121.492411666667","25.19497","6501000","淡水區"
"251012","441-VK","2018/03/24 19:49:20","新北市淡水區埤島6-10號","121.44616","25.1942133333333","6501000","淡水區"
"251016","442-VK","2018/03/24 19:49:07","新北市淡水區三塊厝3-2號","121.456245","25.2093416666667","6501000","淡水區"
"251005","443-VK","2018/03/24 19:49:22","新北市淡水區中山路41號","121.443493333333","25.1704716666667","6501000","淡水區"
"251001","559-UM","2018/03/24 19:49:22","新北市淡水區中正東路二段51-3號","121.459316666667","25.155915","6501000","淡水區"
"251006","561-UM","2018/03/24 19:49:21","新北市淡水區水碓街15號","121.443503333333","25.1769666666667","6501000","淡水區"
"251011","650-BX","2018/03/24 19:49:13","新北市淡水區北投子14-5號","121.448855","25.1834566666667","6501000","淡水區"
"251002","672-BX","2018/03/24 19:49:27","新北市淡水區新市二路三段16號","121.431993333333","25.1947416666667","6501000","淡水區"
"207003","291-VK","2018/03/24 19:49:27","新北市萬里區磺潭里公館崙4號","121.64221","25.2146866666667","6502800","萬里區"
"207004","225-TW","2018/03/24 19:49:14","新北市萬里區萬里里瑪鋉路170號","121.689836666667","25.1798416666667","6502800","萬里區"
"252002","178-VK","2018/03/24 19:49:20","新北市三芝區三民街33-1號","121.504641666667","25.2585183333333","6502100","三芝區"
"252001","292-VK","2018/03/24 19:49:19","新北市三芝區公正街66號","121.499805","25.25747","6502100","三芝區"
"237004","KEA-2597","2018/03/24 19:49:12","新北市三峽區添福295號","121.377376666667","24.8858916666667","6500900","三峽區"
"237007","153-BY","2018/03/24 19:49:23","新北市三峽區二鬮路136巷59號","121.357705","24.90904","6500900","三峽區"
"237009","210-TH","2018/03/24 19:49:20","新北市三峽區民族街78巷2弄12號","121.368268333333","24.9300083333333","6500900","三峽區"
"237013","252-BX","2018/03/24 19:49:21","新北市三峽區介壽路二段165號","121.39413","24.9359933333333","6500900","三峽區"
"237012","275-BY","2018/03/24 19:49:26","新北市三峽區光明路10號","121.373196666667","24.9311216666667","6500900","三峽區"
"237008","302-VK","2018/03/24 19:49:06","新北市三峽區中正路一段108巷15號","121.373388333333","24.9302033333333","6500900","三峽區"
"237014","433-BY","2018/03/24 19:49:22","新北市三峽區嘉添109-3號","121.369748333333","24.91045","6500900","三峽區"
"237006","5529-G3","2018/03/24 19:49:17","新北市三峽區中正路一段336巷15弄2號","121.36994","24.92492","6500900","三峽區"
"237016","649-BX","2018/03/24 19:43:26","新北市三峽區橫溪路99巷52號","121.400193333333","24.93709","6500900","三峽區"
"237005","AKY-6261","2018/03/24 19:49:14","新北市三峽區長泰街55號","121.377348333333","24.932805","6500900","三峽區"
"236073","105-UM","2018/03/24 19:49:20","新北市土城區水源街33號","121.44092","24.97547","6501300","土城區"
"236079","166-UM","2018/03/24 19:49:22","新北市土城區中央路四段351號","121.409088333333","24.95052","6501300","土城區"
"236031","253-BX","2018/03/24 19:49:15","新北市土城區中央路一段294號","121.443378333333","24.9823716666667","6501300","土城區"
"236026","269-VK","2018/03/24 19:49:21","新北市土城區中央路二段61巷26號","121.443285","24.9787416666667","6501300","土城區"
"236038","271-VK","2018/03/24 19:49:11","新北市土城區國際路158巷45號","121.46827","24.9754266666667","6501300","土城區"
"236023","401-BY","2018/03/24 19:49:07","新北市土城區金城路三段200-5號","121.468803333333","24.987555","6501300","土城區"
"236059","912-UM","2018/03/24 19:49:23","新北市土城區中央路一段260-2號","121.444126666667","24.984025","6501300","土城區"
"236049","913-UM","2018/03/24 19:49:11","新北市土城區青雲路160號","121.459168333333","24.9829266666667","6501300","土城區"
"236063","915-UM","2018/03/24 19:49:14","新北市土城區延和路105巷4弄2號","121.467506666667","24.99066","6501300","土城區"
"236055","AAC-216","2018/03/24 19:49:21","新北市土城區延和路119號","121.468121666667","24.9904383333333","6501300","土城區"
"242034","AAC-296","2018/03/24 19:49:16","新北市新莊區仁愛街63號","121.444271666667","25.037575","6500500","新莊區"
"242058","986-R7","2018/03/24 19:49:16","新北市新莊區八德街17號","121.42528","25.0226316666667","6500500","新莊區"
"242029","705-TV","2018/03/24 19:49:15","新北市新莊區中平路297號","121.444665","25.0510616666667","6500500","新莊區"
"242025","613-BX","2018/03/24 19:49:10","新北市新莊區五權一路12巷21弄8號","121.457936666667","25.0645766666667","6500500","新莊區"
"242046","497-BY","2018/03/24 19:49:16","新北市新莊區裕民街19巷4號","121.419635","25.0252166666667","6500500","新莊區"
"242004","442-UM","2018/03/24 19:49:26","新北市新莊區化成路63巷57號","121.462776666667","25.0458166666667","6500500","新莊區"
"242056","440-UM","2018/03/24 19:49:14","新北市新莊區新泰路47號","121.449533333333","25.033675","6500500","新莊區"
"242036","415-TV","2018/03/24 19:49:22","新北市新莊區民安路207巷26號","121.427418333333","25.0235783333333","6500500","新莊區"
"242023","362-BY","2018/03/24 19:49:22","新北市新莊區化成路69號","121.465578333333","25.0459866666667","6500500","新莊區"
"242061","353-BY","2018/03/24 19:49:21","新北市新莊區中環路一段10號","121.44279","25.0257966666667","6500500","新莊區"
"242039","133-UY","2018/03/24 19:49:12","新北市新莊區民安路299巷16號","121.42935","25.02291","6500500","新莊區"
"242031","135-UY","2018/03/24 19:49:27","新北市新莊區公園一路121號","121.44538","25.03804","6500500","新莊區"
"242048","172-VK","2018/03/24 19:49:25","新北市新莊區建安街76巷1弄18號","121.425923333333","25.0242783333333","6500500","新莊區"
"242002","349-TH","2018/03/24 19:49:19","新北市新莊區瓊林路1號","121.450211666667","25.0323483333333","6500500","新莊區"
"242019","350-TH","2018/03/24 19:49:08","新北市新莊區中華路一段136巷28號","121.453583333333","25.0412716666667","6500500","新莊區"
"242013","351-TH","2018/03/24 19:49:10","新北市新莊區中泰街32號","121.450988333333","25.0469666666667","6500500","新莊區"
"238015","755-BX","2018/03/24 19:49:09","新北市樹林區樹德街6號","121.423018333333","24.9913566666667","6500700","樹林區"
"238023","601-UM","2018/03/24 19:49:24","新北市樹林區三福街114號","121.406505","25.0163333333333","6500700","樹林區"
"238024","5061-A6","2018/03/24 19:49:10","新北市樹林區育德街121巷5號","121.388806666667","24.9681633333333","6500700","樹林區"
"238021","KEA-2539","2018/03/24 19:49:19","新北市樹林區佳園路三段147號","121.385963333333","24.9493083333333","6500700","樹林區"
"238017","283-BY","2018/03/24 19:49:22","新北市樹林區保安街二段107巷1弄3號","121.415206666667","25.0008466666667","6500700","樹林區"
"238014","282-BY","2018/03/24 19:49:19","新北市樹林區中正路22-1號","121.427731666667","24.9994233333333","6500700","樹林區"
"239001","417-VK","2018/03/24 19:49:21","新北市鶯歌區二甲路12-2號","121.345476666667","24.934885","6500800","鶯歌區"
"221036","130-UY","2018/03/24 19:49:25","新北市汐止區中正路311號","121.655926666667","25.0676416666667","6501100","汐止區"
"221015","131-UY","2018/03/24 19:49:17","新北市汐止區大同路二段544號","121.66168","25.0688933333333","6501100","汐止區"
"221010","269-BY","2018/03/24 19:49:10","新北市汐止區八連路一段72號","121.647051666667","25.08098","6501100","汐止區"
"221012","278-VK","2018/03/24 19:49:18","新北市汐止區保長路267號","121.680923333333","25.0743533333333","6501100","汐止區"
"221023","279-VK","2018/03/24 19:49:16","新北市汐止區明峰街162號","121.629235","25.070515","6501100","汐止區"
"221032","280-BY","2018/03/24 19:49:08","新北市汐止區橫科路119號","121.620088333333","25.050335","6501100","汐止區"
"221027","281-BY","2018/03/24 19:49:24","新北市汐止區大同路二段579號","121.663488333333","25.0701116666667","6501100","汐止區"
"221029","298-VK","2018/03/24 19:49:14","新北市汐止區康寧街901號","121.651495","25.0749933333333","6501100","汐止區"
"221021","299-VK","2018/03/24 19:49:22","新北市汐止區新興路83-3號","121.657726666667","25.061805","6501100","汐止區"
"221031","353-TW","2018/03/24 19:49:18","新北市汐止區福德二路54巷2弄11號","121.6341","25.0678316666667","6501100","汐止區"
"221008","129-UY","2018/03/24 19:49:22","新北市汐止區康寧街39號","121.618551666667","25.066815","6501100","汐止區"
"221035","622-UM","2018/03/24 19:49:23","新北市汐止區長江街13巷5弄2號","121.654673333333","25.0716966666667","6501100","汐止區"
"221025","623-UM","2018/03/24 19:49:10","新北市汐止區秀峰路81巷26號","121.661083333333","25.0645116666667","6501100","汐止區"
"221038","646-BX","2018/03/24 19:49:21","新北市汐止區忠孝東路431號","121.66597","25.0718883333333","6501100","汐止區"
"221033","647-BX","2018/03/24 19:49:23","新北市汐止區東勢街76巷100-1號","121.636413333333","25.0389866666667","6501100","汐止區"
"220079","145-BY","2018/03/24 19:49:26","新北市板橋區中正路135巷12弄19號","121.45541","25.0161283333333","6500100","板橋區"
"220106","KEA-2550","2018/03/24 19:49:15","新北市板橋區民治街57巷32-1號","121.480146666667","25.03408","6500100","板橋區"
"220082","610-BX","2018/03/24 19:49:28","新北市板橋區存德街45號","121.431038333333","24.991405","6500100","板橋區"
"220101","245-BX","2018/03/24 19:49:28","新北市板橋區縣民大道三段97巷2號","121.475921666667","25.0220766666667","6500100","板橋區"
"220103","257-TC","2018/03/24 19:49:20","新北市板橋區陽明街29巷1弄24號","121.464065","25.0221366666667","6500100","板橋區"
"220072","277-BY","2018/03/24 19:49:22","新北市板橋區金門街159號","121.432871666667","24.9904633333333","6500100","板橋區"
"220089","280-UM","2018/03/24 19:49:16","新北市板橋區龍泉街95-3號","121.456966666667","25.0245516666667","6500100","板橋區"
"220071","283-VK","2018/03/24 19:49:25","新北市板橋區五權街32巷12號","121.464426666667","24.9930566666667","6500100","板橋區"
"220094","285-UM","2018/03/24 19:49:28","新北市板橋區長江路一段137號","121.46066","25.0301716666667","6500100","板橋區"
"220053","285-VK","2018/03/24 19:49:20","新北市板橋區中山路二段60巷1弄23號","121.475071666667","25.01578","6500100","板橋區"
"220083","286-VK","2018/03/24 19:49:21","新北市板橋區僑中二街96號","121.446225","25.0085983333333","6500100","板橋區"
"220081","287-VK","2018/03/24 19:49:07","新北市板橋區大觀路一段29巷4弄2號","121.450191666667","25.0078133333333","6500100","板橋區"
"220090","288-VK","2018/03/24 19:49:24","新北市板橋區龍泉街54巷5號","121.45684","25.0265633333333","6500100","板橋區"
"220061","293-UM","2018/03/24 19:49:12","新北市板橋區中山路一段283巷2弄2-3號","121.470215","25.01452","6500100","板橋區"
"220062","295-UM","2018/03/24 19:49:27","新北市板橋區光復街33巷9號","121.481866666667","25.0190183333333","6500100","板橋區"
"220084","296-UM","2018/03/24 19:49:17","新北市板橋區滿平街44號","121.426865","24.9897233333333","6500100","板橋區"
"220075","303-R5","2018/03/24 19:49:26","新北市板橋區金華街10巷48弄56號","121.459126666667","25.02011","6500100","板橋區"
"220092","307-R5","2018/03/24 19:49:16","新北市板橋區四維路214號","121.463901666667","25.0274666666667","6500100","板橋區"
"220098","317-R6","2018/03/24 19:49:17","新北市板橋區新海路385巷12號","121.458461666667","25.0258283333333","6500100","板橋區"
"220080","461-BY","2018/03/24 19:49:10","新北市板橋區大觀路二段79巷2弄16號","121.447388333333","25.0016083333333","6500100","板橋區"
"220064","486-VK","2018/03/24 19:49:24","新北市板橋區實踐路111號","121.46414","25.00509","6500100","板橋區"
"242042","280-VK","2018/03/24 19:49:18","新北市泰山區中山路二段668號","121.42787","25.03821","6500500","新莊區"
"220088","491-VK","2018/03/24 19:49:09","新北市板橋區大同街89號","121.479966666667","25.0282466666667","6500100","板橋區"
"220035","560-BX","2018/03/24 19:49:09","新北市板橋區新生街29巷7號","121.456476666667","25.0215316666667","6500100","板橋區"
"220063","609-BX","2018/03/24 19:49:24","新北市板橋區三民路一段26號","121.47918","25.02293","6500100","板橋區"
"220091","637-BX","2018/03/24 19:49:11","新北市板橋區民治街85號","121.479493333333","25.0321866666667","6500100","板橋區"
"220057","686-BX","2018/03/24 19:49:24","新北市板橋區信義路243號","121.460288333333","24.9910916666667","6500100","板橋區"
"220077","687-BX","2018/03/24 19:49:20","新北市板橋區僑中一街124巷18弄1號","121.446136666667","25.0138233333333","6500100","板橋區"
"220093","689-BX","2018/03/24 19:49:28","新北市板橋區長江路二段297號","121.47056","25.033165","6500100","板橋區"
"220054","741-BX","2018/03/24 19:49:24","新北市板橋區忠孝路忠義巷15弄35號","121.465636666667","25.004475","6500100","板橋區"
"220102","KEA-2699","2018/03/24 19:49:25","新北市板橋區松柏街50巷35-1號","121.475971666667","25.0296633333333","6500100","板橋區"
"220055","827-TW","2018/03/24 19:49:07","新北市板橋區國慶路149巷4弄16-4號","121.461865","24.9970316666667","6500100","板橋區"
"220067","829-TW","2018/03/24 19:49:25","新北市板橋區長安街138巷1弄25號","121.473563333333","25.009955","6500100","板橋區"
"220068","830-TW","2018/03/24 19:49:15","新北市板橋區中山路二段412巷5號","121.483288333333","25.0207633333333","6500100","板橋區"
"220096","831-TW","2018/03/24 19:49:27","新北市板橋區民生路二段226巷24號","121.470945","25.02197","6500100","板橋區"
"220074","895-R6","2018/03/24 19:49:16","新北市板橋區東門街1-1號","121.458081666667","25.008845","6500100","板橋區"
"220073","985-R7","2018/03/24 19:49:16","新北市板橋區大仁街105號","121.452795","25.0157133333333","6500100","板橋區"
"220097","AAC-210","2018/03/24 19:49:29","新北市板橋區文化路一段285巷20號","121.463861666667","25.0193866666667","6500100","板橋區"
"220070","AAC-253","2018/03/24 19:49:09","新北市板橋區民族路83號","121.465705","25.0086216666667","6500100","板橋區"
