"lineid","car","time","location","longitude","latitude","cityid","cityname"
"234046","148-BY","2018/03/24 19:59:22","新北市永和區成功路一段99號","121.526925","25.0025666666667","6500400","永和區"
"234070","149-BY","2018/03/24 19:59:08","新北市永和區國光路6號","121.51971","25.0084783333333","6500400","永和區"
"234007","207-UY","2018/03/24 19:59:20","新北市永和區保生路22巷17號","121.507073333333","25.0081733333333","6500400","永和區"
"234081","298-R6","2018/03/24 19:59:28","新北市永和區永亨路114號","121.523705","25.0042833333333","6500400","永和區"
"234038","336-UY","2018/03/24 19:59:10","新北市永和區成功路二段112號","121.5266","24.9981166666667","6500400","永和區"
"234064","337-UY","2018/03/24 19:59:25","新北市永和區中正路412巷20弄27號","121.519126666667","25.001285","6500400","永和區"
"234086","338-UY","2018/03/24 19:59:13","新北市永和區福和路152號","121.521658333333","25.0078683333333","6500400","永和區"
"234017","745-BX","2018/03/24 19:59:18","新北市永和區文化路69號","121.513993333333","25.0151016666667","6500400","永和區"
"234030","746-BX","2018/03/24 19:59:19","新北市永和區民生路22巷25號","121.521298333333","24.9969566666667","6500400","永和區"
"234054","KEA-2590","2018/03/24 19:59:19","新北市永和區環河東路一段122號","121.520655","25.015455","6500400","永和區"
"234013","KEA-2591","2018/03/24 19:59:17","新北市永和區保生路55號","121.504721666667","25.0105783333333","6500400","永和區"
"234061","AAD-866","2018/03/24 19:59:09","新北市永和區中正路283巷11號","121.51692","25.0005383333333","6500400","永和區"
"234042","862-TW","2018/03/24 19:59:23","新北市永和區中和路335巷18弄14號","121.507846666667","25.0003266666667","6500400","永和區"
"234050","863-TW","2018/03/24 19:57:55","新北市永和區保安路244號","121.506593333333","25.012685","6500400","永和區"
"234026","9371-KE","2018/03/24 19:59:17","新北市永和區水源街27巷11號","121.51129","25.0039283333333","6500400","永和區"
"234011","9373-KE","2018/03/24 19:59:12","新北市永和區仁愛路352巷124號","121.500241666667","25.008575","6500400","永和區"
"249005","172-UM","2018/03/24 19:59:11","新北市八里區楓林路4號","121.381666666667","25.12944","6502300","八里區"
"249001","173-UM","2018/03/24 19:59:20","新北市八里區中華路二段310號","121.4038","25.1483733333333","6502300","八里區"
"249004","303-UY","2018/03/24 19:59:27","新北市八里區中山路一段221號","121.41113","25.15782","6502300","八里區"
"249002","305-UY","2018/03/24 19:59:15","新北市八里區頂寮一街20-1號","121.452113333333","25.1243983333333","6502300","八里區"
"249003","593-UM","2018/03/24 19:59:23","新北市八里區中華路二段556號","121.398696666667","25.1453316666667","6502300","八里區"
"248016","026-BX","2018/03/24 19:59:28","新北市五股區成泰路三段577巷80弄40號","121.449753333333","25.1048583333333","6501500","五股區"
"248008","095-VK","2018/03/24 19:59:09","新北市五股區中興路一段1巷12弄1號","121.469415","25.07141","6501500","五股區"
"248020","225-UY","2018/03/24 19:59:15","新北市五股區中直路3-11號","121.429318333333","25.1111483333333","6501500","五股區"
"248012","247-BX","2018/03/24 19:59:06","新北市五股區民義路一段128號","121.434601666667","25.08595","6501500","五股區"
"248014","261-SL","2018/03/24 19:59:24","新北市五股區五福路22巷4號","121.434583333333","25.0889416666667","6501500","五股區"
"248010","272-BY","2018/03/24 19:59:14","新北市五股區登林路79-2號","121.427788333333","25.0704916666667","6501500","五股區"
"248002","655-BX","2018/03/24 19:59:24","新北市五股區成泰路三段487號","121.450743333333","25.0992483333333","6501500","五股區"
"248004","682-TV","2018/03/24 19:59:10","新北市五股區成泰路一段8巷2-3號","121.434978333333","25.0668716666667","6501500","五股區"
"234023","9380-KE","2018/03/24 19:59:25","新北市永和區中正路605號","121.516413333333","25.0097483333333","6500400","永和區"
"234077","969-R7","2018/03/24 19:59:26","新北市永和區民有街7號","121.516171666667","24.9969816666667","6500400","永和區"
"234074","AAC-211","2018/03/24 19:59:09","新北市永和區豫溪街215巷27號","121.523491666667","25.0104083333333","6500400","永和區"
"234067","AAC-212","2018/03/24 19:59:18","新北市永和區保生路2號","121.507055","25.0072116666667","6500400","永和區"
"234003","AAC-295","2018/03/24 19:59:19","新北市永和區永和路二段8號","121.51457","25.0102933333333","6500400","永和區"
"243012","AAD-798","2018/03/24 19:59:17","新北市泰山區全興路184號","121.43334","25.0574366666667","6501600","泰山區"
"243011","297-R6","2018/03/24 19:59:22","新北市泰山區明志路三段182巷11號","121.423586666667","25.0392","6501600","泰山區"
"243015","380-SR","2018/03/24 19:59:19","新北市泰山區明志路二段230號","121.426855","25.048715","6501600","泰山區"
"243014","421-VK","2018/03/24 19:59:18","新北市泰山區泰林路二段119號","121.434313333333","25.0596083333333","6501600","泰山區"
"243010","KEA-2215","2018/03/24 19:59:19","新北市泰山區中華街10巷2號","121.42811","25.052425","6501600","泰山區"
"243009","KEA-2216","2018/03/24 19:59:19","新北市泰山區泰林路二段142巷7弄10號","121.4346","25.060635","6501600","泰山區"
"243013","646-TV","2018/03/24 19:47:58","新北市泰山區應化街13號","121.42385","25.04369","6501600","泰山區"
"243016","680-BX","2018/03/24 19:59:07","新北市泰山區新北大道六段411號","121.421496666667","25.03229","6501600","泰山區"
"222003","436-BY","2018/03/24 19:59:09","新北市深坑區埔新街14號","121.620758333333","25.00392","6501800","深坑區"
"222002","659-BX","2018/03/24 19:59:23","新北市深坑區北深路二段81巷8弄3號","121.618265","25.0030783333333","6501800","深坑區"
"231041","002-UM","2018/03/24 19:59:13","新北市新店區中正路352號","121.535923333333","24.9754933333333","6500600","新店區"
"231059","046-UY","2018/03/24 19:59:25","新北市新店區安康路二段194號","121.51123","24.9599933333333","6500600","新店區"
"231061","047-UY","2018/03/24 19:59:20","新北市新店區安興路32號","121.515465","24.9698566666667","6500600","新店區"
"231060","106-UY","2018/03/24 19:59:24","新北市新店區安康路二段454號","121.494391666667","24.9542433333333","6500600","新店區"
"231051","107-UY","2018/03/24 19:59:21","新北市新店區中央五街1號","121.53016","24.9741366666667","6500600","新店區"
"231048","108-UY","2018/03/24 19:59:29","新北市新店區中興路二段236巷6號","121.547923333333","24.9759566666667","6500600","新店區"
"231049","110-UY","2018/03/24 19:59:22","新北市新店區民權路127巷11號","121.535638333333","24.98177","6500600","新店區"
"231052","187-VK","2018/03/24 19:59:22","新北市新店區新烏路三段寶島巷2弄3號","121.551963333333","24.898595","6500600","新店區"
"231050","KEA-2219","2018/03/24 19:59:23","新北市新店區光明街187號","121.539863333333","24.9633383333333","6500600","新店區"
"231057","256-BX","2018/03/24 19:59:12","新北市新店區花園二路一段11號","121.555526666667","24.9324533333333","6500600","新店區"
"231046","278-BY","2018/03/24 19:59:25","新北市新店區安德街116巷30號","121.508441666667","24.9618183333333","6500600","新店區"
"231054","AAD-862","2018/03/24 19:59:17","新北市新店區中興路一段24-2號","121.538498333333","24.9582166666667","6500600","新店區"
"231058","3712-VJ","2018/03/24 19:59:16","新北市新店區吉安街39號","121.515466666667","24.9661483333333","6500600","新店區"
"231056","3713-VJ","2018/03/24 19:59:28","新北市新店區北新路三段125號","121.541403333333","24.98261","6500600","新店區"
"231055","4716-K9","2018/03/24 19:59:18","新北市新店區中華路83巷25號","121.5387","24.9679833333333","6500600","新店區"
"231067","4772-VM","2018/03/24 19:59:17","新北市新店區秀山路45巷23號","121.53092","24.9598016666667","6500600","新店區"
"231065","512-UM","2018/03/24 19:59:10","新北市新店區安祥路109巷3弄2號","121.475166666667","24.9594216666667","6500600","新店區"
"231064","513-UM","2018/03/24 19:59:20","新北市新店區碧安街36號","121.51752","24.9690583333333","6500600","新店區"
"231045","617-UM","2018/03/24 19:59:13","新北市新店區北宜路二段82-13號","121.554685","24.95348","6500600","新店區"
"231040","619-UM","2018/03/24 19:59:25","新北市新店區中正路64號","121.544213333333","24.970135","6500600","新店區"
"231042","641-BX","2018/03/24 19:59:19","新北市新店區中興路二段100巷2號","121.547363333333","24.971465","6500600","新店區"
"231063","645-TV","2018/03/24 19:59:10","新北市新店區黎明路57巷1號","121.502403333333","24.947985","6500600","新店區"
"231068","718-UY","2018/03/24 19:59:11","新北市新店區太平路8號","121.535288333333","24.9586233333333","6500600","新店區"
"231062","720-UM","2018/03/24 19:59:15","新北市新店區華城路10巷1-3號","121.528821666667","24.9577683333333","6500600","新店區"
"231044","897-TW","2018/03/24 19:59:17","新北市新店區寶慶街58巷6號","121.54212","24.987035","6500600","新店區"
"231043","899-TW","2018/03/24 19:59:19","新北市新店區中正路263-3號","121.538278333333","24.9737083333333","6500600","新店區"
"231066","AKT-0513","2018/03/24 19:59:18","新北市新店區柴埕路37號","121.513705","24.9656233333333","6500600","新店區"
"241011","013-R5","2018/03/24 19:59:10","新北市三重區三和路二段165號","121.497938333333","25.06959","6500200","三重區"
"241028","022-UY","2018/03/24 19:59:09","新北市三重區中正南路41巷1號","121.493886666667","25.05986","6500200","三重區"
"241008","059-VK","2018/03/24 19:59:26","新北市三重區永福街179巷17號","121.47828","25.074915","6500200","三重區"
"241009","060-VK","2018/03/24 19:59:25","新北市三重區三和路四段388-2號","121.482066666667","25.0791316666667","6500200","三重區"
"241031","061-VK","2018/03/24 19:59:08","新北市三重區重新路四段184巷16號","121.487083333333","25.054945","6500200","三重區"
"241015","062-VK","2018/03/24 19:59:14","新北市三重區三和路二段8號","121.501043333333","25.0669133333333","6500200","三重區"
"241017","063-VK","2018/03/24 19:59:10","新北市三重區自強路一段304號","121.491286666667","25.0683283333333","6500200","三重區"
"241024","065-VK","2018/03/24 19:59:21","新北市三重區力行路二段1號","121.481986666667","25.0718466666667","6500200","三重區"
"241026","066-VK","2018/03/24 19:59:25","新北市三重區重新路一段106號","121.500953333333","25.0632","6500200","三重區"
"241003","091-VK","2018/03/24 19:59:07","新北市三重區仁愛街445巷8號","121.490288333333","25.0826516666667","6500200","三重區"
"241005","262-UM","2018/03/24 19:59:25","新北市三重區溪尾街380號","121.48895","25.08573","6500200","三重區"
"241016","265-UM","2018/03/24 19:59:14","新北市三重區正義北路36巷8號","121.496813333333","25.06337","6500200","三重區"
"241022","267-UM","2018/03/24 19:59:23","新北市三重區過圳街31巷5號","121.489235","25.0604633333333","6500200","三重區"
"241018","268-UM","2018/03/24 19:59:08","新北市三重區正義北路244巷88號","121.49362","25.067575","6500200","三重區"
"241032","269-UM","2018/03/24 19:59:14","新北市三重區朝陽街27號","121.483556666667","25.0566","6500200","三重區"
"241013","270-UM","2018/03/24 19:59:25","新北市三重區三和路三段125巷33號","121.493968333333","25.07362","6500200","三重區"
"241007","398-BY","2018/03/24 19:59:25","新北市三重區慈愛街133號","121.488815","25.0797833333333","6500200","三重區"
"241020","413-TH","2018/03/24 19:59:27","新北市三重區大智街167號","121.489993333333","25.0724883333333","6500200","三重區"
"241035","462-BY","2018/03/24 19:59:11","新北市三重區大榮街7號","121.498155","25.0631366666667","6500200","三重區"
"241004","475-VK","2018/03/24 19:59:10","新北市三重區五華街74號","121.493405","25.0819816666667","6500200","三重區"
"241019","478-VK","2018/03/24 19:59:11","新北市三重區重陽路四段20-1號","121.491185","25.0694166666667","6500200","三重區"
"241030","480-VK","2018/03/24 19:59:24","新北市三重區重新路四段248-1號","121.486211666667","25.05336","6500200","三重區"
"241014","543-UM","2018/03/24 19:59:14","新北市三重區三和路二段117號","121.49918","25.0689433333333","6500200","三重區"
"241023","545-UM","2018/03/24 19:59:09","新北市三重區頂崁街172號","121.477625","25.065935","6500200","三重區"
"241001","547-UM","2018/03/24 19:59:08","新北市三重區仁愛街283巷36號","121.494306666667","25.07991","6500200","三重區"
"241033","557-UM","2018/03/24 19:59:27","新北市三重區中興北街26號","121.4697","25.04865","6500200","三重區"
"241006","AAD-863","2018/03/24 19:59:23","新北市三重區力行路二段61號","121.482135","25.07487","6500200","三重區"
"241025","887-TS","2018/03/24 19:59:10","新北市三重區頂崁街210巷16號","121.4764","25.0678066666667","6500200","三重區"
"241012","941-UM","2018/03/24 19:59:16","新北市三重區仁厚街61號","121.500708333333","25.07667","6500200","三重區"
"241029","942-UM","2018/03/24 19:59:25","新北市三重區重安街1號","121.489785","25.0582433333333","6500200","三重區"
"235066","003-UY","2018/03/24 19:59:18","新北市中和區中山路二段67號","121.504065","25.004425","6500300","中和區"
"235056","096-UM","2018/03/24 19:59:18","新北市中和區中山路三段170巷2弄1號","121.472865","25.0066583333333","6500300","中和區"
"235039","097-UM","2018/03/24 19:59:21","新北市中和區景平路240巷1弄8號","121.515013333333","24.9933983333333","6500300","中和區"
"235065","098-UM","2018/03/24 19:59:13","新北市中和區福祥路52號","121.499391666667","25.004545","6500300","中和區"
"235040","150-BY","2018/03/24 19:59:22","新北市中和區保健路7巷4號","121.508175","24.998575","6500300","中和區"
"235058","151-BY","2018/03/24 19:59:25","新北市中和區員山路150巷2弄33號","121.481708333333","24.9976366666667","6500300","中和區"
"235055","183-VK","2018/03/24 19:59:24","新北市中和區民生街12巷1號","121.47047","25.0055366666667","6500300","中和區"
"235049","186-VK","2018/03/24 19:59:27","新北市中和區景平路518號","121.503453333333","24.9939516666667","6500300","中和區"
"235067","255-BX","2018/03/24 19:59:21","新北市中和區員山路148巷23弄30號","121.482303333333","24.9979883333333","6500300","中和區"
"235044","293-VK","2018/03/24 19:59:13","新北市中和區板南路123-1號","121.502105","24.9925616666667","6500300","中和區"
"235043","352-BY","2018/03/24 19:59:20","新北市中和區興南路二段159巷1號","121.505175","24.9833316666667","6500300","中和區"
"235068","377-QA","2018/03/24 19:59:10","新北市中和區中山路二段250巷24號","121.497295","25.0033666666667","6500300","中和區"
"235061","378-QA","2018/03/24 19:59:27","新北市中和區員山路263號","121.481251666667","24.99922","6500300","中和區"
"235069","4980-A6","2018/03/24 19:59:22","新北市中和區景新街132巷18號","121.504345","24.99775","6500300","中和區"
"235042","551-UM","2018/03/24 19:59:06","新北市新店區環河路550號","121.52624","24.9843016666667","6500300","中和區"
"235070","558-UM","2018/03/24 19:59:17","新北市中和區圓通路160號","121.497766666667","24.9955166666667","6500300","中和區"
"235054","640-BX","2018/03/24 19:59:27","新北市中和區莒光路80號","121.472316666667","25.0028166666667","6500300","中和區"
"235047","732-UM","2018/03/24 19:59:18","新北市中和區和平街97-1號","121.505298333333","24.9921633333333","6500300","中和區"
"235046","733-UM","2018/03/24 19:59:10","新北市中和區興南路一段93巷47號","121.510145","24.9875083333333","6500300","中和區"
"235057","801-TS","2018/03/24 19:59:26","新北市板橋區民生路二段56-6號","121.470936666667","25.0188733333333","6500300","中和區"
"235041","802-TS","2018/03/24 19:59:22","新北市中和區安平路154號","121.51249","24.9983883333333","6500300","中和區"
"235052","805-TS","2018/03/24 19:59:16","新北市中和區華新街30巷14號","121.507","24.984205","6500300","中和區"
"235048","896-TW","2018/03/24 19:59:16","新北市中和區景新街385號","121.512386666667","24.9900916666667","6500300","中和區"
"235053","900-TW","2018/03/24 19:59:18","新北市中和區民德路276號","121.468133333333","24.9963316666667","6500300","中和區"
"235051","157-BY","2018/03/24 19:59:24","新北市中和區中興街233巷10號","121.501525","24.98949","6500300","中和區"
"235037","AAC-213","2018/03/24 19:59:20","新北市中和區自立路99巷24號","121.523405","24.9945316666667","6500300","中和區"
"235059","AAC-215","2018/03/24 19:59:25","新北市中和區圓通路333號","121.491963333333","24.9904833333333","6500300","中和區"
"220065","072-UY","2018/03/24 19:59:20","新北市板橋區區運路28號","121.465631666667","25.00954","6500100","板橋區"
"220086","073-UY","2018/03/24 19:59:15","新北市新莊區三和路12-9號","121.442275","25.0366","6500100","板橋區"
"220069","AAD-861","2018/03/24 19:59:26","新北市板橋區大明街11號","121.45904","25.0025166666667","6500100","板橋區"
"247024","893-R6","2018/03/24 19:59:13","新北市蘆洲區光明路112巷29弄13號","121.464261666667","25.0877133333333","6501400","蘆洲區"
"247014","546-UM","2018/03/24 19:59:23","新北市蘆洲區成功路133號","121.47233","25.0823616666667","6501400","蘆洲區"
"247004","337-TH","2018/03/24 19:59:25","新北市蘆洲區永康街75號","121.455853333333","25.085185","6501400","蘆洲區"
"247006","336-TH","2018/03/24 19:59:21","新北市蘆洲區九芎街88號","121.465928333333","25.0797866666667","6501400","蘆洲區"
"247018","057-VK","2018/03/24 19:59:26","新北市蘆洲區民族路280號","121.47838","25.0895","6501400","蘆洲區"
"247008","056-VK","2018/03/24 19:59:22","新北市蘆洲區信義路95號","121.477823333333","25.07991","6501400","蘆洲區"
"247002","053-VK","2018/03/24 19:59:22","新北市蘆洲區長安街274巷9號","121.457915","25.0870533333333","6501400","蘆洲區"
"247016","007-UY","2018/03/24 19:59:26","新北市蘆洲區光華路1號","121.469941666667","25.083575","6501400","蘆洲區"
"247020","001-UY","2018/03/24 19:59:17","新北市蘆洲區民義街59號","121.472908333333","25.08986","6501400","蘆洲區"
"228003","097-TW","2018/03/24 19:59:12","新北市貢寮區仁理村仁和路186號","121.923361666667","25.0524","6502600","貢寮區"
"224010","AGQ-8101","2018/03/24 19:56:34","新北市瑞芳區烏勢巷147號","121.846871666667","25.1077033333333","6501200","瑞芳區"
"227010","642-TC","2018/03/24 19:59:24","新北市雙溪區新基里新基南街25號","121.86628","25.038145","6502500","雙溪區"
"227002","400-TW","2018/03/24 19:59:19","新北市雙溪區雙溪里長安街16號","121.864983333333","25.0347066666667","6502500","雙溪區"
"222001","KEA-2212","2018/03/24 19:59:27","新北市深坑區北深路三段164號","121.602303333333","25.0033866666667","6501800","深坑區"
"208002","KEA-2872","2018/03/24 19:59:13","新北市金山區環金路201號","121.633341666667","25.218675","6502700","金山區"
"208003","665-BX","2018/03/24 19:59:11","新北市金山區永興里忠義路29-1號","121.630791666667","25.263315","6502700","金山區"
"208001","761-BX","2018/03/24 19:59:14","新北市金山區南勢湖30號","121.613645","25.2179533333333","6502700","金山區"
"251009","008-UM","2018/03/24 19:59:18","新北市淡水區英專路28巷18號","121.44595","25.1698633333333","6501000","淡水區"
"251004","009-UM","2018/03/24 19:59:02","新北市淡水區民權路177巷18號","121.460603333333","25.1352766666667","6501000","淡水區"
"251013","179-VK","2018/03/24 19:59:20","新北市淡水區奎柔山路63號","121.451703333333","25.2062066666667","6501000","淡水區"
"251014","180-VK","2018/03/24 19:59:23","新北市淡水區石頭厝14-53號","121.46413","25.23668","6501000","淡水區"
"251008","181-VK","2018/03/24 19:59:18","新北市淡水區淡海路72巷2號","121.423286666667","25.1809633333333","6501000","淡水區"
"251015","182-VK","2018/03/24 19:59:15","新北市淡水區泉洲厝25-8號","121.484","25.1898833333333","6501000","淡水區"
"251010","413-VK","2018/03/24 19:59:25","新北市淡水區崁頂92號","121.429785","25.20327","6501000","淡水區"
"251012","441-VK","2018/03/24 19:59:20","新北市淡水區下圭柔山114-2號","121.445976666667","25.2089433333333","6501000","淡水區"
"251016","442-VK","2018/03/24 19:59:27","新北市淡水區淡金路四段545號","121.451578333333","25.229625","6501000","淡水區"
"251005","443-VK","2018/03/24 19:59:22","新北市淡水區學府路136巷26號","121.451466666667","25.1726616666667","6501000","淡水區"
"251001","559-UM","2018/03/24 19:59:22","新北市淡水區淡金路一段567號","121.45313","25.1807","6501000","淡水區"
"251006","561-UM","2018/03/24 19:59:00","新北市淡水區水碓街51號","121.44413","25.177385","6501000","淡水區"
"251011","650-BX","2018/03/24 19:59:13","新北市淡水區崁頂57-7號","121.442758333333","25.1973166666667","6501000","淡水區"
"251002","672-BX","2018/03/24 19:59:07","新北市淡水區沙崙路1號","121.420686666667","25.18089","6501000","淡水區"
"207003","291-VK","2018/03/24 19:59:27","新北市萬里區磺潭里公館崙5號","121.641906666667","25.2142733333333","6502800","萬里區"
"207004","225-TW","2018/03/24 19:59:14","新北市萬里區北基里忠二街35號","121.685648333333","25.1757566666667","6502800","萬里區"
"252002","178-VK","2018/03/24 19:59:20","新北市三芝區忠孝街116-3號","121.50546","25.2575183333333","6502100","三芝區"
"252001","292-VK","2018/03/24 19:59:19","新北市三芝區公正街66號","121.4998","25.2574833333333","6502100","三芝區"
"237004","KEA-2597","2018/03/24 19:59:12","新北市三峽區添福6號","121.371993333333","24.9058633333333","6500900","三峽區"
"237007","153-BY","2018/03/24 19:59:23","新北市三峽區麻園36-12號","121.363761666667","24.9203116666667","6500900","三峽區"
"237009","210-TH","2018/03/24 19:59:20","新北市三峽區民族街8號","121.369003333333","24.931345","6500900","三峽區"
"237013","252-BX","2018/03/24 19:59:21","新北市三峽區大義路398號","121.376175","24.9495466666667","6500900","三峽區"
"237012","275-BY","2018/03/24 19:59:26","新北市三峽區中華路3巷2號","121.37464","24.9325083333333","6500900","三峽區"
"237008","302-VK","2018/03/24 19:59:26","新北市三峽區中正路一段174巷16號","121.371831666667","24.9289483333333","6500900","三峽區"
"237006","5529-G3","2018/03/24 19:59:17","新北市三峽區正義街9號","121.36997","24.9200016666667","6500900","三峽區"
"237005","AKY-6261","2018/03/24 19:59:14","新北市三峽區民生街1巷7號","121.379726666667","24.9358883333333","6500900","三峽區"
"236073","105-UM","2018/03/24 19:59:20","新北市土城區忠義路92號","121.444346666667","24.9623333333333","6501300","土城區"
"236079","166-UM","2018/03/24 19:59:22","新北市土城區福安街57號","121.418396666667","24.9644633333333","6501300","土城區"
"236031","253-BX","2018/03/24 19:59:15","新北市土城區中央路一段256巷2號","121.444066666667","24.9845716666667","6501300","土城區"
"236026","269-VK","2018/03/24 19:59:21","新北市土城區員林街1號","121.442341666667","24.97821","6501300","土城區"
"236015","270-VK","2018/03/24 19:59:24","新北市土城區廣福街123號","121.456285","24.99295","6501300","土城區"
"236038","271-VK","2018/03/24 19:59:11","新北市土城區國際路60號","121.466551666667","24.9775483333333","6501300","土城區"
"236023","401-BY","2018/03/24 19:59:22","新北市土城區延吉街137巷2弄1號","121.470866666667","24.98582","6501300","土城區"
"236059","912-UM","2018/03/24 19:59:23","新北市土城區中央路一段160號","121.445973333333","24.98708","6501300","土城區"
"236049","913-UM","2018/03/24 19:59:11","新北市土城區金城路三段257號","121.471871666667","24.9900483333333","6501300","土城區"
"236063","915-UM","2018/03/24 19:59:22","新北市土城區金城路三段73巷4弄1號","121.46634","24.9878783333333","6501300","土城區"
"236055","AAC-216","2018/03/24 19:59:21","新北市土城區青雲路35號","121.460188333333","24.98835","6501300","土城區"
"242034","AAC-296","2018/03/24 19:59:22","新北市新莊區建中街79號","121.447336666667","25.0366933333333","6500500","新莊區"
"242058","986-R7","2018/03/24 19:59:16","新北市新莊區八德街111號","121.424166666667","25.02092","6500500","新莊區"
"242053","751-BX","2018/03/24 19:59:10","新北市新莊區西盛街418號","121.427193333333","25.0122066666667","6500500","新莊區"
"242029","705-TV","2018/03/24 19:59:14","新北市新莊區中榮街152巷53號","121.445818333333","25.05375","6500500","新莊區"
"242025","613-BX","2018/03/24 19:59:10","新北市新莊區五工一路86號","121.46138","25.0675983333333","6500500","新莊區"
"242046","497-BY","2018/03/24 19:59:16","新北市新莊區裕民街19巷4號","121.419681666667","25.02519","6500500","新莊區"
"242004","442-UM","2018/03/24 19:59:11","新北市新莊區化成路436號","121.466048333333","25.051345","6500500","新莊區"
"242051","441-UM","2018/03/24 19:59:22","新北市新莊區西盛街170號","121.428181666667","25.0190933333333","6500500","新莊區"
"242056","440-UM","2018/03/24 19:59:18","新北市新莊區中正路347巷21號","121.447351666667","25.03418","6500500","新莊區"
"242036","415-TV","2018/03/24 19:59:22","新北市新莊區建安街41巷2號","121.428913333333","25.0254783333333","6500500","新莊區"
"242007","413-TV","2018/03/24 19:59:26","新北市新莊區思源路593巷3號","121.459301666667","25.0595933333333","6500500","新莊區"
"242044","400-BY","2018/03/24 19:59:13","新北市新莊區中正路742巷3弄11號","121.412963333333","25.0230233333333","6500500","新莊區"
"242023","362-BY","2018/03/24 19:59:27","新北市新莊區化成路424號","121.466013333333","25.0510866666667","6500500","新莊區"
"242061","353-BY","2018/03/24 19:59:21","新北市新莊區瓊泰路39號","121.4438","25.02858","6500500","新莊區"
"242039","133-UY","2018/03/24 19:59:12","新北市新莊區民安路287-3號","121.428836666667","25.02299","6500500","新莊區"
"242031","135-UY","2018/03/24 19:59:19","新北市新莊區中正路372-1號","121.443526666667","25.0345033333333","6500500","新莊區"
"242048","172-VK","2018/03/24 19:59:26","新北市新莊區富國路148號","121.422991666667","25.0247616666667","6500500","新莊區"
"242017","175-VK","2018/03/24 19:59:25","新北市新莊區中華路二段3巷23號","121.453146666667","25.0461883333333","6500500","新莊區"
"242015","346-TH","2018/03/24 19:59:17","新北市新莊區泰安街46號","121.446946666667","25.04243","6500500","新莊區"
"242021","348-TH","2018/03/24 19:59:07","新北市新莊區建中街16巷27號","121.449123333333","25.0386733333333","6500500","新莊區"
"242002","349-TH","2018/03/24 19:59:19","新北市新莊區中正路219號","121.451","25.035825","6500500","新莊區"
"242019","350-TH","2018/03/24 19:59:22","新北市新莊區長青街37巷3號","121.45641","25.0420083333333","6500500","新莊區"
"242013","351-TH","2018/03/24 19:59:10","新北市新莊區中信街7號","121.451335","25.0506983333333","6500500","新莊區"
"238021","KEA-2539","2018/03/24 19:59:22","新北市樹林區佳園路三段101巷80弄10號","121.394255","24.9496133333333","6500700","樹林區"
"221036","130-UY","2018/03/24 19:59:25","新北市汐止區忠孝東路258巷16弄2號","121.663671666667","25.0672583333333","6501100","汐止區"
"221015","131-UY","2018/03/24 19:59:17","新北市汐止區橋東街46號","121.665615","25.075045","6501100","汐止區"
"221010","269-BY","2018/03/24 19:59:30","新北市汐止區連峰街225巷27號","121.643965","25.080975","6501100","汐止區"
"221012","278-VK","2018/03/24 19:59:18","新北市汐止區大同路三段306號","121.678603333333","25.071155","6501100","汐止區"
"221023","279-VK","2018/03/24 19:59:16","新北市汐止區明峰街298巷1-1號","121.625196666667","25.0679583333333","6501100","汐止區"
"221032","280-BY","2018/03/24 19:59:08","新北市汐止區橫科路4巷1弄10號","121.61786","25.0507566666667","6501100","汐止區"
"221027","281-BY","2018/03/24 19:59:21","新北市汐止區中正路89號","121.661215","25.0694183333333","6501100","汐止區"
"221029","298-VK","2018/03/24 19:59:14","新北市汐止區樟樹一路137巷26號","121.641026666667","25.066","6501100","汐止區"
"221021","299-VK","2018/03/24 19:59:28","新北市汐止區水源路一段163號","121.655495","25.0620333333333","6501100","汐止區"
"221031","353-TW","2018/03/24 19:59:18","新北市汐止區中興路132-1號","121.633206666667","25.0643716666667","6501100","汐止區"
"221008","129-UY","2018/03/24 19:59:22","新北市汐止區忠一街9巷7號","121.620473333333","25.0731816666667","6501100","汐止區"
"221035","622-UM","2018/03/24 19:59:23","新北市汐止區長江街47號","121.655976666667","25.07133","6501100","汐止區"
"221025","623-UM","2018/03/24 19:59:10","新北市汐止區秀峰路107號","121.660268333333","25.0634116666667","6501100","汐止區"
"221038","646-BX","2018/03/24 19:59:21","新北市汐止區橋東街27巷4號","121.666705","25.0752316666667","6501100","汐止區"
"221033","647-BX","2018/03/24 19:59:23","新北市汐止區東勢街201巷2號","121.63373","25.04204","6501100","汐止區"
"220079","145-BY","2018/03/24 19:59:26","新北市板橋區南雅西路二段175巷1號","121.451555","25.0124616666667","6500100","板橋區"
"220106","KEA-2550","2018/03/24 19:59:15","新北市板橋區民治街55號","121.479428333333","25.0334716666667","6500100","板橋區"
"220101","245-BX","2018/03/24 19:59:07","新北市板橋區莒光路180巷3號","121.473725","25.02275","6500100","板橋區"
"220103","257-TC","2018/03/24 19:59:20","新北市板橋區文化路一段421巷15號","121.466501666667","25.0230466666667","6500100","板橋區"
"220072","277-BY","2018/03/24 19:59:26","新北市板橋區篤行路二段31巷24號","121.432696666667","24.992495","6500100","板橋區"
"220089","280-UM","2018/03/24 19:59:16","新北市板橋區新海路403巷4號","121.458301666667","25.0267233333333","6500100","板橋區"
"220071","283-VK","2018/03/24 19:59:29","新北市板橋區和平路174巷25號","121.464621666667","24.9945216666667","6500100","板橋區"
"220094","285-UM","2018/03/24 19:59:28","新北市板橋區文德路11號","121.462646666667","25.0243733333333","6500100","板橋區"
"220053","285-VK","2018/03/24 19:59:26","新北市板橋區永豐街129號","121.474675","25.0198083333333","6500100","板橋區"
"220083","286-VK","2018/03/24 19:59:21","新北市板橋區僑中二街22號","121.446026666667","25.0106366666667","6500100","板橋區"
"220081","287-VK","2018/03/24 19:59:07","新北市板橋區僑中一街80巷6弄1號","121.447705","25.012175","6500100","板橋區"
"220090","288-VK","2018/03/24 19:59:24","新北市板橋區幸福路32巷2弄47號","121.460681666667","25.0223533333333","6500100","板橋區"
"220061","293-UM","2018/03/24 19:59:13","新北市板橋區觀光街79巷1號","121.469521666667","25.0168133333333","6500100","板橋區"
"220062","295-UM","2018/03/24 19:59:16","新北市板橋區中山路二段613號","121.485496666667","25.02253","6500100","板橋區"
"220084","296-UM","2018/03/24 19:59:17","新北市樹林區水源街213號","121.424065","24.9872966666667","6500100","板橋區"
"242011","281-VK","2018/03/24 19:59:09","新北市新莊區中義街46號","121.449546666667","25.051335","6500500","新莊區"
"220075","303-R5","2018/03/24 19:59:26","新北市板橋區金華街10巷84號","121.457971666667","25.0203533333333","6500100","板橋區"
"220092","307-R5","2018/03/24 19:59:16","新北市板橋區互助街89號","121.45978","25.0256916666667","6500100","板橋區"
"220098","317-R6","2018/03/24 19:59:17","新北市板橋區漢生西路165巷1號","121.4627","25.0232616666667","6500100","板橋區"
"220080","461-BY","2018/03/24 19:59:21","新北市板橋區大觀路二段179巷33號","121.44644","24.9994683333333","6500100","板橋區"
"220064","486-VK","2018/03/24 19:59:22","新北市板橋區海山路37-1號","121.467241666667","25.0096283333333","6500100","板橋區"
"242042","280-VK","2018/03/24 19:59:20","新北市新莊區青山路一段30號","121.41081","25.027705","6500500","新莊區"
"220088","491-VK","2018/03/24 19:59:09","新北市板橋區民治街106號","121.478381666667","25.0314383333333","6500100","板橋區"
"220035","560-BX","2018/03/24 19:59:09","新北市板橋區新生街37號","121.456786666667","25.021155","6500100","板橋區"
"220091","637-BX","2018/03/24 19:59:12","新北市板橋區懷德街158巷5號","121.478566666667","25.0304866666667","6500100","板橋區"
"220057","686-BX","2018/03/24 19:59:15","新北市板橋區南雅南路二段49號","121.451431666667","24.9943966666667","6500100","板橋區"
"220093","689-BX","2018/03/24 19:59:08","新北市板橋區長江路三段118號","121.475176666667","25.034275","6500100","板橋區"
"220054","741-BX","2018/03/24 19:59:23","新北市板橋區忠孝路201巷76號","121.464671666667","25.0043466666667","6500100","板橋區"
"220102","KEA-2699","2018/03/24 19:59:26","新北市板橋區仁化街66號","121.475895","25.031835","6500100","板橋區"
"220055","827-TW","2018/03/24 19:59:27","新北市板橋區仁愛路64號","121.45987","24.9994266666667","6500100","板橋區"
"220067","829-TW","2018/03/24 19:59:25","新北市板橋區漢生東路193巷38號","121.47234","25.0119266666667","6500100","板橋區"
"220068","830-TW","2018/03/24 19:59:15","新北市板橋區光復街172巷29號","121.48565","25.018915","6500100","板橋區"
"220096","831-TW","2018/03/24 19:59:10","新北市板橋區文化路一段370號","121.46988","25.023525","6500100","板橋區"
"220074","895-R6","2018/03/24 19:59:15","新北市板橋區民權路77號","121.46117","25.0117633333333","6500100","板橋區"
"220073","985-R7","2018/03/24 19:59:29","新北市板橋區南雅西路二段44號","121.452766666667","25.0100983333333","6500100","板橋區"
"220097","AAC-210","2018/03/24 19:59:15","新北市板橋區光正街45巷29號","121.46166","25.0160383333333","6500100","板橋區"
"220070","AAC-253","2018/03/24 19:59:16","新北市板橋區成都街12號","121.460481666667","25.0047733333333","6500100","板橋區"
