"lineid","car","time","location","longitude","latitude","cityid","cityname"
"234030","746-BX","2018/03/24 20:39:19","新北市新店區安德街116巷46號","121.507883333333","24.9615983333333","6500400","永和區"
"234061","AAD-866","2018/03/24 20:39:09","新北市永和區秀朗路一段175號","121.517101666667","25.00364","6500400","永和區"
"234050","863-TW","2018/03/24 20:39:15","台北市文山區溪洲街195號","121.53531","25.0009633333333","6500400","永和區"
"249001","173-UM","2018/03/24 20:39:20","新北市八里區中山路三段383號","121.372491666667","25.1376283333333","6502300","八里區"
"249004","303-UY","2018/03/24 20:39:27","新北市八里區中山路一段89號","121.41654","25.1593016666667","6502300","八里區"
"234023","9380-KE","2018/03/24 20:39:25","新北市永和區竹林路25巷34號","121.518176666667","25.0149483333333","6500400","永和區"
"234074","AAC-211","2018/03/24 20:39:29","新北市永和區竹林路119巷20號","121.521188333333","25.01144","6500400","永和區"
"243011","297-R6","2018/03/24 20:39:17","新北市泰山區泰林路二段608號","121.421268333333","25.063785","6501600","泰山區"
"243014","421-VK","2018/03/24 20:39:13","新北市泰山區泰林路三段745巷145號","121.40562","25.0677566666667","6501600","泰山區"
"243016","680-BX","2018/03/24 20:39:07","新北市泰山區公園路89號","121.424865","25.0555533333333","6501600","泰山區"
"222003","436-BY","2018/03/24 20:39:29","新北市深坑區深坑街151號","121.613081666667","25.00112","6501800","深坑區"
"222002","659-BX","2018/03/24 20:39:23","新北市深坑區萬福路45號","121.599511666667","25.0068683333333","6501800","深坑區"
"231041","002-UM","2018/03/24 20:39:13","新北市新店區中正路683號","121.533843333333","24.9904266666667","6500600","新店區"
"231059","046-UY","2018/03/24 20:39:25","新北市新店區僑愛一路1號","121.499881666667","24.94491","6500600","新店區"
"231061","047-UY","2018/03/24 20:39:21","新北市新店區新和街59巷2號","121.519918333333","24.9856333333333","6500600","新店區"
"231060","106-UY","2018/03/24 20:39:24","新北市新店區安康路三段738號","121.473835","24.94198","6500600","新店區"
"231051","107-UY","2018/03/24 20:39:21","新北市新店區中央八街86號","121.527038333333","24.97735","6500600","新店區"
"231048","108-UY","2018/03/24 20:39:09","新北市新店區寶慶街2號","121.544256666667","24.9867716666667","6500600","新店區"
"231049","110-UY","2018/03/24 20:39:22","新北市新店區永業路81巷5弄23號","121.53073","24.949675","6500600","新店區"
"231052","187-VK","2018/03/24 20:39:22","新北市新店區廣興路7-10號","121.545746666667","24.911765","6500600","新店區"
"231050","KEA-2219","2018/03/24 20:39:23","新北市新店區中正路265巷2號","121.537983333333","24.9737933333333","6500600","新店區"
"231057","256-BX","2018/03/24 20:39:12","新北市新店區花園六路二段7號","121.555263333333","24.9332533333333","6500600","新店區"
"231054","AAD-862","2018/03/24 20:39:17","新北市新店區行政街26號","121.542846666667","24.9655916666667","6500600","新店區"
"231058","3712-VJ","2018/03/24 20:39:16","新北市新店區平等街17號","121.536833333333","24.9738933333333","6500600","新店區"
"231056","3713-VJ","2018/03/24 20:39:28","新北市新店區民生路75巷225-1號","121.532993333333","24.9815533333333","6500600","新店區"
"231065","512-UM","2018/03/24 20:39:10","新北市新店區安祥路102巷126號","121.486581666667","24.9642483333333","6500600","新店區"
"231064","513-UM","2018/03/24 20:39:20","新北市新店區安和路三段138號","121.516238333333","24.9860983333333","6500600","新店區"
"231045","617-UM","2018/03/24 20:39:13","新北市新店區長春路40號","121.550415","24.9575216666667","6500600","新店區"
"231040","619-UM","2018/03/24 20:39:25","新北市新店區中正路263巷4號","121.53843","24.9734383333333","6500600","新店區"
"231042","641-BX","2018/03/24 20:39:07","新北市新店區寶高路118號","121.554486666667","24.9759333333333","6500600","新店區"
"231063","645-TV","2018/03/24 20:39:10","新北市新店區玫瑰路4-1號","121.493586666667","24.95135","6500600","新店區"
"231068","718-UY","2018/03/24 20:39:11","新北市新店區寶元路一段85巷8號","121.543103333333","24.9857833333333","6500600","新店區"
"231062","720-UM","2018/03/24 20:39:15","新北市新店區安泰路11巷1號","121.485515","24.950155","6500600","新店區"
"231044","897-TW","2018/03/24 20:39:17","新北市新店區建國路293巷1號","121.536698333333","24.9861783333333","6500600","新店區"
"231043","899-TW","2018/03/24 20:39:18","新北市新店區博愛街13巷24號","121.540301666667","24.97406","6500600","新店區"
"231066","AKT-0513","2018/03/24 20:39:18","新北市新店區安興路112號","121.514638333333","24.97757","6500600","新店區"
"241011","013-R5","2018/03/24 20:39:10","新北市三重區龍濱路217號","121.501938333333","25.0719983333333","6500200","三重區"
"241028","022-UY","2018/03/24 20:39:29","新北市三重區光興街93號","121.497338333333","25.0598883333333","6500200","三重區"
"241008","059-VK","2018/03/24 20:39:26","新北市三重區下竹圍街42號","121.481066666667","25.074855","6500200","三重區"
"241009","060-VK","2018/03/24 20:39:25","新北市三重區碧華街57號","121.484748333333","25.0812316666667","6500200","三重區"
"241031","061-VK","2018/03/24 20:39:28","新北市三重區重陽路一段113巷1弄49號","121.488031666667","25.0586666666667","6500200","三重區"
"241015","062-VK","2018/03/24 20:39:14","新北市三重區文化北路105號","121.497766666667","25.0684933333333","6500200","三重區"
"241017","063-VK","2018/03/24 20:39:10","新北市三重區大同北路269號","121.490875","25.0673216666667","6500200","三重區"
"241024","065-VK","2018/03/24 20:39:21","新北市三重區中正北路173號","121.477938333333","25.069345","6500200","三重區"
"241026","066-VK","2018/03/24 20:39:25","新北市三重區和平街1號","121.500096666667","25.0623583333333","6500200","三重區"
"241002","090-VK","2018/03/24 20:39:11","新北市三重區仁義街167巷24號","121.49791","25.0820883333333","6500200","三重區"
"241003","091-VK","2018/03/24 20:39:27","新北市三重區五華街141巷58號","121.493471666667","25.0867433333333","6500200","三重區"
"241005","262-UM","2018/03/24 20:39:25","新北市三重區仁義街288號","121.49342","25.0861383333333","6500200","三重區"
"241016","265-UM","2018/03/24 20:39:14","新北市三重區長壽西街122號","121.495225","25.0669716666667","6500200","三重區"
"241022","267-UM","2018/03/24 20:39:23","新北市三重區過圳街27-5號","121.48805","25.0624016666667","6500200","三重區"
"241018","268-UM","2018/03/24 20:39:31","新北市三重區重陽路四段1號","121.491066666667","25.06885","6500200","三重區"
"241032","269-UM","2018/03/24 20:39:14","新北市三重區重陽路一段120巷48號","121.485055","25.06016","6500200","三重區"
"241013","270-UM","2018/03/24 20:39:25","新北市三重區三和路三段79號","121.49466","25.071985","6500200","三重區"
"241007","398-BY","2018/03/24 20:39:25","新北市三重區三和路四段101巷20號","121.488778333333","25.077135","6500200","三重區"
"241020","413-TH","2018/03/24 20:39:27","新北市三重區忠孝路一段2號","121.492601666667","25.0717466666667","6500200","三重區"
"241035","462-BY","2018/03/24 20:39:11","新北市三重區正義北路346號","121.4944","25.0708883333333","6500200","三重區"
"241004","475-VK","2018/03/24 20:39:10","新北市三重區仁愛街409號","121.490811666667","25.0812083333333","6500200","三重區"
"241019","478-VK","2018/03/24 20:39:11","新北市三重區重陽路四段126巷1號","121.492318333333","25.0712666666667","6500200","三重區"
"241030","480-VK","2018/03/24 20:39:24","新北市三重區成功路73巷18號","121.489431666667","25.0519816666667","6500200","三重區"
"241014","543-UM","2018/03/24 20:39:14","新北市三重區萬壽街5號","121.49931","25.0693516666667","6500200","三重區"
"241023","545-UM","2018/03/24 20:39:29","新北市三重區自由街39巷5號","121.478638333333","25.067065","6500200","三重區"
"241001","547-UM","2018/03/24 20:39:27","新北市三重區自強路三段110巷2號","121.486805","25.0746933333333","6500200","三重區"
"241033","557-UM","2018/03/24 20:39:07","新北市三重區光復路二段3-1號","121.47417","25.05377","6500200","三重區"
"241006","AAD-863","2018/03/24 20:39:23","新北市三重區車路頭街139巷12號","121.484253333333","25.0763383333333","6500200","三重區"
"241025","887-TS","2018/03/24 20:39:10","新北市三重區頂崁街141號","121.477793333333","25.065005","6500200","三重區"
"241012","941-UM","2018/03/24 20:39:16","新北市三重區秀江街28號","121.50219","25.072965","6500200","三重區"
"241029","942-UM","2018/03/24 20:39:25","新北市三重區集美街126巷26號","121.490021666667","25.0538666666667","6500200","三重區"
"235069","4980-A6","2018/03/24 20:39:22","新北市中和區連城路469巷40號","121.483528333333","24.99469","6500300","中和區"
"220086","073-UY","2018/03/24 20:39:15","新北市五股區新五路三段202號","121.445996666667","25.0899166666667","6500100","板橋區"
"247024","893-R6","2018/03/24 20:39:13","新北市蘆洲區長樂路56號","121.462898333333","25.086545","6501400","蘆洲區"
"247014","546-UM","2018/03/24 20:39:23","新北市蘆洲區中山一路259號","121.472953333333","25.080115","6501400","蘆洲區"
"247022","500-BY","2018/03/24 20:39:22","新北市蘆洲區中正路243巷1-1號","121.467445","25.0862133333333","6501400","蘆洲區"
"247010","341-TH","2018/03/24 20:39:13","新北市蘆洲區集賢路385號","121.480388333333","25.082465","6501400","蘆洲區"
"247012","339-TH","2018/03/24 20:39:16","新北市蘆洲區中興街81號","121.482236666667","25.0881","6501400","蘆洲區"
"247004","337-TH","2018/03/24 20:39:21","新北市蘆洲區長安街297號","121.458123333333","25.08484","6501400","蘆洲區"
"247006","336-TH","2018/03/24 20:39:21","新北市蘆洲區和平路124號","121.467413333333","25.0800983333333","6501400","蘆洲區"
"247008","056-VK","2018/03/24 20:39:22","新北市蘆洲區重陽一街23號","121.480723333333","25.0816483333333","6501400","蘆洲區"
"247002","053-VK","2018/03/24 20:39:22","新北市蘆洲區長安街375巷36號","121.455976666667","25.0879183333333","6501400","蘆洲區"
"247016","007-UY","2018/03/24 20:39:26","新北市蘆洲區中山一路282號","121.471021666667","25.07912","6501400","蘆洲區"
"247020","001-UY","2018/03/24 20:39:17","新北市蘆洲區民族路331-1號","121.473923333333","25.091695","6501400","蘆洲區"
"222001","KEA-2212","2018/03/24 20:39:27","新北市深坑區北深路三段234號","121.600608333333","25.0041916666667","6501800","深坑區"
"251013","179-VK","2018/03/24 20:39:20","新北市淡水區行忠路253號","121.459493333333","25.201265","6501000","淡水區"
"251014","180-VK","2018/03/24 20:39:28","新北市淡水區桂竹圍13號","121.472488333333","25.2324533333333","6501000","淡水區"
"251010","413-VK","2018/03/24 20:39:25","新北市淡水區沙崙路181巷15號","121.423966666667","25.1843666666667","6501000","淡水區"
"251012","441-VK","2018/03/24 20:39:19","新北市淡水區興仁路105號","121.45151","25.218135","6501000","淡水區"
"251016","442-VK","2018/03/24 20:39:27","新北市淡水區後洲子8-2號","121.44959","25.2240233333333","6501000","淡水區"
"251001","559-UM","2018/03/24 20:39:22","新北市淡水區淡金路73號","121.455985","25.16173","6501000","淡水區"
"251006","561-UM","2018/03/24 20:39:21","新北市淡水區商工路198巷7號","121.451325","25.1870433333333","6501000","淡水區"
"251011","650-BX","2018/03/24 20:39:13","新北市淡水區新市一路一段361號","121.436255","25.1862133333333","6501000","淡水區"
"251002","672-BX","2018/03/24 20:39:27","新北市淡水區公明街37巷8號","121.443673333333","25.1691916666667","6501000","淡水區"
"251003","673-BX","2018/03/24 20:39:30","新北市淡水區新民街152巷6弄18號","121.43858","25.17843","6501000","淡水區"
"252002","178-VK","2018/03/24 20:39:20","新北市三芝區淡金路二段47-1號","121.503675","25.26048","6502100","三芝區"
"252001","292-VK","2018/03/24 20:39:19","新北市三芝區公正街56號","121.499843333333","25.25733","6502100","三芝區"
"242034","AAC-296","2018/03/24 20:39:16","新北市新莊區中正路334巷7號","121.44564","25.03524","6500500","新莊區"
"242058","986-R7","2018/03/24 20:39:16","新北市新莊區民安路7號","121.422908333333","25.0281483333333","6500500","新莊區"
"242053","751-BX","2018/03/24 20:39:30","新北市新莊區西盛街323巷6號","121.428521666667","25.0146266666667","6500500","新莊區"
"242029","705-TV","2018/03/24 20:39:14","新北市新莊區中華路二段131號","121.453003333333","25.05082","6500500","新莊區"
"242027","615-BX","2018/03/24 20:39:16","新北市新莊區思源路155號","121.459928333333","25.0444566666667","6500500","新莊區"
"242025","613-BX","2018/03/24 20:39:30","新北市新莊區化成路565號","121.464705","25.0658033333333","6500500","新莊區"
"242046","497-BY","2018/03/24 20:39:16","新北市新莊區裕民街83-6號","121.418501666667","25.0236083333333","6500500","新莊區"
"242051","441-UM","2018/03/24 20:39:22","新北市新莊區西盛街280巷2號","121.427728333333","25.01531","6500500","新莊區"
"242056","440-UM","2018/03/24 20:39:14","新北市新莊區瓊泰路2巷8號","121.445023333333","25.0291566666667","6500500","新莊區"
"242036","415-TV","2018/03/24 20:39:22","新北市新莊區建安街7號","121.428836666667","25.02664","6500500","新莊區"
"242007","413-TV","2018/03/24 20:39:26","新北市新莊區福壽街56巷3號","121.458676666667","25.0488033333333","6500500","新莊區"
"242044","400-BY","2018/03/24 20:39:13","新北市新莊區中正路新生巷85弄1號","121.416986666667","25.0217","6500500","新莊區"
"242023","362-BY","2018/03/24 20:39:27","新北市新莊區思源路261號","121.460035","25.0475133333333","6500500","新莊區"
"242061","353-BY","2018/03/24 20:39:21","新北市新莊區新樹路270號","121.4326","25.013265","6500500","新莊區"
"242009","132-UY","2018/03/24 20:39:24","新北市新莊區幸福路564巷2弄2號","121.454501666667","25.0495966666667","6500500","新莊區"
"242039","133-UY","2018/03/24 20:39:12","新北市新莊區民安路383號","121.431936666667","25.0229233333333","6500500","新莊區"
"242031","135-UY","2018/03/24 20:39:19","新北市新莊區中正路420號","121.440881666667","25.0336816666667","6500500","新莊區"
"242048","172-VK","2018/03/24 20:39:25","新北市新莊區中正路657-12號","121.428065","25.0305533333333","6500500","新莊區"
"242017","175-VK","2018/03/24 20:39:30","新北市新莊區中港三街143號","121.448095","25.0458883333333","6500500","新莊區"
"242015","346-TH","2018/03/24 20:39:17","新北市新莊區中和街32號","121.448238333333","25.0438683333333","6500500","新莊區"
"242021","348-TH","2018/03/24 20:39:07","新北市新莊區中華路一段73號","121.452291666667","25.0401533333333","6500500","新莊區"
"242002","349-TH","2018/03/24 20:39:24","新北市新莊區中港路22號","121.455061666667","25.0372283333333","6500500","新莊區"
"242013","351-TH","2018/03/24 20:39:10","新北市新莊區中信街111號","121.447716666667","25.054075","6500500","新莊區"
"221036","130-UY","2018/03/24 20:39:26","新北市汐止區新昌路63號","121.663505","25.068885","6501100","汐止區"
"221015","131-UY","2018/03/24 20:39:17","新北市汐止區建成路48號","121.663875","25.0728766666667","6501100","汐止區"
"221023","279-VK","2018/03/24 20:39:16","新北市汐止區汐萬路一段301號","121.64958","25.0757983333333","6501100","汐止區"
"221032","280-BY","2018/03/24 20:39:08","新北市汐止區民權街二段28號","121.619543333333","25.0500933333333","6501100","汐止區"
"221027","281-BY","2018/03/24 20:39:27","新北市汐止區大同路二段563-1號","121.662863333333","25.0699233333333","6501100","汐止區"
"221029","298-VK","2018/03/24 20:39:14","新北市汐止區大同路一段421號","121.64265","25.0611883333333","6501100","汐止區"
"221021","299-VK","2018/03/24 20:39:22","新北市汐止區水源路一段286號","121.65419","25.0581816666667","6501100","汐止區"
"221031","353-TW","2018/03/24 20:39:18","新北市汐止區工建路207號","121.63582","25.06174","6501100","汐止區"
"221008","129-UY","2018/03/24 20:39:22","新北市汐止區康寧街861巷3號","121.645295","25.0761183333333","6501100","汐止區"
"221035","622-UM","2018/03/24 20:39:23","新北市汐止區長江街101-5號","121.658691666667","25.0732066666667","6501100","汐止區"
"221025","623-UM","2018/03/24 20:39:29","新北市汐止區水源路二段189號","121.65773","25.0532716666667","6501100","汐止區"
"221038","646-BX","2018/03/24 20:39:21","新北市汐止區汐萬路一段217號","121.652","25.07239","6501100","汐止區"
"221033","647-BX","2018/03/24 20:39:23","新北市汐止區合順街18巷8弄5號","121.620345","25.04191","6501100","汐止區"
"221002","707-TV","2018/03/24 20:39:28","新北市汐止區福德二路132巷2號","121.631073333333","25.0653433333333","6501100","汐止區"
"221018","753-BX","2018/03/24 20:39:19","新北市汐止區茄苳路109號","121.667831666667","25.07134","6501100","汐止區"
"220083","286-VK","2018/03/24 20:39:21","新北市板橋區僑中二街116巷31號","121.444376666667","25.0065816666667","6500100","板橋區"
"220075","303-R5","2018/03/24 20:39:26","新北市林口區汕頭32號","121.366523333333","25.13473","6500100","板橋區"
"242042","280-VK","2018/03/24 20:39:18","新北市新莊區天祥街47巷27號","121.416193333333","25.02795","6500500","新莊區"
"220096","831-TW","2018/03/24 20:39:10","新北市林口區太平里180號","121.368331666667","25.1344316666667","6500100","板橋區"
"220070","AAC-253","2018/03/24 20:37:49","新北市五股區中直路15號","121.423755","25.1109","6500100","板橋區"
