"lineid","car","time","location","longitude","latitude","cityid","cityname"
"234078","298-R6","2018/04/24 12:29:38","新北市永和區林森路81號","121.523883333333","25.0038316666667","6500400","永和區"
"234066","553-UM","2018/04/24 12:29:46","新北市永和區福和路1號","121.526346666667","25.009675","6500400","永和區"
"234015","745-BX","2018/04/24 12:29:45","新北市永和區福和路1號","121.52639","25.0096433333333","6500400","永和區"
"234012","KEA-2591","2018/04/24 12:29:29","新北市永和區福和路1號","121.526116666667","25.0096483333333","6500400","永和區"
"234040","862-TW","2018/04/24 12:29:44","新北市永和區永和路一段90號","121.513123333333","25.0068083333333","6500400","永和區"
"234048","863-TW","2018/04/24 12:29:39","新北市永和區福和路1號","121.526588333333","25.0100116666667","6500400","永和區"
"234076","969-R7","2018/04/24 12:29:40","新北市永和區福和路1號","121.526538333333","25.0100833333333","6500400","永和區"
"228005","097-TW","2018/04/24 12:29:47","新北市貢寮區福連里蓬萊街16-2號","121.978473333333","24.992875","6502600","貢寮區"
"228004","212-TW","2018/04/24 12:28:42","新北市貢寮區龍崗里嵩陽街33號","121.904085","25.0180783333333","6502600","貢寮區"
"207002","749-BX","2018/04/24 12:29:41","新北市萬里區雙興里太和路7-2號","121.658611666667","25.1741483333333","6502800","萬里區"
