"lineid","car","time","location","longitude","latitude","cityid","cityname"
"234005","207-UY","2018/04/24 14:19:41","新北市永和區中山路一段4號","121.51431","25.0104583333333","6500400","永和區"
"234078","298-R6","2018/04/24 14:19:38","新北市永和區國中路148號","121.523035","25.00697","6500400","永和區"
"234036","336-UY","2018/04/24 14:19:36","新北市永和區成功路一段17巷6弄2號","121.527616666667","25.0049983333333","6500400","永和區"
"234062","337-UY","2018/04/24 14:19:36","新北市永和區中正路342號","121.517843333333","25.0001716666667","6500400","永和區"
"234084","338-UY","2018/04/24 14:19:49","新北市永和區永和路二段135號","121.514995","25.0123666666667","6500400","永和區"
"234068","552-UM","2018/04/24 14:19:44","新北市永和區福和路263巷20號","121.517961666667","25.00656","6500400","永和區"
"234066","553-UM","2018/04/24 14:19:46","新北市永和區保平路292巷13弄16號","121.506521666667","25.0057666666667","6500400","永和區"
"234028","746-BX","2018/04/24 14:19:34","新北市永和區民權路49巷9號","121.520661666667","24.9972833333333","6500400","永和區"
"234052","KEA-2590","2018/04/24 14:19:47","新北市永和區光復街2巷18號","121.517158333333","25.0166316666667","6500400","永和區"
"234012","KEA-2591","2018/04/24 14:19:49","新北市永和區光復街33巷3號","121.516085","25.01793","6500400","永和區"
"234060","AAD-866","2018/04/24 14:19:33","新北市永和區安樂路192號","121.51519","25.0012983333333","6500400","永和區"
"234040","862-TW","2018/04/24 14:19:43","新北市永和區安樂路222號","121.514981666667","25.002335","6500400","永和區"
"234048","863-TW","2018/04/24 14:19:39","新北市永和區新生路24巷3號","121.508828333333","25.0164283333333","6500400","永和區"
"234025","9371-KE","2018/04/24 14:19:48","新北市永和區安樂路144巷9號","121.514586666667","25.0002083333333","6500400","永和區"
"248017","225-UY","2018/04/24 14:14:28","新北市五股區壟路16號","121.415438333333","25.0855866666667","6501500","五股區"
"234076","969-R7","2018/04/24 14:19:20","新北市永和區民族街81巷58號","121.520088333333","24.9966033333333","6500400","永和區"
"234072","AAC-211","2018/04/24 14:19:47","新北市永和區環河東路二段56號","121.523313333333","25.0113483333333","6500400","永和區"
"234001","AAC-295","2018/04/24 14:19:48","新北市永和區自強街32巷10號","121.516136666667","25.007705","6500400","永和區"
"244001","248-BX","2018/04/24 14:05:26","新北市林口區林口路76號","121.389685","25.0807","6501700","林口區"
"231029","001-UM","2018/04/24 14:19:42","新北市新店區安康路二段237號","121.508171666667","24.9585933333333","6500600","新店區"
"231002","002-UM","2018/04/24 14:19:41","新北市新店區中央路151號","121.529443333333","24.9723283333333","6500600","新店區"
"231028","046-UY","2018/04/24 14:19:44","新北市新店區安和路二段190號","121.518873333333","24.9744116666667","6500600","新店區"
"231001","047-UY","2018/04/24 14:19:44","新北市新店區北新路一段96巷23號","121.54304","24.9689083333333","6500600","新店區"
"231005","106-UY","2018/04/24 14:19:41","新北市新店區寶強路8號","121.543733333333","24.9786216666667","6500600","新店區"
"231020","108-UY","2018/04/24 14:19:44","新北市新店區桂山路51巷6-1號","121.561955","24.9015466666667","6500600","新店區"
"231012","187-VK","2018/04/24 14:19:50","新北市新店區五峰路61巷7號","121.548903333333","24.9696066666667","6500600","新店區"
"231023","KEA-2219","2018/04/24 14:19:45","新北市新店區光明街138巷6號","121.539591666667","24.96116","6500600","新店區"
"231003","268-BY","2018/04/24 14:19:34","新北市新店區中興路一段216號","121.54393","24.9656633333333","6500600","新店區"
"231018","278-BY","2018/04/24 14:19:41","新北市新店區中央五街22-1號","121.52924","24.9745833333333","6500600","新店區"
"231015","AAD-862","2018/04/24 14:19:40","新北市新店區北宜路二段406號","121.567246666667","24.953025","6500600","新店區"
"231038","3712-VJ","2018/04/24 14:19:48","新北市新店區溪洲路163-2號","121.530686666667","24.9646933333333","6500600","新店區"
"231027","3713-VJ","2018/04/24 14:19:31","新北市新店區北新路二段186號","121.542995","24.97632","6500600","新店區"
"231037","4716-K9","2018/04/24 14:19:49","新北市新店區車子路63號","121.503973333333","24.9513766666667","6500600","新店區"
"231036","512-UM","2018/04/24 14:19:44","新北市新店區安祥路109巷90弄82號","121.475941666667","24.9582983333333","6500600","新店區"
"231013","513-UM","2018/04/24 14:19:47","新北市新店區建國路196號","121.537763333333","24.980535","6500600","新店區"
"231006","617-UM","2018/04/24 14:19:33","新北市新店區北宜路二段599號","121.56816","24.9555566666667","6500600","新店區"
"231030","619-UM","2018/04/24 14:19:43","新北市新店區安民街65巷11號","121.515386666667","24.9664316666667","6500600","新店區"
"231034","641-BX","2018/04/24 14:19:34","新北市新店區車子路11號","121.503056666667","24.9520716666667","6500600","新店區"
"231035","719-UM","2018/04/24 14:19:47","新北市新店區安和路二段113巷1弄2號","121.518331666667","24.970205","6500600","新店區"
"231032","720-UM","2018/04/24 14:19:39","新北市新店區溪洲路160-1號","121.530333333333","24.9651066666667","6500600","新店區"
"231004","899-TW","2018/04/24 14:19:42","新北市新店區中正路169號","121.541043333333","24.9719966666667","6500600","新店區"
"231024","AKT-0513","2018/04/24 14:19:44","新北市新店區中華路83巷67號","121.538335","24.9672683333333","6500600","新店區"
"235028","005-UY","2018/04/24 14:19:47","新北市中和區中和路38號","121.499895","25.0014216666667","6500300","中和區"
"235027","006-UY","2018/04/24 14:19:44","新北市中和區連勝街153號","121.494383333333","24.9963616666667","6500300","中和區"
"235020","096-UM","2018/04/24 14:19:43","新北市中和區中山路三段2號","121.479786666667","25.006065","6500300","中和區"
"235003","097-UM","2018/04/24 14:19:43","新北市中和區秀峰街103巷6弄1號","121.520263333333","24.989675","6500300","中和區"
"235029","098-UM","2018/04/24 14:19:50","新北市中和區莊敬路1-6號","121.499481666667","25.004315","6500300","中和區"
"235004","150-BY","2018/04/24 14:19:30","新北市中和區宜安路54號","121.511893333333","24.9968016666667","6500300","中和區"
"235022","151-BY","2018/04/24 14:19:47","新北市中和區和城路一段271巷1號","121.485465","24.9917283333333","6500300","中和區"
"235019","183-VK","2018/04/24 14:19:42","新北市中和區民享街2巷15號","121.47303","25.0053333333333","6500300","中和區"
"235002","185-VK","2018/04/24 14:19:39","新北市中和區自強路66號","121.519906666667","24.9942233333333","6500300","中和區"
"235013","186-VK","2018/04/24 14:19:40","新北市中和區景新街228-6號","121.508176666667","24.9941933333333","6500300","中和區"
"235031","255-BX","2018/04/24 14:06:16","新北市中和區中正路711號","121.484748333333","24.9984683333333","6500300","中和區"
"235008","293-VK","2018/04/24 14:19:37","新北市中和區中興街266巷2號","121.49858","24.9874866666667","6500300","中和區"
"235036","301-VK","2018/04/24 14:19:47","新北市中和區中山路二段3巷22弄35號","121.505828333333","25.0040666666667","6500300","中和區"
"235007","352-BY","2018/04/24 14:19:43","新北市中和區景平路302號","121.512853333333","24.992905","6500300","中和區"
"235032","377-QA","2018/04/24 14:19:32","新北市中和區枋寮街29號","121.501975","25.00052","6500300","中和區"
"235025","378-QA","2018/04/24 14:19:44","新北市中和區員山路143巷4-4號","121.48072","24.996165","6500300","中和區"
"235014","4979-A6","2018/04/24 14:19:36","新北市中和區中興街170號","121.499878333333","24.9913716666667","6500300","中和區"
"235033","4980-A6","2018/04/24 14:19:34","新北市中和區永和路39巷10號","121.49762","25.0050233333333","6500300","中和區"
"235006","551-UM","2018/04/24 14:19:44","新北市永和區民有街25巷2號","121.517283333333","24.996075","6500300","中和區"
"235034","558-UM","2018/04/24 14:19:49","新北市中和區中山路二段257號","121.497338333333","25.0023983333333","6500300","中和區"
"235009","565-BX","2018/04/24 14:19:42","新北市中和區景新街383巷38號","121.513793333333","24.9907316666667","6500300","中和區"
"235018","640-BX","2018/04/24 14:19:51","新北市中和區國光街107巷2弄19號","121.469745","24.9994333333333","6500300","中和區"
"235024","647-TV","2018/04/24 14:19:47","新北市中和區中山路三段94號","121.477486666667","25.0056316666667","6500300","中和區"
"235011","732-UM","2018/04/24 14:19:36","新北市中和區景平路239巷55號","121.508741666667","24.9921866666667","6500300","中和區"
"235010","733-UM","2018/04/24 14:19:43","新北市中和區忠孝街2-3號","121.508955","24.982955","6500300","中和區"
"235035","783-BX","2018/04/24 14:19:35","新北市中和區連城路354號","121.482186666667","24.995515","6500300","中和區"
"235026","800-TS","2018/04/24 14:19:37","新北市中和區橋和路98號","121.49072","25.005175","6500300","中和區"
"235021","801-TS","2018/04/24 14:19:44","新北市中和區員山路423巷9號","121.480611666667","25.0031533333333","6500300","中和區"
"235016","805-TS","2018/04/24 14:19:42","新北市中和區興南路二段128巷1弄8號","121.503708333333","24.9835416666667","6500300","中和區"
"235012","896-TW","2018/04/24 14:19:42","新北市中和區忠孝街5-1號","121.509643333333","24.9829083333333","6500300","中和區"
"235017","900-TW","2018/04/24 14:19:38","新北市中和區華安街17巷35號","121.467633333333","24.9983","6500300","中和區"
"235030","911-UM","2018/04/24 14:19:34","新北市中和區中和路151號","121.502596666667","24.9998266666667","6500300","中和區"
"235015","157-BY","2018/04/24 14:19:50","新北市中和區和平街82號","121.507621666667","24.99113","6500300","中和區"
"235001","AAC-213","2018/04/24 14:19:35","新北市中和區自立路15巷8號","121.522863333333","24.9959933333333","6500300","中和區"
"235023","AAC-215","2018/04/24 14:19:49","新北市中和區圓通路252巷18弄1號","121.49236","24.9925366666667","6500300","中和區"
"220016","013-TV","2018/04/24 14:19:44","新北市板橋區翠華街6巷80號","121.481656666667","25.024755","6500100","板橋區"
"220013","072-UY","2018/04/24 14:19:31","新北市板橋區國泰街78號","121.467306666667","25.00661","6500100","板橋區"
"220034","073-UY","2018/04/24 14:19:32","新北市板橋區中正路250巷17號","121.456333333333","25.0194383333333","6500100","板橋區"
"220105","075-UY","2018/04/24 14:19:43","新北市板橋區雙十路三段97號","121.470056666667","25.0327466666667","6500100","板橋區"
"220017","AAD-861","2018/04/24 14:19:42","新北市板橋區華興街25號","121.458546666667","25.0046183333333","6500100","板橋區"
"247023","893-R6","2018/04/24 14:19:51","新北市蘆洲區三民路581號","121.461658333333","25.0930266666667","6501400","蘆洲區"
"247013","546-UM","2018/04/24 14:19:47","新北市蘆洲區成功路64號","121.472715","25.0805683333333","6501400","蘆洲區"
"247021","500-BY","2018/04/24 14:19:30","新北市蘆洲區仁愛街212巷38號","121.464201666667","25.0944916666667","6501400","蘆洲區"
"247009","341-TH","2018/04/24 14:19:49","新北市蘆洲區三民路26巷30號","121.477828333333","25.0830516666667","6501400","蘆洲區"
"247011","339-TH","2018/04/24 14:19:46","新北市蘆洲區民權路3巷20號","121.47546","25.08519","6501400","蘆洲區"
"247003","337-TH","2018/04/24 14:19:30","新北市蘆洲區長安街201-1號","121.460058333333","25.0820266666667","6501400","蘆洲區"
"247005","336-TH","2018/04/24 14:19:47","新北市蘆洲區長安街22巷6號","121.46443","25.0794116666667","6501400","蘆洲區"
"247017","057-VK","2018/04/24 14:19:38","新北市蘆洲區民權路70號","121.475","25.0872883333333","6501400","蘆洲區"
"247015","007-UY","2018/04/24 14:19:47","新北市蘆洲區中正路185巷31弄10號","121.46649","25.0840333333333","6501400","蘆洲區"
"247001","002-UY","2018/04/24 14:19:42","新北市蘆洲區永樂街52-2號","121.457398333333","25.0885116666667","6501400","蘆洲區"
"247019","001-UY","2018/04/24 14:19:45","新北市蘆洲區仁愛街35巷12號","121.47156","25.0927566666667","6501400","蘆洲區"
"235005","251-BX","2018/04/24 14:19:44","新北市中和區宜安路160號","121.509063333333","24.9988366666667","6500300","中和區"
"228005","097-TW","2018/04/24 14:19:47","新北市貢寮區美豐里雞母嶺街6-2號","121.899426666667","25.0631283333333","6502600","貢寮區"
"228004","212-TW","2018/04/24 14:19:41","新北市貢寮區雙玉里田寮洋街39號","121.925096666667","25.0139466666667","6502600","貢寮區"
"207002","749-BX","2018/04/24 14:19:41","新北市萬里區溪底里溪底路3號","121.617986666667","25.151325","6502800","萬里區"
"207001","662-BX","2018/04/24 14:19:36","新北市萬里區磺潭里清水18號","121.637873333333","25.1977266666667","6502800","萬里區"
"252005","AAC-283","2018/04/24 14:19:44","新北市三芝區橫山里橫山1號","121.532391666667","25.2608133333333","6502100","三芝區"
"236065","105-UM","2018/04/24 14:19:35","新北市土城區明德路一段128巷5號","121.463316666667","24.9790983333333","6501300","土城區"
"236040","107-UM","2018/04/24 14:19:39","新北市土城區樂利街9號","121.448468333333","24.986005","6501300","土城區"
"236074","166-UM","2018/04/24 14:19:36","新北市土城區中央路三段281巷23弄19號","121.42634","24.9615533333333","6501300","土城區"
"236029","253-BX","2018/04/24 14:19:38","新北市土城區順風路65號","121.440326666667","24.9774466666667","6501300","土城區"
"236024","269-VK","2018/04/24 14:19:43","新北市土城區承天路47號","121.439011666667","24.963835","6501300","土城區"
"236013","270-VK","2018/04/24 14:19:34","新北市土城區青雲路39巷7號","121.460313333333","24.9874883333333","6501300","土城區"
"236032","271-VK","2018/04/24 14:19:38","新北市土城區青雲路451巷8弄9號","121.459613333333","24.9744216666667","6501300","土城區"
"236017","401-BY","2018/04/24 14:19:47","新北市土城區金城路二段200號","121.45468","24.9816816666667","6501300","土城區"
"236006","498-BY","2018/04/24 14:19:46","新北市土城區中華路一段56巷26號","121.444376666667","24.9897033333333","6501300","土城區"
"236057","912-UM","2018/04/24 14:19:31","新北市土城區中央路四段440號","121.410606666667","24.9514416666667","6501300","土城區"
"236045","913-UM","2018/04/24 14:19:38","新北市土城區明德路一段375-1號","121.454953333333","24.97812","6501300","土城區"
"236060","915-UM","2018/04/24 14:19:32","新北市土城區延壽路44巷15號","121.471465","24.9929816666667","6501300","土城區"
"236054","AAC-216","2018/04/24 14:19:43","新北市土城區中華路二段102號","121.438055","24.9743716666667","6501300","土城區"
"221032","280-BY","2018/04/24 14:19:37","新北市汐止區新興路32號","121.656576666667","25.0641083333333","6501100","汐止區"
"221021","299-VK","2018/04/24 14:19:32","新北市新店區薏仁坑路自強巷1號","121.497091666667","24.958025","6501100","汐止區"
"220027","145-BY","2018/04/24 14:19:50","新北市板橋區民權路202巷26號","121.460723333333","25.0172","6500100","板橋區"
"220037","146-RM","2018/04/24 14:19:43","新北市板橋區雙十路二段86號","121.474833333333","25.0282066666667","6500100","板橋區"
"220028","200-UY","2018/04/24 14:19:41","新北市板橋區大觀路二段3巷3號","121.447483333333","25.0038533333333","6500100","板橋區"
"220030","610-BX","2018/04/24 14:19:38","新北市板橋區金門街369巷58號","121.428005","24.9815383333333","6500100","板橋區"
"220050","245-BX","2018/04/24 14:19:32","新北市板橋區莊敬路2-1號","121.473941666667","25.0285683333333","6500100","板橋區"
"220052","257-TC","2018/04/24 14:19:34","新北市板橋區文化路一段188巷46-1號","121.466936666667","25.019005","6500100","板橋區"
"220040","267-BY","2018/04/24 14:19:47","新北市板橋區文聖街153號","121.478656666667","25.027855","6500100","板橋區"
"220004","276-BY","2018/04/24 14:19:39","新北市板橋區和平路13號","121.459508333333","24.994435","6500100","板橋區"
"220020","277-BY","2018/04/24 14:19:36","新北市板橋區金門街280巷12號","121.429106666667","24.9862816666667","6500100","板橋區"
"220019","283-VK","2018/04/24 14:19:35","新北市板橋區忠孝路24巷22號","121.460181666667","25.0010216666667","6500100","板橋區"
"220043","285-UM","2018/04/24 14:19:36","新北市板橋區吳鳳路82號","121.466906666667","25.03131","6500100","板橋區"
"220001","285-VK","2018/04/24 14:19:41","新北市板橋區富山街10號","121.478648333333","25.0217833333333","6500100","板橋區"
"220031","286-VK","2018/04/24 14:19:37","新北市板橋區龍興街73巷31號","121.442601666667","25.00262","6500100","板橋區"
"220029","287-VK","2018/04/24 14:19:53","新北市板橋區南雅西路一段5巷1號","121.454558333333","25.00443","6500100","板橋區"
"220039","288-VK","2018/04/24 14:19:47","新北市板橋區長江路一段106巷11號","121.460011666667","25.0290983333333","6500100","板橋區"
"220009","295-UM","2018/04/24 14:19:45","新北市板橋區三民路二段21巷15號","121.479886666667","25.0181933333333","6500100","板橋區"
"220032","296-UM","2018/04/24 14:19:37","新北市板橋區篤行路三段玉平巷7號","121.429073333333","24.9878533333333","6500100","板橋區"
"220023","303-R5","2018/04/24 14:19:37","新北市板橋區南雅南路一段4巷10號","121.45496","25.0052866666667","6500100","板橋區"
"220010","305-R5","2018/04/24 14:19:51","新北市板橋區三民路二段153巷1號","121.47953","25.015035","6500100","板橋區"
"220041","307-R5","2018/04/24 14:19:42","新北市板橋區松江街54號","121.46873","25.027275","6500100","板橋區"
"220047","317-R6","2018/04/24 14:19:43","新北市板橋區民有街105號","121.464515","25.0281916666667","6500100","板橋區"
"220012","486-VK","2018/04/24 14:19:32","新北市板橋區中山路一段30號","121.460485","25.0085116666667","6500100","板橋區"
"220104","560-BX","2018/04/24 14:19:49","新北市板橋區中正路332號","121.45428","25.0220816666667","6500100","板橋區"
"220011","609-BX","2018/04/24 14:19:42","新北市板橋區三民路二段247號","121.479001666667","25.0124416666667","6500100","板橋區"
"220003","630-UY","2018/04/24 14:19:41","新北市板橋區民族路90號","121.463748333333","25.0092","6500100","板橋區"
"220005","686-BX","2018/04/24 14:19:37","新北市板橋區國慶路189號","121.462858333333","24.996435","6500100","板橋區"
"220025","687-BX","2018/04/24 14:19:46","新北市板橋區大觀路二段61號","121.446696666667","25.0025933333333","6500100","板橋區"
"220042","689-BX","2018/04/24 14:19:37","新北市板橋區漢生西路17號","121.463606666667","25.018115","6500100","板橋區"
"220002","741-BX","2018/04/24 14:19:38","新北市板橋區校前街38號","121.460968333333","25.003195","6500100","板橋區"
"220051","KEA-2699","2018/04/24 14:19:49","新北市板橋區文聖街182號","121.479371666667","25.0268","6500100","板橋區"
"220014","829-TW","2018/04/24 14:19:45","新北市板橋區長安街138巷7弄4號","121.47338","25.0082933333333","6500100","板橋區"
"220045","830-TW","2018/04/24 14:19:50","新北市板橋區大同街50巷28號","121.478826666667","25.026685","6500100","板橋區"
"220038","833-TW","2018/04/24 14:19:45","新北市板橋區文化路一段339號","121.466495","25.0206866666667","6500100","板橋區"
"220022","895-R6","2018/04/24 14:19:44","新北市板橋區館前西路138號","121.456441666667","25.0082083333333","6500100","板橋區"
"220021","985-R7","2018/04/24 14:19:43","新北市板橋區中正路387號","121.454223333333","25.0217683333333","6500100","板橋區"
"220046","AAC-210","2018/04/24 14:19:48","新北市板橋區幸福路60巷31-2號","121.460551666667","25.02101","6500100","板橋區"
"220018","AAC-253","2018/04/24 14:19:45","新北市板橋區忠孝路31-1號","121.460765","25.0020833333333","6500100","板橋區"
