"lineid","car","time","location","longitude","latitude","cityid","cityname"
"234026","9371-KE","2018/04/24 17:29:16","新北市永和區福和路1號","121.526715","25.0098966666667","6500400","永和區"
"249005","172-UM","2018/04/24 17:29:32","新北市八里區荖阡坑路28-1號","121.403948333333","25.1296316666667","6502300","八里區"
"249001","173-UM","2018/04/24 17:29:20","新北市八里區龍米路三段49-1號","121.424223333333","25.158905","6502300","八里區"
"249004","303-UY","2018/04/24 17:29:17","新北市八里區埤頭二街2-2號","121.414491666667","25.155215","6502300","八里區"
"249002","305-UY","2018/04/24 17:29:20","新北市八里區龍米路二段50號","121.448115","25.1406766666667","6502300","八里區"
"249003","593-UM","2018/04/24 17:29:27","新北市八里區中山路二段370號","121.400915","25.1479883333333","6502300","八里區"
"232011","375-UM","2018/04/24 17:29:30","新北市坪林區北宜路八段367號","121.70948","24.9323983333333","6502000","坪林區"
"244013","069-UM","2018/04/24 17:29:14","新北市林口區中山路206號","121.38676","25.079335","6501700","林口區"
"244007","080-UY","2018/04/24 17:29:17","新北市林口區湖北里5鄰24號","121.386438333333","25.0932283333333","6501700","林口區"
"244023","483-VK","2018/04/24 17:29:23","新北市林口區興林一街109巷28號","121.392516666667","25.0727416666667","6501700","林口區"
"244009","656-BX","2018/04/24 17:29:31","新北市林口區中北一街79號","121.385718333333","25.08869","6501700","林口區"
"244019","657-BX","2018/04/24 17:29:31","新北市林口區文化一路一段135巷18號","121.373291666667","25.0724666666667","6501700","林口區"
"244025","837-TS","2018/04/24 17:29:13","新北市林口區南勢街120號","121.363125","25.074135","6501700","林口區"
"244021","838-TS","2018/04/24 17:29:24","新北市林口區粉寮路37-1號","121.401275","25.0850266666667","6501700","林口區"
"243013","646-TV","2018/04/24 17:29:27","新北市泰山區黎明路13號","121.420976666667","25.063155","6501600","泰山區"
"231046","107-UY","2018/04/24 17:29:15","新北市新店區直潭路92號","121.530891666667","24.9376083333333","6500600","新店區"
"241015","062-VK","2018/04/24 17:29:16","新北市三重區長元街65巷16弄15號","121.503541666667","25.066155","6500200","三重區"
"241017","063-VK","2018/04/24 17:29:23","新北市三重區大同北路34巷38號","121.494123333333","25.0622733333333","6500200","三重區"
"241024","065-VK","2018/04/24 17:29:22","新北市三重區大勇街82巷15弄24號","121.480715","25.0718983333333","6500200","三重區"
"241003","091-VK","2018/04/24 17:29:19","新北市三重區碧華街378號","121.490948333333","25.0843416666667","6500200","三重區"
"241005","262-UM","2018/04/24 17:29:29","新北市三重區仁愛街532號","121.486521666667","25.0818483333333","6500200","三重區"
"241011","265-UM","2018/04/24 17:29:26","新北市三重區河邊北街108號","121.50382","25.0708266666667","6500200","三重區"
"241016","266-UM","2018/04/24 17:29:33","新北市三重區信義西街41號","121.495265","25.0639883333333","6500200","三重區"
"241018","268-UM","2018/04/24 17:29:26","新北市三重區新北大道一段7號","121.489768333333","25.06138","6500200","三重區"
"241032","269-UM","2018/04/24 17:29:24","新北市三重區名源街30號","121.482125","25.060035","6500200","三重區"
"241025","271-UM","2018/04/24 17:29:29","新北市三重區三民街324號","121.476728333333","25.069235","6500200","三重區"
"241007","398-BY","2018/04/24 17:29:15","新北市三重區三和路四段145巷138號","121.48777","25.079305","6500200","三重區"
"241020","478-VK","2018/04/24 17:29:24","新北市三重區忠孝路二段34號","121.485778333333","25.0710466666667","6500200","三重區"
"241030","480-VK","2018/04/24 17:29:15","新北市三重區新興路3號","121.49284","25.05305","6500200","三重區"
"241014","543-UM","2018/04/24 17:29:16","新北市三重區安和路15號","121.501306666667","25.06842","6500200","三重區"
"241023","545-UM","2018/04/24 17:29:17","新北市三重區三民街146巷3弄2號","121.481668333333","25.0646283333333","6500200","三重區"
"241019","KEA-2593","2018/04/24 17:29:27","新北市三重區自強路二段26巷14號","121.489","25.069055","6500200","三重區"
"241012","941-UM","2018/04/24 17:29:31","新北市三重區仁興街33巷4號","121.499256666667","25.0755783333333","6500200","三重區"
"241029","942-UM","2018/04/24 17:25:30","新北市三重區重安街14號","121.490248333333","25.0581516666667","6500200","三重區"
"241033","AAC-255","2018/04/24 17:29:24","新北市三重區興德路133號","121.470128333333","25.0528433333333","6500200","三重區"
"235061","378-QA","2018/04/24 17:06:05","新北市中和區員山路36巷16-2號","121.48535","24.9916233333333","6500300","中和區"
"247024","893-R6","2018/04/24 17:29:16","新北市蘆洲區長興路296-8號","121.460553333333","25.0902616666667","6501400","蘆洲區"
"247014","546-UM","2018/04/24 17:29:15","新北市蘆洲區三民路33號","121.475418333333","25.0830133333333","6501400","蘆洲區"
"247022","500-BY","2018/04/24 17:29:21","新北市蘆洲區三民路260號","121.467581666667","25.090135","6501400","蘆洲區"
"247010","341-TH","2018/04/24 17:29:31","新北市蘆洲區集賢路406號","121.479906666667","25.0819533333333","6501400","蘆洲區"
"247012","339-TH","2018/04/24 17:29:34","新北市蘆洲區民族路38號","121.476605","25.0843733333333","6501400","蘆洲區"
"247004","337-TH","2018/04/24 17:29:12","新北市蘆洲區長安街233巷13號","121.458806666667","25.0826366666667","6501400","蘆洲區"
"247006","336-TH","2018/04/24 17:29:16","新北市蘆洲區長安街68巷41號","121.464083333333","25.0810816666667","6501400","蘆洲區"
"247018","057-VK","2018/04/24 17:29:17","新北市蘆洲區民義街50號","121.472376666667","25.089085","6501400","蘆洲區"
"247008","056-VK","2018/04/24 17:29:22","新北市蘆洲區民生街30號","121.474766666667","25.0788616666667","6501400","蘆洲區"
"247016","007-UY","2018/04/24 17:29:18","新北市蘆洲區光華路22巷42號","121.468288333333","25.0848766666667","6501400","蘆洲區"
"247002","002-UY","2018/04/24 17:29:24","新北市蘆洲區永樂街38巷57弄12號","121.457751666667","25.09049","6501400","蘆洲區"
"247020","001-UY","2018/04/24 17:29:19","新北市蘆洲區仁愛街93巷8號","121.470761666667","25.0940766666667","6501400","蘆洲區"
"228003","097-TW","2018/04/24 17:29:23","新北市貢寮區仁理村研海街62-2號","121.92545","25.045845","6502600","貢寮區"
"228001","212-TW","2018/04/24 17:29:16","新北市貢寮區仁理村仁愛路58號","121.925488333333","25.05332","6502600","貢寮區"
"228002","663-BX","2018/04/24 17:29:19","新北市貢寮區福隆里福隆街4號","121.944795","25.01606","6502600","貢寮區"
"224010","AGQ-8101","2018/04/24 17:29:17","新北市瑞芳區逢甲路111-3號","121.807536666667","25.109185","6501200","瑞芳區"
"224006","676-BX","2018/04/24 17:29:17","新北市瑞芳區靜安路四段107號","121.793131666667","25.10977","6501200","瑞芳區"
"224008","285-BY","2018/04/24 17:29:28","新北市瑞芳區侯硐路172號","121.829393333333","25.0856266666667","6501200","瑞芳區"
"224009","273-VK","2018/04/24 17:29:27","新北市瑞芳區崙頂路2-2號","121.846561666667","25.1070966666667","6501200","瑞芳區"
"224005","271-BY","2018/04/24 17:29:22","新北市瑞芳區海濱路8-6號","121.831703333333","25.126175","6501200","瑞芳區"
"227003","642-TC","2018/04/24 17:29:30","新北市雙溪區平林里梅竹蹊65號","121.84826","25.031735","6502500","雙溪區"
"227009","400-TW","2018/04/24 17:29:23","新北市雙溪區三貂里定福路27號","121.851641666667","25.074295","6502500","雙溪區"
"251004","009-UM","2018/04/24 17:29:19","新北市淡水區中正東路二段88巷15號","121.45914","25.1504633333333","6501000","淡水區"
"251005","010-UM","2018/04/24 17:29:29","新北市淡水區鄧公路31巷1號","121.451368333333","25.170795","6501000","淡水區"
"251013","179-VK","2018/04/24 17:29:24","新北市淡水區大竹圍5號","121.466586666667","25.1952233333333","6501000","淡水區"
"251014","180-VK","2018/04/24 17:29:17","新北市淡水區公埔子20-6號","121.46966","25.2264633333333","6501000","淡水區"
"251008","181-VK","2018/04/24 17:29:21","新北市淡水區大同路100巷11號","121.462991666667","25.1396316666667","6501000","淡水區"
"251015","182-VK","2018/04/24 17:29:28","新北市淡水區三空泉17-6號","121.474225","25.1659233333333","6501000","淡水區"
"251010","413-VK","2018/04/24 17:29:15","新北市淡水區中正路二段211號","121.426193333333","25.1890866666667","6501000","淡水區"
"251012","441-VK","2018/04/24 17:29:27","新北市淡水區北新路98號","121.447235","25.1784066666667","6501000","淡水區"
"251016","442-VK","2018/04/24 17:29:29","新北市淡水區社厝坑9-1號","121.466443333333","25.1924766666667","6501000","淡水區"
"251006","561-UM","2018/04/24 17:29:25","新北市淡水區大忠街5巷1號","121.443261666667","25.1765316666667","6501000","淡水區"
"251009","575-R6","2018/04/24 17:29:15","新北市淡水區重建街1巷1號","121.439808333333","25.173285","6501000","淡水區"
"251007","577-R6","2018/04/24 17:29:25","新北市淡水區民生路47-4號","121.462081666667","25.1379916666667","6501000","淡水區"
"251011","650-BX","2018/04/24 17:29:18","新北市淡水區坪頂路712號","121.48248","25.1584716666667","6501000","淡水區"
"251002","672-BX","2018/04/24 17:29:17","新北市淡水區中正路一段21號","121.426368333333","25.1762733333333","6501000","淡水區"
"251003","673-BX","2018/04/24 17:29:21","新北市淡水區中正路261號","121.431335","25.17499","6501000","淡水區"
"207003","550-UM","2018/04/24 17:29:25","新北市萬里區龜吼里翡翠路17號","121.683378333333","25.1871916666667","6502800","萬里區"
"207004","225-TW","2018/04/24 17:29:28","新北市萬里區萬里里景美路16號","121.686656666667","25.17335","6502800","萬里區"
"252002","178-VK","2018/04/24 17:29:29","新北市三芝區忠孝街1-14號","121.505521666667","25.2539283333333","6502100","三芝區"
"252001","292-VK","2018/04/24 17:29:25","新北市三芝區長安街119號","121.498053333333","25.2596533333333","6502100","三芝區"
"237011","572-TV","2018/04/24 17:29:19","新北市三峽區中山路459巷137號","121.350178333333","24.9338483333333","6500900","三峽區"
"237012","280-TH","2018/04/24 17:29:20","新北市三峽區中山路459巷163-3號","121.348893333333","24.9332133333333","6500900","三峽區"
"242034","AAC-296","2018/04/24 17:29:25","新北市新莊區新莊路364號","121.449516666667","25.0334933333333","6500500","新莊區"
"242058","986-R7","2018/04/24 17:29:24","新北市新莊區中正路504號","121.435998333333","25.0328933333333","6500500","新莊區"
"242054","751-BX","2018/04/24 17:29:33","新北市新莊區瓊林南路305巷14號","121.435058333333","25.005235","6500500","新莊區"
"242027","705-TV","2018/04/24 17:29:14","新北市新莊區思源路33號","121.460105","25.0395633333333","6500500","新莊區"
"242025","613-BX","2018/04/24 17:29:23","新北市新莊區復興路二段31號","121.45436","25.044","6500500","新莊區"
"242029","612-BX","2018/04/24 17:29:30","新北市新莊區復興路二段186號","121.459028333333","25.0443066666667","6500500","新莊區"
"242042","566-BX","2018/04/24 17:29:27","新北市新莊區新樹路113巷17號","121.438985","25.026425","6500500","新莊區"
"242046","497-BY","2018/04/24 17:29:14","新北市新莊區新樹路23號","121.440475","25.0324533333333","6500500","新莊區"
"242051","441-UM","2018/04/24 17:29:27","新北市新莊區新樹路445號","121.432895","25.0135316666667","6500500","新莊區"
"242056","440-UM","2018/04/24 17:29:29","新北市新莊區新莊路453號","121.449633333333","25.03323","6500500","新莊區"
"242037","415-TV","2018/04/24 17:29:22","新北市新莊區建國二路1號","121.434891666667","25.02366","6500500","新莊區"
"242007","413-TV","2018/04/24 17:29:22","新北市新莊區自強街39號","121.45471","25.046685","6500500","新莊區"
"242044","400-BY","2018/04/24 17:29:16","新北市新莊區富國路73號","121.419961666667","25.0259916666667","6500500","新莊區"
"242023","362-BY","2018/04/24 17:29:22","新北市新莊區公園路150號","121.453156666667","25.0401016666667","6500500","新莊區"
"242061","353-BY","2018/04/24 17:29:27","新北市新莊區瓊林南路21-1號","121.437891666667","25.02027","6500500","新莊區"
"242039","133-UY","2018/04/24 17:29:28","新北市新莊區民安東路35號","121.42873","25.0209116666667","6500500","新莊區"
"242032","135-UY","2018/04/24 17:29:16","新北市新莊區新泰路401巷29-1號","121.442431666667","25.0438883333333","6500500","新莊區"
"242048","172-VK","2018/04/24 17:29:19","新北市新莊區龍安路252號","121.421116666667","25.0196433333333","6500500","新莊區"
"242011","173-VK","2018/04/24 17:29:33","新北市新莊區中港路439號","121.452458333333","25.0481266666667","6500500","新莊區"
"242017","175-VK","2018/04/24 17:29:26","新北市新莊區復興路一段207號","121.452296666667","25.0436416666667","6500500","新莊區"
"242005","176-VK","2018/04/24 17:29:23","新北市新莊區中港路278號","121.453113333333","25.0440983333333","6500500","新莊區"
"242015","346-TH","2018/04/24 17:29:30","新北市新莊區新泰路146號","121.447846666667","25.0371616666667","6500500","新莊區"
"242021","348-TH","2018/04/24 17:29:16","新北市新莊區中正路134號","121.452775","25.0361533333333","6500500","新莊區"
"242013","351-TH","2018/04/24 17:29:11","新北市新莊區中誠街14號","121.45196","25.0482833333333","6500500","新莊區"
"238015","755-BX","2018/04/24 17:29:14","新北市樹林區大安路267號","121.419023333333","24.9937116666667","6500700","樹林區"
"238023","601-UM","2018/04/24 17:29:19","新北市樹林區中正路282-8號","121.41517","25.0095016666667","6500700","樹林區"
"238019","599-UM","2018/04/24 17:29:22","新北市樹林區太平路25-1號","121.419126666667","24.983355","6500700","樹林區"
"238018","571-TV","2018/04/24 17:29:15","新北市樹林區鎮前街193號","121.421483333333","24.9867666666667","6500700","樹林區"
"238024","5061-A6","2018/04/24 17:29:13","新北市樹林區鎮前街86巷8號","121.425158333333","24.9921366666667","6500700","樹林區"
"238022","KEA-2213","2018/04/24 17:29:18","新北市樹林區仁愛街34號","121.422905","24.9823916666667","6500700","樹林區"
"238021","KEA-2539","2018/04/24 17:29:23","新北市樹林區西圳街一段203巷25-3號","121.394363333333","24.9587516666667","6500700","樹林區"
"238025","303-VK","2018/04/24 17:29:23","新北市樹林區保安街一段179-10號","121.421293333333","24.995745","6500700","樹林區"
"238017","283-BY","2018/04/24 17:29:26","新北市樹林區中正路417號","121.416846666667","25.0075516666667","6500700","樹林區"
"238014","282-BY","2018/04/24 17:29:23","新北市樹林區保安街一段296號","121.419163333333","24.9972733333333","6500700","樹林區"
"238020","268-VK","2018/04/24 17:29:24","新北市樹林區俊英街102號","121.4276","25.0052033333333","6500700","樹林區"
"238026","172-UY","2018/04/24 17:29:16","新北市樹林區新興街1巷6號","121.400221666667","24.9741066666667","6500700","樹林區"
"238016","169-UY","2018/04/24 17:29:31","新北市樹林區中山路一段2巷8號","121.423956666667","24.9941266666667","6500700","樹林區"
"239007","AAC-297","2018/04/24 17:26:08","新北市鶯歌區行政路97號","121.354045","24.95632","6500800","鶯歌區"
"239006","891-R6","2018/04/24 17:29:22","新北市鶯歌區鳳鳴路79號","121.334096666667","24.9658833333333","6500800","鶯歌區"
"239008","527-UM","2018/04/24 17:29:32","新北市鶯歌區大湖路391號","121.330956666667","24.9789466666667","6500800","鶯歌區"
"239005","526-UM","2018/04/24 17:29:21","新北市鶯歌區福德五街18號","121.328961666667","24.9677966666667","6500800","鶯歌區"
"239001","417-VK","2018/04/24 17:29:25","新北市鶯歌區中正三路171號","121.33639","24.9399666666667","6500800","鶯歌區"
"239003","360-BY","2018/04/24 17:29:24","新北市鶯歌區鶯桃路311號","121.333823333333","24.9606783333333","6500800","鶯歌區"
"239002","359-BY","2018/04/24 17:29:13","新北市鶯歌區南雅路33巷6弄18號","121.348188333333","24.9547233333333","6500800","鶯歌區"
"239004","193-VK","2018/04/24 17:29:25","新北市鶯歌區三鶯路29巷12號","121.355226666667","24.9408683333333","6500800","鶯歌區"
"221010","269-BY","2018/04/24 17:29:17","新北市汐止區汐萬路一段256巷3號","121.652166666667","25.074905","6501100","汐止區"
"242002","KEA-2550","2018/04/24 17:29:18","新北市新莊區新莊路213號","121.455278333333","25.0354216666667","6500500","新莊區"
"242009","281-VK","2018/04/24 17:29:29","新北市新莊區中原路189-1號","121.452541666667","25.0544233333333","6500500","新莊區"
"242019","280-VK","2018/04/24 17:29:22","新北市新莊區中港路50號","121.455453333333","25.0384816666667","6500500","新莊區"
"220018","AAC-253","2018/04/24 17:29:18","新北市板橋區華東街1-9號","121.448263333333","24.9948716666667","6500100","板橋區"
