"lineid","car","time","location","longitude","latitude","cityid","cityname"
"234046","148-BY","2018/04/24 19:59:22","新北市永和區成功路一段16巷2號","121.526825","25.005455","6500400","永和區"
"234007","207-UY","2018/04/24 19:59:10","新北市永和區保生路22巷10號","121.507403333333","25.008125","6500400","永和區"
"234081","298-R6","2018/04/24 19:59:22","新北市永和區國中路109巷3弄2號","121.523823333333","25.005415","6500400","永和區"
"234038","336-UY","2018/04/24 19:59:23","新北市永和區成功路二段179-1號","121.526576666667","24.9965833333333","6500400","永和區"
"234064","337-UY","2018/04/24 19:59:16","新北市永和區中正路412巷2弄11號","121.518491666667","25.001905","6500400","永和區"
"234086","338-UY","2018/04/24 19:59:28","新北市永和區福和路14號","121.524301666667","25.0085433333333","6500400","永和區"
"234070","552-UM","2018/04/24 19:59:15","新北市永和區國光路37號","121.519246666667","25.008355","6500400","永和區"
"234067","553-UM","2018/04/24 19:59:28","新北市永和區中山路一段253-1號","121.50752","25.00756","6500400","永和區"
"234017","745-BX","2018/04/24 19:59:27","新北市永和區文化路63號","121.514041666667","25.015035","6500400","永和區"
"234030","746-BX","2018/04/24 19:59:10","新北市永和區民生路22巷18號","121.521621666667","24.99716","6500400","永和區"
"234054","KEA-2590","2018/04/24 19:59:30","新北市永和區環河東路一段122號","121.52062","25.0155","6500400","永和區"
"234013","KEA-2591","2018/04/24 19:59:20","新北市永和區保生路55號","121.504688333333","25.010595","6500400","永和區"
"234061","AAD-866","2018/04/24 19:59:26","新北市永和區得和路47號","121.516688333333","25.0002283333333","6500400","永和區"
"234042","862-TW","2018/04/24 19:59:19","新北市永和區雙和街17巷21號","121.508981666667","25.0013","6500400","永和區"
"234050","863-TW","2018/04/24 19:59:26","新北市永和區保安路151號","121.506981666667","25.0129283333333","6500400","永和區"
"234026","9371-KE","2018/04/24 19:59:15","新北市永和區水源街38號","121.510865","25.00447","6500400","永和區"
"234011","9373-KE","2018/04/24 19:59:28","新北市永和區仁愛路352巷112弄8號","121.50103","25.008505","6500400","永和區"
"249005","172-UM","2018/04/24 19:59:12","新北市八里區楓林路3-1號","121.382463333333","25.1305216666667","6502300","八里區"
"249001","173-UM","2018/04/24 19:59:21","新北市八里區中華路二段308巷1號","121.403473333333","25.1484566666667","6502300","八里區"
"249004","303-UY","2018/04/24 19:59:29","新北市八里區中華路一段333-1號","121.413268333333","25.15396","6502300","八里區"
"249003","593-UM","2018/04/24 19:59:14","新北市八里區中華路二段560巷1號","121.398671666667","25.145035","6502300","八里區"
"248014","025-BX","2018/04/24 19:59:27","新北市五股區五福路6巷21號","121.435431666667","25.0886166666667","6501500","五股區"
"248016","026-BX","2018/04/24 19:59:13","新北市五股區成泰路三段577巷80弄25號","121.449521666667","25.1045733333333","6501500","五股區"
"248008","095-VK","2018/04/24 19:59:27","新北市五股區四維路30巷17號","121.467988333333","25.07151","6501500","五股區"
"248020","225-UY","2018/04/24 19:59:25","新北市五股區凌雲路三段24-5號","121.43539","25.1042166666667","6501500","五股區"
"248012","247-BX","2018/04/24 19:59:23","新北市五股區民義路一段93號","121.434565","25.0859433333333","6501500","五股區"
"248010","272-BY","2018/04/24 19:59:13","新北市五股區登林路79-5號","121.427585","25.0705333333333","6501500","五股區"
"248004","677-BX","2018/04/24 19:59:14","新北市五股區成泰路一段8巷2-3號","121.434936666667","25.066835","6501500","五股區"
"248002","678-BX","2018/04/24 19:59:14","新北市五股區成泰路三段487號","121.450703333333","25.0992983333333","6501500","五股區"
"234077","969-R7","2018/04/24 19:59:26","新北市永和區民有街26號","121.516743333333","24.996365","6500400","永和區"
"234074","AAC-211","2018/04/24 19:59:20","新北市永和區福和路10巷17號","121.52417","25.0093433333333","6500400","永和區"
"234003","AAC-295","2018/04/24 19:59:30","新北市永和區中正路704號","121.51625","25.0099233333333","6500400","永和區"
"243012","AAD-798","2018/04/24 19:59:30","新北市泰山區全興路184號","121.433335","25.0573866666667","6501600","泰山區"
"243011","297-R6","2018/04/24 19:59:21","新北市泰山區明志路三段196巷50弄3號","121.421653333333","25.040255","6501600","泰山區"
"243015","380-SR","2018/04/24 19:59:12","新北市泰山區明志路二段254巷16弄29號","121.426336666667","25.048985","6501600","泰山區"
"243014","421-VK","2018/04/24 19:59:23","新北市泰山區泰林路二段181號","121.43352","25.0609266666667","6501600","泰山區"
"243010","KEA-2215","2018/04/24 19:59:12","新北市泰山區中華街1巷2號","121.428141666667","25.05231","6501600","泰山區"
"243009","KEA-2216","2018/04/24 19:59:25","新北市泰山區泰林路二段164巷23號","121.434476666667","25.0610383333333","6501600","泰山區"
"243013","646-TV","2018/04/24 19:59:27","新北市泰山區應化街7號","121.423846666667","25.04375","6501600","泰山區"
"243016","680-BX","2018/04/24 19:59:13","新北市泰山區貴陽街38號","121.423171666667","25.0324016666667","6501600","泰山區"
"222002","016-RS","2018/04/24 19:59:24","新北市深坑區北深路二段81巷8弄2號","121.618276666667","25.0031233333333","6501800","深坑區"
"222003","436-BY","2018/04/24 19:59:18","新北市深坑區埔新街14號","121.620776666667","25.0039433333333","6501800","深坑區"
"231060","001-UM","2018/04/24 19:59:08","新北市新店區安康路三段15號","121.4936","24.9536116666667","6500600","新店區"
"231041","002-UM","2018/04/24 19:59:19","新北市新店區中正路339號","121.535896666667","24.97545","6500600","新店區"
"231059","046-UY","2018/04/24 19:59:14","新北市新店區安康路二段147號","121.511368333333","24.9599083333333","6500600","新店區"
"231040","047-UY","2018/04/24 19:59:13","新北市新店區北新路一段126巷23號","121.542911666667","24.9700833333333","6500600","新店區"
"231044","106-UY","2018/04/24 19:59:09","新北市新店區復興路27號","121.539033333333","24.9866616666667","6500600","新店區"
"231053","108-UY","2018/04/24 19:59:02","新北市新店區新烏路三段225號","121.54733","24.8966716666667","6500600","新店區"
"231048","187-VK","2018/04/24 19:59:12","新北市新店區寶宏路13巷1號","121.549623333333","24.9756183333333","6500600","新店區"
"231054","KEA-2219","2018/04/24 19:59:30","新北市新店區光明街188號","121.539678333333","24.9622633333333","6500600","新店區"
"231057","256-BX","2018/04/24 19:59:27","新北市新店區花園二路一段11號","121.555475","24.9324916666667","6500600","新店區"
"231042","268-BY","2018/04/24 19:59:23","新北市新店區中興路一段292號","121.545913333333","24.9691433333333","6500600","新店區"
"231051","278-BY","2018/04/24 19:59:26","新北市新店區中央路234號","121.529411666667","24.972585","6500600","新店區"
"231050","AAD-862","2018/04/24 19:59:14","新北市新店區北宜路一段196-1號","121.543081666667","24.9530316666667","6500600","新店區"
"231058","3713-VJ","2018/04/24 19:59:28","新北市新店區薏仁坑路自強巷1號","121.496936666667","24.9578633333333","6500600","新店區"
"231066","4716-K9","2018/04/24 19:59:26","新北市新店區柴埕路31號","121.513925","24.965775","6500600","新店區"
"231056","4715-K9","2018/04/24 19:59:26","新北市新店區明德路89號","121.541551666667","24.978355","6500600","新店區"
"231067","4772-VM","2018/04/24 19:59:20","新北市新店區精忠路10-1號","121.532655","24.9590783333333","6500600","新店區"
"231065","512-UM","2018/04/24 19:59:26","新北市新店區安祥路109巷8號","121.475403333333","24.9588266666667","6500600","新店區"
"231049","513-UM","2018/04/24 19:59:29","新北市新店區明德路38號","121.54143","24.9778866666667","6500600","新店區"
"231045","617-UM","2018/04/24 19:59:09","新北市新店區北宜路二段82-12號","121.554628333333","24.95351","6500600","新店區"
"231061","619-UM","2018/04/24 19:59:19","新北市新店區安民街252號","121.5176","24.9732083333333","6500600","新店區"
"231063","641-BX","2018/04/24 19:59:14","新北市新店區車子路11號","121.502875","24.95154","6500600","新店區"
"231068","718-UY","2018/04/24 19:59:25","新北市新店區安華路28-1號","121.519421666667","24.9610083333333","6500600","新店區"
"231064","719-UM","2018/04/24 19:59:24","新北市新店區光華街32號","121.516685","24.9693866666667","6500600","新店區"
"231062","720-UM","2018/04/24 19:59:13","新北市新店區華城路36巷1號","121.52792","24.9553266666667","6500600","新店區"
"231043","899-TW","2018/04/24 19:59:23","新北市新店區中正路263-3號","121.538343333333","24.9737533333333","6500600","新店區"
"231055","AKT-0513","2018/04/24 19:59:15","新北市新店區中華路83巷67號","121.538355","24.9672566666667","6500600","新店區"
"241028","022-UY","2018/04/24 19:59:13","新北市三重區中正南路41巷1號","121.49385","25.059915","6500200","三重區"
"241008","059-VK","2018/04/24 19:59:15","新北市三重區永福街179巷28號","121.478","25.0747766666667","6500200","三重區"
"241009","060-VK","2018/04/24 19:59:20","新北市三重區三和路四段386-1號","121.482121666667","25.07906","6500200","三重區"
"241031","061-VK","2018/04/24 19:59:26","新北市三重區重新路四段184巷16號","121.487006666667","25.0548966666667","6500200","三重區"
"241015","062-VK","2018/04/24 19:59:12","新北市三重區三和路二段12-1號","121.501003333333","25.0670016666667","6500200","三重區"
"241017","063-VK","2018/04/24 19:59:22","新北市三重區自強路一段272號","121.49214","25.0677816666667","6500200","三重區"
"241003","091-VK","2018/04/24 19:59:20","新北市三重區仁愛街454號","121.49006","25.0820633333333","6500200","三重區"
"241005","262-UM","2018/04/24 19:59:09","新北市三重區溪尾街325巷11號","121.488455","25.0837566666667","6500200","三重區"
"241011","265-UM","2018/04/24 19:59:24","新北市三重區秀江街254號","121.496128333333","25.0712366666667","6500200","三重區"
"241016","266-UM","2018/04/24 19:59:25","新北市三重區正義北路36巷8號","121.49682","25.0633366666667","6500200","三重區"
"241022","267-UM","2018/04/24 19:59:15","新北市三重區過圳街31巷2號","121.488971666667","25.0606283333333","6500200","三重區"
"241018","268-UM","2018/04/24 19:59:16","新北市三重區雙園街57巷15號","121.494946666667","25.067935","6500200","三重區"
"241032","269-UM","2018/04/24 19:59:22","新北市三重區朝陽街23號","121.48355","25.0565133333333","6500200","三重區"
"241013","270-UM","2018/04/24 19:59:20","新北市三重區三和路三段125巷31號","121.493765","25.0736583333333","6500200","三重區"
"241025","271-UM","2018/04/24 19:59:27","新北市三重區頂崁街210巷16號","121.476381666667","25.0677083333333","6500200","三重區"
"241007","398-BY","2018/04/24 19:59:15","新北市三重區三和路四段163巷79號","121.486076666667","25.07918","6500200","三重區"
"241035","462-BY","2018/04/24 19:59:16","新北市三重區大榮街11號","121.498163333333","25.063275","6500200","三重區"
"241004","475-VK","2018/04/24 19:59:26","新北市三重區五華街65號","121.492668333333","25.0825416666667","6500200","三重區"
"241020","478-VK","2018/04/24 19:59:28","新北市三重區大智街167號","121.490111666667","25.07252","6500200","三重區"
"241030","480-VK","2018/04/24 19:59:15","新北市三重區重新路四段250-1號","121.486038333333","25.05354","6500200","三重區"
"241014","543-UM","2018/04/24 19:59:15","新北市三重區長樂街16號","121.499506666667","25.0690333333333","6500200","三重區"
"241023","545-UM","2018/04/24 19:59:17","新北市三重區頂崁街168號","121.47752","25.0658966666667","6500200","三重區"
"241001","547-UM","2018/04/24 19:59:22","新北市三重區仁愛街283巷18號","121.493713333333","25.07955","6500200","三重區"
"241019","KEA-2593","2018/04/24 19:59:27","新北市三重區自強路二段9號","121.490043333333","25.0690033333333","6500200","三重區"
"241006","AAD-863","2018/04/24 19:58:56","新北市三重區力行路二段123巷7-1號","121.483333333333","25.07632","6500200","三重區"
"241026","887-TS","2018/04/24 19:59:20","新北市三重區仁慈街7號","121.501723333333","25.0630733333333","6500200","三重區"
"241012","941-UM","2018/04/24 19:59:11","新北市三重區仁厚街46號","121.500195","25.0765333333333","6500200","三重區"
"241029","942-UM","2018/04/24 19:59:09","新北市三重區重安街1號","121.490093333333","25.05822","6500200","三重區"
"241033","AAC-255","2018/04/24 19:59:15","新北市三重區中興北街49號","121.469498333333","25.0472816666667","6500200","三重區"
"235056","096-UM","2018/04/24 19:59:20","新北市中和區中山路三段170巷8弄24號","121.473113333333","25.007695","6500300","中和區"
"235039","097-UM","2018/04/24 19:59:21","新北市中和區大勇街25巷27號","121.515358333333","24.99396","6500300","中和區"
"235065","098-UM","2018/04/24 19:59:15","新北市中和區福祥路83號","121.499095","25.00581","6500300","中和區"
"235055","183-VK","2018/04/24 19:59:25","新北市中和區德光路26-1號","121.470568333333","25.004605","6500300","中和區"
"235049","186-VK","2018/04/24 19:59:17","新北市中和區中正路2號","121.503395","24.9937933333333","6500300","中和區"
"235067","255-BX","2018/04/24 19:59:16","新北市中和區新生街220巷31號","121.482301666667","24.9985033333333","6500300","中和區"
"235044","293-VK","2018/04/24 19:59:24","新北市中和區中正路89號","121.500466666667","24.9935416666667","6500300","中和區"
"235068","377-QA","2018/04/24 19:59:24","新北市中和區莊敬路16巷4號","121.499978333333","25.0040866666667","6500300","中和區"
"235050","4979-A6","2018/04/24 19:59:11","新北市中和區景平路241巷64弄2號","121.507703333333","24.9923883333333","6500300","中和區"
"235069","4980-A6","2018/04/24 19:59:10","新北市中和區圓通路171號","121.497586666667","24.9952583333333","6500300","中和區"
"235070","558-UM","2018/04/24 19:59:12","新北市中和區圓通路162-7號","121.497468333333","24.9950333333333","6500300","中和區"
"235054","640-BX","2018/04/24 19:59:24","新北市中和區莒光路138號","121.472431666667","25.0012633333333","6500300","中和區"
"235047","732-UM","2018/04/24 19:59:16","新北市中和區和平街138號","121.506391666667","24.9918416666667","6500300","中和區"
"235046","733-UM","2018/04/24 19:59:26","新北市中和區興南路一段93巷58弄2號","121.510615","24.9859533333333","6500300","中和區"
"235052","805-TS","2018/04/24 19:59:08","新北市中和區華新街30巷23號","121.506875","24.9841266666667","6500300","中和區"
"235048","896-TW","2018/04/24 19:59:24","新北市中和區景新街467巷20弄110號","121.51476","24.9866133333333","6500300","中和區"
"235053","900-TW","2018/04/24 19:59:18","新北市中和區華安街99號","121.468135","24.9963566666667","6500300","中和區"
"235066","911-UM","2018/04/24 19:59:13","新北市中和區光華街14號","121.503996666667","25.0041966666667","6500300","中和區"
"235051","157-BY","2018/04/24 19:59:25","新北市中和區景安路212號","121.503973333333","24.9907433333333","6500300","中和區"
"235037","AAC-213","2018/04/24 19:59:15","新北市中和區自立路99巷22弄5號","121.523353333333","24.9942866666667","6500300","中和區"
"235059","AAC-215","2018/04/24 19:59:16","新北市中和區圓通路367巷7號","121.492305","24.988105","6500300","中和區"
"220068","013-TV","2018/04/24 19:59:21","新北市板橋區光復街173號","121.48517","25.0207333333333","6500100","板橋區"
"220065","072-UY","2018/04/24 19:59:23","新北市板橋區館前東路152號","121.464371666667","25.0078233333333","6500100","板橋區"
"220106","075-UY","2018/04/24 19:59:22","新北市板橋區民治街42巷25號","121.478286666667","25.0330316666667","6500100","板橋區"
"220069","AAD-861","2018/04/24 19:59:25","新北市板橋區大明街25巷4弄16-3號","121.45742","25.0023066666667","6500100","板橋區"
"247024","893-R6","2018/04/24 19:59:27","新北市蘆洲區光榮路120巷8弄20號","121.464383333333","25.0877733333333","6501400","蘆洲區"
"247014","546-UM","2018/04/24 19:59:22","新北市蘆洲區成功路137號","121.472223333333","25.0823766666667","6501400","蘆洲區"
"247012","339-TH","2018/04/24 19:59:14","新北市蘆洲區民族路155號","121.479405","25.0880216666667","6501400","蘆洲區"
"247004","337-TH","2018/04/24 19:59:29","新北市蘆洲區長安街202號","121.458538333333","25.0841566666667","6501400","蘆洲區"
"247006","336-TH","2018/04/24 19:59:15","新北市蘆洲區九芎街94號","121.465738333333","25.0798566666667","6501400","蘆洲區"
"247008","056-VK","2018/04/24 19:59:15","新北市蘆洲區信義路111號","121.478353333333","25.0801266666667","6501400","蘆洲區"
"247016","007-UY","2018/04/24 19:59:16","新北市蘆洲區中正路100號","121.469898333333","25.0840883333333","6501400","蘆洲區"
"247002","002-UY","2018/04/24 19:59:16","新北市蘆洲區長安街274巷11號","121.457978333333","25.0871233333333","6501400","蘆洲區"
"235041","251-BX","2018/04/24 19:59:25","新北市中和區中安街192號","121.511383333333","24.9993683333333","6500300","中和區"
"228003","097-TW","2018/04/24 19:59:23","新北市貢寮區仁理村仁和路11號","121.923061666667","25.0515933333333","6502600","貢寮區"
"227003","642-TC","2018/04/24 19:59:20","新北市雙溪區雙溪里長安街16號","121.864991666667","25.034675","6502500","雙溪區"
"227009","400-TW","2018/04/24 19:59:23","新北市雙溪區新基里新基南街25號","121.866225","25.0381916666667","6502500","雙溪區"
"222001","KEA-2212","2018/04/24 19:59:18","新北市深坑區北深路三段164號","121.602341666667","25.0033383333333","6501800","深坑區"
"208002","KEA-2872","2018/04/24 19:59:16","新北市金山區環金路87號","121.636936666667","25.2172833333333","6502700","金山區"
"208003","665-BX","2018/04/24 19:59:14","新北市金山區永興里濆水路1-1號","121.630148333333","25.2643316666667","6502700","金山區"
"208001","761-BX","2018/04/24 19:59:13","新北市金山區南勢41-1號","121.629096666667","25.21984","6502700","金山區"
"251004","009-UM","2018/04/24 19:59:09","新北市淡水區民權路173巷15號","121.460685","25.135465","6501000","淡水區"
"251005","010-UM","2018/04/24 19:59:09","新北市淡水區學府路136巷43號","121.452043333333","25.1726466666667","6501000","淡水區"
"251001","011-UM","2018/04/24 19:59:29","新北市淡水區水源街二段177巷32弄20號","121.455375","25.1782966666667","6501000","淡水區"
"251013","179-VK","2018/04/24 19:59:24","新北市淡水區奎柔山路63號","121.451716666667","25.2061666666667","6501000","淡水區"
"251014","180-VK","2018/04/24 19:59:17","新北市淡水區石頭厝2-7號","121.460181666667","25.2363266666667","6501000","淡水區"
"251008","181-VK","2018/04/24 19:59:21","新北市淡水區淡海路72巷7號","121.423623333333","25.1810733333333","6501000","淡水區"
"251015","182-VK","2018/04/24 19:59:28","新北市淡水區埤島3-23號","121.447655","25.1897033333333","6501000","淡水區"
"251012","441-VK","2018/04/24 19:59:27","新北市淡水區下圭柔山100-10號","121.440593333333","25.2115966666667","6501000","淡水區"
"251016","442-VK","2018/04/24 19:58:58","新北市淡水區淡金路四段514號","121.452013333333","25.2258483333333","6501000","淡水區"
"251006","561-UM","2018/04/24 19:59:25","新北市淡水區北新路8號","121.44449","25.17742","6501000","淡水區"
"251009","575-R6","2018/04/24 19:59:14","新北市淡水區英專路28巷2弄18號","121.445848333333","25.1694866666667","6501000","淡水區"
"251007","577-R6","2018/04/24 19:59:24","新北市淡水區新民街27號","121.439115","25.175735","6501000","淡水區"
"251011","650-BX","2018/04/24 19:59:10","新北市淡水區淡金路二段138號","121.446976666667","25.1882516666667","6501000","淡水區"
"251002","672-BX","2018/04/24 19:59:17","新北市淡水區沙崙路129號","121.422701666667","25.18258","6501000","淡水區"
"207003","550-UM","2018/04/24 19:59:25","新北市萬里區磺潭里公館崙5號","121.641858333333","25.2142166666667","6502800","萬里區"
"207004","225-TW","2018/04/24 19:59:14","新北市萬里區北基里忠二街35號","121.68561","25.1757016666667","6502800","萬里區"
"252002","178-VK","2018/04/24 19:59:09","新北市三芝區三民街39巷36號","121.50534","25.2576033333333","6502100","三芝區"
"252001","292-VK","2018/04/24 19:59:25","新北市三芝區公正街66號","121.499758333333","25.257455","6502100","三芝區"
"237004","KEA-2597","2018/04/24 19:59:28","新北市三峽區添福2號","121.371925","24.9060866666667","6500900","三峽區"
"237007","153-BY","2018/04/24 19:59:26","新北市三峽區麻園43號","121.363765","24.9211566666667","6500900","三峽區"
"237009","210-TH","2018/04/24 19:59:23","新北市三峽區中山路91號","121.36636","24.9353516666667","6500900","三峽區"
"237008","302-VK","2018/04/24 19:59:24","新北市三峽區中正路一段174巷9號","121.371888333333","24.92891","6500900","三峽區"
"237012","280-TH","2018/04/24 19:59:20","新北市三峽區中華路48巷16號","121.371038333333","24.9300966666667","6500900","三峽區"
"237006","5529-G3","2018/04/24 19:59:17","新北市三峽區中正路二段122-1號","121.366381666667","24.917355","6500900","三峽區"
"237005","AKY-6261","2018/04/24 19:59:12","新北市三峽區民生街1巷5-96號","121.379625","24.9354233333333","6500900","三峽區"
"236070","105-UM","2018/04/24 19:59:09","新北市土城區忠義路77號","121.44315","24.964885","6501300","土城區"
"236042","107-UM","2018/04/24 19:59:12","新北市土城區學府路一段148號","121.454725","24.9869983333333","6501300","土城區"
"236079","166-UM","2018/04/24 19:59:16","新北市土城區福安街57號","121.418498333333","24.964395","6501300","土城區"
"236030","253-BX","2018/04/24 19:59:12","新北市土城區中央路一段250巷1號","121.44417","24.9845683333333","6501300","土城區"
"236026","269-VK","2018/04/24 19:59:07","新北市土城區中央路二段91號","121.442311666667","24.9780766666667","6501300","土城區"
"236014","270-VK","2018/04/24 19:59:18","新北市土城區廣福街123號","121.456198333333","24.9928816666667","6501300","土城區"
"236038","271-VK","2018/04/24 19:59:25","新北市土城區國際路52號","121.466453333333","24.9785016666667","6501300","土城區"
"236021","401-BY","2018/04/24 19:59:20","新北市土城區延吉街137巷25弄5號","121.471451666667","24.9851416666667","6501300","土城區"
"236059","912-UM","2018/04/24 19:59:12","新北市土城區中央路一段179號","121.446175","24.9873583333333","6501300","土城區"
"236049","913-UM","2018/04/24 19:59:28","新北市土城區金城路三段141號","121.468288333333","24.9881383333333","6501300","土城區"
"236063","915-UM","2018/04/24 19:59:22","新北市土城區金城路三段73巷11弄1號","121.466201666667","24.9878616666667","6501300","土城區"
"236055","AAC-216","2018/04/24 19:59:22","新北市土城區立德路33號","121.46221","24.9879683333333","6501300","土城區"
"242034","AAC-296","2018/04/24 19:59:28","新北市新莊區建中街91號","121.446706666667","25.0365466666667","6500500","新莊區"
"242058","986-R7","2018/04/24 19:59:24","新北市新莊區八德街60號","121.42493","25.0223816666667","6500500","新莊區"
"242054","751-BX","2018/04/24 19:59:13","新北市新莊區西盛街421號","121.427316666667","25.0121916666667","6500500","新莊區"
"242027","705-TV","2018/04/24 19:59:17","新北市新莊區立信三街25-2號","121.442913333333","25.0504333333333","6500500","新莊區"
"242025","613-BX","2018/04/24 19:59:12","新北市新莊區五工一路91號","121.460951666667","25.0676066666667","6500500","新莊區"
"242029","612-BX","2018/04/24 19:59:24","新北市新莊區中榮街152巷25號","121.445736666667","25.0532283333333","6500500","新莊區"
"242046","497-BY","2018/04/24 19:59:13","新北市新莊區裕民街37巷3號","121.419678333333","25.0250783333333","6500500","新莊區"
"242051","441-UM","2018/04/24 19:59:18","新北市新莊區西盛街172號","121.428198333333","25.0190683333333","6500500","新莊區"
"242056","440-UM","2018/04/24 19:59:09","新北市新莊區中正路347巷20號","121.447086666667","25.034295","6500500","新莊區"
"242037","415-TV","2018/04/24 19:59:22","新北市新莊區建安街39號","121.428935","25.0254933333333","6500500","新莊區"
"242007","413-TV","2018/04/24 19:59:11","新北市新莊區思源路487號","121.459321666667","25.0562683333333","6500500","新莊區"
"242044","400-BY","2018/04/24 19:59:10","新北市新莊區中正路746巷25-1號","121.410423333333","25.0242033333333","6500500","新莊區"
"242023","362-BY","2018/04/24 19:59:22","新北市新莊區化成路428號","121.465966666667","25.05114","6500500","新莊區"
"242061","353-BY","2018/04/24 19:59:14","新北市新莊區瓊泰路19號","121.44433","25.0285583333333","6500500","新莊區"
"242039","133-UY","2018/04/24 19:59:20","新北市新莊區民安路285-1號","121.429146666667","25.0226183333333","6500500","新莊區"
"242032","135-UY","2018/04/24 19:59:16","新北市新莊區忠孝街29巷33號","121.443581666667","25.036795","6500500","新莊區"
"242048","172-VK","2018/04/24 19:59:19","新北市新莊區富國路109巷3號","121.4237","25.0252033333333","6500500","新莊區"
"242011","173-VK","2018/04/24 19:59:13","新北市新莊區中港路531巷68號","121.450573333333","25.0515616666667","6500500","新莊區"
"242017","175-VK","2018/04/24 19:59:27","新北市新莊區中華路二段45巷7號","121.452985","25.0465","6500500","新莊區"
"242005","176-VK","2018/04/24 19:59:23","新北市新莊區化成路380-1號","121.465846666667","25.05007","6500500","新莊區"
"242015","346-TH","2018/04/24 19:59:26","新北市新莊區泰順街33巷4號","121.446246666667","25.0426333333333","6500500","新莊區"
"242021","348-TH","2018/04/24 19:59:20","新北市新莊區建中街16巷30號","121.449113333333","25.0387366666667","6500500","新莊區"
"242013","351-TH","2018/04/24 19:59:13","新北市新莊區幸福路670巷2弄1號","121.451023333333","25.0494533333333","6500500","新莊區"
"238015","755-BX","2018/04/24 19:59:26","新北市樹林區民和街8號","121.385496666667","24.968325","6500700","樹林區"
"238021","KEA-2539","2018/04/24 19:59:22","新北市樹林區佳園路三段101巷80弄3號","121.394716666667","24.9499183333333","6500700","樹林區"
"221008","489-VK","2018/04/24 19:59:17","新北市汐止區忠一街9巷7號","121.620496666667","25.0732283333333","6501100","汐止區"
"221036","130-UY","2018/04/24 19:59:14","新北市汐止區忠孝東路258巷11弄7號","121.66399","25.0674933333333","6501100","汐止區"
"221015","131-UY","2018/04/24 19:59:26","新北市汐止區大同路二段691號","121.665048333333","25.07258","6501100","汐止區"
"221010","269-BY","2018/04/24 19:59:21","新北市汐止區連峰街227號","121.645101666667","25.0810766666667","6501100","汐止區"
"221012","278-VK","2018/04/24 19:59:19","新北市汐止區大同路三段178號","121.674251666667","25.0747216666667","6501100","汐止區"
"221023","279-VK","2018/04/24 19:59:26","新北市汐止區明峰街218號","121.626936666667","25.0689466666667","6501100","汐止區"
"221032","280-BY","2018/04/24 19:59:16","新北市汐止區橫科路4巷1弄10號","121.617865","25.05081","6501100","汐止區"
"221027","281-BY","2018/04/24 19:59:22","新北市汐止區中正路101號","121.660891666667","25.0694433333333","6501100","汐止區"
"221029","298-VK","2018/04/24 19:59:19","新北市汐止區樟樹一路137巷26號","121.640823333333","25.0659566666667","6501100","汐止區"
"221021","299-VK","2018/04/24 19:59:25","新北市汐止區水源路一段138號","121.656081666667","25.0624916666667","6501100","汐止區"
"221031","353-TW","2018/04/24 19:59:21","新北市汐止區福德一路249號","121.633688333333","25.0646683333333","6501100","汐止區"
"221035","622-UM","2018/04/24 19:59:13","新北市汐止區長江街57巷6號","121.656245","25.0717733333333","6501100","汐止區"
"221025","623-UM","2018/04/24 19:59:10","新北市汐止區秀峰路109巷3號","121.660305","25.0634416666667","6501100","汐止區"
"221038","646-BX","2018/04/24 19:59:15","新北市汐止區忠孝東路500巷16號","121.66669","25.0750116666667","6501100","汐止區"
"221033","647-BX","2018/04/24 19:59:07","新北市汐止區東勢街201巷100號","121.633738333333","25.0430666666667","6501100","汐止區"
"221018","753-BX","2018/04/24 19:59:23","新北市汐止區茄苳路290號","121.672866666667","25.067195","6501100","汐止區"
"220079","145-BY","2018/04/24 19:59:17","新北市板橋區中正路135巷12弄1號","121.455583333333","25.0154916666667","6500100","板橋區"
"220080","200-UY","2018/04/24 19:59:04","新北市板橋區大觀路二段205號","121.444953333333","24.99921","6500100","板橋區"
"242002","KEA-2550","2018/04/24 19:59:18","新北市新莊區中正路170號","121.450943333333","25.0358583333333","6500500","新莊區"
"220082","610-BX","2018/04/24 19:59:24","新北市板橋區大觀路三段133巷19號","121.432735","24.9945166666667","6500100","板橋區"
"220101","245-BX","2018/04/24 19:59:21","新北市板橋區縣民大道三段85號","121.475565","25.02185","6500100","板橋區"
"220102","255-TC","2018/04/24 19:59:28","新北市板橋區仁化街67號","121.475691666667","25.0318283333333","6500100","板橋區"
"220103","257-TC","2018/04/24 19:59:15","新北市板橋區自由路18-3號","121.465461666667","25.0225183333333","6500100","板橋區"
"220091","267-BY","2018/04/24 19:59:19","新北市板橋區文聖街89巷27號","121.478488333333","25.03059","6500100","板橋區"
"220071","283-VK","2018/04/24 19:59:24","新北市板橋區五權街30巷10號","121.464318333333","24.9933883333333","6500100","板橋區"
"220094","285-UM","2018/04/24 19:59:24","新北市板橋區文德路11號","121.462718333333","25.0244016666667","6500100","板橋區"
"220053","285-VK","2018/04/24 19:59:30","新北市板橋區永豐街67號","121.473785","25.0185933333333","6500100","板橋區"
"220083","286-VK","2018/04/24 19:59:21","新北市板橋區僑中二街26號","121.445838333333","25.0107766666667","6500100","板橋區"
"220081","287-VK","2018/04/24 19:59:11","新北市板橋區僑中一街124巷20弄38號","121.447643333333","25.0138166666667","6500100","板橋區"
"220090","288-VK","2018/04/24 19:59:25","新北市板橋區幸福路32巷28號","121.460818333333","25.021455","6500100","板橋區"
"220061","295-UM","2018/04/24 19:59:21","新北市板橋區觀光街3巷12號","121.471461666667","25.015615","6500100","板橋區"
"220084","296-UM","2018/04/24 19:59:13","新北市樹林區水源街213號","121.424043333333","24.9872933333333","6500100","板橋區"
"220075","303-R5","2018/04/24 19:59:23","新北市板橋區金華街10巷103號","121.45895","25.02052","6500100","板橋區"
"220062","305-R5","2018/04/24 19:59:29","新北市板橋區萬安街20巷2弄13號","121.48528","25.0227083333333","6500100","板橋區"
"220092","307-R5","2018/04/24 19:59:20","新北市板橋區四維路259巷40號","121.461535","25.0272483333333","6500100","板橋區"
"220098","317-R6","2018/04/24 19:59:12","新北市板橋區漢生西路181號","121.463066666667","25.0236","6500100","板橋區"
"220064","486-VK","2018/04/24 19:59:23","新北市板橋區長安街331巷91-2號","121.472051666667","25.01264","6500100","板橋區"
"242019","280-VK","2018/04/24 19:59:16","新北市新莊區民生街15巷3號","121.455556666667","25.042385","6500500","新莊區"
"220088","491-VK","2018/04/24 19:59:26","新北市板橋區懷德街218號","121.479975","25.0293333333333","6500100","板橋區"
"220035","560-BX","2018/04/24 19:59:26","新北市板橋區新生街46號","121.456755","25.0210583333333","6500100","板橋區"
"220055","630-UY","2018/04/24 19:59:28","新北市板橋區仁愛路62巷24弄1-4號","121.460076666667","24.9979233333333","6500100","板橋區"
"220057","686-BX","2018/04/24 19:59:14","新北市板橋區四川路二段36號","121.453905","24.9953883333333","6500100","板橋區"
"220093","689-BX","2018/04/24 19:59:10","新北市板橋區長江路三段122號","121.475246666667","25.03434","6500100","板橋區"
"220054","741-BX","2018/04/24 19:59:27","新北市板橋區國泰街75巷28弄90號","121.467211666667","25.0040883333333","6500100","板橋區"
"220067","829-TW","2018/04/24 19:59:26","新北市板橋區長安街331巷93弄2號","121.472071666667","25.0123133333333","6500100","板橋區"
"220096","830-TW","2018/04/24 19:59:24","新北市板橋區莒光路40巷7弄3-3號","121.470488333333","25.02391","6500100","板橋區"
"220089","833-TW","2018/04/24 19:59:12","新北市板橋區新海路385巷22弄11號","121.457536666667","25.0262283333333","6500100","板橋區"
"220074","895-R6","2018/04/24 19:59:10","新北市板橋區府中路67號","121.45804","25.009495","6500100","板橋區"
"220073","985-R7","2018/04/24 19:59:13","新北市板橋區南雅西路二段2-1號","121.453251666667","25.00887","6500100","板橋區"
"220097","AAC-210","2018/04/24 19:59:25","新北市板橋區光正街25號","121.462303333333","25.0171833333333","6500100","板橋區"
"220070","AAC-253","2018/04/24 19:59:26","新北市板橋區四川路一段387號","121.457768333333","24.9987416666667","6500100","板橋區"
