"lineid","car","time","location","longitude","latitude","cityid","cityname"
"234064","337-UY","2018/04/24 20:39:16","台北市文山區溪洲街82巷15號","121.534011666667","25.0084","6500400","永和區"
"234030","746-BX","2018/04/24 20:39:30","新北市新店區安興路65巷16號","121.516101666667","24.9730433333333","6500400","永和區"
"234061","AAD-866","2018/04/24 20:39:12","新北市永和區秀朗路一段175號","121.517065","25.00372","6500400","永和區"
"249001","173-UM","2018/04/24 20:39:21","新北市八里區下罟子23號","121.377203333333","25.1387416666667","6502300","八里區"
"249004","303-UY","2018/04/24 20:39:29","新北市八里區中山路一段157巷28號","121.412808333333","25.1580866666667","6502300","八里區"
"234023","9380-KE","2018/04/24 20:39:09","新北市永和區竹林路39巷9號","121.518301666667","25.01455","6500400","永和區"
"234074","AAC-211","2018/04/24 20:39:21","新北市永和區竹林路119巷7號","121.52048","25.0114583333333","6500400","永和區"
"243011","297-R6","2018/04/24 20:39:21","新北市泰山區明志路二段332號","121.426155","25.0456533333333","6501600","泰山區"
"243014","421-VK","2018/04/24 20:39:23","新北市泰山區泰林路三段745巷145號","121.40555","25.0676633333333","6501600","泰山區"
"243010","KEA-2215","2018/04/24 20:39:12","新北市泰山區犁頭窠6號","121.421748333333","25.0590316666667","6501600","泰山區"
"243009","KEA-2216","2018/04/24 20:39:25","新北市泰山區泰林路二段360號","121.42897","25.0635783333333","6501600","泰山區"
"243016","680-BX","2018/04/24 20:39:13","新北市泰山區公園路89號","121.424678333333","25.0549766666667","6501600","泰山區"
"222002","016-RS","2018/04/24 20:39:24","新北市深坑區萬福路45號","121.599466666667","25.0068516666667","6501800","深坑區"
"222003","436-BY","2018/04/24 20:39:18","新北市深坑區文山路二段30巷31號","121.615566666667","24.9990366666667","6501800","深坑區"
"231060","001-UM","2018/04/24 20:39:28","新北市新店區安康路三段738號","121.473853333333","24.9420116666667","6500600","新店區"
"231041","002-UM","2018/04/24 20:39:19","新北市新店區中正路543-4號","121.53365","24.9874583333333","6500600","新店區"
"231059","046-UY","2018/04/24 20:39:24","新北市新店區僑信路132巷30號","121.500033333333","24.9454983333333","6500600","新店區"
"231040","047-UY","2018/04/24 20:39:13","新北市新店區中正路272號","121.538868333333","24.9735583333333","6500600","新店區"
"231044","106-UY","2018/04/24 20:39:09","新北市新店區建國路293巷2號","121.53698","24.985865","6500600","新店區"
"231053","108-UY","2018/04/24 20:39:22","新北市新店區廣興路7-10號","121.545723333333","24.9117116666667","6500600","新店區"
"231048","187-VK","2018/04/24 20:39:12","新北市新店區寶慶街2號","121.544093333333","24.9868466666667","6500600","新店區"
"231054","KEA-2219","2018/04/24 20:39:21","新北市新店區行政街12巷1號","121.542835","24.9663883333333","6500600","新店區"
"231057","256-BX","2018/04/24 20:39:27","新北市新店區花園六路二段9-2號","121.555718333333","24.9329066666667","6500600","新店區"
"231042","268-BY","2018/04/24 20:39:23","新北市新店區寶橋路210號","121.55088","24.97853","6500600","新店區"
"231051","278-BY","2018/04/24 20:39:26","新北市新店區中央五街37號","121.528683333333","24.9751183333333","6500600","新店區"
"231050","AAD-862","2018/04/24 20:39:14","新北市新店區中正路263-1號","121.538588333333","24.9737","6500600","新店區"
"231058","3713-VJ","2018/04/24 20:39:28","新北市新店區平等街61號","121.536021666667","24.9726583333333","6500600","新店區"
"231066","4716-K9","2018/04/24 20:39:26","新北市新店區安民街341-1號","121.516825","24.9748583333333","6500600","新店區"
"231056","4715-K9","2018/04/24 20:39:26","新北市新店區中央七街61巷12號","121.528785","24.9763016666667","6500600","新店區"
"231067","4772-VM","2018/04/24 20:39:20","新北市新店區安華路3號","121.51949","24.9598933333333","6500600","新店區"
"231065","512-UM","2018/04/24 20:39:26","新北市新店區安祥路102巷82號","121.485878333333","24.9639166666667","6500600","新店區"
"231049","513-UM","2018/04/24 20:39:25","新北市新店區永業路81巷5弄16號","121.530658333333","24.949365","6500600","新店區"
"231045","617-UM","2018/04/24 20:39:29","新北市新店區長春路39號","121.549851666667","24.9575333333333","6500600","新店區"
"231061","619-UM","2018/04/24 20:39:19","新北市新店區新和街34號","121.519245","24.9848833333333","6500600","新店區"
"231063","641-BX","2018/04/24 20:39:14","新北市新店區玫瑰路4-1號","121.493606666667","24.9513716666667","6500600","新店區"
"231068","718-UY","2018/04/24 20:39:25","新北市新店區寶元路一段85號","121.542935","24.985515","6500600","新店區"
"231064","719-UM","2018/04/24 20:39:24","新北市新店區安和路三段120巷14號","121.51757","24.9857683333333","6500600","新店區"
"231062","720-UM","2018/04/24 20:39:13","新北市新店區安泰路60巷55弄39號","121.484563333333","24.9455883333333","6500600","新店區"
"231043","899-TW","2018/04/24 20:39:23","新北市新店區博愛街13巷21號","121.540128333333","24.97381","6500600","新店區"
"241028","022-UY","2018/04/24 20:39:13","新北市三重區光興街89號","121.497458333333","25.0600216666667","6500200","三重區"
"241008","059-VK","2018/04/24 20:39:15","新北市三重區下竹圍街42號","121.481038333333","25.074975","6500200","三重區"
"241009","060-VK","2018/04/24 20:39:20","新北市三重區碧華街55號","121.484701666667","25.0813","6500200","三重區"
"241031","061-VK","2018/04/24 20:39:26","新北市三重區重陽路一段113巷1弄49號","121.48804","25.058525","6500200","三重區"
"241015","062-VK","2018/04/24 20:39:12","新北市三重區文化北路103號","121.4979","25.068405","6500200","三重區"
"241017","063-VK","2018/04/24 20:39:22","新北市三重區大同北路202號","121.490851666667","25.0669133333333","6500200","三重區"
"241002","090-VK","2018/04/24 20:39:28","新北市三重區仁義街167巷17號","121.497648333333","25.0818516666667","6500200","三重區"
"241003","091-VK","2018/04/24 20:39:20","新北市三重區五華街141巷58號","121.493493333333","25.0867316666667","6500200","三重區"
"241005","262-UM","2018/04/24 20:39:29","新北市三重區碧華街418號","121.492263333333","25.085215","6500200","三重區"
"241011","265-UM","2018/04/24 20:39:21","新北市三重區河邊北街140號","121.503381666667","25.0720933333333","6500200","三重區"
"241016","266-UM","2018/04/24 20:39:25","新北市三重區自強路一段143號","121.49469","25.066815","6500200","三重區"
"241022","267-UM","2018/04/24 20:39:15","新北市三重區中山路33巷27-5號","121.487876666667","25.0622433333333","6500200","三重區"
"241018","268-UM","2018/04/24 20:39:16","新北市三重區自強路一段298號","121.491455","25.0683666666667","6500200","三重區"
"241032","269-UM","2018/04/24 20:39:22","新北市三重區重陽路一段120巷48號","121.485005","25.0601283333333","6500200","三重區"
"241013","270-UM","2018/04/24 20:39:20","新北市三重區三和路四段71號","121.489793333333","25.0748066666667","6500200","三重區"
"241025","271-UM","2018/04/24 20:39:28","新北市三重區頂崁街210巷28弄20號","121.47561","25.0671983333333","6500200","三重區"
"241007","398-BY","2018/04/24 20:36:51","新北市三重區自強路四段34號","121.488761666667","25.0769916666667","6500200","三重區"
"241035","462-BY","2018/04/24 20:39:16","新北市三重區正義北路332號","121.494533333333","25.0706966666667","6500200","三重區"
"241004","475-VK","2018/04/24 20:39:14","新北市三重區仁愛街406巷3號","121.490621666667","25.0811616666667","6500200","三重區"
"241020","478-VK","2018/04/24 20:39:28","新北市三重區忠孝路一段101號","121.489505","25.0721216666667","6500200","三重區"
"241030","480-VK","2018/04/24 20:39:15","新北市三重區成功路73巷11號","121.489451666667","25.0519316666667","6500200","三重區"
"241014","543-UM","2018/04/24 20:39:15","新北市三重區萬壽街16號","121.49946","25.06945","6500200","三重區"
"241023","545-UM","2018/04/24 20:39:16","新北市三重區自由街35巷1號","121.479065","25.0668966666667","6500200","三重區"
"241001","547-UM","2018/04/24 20:39:22","新北市三重區自強路三段110巷21號","121.486145","25.0745883333333","6500200","三重區"
"241019","KEA-2593","2018/04/24 20:39:27","新北市三重區忠孝路一段10巷46號","121.491023333333","25.0712583333333","6500200","三重區"
"241026","887-TS","2018/04/24 20:39:20","新北市三重區文化南路11號","121.499941666667","25.0621683333333","6500200","三重區"
"241012","941-UM","2018/04/24 20:39:31","新北市三重區秀江街26號","121.502556666667","25.0730483333333","6500200","三重區"
"241029","942-UM","2018/04/24 20:39:09","新北市三重區集美街126巷27號","121.490065","25.05383","6500200","三重區"
"241033","AAC-255","2018/04/24 20:39:15","新北市三重區光復路二段1號","121.472308333333","25.0532983333333","6500200","三重區"
"235069","4980-A6","2018/04/24 20:39:11","新北市中和區連城路308號","121.483741666667","24.996245","6500300","中和區"
"247024","893-R6","2018/04/24 20:39:27","新北市蘆洲區長樂路81號","121.462575","25.08689","6501400","蘆洲區"
"247014","546-UM","2018/04/24 20:39:22","新北市蘆洲區成功路70號","121.473163333333","25.081015","6501400","蘆洲區"
"247022","500-BY","2018/04/24 20:39:15","新北市蘆洲區中正路243巷18弄6號","121.467038333333","25.0867","6501400","蘆洲區"
"247010","341-TH","2018/04/24 20:39:18","新北市蘆洲區集賢路226號","121.482385","25.086615","6501400","蘆洲區"
"247012","339-TH","2018/04/24 20:39:14","新北市蘆洲區集賢路224巷28號","121.481566666667","25.0875466666667","6501400","蘆洲區"
"247004","337-TH","2018/04/24 20:39:12","新北市蘆洲區長安街222號","121.458161666667","25.0848633333333","6501400","蘆洲區"
"247006","336-TH","2018/04/24 20:39:14","新北市蘆洲區和平路128號","121.467325","25.0803616666667","6501400","蘆洲區"
"247008","056-VK","2018/04/24 20:39:15","新北市蘆洲區重陽街50號","121.481516666667","25.0832616666667","6501400","蘆洲區"
"247016","007-UY","2018/04/24 20:39:16","新北市蘆洲區和平路28號","121.471105","25.0791816666667","6501400","蘆洲區"
"247002","002-UY","2018/04/24 20:39:16","新北市蘆洲區長安街375巷31號","121.455855","25.08783","6501400","蘆洲區"
"247020","001-UY","2018/04/24 20:39:16","新北市蘆洲區民族路331號","121.473841666667","25.0917333333333","6501400","蘆洲區"
"222001","KEA-2212","2018/04/24 20:39:18","新北市深坑區北深路三段211號","121.600591666667","25.00391","6501800","深坑區"
"251001","011-UM","2018/04/24 20:39:09","新北市淡水區淡金路73號","121.456051666667","25.16218","6501000","淡水區"
"251013","179-VK","2018/04/24 20:39:24","新北市淡水區行忠路171號","121.456506666667","25.2010166666667","6501000","淡水區"
"251014","180-VK","2018/04/24 20:39:17","新北市淡水區桂竹圍10-1號","121.471343333333","25.23203","6501000","淡水區"
"251010","413-VK","2018/04/24 20:39:15","新北市淡水區沙崙路181巷15號","121.4239","25.1842766666667","6501000","淡水區"
"251012","441-VK","2018/04/24 20:39:27","新北市淡水區興仁路99號","121.451608333333","25.2181233333333","6501000","淡水區"
"251016","442-VK","2018/04/24 20:39:30","新北市淡水區後洲子16-1號","121.449535","25.2240433333333","6501000","淡水區"
"251006","561-UM","2018/04/24 20:39:25","新北市淡水區商工路186巷27號","121.450611666667","25.18701","6501000","淡水區"
"251011","650-BX","2018/04/24 20:39:29","新北市淡水區新市一路一段361號","121.436348333333","25.1861733333333","6501000","淡水區"
"251002","672-BX","2018/04/24 20:39:17","新北市淡水區中正路36號","121.443771666667","25.1692033333333","6501000","淡水區"
"251003","673-BX","2018/04/24 20:39:21","新北市淡水區新民街152巷6弄22號","121.438803333333","25.1785433333333","6501000","淡水區"
"252002","178-VK","2018/04/24 20:39:29","新北市三芝區淡金路二段47-2號","121.50367","25.2606233333333","6502100","三芝區"
"252001","292-VK","2018/04/24 20:39:25","新北市三芝區長安街55號","121.501175","25.25654","6502100","三芝區"
"236014","270-VK","2018/04/24 20:39:18","新北市樹林區八德街247巷24-1號","121.421041666667","24.97401","6501300","土城區"
"242034","AAC-296","2018/04/24 20:39:02","新北市新莊區中正路334巷25弄8號","121.445376666667","25.0361283333333","6500500","新莊區"
"242058","986-R7","2018/04/24 20:39:24","新北市新莊區四維路134號","121.423171666667","25.023695","6500500","新莊區"
"242054","751-BX","2018/04/24 20:39:13","新北市新莊區西盛街323巷24號","121.428886666667","25.0146666666667","6500500","新莊區"
"242027","705-TV","2018/04/24 20:39:17","新北市新莊區思源路59號","121.459831666667","25.0403033333333","6500500","新莊區"
"242025","613-BX","2018/04/24 20:39:12","新北市三重區重光街107-2號","121.46641","25.06492","6500500","新莊區"
"242029","612-BX","2018/04/24 20:39:23","新北市新莊區中華路一段226號","121.452568333333","25.0429","6500500","新莊區"
"242042","566-BX","2018/04/24 20:39:26","新北市新莊區中正路694巷3弄10號","121.417998333333","25.0281583333333","6500500","新莊區"
"242046","497-BY","2018/04/24 20:39:14","新北市新莊區龍安路108號","121.41848","25.0205","6500500","新莊區"
"242051","441-UM","2018/04/24 20:39:18","新北市新莊區民安西路173巷20號","121.427305","25.0158316666667","6500500","新莊區"
"242056","440-UM","2018/04/24 20:39:29","新北市新莊區瓊泰路94巷34號","121.444371666667","25.0293883333333","6500500","新莊區"
"242037","415-TV","2018/04/24 20:39:22","新北市新莊區後港一路214號","121.433748333333","25.02836","6500500","新莊區"
"242007","413-TV","2018/04/24 20:39:11","新北市新莊區思源路195號","121.459731666667","25.0455933333333","6500500","新莊區"
"242044","400-BY","2018/04/24 20:39:30","新北市新莊區中正路新生巷85弄1號","121.417098333333","25.021735","6500500","新莊區"
"242023","362-BY","2018/04/24 20:39:22","新北市新莊區復興路三段79號","121.462745","25.0445116666667","6500500","新莊區"
"242061","353-BY","2018/04/24 20:39:15","新北市新莊區新樹路268巷1號","121.432563333333","25.013575","6500500","新莊區"
"242039","133-UY","2018/04/24 20:39:20","新北市新莊區新樹路166號","121.434756666667","25.0224566666667","6500500","新莊區"
"242032","135-UY","2018/04/24 20:39:16","新北市新莊區中正路535-11號","121.437505","25.03299","6500500","新莊區"
"242048","172-VK","2018/04/24 20:39:19","新北市新莊區中正路659號","121.427925","25.0305433333333","6500500","新莊區"
"242011","173-VK","2018/04/24 20:39:13","新北市新莊區中榮街122巷18號","121.446635","25.0535166666667","6500500","新莊區"
"242017","175-VK","2018/04/24 20:39:20","新北市新莊區中港一街161號","121.447093333333","25.0449866666667","6500500","新莊區"
"242015","346-TH","2018/04/24 20:39:26","新北市新莊區中和街1號","121.448413333333","25.042915","6500500","新莊區"
"242021","348-TH","2018/04/24 20:39:20","新北市新莊區中華路一段73號","121.452205","25.0400033333333","6500500","新莊區"
"242013","351-TH","2018/04/24 20:39:13","新北市新莊區幸福路910號","121.442846666667","25.04899","6500500","新莊區"
"221008","489-VK","2018/04/24 20:39:17","新北市汐止區康寧街861巷5號","121.645291666667","25.076125","6501100","汐止區"
"221036","130-UY","2018/04/24 20:39:14","新北市汐止區忠孝東路285號","121.663846666667","25.0686833333333","6501100","汐止區"
"221015","131-UY","2018/04/24 20:39:16","新北市汐止區建成路52號","121.663695","25.0728916666667","6501100","汐止區"
"221010","269-BY","2018/04/24 20:39:17","新北市汐止區八連路一段317號","121.639553333333","25.0863","6501100","汐止區"
"221023","279-VK","2018/04/24 20:39:26","新北市汐止區康寧街629號","121.637158333333","25.07189","6501100","汐止區"
"221032","280-BY","2018/04/24 20:39:16","新北市汐止區弘道街53巷30弄2號","121.618841666667","25.0499783333333","6501100","汐止區"
"221027","281-BY","2018/04/24 20:39:22","新北市汐止區大同路二段565號","121.662755","25.0698483333333","6501100","汐止區"
"221029","298-VK","2018/04/24 20:39:19","新北市汐止區大同路一段421號","121.642753333333","25.0611016666667","6501100","汐止區"
"221021","299-VK","2018/04/24 20:39:25","新北市汐止區水源路一段293號","121.654428333333","25.058315","6501100","汐止區"
"221031","353-TW","2018/04/24 20:39:21","新北市汐止區中興路27巷21號","121.63408","25.0608316666667","6501100","汐止區"
"221035","622-UM","2018/04/24 20:39:13","新北市汐止區長江街101-5號","121.658696666667","25.07318","6501100","汐止區"
"221025","623-UM","2018/04/24 20:39:10","新北市汐止區水源路二段185號","121.657761666667","25.05349","6501100","汐止區"
"221038","646-BX","2018/04/24 20:39:15","新北市汐止區汐萬路一段256巷3號","121.652456666667","25.07463","6501100","汐止區"
"221033","647-BX","2018/04/24 20:39:20","新北市汐止區合順街18巷8弄5號","121.620345","25.0419183333333","6501100","汐止區"
"221002","707-TV","2018/04/24 20:39:25","新北市汐止區福德二路125巷6弄2號","121.63114","25.0651016666667","6501100","汐止區"
"221018","753-BX","2018/04/24 20:39:23","新北市汐止區茄苳路12號","121.664806666667","25.0706916666667","6501100","汐止區"
"242002","KEA-2550","2018/04/24 20:39:18","新北市新莊區中正路72號","121.458761666667","25.0381366666667","6500500","新莊區"
"220103","257-TC","2018/04/24 20:39:13","新北市板橋區漢生東路53巷2號","121.465815","25.0166316666667","6500100","板橋區"
"220081","287-VK","2018/04/24 20:39:11","新北市樹林區中山路三段206-2號","121.383058333333","24.96651","6500100","板橋區"
"242009","281-VK","2018/04/24 20:39:21","新北市新莊區昌隆街67號","121.457061666667","25.050945","6500500","新莊區"
"220070","AAC-253","2018/04/24 20:39:26","新北市五股區凌雲路三段24巷9號","121.436525","25.1068283333333","6500100","板橋區"
