"lineid","car","time","location","longitude","latitude","cityid","cityname"
"247010","341-TH","2018/04/24 22:19:18","新北市五股區中興路三段2巷10號","121.44888","25.0814066666667","6501400","蘆洲區"
"247005","336-TH","2018/04/24 22:19:14","新北市五股區中興路三段2巷10號","121.449031666667","25.0811433333333","6501400","蘆洲區"
"251004","009-UM","2018/04/24 22:19:14","新北市淡水區民族路33號","121.462225","25.1358683333333","6501000","淡水區"
"251008","181-VK","2018/04/24 22:19:20","新北市淡水區學府路104號","121.449861666667","25.1718","6501000","淡水區"
"251010","413-VK","2018/04/24 22:19:14","新北市淡水區沙崙路200號","121.424711666667","25.1839733333333","6501000","淡水區"
"251007","577-R6","2018/04/24 22:19:16","新北市淡水區北新路186-3號","121.449635","25.1788216666667","6501000","淡水區"
"251011","650-BX","2018/04/24 22:19:29","新北市淡水區水碓街7號","121.443293333333","25.17704","6501000","淡水區"
