"lineid","car","time","location","longitude","latitude","cityid","cityname"
"248005","653-BX","2018/04/19 09:19:19","新北市五股區水碓三路63號","121.430323333333","25.0715833333333","6501500","五股區"
"244012","069-UM","2018/04/19 09:19:16","新北市林口區中正路514巷25號","121.382035","25.07788","6501700","林口區"
"244006","080-UY","2018/04/19 09:19:28","新北市林口區文化一路二段379號","121.387383333333","25.0883166666667","6501700","林口區"
"244018","403-UM","2018/04/19 09:19:27","新北市林口區忠孝路569號","121.373751666667","25.06804","6501700","林口區"
"244022","483-VK","2018/04/19 09:19:15","新北市林口區仁愛路二段62巷16號","121.384083333333","25.07607","6501700","林口區"
"244016","485-VK","2018/04/19 09:19:19","新北市林口區文化二路一段68巷10-3號","121.366398333333","25.068715","6501700","林口區"
"244008","656-BX","2018/04/19 09:19:27","新北市林口區竹林路278巷2號","121.390375","25.0817066666667","6501700","林口區"
"244010","701-TV","2018/04/19 09:19:24","新北市林口區仁愛路一段386巷8號","121.388051666667","25.0772633333333","6501700","林口區"
"243008","680-BX","2018/04/19 09:13:11","新北市泰山區犁頭窠3-1號","121.422125","25.0604783333333","6501600","泰山區"
"222006","289-BY","2018/04/19 09:19:14","新北市深坑區北深路一段40號","121.637791666667","25.0105833333333","6501800","深坑區"
"231069","189-VK","2018/04/19 09:19:26","新北市新店區新潭路三段215巷25號","121.508101666667","24.90409","6500600","新店區"
"231008","192-VK","2018/04/19 09:19:22","新北市新店區廣興路151號","121.536608333333","24.9093616666667","6500600","新店區"
"235001","611-BX","2018/04/19 09:19:30","新北市中和區中山路三段63巷7號","121.47733","25.0043283333333","6500300","中和區"
"226003","AGD-0702","2018/04/19 09:19:18","新北市平溪區嶺腳里嶺腳寮112號","121.74495","25.032575","6502400","平溪區"
"223001","205-TH","2018/04/19 09:19:25","新北市石碇區北宜路四段26號","121.623156666667","24.957925","6501900","石碇區"
"223008","406-TH","2018/04/19 09:19:11","新北市石碇區大溪墘2-4號","121.699188333333","25.0119916666667","6501900","石碇區"
"223001","592-UM","2018/04/19 09:19:24","新北市石碇區北宜路四段6號","121.61356","24.9607966666667","6501900","石碇區"
"223005","677-TV","2018/04/19 09:19:27","新北市石碇區碇坪路二段35號","121.684736666667","24.9766766666667","6501900","石碇區"
"252004","249-BX","2018/04/19 09:19:19","新北市三芝區興華里田心子20-8號","121.493986666667","25.2012733333333","6502100","三芝區"
"252007","AAC-283","2018/04/19 09:19:26","新北市三芝區古庄里山豬堀13-1號","121.493138333333","25.2570266666667","6502100","三芝區"
"237001","159-UY","2018/04/19 09:19:10","新北市樹林區中山路三段210-2號","121.381583333333","24.965445","6500900","三峽區"
"236009","165-UM","2018/04/19 09:19:23","新北市土城區中央路三段85-4號","121.437951666667","24.9682733333333","6501300","土城區"
"236003","339-SR","2018/04/19 09:19:26","新北市土城區中央路二段278巷3號","121.440406666667","24.97459","6501300","土城區"
"236005","498-BY","2018/04/19 09:19:20","新北市土城區中央路三段126巷23號","121.434375","24.967875","6501300","土城區"
"242033","AAC-296","2018/04/19 09:19:12","新北市新莊區公園一路141號","121.446513333333","25.0383366666667","6500500","新莊區"
"242057","986-R7","2018/04/19 09:19:13","新北市新莊區龍安路284號","121.422451666667","25.0191516666667","6500500","新莊區"
"242052","751-BX","2018/04/19 09:19:13","新北市新莊區西盛街390號","121.42768","25.0129566666667","6500500","新莊區"
"242026","615-BX","2018/04/19 09:19:15","新北市新莊區思源路157號","121.459771666667","25.0446033333333","6500500","新莊區"
"242028","612-BX","2018/04/19 09:19:25","新北市新莊區中華路一段232號","121.452561666667","25.0432783333333","6500500","新莊區"
"242040","566-BX","2018/04/19 09:19:29","新北市新莊區中正路694巷3弄2號","121.418343333333","25.0282966666667","6500500","新莊區"
"242045","497-BY","2018/04/19 09:19:17","新北市新莊區裕民街54巷25號","121.417625","25.0246183333333","6500500","新莊區"
"242003","442-UM","2018/04/19 09:19:21","新北市新莊區頭前路15巷2號","121.467873333333","25.0521916666667","6500500","新莊區"
"242049","441-UM","2018/04/19 09:19:11","新北市新莊區民安西路110號","121.426878333333","25.018855","6500500","新莊區"
"242055","440-UM","2018/04/19 09:19:25","新北市新莊區豐年街44號","121.44641","25.0320566666667","6500500","新莊區"
"242035","415-TV","2018/04/19 09:19:15","新北市新莊區建安街40巷7號","121.427406666667","25.025335","6500500","新莊區"
"242043","400-BY","2018/04/19 09:19:19","新北市新莊區中正路新建巷28弄69號","121.413908333333","25.0209233333333","6500500","新莊區"
"242022","362-BY","2018/04/19 09:19:27","新北市新莊區化成路694號","121.465928333333","25.0563183333333","6500500","新莊區"
"242059","353-BY","2018/04/19 09:19:29","新北市新莊區瓊林路瓊英巷2弄2號","121.443836666667","25.02731","6500500","新莊區"
"242038","133-UY","2018/04/19 09:19:16","新北市新莊區民安路342號","121.429316666667","25.02232","6500500","新莊區"
"242047","172-VK","2018/04/19 09:19:30","新北市新莊區龍安路266巷22號","121.421006666667","25.0188683333333","6500500","新莊區"
"242010","173-VK","2018/04/19 09:19:24","新北市新莊區中榮街104巷1號","121.447168333333","25.0531033333333","6500500","新莊區"
"242020","348-TH","2018/04/19 09:19:27","新北市新莊區公園路10巷1號","121.447825","25.038785","6500500","新莊區"
"242018","349-TH","2018/04/19 09:19:24","新北市新莊區民樂街83號","121.457993333333","25.0431566666667","6500500","新莊區"
"242012","351-TH","2018/04/19 09:19:17","新北市新莊區幸福路908號","121.44291","25.0489216666667","6500500","新莊區"
"242001","KEA-2550","2018/04/19 09:19:15","新北市新莊區中正路60號","121.461726666667","25.0399983333333","6500500","新莊區"
"242008","281-VK","2018/04/19 09:19:26","新北市新莊區思源路37號","121.459966666667","25.03968","6500500","新莊區"
"242030","280-VK","2018/04/19 09:19:23","新北市新莊區公園一路98號","121.443513333333","25.03738","6500500","新莊區"
