"lineid","car","time","location","longitude","latitude","cityid","cityname"
"248005","653-BX","2018/04/19 09:39:19","新北市五股區成泰路一段7巷27號","121.432203333333","25.0672516666667","6501500","五股區"
"244012","069-UM","2018/04/19 09:39:16","新北市林口區麗園二街1巷6-2號","121.378086666667","25.0702933333333","6501700","林口區"
"244018","403-UM","2018/04/19 09:39:27","新北市林口區麗園二街23巷17-1號","121.38012","25.0704683333333","6501700","林口區"
"244022","483-VK","2018/04/19 09:39:15","新北市林口區文化三路二段115巷16號","121.37338","25.08107","6501700","林口區"
"244017","485-VK","2018/04/19 09:39:19","新北市林口區仁愛路一段272巷2號","121.393615","25.0759933333333","6501700","林口區"
"244008","656-BX","2018/04/19 09:39:07","新北市林口區台電新村3號","121.388086666667","25.08637","6501700","林口區"
"244010","701-TV","2018/04/19 09:39:24","新北市林口區中山路502號","121.379281666667","25.0829066666667","6501700","林口區"
"243008","680-BX","2018/04/19 09:13:11","新北市泰山區犁頭窠3-1號","121.422125","25.0604783333333","6501600","泰山區"
"222006","289-BY","2018/04/19 09:32:14","新北市深坑區昇高坑路50-1號","121.629446666667","24.9953166666667","6501800","深坑區"
"231069","189-VK","2018/04/19 09:39:26","新北市新店區新潭路三段215巷25號","121.508121666667","24.9040516666667","6500600","新店區"
"231008","192-VK","2018/04/19 09:37:21","新北市新店區平廣路一段256號","121.50787","24.88829","6500600","新店區"
"223001","205-TH","2018/04/19 09:39:25","新北市石碇區北宜路五段58號","121.633836666667","24.9532033333333","6501900","石碇區"
"223008","406-TH","2018/04/19 09:28:11","新北市石碇區南勢坑2-3號","121.699665","24.9906933333333","6501900","石碇區"
"252004","249-BX","2018/04/19 09:39:19","新北市三芝區福德里大水堀30號","121.509175","25.215735","6502100","三芝區"
"252007","AAC-283","2018/04/19 09:39:26","新北市三芝區光明街1號","121.518648333333","25.263105","6502100","三芝區"
"236009","165-UM","2018/04/19 09:39:23","新北市土城區中央路四段294號","121.41414","24.9562066666667","6501300","土城區"
"236003","339-SR","2018/04/19 09:39:26","新北市土城區學府路一段160號","121.454335","24.98666","6501300","土城區"
"236005","498-BY","2018/04/19 09:39:19","新北市土城區忠義路90號","121.443646666667","24.9613916666667","6501300","土城區"
"242033","AAC-296","2018/04/19 09:39:12","新北市新莊區中正路309號","121.448168333333","25.035185","6500500","新莊區"
"242057","986-R7","2018/04/19 09:39:13","新北市新莊區四維路129號","121.422923333333","25.022695","6500500","新莊區"
"242052","751-BX","2018/04/19 09:39:13","新北市新莊區民安西路240號","121.42588","25.0142183333333","6500500","新莊區"
"242055","440-UM","2018/04/19 09:39:25","新北市新莊區瓊泰路75號","121.443208333333","25.0289183333333","6500500","新莊區"
"242035","415-TV","2018/04/19 09:39:26","新北市新莊區中正路455-2號","121.442616666667","25.0339433333333","6500500","新莊區"
"242043","400-BY","2018/04/19 09:39:19","新北市新莊區龍安路90號","121.417646666667","25.02077","6500500","新莊區"
"242059","353-BY","2018/04/19 09:39:14","新北市新莊區新樹路244巷51號","121.431246666667","25.0191916666667","6500500","新莊區"
"242047","172-VK","2018/04/19 09:39:10","新北市新莊區瓊林路59-89號","121.442233333333","25.0244566666667","6500500","新莊區"
"242020","348-TH","2018/04/19 09:39:27","新北市新莊區瓊林南路75-37號","121.437771666667","25.014265","6500500","新莊區"
"242001","KEA-2550","2018/04/19 09:39:15","新北市新莊區中港路五守新村23巷2號","121.45496","25.0384633333333","6500500","新莊區"
"242030","280-VK","2018/04/19 09:39:23","新北市新莊區三和路20-6號","121.439433333333","25.0374683333333","6500500","新莊區"
