"lineid","car","time","location","longitude","latitude","cityid","cityname"
"248005","653-BX","2018/04/19 09:49:19","新北市五股區成泰路一段48-1號","121.435406666667","25.0693016666667","6501500","五股區"
"244012","069-UM","2018/04/19 09:49:17","新北市林口區麗園一街2巷1號","121.37558","25.071835","6501700","林口區"
"244018","403-UM","2018/04/19 09:49:27","新北市林口區麗園二街51號","121.381111666667","25.0686433333333","6501700","林口區"
"244022","483-VK","2018/04/19 09:49:15","新北市林口區文林六街13巷24號","121.37013","25.080865","6501700","林口區"
"244017","485-VK","2018/04/19 09:49:18","新北市林口區粉寮69號","121.404951666667","25.09086","6501700","林口區"
"222006","289-BY","2018/04/19 09:49:14","新北市深坑區昇高坑路15號","121.624151666667","25.0007016666667","6501800","深坑區"
"231069","189-VK","2018/04/19 09:49:26","新北市新店區新潭路三段215巷25號","121.508128333333","24.90407","6500600","新店區"
"231008","192-VK","2018/04/19 09:37:21","新北市新店區平廣路一段256號","121.50787","24.88829","6500600","新店區"
"223001","205-TH","2018/04/19 09:49:25","新北市石碇區蓬菜寮4號","121.652243333333","24.9737166666667","6501900","石碇區"
"252004","249-BX","2018/04/19 09:48:39","新北市三芝區圓山里石曹子坑64號","121.523383333333","25.213555","6502100","三芝區"
"252007","AAC-283","2018/04/19 09:49:26","新北市三芝區新庄里新庄子95-9號","121.514005","25.27434","6502100","三芝區"
"237001","159-UY","2018/04/19 09:49:30","新北市三峽區隆恩街245號","121.35774","24.9408833333333","6500900","三峽區"
"236005","498-BY","2018/04/19 09:49:19","新北市土城區忠義路55巷35-1號","121.443143333333","24.967375","6501300","土城區"
"242059","353-BY","2018/04/19 09:49:14","新北市新莊區新樹路280號","121.432583333333","25.0126783333333","6500500","新莊區"
"242020","348-TH","2018/04/19 09:49:27","新北市樹林區八德街247巷24-3號","121.41998","24.9733183333333","6500500","新莊區"
"242001","KEA-2550","2018/04/19 09:49:15","新北市新莊區瓊林路59-13號","121.442191666667","25.0250716666667","6500500","新莊區"
"242030","280-VK","2018/04/19 09:49:23","新北市新莊區三泰路54號","121.43749","25.035465","6500500","新莊區"
