"lineid","car","time","location","longitude","latitude","cityid","cityname"
"234044","148-BY","2018/04/19 12:29:22","新北市永和區福和路1號","121.526398333333","25.00992","6500400","永和區"
"234068","149-BY","2018/04/19 12:29:37","新北市永和區福和路1號","121.526548333333","25.0100466666667","6500400","永和區"
"234078","298-R6","2018/04/19 12:29:39","新北市永和區林森路77號","121.523943333333","25.0039083333333","6500400","永和區"
"234036","336-UY","2018/04/19 12:29:21","新北市永和區福和路1號","121.526646666667","25.0102966666667","6500400","永和區"
"234084","338-UY","2018/04/19 12:29:44","新北市永和區福和路8巷1號","121.525011666667","25.00907","6500400","永和區"
"234048","847-RS","2018/04/19 12:29:36","新北市永和區福和路1號","121.526465","25.0098433333333","6500400","永和區"
"234040","862-TW","2018/04/19 12:29:38","新北市永和區福和路1號","121.52607","25.0091133333333","6500400","永和區"
"234022","9380-KE","2018/04/19 12:29:33","新北市永和區福和路1號","121.525808333333","25.0094033333333","6500400","永和區"
"234076","969-R7","2018/04/19 12:29:35","新北市永和區福和路1號","121.526525","25.0100166666667","6500400","永和區"
"243004","AAD-798","2018/04/19 12:25:03","新北市泰山區黎明路25號","121.422085","25.0607316666667","6501600","泰山區"
"231013","513-UM","2018/04/19 12:20:11","新北市新店區安華路28-1號","121.519758333333","24.96141","6500600","新店區"
"228005","097-TW","2018/04/19 12:29:08","新北市貢寮區福連里蓬萊街15號","121.988198333333","24.998175","6502600","貢寮區"
"228004","212-TW","2018/04/19 12:29:00","新北市貢寮區龍崗里嵩陽街33號","121.904783333333","25.0185816666667","6502600","貢寮區"
"207002","749-BX","2018/04/19 12:29:39","新北市萬里區雙興里太和路7-2號","121.65853","25.17397","6502800","萬里區"
