"lineid","car","time","location","longitude","latitude","cityid","cityname"
"234044","148-BY","2018/04/19 12:39:41","新北市永和區永元路94號","121.522496666667","25.0016783333333","6500400","永和區"
"234068","149-BY","2018/04/19 12:39:37","新北市永和區福和路1號","121.52539","25.009495","6500400","永和區"
"234005","207-UY","2018/04/19 12:39:30","新北市永和區福和路1號","121.526595","25.010095","6500400","永和區"
"234078","298-R6","2018/04/19 12:39:39","新北市永和區林森路77號","121.524025","25.003815","6500400","永和區"
"234036","336-UY","2018/04/19 12:39:42","新北市永和區福和路1號","121.526693333333","25.0101266666667","6500400","永和區"
"234062","337-UY","2018/04/19 12:39:29","新北市永和區福和路1號","121.526548333333","25.0100083333333","6500400","永和區"
"234084","338-UY","2018/04/19 12:39:24","新北市中和區景新街273巷32號","121.51082","24.9941333333333","6500400","永和區"
"234066","553-UM","2018/04/19 12:39:40","新北市永和區福和路8巷1號","121.524966666667","25.008895","6500400","永和區"
"234015","745-BX","2018/04/19 12:39:25","新北市永和區福和路1號","121.526443333333","25.0097133333333","6500400","永和區"
"234028","746-BX","2018/04/19 12:39:38","新北市永和區豫溪街217巷7號","121.525176666667","25.0098916666667","6500400","永和區"
"234012","KEA-2591","2018/04/19 12:39:37","新北市永和區環河東路二段48號","121.52324","25.01206","6500400","永和區"
"234060","AAD-866","2018/04/19 12:39:36","新北市永和區福和路1號","121.52569","25.0094466666667","6500400","永和區"
"234048","847-RS","2018/04/19 12:39:36","新北市永和區福和路1號","121.526453333333","25.0098716666667","6500400","永和區"
"234040","862-TW","2018/04/19 12:39:38","新北市永和區福和路346號","121.51499","25.0072566666667","6500400","永和區"
"234025","9371-KE","2018/04/19 12:39:27","新北市永和區福和路1號","121.525838333333","25.0093283333333","6500400","永和區"
"234010","9373-KE","2018/04/19 12:39:30","新北市永和區福和路1號","121.525481666667","25.0093283333333","6500400","永和區"
"234022","9380-KE","2018/04/19 12:39:33","新北市永和區福和路1號","121.525733333333","25.00941","6500400","永和區"
"234076","969-R7","2018/04/19 12:39:35","新北市永和區福和路1號","121.52556","25.0095083333333","6500400","永和區"
"243004","AAD-798","2018/04/19 12:25:03","新北市泰山區黎明路25號","121.422085","25.0607316666667","6501600","泰山區"
"231005","106-UY","2018/04/19 12:39:39","新北市新店區安華路28-1號","121.519585","24.9607666666667","6500600","新店區"
"231023","KEA-2219","2018/04/19 12:39:44","新北市新店區安華路28-1號","121.520065","24.9610533333333","6500600","新店區"
"231017","AAD-862","2018/04/19 12:39:30","新北市新店區安華路28-1號","121.519775","24.9612133333333","6500600","新店區"
"231013","513-UM","2018/04/19 12:20:11","新北市新店區安華路28-1號","121.519758333333","24.96141","6500600","新店區"
"235028","005-UY","2018/04/19 12:39:27","新北市中和區員山路36巷16-3號","121.48507","24.9913683333333","6500300","中和區"
"235031","255-BX","2018/04/19 12:39:39","新北市中和區新生街41號","121.483351666667","25.003105","6500300","中和區"
"228005","097-TW","2018/04/19 12:39:28","新北市貢寮區福連里蓬萊街15號","121.990503333333","24.9993733333333","6502600","貢寮區"
"228004","212-TW","2018/04/19 12:39:40","新北市貢寮區吉林里枋腳街6-2號","121.887618333333","25.0056183333333","6502600","貢寮區"
"207002","749-BX","2018/04/19 12:39:39","新北市萬里區雙興里太和路7-2號","121.658518333333","25.1739933333333","6502800","萬里區"
"207001","662-BX","2018/04/19 12:39:26","新北市萬里區萬里里獅頭路15-1號","121.697511666667","25.1800083333333","6502800","萬里區"
