"lineid","car","time","location","longitude","latitude","cityid","cityname"
"234052","KEA-2590","2018/04/19 14:48:46","新北市永和區福和路5-9號","121.525423333333","25.008465","6500400","永和區"
"234025","9371-KE","2018/04/19 14:48:47","新北市永和區雙和街52巷1號","121.509001666667","25.0032083333333","6500400","永和區"
"248013","025-BX","2018/04/19 14:48:42","新北市五股區五福路22巷1號","121.434418333333","25.0889533333333","6501500","五股區"
"248015","026-BX","2018/04/19 14:48:47","新北市五股區成泰路三段577巷80弄7號","121.4495","25.10433","6501500","五股區"
"248007","095-VK","2018/04/19 14:48:54","新北市五股區國道路三段7-1號","121.469471666667","25.075165","6501500","五股區"
"248017","225-UY","2018/04/19 14:21:25","新北市五股區壟路16號","121.415085","25.0854216666667","6501500","五股區"
"248011","247-BX","2018/04/19 14:48:47","新北市五股區六合街109號","121.429815","25.0902216666667","6501500","五股區"
"248003","677-BX","2018/04/19 14:48:47","新北市五股區成泰路一段197號","121.435106666667","25.07664","6501500","五股區"
"248001","678-BX","2018/04/19 14:48:56","新北市五股區成泰路三段145號","121.444815","25.0914333333333","6501500","五股區"
"248009","682-TV","2018/04/19 14:48:51","新北市五股區成泰路一段87-1號","121.434981666667","25.0688666666667","6501500","五股區"
"234072","AAC-211","2018/04/19 14:48:41","新北市永和區豫溪街217巷1號","121.524883333333","25.0093533333333","6500400","永和區"
"244003","248-BX","2018/04/19 14:48:49","新北市林口區竹林路269號","121.38957","25.0809233333333","6501700","林口區"
"243004","AAD-798","2018/04/19 14:48:46","新北市泰山區楓江路162號","121.440768333333","25.0656916666667","6501600","泰山區"
"243003","297-R6","2018/04/19 14:48:34","新北市泰山區明志路三段182巷53號","121.422671666667","25.03964","6501600","泰山區"
"243007","380-SR","2018/04/19 14:48:47","新北市泰山區明志路二段214巷16弄16號","121.426908333333","25.0496566666667","6501600","泰山區"
"243006","421-VK","2018/04/19 14:48:42","新北市泰山區泰林路二段216號","121.43285","25.0617916666667","6501600","泰山區"
"243002","KEA-2215","2018/04/19 14:48:53","新北市泰山區明志路二段255巷2弄3號","121.42758","25.047265","6501600","泰山區"
"243001","KEA-2216","2018/04/19 14:48:39","新北市泰山區泰林路二段116巷3弄1號","121.435008333333","25.0595333333333","6501600","泰山區"
"243005","646-TV","2018/04/19 14:48:53","新北市泰山區明志路二段325號","121.425778333333","25.045075","6501600","泰山區"
"243008","680-BX","2018/04/19 14:48:50","新北市泰山區貴陽街15號","121.421661666667","25.0333233333333","6501600","泰山區"
"231002","002-UM","2018/04/19 14:48:45","新北市新店區民權路88號","121.53688","24.982985","6500600","新店區"
"231027","0293-UT","2018/04/19 14:48:37","新北市新店區溪園路375號","121.523075","24.9798883333333","6500600","新店區"
"231001","047-UY","2018/04/19 14:48:48","新北市新店區中正路125號","121.542","24.9712083333333","6500600","新店區"
"231005","106-UY","2018/04/19 14:48:39","新北市新店區復興路2號","121.532345","24.9882966666667","6500600","新店區"
"231011","187-VK","2018/04/19 14:48:54","新北市新店區寶橋路78巷3號","121.546913333333","24.9750833333333","6500600","新店區"
"231023","KEA-2219","2018/04/19 14:48:44","新北市新店區檳榔路109號","121.544431666667","24.9617016666667","6500600","新店區"
"231026","256-BX","2018/04/19 14:48:50","新北市新店區安康路一段50-1號","121.529721666667","24.9613516666667","6500600","新店區"
"231018","278-BY","2018/04/19 14:48:43","新北市新店區中央六街11號","121.530056666667","24.9746366666667","6500600","新店區"
"231017","AAD-862","2018/04/19 14:48:50","新北市新店區北宜路三段62號","121.57488","24.9513283333333","6500600","新店區"
"231028","355-BY","2018/04/19 14:48:40","新北市新店區安德街116巷34號","121.508645","24.961265","6500600","新店區"
"231038","3712-VJ","2018/04/19 14:47:53","新北市新店區安康路二段362號","121.501896666667","24.9574466666667","6500600","新店區"
"231037","4716-K9","2018/04/19 14:48:37","新北市新店區薏仁坑路自強巷1號","121.49716","24.957915","6500600","新店區"
"231036","512-UM","2018/04/19 14:48:55","新北市新店區安祥路106巷147號","121.473408333333","24.9588733333333","6500600","新店區"
"231013","513-UM","2018/04/19 14:48:56","新北市新店區北新路二段61號","121.542653333333","24.973285","6500600","新店區"
"231030","619-UM","2018/04/19 14:48:51","新北市新店區安民街253號","121.517245","24.97247","6500600","新店區"
"231034","641-BX","2018/04/19 14:48:39","新北市新店區安康路二段335號","121.49807","24.9558266666667","6500600","新店區"
"231003","645-TV","2018/04/19 14:48:41","新北市新店區中興路二段61號","121.54659","24.97058","6500600","新店區"
"231039","718-UY","2018/04/19 14:48:46","新北市新店區安華路28-1號","121.519396666667","24.9613016666667","6500600","新店區"
"231035","719-UM","2018/04/19 14:48:45","新北市新店區安民街35巷9弄12號","121.51486","24.96559","6500600","新店區"
"231021","719-UY","2018/04/19 14:48:49","新北市新店區永福路38-6號","121.551238333333","24.9295","6500600","新店區"
"231031","720-UM","2018/04/19 14:48:35","新北市新店區薏仁坑路23號","121.49814","24.9589866666667","6500600","新店區"
"231029","897-TW","2018/04/19 14:48:27","新北市新店區錦秀路11巷81號","121.480636666667","24.9446733333333","6500600","新店區"
"231006","898-TW","2018/04/19 14:48:47","新北市新店區北宜路一段121-3號","121.540365","24.95389","6500600","新店區"
"231004","899-TW","2018/04/19 14:48:39","新北市新店區民族路161號","121.537715","24.9768916666667","6500600","新店區"
"231024","AKT-0513","2018/04/19 14:48:47","新北市新店區力行路44號","121.538791666667","24.96533","6500600","新店區"
"235020","096-UM","2018/04/19 14:48:49","新北市中和區中山路三段114巷46號","121.475781666667","25.0073866666667","6500300","中和區"
"235003","097-UM","2018/04/19 14:48:52","新北市中和區安樂路243巷2號","121.513905","24.999715","6500300","中和區"
"235029","098-UM","2018/04/19 14:48:51","新北市中和區永和路90巷2弄1號","121.497461666667","25.00577","6500300","中和區"
"235004","150-BY","2018/04/19 14:48:44","新北市中和區安平路30號","121.509606666667","24.9948983333333","6500300","中和區"
"235022","151-BY","2018/04/19 14:48:51","新北市中和區員山路148巷15號","121.48194","24.9972516666667","6500300","中和區"
"235019","183-VK","2018/04/19 14:48:51","新北市中和區德光路92-2號","121.468846666667","25.0035433333333","6500300","中和區"
"235002","185-VK","2018/04/19 14:48:46","新北市中和區立人街69巷3號","121.519978333333","24.9938866666667","6500300","中和區"
"235013","186-VK","2018/04/19 14:48:48","新北市中和區景平路526號","121.502806666667","24.994315","6500300","中和區"
"235031","255-BX","2018/04/19 14:48:52","新北市中和區員山路148巷23弄58號","121.482236666667","24.9981283333333","6500300","中和區"
"235008","293-VK","2018/04/19 14:48:37","新北市中和區景安路211號","121.504525","24.99177","6500300","中和區"
"235007","352-BY","2018/04/19 14:48:46","新北市中和區安樂路48號","121.511923333333","24.9930216666667","6500300","中和區"
"235032","377-QA","2018/04/19 14:48:53","新北市中和區福祥路77號","121.49921","25.0055283333333","6500300","中和區"
"235025","378-QA","2018/04/19 14:48:49","新北市中和區員山路172號","121.481456666667","24.999995","6500300","中和區"
"235014","4979-A6","2018/04/19 14:48:39","新北市中和區景平路241巷84弄54號","121.50611","24.9924583333333","6500300","中和區"
"235034","558-UM","2018/04/19 14:48:56","新北市中和區連勝街66號","121.497155","24.996955","6500300","中和區"
"235018","640-BX","2018/04/19 14:48:50","新北市中和區莒光路220號","121.470008333333","24.995955","6500300","中和區"
"235024","647-TV","2018/04/19 14:48:53","新北市中和區中山路二段481號","121.482963333333","25.0050066666667","6500300","中和區"
"235011","732-UM","2018/04/19 14:48:47","新北市中和區和平街70號","121.5081","24.99095","6500300","中和區"
"235010","733-UM","2018/04/19 14:48:41","新北市中和區興南路一段61號","121.510388333333","24.98967","6500300","中和區"
"235035","783-BX","2018/04/19 14:48:45","新北市中和區錦和路34號","121.48733","25.000865","6500300","中和區"
"235026","800-TS","2018/04/19 14:48:48","新北市中和區中山路二段488-1號","121.487438333333","25.0049966666667","6500300","中和區"
"235021","801-TS","2018/04/19 14:48:44","新北市中和區民樂路81號","121.48454","25.001385","6500300","中和區"
"235016","805-TS","2018/04/19 14:48:50","新北市中和區興南路二段113巷2號","121.50562","24.984225","6500300","中和區"
"235012","896-TW","2018/04/19 14:48:56","新北市中和區忠孝街142號","121.51239","24.9871183333333","6500300","中和區"
"235017","900-TW","2018/04/19 14:48:44","新北市中和區國光街215巷3號","121.46655","25.0016616666667","6500300","中和區"
"235030","911-UM","2018/04/19 14:48:46","新北市中和區南工路20號","121.505471666667","25.0004983333333","6500300","中和區"
"235015","157-BY","2018/04/19 14:48:50","新北市中和區復興路301巷16號","121.501421666667","24.9895666666667","6500300","中和區"
"235001","AAC-213","2018/04/19 14:48:52","新北市中和區自立路191號","121.524061666667","24.9913183333333","6500300","中和區"
"235023","AAC-215","2018/04/19 14:48:44","新北市中和區圓通路305巷29弄8號","121.49541","24.9890716666667","6500300","中和區"
"220016","013-TV","2018/04/19 14:48:54","新北市板橋區中山路二段422-1號","121.483273333333","25.0208916666667","6500100","板橋區"
"220004","015-TV","2018/04/19 14:48:38","新北市板橋區四川路二段47巷3弄5號","121.454385","24.99492","6500100","板橋區"
"220013","072-UY","2018/04/19 14:48:42","新北市中和區民生街28巷13號","121.46967","25.005815","6500100","板橋區"
"220034","073-UY","2018/04/19 14:48:54","新北市板橋區南雅西路二段2-6號","121.453411666667","25.0089616666667","6500100","板橋區"
"220105","075-UY","2018/04/19 14:48:53","新北市板橋區文化路二段650巷1號","121.478466666667","25.0355666666667","6500100","板橋區"
"220017","AAD-861","2018/04/19 14:48:50","新北市板橋區南雅南路二段5號","121.454475","25.0029183333333","6500100","板橋區"
"247013","546-UM","2018/04/19 14:48:43","新北市蘆洲區得勝街149號","121.471715","25.083015","6501400","蘆洲區"
"247021","500-BY","2018/04/19 14:48:52","新北市蘆洲區仁愛街212巷11號","121.464616666667","25.0935066666667","6501400","蘆洲區"
"247009","341-TH","2018/04/19 14:48:41","新北市蘆洲區鷺江街12號","121.479128333333","25.0826083333333","6501400","蘆洲區"
"247005","336-TH","2018/04/19 14:48:49","新北市蘆洲區中華街31號","121.463248333333","25.0815166666667","6501400","蘆洲區"
"247015","007-UY","2018/04/19 14:48:41","新北市蘆洲區正和街96巷47號","121.46716","25.0818033333333","6501400","蘆洲區"
"247001","002-UY","2018/04/19 14:48:38","新北市蘆洲區長安街246巷23號","121.458228333333","25.0863316666667","6501400","蘆洲區"
"247019","001-UY","2018/04/19 14:48:26","新北市蘆洲區民義街68巷42號","121.473748333333","25.0895516666667","6501400","蘆洲區"
"228005","097-TW","2018/04/19 14:48:48","新北市貢寮區美豐里丹裡街69號","121.905821666667","25.0553566666667","6502600","貢寮區"
"228004","212-TW","2018/04/19 14:48:40","新北市貢寮區福隆里裕隆街5號","121.946116666667","25.0159816666667","6502600","貢寮區"
"253003","6232-TK","2018/04/19 14:48:45","新北市石門區尖子鹿103-1號","121.581105","25.2958016666667","6502200","石門區"
"253001","6251-TK","2018/04/19 14:48:46","新北市石門區崁子腳89-1號","121.535623333333","25.2723233333333","6502200","石門區"
"253002","637-UY","2018/04/19 14:48:38","新北市石門區楓林42號","121.539506666667","25.2796016666667","6502200","石門區"
"253004","8270-PC","2018/04/19 14:48:56","新北市石門區茂林社區227號","121.591946666667","25.2704866666667","6502200","石門區"
"251013","179-VK","2018/04/19 14:26:27","新北市淡水區中正路二段31號","121.419673333333","25.1812033333333","6501000","淡水區"
"207002","749-BX","2018/04/19 14:48:38","新北市萬里區崁腳里崁腳路73號","121.647608333333","25.159625","6502800","萬里區"
"252005","073-UM","2018/04/19 14:48:52","新北市三芝區埔坪里埔頭坑93號","121.509136666667","25.2503466666667","6502100","三芝區"
"207001","662-BX","2018/04/19 14:47:46","新北市萬里區雙興里豐稟路31-1號","121.643088333333","25.1810016666667","6502800","萬里區"
"236068","105-UM","2018/04/19 14:48:41","新北市土城區金城路二段239號","121.455743333333","24.9825216666667","6501300","土城區"
"236040","107-UM","2018/04/19 14:48:43","新北市土城區裕民路114巷27號","121.450291666667","24.9856383333333","6501300","土城區"
"236074","166-UM","2018/04/19 14:48:49","新北市土城區中央路四段125巷11號","121.416751666667","24.957285","6501300","土城區"
"236029","253-BX","2018/04/19 14:48:45","新北市土城區忠義路26巷10號","121.439835","24.9699216666667","6501300","土城區"
"236024","269-VK","2018/04/19 14:48:49","新北市土城區慶安街32號","121.44149","24.973345","6501300","土城區"
"236012","270-VK","2018/04/19 14:48:35","新北市土城區金城路二段354巷4號","121.460743333333","24.984905","6501300","土城區"
"236032","271-VK","2018/04/19 14:48:39","新北市土城區明德路一段195巷3弄3號","121.464225","24.9785483333333","6501300","土城區"
"236017","401-BY","2018/04/19 14:48:53","新北市土城區延吉街253巷9號","121.46788","24.9844383333333","6501300","土城區"
"236057","912-UM","2018/04/19 14:48:49","新北市土城區承天路1號","121.43588","24.9664733333333","6501300","土城區"
"236045","913-UM","2018/04/19 14:48:50","新北市土城區廣福街68巷18弄1號","121.459496666667","24.99055","6501300","土城區"
"236060","915-UM","2018/04/19 14:48:39","新北市土城區金城路三段207巷6弄13號","121.470731666667","24.9902683333333","6501300","土城區"
"236054","AAC-216","2018/04/19 14:48:55","新北市土城區裕民路217號","121.453876666667","24.98398","6501300","土城區"
"238012","303-VK","2018/04/19 14:48:50","新北市樹林區中山路三段198號","121.387468333333","24.9686166666667","6500700","樹林區"
"221002","707-TV","2018/04/19 14:48:39","新北市汐止區莊敬街19巷1號","121.657345","25.06145","6501100","汐止區"
"220027","145-BY","2018/04/19 14:48:59","新北市板橋區建國街39-3號","121.45838","25.0171416666667","6500100","板橋區"
"220028","200-UY","2018/04/19 14:48:52","新北市板橋區大觀路二段57號","121.4467","25.00269","6500100","板橋區"
"220030","610-BX","2018/04/19 14:48:53","新北市板橋區存德街27號","121.430478333333","24.9916633333333","6500100","板橋區"
"220050","245-BX","2018/04/19 14:48:42","新北市板橋區莒光路237-9號","121.474273333333","25.02184","6500100","板橋區"
"220020","277-BY","2018/04/19 14:48:38","新北市板橋區金門街215-1號","121.432596666667","24.9899616666667","6500100","板橋區"
"220019","283-VK","2018/04/19 14:48:54","新北市板橋區五權街34-1號","121.464253333333","24.9922983333333","6500100","板橋區"
"220043","285-UM","2018/04/19 14:48:54","新北市板橋區長江路一段105巷1弄1號","121.459323333333","25.0300816666667","6500100","板橋區"
"220001","285-VK","2018/04/19 14:48:45","新北市板橋區民生路一段64號","121.474193333333","25.0151883333333","6500100","板橋區"
"220031","286-VK","2018/04/19 14:48:52","新北市板橋區僑中二街10巷30號","121.44583","25.0111866666667","6500100","板橋區"
"220029","287-VK","2018/04/19 14:48:40","新北市板橋區大觀路一段29巷179弄21號","121.449625","25.0045983333333","6500100","板橋區"
"220039","288-VK","2018/04/19 14:48:43","新北市板橋區龍泉街54巷10號","121.456858333333","25.0266683333333","6500100","板橋區"
"220009","293-UM","2018/04/19 14:48:37","新北市板橋區觀光街2-5號","121.472183333333","25.015645","6500100","板橋區"
"220023","303-R5","2018/04/19 14:48:48","新北市板橋區中正路225號","121.455976666667","25.01778","6500100","板橋區"
"220010","305-R5","2018/04/19 14:48:44","新北市板橋區中山路二段416巷54弄14號","121.482228333333","25.01935","6500100","板橋區"
"220041","307-R5","2018/04/19 14:48:44","新北市板橋區四維路259巷4號","121.462958333333","25.02803","6500100","板橋區"
"220047","317-R6","2018/04/19 14:48:53","新北市板橋區新海路385巷24號","121.45799","25.02561","6500100","板橋區"
"220012","486-VK","2018/04/19 14:48:54","新北市板橋區館前東路98號","121.462453333333","25.0074566666667","6500100","板橋區"
"220104","560-BX","2018/04/19 14:48:43","新北市板橋區金華街95號","121.458418333333","25.0208716666667","6500100","板橋區"
"220052","561-BX","2018/04/19 14:48:52","新北市板橋區陽明街27巷9號","121.465708333333","25.0214683333333","6500100","板橋區"
"220032","568-UM","2018/04/19 14:48:37","新北市板橋區溪崑二街92巷20弄1號","121.426088333333","24.9897533333333","6500100","板橋區"
"220011","609-BX","2018/04/19 14:48:49","新北市板橋區三民路一段1巷40號","121.48028","25.0243066666667","6500100","板橋區"
"220002","630-UY","2018/04/19 14:48:54","新北市板橋區實踐路65巷43號","121.465185","25.006365","6500100","板橋區"
"220040","637-BX","2018/04/19 14:48:39","新北市板橋區懷德街139巷20弄6-2號","121.48009","25.030605","6500100","板橋區"
"220005","686-BX","2018/04/19 14:48:40","新北市板橋區廣權路9號","121.460715","24.9913916666667","6500100","板橋區"
"220042","689-BX","2018/04/19 14:48:54","新北市板橋區長江路一段141號","121.460746666667","25.0302116666667","6500100","板橋區"
"220051","KEA-2699","2018/04/19 14:48:38","新北市板橋區松柏街35號","121.475205","25.0303566666667","6500100","板橋區"
"220018","806-UM","2018/04/19 14:48:35","新北市板橋區民族路213號","121.469335","25.0072383333333","6500100","板橋區"
"220003","827-TW","2018/04/19 14:48:51","新北市板橋區國慶路149巷29弄6-4號","121.460671666667","24.9977483333333","6500100","板橋區"
"220014","830-TW","2018/04/19 14:48:37","新北市板橋區長安街138巷1弄89號","121.474893333333","25.0114116666667","6500100","板橋區"
"220045","831-TW","2018/04/19 14:48:43","新北市板橋區民生路二段234巷77號","121.470358333333","25.0226733333333","6500100","板橋區"
"220038","833-TW","2018/04/19 14:48:51","新北市板橋區龍泉街137號","121.457736666667","25.0239866666667","6500100","板橋區"
"220022","895-R6","2018/04/19 14:48:43","新北市板橋區文化路一段46巷16號","121.460235","25.0114333333333","6500100","板橋區"
"220021","985-R7","2018/04/19 14:48:52","新北市板橋區大仁街39號","121.455031666667","25.0166916666667","6500100","板橋區"
"220046","AAC-210","2018/04/19 14:48:51","新北市板橋區幸福路34號","121.461665","25.0202616666667","6500100","板橋區"
"220025","AAC-253","2018/04/19 14:48:54","新北市板橋區僑中三街39號","121.445081666667","25.00471","6500100","板橋區"
