"lineid","car","time","location","longitude","latitude","cityid","cityname"
"234025","9371-KE","2018/04/19 15:09:27","新北市永和區福和路1號","121.525555","25.00936","6500400","永和區"
"248007","095-VK","2018/04/19 15:09:34","新北市五股區中興路一段1巷20號","121.469738333333","25.07102","6501500","五股區"
"248017","225-UY","2018/04/19 15:09:34","新北市五股區登林路101號","121.411735","25.0775866666667","6501500","五股區"
"248003","677-BX","2018/04/19 15:09:47","新北市五股區成泰路一段70-1號","121.435555","25.0698366666667","6501500","五股區"
"234072","AAC-211","2018/04/19 15:09:41","新北市新店區薏仁坑路6號","121.500235","24.9580233333333","6500400","永和區"
"244003","248-BX","2018/04/19 15:09:49","新北市林口區竹林路266號","121.389668333333","25.0808316666667","6501700","林口區"
"243004","AAD-798","2018/04/19 15:09:46","新北市泰山區橫窠雅20-3號","121.412441666667","25.0690216666667","6501600","泰山區"
"243003","297-R6","2018/04/19 15:09:47","新北市泰山區新北大道六段369號","121.422458333333","25.0327566666667","6501600","泰山區"
"243007","380-SR","2018/04/19 15:09:47","新北市泰山區同義街47巷30號","121.432678333333","25.056255","6501600","泰山區"
"243006","421-VK","2018/04/19 15:09:42","新北市泰山區泰林路二段2-7號","121.419783333333","25.0650883333333","6501600","泰山區"
"243002","KEA-2215","2018/04/19 15:09:33","新北市泰山區橫窠雅36號","121.40352","25.0727333333333","6501600","泰山區"
"243001","KEA-2216","2018/04/19 15:09:39","新北市泰山區泰林路二段452號","121.426195","25.0641616666667","6501600","泰山區"
"243008","680-BX","2018/04/19 15:09:30","新北市泰山區明志路二段218號","121.427281666667","25.0486766666667","6501600","泰山區"
"231002","002-UM","2018/04/19 15:09:45","新北市新店區中正路539-5號","121.533371666667","24.986575","6500600","新店區"
"231001","047-UY","2018/04/19 15:09:48","新北市新店區中正路278號","121.538795","24.9737016666667","6500600","新店區"
"231005","106-UY","2018/04/19 15:09:46","新北市新店區北新路三段173-3號","121.541036666667","24.9840283333333","6500600","新店區"
"231011","187-VK","2018/04/19 15:09:34","新北市新店區寶元路一段65號","121.542258333333","24.9858366666667","6500600","新店區"
"231023","KEA-2219","2018/04/19 15:09:44","新北市新店區檳榔路174號","121.54394","24.9620016666667","6500600","新店區"
"231026","256-BX","2018/04/19 15:09:30","新北市新店區建國路76號","121.540543333333","24.97639","6500600","新店區"
"231018","278-BY","2018/04/19 15:09:42","新北市新店區中央七街126號","121.52484","24.9779483333333","6500600","新店區"
"231017","AAD-862","2018/04/19 15:03:49","新北市新店區明山路65號","121.565661666667","24.957505","6500600","新店區"
"231028","355-BY","2018/04/19 15:09:40","新北市新店區僑愛七路20號","121.501596666667","24.944625","6500600","新店區"
"231038","3712-VJ","2018/04/19 15:09:46","新北市新店區安華路28-1號","121.519623333333","24.96107","6500600","新店區"
"231037","4716-K9","2018/04/19 15:09:37","新北市新店區安興路56號","121.51652","24.9749983333333","6500600","新店區"
"231025","4715-K9","2018/04/19 15:09:43","新北市新店區建國路220號","121.537815","24.9811733333333","6500600","新店區"
"231036","512-UM","2018/04/19 15:09:35","新北市新店區安祥路102巷19號","121.484633333333","24.9645683333333","6500600","新店區"
"231030","619-UM","2018/04/19 15:09:31","新北市新店區安民街341-1號","121.516745","24.9749166666667","6500600","新店區"
"231034","641-BX","2018/04/19 15:09:39","新北市新店區玫瑰路4-1號","121.493633333333","24.95141","6500600","新店區"
"231003","645-TV","2018/04/19 15:09:41","新北市新店區中興路二段239號","121.547468333333","24.97545","6500600","新店區"
"231039","718-UY","2018/04/19 15:09:26","新北市新店區民權路21號","121.541956666667","24.9827466666667","6500600","新店區"
"231035","719-UM","2018/04/19 15:09:45","新北市新店區新和街80號","121.520401666667","24.9858783333333","6500600","新店區"
"231021","719-UY","2018/04/19 15:09:29","新北市新店區永福路72-1號","121.560921666667","24.92821","6500600","新店區"
"231031","720-UM","2018/04/19 15:09:34","新北市新店區安泰路76號","121.485966666667","24.9457433333333","6500600","新店區"
"231029","897-TW","2018/04/19 15:09:27","新北市新店區安康路三段740號","121.473811666667","24.9419716666667","6500600","新店區"
"231006","898-TW","2018/04/19 15:09:47","新北市新店區新坡一街20號","121.549083333333","24.9617633333333","6500600","新店區"
"231004","899-TW","2018/04/19 15:09:39","新北市新店區建國路40號","121.540591666667","24.9748133333333","6500600","新店區"
"231024","AKT-0513","2018/04/19 15:09:27","新北市新店區中華路42巷10號","121.54044","24.9685166666667","6500600","新店區"
"235003","097-UM","2018/04/19 15:09:32","新北市中和區安樂路217巷47號","121.513275","24.9977633333333","6500300","中和區"
"235004","150-BY","2018/04/19 15:09:44","新北市中和區保健路31號","121.508606666667","24.9977833333333","6500300","中和區"
"235007","352-BY","2018/04/19 15:09:26","新北市中和區興南路二段159巷10號","121.50514","24.9832783333333","6500300","中和區"
"235014","4979-A6","2018/04/19 15:09:39","新北市中和區景新街323-1號","121.511296666667","24.9921116666667","6500300","中和區"
"235034","558-UM","2018/04/19 15:09:36","新北市中和區中正路282號","121.494651666667","24.994105","6500300","中和區"
"235018","640-BX","2018/04/19 15:09:30","新北市中和區民享街35巷8弄15號","121.474621666667","25.0035216666667","6500300","中和區"
"235035","783-BX","2018/04/19 15:09:45","新北市中和區中正路907號","121.483405","25.0062216666667","6500300","中和區"
"235012","896-TW","2018/04/19 15:09:36","新北市中和區興南路一段159號","121.508521666667","24.9870533333333","6500300","中和區"
"235030","911-UM","2018/04/19 15:09:46","新北市中和區水源路127巷9號","121.508006666667","25.0036433333333","6500300","中和區"
"235001","AAC-213","2018/04/19 15:09:32","新北市中和區自立路193號","121.524313333333","24.99129","6500300","中和區"
"235023","AAC-215","2018/04/19 15:09:44","新北市中和區圓通路335巷35號","121.493556666667","24.989535","6500300","中和區"
"220016","013-TV","2018/04/19 15:09:45","新北市板橋區光復街25號","121.481338333333","25.019145","6500100","板橋區"
"220013","072-UY","2018/04/19 15:09:41","新北市板橋區南雅南路二段94號","121.45361","25.0013283333333","6500100","板橋區"
"220017","AAD-861","2018/04/19 15:09:32","新北市板橋區大明街20巷19弄6號","121.458373333333","25.0032816666667","6500100","板橋區"
"253003","6232-TK","2018/04/19 15:09:45","新北市石門區小坑9號","121.594498333333","25.28921","6502200","石門區"
"253001","6251-TK","2018/04/19 15:09:46","新北市石門區老梅路52巷25弄2-1號","121.546585","25.2875616666667","6502200","石門區"
"253002","637-UY","2018/04/19 15:09:37","新北市石門區尖子鹿76號","121.572373333333","25.2970116666667","6502200","石門區"
"253004","8270-PC","2018/04/19 15:09:15","新北市石門區小坑30號","121.598148333333","25.26984","6502200","石門區"
"207002","749-BX","2018/04/19 15:09:38","新北市萬里區崁腳里內中福路73-1號","121.654921666667","25.1670783333333","6502800","萬里區"
"207001","662-BX","2018/04/19 15:09:49","新北市萬里區磺潭里員潭路42號","121.645341666667","25.1931633333333","6502800","萬里區"
"236068","105-UM","2018/04/19 15:09:41","新北市土城區學成路142號","121.44895","24.9895666666667","6501300","土城區"
"236040","107-UM","2018/04/19 15:09:43","新北市土城區學士路13號","121.453608333333","24.9829383333333","6501300","土城區"
"236074","166-UM","2018/04/19 15:09:29","新北市土城區中州路27巷81號","121.412646666667","24.956385","6501300","土城區"
"236029","253-BX","2018/04/19 15:09:45","新北市土城區福祥街12號","121.440875","24.9795983333333","6501300","土城區"
"236024","269-VK","2018/04/19 15:09:49","新北市土城區中央路二段149巷21號","121.442746666667","24.976655","6501300","土城區"
"236012","270-VK","2018/04/19 15:09:38","新北市土城區學府路一段99巷6號","121.456576666667","24.9871533333333","6501300","土城區"
"236032","271-VK","2018/04/19 15:09:39","新北市土城區仁愛路42號","121.461853333333","24.9793666666667","6501300","土城區"
"236017","401-BY","2018/04/19 15:09:41","新北市土城區延吉街146號","121.469135","24.9856266666667","6501300","土城區"
"236057","912-UM","2018/04/19 15:09:29","新北市土城區金城路二段266號","121.45808","24.9840216666667","6501300","土城區"
"236045","913-UM","2018/04/19 15:09:32","新北市土城區清水路205號","121.460195","24.9817666666667","6501300","土城區"
"236054","AAC-216","2018/04/19 15:09:35","新北市土城區學府路一段276號","121.449936666667","24.9830616666667","6501300","土城區"
"242052","751-BX","2018/04/19 15:00:16","新北市新莊區新泰路357巷3弄57號","121.442071666667","25.0391766666667","6500500","新莊區"
"238002","755-BX","2018/04/19 15:09:45","新北市樹林區中洲街52號","121.396803333333","24.9709783333333","6500700","樹林區"
"238010","601-UM","2018/04/19 15:09:40","新北市樹林區中山路二段237號","121.402246666667","24.9759533333333","6500700","樹林區"
"238006","599-UM","2018/04/19 15:09:42","新北市樹林區八德街263-1號","121.419335","24.9735383333333","6500700","樹林區"
"238005","571-TV","2018/04/19 15:09:35","新北市樹林區環河路10號","121.426905","24.9779916666667","6500700","樹林區"
"238011","5061-A6","2018/04/19 15:09:45","新北市樹林區環河路10號","121.426908333333","24.9779933333333","6500700","樹林區"
"238009","KEA-2213","2018/04/19 15:09:29","新北市樹林區太平路277號","121.418718333333","24.9726483333333","6500700","樹林區"
"238008","KEA-2539","2018/04/19 15:09:27","新北市樹林區西圳街一段165巷20弄11號","121.395635","24.9601733333333","6500700","樹林區"
"238012","303-VK","2018/04/19 15:09:30","新北市樹林區中山路二段121號","121.408473333333","24.9800266666667","6500700","樹林區"
"238001","283-BY","2018/04/19 15:09:35","新北市樹林區中山路三段35號","121.401298333333","24.9754166666667","6500700","樹林區"
"238001","282-BY","2018/04/19 15:09:40","新北市樹林區中山路二段219號","121.402548333333","24.9761116666667","6500700","樹林區"
"238013","172-UY","2018/04/19 15:09:33","新北市樹林區東豐街77號","121.41189","24.9736616666667","6500700","樹林區"
"238003","169-UY","2018/04/19 15:09:45","新北市樹林區中山路二段235號","121.40242","24.975925","6500700","樹林區"
"220027","145-BY","2018/04/19 15:09:39","新北市板橋區大觀路二段419號","121.440948333333","24.99571","6500100","板橋區"
"220050","245-BX","2018/04/19 15:09:42","新北市板橋區莒光路171巷1弄18-1號","121.474631666667","25.024705","6500100","板橋區"
"220001","285-VK","2018/04/19 15:09:43","新北市板橋區懷仁街93號","121.47756","25.0181416666667","6500100","板橋區"
"220031","286-VK","2018/04/19 15:09:32","新北市板橋區僑中二街100巷22-4號","121.445043333333","25.0086366666667","6500100","板橋區"
"220029","287-VK","2018/04/19 15:09:49","新北市板橋區僑中一街124巷20弄15號","121.446768333333","25.01405","6500100","板橋區"
"220039","288-VK","2018/04/19 15:09:43","新北市板橋區幸福路32巷65號","121.46038","25.0222566666667","6500100","板橋區"
"220009","293-UM","2018/04/19 15:09:37","新北市板橋區中山路一段26號","121.460406666667","25.0084783333333","6500100","板橋區"
"220041","307-R5","2018/04/19 15:09:44","新北市板橋區國光路194號","121.461416666667","25.0185366666667","6500100","板橋區"
"220012","486-VK","2018/04/19 15:09:44","新北市板橋區漢生東路195-1號","121.470268333333","25.0111016666667","6500100","板橋區"
"220104","560-BX","2018/04/19 15:09:43","新北市板橋區中正路275巷68號","121.452796666667","25.0179083333333","6500100","板橋區"
"220052","561-BX","2018/04/19 15:09:32","新北市板橋區陽明街261號","121.46244","25.025585","6500100","板橋區"
"220011","609-BX","2018/04/19 15:09:41","新北市板橋區中山路二段385號","121.480156666667","25.0193483333333","6500100","板橋區"
"220002","630-UY","2018/04/19 15:09:34","新北市板橋區忠孝路201巷52號","121.464916666667","25.0038983333333","6500100","板橋區"
"220040","637-BX","2018/04/19 15:09:39","新北市板橋區懷德街127巷23弄30號","121.480401666667","25.032025","6500100","板橋區"
"220042","689-BX","2018/04/19 15:09:44","新北市板橋區長江路三段31-2號","121.473078333333","25.033895","6500100","板橋區"
"220051","KEA-2699","2018/04/19 15:09:38","新北市板橋區民治街136號","121.477648333333","25.03085","6500100","板橋區"
"220018","806-UM","2018/04/19 15:09:35","新北市板橋區四川路一段467號","121.457188333333","24.9976466666667","6500100","板橋區"
"220003","827-TW","2018/04/19 15:09:31","新北市板橋區國慶路149巷40號","121.461086666667","24.9980866666667","6500100","板橋區"
"220014","830-TW","2018/04/19 15:09:40","新北市板橋區中山路一段206巷79號","121.471748333333","25.01323","6500100","板橋區"
"220038","833-TW","2018/04/19 15:09:46","新北市板橋區新海路403巷12號","121.457956666667","25.0265866666667","6500100","板橋區"
"220022","895-R6","2018/04/19 15:09:43","新北市板橋區南雅南路一段3巷25-3號","121.457006666667","25.0058883333333","6500100","板橋區"
"220046","AAC-210","2018/04/19 15:09:39","新北市板橋區光正街16巷16號","121.463225","25.0174866666667","6500100","板橋區"
"220025","AAC-253","2018/04/19 15:09:46","新北市板橋區僑中一街124巷61-61號","121.446815","25.0186616666667","6500100","板橋區"
