"lineid","car","time","location","longitude","latitude","cityid","cityname"
"234025","9371-KE","2018/04/19 16:09:27","新北市永和區福和路1號","121.526621666667","25.0100083333333","6500400","永和區"
"243011","297-R6","2018/04/19 16:06:12","新北市泰山區黎明路25號","121.422013333333","25.06102","6501600","泰山區"
"243016","680-BX","2018/04/19 16:01:31","新北市泰山區黎明路31-1號","121.421683333333","25.06052","6501600","泰山區"
"231046","107-UY","2018/04/19 16:09:36","新北市新店區永業路81巷20號","121.530646666667","24.9479583333333","6500600","新店區"
"231011","187-VK","2018/04/19 16:09:34","新北市新店區柴埕路47號","121.514083333333","24.96522","6500600","新店區"
"231018","278-BY","2018/04/19 16:09:42","新北市新店區中正路694巷15號","121.535423333333","24.99085","6500600","新店區"
"241011","013-R5","2018/04/19 16:09:41","新北市三重區正義北路332號","121.494655","25.0707516666667","6500200","三重區"
"241028","022-UY","2018/04/19 16:09:35","新北市三重區正義南路107號","121.498228333333","25.0586033333333","6500200","三重區"
"241008","059-VK","2018/04/19 16:09:40","新北市三重區力行路二段4號","121.481671666667","25.0718833333333","6500200","三重區"
"241015","062-VK","2018/04/19 16:09:26","新北市三重區福德南路59-4號","121.503","25.0609116666667","6500200","三重區"
"241017","063-VK","2018/04/19 16:09:44","新北市三重區民生街76號","121.490188333333","25.0646666666667","6500200","三重區"
"241024","065-VK","2018/04/19 16:09:40","新北市三重區力行路一段38巷7號","121.486053333333","25.0677066666667","6500200","三重區"
"241002","090-VK","2018/04/19 16:09:33","新北市三重區仁義街91號","121.499701666667","25.0797666666667","6500200","三重區"
"241003","091-VK","2018/04/19 16:09:38","新北市三重區仁義街241巷8號","121.496398333333","25.0830516666667","6500200","三重區"
"241026","265-UM","2018/04/19 16:09:36","新北市三重區正義南路10號","121.498078333333","25.06151","6500200","三重區"
"241016","266-UM","2018/04/19 16:09:44","新北市三重區新北大道一段8號","121.488675","25.06138","6500200","三重區"
"241022","267-UM","2018/04/19 16:09:45","新北市三重區中正北路60-2號","121.48686","25.0644516666667","6500200","三重區"
"241018","268-UM","2018/04/19 16:09:44","新北市三重區明志街32號","121.491401666667","25.063865","6500200","三重區"
"241013","270-UM","2018/04/19 16:09:41","新北市三重區安樂街37號","121.496265","25.069735","6500200","三重區"
"241025","271-UM","2018/04/19 16:09:34","新北市三重區中正北路208巷11號","121.482143333333","25.0669933333333","6500200","三重區"
"241007","398-BY","2018/04/19 16:09:27","新北市三重區慈愛街10號","121.484573333333","25.0785016666667","6500200","三重區"
"241006","462-BY","2018/04/19 16:09:35","新北市三重區永福街58巷3弄20號","121.480611666667","25.07741","6500200","三重區"
"241004","475-VK","2018/04/19 16:09:43","新北市三重區五華街74號","121.493365","25.0820316666667","6500200","三重區"
"241020","478-VK","2018/04/19 16:09:10","新北市三重區車路頭街33號","121.483843333333","25.0708583333333","6500200","三重區"
"241014","543-UM","2018/04/19 16:09:36","新北市三重區福德南路53號","121.503318333333","25.0613016666667","6500200","三重區"
"241023","545-UM","2018/04/19 16:09:27","新北市三重區力行路一段60號","121.484711666667","25.0690233333333","6500200","三重區"
"241001","547-UM","2018/04/19 16:09:29","新北市三重區自強路四段80號","121.490641666667","25.0788983333333","6500200","三重區"
"241019","887-TS","2018/04/19 16:09:27","新北市三重區重陽路四段2號","121.490358333333","25.068775","6500200","三重區"
"241012","941-UM","2018/04/19 16:09:34","新北市三重區正義北路113號","121.496821666667","25.0658716666667","6500200","三重區"
"241029","942-UM","2018/04/19 16:09:26","新北市三重區同安街90號","121.49503","25.0565283333333","6500200","三重區"
"241033","AAC-255","2018/04/19 16:09:34","新北市三重區五谷王南街50-1號","121.473743333333","25.0445866666667","6500200","三重區"
"235026","800-TS","2018/04/19 16:09:28","新北市中和區永和路191巷13號","121.491465","25.006695","6500300","中和區"
"224007","275-VK","2018/04/19 16:09:38","新北市瑞芳區粗坑口路3-1號","121.76188","25.0986466666667","6501200","瑞芳區"
"227004","642-TC","2018/04/19 16:09:39","新北市雙溪區上林里內平林47號","121.833306666667","25.0304283333333","6502500","雙溪區"
"227010","400-TW","2018/04/19 16:09:27","新北市雙溪區三港里雙澳路75號","121.883545","25.0539766666667","6502500","雙溪區"
"251013","179-VK","2018/04/19 16:09:35","新北市淡水區行忠路258號","121.45822","25.2004116666667","6501000","淡水區"
"236074","166-UM","2018/04/19 16:09:29","新北市樹林區環河路600號","121.404671666667","24.9688866666667","6501300","土城區"
"236057","912-UM","2018/04/19 16:09:29","新北市土城區中央路二段251號","121.439985","24.9714683333333","6501300","土城區"
"238002","755-BX","2018/04/19 16:09:31","新北市樹林區大安路287號","121.418451666667","24.992575","6500700","樹林區"
"238010","601-UM","2018/04/19 16:09:40","新北市樹林區龍興街46巷28號","121.402015","25.0152516666667","6500700","樹林區"
"238006","599-UM","2018/04/19 16:09:41","新北市樹林區中華路190號","121.411991666667","24.9806066666667","6500700","樹林區"
"238005","571-TV","2018/04/19 16:09:35","新北市樹林區博愛街187號","121.424528333333","24.98894","6500700","樹林區"
"238011","5061-A6","2018/04/19 16:09:25","新北市樹林區育德街76巷1號","121.388718333333","24.9682366666667","6500700","樹林區"
"238001","283-BY","2018/04/19 16:09:35","新北市樹林區中正路433-1號","121.414528333333","25.0082666666667","6500700","樹林區"
"238001","282-BY","2018/04/19 16:09:40","新北市樹林區中正路21號","121.427558333333","24.99932","6500700","樹林區"
"238007","268-VK","2018/04/19 16:09:28","新北市樹林區俊興街277號","121.41839","25.0182183333333","6500700","樹林區"
"238013","172-UY","2018/04/19 16:09:33","新北市樹林區佳園路一段75巷80號","121.396068333333","24.970225","6500700","樹林區"
"238003","169-UY","2018/04/19 16:09:45","新北市樹林區中山路一段306巷51弄10號","121.41814","24.9860483333333","6500700","樹林區"
