"lineid","car","time","location","longitude","latitude","cityid","cityname"
"243011","297-R6","2018/04/19 16:06:12","新北市泰山區黎明路25號","121.422013333333","25.06102","6501600","泰山區"
"243016","680-BX","2018/04/19 16:01:31","新北市泰山區黎明路31-1號","121.421683333333","25.06052","6501600","泰山區"
"231046","107-UY","2018/04/19 16:29:16","新北市新店區灣潭路3-3號","121.538243333333","24.9508283333333","6500600","新店區"
"241011","013-R5","2018/04/19 16:29:21","新北市三重區龍濱路172號","121.50137","25.0728266666667","6500200","三重區"
"241028","022-UY","2018/04/19 16:29:15","新北市三重區泉州街45號","121.494503333333","25.0553816666667","6500200","三重區"
"241008","059-VK","2018/04/19 16:29:20","新北市三重區力行路二段136巷45弄10號","121.479166666667","25.0753266666667","6500200","三重區"
"241009","060-VK","2018/04/19 16:29:05","新北市三重區三和路四段191巷76號","121.484391666667","25.0798066666667","6500200","三重區"
"241031","061-VK","2018/04/19 16:29:24","新北市三重區重陽路一段51號","121.486705","25.0583783333333","6500200","三重區"
"241015","062-VK","2018/04/19 16:29:26","新北市三重區福德北路36-1號","121.501788333333","25.0651733333333","6500200","三重區"
"241017","063-VK","2018/04/19 16:29:23","新北市三重區大同北路61號","121.49518","25.063275","6500200","三重區"
"241024","065-VK","2018/04/19 16:29:20","新北市三重區中正北路315巷16弄20號","121.475881666667","25.071775","6500200","三重區"
"241002","090-VK","2018/04/19 16:29:13","新北市三重區仁義街153號","121.497141666667","25.08098","6500200","三重區"
"241003","091-VK","2018/04/19 16:29:18","新北市三重區仁義街230巷7號","121.494258333333","25.084885","6500200","三重區"
"241005","262-UM","2018/04/19 16:29:18","新北市三重區溪尾街260號","121.487435","25.0829016666667","6500200","三重區"
"241026","265-UM","2018/04/19 16:29:16","新北市三重區光興街1號","121.500338333333","25.0604083333333","6500200","三重區"
"241016","266-UM","2018/04/19 16:29:24","新北市三重區大智街82號","121.494066666667","25.0659516666667","6500200","三重區"
"241022","267-UM","2018/04/19 16:29:25","新北市三重區過圳街100號","121.486123333333","25.06211","6500200","三重區"
"241018","268-UM","2018/04/19 16:29:17","新北市三重區重陽路四段77號","121.492565","25.0708883333333","6500200","三重區"
"241032","269-UM","2018/04/19 16:29:18","新北市三重區三陽路100巷3弄13號","121.482941666667","25.05804","6500200","三重區"
"241013","270-UM","2018/04/19 16:29:22","新北市三重區龍門路148號","121.498421666667","25.0732416666667","6500200","三重區"
"241025","271-UM","2018/04/19 16:29:14","新北市三重區中正北路560巷100弄2號","121.472553333333","25.0682566666667","6500200","三重區"
"241007","398-BY","2018/04/19 16:29:07","新北市三重區三和路四段167巷188號","121.488118333333","25.08041","6500200","三重區"
"241006","462-BY","2018/04/19 16:29:15","新北市三重區力行路二段184號","121.483351666667","25.0773016666667","6500200","三重區"
"241004","475-VK","2018/04/19 16:29:23","新北市三重區仁愛街367-2號","121.491881666667","25.0805433333333","6500200","三重區"
"241020","478-VK","2018/04/19 16:29:16","新北市三重區車路頭街37巷22號","121.484448333333","25.071885","6500200","三重區"
"241030","480-VK","2018/04/19 16:29:13","新北市三重區成功路96號","121.487743333333","25.0514933333333","6500200","三重區"
"241014","543-UM","2018/04/19 16:29:16","新北市三重區河邊北街72-6號","121.504366666667","25.0685366666667","6500200","三重區"
"241023","545-UM","2018/04/19 16:29:07","新北市三重區忠孝路三段50巷47號","121.482901666667","25.06443","6500200","三重區"
"241001","547-UM","2018/04/19 16:29:13","新北市三重區仁愛街281號","121.492711666667","25.0788416666667","6500200","三重區"
"241019","887-TS","2018/04/19 16:29:07","新北市三重區重陽路三段97號","121.490335","25.067985","6500200","三重區"
"241012","941-UM","2018/04/19 16:29:14","新北市三重區河邊北街367號","121.501973333333","25.075965","6500200","三重區"
"241029","942-UM","2018/04/19 16:29:26","新北市三重區集美街126巷8號","121.489246666667","25.0536966666667","6500200","三重區"
"241033","AAC-255","2018/04/19 16:29:13","新北市三重區重新路五段422號","121.475385","25.0476466666667","6500200","三重區"
"235026","800-TS","2018/04/19 16:29:13","新北市中和區建八路156號","121.489955","24.99856","6500300","中和區"
"235023","AAC-215","2018/04/19 16:29:23","新北市中和區員山路31-10號","121.48146","24.9884733333333","6500300","中和區"
"224007","275-VK","2018/04/19 16:29:20","新北市瑞芳區瑞竹路77號","121.76386","25.10255","6501200","瑞芳區"
"224005","271-BY","2018/04/19 16:29:17","新北市瑞芳區阿美家園54號","121.820926666667","25.1175433333333","6501200","瑞芳區"
"227004","642-TC","2018/04/19 16:29:19","新北市雙溪區上林里內平林120-2號","121.82443","25.0262516666667","6502500","雙溪區"
"227010","400-TW","2018/04/19 16:29:08","新北市雙溪區三港里雙澳路35-1號","121.868298333333","25.0505966666667","6502500","雙溪區"
"251013","179-VK","2018/04/19 16:29:15","新北市淡水區北新路三段162號","121.492336666667","25.1914883333333","6501000","淡水區"
"251015","182-VK","2018/04/19 16:29:16","新北市淡水區中正路一段87巷1號","121.42172","25.1793216666667","6501000","淡水區"
"238001","283-BY","2018/04/19 16:29:15","新北市樹林區中正路433-2號","121.414788333333","25.0084483333333","6500700","樹林區"
"238001","282-BY","2018/04/19 16:29:19","新北市樹林區大慶街99-1號","121.42776","24.9997083333333","6500700","樹林區"
"238007","268-VK","2018/04/19 16:29:26","新北市樹林區中正路105號","121.424795","25.0013133333333","6500700","樹林區"
