"lineid","car","time","location","longitude","latitude","cityid","cityname"
"234026","9371-KE","2018/04/19 17:39:16","新北市永和區中正路730號","121.515513333333","25.0101083333333","6500400","永和區"
"249005","172-UM","2018/04/19 17:39:21","新北市八里區荖阡坑路34號","121.402785","25.12975","6502300","八里區"
"249001","173-UM","2018/04/19 17:39:09","新北市八里區龍米路三段23號","121.426751666667","25.1594216666667","6502300","八里區"
"249004","303-UY","2018/04/19 17:39:27","新北市八里區賢一街97-1號","121.418816666667","25.1574333333333","6502300","八里區"
"249002","305-UY","2018/04/19 17:39:30","新北市八里區石壁腳6-2號","121.435633333333","25.1347183333333","6502300","八里區"
"249003","593-UM","2018/04/19 17:39:28","新北市八里區中山路二段181號","121.404733333333","25.1501516666667","6502300","八里區"
"248006","077-UY","2018/04/19 17:39:18","新北市五股區中興路二段37巷28號","121.460161666667","25.0750466666667","6501500","五股區"
"232011","375-UM","2018/04/19 17:39:14","新北市坪林區北宜路八段80號","121.705548333333","24.9351116666667","6502000","坪林區"
"244013","069-UM","2018/04/19 17:39:09","新北市林口區中正路557號","121.381111666667","25.07685","6501700","林口區"
"244007","080-UY","2018/04/19 17:39:09","新北市林口區中華路225號","121.38513","25.08987","6501700","林口區"
"244019","403-UM","2018/04/19 17:39:14","新北市林口區文化一路一段83巷14弄42號","121.372103333333","25.0714933333333","6501700","林口區"
"244023","483-VK","2018/04/19 17:39:17","新北市林口區興林路221巷27號","121.389791666667","25.0717683333333","6501700","林口區"
"244009","656-BX","2018/04/19 17:39:12","新北市林口區中北三街341號","121.383293333333","25.08446","6501700","林口區"
"244011","701-TV","2018/04/19 17:39:21","新北市林口區佳林路154號","121.384153333333","25.0771133333333","6501700","林口區"
"244025","837-TS","2018/04/19 17:39:20","新北市林口區文化三路一段394巷8號","121.366175","25.0728983333333","6501700","林口區"
"244021","838-TS","2018/04/19 17:39:14","新北市林口區粉寮路一段3號","121.396328333333","25.0758583333333","6501700","林口區"
"222002","659-BX","2018/04/19 17:39:26","新北市深坑區深南路1號","121.62215","25.0051683333333","6501800","深坑區"
"231046","107-UY","2018/04/19 17:39:16","新北市新店區直潭路92-1號","121.530823333333","24.937095","6500600","新店區"
"241011","013-R5","2018/04/19 17:39:21","新北市三重區河邊北街124巷15號","121.50323","25.0713733333333","6500200","三重區"
"241005","262-UM","2018/04/19 17:39:18","新北市三重區仁愛街542-1號","121.486113333333","25.081705","6500200","三重區"
"241016","266-UM","2018/04/19 17:39:24","新北市三重區正義北路15-4號","121.497705","25.0630366666667","6500200","三重區"
"241007","398-BY","2018/04/19 17:39:27","新北市三重區車路頭街145號","121.483815","25.0766416666667","6500200","三重區"
"241024","KEA-2210","2018/04/19 17:39:24","新北市三重區大勇街24號","121.48273","25.07156","6500200","三重區"
"241014","543-UM","2018/04/19 17:39:16","新北市三重區河邊北街82號","121.504226666667","25.0690033333333","6500200","三重區"
"241023","545-UM","2018/04/19 17:39:27","新北市三重區中華路121號","121.48366","25.063805","6500200","三重區"
"241019","887-TS","2018/04/19 17:39:27","新北市三重區六張街185號","121.489091666667","25.0687816666667","6500200","三重區"
"241012","941-UM","2018/04/19 17:39:14","新北市三重區仁興街39巷16號","121.500098333333","25.0761933333333","6500200","三重區"
"241033","AAC-255","2018/04/19 17:39:13","新北市三重區光復路一段66號","121.472003333333","25.049015","6500200","三重區"
"247024","893-R6","2018/04/19 17:39:15","新北市蘆洲區長樂路159號","121.462056666667","25.0881116666667","6501400","蘆洲區"
"247014","546-UM","2018/04/19 17:39:19","新北市蘆洲區中山二路73號","121.473361666667","25.0819966666667","6501400","蘆洲區"
"247022","500-BY","2018/04/19 17:39:25","新北市蘆洲區三民路285號","121.467061666667","25.0899366666667","6501400","蘆洲區"
"247010","341-TH","2018/04/19 17:39:29","新北市蘆洲區中山一路72號","121.4788","25.0812283333333","6501400","蘆洲區"
"247012","339-TH","2018/04/19 17:39:28","新北市蘆洲區民權路29號","121.476111666667","25.0863833333333","6501400","蘆洲區"
"247004","337-TH","2018/04/19 17:39:27","新北市蘆洲區長安街249巷12號","121.458568333333","25.083105","6501400","蘆洲區"
"247006","336-TH","2018/04/19 17:39:12","新北市蘆洲區長安街44號","121.463378333333","25.0796016666667","6501400","蘆洲區"
"247018","057-VK","2018/04/19 17:39:18","新北市蘆洲區民權路61巷18號","121.473086666667","25.0876116666667","6501400","蘆洲區"
"247008","056-VK","2018/04/19 17:39:28","新北市蘆洲區民生街76號","121.472708333333","25.079155","6501400","蘆洲區"
"247016","007-UY","2018/04/19 17:39:10","新北市蘆洲區光華路46巷22號","121.468375","25.08388","6501400","蘆洲區"
"247002","002-UY","2018/04/19 17:39:17","新北市蘆洲區永平街50號","121.457926666667","25.0913666666667","6501400","蘆洲區"
"247020","001-UY","2018/04/19 17:39:16","新北市蘆洲區民族路464-1號","121.471833333333","25.0917566666667","6501400","蘆洲區"
"228003","097-TW","2018/04/19 17:39:29","新北市貢寮區仁理村仁和路23號","121.923893333333","25.0536716666667","6502600","貢寮區"
"228001","212-TW","2018/04/19 17:39:13","新北市貢寮區仁理村仁愛路95-1號","121.927665","25.0554083333333","6502600","貢寮區"
"228002","585-TW","2018/04/19 17:39:18","新北市貢寮區福隆里龜壽谷街13號","121.956465","25.0060266666667","6502600","貢寮區"
"224010","AGQ-8101","2018/04/19 17:38:36","新北市瑞芳區岳王路33號","121.807748333333","25.111185","6501200","瑞芳區"
"224006","676-BX","2018/04/19 17:39:16","新北市瑞芳區傑魚坑路52號","121.79367","25.110585","6501200","瑞芳區"
"224008","285-BY","2018/04/19 17:39:10","新北市瑞芳區瑞柑新村2號","121.829113333333","25.1062516666667","6501200","瑞芳區"
"224009","273-VK","2018/04/19 17:39:18","新北市瑞芳區崙頂路3-1號","121.8452","25.1045466666667","6501200","瑞芳區"
"224005","271-BY","2018/04/19 17:39:17","新北市瑞芳區海濱路16-2號","121.830871666667","25.125315","6501200","瑞芳區"
"227004","642-TC","2018/04/19 17:39:19","新北市雙溪區三貂里政光路3號","121.851568333333","25.0631816666667","6502500","雙溪區"
"251009","008-UM","2018/04/19 17:39:11","新北市淡水區中正路65號","121.441256666667","25.169545","6501000","淡水區"
"251004","009-UM","2018/04/19 17:39:21","新北市淡水區中正東路二段88巷37-21號","121.459311666667","25.14454","6501000","淡水區"
"251005","010-UM","2018/04/19 17:39:27","新北市淡水區鄧公路33巷7號","121.451725","25.1710333333333","6501000","淡水區"
"251002","012-UM","2018/04/19 17:39:32","新北市淡水區清水街246號","121.440515","25.17211","6501000","淡水區"
"251013","179-VK","2018/04/19 17:39:15","新北市淡水區演戲埔腳2號","121.475185","25.1925816666667","6501000","淡水區"
"251014","180-VK","2018/04/19 17:39:22","新北市淡水區水碓4號","121.476081666667","25.2218133333333","6501000","淡水區"
"251008","181-VK","2018/04/19 17:39:25","新北市淡水區八勢路一段98-2號","121.467421666667","25.155795","6501000","淡水區"
"251015","182-VK","2018/04/19 17:39:16","新北市淡水區糞箕湖9-1號","121.485308333333","25.1706916666667","6501000","淡水區"
"251010","413-VK","2018/04/19 17:39:20","新北市淡水區淡海路292號","121.41907","25.188885","6501000","淡水區"
"251012","441-VK","2018/04/19 17:39:23","新北市淡水區北新路200巷8號","121.451753333333","25.1796983333333","6501000","淡水區"
"251016","442-VK","2018/04/19 17:39:17","新北市淡水區埤島75號","121.454271666667","25.1945433333333","6501000","淡水區"
"251006","561-UM","2018/04/19 17:39:26","新北市淡水區大信街24巷2號","121.44193","25.1766816666667","6501000","淡水區"
"251007","577-R6","2018/04/19 17:39:22","新北市淡水區民生路124巷30號","121.464195","25.137575","6501000","淡水區"
"251011","650-BX","2018/04/19 17:39:14","新北市淡水區小坪頂13-3號","121.486586666667","25.1561516666667","6501000","淡水區"
"251003","766-UM","2018/04/19 17:39:30","新北市淡水區中山北路一段51號","121.441793333333","25.1755816666667","6501000","淡水區"
"207003","550-UM","2018/04/19 17:39:22","新北市萬里區龜吼里漁澳路64-3號","121.687831666667","25.19592","6502800","萬里區"
"207003","225-TW","2018/04/19 17:39:16","新北市萬里區中幅里中福路19-1號","121.68294","25.16476","6502800","萬里區"
"252002","178-VK","2018/04/19 17:39:25","新北市三芝區中正路二段2號","121.505018333333","25.255735","6502100","三芝區"
"252001","292-VK","2018/04/19 17:39:12","新北市三芝區淡金路一段34號","121.500323333333","25.25914","6502100","三芝區"
"237011","572-TV","2018/04/19 17:39:24","新北市三峽區民權街150號","121.36839","24.9320816666667","6500900","三峽區"
"237013","252-BX","2018/04/19 17:39:11","新北市三峽區中華路8-1號","121.37497","24.9329733333333","6500900","三峽區"
"237008","302-VK","2018/04/19 17:39:13","新北市三峽區中山路321-2號","121.36094","24.938","6500900","三峽區"
"237006","5529-G3","2018/04/19 17:39:15","新北市三峽區介壽路一段552巷15號","121.387735","24.9324383333333","6500900","三峽區"
"236070","105-UM","2018/04/19 17:39:26","新北市土城區中華路二段2號","121.438805","24.97988","6501300","土城區"
"236078","166-UM","2018/04/19 17:39:17","新北市土城區中華路二段2號","121.439371666667","24.9795733333333","6501300","土城區"
"236030","253-BX","2018/04/19 17:39:12","新北市土城區城林路6巷80號","121.438555","24.9796833333333","6501300","土城區"
"236014","270-VK","2018/04/19 17:39:18","新北市土城區城林路6巷80號","121.438528333333","24.9796016666667","6501300","土城區"
"236038","271-VK","2018/04/19 17:39:15","新北市土城區城林路6巷80號","121.438546666667","24.9796","6501300","土城區"
"242034","AAC-296","2018/04/19 17:39:26","新北市新莊區新莊路524號","121.445876666667","25.033035","6500500","新莊區"
"242058","986-R7","2018/04/19 17:39:15","新北市新莊區中正路690號","121.420478333333","25.0283516666667","6500500","新莊區"
"242053","751-BX","2018/04/19 17:39:28","新北市新莊區新樹路711號","121.432031666667","25.0020716666667","6500500","新莊區"
"242027","615-BX","2018/04/19 17:39:28","新北市新莊區福壽街116號","121.45796","25.05089","6500500","新莊區"
"242029","612-BX","2018/04/19 17:39:13","新北市新莊區復興路一段183號","121.451533333333","25.043485","6500500","新莊區"
"242042","566-BX","2018/04/19 17:39:26","新北市新莊區中正路514巷95號","121.431143333333","25.03435","6500500","新莊區"
"242046","497-BY","2018/04/19 17:39:18","新北市新莊區建國一路21號","121.433885","25.031555","6500500","新莊區"
"242004","442-UM","2018/04/19 17:39:22","新北市新莊區自立街208號","121.456945","25.0454966666667","6500500","新莊區"
"242051","441-UM","2018/04/19 17:39:24","新北市新莊區西盛街216號","121.427828333333","25.01742","6500500","新莊區"
"242056","440-UM","2018/04/19 17:39:20","新北市新莊區泰豐街21號","121.448326666667","25.0318266666667","6500500","新莊區"
"242036","415-TV","2018/04/19 17:39:25","新北市新莊區建福路59巷45號","121.428546666667","25.0278566666667","6500500","新莊區"
"242007","413-TV","2018/04/19 17:39:29","新北市新莊區福樂街152號","121.456133333333","25.048075","6500500","新莊區"
"242044","400-BY","2018/04/19 17:39:13","新北市新莊區中正路871巷9弄11號","121.41877","25.0270916666667","6500500","新莊區"
"242023","362-BY","2018/04/19 17:39:28","新北市新莊區公園路129-5號","121.457373333333","25.0408433333333","6500500","新莊區"
"242061","353-BY","2018/04/19 17:39:12","新北市新莊區瓊林南路127號","121.434635","25.012385","6500500","新莊區"
"242039","133-UY","2018/04/19 17:39:29","新北市新莊區民安東路6號","121.427933333333","25.020935","6500500","新莊區"
"242048","172-VK","2018/04/19 17:39:25","新北市新莊區萬安街145號","121.420423333333","25.0217616666667","6500500","新莊區"
"242011","173-VK","2018/04/19 17:39:20","新北市新莊區中榮街2號","121.451256666667","25.0529033333333","6500500","新莊區"
"242017","175-VK","2018/04/19 17:39:25","新北市新莊區中和街30巷13號","121.448845","25.043915","6500500","新莊區"
"242015","346-TH","2018/04/19 17:39:18","新北市新莊區新泰路306號","121.445373333333","25.0410233333333","6500500","新莊區"
"242021","348-TH","2018/04/19 17:39:24","新北市新莊區中華路一段166號","121.45269","25.04167","6500500","新莊區"
"242019","349-TH","2018/04/19 17:39:16","新北市新莊區中港路151號","121.455026666667","25.0409616666667","6500500","新莊區"
"242013","351-TH","2018/04/19 17:39:25","新北市新莊區中誠街123號","121.44931","25.047585","6500500","新莊區"
"238015","755-BX","2018/04/19 17:39:18","新北市樹林區長壽街21巷12號","121.421141666667","24.9939966666667","6500700","樹林區"
"238019","599-UM","2018/04/19 17:39:21","新北市樹林區太平路145號","121.419218333333","24.9799133333333","6500700","樹林區"
"238018","571-TV","2018/04/19 17:39:16","新北市樹林區鎮前街42-1號","121.425906666667","24.9928016666667","6500700","樹林區"
"238024","5061-A6","2018/04/19 17:39:25","新北市樹林區八德街67號","121.399853333333","24.96931","6500700","樹林區"
"238022","KEA-2213","2018/04/19 17:39:09","新北市樹林區太元街21號","121.418201666667","24.9800483333333","6500700","樹林區"
"238021","KEA-2539","2018/04/19 17:39:08","新北市樹林區佳園路二段175號","121.38967","24.9562116666667","6500700","樹林區"
"238025","303-VK","2018/04/19 17:39:19","新北市樹林區保安街三段34號","121.412605","25.0115133333333","6500700","樹林區"
"238017","283-BY","2018/04/19 17:39:15","新北市樹林區三德街30巷33號","121.414746666667","25.0122166666667","6500700","樹林區"
"238014","282-BY","2018/04/19 17:39:25","新北市樹林區保安街一段356號","121.417778333333","24.9983316666667","6500700","樹林區"
"238020","268-VK","2018/04/19 17:39:26","新北市樹林區俊英街116巷1弄34號","121.427618333333","25.0057066666667","6500700","樹林區"
"238026","172-UY","2018/04/19 17:39:20","新北市樹林區新興街19巷2弄5號","121.400915","24.9728016666667","6500700","樹林區"
"238016","169-UY","2018/04/19 17:39:25","新北市樹林區復興路244號","121.418483333333","24.98924","6500700","樹林區"
"239007","AAC-297","2018/04/19 17:39:23","新北市鶯歌區鶯桃路182巷32號","121.337538333333","24.956335","6500800","鶯歌區"
"239006","891-R6","2018/04/19 17:39:16","新北市鶯歌區永和街34巷10弄2號","121.333398333333","24.9672716666667","6500800","鶯歌區"
"239008","527-UM","2018/04/19 17:39:30","新北市鶯歌區大湖路732巷33號","121.333381666667","24.9781416666667","6500800","鶯歌區"
"239005","526-UM","2018/04/19 17:39:24","新北市鶯歌區鶯桃路二段22號","121.326085","24.9724216666667","6500800","鶯歌區"
"239001","417-VK","2018/04/19 17:39:12","新北市鶯歌區中正三路236-1號","121.330156666667","24.936815","6500800","鶯歌區"
"239003","360-BY","2018/04/19 17:39:18","新北市鶯歌區鶯桃路206巷37號","121.337883333333","24.9599716666667","6500800","鶯歌區"
"239002","359-BY","2018/04/19 17:39:19","新北市鶯歌區育德街1號","121.344986666667","24.9551116666667","6500800","鶯歌區"
"239004","193-VK","2018/04/19 17:39:08","新北市鶯歌區三鶯路29巷34號","121.353735","24.9393633333333","6500800","鶯歌區"
"221008","489-VK","2018/04/19 17:39:16","新北市汐止區康寧街901號","121.651428333333","25.0750266666667","6501100","汐止區"
"221010","269-BY","2018/04/19 17:39:13","新北市汐止區汐萬路一段418巷46號","121.651066666667","25.0791116666667","6501100","汐止區"
"221032","280-BY","2018/04/19 17:39:24","新北市汐止區連峰街3巷1號","121.647645","25.0761816666667","6501100","汐止區"
"221038","646-BX","2018/04/19 17:39:10","新北市汐止區汐萬路一段256巷3號","121.652058333333","25.074785","6501100","汐止區"
"221033","647-BX","2018/04/19 17:39:15","新北市汐止區林森街124號","121.624538333333","25.0407116666667","6501100","汐止區"
"221018","753-BX","2018/04/19 17:39:23","新北市汐止區汐萬路一段312號","121.650451666667","25.0752466666667","6501100","汐止區"
"242002","KEA-2550","2018/04/19 17:39:20","新北市新莊區新莊路280號","121.451556666667","25.0339033333333","6500500","新莊區"
"242009","281-VK","2018/04/19 17:39:16","新北市新莊區昌明街14巷2弄1號","121.457408333333","25.0527783333333","6500500","新莊區"
"242031","280-VK","2018/04/19 17:39:22","新北市新莊區新泰路334號","121.444928333333","25.0420133333333","6500500","新莊區"
