"lineid","car","time","location","longitude","latitude","cityid","cityname"
"234026","9371-KE","2018/04/19 18:19:36","新北市永和區豫溪街42巷5號","121.51549","25.0095216666667","6500400","永和區"
"234011","9373-KE","2018/04/19 18:19:32","新北市永和區環河東路二段8號","121.522143333333","25.0134933333333","6500400","永和區"
"249005","172-UM","2018/04/19 18:19:21","新北市八里區荖阡坑路15-2號","121.400601666667","25.1401966666667","6502300","八里區"
"249001","173-UM","2018/04/19 18:19:29","新北市八里區龍米路一段166號","121.452585","25.126","6502300","八里區"
"249004","303-UY","2018/04/19 18:19:27","新北市八里區觀海大道35-2號","121.429746666667","25.1607783333333","6502300","八里區"
"249002","305-UY","2018/04/19 18:19:30","新北市八里區龍形二街30號","121.450693333333","25.13288","6502300","八里區"
"248014","025-BX","2018/04/19 18:19:28","新北市五股區自強路19巷11號","121.434713333333","25.0736816666667","6501500","五股區"
"248016","026-BX","2018/04/19 18:19:36","新北市五股區西雲路290號","121.4496","25.0991716666667","6501500","五股區"
"248006","077-UY","2018/04/19 18:19:38","新北市五股區中興路一段147號","121.465198333333","25.073535","6501500","五股區"
"248008","095-VK","2018/04/19 18:19:28","新北市五股區更洲路32巷8弄14號","121.459231666667","25.0796266666667","6501500","五股區"
"248020","225-UY","2018/04/19 18:19:21","新北市五股區孝義路47巷23號","121.449711666667","25.1096983333333","6501500","五股區"
"248012","247-BX","2018/04/19 18:19:38","新北市五股區御史路1巷17號","121.441218333333","25.0905583333333","6501500","五股區"
"248004","677-BX","2018/04/19 18:19:30","新北市五股區成泰路二段101號","121.438313333333","25.084205","6501500","五股區"
"248002","678-BX","2018/04/19 18:19:35","新北市五股區西雲路49號","121.443488333333","25.0910616666667","6501500","五股區"
"248010","682-TV","2018/04/19 18:19:20","新北市五股區成泰路一段139巷2弄2號","121.435091666667","25.07294","6501500","五股區"
"232011","375-UM","2018/04/19 18:19:34","新北市坪林區坪雙路一段31號","121.711686666667","24.9424083333333","6502000","坪林區"
"244013","069-UM","2018/04/19 18:19:29","新北市林口區中山路142巷2號","121.391591666667","25.07905","6501700","林口區"
"244007","080-UY","2018/04/19 18:19:29","新北市林口區林口路115號","121.388935","25.0808216666667","6501700","林口區"
"244019","403-UM","2018/04/19 18:19:34","新北市林口區忠孝路551號","121.372465","25.0686116666667","6501700","林口區"
"244023","483-VK","2018/04/19 18:19:37","新北市林口區仁愛路二段36號","121.385218333333","25.07589","6501700","林口區"
"244017","485-VK","2018/04/19 18:19:39","新北市林口區八德路20巷17號","121.367546666667","25.0677816666667","6501700","林口區"
"244009","656-BX","2018/04/19 18:19:31","新北市林口區文林二街22號","121.376246666667","25.0889216666667","6501700","林口區"
"244011","701-TV","2018/04/19 18:19:21","新北市林口區仁愛路一段270號","121.393863333333","25.076035","6501700","林口區"
"244025","837-TS","2018/04/19 18:19:41","新北市林口區南勢四街48號","121.354801666667","25.0696766666667","6501700","林口區"
"244021","838-TS","2018/04/19 18:19:34","新北市林口區自強二街1號","121.397448333333","25.0785","6501700","林口區"
"243013","646-TV","2018/04/19 18:19:27","新北市泰山區明志路三段166號","121.42416","25.0394033333333","6501600","泰山區"
"222003","436-BY","2018/04/19 18:19:37","新北市深坑區旺耽路67號","121.626283333333","25.0029833333333","6501800","深坑區"
"222002","659-BX","2018/04/19 18:19:26","新北市深坑區文化街1號","121.620911666667","25.0013016666667","6501800","深坑區"
"231041","002-UM","2018/04/19 18:19:33","新北市新店區安華路28-1號","121.519685","24.9607333333333","6500600","新店區"
"231040","047-UY","2018/04/19 18:19:30","新北市新店區安華路28-1號","121.519355","24.96085","6500600","新店區"
"231044","106-UY","2018/04/19 18:19:24","新北市新店區安華路28-1號","121.519563333333","24.960785","6500600","新店區"
"231046","107-UY","2018/04/19 18:19:36","新北市新店區直潭七街60號","121.532288333333","24.9397333333333","6500600","新店區"
"231047","187-VK","2018/04/19 18:19:35","新北市新店區安華路28-1號","121.519565","24.9610583333333","6500600","新店區"
"231054","KEA-2219","2018/04/19 18:19:31","新北市新店區安華路28-1號","121.519806666667","24.961155","6500600","新店區"
"231057","256-BX","2018/04/19 18:19:35","新北市新店區安華路28-1號","121.51962","24.9610366666667","6500600","新店區"
"231051","278-BY","2018/04/19 18:19:29","新北市新店區安華路28-1號","121.519656666667","24.9612133333333","6500600","新店區"
"231050","AAD-862","2018/04/19 18:19:27","新北市新店區安華路28-1號","121.519885","24.9610633333333","6500600","新店區"
"231059","355-BY","2018/04/19 18:19:37","新北市新店區安華路28-1號","121.519118333333","24.96092","6500600","新店區"
"231058","3713-VJ","2018/04/19 18:19:32","新北市新店區環河路29巷1號","121.536795","24.9612916666667","6500600","新店區"
"231066","4716-K9","2018/04/19 18:19:21","新北市新店區安華路28-1號","121.519281666667","24.96117","6500600","新店區"
"231056","4715-K9","2018/04/19 18:19:30","新北市新店區中央路57號","121.532758333333","24.9773483333333","6500600","新店區"
"231067","4772-VM","2018/04/19 18:19:32","新北市新店區安華路28-1號","121.519166666667","24.9605866666667","6500600","新店區"
"231065","512-UM","2018/04/19 18:19:32","新北市新店區安華路28-1號","121.51933","24.9612433333333","6500600","新店區"
"231049","513-UM","2018/04/19 18:19:37","新北市新店區安華路28-1號","121.519608333333","24.961155","6500600","新店區"
"231061","619-UM","2018/04/19 18:19:29","新北市新店區安華路28-1號","121.519548333333","24.9608816666667","6500600","新店區"
"231063","641-BX","2018/04/19 18:19:39","新北市新店區安華路28-1號","121.519553333333","24.9605383333333","6500600","新店區"
"231042","645-TV","2018/04/19 18:19:32","新北市新店區安華路28-1號","121.519378333333","24.9606583333333","6500600","新店區"
"231047","719-UY","2018/04/19 18:19:31","新北市新店區安康路一段83-2號","121.529525","24.9613516666667","6500600","新店區"
"231062","720-UM","2018/04/19 18:19:25","新北市新店區安華路28-1號","121.51924","24.961215","6500600","新店區"
"231060","897-TW","2018/04/19 18:19:25","新北市新店區安華路28-1號","121.519773333333","24.96052","6500600","新店區"
"231045","898-TW","2018/04/19 18:19:36","新北市新店區安華路28-1號","121.519368333333","24.9609016666667","6500600","新店區"
"231043","899-TW","2018/04/19 18:19:42","新北市新店區安華路28-1號","121.5193","24.9609816666667","6500600","新店區"
"231055","AKT-0513","2018/04/19 18:19:23","新北市新店區安康路一段3-1號","121.534708333333","24.96077","6500600","新店區"
"241024","KEA-2210","2018/04/19 18:19:24","新北市三重區忠孝路三段38號","121.481111666667","25.06653","6500200","三重區"
"235064","005-UY","2018/04/19 18:19:38","新北市中和區圓通路173號","121.497576666667","24.9952133333333","6500300","中和區"
"235063","006-UY","2018/04/19 18:19:29","新北市中和區中正路569號","121.486691666667","24.9942733333333","6500300","中和區"
"235056","096-UM","2018/04/19 18:19:31","新北市板橋區三民路二段220巷19號","121.477926666667","25.0115416666667","6500300","中和區"
"235039","097-UM","2018/04/19 18:19:36","新北市中和區中正路271號","121.495853333333","24.9936566666667","6500300","中和區"
"235065","098-UM","2018/04/19 18:19:37","新北市中和區莊敬路49巷18號","121.501643333333","25.006105","6500300","中和區"
"235058","151-BY","2018/04/19 18:19:22","新北市中和區圓通路369巷35號","121.489218333333","24.9865516666667","6500300","中和區"
"235055","183-VK","2018/04/19 18:19:28","新北市中和區中正路637巷60弄61號","121.485435","24.9932266666667","6500300","中和區"
"235038","185-VK","2018/04/19 18:19:38","新北市中和區秀朗路三段128巷17弄10號","121.524023333333","24.9933316666667","6500300","中和區"
"235049","186-VK","2018/04/19 18:19:32","新北市中和區中正路637巷52弄1號","121.485408333333","24.99351","6500300","中和區"
"235072","301-VK","2018/04/19 18:19:32","新北市中和區連城路249號","121.49286","24.99673","6500300","中和區"
"235043","352-BY","2018/04/19 18:19:38","新北市中和區中正路171號","121.49786","24.993565","6500300","中和區"
"235068","377-QA","2018/04/19 18:19:26","新北市中和區員山路36巷16-3號","121.48496","24.9912316666667","6500300","中和區"
"235061","378-QA","2018/04/19 18:19:38","新北市中和區國光街215巷26-3號","121.467061666667","25.0003883333333","6500300","中和區"
"235050","4979-A6","2018/04/19 18:19:29","新北市中和區捷運路129號","121.50708","24.990765","6500300","中和區"
"235042","551-UM","2018/04/19 18:19:30","新北市中和區大仁街46號","121.518491666667","24.9936766666667","6500300","中和區"
"235070","558-UM","2018/04/19 18:19:22","新北市中和區圓通路162-8號","121.497456666667","24.99496","6500300","中和區"
"235045","565-BX","2018/04/19 18:19:30","新北市中和區景安路200巷1弄2號","121.503833333333","24.991395","6500300","中和區"
"235054","640-BX","2018/04/19 18:19:41","新北市中和區民享街86巷24號","121.473488333333","25.000675","6500300","中和區"
"235060","647-TV","2018/04/19 18:19:31","新北市中和區中正路637巷52弄1號","121.485466666667","24.99335","6500300","中和區"
"235047","732-UM","2018/04/19 18:19:36","新北市中和區南山路479號","121.50794","24.9881866666667","6500300","中和區"
"235062","800-TS","2018/04/19 18:19:36","新北市中和區景平路999巷2號","121.495378333333","25.00597","6500300","中和區"
"235057","801-TS","2018/04/19 18:19:26","新北市中和區員山路253號","121.481323333333","24.9988633333333","6500300","中和區"
"235052","805-TS","2018/04/19 18:19:34","新北市中和區捷運路189號","121.505396666667","24.9913516666667","6500300","中和區"
"235048","896-TW","2018/04/19 18:19:31","新北市中和區錦和路350-1號","121.490278333333","24.9935516666667","6500300","中和區"
"235053","900-TW","2018/04/19 18:19:19","新北市中和區員山路36巷16-2號","121.485285","24.9914216666667","6500300","中和區"
"235066","911-UM","2018/04/19 18:19:36","新北市中和區中山路二段122號","121.502655","25.0036233333333","6500300","中和區"
"235051","157-BY","2018/04/19 18:19:19","新北市中和區忠孝街118號","121.512136666667","24.9857016666667","6500300","中和區"
"235037","AAC-213","2018/04/19 18:19:38","新北市中和區景德街73號","121.51669","24.991405","6500300","中和區"
"226004","312-R5","2018/04/19 18:19:29","新北市平溪區薯榔里雙菁路93號","121.714098333333","25.02126","6502400","平溪區"
"235041","251-BX","2018/04/19 18:19:36","新北市中和區中正路406號","121.49236","24.99408","6500300","中和區"
"228003","097-TW","2018/04/19 18:19:29","新北市貢寮區真理里美艷山街63-1號","121.920455","25.07218","6502600","貢寮區"
"228001","212-TW","2018/04/19 18:19:33","新北市貢寮區真理里新港街26巷55弄2-1號","121.927393333333","25.0528633333333","6502600","貢寮區"
"228002","585-TW","2018/04/19 18:19:38","新北市貢寮區福連里馬崗街20號","122.002623333333","25.0137233333333","6502600","貢寮區"
"224010","AGQ-8101","2018/04/19 17:59:56","新北市瑞芳區山尖路215-1號","121.848715","25.11185","6501200","瑞芳區"
"224006","676-BX","2018/04/19 18:19:35","新北市瑞芳區民權街3-2號","121.808221666667","25.1074766666667","6501200","瑞芳區"
"224002","639-TC","2018/04/19 18:19:21","新北市瑞芳區三爪子坑路151號","121.81056","25.1062616666667","6501200","瑞芳區"
"224008","285-BY","2018/04/19 18:19:30","新北市瑞芳區逢甲路9號","121.80998","25.108495","6501200","瑞芳區"
"224009","273-VK","2018/04/19 18:19:38","新北市瑞芳區金光路250號","121.855271666667","25.1064983333333","6501200","瑞芳區"
"224005","271-BY","2018/04/19 18:19:37","新北市瑞芳區建基新村3-3號","121.81154","25.1314333333333","6501200","瑞芳區"
"227004","642-TC","2018/04/19 18:19:27","新北市雙溪區共和里中山路2號","121.863768333333","25.0337916666667","6502500","雙溪區"
"227010","400-TW","2018/04/19 18:19:27","新北市雙溪區牡丹里牡丹73號","121.851703333333","25.05934","6502500","雙溪區"
"253005","032-BX","2018/04/19 18:19:26","新北市石門區中央路4-1號","121.56543","25.2912016666667","6502200","石門區"
"253006","295-VK","2018/04/19 18:19:38","新北市石門區老梅路59號","121.545725","25.2892166666667","6502200","石門區"
"222001","KEA-2212","2018/04/19 18:19:22","新北市深坑區北深路二段66號","121.618971666667","25.004125","6501800","深坑區"
"208002","KEA-2872","2018/04/19 18:19:23","新北市金山區清泉里清水路60巷20號","121.634716666667","25.23229","6502700","金山區"
"208003","665-BX","2018/04/19 18:19:25","新北市金山區中山路16號","121.64159","25.2177783333333","6502700","金山區"
"208001","761-BX","2018/04/19 18:19:20","新北市金山區自強路13號","121.6404","25.2165333333333","6502700","金山區"
"251004","009-UM","2018/04/19 18:19:41","新北市淡水區民族路72號","121.462271666667","25.1356516666667","6501000","淡水區"
"251005","010-UM","2018/04/19 18:19:27","新北市淡水區水源街一段122巷39號","121.447093333333","25.17036","6501000","淡水區"
"251001","011-UM","2018/04/19 18:19:38","新北市淡水區自強路110-8號","121.461643333333","25.13137","6501000","淡水區"
"251002","012-UM","2018/04/19 18:19:32","新北市淡水區中正東路一段65號","121.45267","25.162315","6501000","淡水區"
"251013","179-VK","2018/04/19 18:19:35","新北市淡水區破瓦厝子1-7號","121.475906666667","25.2000466666667","6501000","淡水區"
"251014","180-VK","2018/04/19 18:19:42","新北市淡水區南平18號","121.491568333333","25.2193983333333","6501000","淡水區"
"251008","181-VK","2018/04/19 18:19:25","新北市淡水區水源街二段194號","121.457141666667","25.175555","6501000","淡水區"
"251015","182-VK","2018/04/19 18:19:35","新北市淡水區興福寮88巷1號","121.485365","25.1649333333333","6501000","淡水區"
"251010","413-VK","2018/04/19 18:19:34","新北市淡水區淡海路180巷12-3號","121.420393333333","25.1845983333333","6501000","淡水區"
"251012","441-VK","2018/04/19 18:19:23","新北市淡水區北新路二段77-5號","121.48051","25.1855116666667","6501000","淡水區"
"251016","442-VK","2018/04/19 18:19:36","新北市淡水區淡金路三段228巷22-6號","121.449793333333","25.2048916666667","6501000","淡水區"
"251006","561-UM","2018/04/19 18:19:26","新北市淡水區新民街74號","121.438743333333","25.1763983333333","6501000","淡水區"
"251011","650-BX","2018/04/19 18:19:34","新北市淡水區坪頂路52巷2號","121.458086666667","25.1625383333333","6501000","淡水區"
"251003","766-UM","2018/04/19 18:19:30","新北市淡水區北新路180號","121.449465","25.1787216666667","6501000","淡水區"
"207003","550-UM","2018/04/19 18:19:42","新北市萬里區野柳里港東路62-1號","121.687531666667","25.203795","6502800","萬里區"
"207003","225-TW","2018/04/19 18:19:35","新北市萬里區中幅里中福路32-2號","121.679286666667","25.16711","6502800","萬里區"
"252002","178-VK","2018/04/19 18:19:25","新北市三芝區中山路二段37號","121.502893333333","25.25516","6502100","三芝區"
"252003","249-BX","2018/04/19 18:19:24","新北市三芝區錫板里海尾14-32號","121.477653333333","25.25961","6502100","三芝區"
"252001","292-VK","2018/04/19 18:19:32","新北市三芝區中興街二段2號","121.498423333333","25.2566516666667","6502100","三芝區"
"237007","153-BY","2018/04/19 18:19:35","新北市三峽區中正路二段556號","121.359963333333","24.90619","6500900","三峽區"
"237011","572-TV","2018/04/19 18:19:24","新北市三峽區溪東路367號","121.411698333333","24.9292083333333","6500900","三峽區"
"237009","210-TH","2018/04/19 18:19:37","新北市三峽區大勇路36巷38號","121.365665","24.9370766666667","6500900","三峽區"
"237013","252-BX","2018/04/19 18:19:31","新北市三峽區永安街37號","121.376483333333","24.9304033333333","6500900","三峽區"
"237008","302-VK","2018/04/19 18:19:33","新北市三峽區白雞68-333號","121.391603333333","24.9097483333333","6500900","三峽區"
"237014","433-BY","2018/04/19 18:19:26","新北市三峽區復興路110巷1弄7號","121.37253","24.9381566666667","6500900","三峽區"
"237006","5529-G3","2018/04/19 18:19:35","新北市三峽區溪東路350號","121.41097","24.9299033333333","6500900","三峽區"
"237005","AKY-6261","2018/04/19 18:19:27","新北市三峽區忠孝街31號","121.370936666667","24.9340466666667","6500900","三峽區"
"236070","105-UM","2018/04/19 18:19:36","新北市土城區永豐路252號","121.468591666667","24.9801283333333","6501300","土城區"
"236042","107-UM","2018/04/19 18:19:35","新北市土城區裕生路21巷6弄45號","121.448688333333","24.9866033333333","6501300","土城區"
"236078","166-UM","2018/04/19 18:19:37","新北市土城區中央路三段281巷15弄1號","121.426261666667","24.9626866666667","6501300","土城區"
"236030","253-BX","2018/04/19 18:19:32","新北市土城區順風路45號","121.440298333333","24.9770216666667","6501300","土城區"
"236026","269-VK","2018/04/19 18:19:35","新北市土城區承天路81-8號","121.44055","24.9626883333333","6501300","土城區"
"236014","270-VK","2018/04/19 18:19:38","新北市土城區青雲路39巷7號","121.460336666667","24.987395","6501300","土城區"
"236038","271-VK","2018/04/19 18:19:35","新北市土城區青雲路451巷6號","121.459586666667","24.9745766666667","6501300","土城區"
"236021","401-BY","2018/04/19 18:19:30","新北市土城區明德路一段371號","121.452955","24.97965","6501300","土城區"
"236059","912-UM","2018/04/19 18:19:35","新北市土城區中央路四段434號","121.410795","24.9516483333333","6501300","土城區"
"236049","913-UM","2018/04/19 18:19:38","新北市土城區明德路一段375-1號","121.454941666667","24.9780966666667","6501300","土城區"
"236063","915-UM","2018/04/19 18:19:39","新北市土城區金城路三段197號","121.470153333333","24.9890366666667","6501300","土城區"
"236055","AAC-216","2018/04/19 18:19:38","新北市土城區中華路二段102號","121.438066666667","24.9743533333333","6501300","土城區"
"242058","986-R7","2018/04/19 18:19:32","新北市新莊區中正路806號","121.410118333333","25.0209916666667","6500500","新莊區"
"242053","751-BX","2018/04/19 18:19:28","新北市新莊區西盛街428號","121.426998333333","25.0119733333333","6500500","新莊區"
"242027","615-BX","2018/04/19 18:19:38","新北市新莊區幸福路820號","121.445376666667","25.0490783333333","6500500","新莊區"
"242029","612-BX","2018/04/19 18:19:33","新北市新莊區新泰路528號","121.441978333333","25.0474166666667","6500500","新莊區"
"242042","566-BX","2018/04/19 18:19:33","新北市新莊區天祥街77號","121.415633333333","25.0292983333333","6500500","新莊區"
"242046","497-BY","2018/04/19 18:19:38","新北市新莊區中正路833號","121.420665","25.0282316666667","6500500","新莊區"
"242051","441-UM","2018/04/19 18:19:24","新北市新莊區民安東路180號","121.433296666667","25.02039","6500500","新莊區"
"242056","440-UM","2018/04/19 18:19:20","新北市新莊區豐年街53巷48號","121.447931666667","25.0317666666667","6500500","新莊區"
"242044","400-BY","2018/04/19 18:19:33","新北市新莊區新北大道七段730號","121.412696666667","25.02577","6500500","新莊區"
"242061","353-BY","2018/04/19 18:19:32","新北市新莊區新樹路69-5號","121.438738333333","25.0297","6500500","新莊區"
"242048","172-VK","2018/04/19 18:19:25","新北市樹林區俊興街282號","121.418268333333","25.0169766666667","6500500","新莊區"
"242011","173-VK","2018/04/19 18:19:40","新北市新莊區中港路587號","121.451095","25.0522816666667","6500500","新莊區"
"242021","348-TH","2018/04/19 18:19:32","新北市新莊區中正路261號","121.449808333333","25.0354566666667","6500500","新莊區"
"238015","755-BX","2018/04/19 18:19:38","新北市樹林區文化街112巷2號","121.416918333333","24.9900583333333","6500700","樹林區"
"238023","601-UM","2018/04/19 18:19:40","新北市樹林區忠信街15號","121.40769","25.0149816666667","6500700","樹林區"
"238019","599-UM","2018/04/19 18:19:41","新北市樹林區中華路190號","121.412003333333","24.98059","6500700","樹林區"
"238018","571-TV","2018/04/19 18:19:36","新北市樹林區樹新路34巷9號","121.428156666667","24.9945433333333","6500700","樹林區"
"238024","5061-A6","2018/04/19 18:19:25","新北市樹林區中山路一段151號","121.422158333333","24.9890616666667","6500700","樹林區"
"238025","303-VK","2018/04/19 18:19:39","新北市樹林區保安街一段29號","121.424636666667","24.9944116666667","6500700","樹林區"
"238017","283-BY","2018/04/19 18:19:41","新北市樹林區光榮街21號","121.412198333333","25.00388","6500700","樹林區"
"238014","282-BY","2018/04/19 18:19:39","新北市樹林區大安路109號","121.42249","24.9980083333333","6500700","樹林區"
"238020","268-VK","2018/04/19 18:19:26","新北市樹林區三俊街21號","121.411893333333","25.0155066666667","6500700","樹林區"
"238026","172-UY","2018/04/19 18:19:40","新北市樹林區八德街828-18號","121.39247","24.9692533333333","6500700","樹林區"
"238016","169-UY","2018/04/19 18:19:25","新北市樹林區文化街28號","121.419296666667","24.9876866666667","6500700","樹林區"
"239007","AAC-297","2018/04/19 18:19:23","新北市鶯歌區尖山埔路1-1號","121.349736666667","24.9510916666667","6500800","鶯歌區"
"239006","891-R6","2018/04/19 18:19:36","新北市鶯歌區德昌街147號","121.332293333333","24.9602183333333","6500800","鶯歌區"
"239008","527-UM","2018/04/19 18:19:30","新北市鶯歌區國際一路179號","121.336241666667","24.9764766666667","6500800","鶯歌區"
"239005","526-UM","2018/04/19 18:19:38","新北市鶯歌區鶯桃路658巷37弄18號","121.329766666667","24.9702483333333","6500800","鶯歌區"
"239001","417-VK","2018/04/19 18:19:32","新北市鶯歌區國中街197號","121.338205","24.9391383333333","6500800","鶯歌區"
"239003","360-BY","2018/04/19 18:19:38","新北市鶯歌區福安街58號","121.335583333333","24.9651833333333","6500800","鶯歌區"
"239002","359-BY","2018/04/19 18:19:39","新北市鶯歌區文化路307號","121.352518333333","24.9524566666667","6500800","鶯歌區"
"221008","489-VK","2018/04/19 18:19:37","新北市汐止區康寧街706-2號","121.638543333333","25.0731516666667","6501100","汐止區"
"221036","130-UY","2018/04/19 18:19:27","新北市汐止區長安路74號","121.669226666667","25.07836","6501100","汐止區"
"221015","131-UY","2018/04/19 18:19:43","新北市汐止區鄉長路二段27號","121.66807","25.0828566666667","6501100","汐止區"
"221010","269-BY","2018/04/19 18:19:33","新北市汐止區祥雲街18巷13號","121.64687","25.0895366666667","6501100","汐止區"
"221012","278-VK","2018/04/19 18:19:34","新北市汐止區保長路35巷15弄5號","121.673013333333","25.08029","6501100","汐止區"
"221023","279-VK","2018/04/19 18:19:33","新北市汐止區中興路244號","121.62949","25.0681166666667","6501100","汐止區"
"221032","280-BY","2018/04/19 18:19:24","新北市汐止區力行街44號","121.616463333333","25.0499133333333","6501100","汐止區"
"221027","281-BY","2018/04/19 18:19:31","新北市汐止區和平街6巷5弄2號","121.663563333333","25.0717433333333","6501100","汐止區"
"221029","298-VK","2018/04/19 18:19:23","新北市汐止區汐萬路一段312號","121.650111666667","25.0755566666667","6501100","汐止區"
"221021","299-VK","2018/04/19 18:19:38","新北市汐止區連興街120號","121.653766666667","25.0625866666667","6501100","汐止區"
"221031","353-TW","2018/04/19 18:19:37","新北市汐止區中興路102號","121.634128333333","25.06268","6501100","汐止區"
"221035","622-UM","2018/04/19 18:19:35","新北市汐止區大同路二段169巷22弄1號","121.651063333333","25.064975","6501100","汐止區"
"221025","623-UM","2018/04/19 18:19:44","新北市汐止區勤進路12巷23號","121.659263333333","25.0623483333333","6501100","汐止區"
"221038","646-BX","2018/04/19 18:19:30","新北市汐止區忠孝東路308號","121.664296666667","25.068895","6501100","汐止區"
"221033","647-BX","2018/04/19 18:19:35","新北市汐止區宜興街75號","121.623038333333","25.04333","6501100","汐止區"
"221018","753-BX","2018/04/19 18:19:23","新北市汐止區茄苳路118號","121.668041666667","25.0703066666667","6501100","汐止區"
"242002","KEA-2550","2018/04/19 18:19:20","新北市新莊區大觀街2號","121.454601666667","25.034075","6500500","新莊區"
"242009","281-VK","2018/04/19 18:19:36","新北市新莊區幸福路600號","121.45312","25.049345","6500500","新莊區"
"242031","280-VK","2018/04/19 18:19:22","新北市新莊區新泰路277巷43弄17號","121.443931666667","25.03982","6500500","新莊區"
