"lineid","car","time","location","longitude","latitude","cityid","cityname"
"234046","148-BY","2018/04/19 19:19:32","新北市永和區得和路375號","121.52474","24.99953","6500400","永和區"
"234070","149-BY","2018/04/19 19:19:28","新北市永和區豫溪街37號","121.516663333333","25.009945","6500400","永和區"
"234007","207-UY","2018/04/19 19:19:27","新北市永和區保生路2號","121.50687","25.0071116666667","6500400","永和區"
"234081","298-R6","2018/04/19 19:19:33","新北市永和區福和路7巷12弄1號","121.52544","25.00749","6500400","永和區"
"234038","336-UY","2018/04/19 19:19:27","新北市永和區民樂街70號","121.527423333333","24.9983966666667","6500400","永和區"
"234064","337-UY","2018/04/19 19:19:18","新北市永和區永元路17巷6弄2號","121.521416666667","25.0006633333333","6500400","永和區"
"234086","338-UY","2018/04/19 19:19:13","新北市永和區永利路86號","121.520685","25.0039883333333","6500400","永和區"
"234067","553-UM","2018/04/19 19:19:25","新北市永和區保平路50巷6號","121.511215","25.007335","6500400","永和區"
"234017","745-BX","2018/04/19 19:19:28","新北市永和區文化路144巷27號","121.512443333333","25.0166916666667","6500400","永和區"
"234030","746-BX","2018/04/19 19:19:19","新北市永和區厚德街89號","121.523978333333","24.998755","6500400","永和區"
"234054","KEA-2590","2018/04/19 19:19:18","新北市永和區中興街27號","121.51607","25.0119","6500400","永和區"
"234013","KEA-2591","2018/04/19 19:19:20","新北市永和區信義路75-1號","121.512566666667","25.0129833333333","6500400","永和區"
"234061","AAD-866","2018/04/19 19:19:23","新北市永和區中正路381號","121.517153333333","25.0035933333333","6500400","永和區"
"234042","862-TW","2018/04/19 19:19:33","新北市永和區保平路151巷2弄7-2號","121.509713333333","25.0051766666667","6500400","永和區"
"234050","863-TW","2018/04/19 19:19:18","新北市永和區保福路二段72號","121.510563333333","25.0131416666667","6500400","永和區"
"234026","9371-KE","2018/04/19 19:19:16","新北市永和區安樂路144巷20號","121.515085","24.9996983333333","6500400","永和區"
"234011","9373-KE","2018/04/19 19:19:32","新北市永和區保福路二段23巷19號","121.510126666667","25.0111516666667","6500400","永和區"
"249005","172-UM","2018/04/19 19:19:21","新北市八里區中華路三段120-2號","121.392711666667","25.1378216666667","6502300","八里區"
"249001","173-UM","2018/04/19 19:19:28","新北市八里區文昌路112號","121.409768333333","25.1576483333333","6502300","八里區"
"249003","593-UM","2018/04/19 19:19:31","新北市八里區中山路二段460號","121.39896","25.1473966666667","6502300","八里區"
"248020","225-UY","2018/04/19 18:56:33","新北市五股區凌雲路三段57號","121.425326666667","25.1250066666667","6501500","五股區"
"248012","247-BX","2018/04/19 19:19:18","新北市五股區中興路四段48巷11號","121.438538333333","25.08354","6501500","五股區"
"248004","677-BX","2018/04/19 19:19:30","新北市五股區五福路53號","121.432986666667","25.0897983333333","6501500","五股區"
"248002","678-BX","2018/04/19 19:19:15","新北市五股區凌雲路一段158巷14-1號","121.447865","25.1034633333333","6501500","五股區"
"248010","682-TV","2018/04/19 19:19:00","新北市五股區水碓一路23號","121.430573333333","25.071295","6501500","五股區"
"234023","9380-KE","2018/04/19 19:19:27","新北市永和區竹林路124巷31號","121.51826","25.01118","6500400","永和區"
"234077","969-R7","2018/04/19 19:19:28","新北市永和區民治街72巷10號","121.518106666667","24.9984916666667","6500400","永和區"
"234074","AAC-211","2018/04/19 19:19:29","新北市永和區竹林路100-1號","121.519646666667","25.0120733333333","6500400","永和區"
"234003","AAC-295","2018/04/19 19:19:24","新北市永和區永平路186-1號","121.510411666667","25.0092866666667","6500400","永和區"
"244013","069-UM","2018/04/19 19:19:33","新北市林口區文化一路一段126號","121.375535","25.07215","6501700","林口區"
"244019","403-UM","2018/04/19 19:19:35","新北市林口區文化二路一段551號","121.37459","25.07684","6501700","林口區"
"244023","483-VK","2018/04/19 19:19:37","新北市林口區仁愛路二段516號","121.3737","25.077645","6501700","林口區"
"244017","485-VK","2018/04/19 19:19:19","新北市林口區寶斗厝坑7-2號","121.357226666667","25.0987966666667","6501700","林口區"
"244011","701-TV","2018/04/19 19:19:01","新北市林口區嘉溪雅坑5-4號","121.349346666667","25.0996766666667","6501700","林口區"
"243012","AAD-798","2018/04/19 19:19:28","新北市泰山區仁武街139巷11號","121.432401666667","25.054015","6501600","泰山區"
"243011","297-R6","2018/04/19 19:19:24","新北市泰山區中央路11巷1號","121.426291666667","25.042765","6501600","泰山區"
"243015","380-SR","2018/04/19 19:19:20","新北市泰山區公園路71號","121.426386666667","25.0555333333333","6501600","泰山區"
"243014","421-VK","2018/04/19 19:19:28","新北市泰山區泰林路二段47號","121.435535","25.0575866666667","6501600","泰山區"
"243010","KEA-2215","2018/04/19 19:19:22","新北市泰山區明志路一段492巷3弄2號","121.429968333333","25.0546633333333","6501600","泰山區"
"243009","KEA-2216","2018/04/19 19:19:28","新北市泰山區和平街13巷13號","121.434358333333","25.0651916666667","6501600","泰山區"
"243013","646-TV","2018/04/19 19:19:28","新北市泰山區明志路三段145巷6弄4號","121.42552","25.039715","6501600","泰山區"
"243016","680-BX","2018/04/19 19:19:30","新北市泰山區工專路64號","121.422866666667","25.0403516666667","6501600","泰山區"
"222003","436-BY","2018/04/19 19:19:17","新北市深坑區深南路91號","121.626588333333","25.0159816666667","6501800","深坑區"
"222002","659-BX","2018/04/19 19:19:26","新北市深坑區北深路一段210號","121.633048333333","25.01099","6501800","深坑區"
"231041","002-UM","2018/04/19 19:19:33","新北市新店區溪園路245-6號","121.525346666667","24.9831983333333","6500600","新店區"
"231040","047-UY","2018/04/19 19:19:30","新北市新店區中華路147號","121.538115","24.9704716666667","6500600","新店區"
"231044","106-UY","2018/04/19 19:19:24","新北市新店區中興路三段295號","121.542263333333","24.985075","6500600","新店區"
"231046","107-UY","2018/04/19 19:19:16","新北市新店區華城路36巷1-1號","121.528388333333","24.9552766666667","6500600","新店區"
"231047","187-VK","2018/04/19 19:19:15","新北市新店區德正街27巷30號","121.545546666667","24.9711583333333","6500600","新店區"
"231054","KEA-2219","2018/04/19 19:19:31","新北市新店區國校路59號","121.538363333333","24.954215","6500600","新店區"
"231051","278-BY","2018/04/19 19:19:29","新北市新店區中央路129號","121.530515","24.9740016666667","6500600","新店區"
"231050","AAD-862","2018/04/19 19:19:27","新北市新店區竹林路97巷2號","121.554436666667","24.9501883333333","6500600","新店區"
"231059","355-BY","2018/04/19 19:19:17","新北市新店區安和路三段31號","121.517933333333","24.9814783333333","6500600","新店區"
"231058","3713-VJ","2018/04/19 19:19:32","新北市新店區北新路二段96號","121.542931666667","24.9731333333333","6500600","新店區"
"231066","4716-K9","2018/04/19 19:19:21","新北市新店區安康路三段355巷11號","121.484796666667","24.95056","6500600","新店區"
"231056","4715-K9","2018/04/19 19:19:30","新北市新店區安興路102號","121.515215","24.9768866666667","6500600","新店區"
"231065","512-UM","2018/04/19 19:19:32","新北市新店區安祥路108巷51號","121.474426666667","24.9571383333333","6500600","新店區"
"231049","513-UM","2018/04/19 19:19:17","新北市新店區明德路66號","121.54158","24.97954","6500600","新店區"
"231061","619-UM","2018/04/19 19:19:29","新北市新店區安康路一段94-2號","121.527831666667","24.962105","6500600","新店區"
"231063","641-BX","2018/04/19 19:19:19","新北市新店區達觀路12號","121.505148333333","24.9408283333333","6500600","新店區"
"231042","645-TV","2018/04/19 19:19:32","新北市新店區中興路一段90號","121.539878333333","24.96047","6500600","新店區"
"231064","719-UM","2018/04/19 19:19:20","新北市新店區安忠路57巷26弄45號","121.512081666667","24.95765","6500600","新店區"
"231047","719-UY","2018/04/19 19:19:31","新北市新店區自強路254號","121.548013333333","24.9187816666667","6500600","新店區"
"231062","720-UM","2018/04/19 19:19:25","新北市新店區安康路一段223號","121.525703333333","24.9630283333333","6500600","新店區"
"231060","897-TW","2018/04/19 19:19:25","新北市新店區安康路二段130-1號","121.512631666667","24.96228","6500600","新店區"
"231045","898-TW","2018/04/19 19:19:16","新北市新店區北宜路一段278號","121.546395","24.9526616666667","6500600","新店區"
"231043","899-TW","2018/04/19 19:19:22","新北市新店區北新路二段111號","121.542943333333","24.974765","6500600","新店區"
"231055","AKT-0513","2018/04/19 19:19:23","新北市新店區安康路二段320巷15弄2號","121.50408","24.9596366666667","6500600","新店區"
"241009","060-VK","2018/04/19 19:19:25","新北市三重區溪尾街218巷45號","121.486125","25.08101","6500200","三重區"
"241031","061-VK","2018/04/19 19:19:14","新北市三重區重新路四段226號","121.485863333333","25.0541033333333","6500200","三重區"
"241017","063-VK","2018/04/19 19:19:23","新北市三重區大同北路217號","121.491516666667","25.0660183333333","6500200","三重區"
"241026","265-UM","2018/04/19 19:19:22","新北市三重區中正南路187號","121.493665","25.055045","6500200","三重區"
"241022","267-UM","2018/04/19 19:19:25","新北市三重區中正北路52號","121.48707","25.0642666666667","6500200","三重區"
"241032","269-UM","2018/04/19 19:18:59","新北市三重區三陽路137巷1號","121.483078333333","25.0591866666667","6500200","三重區"
"241013","270-UM","2018/04/19 19:19:33","新北市三重區仁愛街82巷14號","121.494668333333","25.0733466666667","6500200","三重區"
"241025","271-UM","2018/04/19 19:19:36","新北市三重區中正北路253號","121.475366666667","25.070695","6500200","三重區"
"241007","398-BY","2018/04/19 19:19:27","新北市三重區慈愛街48號","121.485848333333","25.0790866666667","6500200","三重區"
"241006","462-BY","2018/04/19 19:19:17","新北市三重區車路頭街153號","121.483721666667","25.076995","6500200","三重區"
"241020","478-VK","2018/04/19 19:19:30","新北市三重區大智街240號","121.489246666667","25.0728733333333","6500200","三重區"
"241030","480-VK","2018/04/19 19:19:33","新北市三重區成功路41巷99號","121.491496666667","25.0532533333333","6500200","三重區"
"241029","942-UM","2018/04/19 19:19:26","新北市三重區重安街83號","121.49254","25.055775","6500200","三重區"
"235064","005-UY","2018/04/19 19:19:35","新北市中和區連城路23巷9號","121.499098333333","25.00169","6500300","中和區"
"235063","006-UY","2018/04/19 19:19:29","新北市中和區連勝街123巷10號","121.494651666667","24.995295","6500300","中和區"
"235056","096-UM","2018/04/19 19:19:31","新北市中和區員山路527號","121.47969","25.006875","6500300","中和區"
"235039","097-UM","2018/04/19 19:19:16","新北市中和區自立路60號","121.523683333333","24.9915183333333","6500300","中和區"
"235065","098-UM","2018/04/19 19:19:16","新北市中和區中山路二段2巷3弄15號","121.504341666667","25.0056816666667","6500300","中和區"
"235040","150-BY","2018/04/19 19:10:36","新北市中和區宜安路102號","121.510398333333","24.99776","6500300","中和區"
"235058","151-BY","2018/04/19 19:19:22","新北市中和區連城路469巷79弄2號","121.48349","24.993765","6500300","中和區"
"235055","183-VK","2018/04/19 19:19:28","新北市中和區德光路31號","121.470613333333","25.0042116666667","6500300","中和區"
"235038","185-VK","2018/04/19 19:19:18","新北市中和區景平路126巷2弄13號","121.519635","24.992335","6500300","中和區"
"235049","186-VK","2018/04/19 19:19:31","新北市中和區景新街235號","121.50806","24.994615","6500300","中和區"
"235067","255-BX","2018/04/19 19:19:14","新北市中和區新生街148巷17號","121.482588333333","25.000605","6500300","中和區"
"235044","293-VK","2018/04/19 19:19:21","新北市中和區中興街183號","121.500611666667","24.99009","6500300","中和區"
"235072","301-VK","2018/04/19 19:19:32","新北市中和區連城路265巷6弄2號","121.491411666667","24.9960816666667","6500300","中和區"
"235043","352-BY","2018/04/19 19:19:18","新北市中和區景平路334號","121.512005","24.99276","6500300","中和區"
"235068","377-QA","2018/04/19 19:19:26","新北市中和區連勝街38巷16號","121.497801666667","24.9978916666667","6500300","中和區"
"235061","378-QA","2018/04/19 19:19:18","新北市中和區員山路421號","121.481026666667","25.0034516666667","6500300","中和區"
"235050","4979-A6","2018/04/19 19:19:29","新北市中和區景安路208巷16號","121.503263333333","24.9914266666667","6500300","中和區"
"235042","551-UM","2018/04/19 19:19:29","新北市永和區民有街65號","121.517831666667","24.9958233333333","6500300","中和區"
"235070","558-UM","2018/04/19 19:19:22","新北市中和區景平路668號","121.497306666667","25.00103","6500300","中和區"
"235045","565-BX","2018/04/19 19:19:30","新北市中和區景新街423巷35弄11號","121.51396","24.990175","6500300","中和區"
"235054","640-BX","2018/04/19 19:19:21","新北市中和區國光街107巷2弄28號","121.469591666667","24.9993033333333","6500300","中和區"
"235060","647-TV","2018/04/19 19:19:31","新北市中和區員山路469巷1號","121.48028","25.0044766666667","6500300","中和區"
"235047","732-UM","2018/04/19 19:19:36","新北市中和區和平街54巷1弄1號","121.508658333333","24.9909733333333","6500300","中和區"
"235046","733-UM","2018/04/19 19:19:36","新北市中和區忠孝街2巷9弄3號","121.510458333333","24.9823883333333","6500300","中和區"
"235071","783-BX","2018/04/19 19:19:23","新北市中和區中正路635號","121.485265","24.9953483333333","6500300","中和區"
"235057","801-TS","2018/04/19 19:19:26","新北市中和區員山路325-4號","121.481153333333","25.000865","6500300","中和區"
"235052","805-TS","2018/04/19 19:19:34","新北市中和區興南路二段128巷4號","121.504118333333","24.9836433333333","6500300","中和區"
"235048","896-TW","2018/04/19 19:19:31","新北市中和區忠孝街99-1號","121.512066666667","24.9859483333333","6500300","中和區"
"235053","900-TW","2018/04/19 19:19:18","新北市中和區華安街21巷9號","121.467396666667","24.997625","6500300","中和區"
"235066","911-UM","2018/04/19 19:19:36","新北市中和區中和路157號","121.502701666667","24.9999066666667","6500300","中和區"
"235051","157-BY","2018/04/19 19:19:19","新北市中和區和平街22號","121.509831666667","24.9903733333333","6500300","中和區"
"235037","AAC-213","2018/04/19 19:19:18","新北市中和區秀朗路三段50巷12弄8號","121.524026666667","24.99548","6500300","中和區"
"235059","AAC-215","2018/04/19 19:19:26","新北市中和區錦和路193號","121.490715","24.9907616666667","6500300","中和區"
"220068","013-TV","2018/04/19 19:19:30","新北市板橋區翠華街6巷61號","121.481193333333","25.024995","6500100","板橋區"
"220056","015-TV","2018/04/19 19:18:45","新北市板橋區信義路209號","121.459385","24.9915766666667","6500100","板橋區"
"220065","072-UY","2018/04/19 19:19:31","新北市板橋區國泰街76巷28號","121.467226666667","25.0070416666667","6500100","板橋區"
"220086","073-UY","2018/04/19 19:19:30","新北市板橋區國光路173巷1弄2-2號","121.46047","25.01854","6500100","板橋區"
"220106","075-UY","2018/04/19 19:19:20","新北市板橋區雙十路三段15號","121.471041666667","25.03114","6500100","板橋區"
"220069","AAD-861","2018/04/19 19:19:33","新北市板橋區貴興路57號","121.457346666667","25.003125","6500100","板橋區"
"247020","001-UY","2018/04/19 18:58:00","新北市五股區中興路三段163號","121.44922","25.0809283333333","6501400","蘆洲區"
"226004","312-R5","2018/04/19 19:19:29","新北市平溪區靜安路三段392巷3號","121.78388","25.0494016666667","6502400","平溪區"
"235041","251-BX","2018/04/19 19:19:16","新北市中和區景安路5號","121.508128333333","24.9991216666667","6500300","中和區"
"228003","097-TW","2018/04/19 19:19:29","新北市貢寮區和美里和美街22-1號","121.912778333333","25.082625","6502600","貢寮區"
"228001","212-TW","2018/04/19 19:19:33","新北市貢寮區真理里新港街10號","121.925546666667","25.05441","6502600","貢寮區"
"228002","585-TW","2018/04/19 19:19:18","新北市貢寮區雙玉里田寮洋街6號","121.928458333333","25.0226933333333","6502600","貢寮區"
"224006","676-BX","2018/04/19 19:19:35","新北市瑞芳區中山路243號","121.800255","25.106965","6501200","瑞芳區"
"224008","285-BY","2018/04/19 19:19:30","新北市瑞芳區一坑路189-1號","121.801741666667","25.109145","6501200","瑞芳區"
"224007","275-VK","2018/04/19 19:19:31","新北市瑞芳區大寮路356-1號","121.784941666667","25.103315","6501200","瑞芳區"
"224009","273-VK","2018/04/19 19:19:18","新北市瑞芳區洞頂路148號","121.859341666667","25.1180366666667","6501200","瑞芳區"
"224005","271-BY","2018/04/19 19:19:17","新北市瑞芳區蛇子形路6號","121.825986666667","25.1048866666667","6501200","瑞芳區"
"227004","642-TC","2018/04/19 19:19:27","新北市雙溪區平林里梅竹蹊66-1號","121.860158333333","25.0358083333333","6502500","雙溪區"
"227010","400-TW","2018/04/19 19:19:27","新北市雙溪區新基里新基北街40號","121.86849","25.0380183333333","6502500","雙溪區"
"253005","032-BX","2018/04/19 19:19:26","新北市石門區阿里荖41-1號","121.605913333333","25.2821716666667","6502200","石門區"
"253006","295-VK","2018/04/19 19:19:18","新北市石門區楓林18號","121.536353333333","25.29172","6502200","石門區"
"222001","KEA-2212","2018/04/19 19:19:22","新北市深坑區北深路二段103號","121.617456666667","25.0034183333333","6501800","深坑區"
"208002","KEA-2872","2018/04/19 19:19:23","新北市金山區中正路78號","121.633886666667","25.2218866666667","6502700","金山區"
"208003","665-BX","2018/04/19 19:19:30","新北市金山區忠孝一路30號","121.638136666667","25.2198266666667","6502700","金山區"
"208001","761-BX","2018/04/19 19:19:20","新北市金山區慈護街25號","121.639525","25.2200266666667","6502700","金山區"
"251009","008-UM","2018/04/19 19:19:30","新北市淡水區中山路141號","121.4409","25.1717516666667","6501000","淡水區"
"251005","010-UM","2018/04/19 19:19:27","新北市淡水區水源街一段29號","121.443161666667","25.1724033333333","6501000","淡水區"
"251001","011-UM","2018/04/19 19:19:18","新北市淡水區自強路201巷43號","121.462065","25.126855","6501000","淡水區"
"251013","179-VK","2018/04/19 19:19:35","新北市淡水區安子內12號","121.481538333333","25.21909","6501000","淡水區"
"251014","180-VK","2018/04/19 19:19:22","新北市淡水區小中寮19-7號","121.484746666667","25.2296383333333","6501000","淡水區"
"251015","182-VK","2018/04/19 19:19:16","新北市淡水區南勢埔27-2號","121.483468333333","25.180535","6501000","淡水區"
"251010","413-VK","2018/04/19 19:19:34","新北市淡水區沙崙路27號","121.421381666667","25.1817883333333","6501000","淡水區"
"251012","441-VK","2018/04/19 19:19:23","新北市淡水區崁頂70-2號","121.437591666667","25.2028233333333","6501000","淡水區"
"251016","442-VK","2018/04/19 19:19:36","新北市淡水區淡金路三段350巷18號","121.450778333333","25.2083816666667","6501000","淡水區"
"251006","561-UM","2018/04/19 19:19:26","新北市淡水區大信街33號","121.441968333333","25.1773616666667","6501000","淡水區"
"251007","577-R6","2018/04/19 19:19:24","新北市淡水區民生路117巷33-2號","121.464871666667","25.139625","6501000","淡水區"
"251003","766-UM","2018/04/19 19:19:30","新北市淡水區中山北路一段168號","121.44436","25.1786666666667","6501000","淡水區"
"207003","550-UM","2018/04/19 19:19:22","新北市萬里區大鵬里萬里加投79-3號","121.647323333333","25.2123583333333","6502800","萬里區"
"207003","225-TW","2018/04/19 19:19:35","新北市萬里區萬里里成功新村63號","121.688303333333","25.17462","6502800","萬里區"
"252002","178-VK","2018/04/19 19:19:25","新北市三芝區淡金路二段18-1號","121.502655","25.259495","6502100","三芝區"
"252001","292-VK","2018/04/19 19:19:32","新北市三芝區長勤街9巷11弄1號","121.50171","25.2546633333333","6502100","三芝區"
"237004","KEA-2597","2018/04/19 19:19:25","新北市三峽區有木206號","121.439093333333","24.8514483333333","6500900","三峽區"
"237007","153-BY","2018/04/19 19:19:35","新北市三峽區二鬮路154號","121.359735","24.907495","6500900","三峽區"
"237011","572-TV","2018/04/19 19:19:24","新北市三峽區中正路一段302號","121.371493333333","24.925545","6500900","三峽區"
"237009","210-TH","2018/04/19 19:19:17","新北市三峽區信義街8號","121.370795","24.93588","6500900","三峽區"
"237013","252-BX","2018/04/19 19:19:31","新北市三峽區大同路39巷11號","121.377365","24.9276716666667","6500900","三峽區"
"237008","302-VK","2018/04/19 19:19:33","新北市三峽區光明路106巷51號","121.375343333333","24.9268133333333","6500900","三峽區"
"237014","433-BY","2018/04/19 19:19:26","新北市三峽區中山路299巷17號","121.361135","24.9366383333333","6500900","三峽區"
"237006","5529-G3","2018/04/19 19:19:35","新北市三峽區中正路一段336巷15弄2號","121.369971666667","24.9249383333333","6500900","三峽區"
"237005","AKY-6261","2018/04/19 19:19:27","新北市三峽區中山路459巷42號","121.357153333333","24.9374383333333","6500900","三峽區"
"236070","105-UM","2018/04/19 19:19:26","新北市土城區學成路76巷6號","121.45152","24.9885183333333","6501300","土城區"
"236078","166-UM","2018/04/19 19:19:17","新北市土城區中央路四段321巷22號","121.411178333333","24.9512483333333","6501300","土城區"
"236026","269-VK","2018/04/19 19:19:29","新北市土城區中正路67巷26號","121.444401666667","24.9765433333333","6501300","土城區"
"236014","270-VK","2018/04/19 19:19:17","新北市土城區學府路一段25-1號","121.458351666667","24.9882266666667","6501300","土城區"
"236021","401-BY","2018/04/19 19:19:30","新北市土城區峰廷街3號","121.469046666667","24.98731","6501300","土城區"
"236059","912-UM","2018/04/19 19:19:32","新北市土城區中央路二段225號","121.440421666667","24.9726783333333","6501300","土城區"
"236049","913-UM","2018/04/19 19:19:18","新北市土城區明德路一段398-1號","121.45365","24.97908","6501300","土城區"
"242048","172-VK","2018/04/19 19:19:32","新北市新莊區後港一路3號","121.424108333333","25.0263483333333","6500500","新莊區"
"238015","755-BX","2018/04/19 19:19:23","新北市樹林區備內街3號","121.41301","24.98667","6500700","樹林區"
"238023","601-UM","2018/04/19 19:19:20","新北市樹林區三興路66號","121.393676666667","25.0145533333333","6500700","樹林區"
"238019","599-UM","2018/04/19 19:19:31","新北市樹林區鎮前街409號","121.415118333333","24.98332","6500700","樹林區"
"238018","571-TV","2018/04/19 19:19:25","新北市樹林區中華路131號","121.42171","24.9825183333333","6500700","樹林區"
"238024","5061-A6","2018/04/19 19:19:25","新北市樹林區福德街48-5號","121.39919","24.9746583333333","6500700","樹林區"
"238022","KEA-2213","2018/04/19 19:19:28","新北市樹林區中華路116-1號","121.417935","24.9806366666667","6500700","樹林區"
"238021","KEA-2539","2018/04/19 19:19:32","新北市樹林區柑園街二段380巷14號","121.368235","24.9500216666667","6500700","樹林區"
"238025","303-VK","2018/04/19 19:19:19","新北市樹林區中山路二段157號","121.406233333333","24.97883","6500700","樹林區"
"238017","283-BY","2018/04/19 19:19:35","新北市樹林區光興街157巷8號","121.407581666667","25.00433","6500700","樹林區"
"238014","282-BY","2018/04/19 19:19:19","新北市樹林區中正路23號","121.42754","24.999315","6500700","樹林區"
"238020","268-VK","2018/04/19 19:19:26","新北市樹林區俊英街121巷5號","121.424033333333","25.010225","6500700","樹林區"
"238026","172-UY","2018/04/19 19:19:19","新北市樹林區佳園路三段26號","121.387956666667","24.954055","6500700","樹林區"
"238016","169-UY","2018/04/19 19:19:32","新北市樹林區復興路466號","121.413415","24.9836233333333","6500700","樹林區"
"239007","AAC-297","2018/04/19 18:51:22","新北市鶯歌區中正一路436號","121.361851666667","24.9570666666667","6500800","鶯歌區"
"239006","891-R6","2018/04/19 19:19:35","新北市鶯歌區鶯桃路93號","121.339321666667","24.9534433333333","6500800","鶯歌區"
"239008","527-UM","2018/04/19 19:19:30","新北市鶯歌區大湖路460巷2弄2號","121.339978333333","24.9724616666667","6500800","鶯歌區"
"239005","526-UM","2018/04/19 19:19:18","新北市鶯歌區東湖路8-1號","121.351531666667","24.9722883333333","6500800","鶯歌區"
"239001","417-VK","2018/04/19 19:19:32","新北市鶯歌區建國路588號","121.339965","24.952445","6500800","鶯歌區"
"239003","360-BY","2018/04/19 19:19:17","新北市鶯歌區中正二路183號","121.34162","24.9480083333333","6500800","鶯歌區"
"239004","193-VK","2018/04/19 19:19:29","新北市鶯歌區中正三路298號","121.328478333333","24.9356983333333","6500800","鶯歌區"
"221008","489-VK","2018/04/19 19:19:36","新北市汐止區康寧街310號","121.626638333333","25.06723","6501100","汐止區"
"221036","130-UY","2018/04/19 19:19:27","新北市汐止區康寧街901號","121.651696666667","25.0749066666667","6501100","汐止區"
"221015","131-UY","2018/04/19 19:19:23","新北市汐止區汐萬路一段256巷3號","121.65341","25.0746833333333","6501100","汐止區"
"221010","269-BY","2018/04/19 19:19:32","新北市汐止區康寧街901號","121.651521666667","25.0749533333333","6501100","汐止區"
"221012","278-VK","2018/04/19 19:19:34","新北市汐止區汐萬路一段312號","121.650336666667","25.0749533333333","6501100","汐止區"
"221023","279-VK","2018/04/19 19:19:33","新北市汐止區康寧街901號","121.650936666667","25.07518","6501100","汐止區"
"221032","280-BY","2018/04/19 19:19:24","新北市汐止區新台五路一段91-2號","121.650668333333","25.061415","6501100","汐止區"
"221027","281-BY","2018/04/19 19:19:22","新北市汐止區康寧街901號","121.650723333333","25.0752983333333","6501100","汐止區"
"221029","298-VK","2018/04/19 19:19:23","新北市汐止區康寧街901號","121.651643333333","25.07494","6501100","汐止區"
"221031","353-TW","2018/04/19 19:19:17","新北市汐止區汐萬路一段256巷3號","121.652445","25.07455","6501100","汐止區"
"221025","623-UM","2018/04/19 19:19:24","新北市汐止區康寧街901號","121.651643333333","25.0749566666667","6501100","汐止區"
"221038","646-BX","2018/04/19 19:19:29","新北市汐止區汐萬路一段312號","121.650545","25.0753833333333","6501100","汐止區"
"221033","647-BX","2018/04/19 19:19:35","新北市汐止區南勢街1巷1號","121.626983333333","25.0373983333333","6501100","汐止區"
"221002","707-TV","2018/04/19 19:19:29","新北市汐止區大同路一段339-1號","121.638563333333","25.0594266666667","6501100","汐止區"
"220079","145-BY","2018/04/19 19:19:31","新北市板橋區民權路202巷17弄22號","121.45992","25.0166733333333","6500100","板橋區"
"220080","200-UY","2018/04/19 19:19:19","新北市板橋區大觀路二段19巷87號","121.449383333333","25.0029016666667","6500100","板橋區"
"220082","610-BX","2018/04/19 19:19:23","新北市板橋區金門街299號","121.430018333333","24.9865366666667","6500100","板橋區"
"220101","245-BX","2018/04/19 19:19:13","新北市板橋區莊敬路36-2號","121.473195","25.0273966666667","6500100","板橋區"
"220091","267-BY","2018/04/19 19:19:33","新北市板橋區文聖街73號","121.477253333333","25.03055","6500100","板橋區"
"220071","283-VK","2018/04/19 19:19:32","新北市板橋區大豐街118號","121.46118","25.0011866666667","6500100","板橋區"
"220094","285-UM","2018/04/19 19:19:21","新北市板橋區吳鳳路21巷2號","121.466896666667","25.0313","6500100","板橋區"
"220053","285-VK","2018/04/19 19:19:20","新北市板橋區富山街27號","121.47786","25.0218016666667","6500100","板橋區"
"220083","286-VK","2018/04/19 19:19:20","新北市板橋區大觀路二段174巷166弄12號","121.442261666667","25.003125","6500100","板橋區"
"220081","287-VK","2018/04/19 19:19:28","新北市板橋區南雅西路二段2-1號","121.453135","25.0087633333333","6500100","板橋區"
"220090","288-VK","2018/04/19 19:19:22","新北市板橋區長江路一段106巷13弄35號","121.461393333333","25.029795","6500100","板橋區"
"220061","293-UM","2018/04/19 19:19:25","新北市板橋區中山路二段318巷27弄2號","121.480533333333","25.0184966666667","6500100","板橋區"
"220075","303-R5","2018/04/19 19:19:24","新北市板橋區中正路275巷93號","121.451318333333","25.01867","6500100","板橋區"
"220062","305-R5","2018/04/19 19:19:31","新北市板橋區三民路二段153巷30弄37號","121.481196666667","25.0144833333333","6500100","板橋區"
"220092","307-R5","2018/04/19 19:19:26","新北市板橋區光武街34號","121.467628333333","25.0260183333333","6500100","板橋區"
"220098","317-R6","2018/04/19 19:19:31","新北市板橋區民有街79號","121.464956666667","25.0272666666667","6500100","板橋區"
"220064","486-VK","2018/04/19 19:19:17","新北市板橋區縣民大道二段68-1號","121.463211666667","25.0129","6500100","板橋區"
"220035","560-BX","2018/04/19 19:19:24","新北市板橋區中正路360巷6-3號","121.454878333333","25.023705","6500100","板橋區"
"220103","561-BX","2018/04/19 19:19:29","新北市板橋區介壽街25號","121.468168333333","25.0199933333333","6500100","板橋區"
"220084","568-UM","2018/04/19 19:19:21","新北市板橋區滿平街133號","121.428835","24.9882916666667","6500100","板橋區"
"220063","609-BX","2018/04/19 19:19:32","新北市板橋區三民路二段66號","121.479236666667","25.0172983333333","6500100","板橋區"
"220054","630-UY","2018/04/19 19:19:20","新北市板橋區重慶路76巷31號","121.46101","25.0060566666667","6500100","板橋區"
"220057","686-BX","2018/04/19 19:19:30","新北市板橋區廣權路135號","121.465728333333","24.99344","6500100","板橋區"
"220093","689-BX","2018/04/19 19:19:22","新北市板橋區文化路一段204號","121.466383333333","25.020075","6500100","板橋區"
"220102","KEA-2699","2018/04/19 19:19:28","新北市板橋區文聖街207-1號","121.479916666667","25.0263033333333","6500100","板橋區"
"220070","806-UM","2018/04/19 19:19:26","新北市板橋區四川路一段134號","121.45979","25.00383","6500100","板橋區"
"220055","827-TW","2018/04/19 19:19:29","新北市板橋區館前東路156巷18號","121.464233333333","25.0070166666667","6500100","板橋區"
"220067","830-TW","2018/04/19 19:19:32","新北市板橋區長安街138巷1弄43號","121.474011666667","25.0102666666667","6500100","板橋區"
"220096","831-TW","2018/04/19 19:19:33","新北市板橋區大同街26巷14號","121.478131666667","25.0269183333333","6500100","板橋區"
"220089","833-TW","2018/04/19 19:19:32","新北市板橋區文化路一段383號","121.467273333333","25.021745","6500100","板橋區"
"220074","895-R6","2018/04/19 19:19:24","新北市板橋區中正路25巷11號","121.454885","25.012755","6500100","板橋區"
"220073","985-R7","2018/04/19 19:19:31","新北市板橋區新生街44號","121.456671666667","25.0210916666667","6500100","板橋區"
"220097","AAC-210","2018/04/19 19:08:54","新北市板橋區新海路137號","121.459858333333","25.0234766666667","6500100","板橋區"
"220077","AAC-253","2018/04/19 19:19:27","新北市板橋區僑中二街10巷2號","121.446966666667","25.010955","6500100","板橋區"
