"lineid","car","time","location","longitude","latitude","cityid","cityname"
"222002","659-BX","2018/04/19 21:09:26","新北市深坑區深南路88巷1號","121.62096","25.01172","6501800","深坑區"
"231040","047-UY","2018/04/19 21:09:30","新北市新店區北新路一段351號","121.541796666667","24.96936","6500600","新店區"
"231047","187-VK","2018/04/19 21:09:15","新北市新店區中興路三段160號","121.54452","24.9807016666667","6500600","新店區"
"231054","KEA-2219","2018/04/19 21:09:11","新北市新店區大新街7巷25弄2號","121.544323333333","24.9677816666667","6500600","新店區"
"231051","278-BY","2018/04/19 21:08:49","新北市新店區中正路694巷10號","121.535315","24.9903166666667","6500600","新店區"
"231050","AAD-862","2018/04/19 21:09:27","新北市新店區中華路83巷4弄13號","121.538261666667","24.9684766666667","6500600","新店區"
"231059","355-BY","2018/04/19 21:09:17","新北市新店區僑義路11巷2號","121.500316666667","24.9515416666667","6500600","新店區"
"231067","4772-VM","2018/04/19 21:09:12","新北市新店區薏仁坑路自強巷1號","121.497888333333","24.9576633333333","6500600","新店區"
"231065","512-UM","2018/04/19 21:09:12","新北市新店區安祥路69巷54弄2號","121.481926666667","24.9595383333333","6500600","新店區"
"231061","619-UM","2018/04/19 21:09:09","新北市新店區永安街32號","121.517766666667","24.986675","6500600","新店區"
"231063","641-BX","2018/04/19 21:09:19","新北市新店區玫瑰路66巷1號","121.495935","24.9452033333333","6500600","新店區"
"231042","645-TV","2018/04/19 21:09:12","新北市新店區寶興路60巷6號","121.54979","24.9717033333333","6500600","新店區"
"231047","719-UY","2018/04/19 21:09:31","新北市新店區柴埕路59號","121.513708333333","24.9646633333333","6500600","新店區"
"231062","720-UM","2018/04/19 21:09:25","新北市新店區安康路三段64號","121.492173333333","24.9521066666667","6500600","新店區"
"231060","897-TW","2018/04/19 21:09:25","新北市新店區安康路二段383號","121.495013333333","24.9545666666667","6500600","新店區"
"241011","013-R5","2018/04/19 21:09:22","新北市三重區龍濱路235號","121.501586666667","25.0722583333333","6500200","三重區"
"241028","022-UY","2018/04/19 21:09:22","新北市三重區正義南路53號","121.49816","25.060505","6500200","三重區"
"241008","059-VK","2018/04/19 21:09:23","新北市三重區自強路一段60號","121.497313333333","25.0667466666667","6500200","三重區"
"241009","060-VK","2018/04/19 21:09:25","新北市三重區忠孝路二段122號","121.483026666667","25.0687983333333","6500200","三重區"
"241031","061-VK","2018/04/19 21:09:14","新北市三重區重新路五段283號","121.478593333333","25.04888","6500200","三重區"
"241015","062-VK","2018/04/19 21:09:29","新北市三重區長元街86號","121.502051666667","25.0664733333333","6500200","三重區"
"241017","063-VK","2018/04/19 21:09:23","新北市三重區國隆路28號","121.492293333333","25.064315","6500200","三重區"
"241024","065-VK","2018/04/19 21:09:16","新北市三重區國道路一段58巷20號","121.481185","25.0720216666667","6500200","三重區"
"241002","090-VK","2018/04/19 21:09:13","新北市三重區五華街18號","121.494858333333","25.080375","6500200","三重區"
"241003","091-VK","2018/04/19 21:09:24","新北市三重區仁義街337-1號","121.494955","25.0847716666667","6500200","三重區"
"241005","262-UM","2018/04/19 21:09:21","新北市三重區三信路186號","121.487951666667","25.0861133333333","6500200","三重區"
"241026","265-UM","2018/04/19 21:09:22","新北市三重區文化南路42號","121.500398333333","25.0601766666667","6500200","三重區"
"241016","266-UM","2018/04/19 21:09:19","新北市三重區信義西街138號","121.495446666667","25.0643366666667","6500200","三重區"
"241022","267-UM","2018/04/19 21:09:23","新北市三重區中正北路64巷24號","121.486161666667","25.0637083333333","6500200","三重區"
"241018","268-UM","2018/04/19 21:09:22","新北市三重區正義北路332號","121.4944","25.07062","6500200","三重區"
"241032","269-UM","2018/04/19 21:09:19","新北市三重區中興北街283號","121.469285","25.06163","6500200","三重區"
"241013","270-UM","2018/04/19 21:09:13","新北市三重區仁賢街12-1號","121.49566","25.0749083333333","6500200","三重區"
"241025","271-UM","2018/04/19 21:09:16","新北市三重區中正北路208巷8號","121.482323333333","25.066925","6500200","三重區"
"241007","398-BY","2018/04/19 21:09:27","新北市三重區三和路四段145巷81號","121.486346666667","25.0787316666667","6500200","三重區"
"241035","KEA-2210","2018/04/19 21:09:23","新北市三重區三和路三段116號","121.493948333333","25.0723666666667","6500200","三重區"
"241006","462-BY","2018/04/19 21:09:17","新北市三重區中正北路105號","121.489371666667","25.06335","6500200","三重區"
"241004","475-VK","2018/04/19 21:09:21","新北市三重區仁愛街420號","121.490388333333","25.0813816666667","6500200","三重區"
"241020","478-VK","2018/04/19 21:09:09","新北市三重區忠孝路二段34號","121.485955","25.071005","6500200","三重區"
"241030","480-VK","2018/04/19 21:09:13","新北市三重區五谷王北街20巷15弄1號","121.475033333333","25.04845","6500200","三重區"
"241014","543-UM","2018/04/19 21:09:16","新北市三重區長安街82-1號","121.501373333333","25.0677566666667","6500200","三重區"
"241023","545-UM","2018/04/19 21:09:27","新北市三重區忠孝路三段50巷41弄64號","121.482365","25.0637683333333","6500200","三重區"
"241001","547-UM","2018/04/19 21:09:25","新北市三重區三和路四段156號","121.48801","25.0756433333333","6500200","三重區"
"241019","887-TS","2018/04/19 21:09:15","新北市三重區自強路二段74巷23-1號","121.487896666667","25.0698633333333","6500200","三重區"
"241012","941-UM","2018/04/19 21:09:14","新北市三重區河邊北街353號","121.502093333333","25.07568","6500200","三重區"
"241029","942-UM","2018/04/19 21:09:25","新北市三重區正義南路107號","121.498233333333","25.0585633333333","6500200","三重區"
"241033","AAC-255","2018/04/19 21:09:13","新北市三重區重光街100號","121.466368333333","25.0641216666667","6500200","三重區"
"247024","893-R6","2018/04/19 21:09:30","新北市蘆洲區長興路50巷1號","121.463731666667","25.083775","6501400","蘆洲區"
"247014","546-UM","2018/04/19 21:09:14","新北市蘆洲區中央路155號","121.472586666667","25.084755","6501400","蘆洲區"
"247022","500-BY","2018/04/19 21:09:31","新北市蘆洲區中正路198-1號","121.466938333333","25.0883566666667","6501400","蘆洲區"
"247010","341-TH","2018/04/19 21:09:14","新北市蘆洲區鷺江街77號","121.477098333333","25.0832416666667","6501400","蘆洲區"
"247012","339-TH","2018/04/19 21:09:26","新北市蘆洲區民族路30號","121.476283333333","25.0842866666667","6501400","蘆洲區"
"247004","337-TH","2018/04/19 21:09:27","新北市蘆洲區永安南路二段280號","121.457961666667","25.0809533333333","6501400","蘆洲區"
"247006","336-TH","2018/04/19 21:09:28","新北市蘆洲區永安南路二段16巷16號","121.467981666667","25.0776466666667","6501400","蘆洲區"
"247018","057-VK","2018/04/19 20:43:00","新北市蘆洲區民族路263巷17號","121.476193333333","25.09001","6501400","蘆洲區"
"247008","056-VK","2018/04/19 21:09:18","新北市蘆洲區民生街30號","121.47484","25.078835","6501400","蘆洲區"
"247016","007-UY","2018/04/19 21:09:29","新北市蘆洲區光華路162巷8弄1號","121.465196666667","25.082745","6501400","蘆洲區"
"247002","002-UY","2018/04/19 21:09:19","新北市蘆洲區長榮路387-1號","121.45917","25.0897133333333","6501400","蘆洲區"
"247020","001-UY","2018/04/19 21:09:21","新北市蘆洲區民族路375號","121.470706666667","25.091005","6501400","蘆洲區"
"251009","008-UM","2018/04/19 21:09:11","新北市淡水區民族路112巷40號","121.461976666667","25.1343866666667","6501000","淡水區"
"251004","009-UM","2018/04/19 21:09:18","新北市淡水區大同路113巷6號","121.463441666667","25.1417416666667","6501000","淡水區"
"251005","010-UM","2018/04/19 21:09:27","新北市淡水區博愛街61號","121.446908333333","25.1689016666667","6501000","淡水區"
"251001","011-UM","2018/04/19 21:09:18","新北市淡水區新市一路三段101巷16弄3號","121.446648333333","25.1838733333333","6501000","淡水區"
"251002","012-UM","2018/04/19 21:09:11","新北市淡水區英專路151號","121.44834","25.174915","6501000","淡水區"
"251013","179-VK","2018/04/19 21:09:14","新北市淡水區行忠路328號","121.460525","25.1996233333333","6501000","淡水區"
"251014","180-VK","2018/04/19 21:09:27","新北市淡水區六塊厝1-2號","121.450778333333","25.2426033333333","6501000","淡水區"
"251008","181-VK","2018/04/19 21:09:24","新北市淡水區北投子79-2號","121.4601","25.1785516666667","6501000","淡水區"
"251015","182-VK","2018/04/19 21:09:17","新北市淡水區淡金路四段542巷47號","121.45401","25.2270133333333","6501000","淡水區"
"251010","413-VK","2018/04/19 21:09:14","新北市淡水區中正路一段63巷6號","121.423308333333","25.1774633333333","6501000","淡水區"
"251012","441-VK","2018/04/19 21:09:23","新北市淡水區淡金路五段172號","121.457046666667","25.24007","6501000","淡水區"
"251016","442-VK","2018/04/19 21:09:16","新北市淡水區前洲子3-1號","121.44385","25.21649","6501000","淡水區"
"251011","650-BX","2018/04/19 21:09:25","新北市淡水區新民街120巷45弄38號","121.437573333333","25.1797216666667","6501000","淡水區"
"251003","766-UM","2018/04/19 21:09:10","新北市淡水區新春街132-1號","121.440983333333","25.1817666666667","6501000","淡水區"
"220070","806-UM","2018/04/19 21:08:26","新北市八里區中山路三段363號","121.375081666667","25.1384383333333","6500100","板橋區"
"220055","827-TW","2018/04/19 21:09:25","新北市板橋區華東街1-10號","121.448671666667","24.9949883333333","6500100","板橋區"
