"lineid","car","time","location","longitude","latitude","cityid","cityname"
"231040","047-UY","2018/04/19 21:19:50","新北市新店區北新路一段207號","121.540435","24.96493","6500600","新店區"
"231047","187-VK","2018/04/19 21:19:35","新北市新店區中正路401號","121.534408333333","24.9775316666667","6500600","新店區"
"231054","KEA-2219","2018/04/19 21:19:51","新北市新店區光明街314號","121.540626666667","24.9652183333333","6500600","新店區"
"231051","278-BY","2018/04/19 21:19:49","新北市新店區溪園路31號","121.530943333333","24.9888533333333","6500600","新店區"
"231050","AAD-862","2018/04/19 21:19:47","新北市新店區中正路183巷10號","121.540383333333","24.9718233333333","6500600","新店區"
"231061","619-UM","2018/04/19 21:19:49","新北市新店區永平街6號","121.517426666667","24.98354","6500600","新店區"
"231063","641-BX","2018/04/19 21:19:39","新北市新店區吉祥街15巷1號","121.497731666667","24.945595","6500600","新店區"
"231047","719-UY","2018/04/19 21:19:51","新北市新店區薏仁坑路自強巷1號","121.497828333333","24.9579283333333","6500600","新店區"
"241011","013-R5","2018/04/19 21:19:42","新北市三重區龍濱路120-6號","121.501785","25.0713233333333","6500200","三重區"
"241028","022-UY","2018/04/19 21:19:42","新北市三重區正義南路169號","121.498918333333","25.0575033333333","6500200","三重區"
"241008","059-VK","2018/04/19 21:19:43","新北市三重區自強路一段62號","121.49733","25.0666783333333","6500200","三重區"
"241009","060-VK","2018/04/19 21:19:45","新北市三重區中華路76巷27號","121.482426666667","25.06266","6500200","三重區"
"241031","061-VK","2018/04/19 21:19:54","新北市三重區五谷王南街46巷37號","121.475738333333","25.0455416666667","6500200","三重區"
"241017","063-VK","2018/04/19 21:19:54","新北市三重區中正北路25巷14號","121.493441666667","25.06293","6500200","三重區"
"241024","065-VK","2018/04/19 21:19:36","新北市三重區中正北路115巷6號","121.484058333333","25.0677416666667","6500200","三重區"
"241002","090-VK","2018/04/19 21:19:53","新北市三重區自強路五段51號","121.494318333333","25.0817083333333","6500200","三重區"
"241003","091-VK","2018/04/19 21:19:44","新北市三重區仁義街321號","121.495263333333","25.08433","6500200","三重區"
"241005","262-UM","2018/04/19 21:19:41","新北市三重區集仁街42號","121.486161666667","25.085175","6500200","三重區"
"241026","265-UM","2018/04/19 21:19:41","新北市三重區大同南路232號","121.49669","25.0561","6500200","三重區"
"241016","266-UM","2018/04/19 21:19:42","新北市三重區自強路一段95號","121.495841666667","25.0663333333333","6500200","三重區"
"241018","268-UM","2018/04/19 21:19:43","新北市三重區忠孝路三段67號","121.480775","25.0660316666667","6500200","三重區"
"241032","269-UM","2018/04/19 21:19:39","新北市三重區光復路二段175號","121.472158333333","25.0617716666667","6500200","三重區"
"241013","270-UM","2018/04/19 21:19:53","新北市三重區仁愛街83號","121.495915","25.0732016666667","6500200","三重區"
"241025","271-UM","2018/04/19 21:19:36","新北市三重區中正北路208巷10弄4號","121.482416666667","25.0669416666667","6500200","三重區"
"241007","398-BY","2018/04/19 21:19:47","新北市三重區自強路三段47號","121.48688","25.0729266666667","6500200","三重區"
"241006","462-BY","2018/04/19 21:19:37","新北市三重區中正北路18-1號","121.488618333333","25.0633483333333","6500200","三重區"
"241004","475-VK","2018/04/19 21:19:41","新北市三重區碧華街211-1號","121.488543333333","25.0827866666667","6500200","三重區"
"241030","480-VK","2018/04/19 21:19:53","新北市三重區五谷王北街161-1號","121.477058333333","25.055335","6500200","三重區"
"241014","543-UM","2018/04/19 21:19:36","新北市三重區萬全街9號","121.499331666667","25.0696733333333","6500200","三重區"
"241023","545-UM","2018/04/19 21:19:47","新北市三重區中正北路176巷16號","121.482673333333","25.0658933333333","6500200","三重區"
"241019","887-TS","2018/04/19 21:19:55","新北市三重區重陽路三段7-3號","121.489135","25.0665483333333","6500200","三重區"
"241012","941-UM","2018/04/19 21:19:54","新北市三重區龍門路288號","121.502046666667","25.07425","6500200","三重區"
"241029","942-UM","2018/04/19 21:19:46","新北市三重區正義南路107號","121.49824","25.0585433333333","6500200","三重區"
"241033","AAC-255","2018/04/19 21:19:53","新北市三重區光復路二段126巷21號","121.471106666667","25.0588383333333","6500200","三重區"
"247024","893-R6","2018/04/19 21:19:51","新北市蘆洲區長榮路269巷22號","121.45978","25.0861","6501400","蘆洲區"
"247014","546-UM","2018/04/19 21:19:34","新北市蘆洲區保和街50-6號","121.469881666667","25.0863716666667","6501400","蘆洲區"
"247022","500-BY","2018/04/19 21:19:46","新北市蘆洲區三民路243號","121.468888333333","25.0888316666667","6501400","蘆洲區"
"247010","341-TH","2018/04/19 21:19:54","新北市蘆洲區鷺江街23號","121.478868333333","25.08247","6501400","蘆洲區"
"247012","339-TH","2018/04/19 21:19:46","新北市蘆洲區民族路236巷35號","121.480398333333","25.0886733333333","6501400","蘆洲區"
"247004","337-TH","2018/04/19 21:19:52","新北市蘆洲區永安南路二段328巷17弄1號","121.456566666667","25.0840183333333","6501400","蘆洲區"
"247006","336-TH","2018/04/19 21:19:48","新北市蘆洲區長安街67號","121.462746666667","25.0798483333333","6501400","蘆洲區"
"247008","056-VK","2018/04/19 21:19:51","新北市蘆洲區中山一路135巷8號","121.475715","25.0811916666667","6501400","蘆洲區"
"247002","002-UY","2018/04/19 21:19:39","新北市蘆洲區永樂街57號","121.456686666667","25.088555","6501400","蘆洲區"
"247020","001-UY","2018/04/19 21:19:41","新北市蘆洲區民族路426巷66號","121.472708333333","25.0941933333333","6501400","蘆洲區"
"251009","008-UM","2018/04/19 21:19:51","新北市淡水區民族路33號","121.462306666667","25.13581","6501000","淡水區"
"251004","009-UM","2018/04/19 21:19:38","新北市淡水區民族路33號","121.462313333333","25.13579","6501000","淡水區"
"251005","010-UM","2018/04/19 21:19:47","新北市淡水區水源街一段122巷37號","121.447055","25.170415","6501000","淡水區"
"251001","011-UM","2018/04/19 21:19:38","新北市淡水區中山北路二段209號","121.44424","25.1856866666667","6501000","淡水區"
"251002","012-UM","2018/04/19 21:12:31","新北市淡水區英專路151號","121.448406666667","25.174885","6501000","淡水區"
"251013","179-VK","2018/04/19 21:19:55","新北市淡水區行忠路328號","121.4605","25.1996233333333","6501000","淡水區"
"251014","180-VK","2018/04/19 21:19:42","新北市淡水區六塊厝2-1號","121.450151666667","25.24048","6501000","淡水區"
"251008","181-VK","2018/04/19 21:19:44","新北市淡水區水源街二段229號","121.460505","25.1764366666667","6501000","淡水區"
"251015","182-VK","2018/04/19 21:19:37","新北市淡水區淡金路四段542巷83弄13號","121.45647","25.2267133333333","6501000","淡水區"
"251010","413-VK","2018/04/19 21:19:34","新北市淡水區中正路一段156巷51號","121.421825","25.1809183333333","6501000","淡水區"
"251012","441-VK","2018/04/19 21:19:43","新北市淡水區淡金路五段35巷46號","121.45246","25.2347366666667","6501000","淡水區"
"251016","442-VK","2018/04/19 21:19:36","新北市淡水區前洲子28號","121.44104","25.2192183333333","6501000","淡水區"
"251006","561-UM","2018/04/19 21:19:46","新北市淡水區中正路一段49號","121.42439","25.1775416666667","6501000","淡水區"
"251011","650-BX","2018/04/19 21:19:45","新北市淡水區新民街120巷29號","121.438901666667","25.1788283333333","6501000","淡水區"
"251003","766-UM","2018/04/19 21:19:50","新北市淡水區新春街85巷27號","121.438571666667","25.1836116666667","6501000","淡水區"
"220070","806-UM","2018/04/19 21:19:46","新北市五股區凌雲路三段32-1號","121.431553333333","25.1080083333333","6500100","板橋區"
