"lineid","car","time","location","longitude","latitude","cityid","cityname"
"231047","187-VK","2018/04/19 21:29:15","新北市新店區安德街116巷26弄3號","121.508793333333","24.96201","6500600","新店區"
"231063","641-BX","2018/04/19 21:29:19","新北市新店區如意街72號","121.49468","24.947005","6500600","新店區"
"231047","719-UY","2018/04/19 21:29:31","新北市新店區薏仁坑路自強巷6號","121.496466666667","24.9582783333333","6500600","新店區"
"241011","013-R5","2018/04/19 21:29:23","新北市三重區龍濱路285號","121.501076666667","25.0733816666667","6500200","三重區"
"241017","063-VK","2018/04/19 21:29:23","新北市三重區中正北路25巷3號","121.492531666667","25.06205","6500200","三重區"
"241024","065-VK","2018/04/19 21:28:36","新北市三重區中正北路115巷6號","121.484005","25.067705","6500200","三重區"
"241003","091-VK","2018/04/19 21:29:24","新北市三重區仁義街393號","121.4946","25.0854783333333","6500200","三重區"
"241005","262-UM","2018/04/19 21:29:21","新北市三重區仁華街28巷1號","121.48374","25.0825483333333","6500200","三重區"
"241016","266-UM","2018/04/19 21:29:18","新北市三重區信義西街138號","121.495586666667","25.0642183333333","6500200","三重區"
"241007","398-BY","2018/04/19 21:29:27","新北市三重區正義北路128號","121.496798333333","25.06568","6500200","三重區"
"247024","893-R6","2018/04/19 21:24:30","新北市五股區新城三路45號","121.448993333333","25.093405","6501400","蘆洲區"
"247010","341-TH","2018/04/19 21:29:14","新北市蘆洲區鷺江街26號","121.478186666667","25.0824383333333","6501400","蘆洲區"
"251009","008-UM","2018/04/19 21:29:30","新北市淡水區民族路33巷16-3號","121.463436666667","25.136005","6501000","淡水區"
"251004","009-UM","2018/04/19 21:27:30","新北市淡水區民族路27號","121.460915","25.1368283333333","6501000","淡水區"
"251005","010-UM","2018/04/19 21:29:27","新北市淡水區水源街一段34巷7號","121.443096666667","25.17202","6501000","淡水區"
"251001","011-UM","2018/04/19 21:29:18","新北市淡水區濱海路一段221號","121.437931666667","25.1899083333333","6501000","淡水區"
"251002","012-UM","2018/04/19 21:12:31","新北市淡水區英專路151號","121.448406666667","25.174885","6501000","淡水區"
"251013","179-VK","2018/04/19 21:29:14","新北市淡水區埤島45-1號","121.455468333333","25.1964983333333","6501000","淡水區"
"251014","180-VK","2018/04/19 21:29:22","新北市淡水區石頭埔13-6號","121.446043333333","25.2362933333333","6501000","淡水區"
"251008","181-VK","2018/04/19 21:29:25","新北市淡水區水源街二段160-10號","121.454551666667","25.17519","6501000","淡水區"
"251015","182-VK","2018/04/19 21:29:17","新北市淡水區淡金路四段542巷83弄13號","121.456453333333","25.2267016666667","6501000","淡水區"
"251010","413-VK","2018/04/19 21:29:34","新北市淡水區沙崙路25巷21號","121.420506666667","25.1824166666667","6501000","淡水區"
"251012","441-VK","2018/04/19 21:29:23","新北市淡水區淡金路五段35巷46號","121.452471666667","25.234755","6501000","淡水區"
"251016","442-VK","2018/04/19 21:29:16","新北市淡水區前洲子28號","121.441038333333","25.2192266666667","6501000","淡水區"
"251006","561-UM","2018/04/19 21:29:26","新北市淡水區公明街55號","121.443436666667","25.1687433333333","6501000","淡水區"
"251011","650-BX","2018/04/19 21:29:25","新北市淡水區新民街180-6號","121.436775","25.1789083333333","6501000","淡水區"
"251003","766-UM","2018/04/19 21:29:30","新北市淡水區崁頂15-5號","121.439015","25.18591","6501000","淡水區"
"220070","806-UM","2018/04/19 21:29:26","新北市新莊區新北大道四段261號","121.442381666667","25.05595","6500100","板橋區"
