"lineid","car","time","location","longitude","latitude","cityid","cityname"
"248005","653-BX","2018/04/20 07:09:47","新北市五股區新五路二段57-1號","121.436193333333","25.0719516666667","6501500","五股區"
"232003","290-BY","2018/04/20 07:09:39","新北市坪林區大粗坑29-2號","121.707046666667","24.96704","6502000","坪林區"
"232015","291-BY","2018/04/20 07:09:45","新北市坪林區北宜路七段261號","121.689876666667","24.9370233333333","6502000","坪林區"
"232019","705-BZ","2018/04/20 07:09:42","新北市坪林區九芎坑4號","121.726563333333","24.96239","6502000","坪林區"
"232008","758-BX","2018/04/20 07:09:33","新北市坪林區石11-1號","121.709575","24.9085083333333","6502000","坪林區"
"244004","248-BX","2018/04/20 07:09:48","新北市林口區頭湖83-10號","121.369838333333","25.083255","6501700","林口區"
"243016","680-BX","2018/04/20 07:09:38","新北市泰山區明志路一段116號","121.433311666667","25.0637016666667","6501600","泰山區"
"235001","611-BX","2018/04/20 07:09:49","新北市中和區圓通路367巷4號","121.49136","24.9893166666667","6500300","中和區"
"226005","5620-A6","2018/04/20 07:09:44","新北市平溪區菁桐里菁桐街93號","121.725338333333","25.0239333333333","6502400","平溪區"
"226001","7418-A5","2018/04/20 07:09:34","新北市平溪區石底里公園街18-3號","121.73408","25.0254333333333","6502400","平溪區"
"226006","AGD-0702","2018/04/20 07:09:35","新北市平溪區靜安路二段530巷7號","121.745105","25.0276083333333","6502400","平溪區"
"223006","022-BY","2018/04/20 07:09:40","新北市石碇區崩山12-1號","121.67426","24.97285","6501900","石碇區"
"223002","KEA-2673","2018/04/20 07:09:40","新北市石碇區碇格路二段11號","121.645243333333","24.95655","6501900","石碇區"
"223001","205-TH","2018/04/20 07:09:39","新北市石碇區烏塗窟8號","121.655838333333","24.975105","6501900","石碇區"
"223008","406-TH","2018/04/20 07:09:43","新北市石碇區靜安路一段337號","121.698701666667","25.0146333333333","6501900","石碇區"
"223001","592-UM","2018/04/20 07:09:37","新北市石碇區烏塗窟7-1號","121.654115","24.9761033333333","6501900","石碇區"
"223004","660-BX","2018/04/20 07:09:43","新北市石碇區碇坪路一段16號","121.651633333333","25.0059316666667","6501900","石碇區"
"223007","661-BX","2018/04/20 07:09:49","新北市石碇區蚯蚓坑19-6號","121.686668333333","25.0003983333333","6501900","石碇區"
"223005","677-TV","2018/04/20 07:09:47","新北市石碇區碇坪路一段18號","121.65162","25.0058516666667","6501900","石碇區"
"227005","282-VK","2018/04/20 07:09:38","新北市雙溪區新基里自強路7號","121.866283333333","25.039075","6502500","雙溪區"
"236010","165-UM","2018/04/20 07:09:32","新北市土城區中華路一段245號","121.440931666667","24.9818316666667","6501300","土城區"
"236004","339-SR","2018/04/20 07:09:47","新北市土城區承天路88-2號","121.443328333333","24.9599216666667","6501300","土城區"
"220070","282-UM","2018/04/20 07:08:56","新北市板橋區國光路49巷2號","121.458178333333","25.018035","6500100","板橋區"
