"lineid","car","time","location","longitude","latitude","cityid","cityname"
"248005","653-BX","2018/10/12 08:17:44","新北市五股區明德路12巷16號","121.433265","25.0719066666667","6501500","五股區"
"244004","248-BX","2018/10/12 08:17:56","新北市林口區頂福里5鄰34號","121.35163","25.09997","6501700","林口區"
"222005","289-BY","2018/10/12 08:17:48","新北市深坑區萬福路55號","121.59987","25.006995","6501800","深坑區"
"231007","189-VK","2018/10/12 08:17:37","新北市新店區新潭路一段22巷10號","121.522513333333","24.94303","6500600","新店區"
"231009","192-VK","2018/10/12 08:17:39","新北市新店區新烏路二段7號","121.543865","24.9296333333333","6500600","新店區"
"235001","611-BX","2018/10/12 08:17:41","新北市中和區錦和路350-1號","121.49079","24.99326","6500300","中和區"
"226005","5620-A6","2018/10/12 08:17:48","新北市平溪區南山里南山坪106號","121.781996666667","25.0429783333333","6502400","平溪區"
"226001","7418-A5","2018/10/12 08:17:48","新北市平溪區靜安路三段67號","121.766933333333","25.0330183333333","6502400","平溪區"
"226006","8452-VL","2018/10/12 08:17:41","新北市平溪區靜安路三段369號","121.780753333333","25.046195","6502400","平溪區"
"223006","022-BY","2018/10/12 08:17:53","新北市坪林區國中路3號","121.713065","24.9374483333333","6501900","石碇區"
"223003","205-TH","2018/10/12 08:17:50","新北市石碇區北宜路六段塗潭巷15號","121.649641666667","24.93237","6501900","石碇區"
"223008","406-TH","2018/10/12 08:17:44","新北市石碇區靜安路一段232號","121.672735","25.0078083333333","6501900","石碇區"
"223004","437-BY","2018/10/12 08:17:47","新北市石碇區外按11-5號","121.6515","24.9991666666667","6501900","石碇區"
"223001","592-UM","2018/10/12 08:17:43","新北市石碇區北宜路六段塗潭巷18號","121.64958","24.9324183333333","6501900","石碇區"
"223005","677-TV","2018/10/12 08:17:50","新北市石碇區外按11-5號","121.651556666667","24.9991283333333","6501900","石碇區"
"227005","282-VK","2018/10/12 08:17:47","新北市雙溪區外柑里過溪3-1號","121.824773333333","25.018425","6502500","雙溪區"
"252005","073-UM","2018/10/12 08:17:48","新北市三芝區中正路三段3號","121.503053333333","25.2542916666667","6502100","三芝區"
"237001","159-UY","2018/10/12 08:17:52","新北市三峽區學成路269號","121.375755","24.9430633333333","6500900","三峽區"
