"lineid","car","time","location","longitude","latitude","cityid","cityname"
"248005","653-BX","2018/10/12 08:37:44","新北市五股區明德路12巷1號","121.433348333333","25.07176","6501500","五股區"
"244004","248-BX","2018/10/12 08:37:36","新北市林口區粉寮路60-16號","121.404403333333","25.089905","6501700","林口區"
"222005","289-BY","2018/10/12 08:37:45","新北市深坑區深南路88巷1號","121.620785","25.0111316666667","6501800","深坑區"
"231007","189-VK","2018/10/12 08:37:57","新北市新店區小坑二路2巷7號","121.532518333333","24.9164166666667","6500600","新店區"
"231009","192-VK","2018/10/12 08:37:39","新北市新店區新烏路三段360號","121.546003333333","24.89427","6500600","新店區"
"235001","611-BX","2018/10/12 08:37:41","新北市中和區民安街53號","121.479341666667","24.9999716666667","6500300","中和區"
"226005","5620-A6","2018/10/12 08:37:48","新北市平溪區南山里乾坑10號","121.788591666667","25.0479016666667","6502400","平溪區"
"226001","7418-A5","2018/10/12 08:37:48","新北市平溪區東勢里東勢格41號","121.760716666667","24.9898183333333","6502400","平溪區"
"226006","8452-VL","2018/10/12 08:37:41","新北市平溪區十分里十分街246號","121.777666666667","25.0444566666667","6502400","平溪區"
"223006","022-BY","2018/10/12 08:37:53","新北市石碇區碇坪路一段49號","121.659153333333","24.9913616666667","6501900","石碇區"
"223003","205-TH","2018/10/12 08:37:50","新北市石碇區北宜路六段水底寮巷2號","121.658385","24.9490133333333","6501900","石碇區"
"223008","406-TH","2018/10/12 08:37:57","新北市石碇區十八重溪68-1號","121.673001666667","25.0168816666667","6501900","石碇區"
"223004","437-BY","2018/10/12 08:37:47","新北市石碇區崩山3-2號","121.675623333333","24.9743333333333","6501900","石碇區"
"223001","592-UM","2018/10/12 08:37:43","新北市石碇區北宜路六段水底寮巷7號","121.664623333333","24.9485516666667","6501900","石碇區"
"223005","677-TV","2018/10/12 08:37:50","新北市石碇區崩山23-5號","121.677498333333","24.9707883333333","6501900","石碇區"
"227005","282-VK","2018/10/12 08:37:47","新北市雙溪區泰平里泰平1-5號","121.847503333333","24.99237","6502500","雙溪區"
"237001","159-UY","2018/10/12 08:37:52","新北市三峽區三樹路199號","121.378046666667","24.94217","6500900","三峽區"
