"lineid","car","time","location","longitude","latitude","cityid","cityname"
"248005","653-BX","2018/10/12 09:27:43","新北市五股區水碓路28號","121.43314","25.0729266666667","6501500","五股區"
"222005","289-BY","2018/10/12 09:27:45","新北市深坑區土庫尖路45號","121.63483","25.017335","6501800","深坑區"
"231007","189-VK","2018/10/12 09:27:57","新北市新店區新潭路三段215巷25號","121.508193333333","24.9041866666667","6500600","新店區"
"231009","192-VK","2018/10/12 09:25:24","新北市新店區平廣路一段256號","121.507843333333","24.8882933333333","6500600","新店區"
"235001","611-BX","2018/10/12 09:27:41","新北市中和區連城路569巷9弄1號","121.479375","24.9942783333333","6500300","中和區"
"223008","406-TH","2018/10/12 09:24:56","新北市石碇區南勢坑2-3號","121.699108333333","24.9898283333333","6501900","石碇區"
"223004","437-BY","2018/10/12 09:27:47","新北市石碇區碇坪路二段19號","121.681858333333","24.97515","6501900","石碇區"
"227005","282-VK","2018/10/12 09:13:07","新北市雙溪區泰平里溪尾寮6號","121.820041666667","24.9617333333333","6502500","雙溪區"
"237001","159-UY","2018/10/12 09:27:52","新北市樹林區中山路三段210-2號","121.380791666667","24.9667833333333","6500900","三峽區"
