"lineid","car","time","location","longitude","latitude","cityid","cityname"
"248005","653-BX","2018/10/12 09:57:43","新北市五股區成泰路一段241巷13號","121.435793333333","25.0810383333333","6501500","五股區"
"231007","189-VK","2018/10/12 09:57:57","新北市新店區新潭路三段215巷25號","121.508168333333","24.9041516666667","6500600","新店區"
"231009","192-VK","2018/10/12 09:55:59","新北市新店區小坑一路88-1號","121.530061666667","24.90656","6500600","新店區"
"227005","282-VK","2018/10/12 09:57:47","新北市雙溪區泰平里灣潭路36號","121.811281666667","24.9288566666667","6502500","雙溪區"
"237001","159-UY","2018/10/12 09:57:52","新北市三峽區國際二街21-5號","121.373246666667","24.943585","6500900","三峽區"
