"lineid","car","time","location","longitude","latitude","cityid","cityname"
"248005","653-BX","2018/10/12 10:13:28","新北市五股區明德路10號","121.433416666667","25.0717233333333","6501500","五股區"
"231007","189-VK","2018/10/12 10:17:57","新北市新店區新潭路三段215巷25號","121.508058333333","24.9040116666667","6500600","新店區"
"231009","192-VK","2018/10/12 10:17:59","新北市新店區松林路16巷41號","121.545526666667","24.907165","6500600","新店區"
"227005","282-VK","2018/10/12 10:03:07","新北市雙溪區泰平里灣潭路20-1號","121.812758333333","24.9290616666667","6502500","雙溪區"
"237001","159-UY","2018/10/12 10:17:52","新北市三峽區中山路459巷131號","121.351121666667","24.9350916666667","6500900","三峽區"
