"lineid","car","time","location","longitude","latitude","cityid","cityname"
"234001","395-TH","2018/10/12 11:02:42","新北市永和區保生路55-8號","121.504005","25.0103983333333","6500400","永和區"
"248012","655-BX","2018/10/12 10:46:35","新北市五股區中興路二段63巷17號","121.460185","25.0753616666667","6501500","五股區"
"231007","189-VK","2018/10/12 11:07:57","新北市新店區新潭路一段120巷11號","121.527591666667","24.936015","6500600","新店區"
"231009","192-VK","2018/10/12 11:07:59","新北市新店區頂石厝路72號","121.535268333333","24.918465","6500600","新店區"
"227005","282-VK","2018/10/12 11:07:47","新北市雙溪區魚行里丁子蘭坑30-1號","121.851021666667","25.0078683333333","6502500","雙溪區"
