"lineid","car","time","location","longitude","latitude","cityid","cityname"
"234084","338-UY","2018/10/12 12:19:58","新北市永和區福和路1號","121.526398333333","25.0099233333333","6500400","永和區"
"234001","395-TH","2018/10/12 12:19:55","新北市永和區保順路27號","121.503883333333","25.010395","6500400","永和區"
"235029","098-UM","2018/10/12 12:19:55","新北市中和區員山路36巷16-3號","121.485026666667","24.9913016666667","6500300","中和區"
"227005","282-VK","2018/10/12 12:19:47","新北市雙溪區三貂里政光路3-1號","121.850823333333","25.0634333333333","6502500","雙溪區"
"235025","KEA-2875","2018/10/12 12:19:41","新北市中和區員山路36巷13號","121.484251666667","24.9913716666667","6500300","中和區"
