"lineid","car","time","location","longitude","latitude","cityid","cityname"
"234044","148-BY","2018/10/12 13:37:50","新北市永和區永元路95巷1號","121.522451666667","25.0018666666667","6500400","永和區"
"234005","207-UY","2018/10/12 13:38:01","新北市永和區永和路一段125號","121.514035","25.0082183333333","6500400","永和區"
"234078","298-R6","2018/10/12 13:38:04","新北市永和區林森路20巷28號","121.525625","25.0061333333333","6500400","永和區"
"234036","336-UY","2018/10/12 13:37:58","新北市永和區民樂街39巷13號","121.5282","25.0005483333333","6500400","永和區"
"234062","337-UY","2018/10/12 13:38:04","新北市永和區秀朗路二段24巷28弄2號","121.519905","25.00178","6500400","永和區"
"234084","338-UY","2018/10/12 13:37:58","新北市永和區永亨路129號","121.524725","25.0040016666667","6500400","永和區"
"234068","552-UM","2018/10/12 13:37:57","新北市永和區永和路二段233號","121.515595","25.0141366666667","6500400","永和區"
"234015","745-BX","2018/10/12 13:38:03","新北市永和區永和路二段405巷3號","121.515263333333","25.0171166666667","6500400","永和區"
"234028","746-BX","2018/10/12 13:37:50","新北市永和區民權路23號","121.520191666667","24.9977783333333","6500400","永和區"
"234052","KEA-2590","2018/10/12 13:38:01","新北市永和區竹林路39巷9號","121.518281666667","25.014565","6500400","永和區"
"234012","KEA-2591","2018/10/12 13:38:05","新北市永和區永平路246號","121.508711666667","25.01103","6500400","永和區"
"234060","AAD-866","2018/10/12 13:37:55","新北市永和區中正路458號","121.517491666667","25.0029816666667","6500400","永和區"
"234040","862-TW","2018/10/12 13:37:53","新北市永和區永貞路267號","121.511818333333","25.0046883333333","6500400","永和區"
"234048","863-TW","2018/10/12 13:37:59","新北市永和區保安路122號","121.509106666667","25.0155233333333","6500400","永和區"
"234025","9371-KE","2018/10/12 13:37:49","新北市永和區永和路一段84號","121.512956666667","25.0066716666667","6500400","永和區"
"234010","9373-KE","2018/10/12 13:37:48","新北市永和區保福路二段15巷11號","121.510548333333","25.0109633333333","6500400","永和區"
"248019","225-UY","2018/10/12 13:37:54","新北市五股區孝義路69-2號","121.44711","25.1181883333333","6501500","五股區"
"234022","9380-KE","2018/10/12 13:37:50","新北市永和區中正路702巷18號","121.516435","25.0106033333333","6500400","永和區"
"234076","969-R7","2018/10/12 13:38:05","新北市永和區民權路26號","121.520303333333","24.9991833333333","6500400","永和區"
"234072","AAC-211","2018/10/12 13:37:48","新北市永和區竹林路213巷41號","121.523298333333","25.00916","6500400","永和區"
"234066","AAC-212","2018/10/12 13:37:55","新北市永和區永貞路406巷26號","121.509698333333","25.0078866666667","6500400","永和區"
"234001","AAC-295","2018/10/12 13:37:56","新北市永和區秀朗路一段14號","121.513886666667","25.0068633333333","6500400","永和區"
"244004","248-BX","2018/10/12 13:37:46","新北市林口區頂福里5-1號","121.361656666667","25.0817983333333","6501700","林口區"
"231028","001-UM","2018/10/12 13:38:01","新北市新店區安康路一段351-1號","121.519503333333","24.9640733333333","6500600","新店區"
"231002","002-UM","2018/10/12 13:37:53","新北市新店區溪園路405號","121.52402","24.9782133333333","6500600","新店區"
"231037","0291-UT","2018/10/12 13:37:49","新北市新店區薏仁坑路37號","121.493318333333","24.963355","6500600","新店區"
"231027","0293-UT","2018/10/12 13:38:02","新北市新店區新店路6號","121.538405","24.9523566666667","6500600","新店區"
"231001","047-UY","2018/10/12 13:37:53","新北市新店區中央路31號","121.532931666667","24.9778366666667","6500600","新店區"
"231005","106-UY","2018/10/12 13:37:50","新北市新店區中興路二段192號","121.548368333333","24.9735316666667","6500600","新店區"
"231010","107-UY","2018/10/12 13:37:59","新北市新店區平等街48巷17號","121.535326666667","24.97347","6500600","新店區"
"231012","187-VK","2018/10/12 13:37:46","新北市新店區德正街21巷2號","121.54405","24.97208","6500600","新店區"
"231032","188-VK","2018/10/12 13:37:49","新北市新店區車子路115-11號","121.50737","24.9544883333333","6500600","新店區"
"231022","189-VK","2018/10/12 13:37:54","新北市新店區永興路88-1號","121.544035","24.9337033333333","6500600","新店區"
"231023","KEA-2219","2018/10/12 13:37:54","新北市新店區新店路112號","121.537125","24.9547116666667","6500600","新店區"
"231026","256-BX","2018/10/12 13:38:01","新北市新店區中正路222號","121.540236666667","24.972655","6500600","新店區"
"231003","268-BY","2018/10/12 13:37:55","新北市新店區中正路71號","121.543576666667","24.9697983333333","6500600","新店區"
"231018","278-BY","2018/10/12 13:37:55","新北市新店區百忍街8號","121.535018333333","24.9756716666667","6500600","新店區"
"231016","AAD-862","2018/10/12 13:38:00","新北市新店區竹林路2巷27弄11號","121.550963333333","24.95086","6500600","新店區"
"231030","355-BY","2018/10/12 13:37:56","新北市新店區安康路一段302-3號","121.517836666667","24.9640183333333","6500600","新店區"
"231038","3712-VJ","2018/10/12 13:37:59","新北市新店區安華路28-1號","121.519273333333","24.960665","6500600","新店區"
"231025","4715-K9","2018/10/12 13:37:58","新北市新店區中央五街37號","121.528613333333","24.97499","6500600","新店區"
"231036","512-UM","2018/10/12 13:37:47","新北市新店區安祥路190巷15號","121.478023333333","24.95609","6500600","新店區"
"231013","513-UM","2018/10/12 13:37:58","新北市新店區中正路454-5號","121.534451666667","24.979065","6500600","新店區"
"231034","616-UM","2018/10/12 13:38:00","新北市新店區車子路121號","121.505228333333","24.9505483333333","6500600","新店區"
"231006","617-UM","2018/10/12 13:37:52","新北市新店區光明街1-1號","121.538143333333","24.9592433333333","6500600","新店區"
"231035","719-UM","2018/10/12 13:37:48","新北市新店區安康路二段85巷44號","121.514351666667","24.9613133333333","6500600","新店區"
"231029","897-TW","2018/10/12 13:37:58","新北市新店區安康路二段350-2號","121.50294","24.95764","6500600","新店區"
"231004","899-TW","2018/10/12 13:37:58","新北市新店區北新路一段130號","121.542471666667","24.9704483333333","6500600","新店區"
"231024","AKT-0513","2018/10/12 13:38:00","新北市新店區北新路一段271巷33號","121.539748333333","24.9670416666667","6500600","新店區"
"235030","003-UY","2018/10/12 13:37:51","新北市中和區水源路7巷1號","121.50365","25.0035116666667","6500300","中和區"
"235028","005-UY","2018/10/12 13:37:57","新北市中和區連城路111號","121.496521666667","24.9992466666667","6500300","中和區"
"235027","006-UY","2018/10/12 13:37:50","新北市中和區連城路347巷2弄1號","121.488175","24.9958083333333","6500300","中和區"
"235020","096-UM","2018/10/12 13:38:08","新北市中和區員山路466巷21弄60號","121.480985","25.0078083333333","6500300","中和區"
"235003","097-UM","2018/10/12 13:37:55","新北市中和區大勇街25巷29弄2號","121.515286666667","24.9940333333333","6500300","中和區"
"235029","098-UM","2018/10/12 13:37:55","新北市中和區中山路二段2巷45弄44號","121.501716666667","25.0063033333333","6500300","中和區"
"235004","150-BY","2018/10/12 13:37:49","新北市中和區保健路50巷68號","121.509188333333","24.9949566666667","6500300","中和區"
"235022","151-BY","2018/10/12 13:38:04","新北市中和區連城路533號","121.48056","24.9949933333333","6500300","中和區"
"235019","183-VK","2018/10/12 13:38:04","新北市中和區莒光路120巷17弄1號","121.471718333333","25.0009933333333","6500300","中和區"
"235002","185-VK","2018/10/12 13:38:00","新北市中和區立人街14巷39號","121.519273333333","24.995475","6500300","中和區"
"235013","186-VK","2018/10/12 13:37:51","新北市中和區景平路510號","121.50369","24.9938933333333","6500300","中和區"
"235031","255-BX","2018/10/12 13:38:02","新北市中和區新生街186巷5弄27號","121.482876666667","24.9986866666667","6500300","中和區"
"235008","293-VK","2018/10/12 13:37:55","新北市中和區復興路274巷12號","121.502806666667","24.990925","6500300","中和區"
"235036","301-VK","2018/10/12 13:38:00","新北市中和區連城路171巷10號","121.495646666667","24.9975766666667","6500300","中和區"
"235007","352-BY","2018/10/12 13:37:49","新北市中和區景平路157號","121.513106666667","24.992205","6500300","中和區"
"235006","KEA-2878","2018/10/12 13:37:55","新北市中和區景平路64巷26號","121.5224","24.9915166666667","6500300","中和區"
"235014","4979-A6","2018/10/12 13:38:05","新北市中和區忠孝街121號","121.512581666667","24.9878816666667","6500300","中和區"
"235033","4980-A6","2018/10/12 13:37:47","新北市中和區連勝街38巷28號","121.497536666667","24.99822","6500300","中和區"
"235034","558-UM","2018/10/12 13:37:49","新北市中和區景平路600號","121.500846666667","24.9964066666667","6500300","中和區"
"235009","565-BX","2018/10/12 13:37:56","新北市中和區南山路236巷63弄1號","121.503833333333","24.98761","6500300","中和區"
"235018","640-BX","2018/10/12 13:38:00","新北市中和區莒光路129巷2弄24號","121.473021666667","25.001215","6500300","中和區"
"235011","732-UM","2018/10/12 13:37:49","新北市中和區南山路320巷10弄11號","121.50684","24.9866416666667","6500300","中和區"
"235035","783-BX","2018/10/12 13:37:50","新北市中和區光環路二段309號","121.487265","25.0140933333333","6500300","中和區"
"235026","800-TS","2018/10/12 13:37:57","新北市中和區中山路二段312巷33弄10號","121.494983333333","25.0038533333333","6500300","中和區"
"235021","801-TS","2018/10/12 13:37:57","新北市中和區民安街42巷28號","121.47935","25.0010183333333","6500300","中和區"
"235005","802-TS","2018/10/12 13:37:46","新北市中和區中安街78號","121.512101666667","25.002","6500300","中和區"
"235016","805-TS","2018/10/12 13:37:53","新北市中和區興南路三段43號","121.496061666667","24.9773516666667","6500300","中和區"
"235012","896-TW","2018/10/12 13:37:48","新北市中和區中正路173號","121.497691666667","24.99359","6500300","中和區"
"235017","900-TW","2018/10/12 13:38:00","新北市中和區民享街469-1號","121.469833333333","24.9922916666667","6500300","中和區"
"235024","911-UM","2018/10/12 13:37:55","新北市中和區中山路二段583號","121.480193333333","25.005755","6500300","中和區"
"235015","157-BY","2018/10/12 13:37:45","新北市中和區華新街143巷106弄30號","121.506155","24.9787616666667","6500300","中和區"
"235001","AAC-213","2018/10/12 13:37:52","新北市中和區景德街56號","121.517425","24.991475","6500300","中和區"
"235023","AAC-215","2018/10/12 13:37:52","新北市中和區中正路525號","121.487946666667","24.9935633333333","6500300","中和區"
"220016","013-TV","2018/10/12 13:38:02","新北市板橋區民生路二段161巷5號","121.470166666667","25.01969","6500100","板橋區"
"220104","015-TV","2018/10/12 13:37:51","新北市板橋區南雅西路二段145巷10號","121.451518333333","25.0119966666667","6500100","板橋區"
"220013","072-UY","2018/10/12 13:38:03","新北市板橋區漢生東路217號","121.471016666667","25.009555","6500100","板橋區"
"220034","073-UY","2018/10/12 13:37:59","新北市板橋區華東街298號","121.452753333333","25.00256","6500100","板橋區"
"247009","056-VK","2018/10/12 13:37:51","新北市五股區中興路三段2巷10號","121.449096666667","25.08098","6501400","蘆洲區"
"247021","001-UY","2018/10/12 13:37:48","新北市五股區中興路三段163號","121.4491","25.0806816666667","6501400","蘆洲區"
"207002","749-BX","2018/10/12 13:37:52","新北市萬里區崁腳里崁腳路166號","121.645068333333","25.1558433333333","6502800","萬里區"
"207001","662-BX","2018/10/12 13:37:53","新北市萬里區大鵬里萬里加投35-1號","121.646095","25.2112583333333","6502800","萬里區"
"236040","107-UM","2018/10/12 13:37:50","新北市土城區城林路6巷80號","121.438561666667","24.97982","6501300","土城區"
"236077","166-UM","2018/10/12 13:37:54","新北市土城區城林路6巷80號","121.438556666667","24.979655","6501300","土城區"
"236032","271-VK","2018/10/12 13:38:04","新北市土城區城林路6巷80號","121.438463333333","24.9798433333333","6501300","土城區"
"242058","986-R7","2018/10/12 13:09:53","新北市新莊區新泰路255巷83號","121.442235","25.0390783333333","6500500","新莊區"
"221010","269-BY","2018/10/12 13:37:49","新北市汐止區長青路12號","121.609486666667","25.10646","6501100","汐止區"
"221032","280-BY","2018/10/12 13:37:46","新北市汐止區水源路一段56號","121.657413333333","25.0655766666667","6501100","汐止區"
"220027","145-BY","2018/10/12 13:37:56","新北市板橋區大觀路一段31號","121.449928333333","25.0084833333333","6500100","板橋區"
"220028","200-UY","2018/10/12 13:37:46","新北市板橋區大觀路二段435-10號","121.444696666667","24.994365","6500100","板橋區"
"220030","610-BX","2018/10/12 13:37:52","新北市板橋區大觀路三段59巷17弄6-1號","121.437826666667","24.995395","6500100","板橋區"
"220004","276-BY","2018/10/12 13:37:58","新北市板橋區華東街1號","121.44834","24.9940983333333","6500100","板橋區"
"220020","277-BY","2018/10/12 13:37:53","新北市板橋區大觀路二段443-2號","121.43832","24.9952583333333","6500100","板橋區"
"220043","283-UM","2018/10/12 13:38:05","新北市板橋區民生路二段161巷1號","121.469925","25.0197616666667","6500100","板橋區"
"220019","283-VK","2018/10/12 13:37:50","新北市板橋區四川路二段橋頭6號","121.448266666667","24.99405","6500100","板橋區"
"220031","286-VK","2018/10/12 13:37:59","新北市板橋區合安一路81號","121.448225","24.9988383333333","6500100","板橋區"
"220029","287-VK","2018/10/12 13:37:55","新北市板橋區大觀路二段107號","121.446383333333","25.001605","6500100","板橋區"
"220009","293-UM","2018/10/12 13:37:57","新北市板橋區民生路二段161巷9號","121.470251666667","25.0196766666667","6500100","板橋區"
"220032","296-UM","2018/10/12 13:37:48","新北市板橋區板城路421號","121.448238333333","24.9959633333333","6500100","板橋區"
"220023","303-R5","2018/10/12 13:37:50","新北市板橋區大觀路一段61號","121.447268333333","25.0053666666667","6500100","板橋區"
"220012","486-VK","2018/10/12 13:37:55","新北市板橋區縣民大道二段200巷29號","121.470371666667","25.017865","6500100","板橋區"
"220052","561-BX","2018/10/12 13:37:52","新北市板橋區民生路二段161巷1號","121.470221666667","25.0199016666667","6500100","板橋區"
"220011","609-BX","2018/10/12 13:37:48","新北市板橋區民生路二段175號","121.469746666667","25.0201766666667","6500100","板橋區"
"220005","686-BX","2018/10/12 13:37:49","新北市板橋區華東街1-9號","121.448156666667","24.99494","6500100","板橋區"
"220025","687-BX","2018/10/12 13:38:02","新北市板橋區大觀路三段180巷30號","121.42972","24.99362","6500100","板橋區"
"220002","741-BX","2018/10/12 13:37:49","新北市板橋區華東街1-9號","121.448096666667","24.994975","6500100","板橋區"
"220003","827-TW","2018/10/12 13:37:46","新北市板橋區華東街1-9號","121.448221666667","24.9948466666667","6500100","板橋區"
"220022","895-R6","2018/10/12 13:37:50","新北市板橋區南雅南路一段8-5號","121.455881666667","25.0065716666667","6500100","板橋區"
"220021","985-R7","2018/10/12 13:38:03","新北市板橋區大觀路二段153巷46弄182號","121.451273333333","25.000235","6500100","板橋區"
"220018","AAC-253","2018/10/12 13:37:48","新北市板橋區華東街1-9號","121.448238333333","24.9949016666667","6500100","板橋區"
"235032","KEA-2873","2018/10/12 13:38:01","新北市中和區中正路211巷22號","121.497018333333","24.9930933333333","6500300","中和區"
"235025","KEA-2875","2018/10/12 13:38:04","新北市中和區民享街28號","121.473918333333","25.0035733333333","6500300","中和區"
