"lineid","car","time","location","longitude","latitude","cityid","cityname"
"234005","207-UY","2018/10/12 14:29:01","新北市永和區中正路416號","121.517591666667","25.0021433333333","6500400","永和區"
"234078","298-R6","2018/10/12 14:29:04","新北市永和區永貞路19號","121.520976666667","25.00717","6500400","永和區"
"234062","337-UY","2018/10/12 14:29:04","新北市永和區中正路417號","121.517215","25.0049216666667","6500400","永和區"
"234068","552-UM","2018/10/12 14:28:57","新北市永和區永亨路6-1號","121.519273333333","25.00554","6500400","永和區"
"234028","746-BX","2018/10/12 14:28:50","新北市永和區民權路55號","121.520101666667","24.996925","6500400","永和區"
"234052","KEA-2590","2018/10/12 14:29:01","新北市永和區環河東路一段42號","121.518776666667","25.01704","6500400","永和區"
"234060","AAD-866","2018/10/12 14:28:55","新北市永和區秀朗路一段175號","121.517015","25.003645","6500400","永和區"
"234040","862-TW","2018/10/12 14:28:54","新北市永和區安樂路338號","121.514463333333","25.0060483333333","6500400","永和區"
"234048","863-TW","2018/10/12 14:29:08","新北市永和區環河西路二段107號","121.50636","25.01464","6500400","永和區"
"234025","9371-KE","2018/10/12 14:28:49","新北市中和區中安街166號","121.510895","25.000055","6500400","永和區"
"248019","225-UY","2018/10/12 14:06:21","新北市五股區凌雲路三段57號","121.425273333333","25.1250333333333","6501500","五股區"
"234072","AAC-211","2018/10/12 14:28:47","新北市永和區環河東路一段124號","121.520671666667","25.0154266666667","6500400","永和區"
"234001","AAC-295","2018/10/12 14:28:56","新北市永和區永和路一段127號","121.513971666667","25.0085133333333","6500400","永和區"
"244004","248-BX","2018/10/12 14:29:05","新北市林口區竹林路266號","121.38966","25.0808333333333","6501700","林口區"
"231028","001-UM","2018/10/12 14:29:01","新北市新店區安和路一段6-6號","121.517273333333","24.9653866666667","6500600","新店區"
"231002","002-UM","2018/10/12 14:28:53","新北市新店區中正路416號","121.534288333333","24.97786","6500600","新店區"
"231037","0291-UT","2018/10/12 14:28:49","新北市新店區柴埕路116號","121.504303333333","24.9590366666667","6500600","新店區"
"231027","0293-UT","2018/10/12 14:29:02","新北市新店區寶橋路85巷5弄3號","121.545998333333","24.9756733333333","6500600","新店區"
"231001","047-UY","2018/10/12 14:28:53","新北市新店區中正路75巷71號","121.543136666667","24.968785","6500600","新店區"
"231005","106-UY","2018/10/12 14:28:50","新北市新店區北新路三段129號","121.541223333333","24.9827433333333","6500600","新店區"
"231012","187-VK","2018/10/12 14:29:05","新北市新店區五峰路61巷2-3號","121.547663333333","24.9698783333333","6500600","新店區"
"231032","188-VK","2018/10/12 14:28:48","新北市新店區溪洲路201-2號","121.529335","24.9677616666667","6500600","新店區"
"231022","189-VK","2018/10/12 14:29:06","新北市新店區桂山路51巷6-1號","121.562013333333","24.9015383333333","6500600","新店區"
"231023","KEA-2219","2018/10/12 14:28:54","新北市新店區光明街170號","121.53952","24.96199","6500600","新店區"
"231003","268-BY","2018/10/12 14:29:08","新北市新店區中興路一段266-1號","121.544928333333","24.9674","6500600","新店區"
"231018","278-BY","2018/10/12 14:28:55","新北市新店區中央三街31號","121.528338333333","24.9742483333333","6500600","新店區"
"231016","AAD-862","2018/10/12 14:29:00","新北市石碇區北宜路1-8號","121.610268333333","24.958465","6500600","新店區"
"231030","355-BY","2018/10/12 14:28:56","新北市新店區安民街82號","121.516668333333","24.9671066666667","6500600","新店區"
"231038","3712-VJ","2018/10/12 14:28:59","新北市新店區溪洲路8巷120-1號","121.532901666667","24.96325","6500600","新店區"
"231036","512-UM","2018/10/12 14:29:07","新北市新店區安祥路109巷85弄2號","121.477901666667","24.9601916666667","6500600","新店區"
"231013","513-UM","2018/10/12 14:28:58","新北市新店區民權路88-5號","121.536363333333","24.983435","6500600","新店區"
"231034","616-UM","2018/10/12 14:29:00","新北市新店區車子路11號","121.503053333333","24.95199","6500600","新店區"
"231006","617-UM","2018/10/12 14:28:52","新北市新店區北宜路二段212號","121.559453333333","24.9544083333333","6500600","新店區"
"231035","719-UM","2018/10/12 14:28:08","新北市新店區安民街40號","121.515896666667","24.965285","6500600","新店區"
"231029","897-TW","2018/10/12 14:28:58","新北市新店區安康路二段448號","121.49547","24.95484","6500600","新店區"
"231004","899-TW","2018/10/12 14:28:58","新北市新店區中正路282-7號","121.538166666667","24.9740766666667","6500600","新店區"
"231024","AKT-0513","2018/10/12 14:28:55","新北市新店區中華路83巷67號","121.538315","24.9672283333333","6500600","新店區"
"235030","003-UY","2018/10/12 14:28:51","新北市中和區景新街43號","121.504221666667","24.9991733333333","6500300","中和區"
"235028","005-UY","2018/10/12 14:28:57","新北市中和區南山路127巷18弄2號","121.503468333333","24.9972666666667","6500300","中和區"
"235027","006-UY","2018/10/12 14:28:50","新北市中和區連城路203巷10弄21號","121.495095","24.9966133333333","6500300","中和區"
"235020","096-UM","2018/10/12 14:28:48","新北市中和區員山路514巷1號","121.479315","25.0096883333333","6500300","中和區"
"235003","097-UM","2018/10/12 14:28:55","新北市中和區秀峰街119巷8弄1號","121.519406666667","24.9890366666667","6500300","中和區"
"235029","098-UM","2018/10/12 14:28:55","新北市中和區永和路52號","121.49924","25.00404","6500300","中和區"
"235004","150-BY","2018/10/12 14:28:49","新北市中和區宜安路23巷12號","121.512456666667","24.9954333333333","6500300","中和區"
"235022","151-BY","2018/10/12 14:28:50","新北市中和區連城路372-3號","121.481523333333","24.9952966666667","6500300","中和區"
"235019","183-VK","2018/10/12 14:29:04","新北市中和區德光路15巷13號","121.471363333333","25.00376","6500300","中和區"
"235002","185-VK","2018/10/12 14:29:00","新北市中和區自立路43號","121.522113333333","24.995105","6500300","中和區"
"235013","186-VK","2018/10/12 14:28:51","新北市中和區景平路398-1號","121.509708333333","24.99331","6500300","中和區"
"235031","255-BX","2018/10/12 14:29:02","新北市中和區新生街218號","121.483798333333","24.9985683333333","6500300","中和區"
"235008","293-VK","2018/10/12 14:28:55","新北市中和區景安路196號","121.504306666667","24.9914483333333","6500300","中和區"
"235036","301-VK","2018/10/12 14:28:57","新北市中和區保平路340巷18號","121.506005","25.0044733333333","6500300","中和區"
"235007","352-BY","2018/10/12 14:28:49","新北市中和區景平路169巷12號","121.512201666667","24.9922283333333","6500300","中和區"
"235006","KEA-2878","2018/10/12 14:28:55","新北市中和區中和路350巷21弄1號","121.510731666667","25.0005966666667","6500300","中和區"
"247011","KEA-2869","2018/10/12 14:29:04","新北市蘆洲區復興路201號","121.47966","25.0896416666667","6501400","蘆洲區"
"235014","4979-A6","2018/10/12 14:29:04","新北市中和區員山路36巷16-3號","121.484966666667","24.99152","6500300","中和區"
"235034","558-UM","2018/10/12 14:28:49","新北市中和區景平路628號","121.500325","24.9978383333333","6500300","中和區"
"235009","565-BX","2018/10/12 14:28:56","新北市中和區景新街467巷20弄110號","121.514835","24.9865666666667","6500300","中和區"
"235018","640-BX","2018/10/12 14:29:00","新北市中和區民德路80號","121.468796666667","25.0013333333333","6500300","中和區"
"235011","732-UM","2018/10/12 14:28:49","新北市中和區景平路241巷56號","121.507933333333","24.9922983333333","6500300","中和區"
"235010","733-UM","2018/10/12 14:28:55","新北市中和區忠孝街37巷42號","121.510796666667","24.98488","6500300","中和區"
"235035","783-BX","2018/10/12 14:28:50","新北市中和區連城路469巷11號","121.483676666667","24.9955766666667","6500300","中和區"
"235026","800-TS","2018/10/12 14:28:57","新北市中和區中山路二段488-1號","121.487395","25.0049","6500300","中和區"
"235021","801-TS","2018/10/12 14:28:57","新北市中和區員山路406號","121.4804","25.004865","6500300","中和區"
"235005","802-TS","2018/10/12 14:29:07","新北市中和區中和路228號","121.506596666667","24.9993466666667","6500300","中和區"
"235016","805-TS","2018/10/12 14:28:53","新北市中和區華新街143巷70號","121.50634","24.979215","6500300","中和區"
"235012","896-TW","2018/10/12 14:28:47","新北市中和區忠孝街37巷4號","121.511263333333","24.9836266666667","6500300","中和區"
"235017","900-TW","2018/10/12 14:29:00","新北市中和區民德路197號","121.469005","24.9982716666667","6500300","中和區"
"235024","911-UM","2018/10/12 14:28:55","新北市中和區新生街112巷20號","121.482285","25.0030916666667","6500300","中和區"
"235015","157-BY","2018/10/12 14:29:06","新北市中和區中興街132巷6號","121.499435","24.9921616666667","6500300","中和區"
"235001","AAC-213","2018/10/12 14:28:52","新北市中和區秀朗路三段10巷37弄7號","121.52445","24.99586","6500300","中和區"
"235023","AAC-215","2018/10/12 14:28:52","新北市中和區圓通路274-7號","121.49221","24.9907616666667","6500300","中和區"
"220016","013-TV","2018/10/12 14:29:02","新北市板橋區萬安街2號","121.484841666667","25.0223683333333","6500100","板橋區"
"220104","015-TV","2018/10/12 14:28:51","新北市板橋區中正路415號","121.454268333333","25.0227316666667","6500100","板橋區"
"220013","072-UY","2018/10/12 14:29:03","新北市板橋區國泰街111巷15號","121.466181666667","25.0059966666667","6500100","板橋區"
"220034","073-UY","2018/10/12 14:29:04","新北市板橋區中正路216巷150弄1號","121.460751666667","25.0195666666667","6500100","板橋區"
"220105","075-UY","2018/10/12 14:28:57","新北市板橋區文化路二段441巷6-1號","121.474433333333","25.03369","6500100","板橋區"
"220017","AAD-861","2018/10/12 14:28:56","新北市板橋區稚暉街50號","121.456545","25.0041366666667","6500100","板橋區"
"247001","893-R6","2018/10/12 14:29:05","新北市蘆洲區永樂街38巷33弄33號","121.456756666667","25.0898483333333","6501400","蘆洲區"
"247015","546-UM","2018/10/12 14:29:05","新北市蘆洲區中正路185巷78弄2號","121.466128333333","25.0844766666667","6501400","蘆洲區"
"247023","500-BY","2018/10/12 14:28:55","新北市蘆洲區中正路263巷2號","121.467228333333","25.087515","6501400","蘆洲區"
"247013","339-TH","2018/10/12 14:29:07","新北市蘆洲區中正路44號","121.471096666667","25.0825016666667","6501400","蘆洲區"
"247005","337-TH","2018/10/12 14:29:03","新北市蘆洲區中華街81號","121.462065","25.0800766666667","6501400","蘆洲區"
"247007","336-TH","2018/10/12 14:29:03","新北市蘆洲區民生街42號","121.473943333333","25.0786816666667","6501400","蘆洲區"
"247019","057-VK","2018/10/12 14:29:01","新北市蘆洲區水湳街102號","121.469521666667","25.0929966666667","6501400","蘆洲區"
"247009","056-VK","2018/10/12 14:28:55","新北市蘆洲區鷺江街1號","121.479366666667","25.0827183333333","6501400","蘆洲區"
"247003","053-VK","2018/10/12 14:28:56","新北市蘆洲區永康街30號","121.458713333333","25.0855666666667","6501400","蘆洲區"
"247017","007-UY","2018/10/12 14:29:00","新北市蘆洲區民族路213號","121.478065","25.0895666666667","6501400","蘆洲區"
"207002","749-BX","2018/10/12 14:28:52","新北市萬里區溪底里福德坑路10-1號","121.623486666667","25.1561716666667","6502800","萬里區"
"207001","662-BX","2018/10/12 14:28:53","新北市萬里區磺潭里清水9號","121.640423333333","25.1999216666667","6502800","萬里區"
"236067","105-UM","2018/10/12 14:28:56","新北市土城區永豐路255巷27弄47號","121.477063333333","24.9736483333333","6501300","土城區"
"236040","107-UM","2018/10/12 14:28:50","新北市土城區學成路91巷1號","121.450541666667","24.9879416666667","6501300","土城區"
"236077","166-UM","2018/10/12 14:29:03","新北市土城區大暖路42號","121.423261666667","24.9594916666667","6501300","土城區"
"236029","253-BX","2018/10/12 14:28:54","新北市土城區水源街63號","121.440066666667","24.97624","6501300","土城區"
"236024","269-VK","2018/10/12 14:28:55","新北市土城區承天路67號","121.439473333333","24.96362","6501300","土城區"
"236013","270-VK","2018/10/12 14:29:03","新北市土城區青雲路39巷7號","121.460366666667","24.9875466666667","6501300","土城區"
"236032","271-VK","2018/10/12 14:29:04","新北市土城區青雲路449號","121.458846666667","24.9750833333333","6501300","土城區"
"236016","401-BY","2018/10/12 14:28:58","新北市土城區永豐路202巷14號","121.466121666667","24.983415","6501300","土城區"
"236054","752-BX","2018/10/12 14:29:03","新北市土城區中華路二段1號","121.43955","24.97888","6501300","土城區"
"236057","912-UM","2018/10/12 14:28:51","新北市土城區中央路四段53-1號","121.417593333333","24.9585366666667","6501300","土城區"
"236045","913-UM","2018/10/12 14:29:00","新北市土城區青雲路396號","121.458763333333","24.97291","6501300","土城區"
"236060","915-UM","2018/10/12 14:29:06","新北市土城區延壽路1-9號","121.469186666667","24.9938016666667","6501300","土城區"
"221010","269-BY","2018/10/12 14:28:49","新北市汐止區長青路210巷188號","121.616308333333","25.1132633333333","6501100","汐止區"
"220027","145-BY","2018/10/12 14:28:57","新北市板橋區復興街22號","121.45797","25.0172683333333","6500100","板橋區"
"220028","200-UY","2018/10/12 14:29:06","新北市板橋區大觀路二段19巷128號","121.451398333333","25.002185","6500100","板橋區"
"220030","610-BX","2018/10/12 14:28:52","新北市板橋區金門街125-3號","121.432953333333","24.9915966666667","6500100","板橋區"
"220050","245-BX","2018/10/12 14:29:08","新北市板橋區莊敬路220巷31號","121.472458333333","25.0204033333333","6500100","板橋區"
"220004","276-BY","2018/10/12 14:29:08","新北市板橋區國慶路49巷19弄4號","121.459166666667","24.9963433333333","6500100","板橋區"
"220020","277-BY","2018/10/12 14:28:53","新北市板橋區金門街253巷1號","121.432351666667","24.9887133333333","6500100","板橋區"
"220043","283-UM","2018/10/12 14:29:05","新北市板橋區吳鳳路50巷21弄2號","121.468416666667","25.0303883333333","6500100","板橋區"
"220019","283-VK","2018/10/12 14:28:50","新北市板橋區四川路一段387號","121.457786666667","24.99868","6500100","板橋區"
"220001","285-VK","2018/10/12 14:28:51","新北市板橋區永豐街185號","121.476053333333","25.0207483333333","6500100","板橋區"
"220031","286-VK","2018/10/12 14:29:09","新北市板橋區龍興街71巷15號","121.443148333333","25.00209","6500100","板橋區"
"220029","287-VK","2018/10/12 14:29:04","新北市板橋區大觀路一段29巷34號","121.448665","25.0051366666667","6500100","板橋區"
"220039","288-VK","2018/10/12 14:28:55","新北市板橋區裕民街72號","121.460923333333","25.028445","6500100","板橋區"
"220009","293-UM","2018/10/12 14:29:01","新北市板橋區中山路一段267號","121.468808333333","25.0136066666667","6500100","板橋區"
"220032","296-UM","2018/10/12 14:28:48","新北市板橋區滿平街84巷120弄22號","121.426291666667","24.9857333333333","6500100","板橋區"
"220023","303-R5","2018/10/12 14:28:50","新北市板橋區南雅西路二段301巷50弄10-2號","121.452353333333","25.0170916666667","6500100","板橋區"
"220010","305-R5","2018/10/12 14:29:03","新北市板橋區三民路二段153巷2弄12-5號","121.479508333333","25.014365","6500100","板橋區"
"220041","307-R5","2018/10/12 14:28:59","新北市板橋區光武街2巷1號","121.468116666667","25.0250033333333","6500100","板橋區"
"220047","317-R6","2018/10/12 14:29:02","新北市板橋區四維路306號","121.462573333333","25.0297033333333","6500100","板橋區"
"220012","486-VK","2018/10/12 14:29:01","新北市板橋區中山路一段24號","121.460371666667","25.008205","6500100","板橋區"
"220038","487-VK","2018/10/12 14:29:04","新北市板橋區文化路一段33號","121.4603","25.0128933333333","6500100","板橋區"
"220037","491-VK","2018/10/12 14:29:04","新北市板橋區雙十路一段25號","121.477538333333","25.0245566666667","6500100","板橋區"
"220052","561-BX","2018/10/12 14:28:51","新北市板橋區文化路一段270巷2號","121.467391666667","25.02059","6500100","板橋區"
"220011","609-BX","2018/10/12 14:29:01","新北市板橋區三民路一段1巷33號","121.480301666667","25.02462","6500100","板橋區"
"220040","637-BX","2018/10/12 14:29:00","新北市板橋區文聖街135巷27號","121.47907","25.02901","6500100","板橋區"
"220005","686-BX","2018/10/12 14:28:49","新北市板橋區和平路182號","121.46359","24.99581","6500100","板橋區"
"220025","687-BX","2018/10/12 14:29:02","新北市板橋區僑中二街8巷1號","121.447125","25.0111183333333","6500100","板橋區"
"220042","689-BX","2018/10/12 14:28:52","新北市板橋區英士路51號","121.460995","25.024455","6500100","板橋區"
"220002","741-BX","2018/10/12 14:28:49","新北市板橋區忠孝路239巷47號","121.467558333333","25.0037083333333","6500100","板橋區"
"220051","KEA-2699","2018/10/12 14:29:03","新北市板橋區雙十路二段100號","121.474758333333","25.02866","6500100","板橋區"
"220003","827-TW","2018/10/12 14:29:05","新北市板橋區重慶路290巷28號","121.462061666667","24.9988","6500100","板橋區"
"220014","829-TW","2018/10/12 14:28:54","新北市板橋區漢生東路337號","121.471991666667","25.0075533333333","6500100","板橋區"
"220045","831-TW","2018/10/12 14:28:52","新北市板橋區萬板路165號","121.474121666667","25.0236366666667","6500100","板橋區"
"220022","895-R6","2018/10/12 14:29:07","新北市板橋區文化路一段46巷19號","121.460325","25.0115216666667","6500100","板橋區"
"220021","985-R7","2018/10/12 14:29:03","新北市板橋區新生街20巷9號","121.456205","25.0208883333333","6500100","板橋區"
"220046","AAC-210","2018/10/12 14:28:41","新北市板橋區漢生西路145號","121.462958333333","25.0218666666667","6500100","板橋區"
"220018","AAC-253","2018/10/12 14:28:48","新北市板橋區四川路一段107號","121.459768333333","25.00515","6500100","板橋區"
"235032","KEA-2873","2018/10/12 14:28:52","新北市中和區永和路8巷23弄5號","121.500766666667","25.0038483333333","6500300","中和區"
"235025","KEA-2875","2018/10/12 14:29:04","新北市中和區民樂路1號","121.481465","25.0011483333333","6500300","中和區"
