"lineid","car","time","location","longitude","latitude","cityid","cityname"
"244004","248-BX","2018/10/12 15:10:06","新北市林口區竹林路266號","121.38973","25.0808283333333","6501700","林口區"
"231028","001-UM","2018/10/12 15:10:01","新北市新店區僑信路132巷29號","121.49983","24.9453","6500600","新店區"
"231002","002-UM","2018/10/12 15:09:53","新北市新店區中正路543-4號","121.533715","24.9875233333333","6500600","新店區"
"231001","047-UY","2018/10/12 15:09:53","新北市新店區中正路276號","121.538913333333","24.97379","6500600","新店區"
"231005","106-UY","2018/10/12 15:09:50","新北市新店區北新路三段118號","121.541716666667","24.9816816666667","6500600","新店區"
"231012","187-VK","2018/10/12 15:10:05","新北市新店區中興路三段218號","121.543625","24.9826816666667","6500600","新店區"
"231032","188-VK","2018/10/12 15:09:48","新北市新店區安泰路60巷55-6號","121.48409","24.945395","6500600","新店區"
"231022","189-VK","2018/10/12 15:09:54","新北市新店區永福路54-2號","121.558135","24.9287633333333","6500600","新店區"
"231023","KEA-2219","2018/10/12 15:09:54","新北市新店區檳榔路109號","121.544526666667","24.9617316666667","6500600","新店區"
"231026","256-BX","2018/10/12 15:09:54","新北市新店區建興街7號","121.53996","24.9763833333333","6500600","新店區"
"231003","268-BY","2018/10/12 15:09:55","新北市新店區寶橋路99號","121.54775","24.97653","6500600","新店區"
"231018","278-BY","2018/10/12 15:09:55","新北市新店區中央六街125號","121.524898333333","24.97783","6500600","新店區"
"231016","AAD-862","2018/10/12 15:10:00","新北市新店區明山路45號","121.563493333333","24.955745","6500600","新店區"
"231030","355-BY","2018/10/12 15:09:56","新北市新店區安民街341-1號","121.516848333333","24.9749266666667","6500600","新店區"
"231038","3712-VJ","2018/10/12 15:09:59","新北市新店區安華路28-1號","121.519798333333","24.9607633333333","6500600","新店區"
"231025","4715-K9","2018/10/12 15:09:58","新北市新店區中央路57號","121.53273","24.97744","6500600","新店區"
"231036","512-UM","2018/10/12 15:09:47","新北市新店區安祥路104巷11弄9號","121.480856666667","24.9635183333333","6500600","新店區"
"231034","616-UM","2018/10/12 15:10:00","新北市新店區玫瑰路4-1號","121.493668333333","24.951435","6500600","新店區"
"231006","617-UM","2018/10/12 15:09:52","新北市新店區新坡一街18巷1弄1號","121.549188333333","24.9617583333333","6500600","新店區"
"231035","719-UM","2018/10/12 15:09:48","新北市新店區安和路三段120巷14號","121.517546666667","24.9858233333333","6500600","新店區"
"231039","719-UY","2018/10/12 15:09:48","新北市新店區中興路三段230號","121.543391666667","24.983365","6500600","新店區"
"231029","897-TW","2018/10/12 15:09:57","新北市新店區安康路三段738號","121.473898333333","24.9420033333333","6500600","新店區"
"231004","899-TW","2018/10/12 15:09:58","新北市新店區建國路29號","121.540211666667","24.9740766666667","6500600","新店區"
"231024","AKT-0513","2018/10/12 15:09:55","新北市新店區北新路一段349號","121.541596666667","24.9692666666667","6500600","新店區"
"241013","270-UM","2018/10/12 15:10:08","新北市三重區重新路四段121號","121.484876666667","25.0526083333333","6500200","三重區"
"235030","003-UY","2018/10/12 15:09:51","新北市中和區保平路366號","121.506523333333","25.0036716666667","6500300","中和區"
"235020","096-UM","2018/10/12 15:10:07","新北市中和區中山路三段170巷8弄17號","121.473098333333","25.007735","6500300","中和區"
"235029","098-UM","2018/10/12 15:09:55","新北市中和區景平路989巷1-1號","121.495841666667","25.00538","6500300","中和區"
"235004","150-BY","2018/10/12 15:09:49","新北市中和區宜安路166號","121.509001666667","24.99899","6500300","中和區"
"235007","352-BY","2018/10/12 15:09:49","新北市中和區興南路二段159巷1號","121.505158333333","24.9833233333333","6500300","中和區"
"235014","4979-A6","2018/10/12 15:10:05","新北市中和區景平路211號","121.510781666667","24.9926166666667","6500300","中和區"
"235033","4980-A6","2018/10/12 15:10:07","新北市中和區景新街64巷5號","121.504048333333","24.9986783333333","6500300","中和區"
"235034","558-UM","2018/10/12 15:09:49","新北市中和區中正路428號","121.491498333333","24.9943716666667","6500300","中和區"
"235018","640-BX","2018/10/12 15:10:00","新北市中和區民安街4號","121.480786666667","25.001035","6500300","中和區"
"235035","783-BX","2018/10/12 15:09:50","新北市中和區中板路47巷15號","121.482173333333","25.0116166666667","6500300","中和區"
"235012","896-TW","2018/10/12 15:10:08","新北市中和區興南路一段137號","121.508795","24.9875566666667","6500300","中和區"
"235023","AAC-215","2018/10/12 15:09:51","新北市中和區圓通路435巷3-1號","121.488001666667","24.9863033333333","6500300","中和區"
"220016","013-TV","2018/10/12 15:10:02","新北市板橋區光復街230號","121.484778333333","25.0213566666667","6500100","板橋區"
"220104","015-TV","2018/10/12 15:05:06","新北市板橋區華東街1-10號","121.448298333333","24.99504","6500100","板橋區"
"220034","073-UY","2018/10/12 15:09:59","新北市樹林區中山路三段210-2號","121.381946666667","24.96567","6500100","板橋區"
"220017","AAD-861","2018/10/12 15:09:56","新北市板橋區華東街1-10號","121.448675","24.995035","6500100","板橋區"
"207002","749-BX","2018/10/12 15:09:52","新北市萬里區崁腳里內中福路66號","121.655386666667","25.1667933333333","6502800","萬里區"
"207001","662-BX","2018/10/12 15:09:53","新北市萬里區磺潭里員潭路35號","121.644511666667","25.194675","6502800","萬里區"
"236067","105-UM","2018/10/12 15:09:56","新北市土城區學成路102號","121.450085","24.9891366666667","6501300","土城區"
"236040","107-UM","2018/10/12 15:09:50","新北市土城區清水路85巷5號","121.456205","24.9823283333333","6501300","土城區"
"236077","166-UM","2018/10/12 15:09:54","新北市土城區中州路43號","121.412985","24.9579483333333","6501300","土城區"
"236029","253-BX","2018/10/12 15:09:54","新北市土城區福祥街66號","121.44161","24.9816516666667","6501300","土城區"
"236024","269-VK","2018/10/12 15:09:55","新北市土城區中央路二段149巷30弄12號","121.443243333333","24.9767183333333","6501300","土城區"
"236013","270-VK","2018/10/12 15:10:06","新北市土城區學府路一段37巷33號","121.457513333333","24.9875883333333","6501300","土城區"
"236032","271-VK","2018/10/12 15:10:04","新北市土城區國際路61號","121.46679","24.9766133333333","6501300","土城區"
"236016","401-BY","2018/10/12 15:09:58","新北市土城區延峰街16號","121.46876","24.98629","6501300","土城區"
"236054","752-BX","2018/10/12 15:10:03","新北市土城區學府路一段276號","121.450251666667","24.9833383333333","6501300","土城區"
"236057","912-UM","2018/10/12 15:09:51","新北市土城區金城路一段27號","121.440015","24.9692466666667","6501300","土城區"
"236045","913-UM","2018/10/12 15:10:02","新北市土城區清水路288號","121.462176666667","24.983645","6501300","土城區"
"236060","915-UM","2018/10/12 15:10:05","新北市土城區延平街17號","121.468256666667","24.9911066666667","6501300","土城區"
"221010","269-BY","2018/10/12 15:09:53","新北市汐止區汐萬路一段256巷3號","121.652123333333","25.074925","6501100","汐止區"
"221033","647-BX","2018/10/12 15:10:00","新北市汐止區康寧街901號","121.651633333333","25.074995","6501100","汐止區"
"220050","245-BX","2018/10/12 15:09:58","新北市板橋區莊敬路75巷31號","121.47392","25.0262566666667","6500100","板橋區"
"220020","277-BY","2018/10/12 15:00:13","新北市板橋區溪城路90-2號","121.429261666667","24.9801783333333","6500100","板橋區"
"220019","283-VK","2018/10/12 15:09:50","新北市板橋區南雅南路二段43號","121.4514","24.99445","6500100","板橋區"
"220031","286-VK","2018/10/12 15:09:59","新北市板橋區僑中二街100巷20號","121.445165","25.008675","6500100","板橋區"
"220029","287-VK","2018/10/12 15:09:55","新北市板橋區僑中一街80巷1弄18號","121.446771666667","25.0120283333333","6500100","板橋區"
"220009","293-UM","2018/10/12 15:10:05","新北市板橋區四川路一段274巷13號","121.457916666667","25.0013733333333","6500100","板橋區"
"220041","307-R5","2018/10/12 15:09:58","新北市板橋區金華街10巷48弄78-4號","121.460078333333","25.0203366666667","6500100","板橋區"
"220038","487-VK","2018/10/12 15:09:59","新北市板橋區互助街58號","121.461371666667","25.02681","6500100","板橋區"
"220037","491-VK","2018/10/12 15:09:57","新北市板橋區民治街59號","121.47953","25.033295","6500100","板橋區"
"220052","561-BX","2018/10/12 15:09:51","新北市板橋區陽明街279巷35-2號","121.461095","25.0256333333333","6500100","板橋區"
"220025","687-BX","2018/10/12 15:10:02","新北市板橋區大觀路一段29巷131弄125號","121.451723333333","25.0051833333333","6500100","板橋區"
"220042","689-BX","2018/10/12 15:09:52","新北市板橋區吳鳳路91-1號","121.466908333333","25.0319766666667","6500100","板橋區"
"220051","KEA-2699","2018/10/12 15:09:52","新北市板橋區文聖街73號","121.47732","25.03056","6500100","板橋區"
"220014","829-TW","2018/10/12 15:09:54","新北市板橋區板新路238號","121.468065","25.0161616666667","6500100","板橋區"
"220046","AAC-210","2018/10/12 15:09:52","新北市板橋區公館街94-1號","121.461365","25.0166583333333","6500100","板橋區"
"220018","AAC-253","2018/10/12 15:09:47","新北市板橋區四川路二段99巷24弄43號","121.453185","24.9934583333333","6500100","板橋區"
"235032","KEA-2873","2018/10/12 15:09:52","新北市中和區連城路224號","121.491133333333","24.996495","6500300","中和區"
