"lineid","car","time","location","longitude","latitude","cityid","cityname"
"234081","298-R6","2018/10/12 17:59:24","新北市永和區福和路1號","121.5263","25.00975","6500400","永和區"
"234026","9371-KE","2018/10/12 17:59:40","新北市永和區永和路一段70號","121.51297","25.0062183333333","6500400","永和區"
"249005","172-UM","2018/10/12 17:59:39","新北市八里區荖阡坑路16-8號","121.39933","25.1389583333333","6502300","八里區"
"249001","173-UM","2018/10/12 17:59:43","新北市八里區龍米路二段35號","121.448483333333","25.1399816666667","6502300","八里區"
"249004","303-UY","2018/10/12 17:59:31","新北市八里區賢一街53號","121.419951666667","25.1580516666667","6502300","八里區"
"249002","305-UY","2018/10/12 17:59:39","新北市八里區龍米路一段428巷22號","121.451953333333","25.1334066666667","6502300","八里區"
"249003","593-UM","2018/10/12 17:59:22","新北市八里區中華路二段203號","121.405376666667","25.1495416666667","6502300","八里區"
"248006","077-UY","2018/10/12 17:59:38","新北市五股區中興路二段163號","121.457666666667","25.0777416666667","6501500","五股區"
"248008","095-VK","2018/10/12 17:59:27","新北市五股區更洲路20號","121.45806","25.0790216666667","6501500","五股區"
"248018","225-UY","2018/10/12 17:59:31","新北市五股區中興路二段83巷26-6號","121.459996666667","25.0752733333333","6501500","五股區"
"248014","261-SL","2018/10/12 17:59:33","新北市五股區中興路三段166號","121.44501","25.0810583333333","6501500","五股區"
"248012","655-BX","2018/10/12 17:59:33","新北市五股區中興路二段83巷26-6號","121.45976","25.0751016666667","6501500","五股區"
"248004","677-BX","2018/10/12 17:59:31","新北市五股區中興路二段161號","121.457958333333","25.0769783333333","6501500","五股區"
"232011","375-UM","2018/10/12 17:59:29","新北市坪林區國中路4號","121.71344","24.9387783333333","6502000","坪林區"
"244023","069-UM","2018/10/12 17:59:39","新北市林口區育林街30號","121.385863333333","25.073735","6501700","林口區"
"244007","080-UY","2018/10/12 17:59:32","新北市林口區林口路136號","121.388225","25.0819766666667","6501700","林口區"
"244019","403-UM","2018/10/12 17:59:34","新北市林口區文化一路一段30號","121.370616666667","25.0689966666667","6501700","林口區"
"244013","KEA-2802","2018/10/12 17:59:34","新北市林口區林口路46-2號","121.391303333333","25.0786033333333","6501700","林口區"
"244017","485-VK","2018/10/12 17:59:42","新北市林口區忠孝路372號","121.369233333333","25.071395","6501700","林口區"
"244009","656-BX","2018/10/12 17:59:28","新北市林口區佳林路56巷41號","121.385148333333","25.0808316666667","6501700","林口區"
"244011","701-TV","2018/10/12 17:59:31","新北市林口區中正路144號","121.39277","25.0773116666667","6501700","林口區"
"244025","837-TS","2018/10/12 17:59:24","新北市林口區文化三路一段39巷181號","121.359141666667","25.0677866666667","6501700","林口區"
"244021","838-TS","2018/10/12 17:59:33","新北市林口區新寮29-2號","121.399421666667","25.0664583333333","6501700","林口區"
"243013","AAD-798","2018/10/12 17:59:31","新北市泰山區黎明路25號","121.422068333333","25.06083","6501600","泰山區"
"222003","436-BY","2018/10/12 17:59:39","新北市深坑區炮子崙23號","121.607231666667","24.9910666666667","6501800","深坑區"
"222002","659-BX","2018/10/12 17:59:42","新北市深坑區文化街98號","121.617051666667","25.00187","6501800","深坑區"
"231046","107-UY","2018/10/12 17:59:26","新北市新店區下石厝路29-1號","121.534325","24.9296033333333","6500600","新店區"
"231058","3713-VJ","2018/10/12 17:59:24","新北市新店區安華路28-1號","121.519163333333","24.9606516666667","6500600","新店區"
"231055","AKT-0513","2018/10/12 17:59:40","新北市新店區安華路28-1號","121.51954","24.9606266666667","6500600","新店區"
"241016","266-UM","2018/10/12 17:59:36","新北市三重區大同北路91號","121.49474","25.063725","6500200","三重區"
"241030","480-VK","2018/10/12 17:59:39","新北市三重區中正南路269號","121.493236666667","25.0522383333333","6500200","三重區"
"241024","887-TS","2018/10/12 17:59:36","新北市三重區車路頭街70號","121.48415","25.0730383333333","6500200","三重區"
"241033","AAC-255","2018/10/12 17:59:31","新北市三重區重新路五段625號","121.467835","25.0440916666667","6500200","三重區"
"235063","006-UY","2018/10/12 17:59:31","新北市中和區員山路36巷16-3號","121.4851","24.9913766666667","6500300","中和區"
"235065","098-UM","2018/10/12 17:59:39","新北市中和區中山路二段472號","121.488325","25.0049033333333","6500300","中和區"
"235058","151-BY","2018/10/12 17:59:42","新北市中和區圓通路367巷20弄1號","121.49216","24.9881616666667","6500300","中和區"
"235038","185-VK","2018/10/12 17:59:22","新北市中和區中正路277號","121.495233333333","24.9938816666667","6500300","中和區"
"247012","KEA-2869","2018/10/12 17:59:26","新北市蘆洲區民族路248號","121.479158333333","25.0885816666667","6501400","蘆洲區"
"235070","558-UM","2018/10/12 17:59:20","新北市中和區員山路36巷16-2號","121.485251666667","24.9915733333333","6500300","中和區"
"235052","805-TS","2018/10/12 17:59:38","新北市中和區員山路36巷13號","121.484443333333","24.991105","6500300","中和區"
"235053","900-TW","2018/10/12 17:59:31","新北市中和區員山路36巷16-2號","121.485103333333","24.991855","6500300","中和區"
"235051","157-BY","2018/10/12 17:59:32","新北市中和區錦和路350-1號","121.490133333333","24.9935583333333","6500300","中和區"
"235037","AAC-213","2018/10/12 17:59:39","新北市中和區中正路273號","121.495671666667","24.9937933333333","6500300","中和區"
"247016","546-UM","2018/10/12 17:59:28","新北市蘆洲區中正路185巷78弄1號","121.466136666667","25.0843216666667","6501400","蘆洲區"
"247020","057-VK","2018/10/12 17:59:40","新北市蘆洲區三民路126號","121.471031666667","25.0875016666667","6501400","蘆洲區"
"228002","663-BX","2018/10/12 17:59:23","新北市貢寮區福連里香蘭街2-1號","121.968048333333","25.0233566666667","6502600","貢寮區"
"228001","670-TC","2018/10/12 17:59:39","新北市貢寮區仁理村仁愛路106巷36號","121.928676666667","25.05353","6502600","貢寮區"
"228003","828-UM","2018/10/12 17:59:30","新北市貢寮區真理里美艷山街6-2號","121.928866666667","25.06072","6502600","貢寮區"
"224006","676-BX","2018/10/12 17:59:32","新北市瑞芳區大寮路356-1號","121.784798333333","25.103215","6501200","瑞芳區"
"224002","639-TC","2018/10/12 17:59:30","新北市瑞芳區三爪子坑路32巷1號","121.810348333333","25.10605","6501200","瑞芳區"
"224008","285-BY","2018/10/12 17:59:38","新北市瑞芳區明燈路一段201巷105號","121.81895","25.1062366666667","6501200","瑞芳區"
"224009","273-VK","2018/10/12 17:59:42","新北市瑞芳區金光路115號","121.853608333333","25.1062616666667","6501200","瑞芳區"
"224005","271-BY","2018/10/12 17:59:24","新北市瑞芳區深澳路163號","121.819746666667","25.13296","6501200","瑞芳區"
"227003","642-TC","2018/10/12 17:59:28","新北市雙溪區共和里東榮街52號","121.866323333333","25.0336783333333","6502500","雙溪區"
"253006","032-BX","2018/10/12 17:59:25","新北市石門區大丘田45-2號","121.549793333333","25.2748633333333","6502200","石門區"
"253005","295-VK","2018/10/12 17:59:38","新北市石門區中山路62-12號","121.56745","25.2896666666667","6502200","石門區"
"222001","KEA-2212","2018/10/12 17:59:31","新北市深坑區北深路三段12號","121.609846666667","25.0009833333333","6501800","深坑區"
"208002","KEA-2872","2018/10/12 17:59:29","新北市金山區三界壇路91-1號","121.624865","25.2286533333333","6502700","金山區"
"208003","665-BX","2018/10/12 17:59:42","新北市金山區磺港里磺港路133號","121.646195","25.2275316666667","6502700","金山區"
"208001","761-BX","2018/10/12 17:59:34","新北市金山區磺港里青年路1號","121.641128333333","25.2251483333333","6502700","金山區"
"251005","010-UM","2018/10/12 17:59:27","新北市淡水區英專路120號","121.44594","25.1725383333333","6501000","淡水區"
"251008","KEA-2871","2018/10/12 17:59:37","新北市淡水區八勢路30巷19號","121.46259","25.1536916666667","6501000","淡水區"
"251010","413-VK","2018/10/12 17:59:22","新北市淡水區中正路一段87巷1號","121.421751666667","25.179145","6501000","淡水區"
"251012","441-VK","2018/10/12 17:59:32","新北市淡水區北新路三段38巷7號","121.484536666667","25.1870633333333","6501000","淡水區"
"251004","443-VK","2018/10/12 17:59:37","新北市淡水區民權路187巷34號","121.46064","25.133455","6501000","淡水區"
"251001","559-UM","2018/10/12 17:59:28","新北市淡水區民權路94巷1號","121.463163333333","25.1249216666667","6501000","淡水區"
"251006","561-UM","2018/10/12 17:59:32","新北市淡水區真理街3號","121.438088333333","25.1731333333333","6501000","淡水區"
"251009","575-R6","2018/10/12 17:59:36","新北市淡水區大仁街6巷1號","121.442495","25.1746283333333","6501000","淡水區"
"251007","577-R6","2018/10/12 17:59:40","新北市淡水區中正東路二段145號","121.459668333333","25.1473516666667","6501000","淡水區"
"251011","650-BX","2018/10/12 17:59:36","新北市淡水區三空泉5-1號","121.478005","25.1619683333333","6501000","淡水區"
"251002","672-BX","2018/10/12 17:59:30","新北市淡水區中正東路1號","121.44723","25.167215","6501000","淡水區"
"251003","673-BX","2018/10/12 17:59:25","新北市淡水區大忠街90號","121.44481","25.1763466666667","6501000","淡水區"
"207003","550-UM","2018/10/12 17:59:38","新北市萬里區港東路野柳風景區攤販66號","121.691351666667","25.20586","6502800","萬里區"
"207004","225-TW","2018/10/12 17:59:25","新北市萬里區中幅里中福路48號","121.683318333333","25.17413","6502800","萬里區"
"252002","178-VK","2018/10/12 17:59:35","新北市三芝區中山路二段38號","121.50297","25.255125","6502100","三芝區"
"252001","292-VK","2018/10/12 17:59:29","新北市三芝區中興街二段2號","121.498365","25.25664","6502100","三芝區"
"237004","KEA-2597","2018/10/12 17:59:27","新北市三峽區中正路二段85號","121.366441666667","24.9175366666667","6500900","三峽區"
"237007","153-BY","2018/10/12 17:59:24","新北市三峽區中園街108-3號","121.366776666667","24.9230233333333","6500900","三峽區"
"237009","210-TH","2018/10/12 17:59:41","新北市三峽區中山路106巷3號","121.365986666667","24.93598","6500900","三峽區"
"237013","252-BX","2018/10/12 17:59:21","新北市三峽區介壽路一段71-1號","121.375846666667","24.9323183333333","6500900","三峽區"
"237012","275-BY","2018/10/12 17:59:37","新北市三峽區民生街27巷1號","121.376018333333","24.936255","6500900","三峽區"
"237008","302-VK","2018/10/12 17:59:28","新北市三峽區正義街2號","121.369871666667","24.919905","6500900","三峽區"
"237014","433-BY","2018/10/12 17:59:22","新北市三峽區和平街36巷7弄6號","121.370843333333","24.937345","6500900","三峽區"
"237006","5529-G3","2018/10/12 17:59:34","新北市三峽區介壽路二段38巷22號","121.391716666667","24.934585","6500900","三峽區"
"237011","KEA-2596","2018/10/12 17:59:32","新北市三峽區光明路49號","121.375235","24.92909","6500900","三峽區"
"237015","649-BX","2018/10/12 17:59:39","新北市三峽區紫微路105號","121.40928","24.91184","6500900","三峽區"
"237010","706-TV","2018/10/12 17:59:37","新北市三峽區民權街200號","121.367716666667","24.9292183333333","6500900","三峽區"
"237005","AKY-6261","2018/10/12 17:59:38","新北市三峽區復興路237巷38號","121.368918333333","24.9378183333333","6500900","三峽區"
"236069","105-UM","2018/10/12 17:59:41","新北市土城區城林路6巷80號","121.438481666667","24.9797483333333","6501300","土城區"
"236042","107-UM","2018/10/12 17:59:36","新北市土城區城林路6巷80號","121.438595","24.9797733333333","6501300","土城區"
"236079","166-UM","2018/10/12 17:59:36","新北市土城區永寧路32巷10弄1號","121.428906666667","24.9610033333333","6501300","土城區"
"236030","253-BX","2018/10/12 17:59:33","新北市土城區城林路6巷80號","121.438676666667","24.9796633333333","6501300","土城區"
"236026","269-VK","2018/10/12 17:59:23","新北市土城區承天路18號","121.439423333333","24.9634616666667","6501300","土城區"
"236014","270-VK","2018/10/12 17:59:37","新北市土城區城林路6巷80號","121.438553333333","24.97961","6501300","土城區"
"236039","271-VK","2018/10/12 17:59:32","新北市土城區員福街50號","121.440666666667","24.9789983333333","6501300","土城區"
"236020","401-BY","2018/10/12 17:59:29","新北市土城區城林路6巷80號","121.438576666667","24.9797033333333","6501300","土城區"
"236055","752-BX","2018/10/12 17:59:42","新北市土城區城林路6巷80號","121.438478333333","24.9796616666667","6501300","土城區"
"236059","912-UM","2018/10/12 17:59:32","新北市土城區中央路三段282號","121.426681666667","24.9636366666667","6501300","土城區"
"236048","913-UM","2018/10/12 17:59:36","新北市土城區城林路6巷80號","121.438508333333","24.979595","6501300","土城區"
"242037","AAC-296","2018/10/12 17:59:39","新北市新莊區建福路35號","121.42644","25.028495","6500500","新莊區"
"242058","986-R7","2018/10/12 17:59:40","新北市新莊區雙鳳路134巷8號","121.412723333333","25.02812","6500500","新莊區"
"242056","751-BX","2018/10/12 17:59:41","新北市新莊區豐年街124巷18號","121.445498333333","25.0298516666667","6500500","新莊區"
"242027","705-TV","2018/10/12 17:59:37","新北市新莊區思源路451號","121.459711666667","25.0533883333333","6500500","新莊區"
"242025","613-BX","2018/10/12 17:59:35","新北市新莊區五工路58號","121.458891666667","25.062745","6500500","新莊區"
"242029","612-BX","2018/10/12 17:59:36","新北市新莊區中平路79號","121.444756666667","25.0452316666667","6500500","新莊區"
"242044","566-BX","2018/10/12 17:59:43","新北市新莊區雙鳳路24號","121.416701666667","25.0269766666667","6500500","新莊區"
"242048","497-BY","2018/10/12 17:59:23","新北市新莊區萬安街47巷28號","121.422685","25.02414","6500500","新莊區"
"242015","442-UM","2018/10/12 17:59:28","新北市新莊區中平路87巷3號","121.444503333333","25.0457333333333","6500500","新莊區"
"242054","441-UM","2018/10/12 17:59:30","新北市新莊區民安西路396號","121.42866","25.01026","6500500","新莊區"
"242009","413-TV","2018/10/12 17:59:24","新北市新莊區昌平街59巷11弄7號","121.453828333333","25.0530483333333","6500500","新莊區"
"242046","400-BY","2018/10/12 17:59:33","新北市新莊區福營路97巷16號","121.43444","25.0316183333333","6500500","新莊區"
"242023","362-BY","2018/10/12 17:59:33","新北市新莊區福壽街69號","121.458228333333","25.049575","6500500","新莊區"
"242060","353-BY","2018/10/12 17:59:37","新北市新莊區新樹路457號","121.432686666667","25.0132283333333","6500500","新莊區"
"242011","132-UY","2018/10/12 17:59:36","新北市新莊區中港路618-5號","121.451086666667","25.0546333333333","6500500","新莊區"
"242041","133-UY","2018/10/12 17:59:30","新北市泰山區貴陽街88號","121.424108333333","25.0319","6500500","新莊區"
"242034","135-UY","2018/10/12 17:59:33","新北市新莊區福海街8號","121.445288333333","25.0334316666667","6500500","新莊區"
"242050","172-VK","2018/10/12 17:59:35","新北市新莊區民安西路137號","121.42634","25.0174716666667","6500500","新莊區"
"242013","173-VK","2018/10/12 17:59:25","新北市新莊區中和街125巷3號","121.447118333333","25.0485683333333","6500500","新莊區"
"242019","175-VK","2018/10/12 17:59:38","新北市新莊區明中街49巷14號","121.45665","25.03912","6500500","新莊區"
"242007","176-VK","2018/10/12 17:59:35","新北市新莊區自信街26號","121.454195","25.048235","6500500","新莊區"
"242017","346-TH","2018/10/12 17:59:34","新北市新莊區中和街60巷9號","121.44834","25.044825","6500500","新莊區"
"242002","347-TH","2018/10/12 17:59:34","新北市新莊區中正路153-2號","121.455946666667","25.0367833333333","6500500","新莊區"
"242032","348-TH","2018/10/12 17:59:36","新北市新莊區新泰路305巷4號","121.444878333333","25.0410083333333","6500500","新莊區"
"242005","349-TH","2018/10/12 17:59:27","新北市新莊區自由街8號","121.455766666667","25.0478116666667","6500500","新莊區"
"242021","350-TH","2018/10/12 17:59:34","新北市新莊區建興街42-1號","121.449988333333","25.0375283333333","6500500","新莊區"
"238015","755-BX","2018/10/12 17:59:30","新北市樹林區啟智街80巷19號","121.418665","24.9924966666667","6500700","樹林區"
"238023","601-UM","2018/10/12 17:59:22","新北市樹林區龍興街57號","121.403501666667","25.0152783333333","6500700","樹林區"
"238019","599-UM","2018/10/12 17:59:33","新北市樹林區忠孝街11號","121.423311666667","24.9827633333333","6500700","樹林區"
"238018","571-TV","2018/10/12 17:59:25","新北市新莊區新崑路57號","121.431663333333","24.9992816666667","6500700","樹林區"
"238022","KEA-2213","2018/10/12 17:59:24","新北市樹林區太元街58號","121.418353333333","24.9794333333333","6500700","樹林區"
"238021","KEA-2539","2018/10/12 17:59:35","新北市樹林區柑園街一段68號","121.402136666667","24.9602866666667","6500700","樹林區"
"238025","303-VK","2018/10/12 17:59:25","新北市樹林區三俊街119號","121.417508333333","25.01555","6500700","樹林區"
"238017","283-BY","2018/10/12 17:59:42","新北市樹林區三俊街2號","121.410776666667","25.0151533333333","6500700","樹林區"
"238014","282-BY","2018/10/12 17:59:31","新北市樹林區中正路65-4號","121.426333333333","25.0000433333333","6500700","樹林區"
"238020","268-VK","2018/10/12 17:59:39","新北市樹林區三俊街201號","121.420143333333","25.01556","6500700","樹林區"
"238026","172-UY","2018/10/12 17:59:34","新北市樹林區中洲街30巷13弄15號","121.398065","24.9719883333333","6500700","樹林區"
"238016","169-UY","2018/10/12 17:59:20","新北市樹林區復興路278號","121.418005","24.98817","6500700","樹林區"
"239007","AAC-297","2018/10/12 17:59:26","新北市鶯歌區鶯桃路36號","121.341621666667","24.9526433333333","6500800","鶯歌區"
"239006","891-R6","2018/10/12 17:59:35","新北市鶯歌區鶯桃路438號","121.333143333333","24.9648216666667","6500800","鶯歌區"
"239008","527-UM","2018/10/12 17:59:40","新北市鶯歌區香賓街11巷2號","121.336833333333","24.9795233333333","6500800","鶯歌區"
"239005","526-UM","2018/10/12 17:59:30","新北市鶯歌區鳳吉四街8號","121.326495","24.97248","6500800","鶯歌區"
"239001","417-VK","2018/10/12 17:59:30","新北市鶯歌區中正三路106-1號","121.338121666667","24.9409","6500800","鶯歌區"
"239003","360-BY","2018/10/12 17:59:25","新北市鶯歌區鶯桃路206巷14號","121.337548333333","24.9594366666667","6500800","鶯歌區"
"239002","359-BY","2018/10/12 17:59:31","新北市鶯歌區光明街100號","121.34598","24.9559716666667","6500800","鶯歌區"
"239004","193-VK","2018/10/12 17:59:25","新北市鶯歌區尖山路137巷20號","121.347173333333","24.9481566666667","6500800","鶯歌區"
"221008","489-VK","2018/10/12 17:59:24","新北市汐止區明峰街4-1號","121.63541","25.0713033333333","6501100","汐止區"
"221036","130-UY","2018/10/12 17:59:35","新北市汐止區大同路三段267號","121.673568333333","25.0757833333333","6501100","汐止區"
"221015","131-UY","2018/10/12 17:59:20","新北市汐止區長江街323號","121.666513333333","25.081665","6501100","汐止區"
"221010","269-BY","2018/10/12 17:59:35","新北市汐止區汐萬路二段245巷17號","121.645135","25.0875116666667","6501100","汐止區"
"221012","278-VK","2018/10/12 17:59:39","新北市汐止區長興街二段50巷2弄4號","121.673835","25.0817333333333","6501100","汐止區"
"221023","279-VK","2018/10/12 17:59:31","新北市汐止區明峰街119號","121.631023333333","25.0710033333333","6501100","汐止區"
"221032","280-BY","2018/10/12 17:59:32","新北市汐止區橫科路73巷2-1號","121.619398333333","25.0507933333333","6501100","汐止區"
"221027","281-BY","2018/10/12 17:59:40","新北市汐止區大同路二段374號","121.657883333333","25.0671366666667","6501100","汐止區"
"221029","298-VK","2018/10/12 17:59:28","新北市汐止區樟樹二路336號","121.641473333333","25.07045","6501100","汐止區"
"221021","299-VK","2018/10/12 17:59:27","新北市汐止區新興路18號","121.656426666667","25.064605","6501100","汐止區"
"221031","353-TW","2018/10/12 17:59:26","新北市汐止區中興路168號","121.632061666667","25.06513","6501100","汐止區"
"221035","622-UM","2018/10/12 17:59:29","新北市汐止區新江北路30巷22弄7號","121.6513","25.0696816666667","6501100","汐止區"
"221025","623-UM","2018/10/12 17:59:23","新北市汐止區仁愛路17號","121.659186666667","25.063925","6501100","汐止區"
"221038","646-BX","2018/10/12 17:59:36","新北市汐止區大同路二段184巷11號","121.653525","25.0637366666667","6501100","汐止區"
"221033","647-BX","2018/10/12 17:59:32","新北市汐止區合順街3號","121.619506666667","25.0430783333333","6501100","汐止區"
"221002","707-TV","2018/10/12 17:59:24","新北市汐止區工建路201號","121.635943333333","25.0619","6501100","汐止區"
"221018","753-BX","2018/10/12 17:59:27","新北市汐止區招商街1號","121.666333333333","25.069235","6501100","汐止區"
"242039","281-VK","2018/10/12 17:59:27","新北市新莊區民安路144巷1號","121.42446","25.02513","6500500","新莊區"
"235061","KEA-2875","2018/10/12 17:55:15","新北市中和區員山路36巷16-2號","121.485281666667","24.9917966666667","6500300","中和區"
