"lineid","car","time","location","longitude","latitude","cityid","cityname"
"234007","207-UY","2018/10/12 18:19:39","新北市永和區新生路28巷9號","121.508088333333","25.01638","6500400","永和區"
"234081","298-R6","2018/10/12 18:19:24","新北市永和區福和路1號","121.526181666667","25.009755","6500400","永和區"
"234026","9371-KE","2018/10/12 18:19:20","新北市永和區豫溪街42巷3號","121.515518333333","25.0095966666667","6500400","永和區"
"234011","9373-KE","2018/10/12 18:19:35","新北市永和區竹林路91巷70號","121.522058333333","25.0136866666667","6500400","永和區"
"249005","172-UM","2018/10/12 18:19:39","新北市八里區荖阡坑路15-12號","121.400315","25.14034","6502300","八里區"
"249001","173-UM","2018/10/12 18:19:43","新北市八里區龍米路一段470號","121.450346666667","25.1347933333333","6502300","八里區"
"249004","303-UY","2018/10/12 18:19:31","新北市八里區龍米路二段232巷3號","121.43154","25.1589816666667","6502300","八里區"
"249002","305-UY","2018/10/12 18:19:19","新北市八里區龍形二街52號","121.450158333333","25.13299","6502300","八里區"
"248016","026-BX","2018/10/12 18:19:34","新北市五股區成泰路三段477巷18號","121.449911666667","25.0989116666667","6501500","五股區"
"248006","077-UY","2018/10/12 18:19:40","新北市五股區中興路一段94號","121.46646","25.0732066666667","6501500","五股區"
"248008","095-VK","2018/10/12 18:19:27","新北市五股區更洲路32巷8弄14號","121.459248333333","25.0796366666667","6501500","五股區"
"248018","225-UY","2018/10/12 18:19:31","新北市五股區御史路162-2號","121.429325","25.1033933333333","6501500","五股區"
"248014","261-SL","2018/10/12 18:19:34","新北市五股區成泰路一段171巷13號","121.434391666667","25.0744133333333","6501500","五股區"
"248012","655-BX","2018/10/12 18:19:33","新北市五股區御史路1巷1號","121.442233333333","25.0902083333333","6501500","五股區"
"248004","677-BX","2018/10/12 18:19:31","新北市五股區成泰路二段149號","121.439108333333","25.0855483333333","6501500","五股區"
"248002","678-BX","2018/10/12 18:19:34","新北市五股區西雲路49號","121.443418333333","25.09098","6501500","五股區"
"248010","682-TV","2018/10/12 18:19:29","新北市五股區成泰路一段189巷5號","121.434556666667","25.0765816666667","6501500","五股區"
"232011","375-UM","2018/10/12 18:04:54","新北市坪林區坪雙路一段41號","121.711705","24.9424666666667","6502000","坪林區"
"244023","069-UM","2018/10/12 18:19:19","新北市林口區東湖路153巷125號","121.382328333333","25.0733083333333","6501700","林口區"
"244007","080-UY","2018/10/12 18:19:32","新北市林口區竹林路462號","121.387643333333","25.0848266666667","6501700","林口區"
"244019","403-UM","2018/10/12 18:19:34","新北市林口區忠孝路559號","121.372803333333","25.06832","6501700","林口區"
"244013","KEA-2802","2018/10/12 18:19:34","新北市林口區中山路202-1號","121.387698333333","25.0791116666667","6501700","林口區"
"244017","485-VK","2018/10/12 18:19:22","新北市林口區公園路17號","121.366646666667","25.0674366666667","6501700","林口區"
"244009","656-BX","2018/10/12 18:19:28","新北市林口區民生路150號","121.379236666667","25.0879483333333","6501700","林口區"
"244011","701-TV","2018/10/12 18:19:31","新北市林口區新生街11號","121.394171666667","25.076755","6501700","林口區"
"244025","837-TS","2018/10/12 18:19:24","新北市林口區南勢二街85巷1號","121.355955","25.069675","6501700","林口區"
"244021","838-TS","2018/10/12 18:19:33","新北市林口區自強八街1號","121.400568333333","25.0765766666667","6501700","林口區"
"243013","AAD-798","2018/10/12 18:18:31","新北市泰山區南林路103號","121.415626666667","25.042685","6501600","泰山區"
"222003","436-BY","2018/10/12 18:19:39","新北市深坑區旺耽路67號","121.62623","25.0029716666667","6501800","深坑區"
"222002","659-BX","2018/10/12 18:19:22","新北市深坑區文化街17巷7弄18號","121.620945","25.000235","6501800","深坑區"
"231059","001-UM","2018/10/12 18:19:22","新北市新店區安華路28-1號","121.519531666667","24.960855","6500600","新店區"
"231041","002-UM","2018/10/12 18:19:27","新北市新店區安華路28-1號","121.519676666667","24.9608","6500600","新店區"
"231040","047-UY","2018/10/12 18:19:27","新北市新店區安一路一段1-1號","121.519173333333","24.9610483333333","6500600","新店區"
"231044","106-UY","2018/10/12 18:19:41","新北市新店區安華路28-1號","121.5196","24.9608133333333","6500600","新店區"
"231046","107-UY","2018/10/12 18:19:26","新北市新店區直潭七街60號","121.53224","24.9398366666667","6500600","新店區"
"231048","187-VK","2018/10/12 18:19:31","新北市新店區安一路一段1-1號","121.519613333333","24.9613083333333","6500600","新店區"
"231062","188-VK","2018/10/12 18:19:33","新北市新店區安一路一段1-1號","121.519145","24.9614716666667","6500600","新店區"
"231053","189-VK","2018/10/12 18:19:22","新北市新店區安康路一段61號","121.530543333333","24.9610283333333","6500600","新店區"
"231054","KEA-2219","2018/10/12 18:19:44","新北市新店區安一路一段1-1號","121.519861666667","24.9612116666667","6500600","新店區"
"231057","256-BX","2018/10/12 18:19:24","新北市新店區安一路一段1-1號","121.51968","24.9611133333333","6500600","新店區"
"231042","268-BY","2018/10/12 18:19:39","新北市新店區安華路28-1號","121.51946","24.960695","6500600","新店區"
"231051","278-BY","2018/10/12 18:19:22","新北市新店區安一路一段1-1號","121.519506666667","24.9611766666667","6500600","新店區"
"231050","AAD-862","2018/10/12 18:19:30","新北市新店區安一路一段1-1號","121.519856666667","24.9611633333333","6500600","新店區"
"231061","355-BY","2018/10/12 18:19:29","新北市新店區安華路28-1號","121.519126666667","24.96096","6500600","新店區"
"231058","3713-VJ","2018/10/12 18:19:24","新北市新店區環河路29巷1號","121.537083333333","24.9611","6500600","新店區"
"231056","4715-K9","2018/10/12 18:19:27","新北市新店區中正路438號","121.534131666667","24.9782683333333","6500600","新店區"
"231067","4772-VM","2018/10/12 18:19:21","新北市新店區安華路28-1號","121.51919","24.9605833333333","6500600","新店區"
"231049","513-UM","2018/10/12 18:19:42","新北市新店區安一路一段1-1號","121.519623333333","24.9610733333333","6500600","新店區"
"231063","616-UM","2018/10/12 18:19:38","新北市新店區安華路28-1號","121.519478333333","24.9606016666667","6500600","新店區"
"231045","617-UM","2018/10/12 18:19:36","新北市新店區安一路一段1-1號","121.519406666667","24.9611233333333","6500600","新店區"
"231064","719-UM","2018/10/12 18:19:31","新北市新店區安一路一段1-1號","121.519498333333","24.9614383333333","6500600","新店區"
"231060","897-TW","2018/10/12 18:19:38","新北市新店區安華路28-1號","121.519693333333","24.9608066666667","6500600","新店區"
"231043","899-TW","2018/10/12 18:19:25","新北市新店區安華路28-1號","121.519093333333","24.9608733333333","6500600","新店區"
"231055","AKT-0513","2018/10/12 18:19:40","新北市新店區北新路一段98號","121.542005","24.9689633333333","6500600","新店區"
"241030","480-VK","2018/10/12 18:19:39","新北市三重區中正南路269號","121.493143333333","25.0522633333333","6500200","三重區"
"241024","887-TS","2018/10/12 18:19:36","新北市三重區忠孝路三段125-1號","121.479841666667","25.063375","6500200","三重區"
"241033","AAC-255","2018/10/12 18:19:31","新北市三重區中興北街42巷13號","121.468986666667","25.0493966666667","6500200","三重區"
"235066","003-UY","2018/10/12 18:19:30","新北市中和區中山路二段144號","121.50196","25.00302","6500300","中和區"
"235064","005-UY","2018/10/12 18:19:19","新北市中和區中正路160號","121.498521666667","24.993915","6500300","中和區"
"235063","006-UY","2018/10/12 18:19:31","新北市中和區中正路571巷2弄11號","121.486128333333","24.99376","6500300","中和區"
"235056","096-UM","2018/10/12 18:19:25","新北市板橋區民生路一段10號","121.478375","25.0112433333333","6500300","中和區"
"235039","097-UM","2018/10/12 18:19:23","新北市中和區中正路13號","121.502983333333","24.99333","6500300","中和區"
"235065","098-UM","2018/10/12 18:19:39","新北市中和區莊敬路49巷18號","121.501733333333","25.0060883333333","6500300","中和區"
"235040","150-BY","2018/10/12 18:19:32","新北市中和區中正路13號","121.50303","24.9933683333333","6500300","中和區"
"235058","151-BY","2018/10/12 18:19:22","新北市中和區圓通路369巷35號","121.488911666667","24.9870416666667","6500300","中和區"
"235055","183-VK","2018/10/12 18:19:38","新北市中和區員山路72-2號","121.481135","24.9936066666667","6500300","中和區"
"235038","185-VK","2018/10/12 18:19:42","新北市中和區自立路46號","121.523045","24.99237","6500300","中和區"
"235067","255-BX","2018/10/12 18:19:28","新北市中和區和城路一段271巷1號","121.485701666667","24.991775","6500300","中和區"
"235072","301-VK","2018/10/12 18:19:29","新北市中和區連城路301號","121.489846666667","24.996055","6500300","中和區"
"235043","352-BY","2018/10/12 18:19:29","新北市中和區中正路21號","121.502756666667","24.9933783333333","6500300","中和區"
"235042","KEA-2878","2018/10/12 18:19:37","新北市中和區大仁街20巷25弄25號","121.518943333333","24.99363","6500300","中和區"
"235050","4979-A6","2018/10/12 18:19:28","新北市中和區捷運路3號","121.50942","24.9894833333333","6500300","中和區"
"235069","4980-A6","2018/10/12 18:19:35","新北市中和區連勝街59號","121.497595","24.9969683333333","6500300","中和區"
"235070","558-UM","2018/10/12 18:19:40","新北市中和區圓通路118號","121.499198333333","24.99617","6500300","中和區"
"235045","565-BX","2018/10/12 18:19:20","新北市中和區景安路200巷4弄1號","121.503485","24.9916666666667","6500300","中和區"
"235054","640-BX","2018/10/12 18:19:35","新北市土城區延壽路77巷2號","121.469175","24.992655","6500300","中和區"
"235047","732-UM","2018/10/12 18:19:34","新北市中和區復興路261號","121.50282","24.99036","6500300","中和區"
"235046","733-UM","2018/10/12 18:19:22","新北市中和區中正路637巷52弄1號","121.485448333333","24.993575","6500300","中和區"
"235062","800-TS","2018/10/12 18:19:39","新北市中和區橋和路120-1號","121.49258","25.0059116666667","6500300","中和區"
"235057","801-TS","2018/10/12 18:19:35","新北市中和區民享街97巷10號","121.475193333333","24.99956","6500300","中和區"
"235041","802-TS","2018/10/12 18:19:38","新北市中和區中正路395號","121.490015","24.993575","6500300","中和區"
"235052","805-TS","2018/10/12 18:19:38","新北市中和區興南路二段133號","121.50524","24.9842133333333","6500300","中和區"
"235048","896-TW","2018/10/12 18:19:34","新北市中和區中正路395號","121.489883333333","24.9935533333333","6500300","中和區"
"235053","900-TW","2018/10/12 18:19:31","新北市中和區連城路469巷79弄18號","121.48392","24.9936866666667","6500300","中和區"
"235060","911-UM","2018/10/12 18:19:30","新北市中和區員山路111號","121.480791666667","24.9948483333333","6500300","中和區"
"235051","157-BY","2018/10/12 18:19:32","新北市中和區興南路二段130號","121.504243333333","24.9835316666667","6500300","中和區"
"235037","AAC-213","2018/10/12 18:19:39","新北市中和區景德街52號","121.517573333333","24.9914966666667","6500300","中和區"
"220104","015-TV","2018/10/12 18:19:35","新北市板橋區華東街1-10號","121.448306666667","24.9949666666667","6500100","板橋區"
"226004","205-ST","2018/10/12 18:19:37","新北市平溪區薯榔里一坑路67號","121.713086666667","25.022415","6502400","平溪區"
"228002","663-BX","2018/10/12 18:19:43","新北市貢寮區福連里福興街39-1號","121.991788333333","25.012145","6502600","貢寮區"
"228001","670-TC","2018/10/12 18:19:39","新北市貢寮區真理里新港街26巷55弄2-1號","121.927413333333","25.052865","6502600","貢寮區"
"228003","828-UM","2018/10/12 18:19:30","新北市貢寮區真理里美艷山街63號","121.921176666667","25.07194","6502600","貢寮區"
"224006","676-BX","2018/10/12 18:19:32","新北市瑞芳區中正路2號","121.80932","25.1071016666667","6501200","瑞芳區"
"224002","639-TC","2018/10/12 18:19:30","新北市瑞芳區三爪子坑路149巷32號","121.811773333333","25.1066733333333","6501200","瑞芳區"
"224008","285-BY","2018/10/12 18:19:37","新北市瑞芳區逢甲路118號","121.809","25.1089333333333","6501200","瑞芳區"
"224007","275-VK","2018/10/12 18:19:35","新北市瑞芳區大埔路台北新城14號","121.764871666667","25.100835","6501200","瑞芳區"
"224009","273-VK","2018/10/12 18:19:42","新北市瑞芳區祈堂路239號","121.856246666667","25.1090433333333","6501200","瑞芳區"
"224005","271-BY","2018/10/12 18:19:24","新北市瑞芳區台電新村26-1號","121.8138","25.1292933333333","6501200","瑞芳區"
"227003","642-TC","2018/10/12 18:19:28","新北市雙溪區共和里中山路2號","121.863788333333","25.0337883333333","6502500","雙溪區"
"227011","400-TW","2018/10/12 18:19:38","新北市雙溪區牡丹里牡丹73號","121.851711666667","25.0593583333333","6502500","雙溪區"
"253006","032-BX","2018/10/12 18:19:25","新北市石門區老梅路41號","121.545105","25.2894016666667","6502200","石門區"
"253005","295-VK","2018/10/12 18:19:38","新北市石門區中央路4-1號","121.565373333333","25.2912683333333","6502200","石門區"
"222001","KEA-2212","2018/10/12 18:19:31","新北市深坑區北深路二段66號","121.618946666667","25.0041433333333","6501800","深坑區"
"208002","KEA-2872","2018/10/12 18:19:41","新北市金山區磺清路135號","121.639366666667","25.22733","6502700","金山區"
"208003","665-BX","2018/10/12 18:19:22","新北市金山區中山路16號","121.641556666667","25.2177366666667","6502700","金山區"
"208001","761-BX","2018/10/12 18:19:34","新北市金山區自強路24號","121.640361666667","25.21658","6502700","金山區"
"251005","010-UM","2018/10/12 18:19:27","新北市淡水區水源街一段122巷40號","121.44697","25.1705433333333","6501000","淡水區"
"251008","KEA-2871","2018/10/12 18:19:37","新北市淡水區淡金路12-3號","121.45825","25.16036","6501000","淡水區"
"251010","413-VK","2018/10/12 18:19:22","新北市淡水區淡海路188號","121.420378333333","25.18504","6501000","淡水區"
"251012","441-VK","2018/10/12 18:19:32","新北市淡水區北新路二段77-5號","121.48052","25.1855383333333","6501000","淡水區"
"251004","443-VK","2018/10/12 18:19:37","新北市淡水區民族路31巷32號","121.462481666667","25.1366566666667","6501000","淡水區"
"251001","559-UM","2018/10/12 18:19:28","新北市淡水區自強路110-6號","121.46164","25.1314","6501000","淡水區"
"251006","561-UM","2018/10/12 18:19:32","新北市淡水區新民街38號","121.43946","25.17634","6501000","淡水區"
"251007","577-R6","2018/10/12 18:19:40","新北市淡水區中正東路二段143巷2弄1號","121.46062","25.1472816666667","6501000","淡水區"
"251011","650-BX","2018/10/12 18:19:36","新北市淡水區淡金路33-8號","121.457165","25.1621583333333","6501000","淡水區"
"251002","672-BX","2018/10/12 18:19:29","新北市淡水區中正東路一段59號","121.452575","25.1624266666667","6501000","淡水區"
"251003","673-BX","2018/10/12 18:19:25","新北市淡水區北新路186-3號","121.449565","25.178775","6501000","淡水區"
"207003","550-UM","2018/10/12 18:19:37","新北市萬里區野柳里港東路6號","121.686493333333","25.2031233333333","6502800","萬里區"
"207004","225-TW","2018/10/12 18:19:26","新北市萬里區中幅里中福路131-4號","121.674818333333","25.1654666666667","6502800","萬里區"
"252002","178-VK","2018/10/12 18:19:35","新北市三芝區中山路二段39號","121.502913333333","25.2550783333333","6502100","三芝區"
"252003","249-BX","2018/10/12 18:19:27","新北市三芝區錫板里南勢崗2號","121.481183333333","25.263425","6502100","三芝區"
"252001","292-VK","2018/10/12 18:19:29","新北市三芝區中興街二段2號","121.498415","25.2566333333333","6502100","三芝區"
"237004","KEA-2597","2018/10/12 18:19:27","新北市三峽區五寮80號","121.366956666667","24.8646516666667","6500900","三峽區"
"237007","153-BY","2018/10/12 18:19:24","新北市三峽區中正路二段582號","121.359325","24.9058716666667","6500900","三峽區"
"237009","210-TH","2018/10/12 18:19:41","新北市三峽區大勇路36巷46號","121.365326666667","24.93708","6500900","三峽區"
"237013","252-BX","2018/10/12 18:19:41","新北市三峽區永安街53號","121.375948333333","24.9299866666667","6500900","三峽區"
"237012","275-BY","2018/10/12 18:19:37","新北市三峽區民生街1巷3-5號","121.377025","24.9364316666667","6500900","三峽區"
"237008","302-VK","2018/10/12 18:19:23","新北市三峽區白雞68-85號","121.392581666667","24.9086416666667","6500900","三峽區"
"237014","433-BY","2018/10/12 18:19:22","新北市三峽區復興路78號","121.37322","24.9373716666667","6500900","三峽區"
"237006","5529-G3","2018/10/12 18:19:34","新北市三峽區介壽路二段167號","121.394735","24.935935","6500900","三峽區"
"237011","KEA-2596","2018/10/12 18:19:32","新北市三峽區溪東路57號","121.400843333333","24.93479","6500900","三峽區"
"237015","649-BX","2018/10/12 18:19:39","新北市三峽區紫微南路11號","121.425458333333","24.9214533333333","6500900","三峽區"
"237010","706-TV","2018/10/12 18:19:37","新北市三峽區復興路489號","121.36126","24.93844","6500900","三峽區"
"237005","AKY-6261","2018/10/12 18:19:38","新北市三峽區秀川街72號","121.370968333333","24.9338816666667","6500900","三峽區"
"236069","105-UM","2018/10/12 18:19:22","新北市土城區永豐路149-1號","121.467218333333","24.9826483333333","6501300","土城區"
"236042","107-UM","2018/10/12 18:19:36","新北市土城區裕生路21巷2弄32號","121.44788","24.9860833333333","6501300","土城區"
"236079","166-UM","2018/10/12 18:19:36","新北市土城區永平街2巷4號","121.427283333333","24.9634016666667","6501300","土城區"
"236030","253-BX","2018/10/12 18:19:33","新北市土城區順風路28號","121.44029","24.9769666666667","6501300","土城區"
"236026","269-VK","2018/10/12 18:19:23","新北市土城區承天路18號","121.439371666667","24.9634733333333","6501300","土城區"
"236014","270-VK","2018/10/12 18:19:36","新北市土城區青雲路39巷7號","121.460305","24.987525","6501300","土城區"
"236039","271-VK","2018/10/12 18:19:32","新北市土城區青雲路483巷9號","121.45937","24.9735816666667","6501300","土城區"
"236020","401-BY","2018/10/12 18:19:29","新北市土城區金城路二段8-1號","121.448573333333","24.9767983333333","6501300","土城區"
"236055","752-BX","2018/10/12 18:07:02","新北市土城區中華路二段171號","121.438551666667","24.97526","6501300","土城區"
"236059","912-UM","2018/10/12 18:19:32","新北市土城區中央路四段273-1號","121.412931666667","24.9542633333333","6501300","土城區"
"236048","913-UM","2018/10/12 18:19:39","新北市土城區明德路一段365-1號","121.453988333333","24.97868","6501300","土城區"
"236063","915-UM","2018/10/12 18:19:24","新北市土城區金城路二段236號","121.456681666667","24.9830216666667","6501300","土城區"
"242037","AAC-296","2018/10/12 18:19:39","新北市新莊區後港一路51號","121.425926666667","25.0264833333333","6500500","新莊區"
"242058","986-R7","2018/10/12 18:19:40","新北市新莊區新北大道七段120號","121.417315","25.0320966666667","6500500","新莊區"
"242056","751-BX","2018/10/12 18:19:27","新北市新莊區泰豐街21號","121.44823","25.03188","6500500","新莊區"
"242027","705-TV","2018/10/12 18:19:37","新北市新莊區幸福路728號","121.448953333333","25.0492216666667","6500500","新莊區"
"242025","613-BX","2018/10/12 18:19:35","新北市新莊區五權一路12巷10號","121.457243333333","25.064575","6500500","新莊區"
"242029","612-BX","2018/10/12 18:19:36","新北市泰山區泰林路一段2號","121.441926666667","25.0478566666667","6500500","新莊區"
"242044","566-BX","2018/10/12 18:19:43","新北市新莊區天泉二街22巷2號","121.414961666667","25.0250416666667","6500500","新莊區"
"242015","442-UM","2018/10/12 18:19:28","新北市新莊區中平路110巷19號","121.446275","25.0461666666667","6500500","新莊區"
"242054","441-UM","2018/10/12 18:19:29","新北市新莊區民安西路392-7號","121.428591666667","25.0097516666667","6500500","新莊區"
"242009","413-TV","2018/10/12 18:19:24","新北市新莊區中華路二段254號","121.452698333333","25.05314","6500500","新莊區"
"242046","400-BY","2018/10/12 18:19:33","新北市新莊區福營路227巷8號","121.430101666667","25.0294616666667","6500500","新莊區"
"242060","353-BY","2018/10/12 18:19:37","新北市新莊區新樹路132號","121.435681666667","25.0236416666667","6500500","新莊區"
"242011","132-UY","2018/10/12 18:19:36","新北市新莊區中港路591巷20號","121.450041666667","25.0524583333333","6500500","新莊區"
"242041","133-UY","2018/10/12 18:19:30","新北市新莊區中正路614巷2弄1號","121.426056666667","25.030325","6500500","新莊區"
"242050","172-VK","2018/10/12 18:19:35","新北市新莊區民安西路64號","121.427316666667","25.0202366666667","6500500","新莊區"
"242002","347-TH","2018/10/12 18:19:34","新北市新莊區碧江街27號","121.453776666667","25.033755","6500500","新莊區"
"242032","348-TH","2018/10/12 18:19:34","新北市新莊區新泰路255巷68號","121.44342","25.0394766666667","6500500","新莊區"
"242005","349-TH","2018/10/12 18:19:27","新北市新莊區新泰路357巷3弄1號","121.44228","25.0414616666667","6500500","新莊區"
"242021","350-TH","2018/10/12 18:19:34","新北市新莊區中正路210號","121.449126666667","25.0354816666667","6500500","新莊區"
"238015","755-BX","2018/10/12 18:19:30","新北市樹林區文化街112巷55號","121.41777","24.991175","6500700","樹林區"
"238023","601-UM","2018/10/12 18:19:22","新北市樹林區忠信街1號","121.409465","25.0150383333333","6500700","樹林區"
"238019","599-UM","2018/10/12 18:19:33","新北市樹林區國凱街136巷25號","121.42372","24.9796566666667","6500700","樹林區"
"238018","571-TV","2018/10/12 18:19:35","新北市樹林區保安街一段18-3號","121.427576666667","24.9935366666667","6500700","樹林區"
"238025","303-VK","2018/10/12 18:19:25","新北市樹林區保安街一段241號","121.42013","24.99657","6500700","樹林區"
"238017","283-BY","2018/10/12 18:19:23","新北市樹林區保安街二段337巷19號","121.411063333333","25.00812","6500700","樹林區"
"238014","282-BY","2018/10/12 18:19:29","新北市樹林區大安路111巷11號","121.422986666667","24.997655","6500700","樹林區"
"238020","268-VK","2018/10/12 18:19:36","新北市樹林區三龍街89號","121.416421666667","25.0184916666667","6500700","樹林區"
"238026","172-UY","2018/10/12 18:19:34","新北市樹林區佳園路一段92號","121.393545","24.9691433333333","6500700","樹林區"
"238016","169-UY","2018/10/12 18:18:47","新北市樹林區文化街23號","121.419216666667","24.9875116666667","6500700","樹林區"
"239007","AAC-297","2018/10/12 18:19:26","新北市鶯歌區尖山埔路165巷3弄1號","121.34628","24.95031","6500800","鶯歌區"
"239006","891-R6","2018/10/12 18:19:35","新北市鶯歌區鶯桃路365巷14號","121.332926666667","24.962855","6500800","鶯歌區"
"239008","527-UM","2018/10/12 18:19:19","新北市鶯歌區國際一路179號","121.336278333333","24.9765583333333","6500800","鶯歌區"
"239005","526-UM","2018/10/12 18:19:30","新北市鶯歌區鶯桃路668巷20號","121.328998333333","24.9698083333333","6500800","鶯歌區"
"239001","417-VK","2018/10/12 18:19:30","新北市鶯歌區國中街197號","121.338243333333","24.9391783333333","6500800","鶯歌區"
"239003","360-BY","2018/10/12 18:19:25","新北市鶯歌區鶯桃路334號","121.334","24.9621433333333","6500800","鶯歌區"
"239002","359-BY","2018/10/12 18:19:31","新北市鶯歌區國慶街184號","121.351353333333","24.952675","6500800","鶯歌區"
"239004","193-VK","2018/10/12 18:19:25","新北市鶯歌區尖山路287號","121.341485","24.9438733333333","6500800","鶯歌區"
"221008","489-VK","2018/10/12 18:19:24","新北市汐止區汐萬路一段333巷23號","121.648111666667","25.07618","6501100","汐止區"
"221036","130-UY","2018/10/12 18:19:35","新北市汐止區長安路136號","121.670878333333","25.0780183333333","6501100","汐止區"
"221015","131-UY","2018/10/12 18:19:40","新北市汐止區鄉長路二段23巷16號","121.667646666667","25.083115","6501100","汐止區"
"221010","269-BY","2018/10/12 18:19:35","新北市汐止區汐萬路35號","121.644223333333","25.0915883333333","6501100","汐止區"
"221012","278-VK","2018/10/12 18:19:37","新北市汐止區保長路35巷12號","121.673025","25.079795","6501100","汐止區"
"221023","279-VK","2018/10/12 18:19:31","新北市汐止區中興路244號","121.629573333333","25.0680883333333","6501100","汐止區"
"221032","280-BY","2018/10/12 18:19:32","新北市汐止區民權街二段109巷12號","121.619481666667","25.0467","6501100","汐止區"
"221027","281-BY","2018/10/12 18:19:20","新北市汐止區和平街25號","121.662701666667","25.0707433333333","6501100","汐止區"
"221029","298-VK","2018/10/12 18:19:28","新北市汐止區樟樹二路330巷68號","121.643011666667","25.0698183333333","6501100","汐止區"
"221021","299-VK","2018/10/12 18:19:27","新北市汐止區連興街120號","121.653673333333","25.0623","6501100","汐止區"
"221031","353-TW","2018/10/12 18:19:39","新北市汐止區中興路29號","121.635068333333","25.0616","6501100","汐止區"
"221035","622-UM","2018/10/12 18:19:29","新北市汐止區大同路二段187巷8弄1號","121.65262","25.065695","6501100","汐止區"
"221025","623-UM","2018/10/12 18:19:23","新北市汐止區勤進路12巷33號","121.659061666667","25.06253","6501100","汐止區"
"221038","646-BX","2018/10/12 18:19:36","新北市汐止區仁愛路180號","121.664856666667","25.0657","6501100","汐止區"
"221033","647-BX","2018/10/12 18:19:32","新北市汐止區宜興街79巷2號","121.623423333333","25.0436383333333","6501100","汐止區"
"221002","707-TV","2018/10/12 18:19:24","新北市汐止區福德一路213巷35號","121.635775","25.06477","6501100","汐止區"
"221018","753-BX","2018/10/12 18:19:27","新北市汐止區茄苳路118號","121.668041666667","25.070305","6501100","汐止區"
"242039","281-VK","2018/10/12 18:19:28","新北市新莊區民安東路185號","121.433036666667","25.02047","6500500","新莊區"
"220062","305-R5","2018/10/12 18:19:29","新北市板橋區民生路二段120號","121.470408333333","25.0197016666667","6500100","板橋區"
"235068","KEA-2873","2018/10/12 18:19:16","新北市中和區員山路36巷16-3號","121.4851","24.9911783333333","6500300","中和區"
"235061","KEA-2875","2018/10/12 18:19:40","新北市中和區國光街215巷24弄1號","121.466963333333","25.0004216666667","6500300","中和區"
