"lineid","car","time","location","longitude","latitude","cityid","cityname"
"234046","148-BY","2018/10/12 18:59:32","新北市永和區得和路373巷14號","121.525065","25.000275","6500400","永和區"
"234007","207-UY","2018/10/12 18:59:39","新北市永和區永和路二段70號","121.514895","25.011225","6500400","永和區"
"234081","298-R6","2018/10/12 18:59:24","新北市永和區國中路208號","121.522126666667","25.005845","6500400","永和區"
"234038","336-UY","2018/10/12 18:59:43","新北市永和區成功路二段203號","121.526655","24.9960466666667","6500400","永和區"
"234064","337-UY","2018/10/12 18:59:37","新北市永和區秀朗路一段140號","121.518135","25.003465","6500400","永和區"
"234086","338-UY","2018/10/12 18:59:40","新北市永和區中正路159號","121.516466666667","24.9984016666667","6500400","永和區"
"234070","552-UM","2018/10/12 18:59:29","新北市永和區中興街68巷5弄1號","121.517705","25.01148","6500400","永和區"
"234017","745-BX","2018/10/12 18:59:37","新北市永和區永和路二段299號","121.516081666667","25.0161683333333","6500400","永和區"
"234030","746-BX","2018/10/12 18:59:29","新北市永和區四維街69號","121.525606666667","24.9979616666667","6500400","永和區"
"234054","KEA-2590","2018/10/12 18:59:26","新北市永和區竹林路66巷2號","121.518328333333","25.01336","6500400","永和區"
"234013","KEA-2591","2018/10/12 18:59:38","新北市永和區中山路一段60巷14號","121.513308333333","25.011125","6500400","永和區"
"234061","AAD-866","2018/10/12 18:59:31","新北市永和區福和路309巷3號","121.516368333333","25.0069283333333","6500400","永和區"
"234042","862-TW","2018/10/12 18:59:33","新北市永和區永貞路308號","121.511838333333","25.0048483333333","6500400","永和區"
"234050","863-TW","2018/10/12 18:59:35","新北市永和區文化路210號","121.510223333333","25.0167283333333","6500400","永和區"
"234026","9371-KE","2018/10/12 18:59:40","新北市永和區安樂路451號","121.514348333333","25.0049916666667","6500400","永和區"
"234011","9373-KE","2018/10/12 18:59:34","新北市永和區仁愛路111號","121.512313333333","25.0131333333333","6500400","永和區"
"249005","172-UM","2018/10/12 18:59:39","新北市八里區長道坑2號","121.393543333333","25.124745","6502300","八里區"
"249001","173-UM","2018/10/12 18:59:23","新北市八里區龍米路二段3號","121.44891","25.139225","6502300","八里區"
"248016","026-BX","2018/10/12 18:59:34","新北市五股區成泰路三段543巷18號","121.450898333333","25.10221","6501500","五股區"
"248006","077-UY","2018/10/12 18:59:38","新北市五股區中興路一段77號","121.467226666667","25.0726166666667","6501500","五股區"
"248008","095-VK","2018/10/12 18:59:27","新北市五股區中興路一段118巷6弄2號","121.46624","25.0739166666667","6501500","五股區"
"248018","225-UY","2018/10/12 18:59:31","新北市五股區民義路二段18-1號","121.420473333333","25.0966233333333","6501500","五股區"
"248012","655-BX","2018/10/12 18:59:33","新北市五股區工商路18巷23弄8號","121.44024","25.0841766666667","6501500","五股區"
"248004","677-BX","2018/10/12 18:59:31","新北市五股區民義路二段93-5號","121.407435","25.106505","6501500","五股區"
"248002","678-BX","2018/10/12 18:59:34","新北市五股區成泰路三段454號","121.451398333333","25.10036","6501500","五股區"
"248010","682-TV","2018/10/12 18:59:29","新北市五股區水碓九路20號","121.427893333333","25.0717266666667","6501500","五股區"
"234023","9380-KE","2018/10/12 18:59:24","新北市永和區竹林路75巷15-2號","121.51968","25.0137133333333","6500400","永和區"
"234077","969-R7","2018/10/12 18:59:35","新北市永和區智光街22號","121.517863333333","24.9992966666667","6500400","永和區"
"234074","AAC-211","2018/10/12 18:59:29","新北市永和區環河東路二段98號","121.524106666667","25.0103333333333","6500400","永和區"
"234067","AAC-212","2018/10/12 18:59:33","新北市永和區中和路625號","121.512943333333","25.0048666666667","6500400","永和區"
"234003","AAC-295","2018/10/12 18:59:35","新北市永和區和平街32號","121.513226666667","25.0100216666667","6500400","永和區"
"244023","069-UM","2018/10/12 18:59:39","新北市林口區民權路12巷5號","121.371698333333","25.079795","6501700","林口區"
"244019","403-UM","2018/10/12 18:59:39","新北市林口區麗園二街10-5號","121.37808","25.069515","6501700","林口區"
"244013","KEA-2802","2018/10/12 18:59:34","新北市林口區麗園二街1巷3-2號","121.377226666667","25.0703666666667","6501700","林口區"
"244017","485-VK","2018/10/12 18:59:21","新北市林口區文化二路一段68巷18-2號","121.366096666667","25.0677533333333","6501700","林口區"
"244009","656-BX","2018/10/12 18:59:39","新北市林口區林口路83-1號","121.389601666667","25.0799366666667","6501700","林口區"
"244011","701-TV","2018/10/12 18:59:31","新北市林口區仁愛路一段285巷110號","121.39508","25.0755866666667","6501700","林口區"
"244025","837-TS","2018/10/12 18:59:24","新北市林口區文化北路一段370號","121.362005","25.0748533333333","6501700","林口區"
"243013","AAD-798","2018/10/12 18:59:42","新北市泰山區明志路三段249號","121.423375","25.03749","6501600","泰山區"
"243009","297-R6","2018/10/12 18:59:31","新北市泰山區泰林路二段347號","121.428861666667","25.06353","6501600","泰山區"
"243015","421-VK","2018/10/12 18:59:36","新北市泰山區泰林路二段248號","121.432023333333","25.0622033333333","6501600","泰山區"
"243011","KEA-2215","2018/10/12 18:59:22","新北市泰山區明志路二段247號","121.427131666667","25.0478916666667","6501600","泰山區"
"243010","KEA-2216","2018/10/12 18:59:39","新北市泰山區明志路一段493-1號","121.430655","25.05499","6501600","泰山區"
"243012","646-TV","2018/10/12 18:59:25","新北市泰山區福興三街170號","121.432341666667","25.0570083333333","6501600","泰山區"
"243014","680-BX","2018/10/12 18:59:32","新北市泰山區黎明路17號","121.420838333333","25.0629016666667","6501600","泰山區"
"222003","436-BY","2018/10/12 18:59:39","新北市深坑區深南路51-1號","121.621386666667","25.0100733333333","6501800","深坑區"
"222002","659-BX","2018/10/12 18:59:42","新北市深坑區文山路一段33號","121.62994","25.0043083333333","6501800","深坑區"
"231059","001-UM","2018/10/12 18:59:42","新北市新店區安華路28-1號","121.519571666667","24.9609216666667","6500600","新店區"
"231041","002-UM","2018/10/12 18:59:27","新北市新店區環河路62號","121.536945","24.9626733333333","6500600","新店區"
"231066","0291-UT","2018/10/12 18:59:37","新北市新店區安豐路30-1號","121.500886666667","24.956755","6500600","新店區"
"231040","047-UY","2018/10/12 18:59:26","新北市新店區中央路23號","121.533008333333","24.9781133333333","6500600","新店區"
"231044","106-UY","2018/10/12 18:59:41","新北市新店區寶中路72號","121.547871666667","24.9806033333333","6500600","新店區"
"231046","107-UY","2018/10/12 18:59:27","新北市新店區直潭五街28號","121.534168333333","24.9414133333333","6500600","新店區"
"231048","187-VK","2018/10/12 18:59:31","新北市新店區德正街23巷12-1號","121.544648333333","24.9722016666667","6500600","新店區"
"231062","188-VK","2018/10/12 18:59:33","新北市新店區吉安街39號","121.515411666667","24.9661283333333","6500600","新店區"
"231053","189-VK","2018/10/12 18:59:42","新北市新店區櫻花街120號","121.54731","24.9228266666667","6500600","新店區"
"231054","KEA-2219","2018/10/12 18:59:24","新北市新店區新店路13號","121.540293333333","24.9528333333333","6500600","新店區"
"231042","268-BY","2018/10/12 18:59:39","新北市新店區中興路一段292號","121.545883333333","24.9691816666667","6500600","新店區"
"231051","278-BY","2018/10/12 18:59:22","新北市新店區百忍街10巷9號","121.534441666667","24.975825","6500600","新店區"
"231050","AAD-862","2018/10/12 18:59:30","新北市新店區北宜路二段30巷5弄2號","121.548056666667","24.9508416666667","6500600","新店區"
"231061","355-BY","2018/10/12 18:59:29","新北市新店區安華路28-1號","121.519201666667","24.9609133333333","6500600","新店區"
"231058","3713-VJ","2018/10/12 18:59:24","新北市新店區光明街94號","121.538935","24.9603333333333","6500600","新店區"
"231056","4715-K9","2018/10/12 18:59:27","新北市新店區建國路218號","121.537853333333","24.9810783333333","6500600","新店區"
"231067","4772-VM","2018/10/12 18:59:41","新北市新店區安康路一段74號","121.528348333333","24.9619916666667","6500600","新店區"
"231065","512-UM","2018/10/12 18:59:39","新北市新店區建業路20號","121.481798333333","24.9534016666667","6500600","新店區"
"231049","513-UM","2018/10/12 18:59:35","新北市新店區中正路454-5號","121.534521666667","24.9789933333333","6500600","新店區"
"231063","616-UM","2018/10/12 18:59:38","新北市新店區安華路30巷1號","121.519475","24.9598183333333","6500600","新店區"
"231045","617-UM","2018/10/12 18:59:36","新北市新店區北新路一段2-19號","121.538595","24.9600316666667","6500600","新店區"
"231064","719-UM","2018/10/12 18:59:30","新北市新店區安一路一段1-1號","121.519526666667","24.9613616666667","6500600","新店區"
"231060","897-TW","2018/10/12 18:59:38","新北市新店區安華路30巷12-1號","121.518413333333","24.9580183333333","6500600","新店區"
"231043","899-TW","2018/10/12 18:59:25","新北市新店區中正路111號","121.542506666667","24.97053","6500600","新店區"
"231055","AKT-0513","2018/10/12 18:59:40","新北市新店區環河路116號","121.537173333333","24.9669716666667","6500600","新店區"
"241026","066-VK","2018/10/12 18:59:26","新北市三重區泉州街106號","121.494903333333","25.05371","6500200","三重區"
"241009","265-UM","2018/10/12 18:59:35","新北市三重區仁愛街578號","121.484863333333","25.081305","6500200","三重區"
"241035","KEA-2210","2018/10/12 18:59:28","新北市三重區新北大道一段7號","121.489943333333","25.06109","6500200","三重區"
"241030","480-VK","2018/10/12 18:59:39","新北市三重區中正南路269號","121.493201666667","25.0522333333333","6500200","三重區"
"235066","003-UY","2018/10/12 18:59:29","新北市中和區水源路6巷20號","121.503168333333","25.0031883333333","6500300","中和區"
"235064","005-UY","2018/10/12 18:59:40","新北市中和區泰和街23號","121.49941","25.0001716666667","6500300","中和區"
"235063","006-UY","2018/10/12 18:59:31","新北市中和區錦和路99號","121.49004","24.9954733333333","6500300","中和區"
"235056","096-UM","2018/10/12 18:59:25","新北市中和區新民街12-3號","121.481943333333","25.0072783333333","6500300","中和區"
"235039","097-UM","2018/10/12 18:59:23","新北市永和區中正路129巷2-1號","121.515811666667","24.9980416666667","6500300","中和區"
"235065","098-UM","2018/10/12 18:59:39","新北市中和區福祥路136號","121.498838333333","25.0068716666667","6500300","中和區"
"235040","150-BY","2018/10/12 18:59:32","新北市中和區宜安路1巷16號","121.512878333333","24.994775","6500300","中和區"
"235058","151-BY","2018/10/12 18:59:21","新北市中和區連城路571-1號","121.479305","24.994425","6500300","中和區"
"235055","183-VK","2018/10/12 18:59:38","新北市中和區民德路23號","121.468823333333","25.0027183333333","6500300","中和區"
"235038","185-VK","2018/10/12 18:59:22","新北市中和區立人街16號","121.519236666667","24.9941966666667","6500300","中和區"
"235049","186-VK","2018/10/12 18:59:22","新北市中和區景安路167巷11號","121.505971666667","24.994715","6500300","中和區"
"235067","255-BX","2018/10/12 18:59:28","新北市中和區新生街187號","121.483708333333","25.0003633333333","6500300","中和區"
"235044","293-VK","2018/10/12 18:59:35","新北市中和區中興街161巷3弄2號","121.500655","24.99092","6500300","中和區"
"235072","301-VK","2018/10/12 18:59:29","新北市中和區永和路76號","121.497745","25.0050683333333","6500300","中和區"
"235043","352-BY","2018/10/12 18:59:29","新北市中和區成功路56號","121.526061666667","24.9922783333333","6500300","中和區"
"235042","KEA-2878","2018/10/12 18:59:37","新北市中和區秀朗路三段22巷20號","121.525453333333","24.9961666666667","6500300","中和區"
"235050","4979-A6","2018/10/12 18:59:28","新北市中和區華新街50巷10號","121.507626666667","24.983945","6500300","中和區"
"235069","4980-A6","2018/10/12 18:59:35","新北市中和區南山路52巷32號","121.501006666667","24.9972983333333","6500300","中和區"
"235070","558-UM","2018/10/12 18:59:40","新北市中和區安和路159號","121.506205","24.9974333333333","6500300","中和區"
"235045","565-BX","2018/10/12 18:59:40","新北市中和區景新街467巷20弄84號","121.51447","24.9875683333333","6500300","中和區"
"235054","640-BX","2018/10/12 18:59:35","新北市中和區民享街2號","121.473933333333","25.005395","6500300","中和區"
"235047","732-UM","2018/10/12 18:59:34","新北市中和區興南路二段54巷2-8號","121.506006666667","24.985625","6500300","中和區"
"235046","733-UM","2018/10/12 18:59:22","新北市中和區興南路一段135巷22弄12號","121.509045","24.9867966666667","6500300","中和區"
"235071","783-BX","2018/10/12 18:59:24","新北市中和區員山路36巷16-3號","121.485218333333","24.99112","6500300","中和區"
"235062","800-TS","2018/10/12 18:59:38","新北市中和區中山路二段356號","121.49278","25.003","6500300","中和區"
"235057","801-TS","2018/10/12 18:59:34","新北市中和區民利街69號","121.478758333333","24.9983883333333","6500300","中和區"
"235041","802-TS","2018/10/12 18:59:38","新北市中和區宜安路102號","121.510458333333","24.9978883333333","6500300","中和區"
"235052","805-TS","2018/10/12 18:59:38","新北市中和區興南路二段136號","121.504165","24.98331","6500300","中和區"
"235048","896-TW","2018/10/12 18:59:34","新北市中和區華新街89號","121.50851","24.9834083333333","6500300","中和區"
"235053","900-TW","2018/10/12 18:59:35","新北市中和區和平路200巷35弄1號","121.46532","24.9946566666667","6500300","中和區"
"235060","911-UM","2018/10/12 18:59:30","新北市中和區民治街120號","121.475198333333","25.0034016666667","6500300","中和區"
"235051","157-BY","2018/10/12 18:59:32","新北市中和區忠孝街11巷16號","121.509998333333","24.9833833333333","6500300","中和區"
"235037","AAC-213","2018/10/12 18:59:39","新北市中和區自立路17號","121.522185","24.996075","6500300","中和區"
"235059","AAC-215","2018/10/12 18:59:32","新北市中和區圓通路393巷14弄10號","121.489765","24.987965","6500300","中和區"
"220068","013-TV","2018/10/12 18:59:31","新北市板橋區三民路一段31巷42號","121.48113","25.0230416666667","6500100","板橋區"
"220035","015-TV","2018/10/12 18:59:38","新北市板橋區中正路341巷28號","121.454096666667","25.0200383333333","6500100","板橋區"
"220065","072-UY","2018/10/12 18:59:36","新北市板橋區漢生東路324號","121.47175","25.00797","6500100","板橋區"
"220086","073-UY","2018/10/12 18:59:24","新北市板橋區大智街20號","121.455738333333","25.0148833333333","6500100","板橋區"
"220106","075-UY","2018/10/12 18:59:37","新北市板橋區文化路二段124巷28-2號","121.471201666667","25.025635","6500100","板橋區"
"220069","AAD-861","2018/10/12 18:59:30","新北市板橋區大華街110號","121.458831666667","25.005075","6500100","板橋區"
"226004","205-ST","2018/10/12 18:59:26","新北市平溪區平溪里平溪街20號","121.738793333333","25.0251916666667","6502400","平溪區"
"228002","663-BX","2018/10/12 18:59:43","新北市貢寮區福隆里東興街104號","121.945933333333","25.01695","6502600","貢寮區"
"228001","670-TC","2018/10/12 18:59:39","新北市貢寮區仁理村研海街12-1號","121.923825","25.0516816666667","6502600","貢寮區"
"228003","828-UM","2018/10/12 18:59:30","新北市貢寮區和美里龍洞街60號","121.913343333333","25.1152383333333","6502600","貢寮區"
"224010","AGQ-8101","2018/10/12 18:59:38","新北市瑞芳區金光路334號","121.848575","25.1100216666667","6501200","瑞芳區"
"224006","676-BX","2018/10/12 18:59:32","新北市瑞芳區三爪子坑路106巷1-11號","121.807845","25.1051633333333","6501200","瑞芳區"
"224002","639-TC","2018/10/12 18:59:30","新北市平溪區新寮里五分寮10-2號","121.79991","25.074015","6501200","瑞芳區"
"224008","285-BY","2018/10/12 18:59:37","新北市瑞芳區瑞芳街112巷8號","121.801613333333","25.1111633333333","6501200","瑞芳區"
"224007","275-VK","2018/10/12 18:59:35","新北市瑞芳區中央路48巷180號","121.758276666667","25.1031533333333","6501200","瑞芳區"
"224009","273-VK","2018/10/12 18:59:42","新北市瑞芳區洞頂路172號","121.86074","25.1193033333333","6501200","瑞芳區"
"224005","271-BY","2018/10/12 18:59:24","新北市瑞芳區豎崎路32-5號","121.82389","25.1209166666667","6501200","瑞芳區"
"227003","642-TC","2018/10/12 18:59:28","新北市雙溪區平林里康福家園10號","121.858806666667","25.037345","6502500","雙溪區"
"227011","400-TW","2018/10/12 18:59:38","新北市雙溪區牡丹里中正路58巷23號","121.8664","25.0415766666667","6502500","雙溪區"
"253006","032-BX","2018/10/12 18:59:25","新北市石門區八甲4-6號","121.521383333333","25.282305","6502200","石門區"
"253005","295-VK","2018/10/12 18:59:38","新北市石門區中央路37-5號","121.570265","25.29669","6502200","石門區"
"222001","KEA-2212","2018/10/12 18:59:31","新北市深坑區北深路一段288號","121.628426666667","25.0078583333333","6501800","深坑區"
"208002","KEA-2872","2018/10/12 18:59:41","新北市金山區信義路39號","121.635245","25.2195966666667","6502700","金山區"
"208003","665-BX","2018/10/12 18:59:21","新北市金山區中正路73號","121.633703333333","25.2217716666667","6502700","金山區"
"208001","761-BX","2018/10/12 18:59:34","新北市金山區中山路16號","121.641281666667","25.2175633333333","6502700","金山區"
"251010","413-VK","2018/10/12 18:59:42","新北市淡水區沙崙路97號","121.422328333333","25.1823783333333","6501000","淡水區"
"251001","559-UM","2018/10/12 18:59:28","新北市淡水區自強路58號","121.46318","25.1274633333333","6501000","淡水區"
"251009","575-R6","2018/10/12 18:59:39","新北市淡水區重建街87號","121.439755","25.1725383333333","6501000","淡水區"
"251007","577-R6","2018/10/12 18:59:40","新北市淡水區民生路142號","121.464383333333","25.1384466666667","6501000","淡水區"
"251011","650-BX","2018/10/12 18:59:36","新北市淡水區八勢路50巷21弄7號","121.462403333333","25.15012","6501000","淡水區"
"251002","672-BX","2018/10/12 18:59:29","新北市淡水區中正東路71號","121.447433333333","25.16774","6501000","淡水區"
"251003","673-BX","2018/10/12 18:59:25","新北市淡水區中山北路一段149巷27號","121.442973333333","25.1778983333333","6501000","淡水區"
"207003","550-UM","2018/10/12 18:59:37","新北市萬里區大鵬里頂社29號","121.656568333333","25.21078","6502800","萬里區"
"207004","225-TW","2018/10/12 18:59:25","新北市萬里區萬里里獅頭路23號","121.693303333333","25.1782316666667","6502800","萬里區"
"252002","178-VK","2018/10/12 18:59:35","新北市三芝區中正路一段52號","121.503611666667","25.2581316666667","6502100","三芝區"
"252003","249-BX","2018/10/12 18:59:27","新北市三芝區後厝里北勢子20-2號","121.473743333333","25.2539733333333","6502100","三芝區"
"252001","292-VK","2018/10/12 18:59:29","新北市三芝區中興街二段260號","121.501755","25.2530466666667","6502100","三芝區"
"237004","KEA-2597","2018/10/12 18:59:27","新北市三峽區有木206號","121.43925","24.8519716666667","6500900","三峽區"
"237007","153-BY","2018/10/12 18:59:24","新北市三峽區中正路二段37號","121.366863333333","24.9188433333333","6500900","三峽區"
"237013","252-BX","2018/10/12 18:59:21","新北市三峽區光明路69巷25號","121.3766","24.9292583333333","6500900","三峽區"
"237012","275-BY","2018/10/12 18:59:37","新北市三峽區三樹路222巷236弄2號","121.390468333333","24.943245","6500900","三峽區"
"237008","302-VK","2018/10/12 18:59:36","新北市三峽區中正路一段201號","121.372336666667","24.9276566666667","6500900","三峽區"
"237014","433-BY","2018/10/12 18:59:22","新北市三峽區隆恩街169號","121.36183","24.9425916666667","6500900","三峽區"
"237006","5529-G3","2018/10/12 18:59:34","新北市三峽區溪東路233巷47弄2號","121.410611666667","24.9346283333333","6500900","三峽區"
"237011","KEA-2596","2018/10/12 18:59:32","新北市三峽區介壽路三段245號","121.407953333333","24.9495233333333","6500900","三峽區"
"237015","649-BX","2018/10/12 18:59:19","新北市三峽區建安113號","121.460865","24.9195366666667","6500900","三峽區"
"237010","706-TV","2018/10/12 18:59:37","新北市三峽區國光街54號","121.37449","24.938075","6500900","三峽區"
"237005","AKY-6261","2018/10/12 18:59:38","新北市三峽區中山路459巷163-3號","121.34867","24.9328916666667","6500900","三峽區"
"236069","105-UM","2018/10/12 18:59:40","新北市土城區學士路33巷10號","121.453326666667","24.980825","6501300","土城區"
"236042","107-UM","2018/10/12 18:59:38","新北市土城區學府路一段209巷10號","121.452066666667","24.9840566666667","6501300","土城區"
"236079","166-UM","2018/10/12 18:59:36","新北市土城區中央路四段125巷2弄17-1號","121.416348333333","24.9568266666667","6501300","土城區"
"236026","269-VK","2018/10/12 18:59:26","新北市土城區中正路56巷7號","121.444031666667","24.9749416666667","6501300","土城區"
"236014","270-VK","2018/10/12 18:59:37","新北市土城區延和路7號","121.463775","24.9878583333333","6501300","土城區"
"236039","271-VK","2018/10/12 18:59:12","新北市土城區仁愛路8號","121.460003333333","24.981045","6501300","土城區"
"236020","401-BY","2018/10/12 18:59:32","新北市土城區延吉街168巷1號","121.468215","24.9854816666667","6501300","土城區"
"236055","752-BX","2018/10/12 18:59:22","新北市土城區學成路164號","121.448001666667","24.989175","6501300","土城區"
"236059","912-UM","2018/10/12 18:59:32","新北市土城區金城路二段208號","121.455205","24.9821083333333","6501300","土城區"
"236048","913-UM","2018/10/12 18:59:36","新北市土城區明德路一段375-3號","121.45414","24.978595","6501300","土城區"
"236063","915-UM","2018/10/12 18:59:24","新北市土城區延和路41巷6弄15號","121.466528333333","24.990345","6501300","土城區"
"242058","986-R7","2018/10/12 18:59:40","新北市泰山區中山路六段767-3號","121.428153333333","25.0382183333333","6500500","新莊區"
"242041","133-UY","2018/10/12 18:59:30","新北市新莊區天祥街92巷12號","121.41548","25.0299583333333","6500500","新莊區"
"242005","349-TH","2018/10/12 18:59:27","新北市新莊區三和路12-21號","121.442205","25.0383733333333","6500500","新莊區"
"238023","601-UM","2018/10/12 18:59:29","新北市樹林區大慶街130號","121.3962","25.0135316666667","6500700","樹林區"
"238019","599-UM","2018/10/12 18:59:36","新北市樹林區中華路172號","121.41477","24.9806716666667","6500700","樹林區"
"238022","KEA-2213","2018/10/12 18:59:43","新北市樹林區東興街8-1號","121.409771666667","24.9788783333333","6500700","樹林區"
"238021","KEA-2539","2018/10/12 18:59:37","新北市樹林區柑園街二段328巷6弄29號","121.373261666667","24.9527333333333","6500700","樹林區"
"238025","303-VK","2018/10/12 18:59:25","新北市樹林區中山路三段22號","121.395601666667","24.972945","6500700","樹林區"
"238017","283-BY","2018/10/12 18:59:42","新北市樹林區光興街50號","121.409831666667","25.002755","6500700","樹林區"
"238014","282-BY","2018/10/12 18:59:29","新北市樹林區千歲街61巷10號","121.426025","24.9983233333333","6500700","樹林區"
"238020","268-VK","2018/10/12 18:59:36","新北市樹林區俊英街178號","121.426211666667","25.0075816666667","6500700","樹林區"
"238026","172-UY","2018/10/12 18:59:34","新北市樹林區吉祥街7號","121.392906666667","24.9730566666667","6500700","樹林區"
"238016","169-UY","2018/10/12 18:59:27","新北市樹林區文化街28號","121.419408333333","24.9878166666667","6500700","樹林區"
"239007","AAC-297","2018/10/12 18:59:26","新北市鶯歌區成功街20巷11號","121.358903333333","24.9577633333333","6500800","鶯歌區"
"239006","891-R6","2018/10/12 18:59:35","新北市鶯歌區鶯桃路296巷77號","121.336353333333","24.961405","6500800","鶯歌區"
"239008","527-UM","2018/10/12 18:59:39","新北市鶯歌區晨曦街1號","121.336441666667","24.9760833333333","6500800","鶯歌區"
"239005","526-UM","2018/10/12 18:59:30","新北市鶯歌區永和街249號","121.33667","24.9723166666667","6500800","鶯歌區"
"239001","417-VK","2018/10/12 18:59:29","新北市鶯歌區永明街13號","121.338378333333","24.95527","6500800","鶯歌區"
"239003","360-BY","2018/10/12 18:59:25","新北市鶯歌區鶯桃路421號","121.332676666667","24.96487","6500800","鶯歌區"
"239002","359-BY","2018/10/12 18:59:31","新北市鶯歌區中山路290號","121.343916666667","24.957045","6500800","鶯歌區"
"239004","193-VK","2018/10/12 18:59:24","新北市鶯歌區鶯華新村24號","121.330205","24.934525","6500800","鶯歌區"
"221008","489-VK","2018/10/12 18:59:24","新北市汐止區汐萬路一段312號","121.650606666667","25.0753766666667","6501100","汐止區"
"221036","130-UY","2018/10/12 18:59:35","新北市汐止區汐萬路一段256巷3號","121.652431666667","25.07457","6501100","汐止區"
"221015","131-UY","2018/10/12 18:59:39","新北市汐止區汐萬路一段115巷1號","121.654463333333","25.0705916666667","6501100","汐止區"
"221010","269-BY","2018/10/12 18:59:35","新北市汐止區康寧街901號","121.651426666667","25.07504","6501100","汐止區"
"221012","278-VK","2018/10/12 18:59:36","新北市汐止區康寧街901號","121.650781666667","25.0752816666667","6501100","汐止區"
"221023","279-VK","2018/10/12 18:59:31","新北市汐止區康寧街901號","121.65098","25.0752366666667","6501100","汐止區"
"221032","280-BY","2018/10/12 18:59:32","新北市汐止區橫科路407巷21號","121.625606666667","25.0479216666667","6501100","汐止區"
"221027","281-BY","2018/10/12 18:59:40","新北市汐止區康寧街901號","121.651458333333","25.07497","6501100","汐止區"
"221029","298-VK","2018/10/12 18:59:28","新北市汐止區樟樹一路254號","121.642441666667","25.067265","6501100","汐止區"
"221021","299-VK","2018/10/12 18:59:26","新北市汐止區康寧街901號","121.651563333333","25.075","6501100","汐止區"
"221031","353-TW","2018/10/12 18:59:26","新北市汐止區福德二路156巷27號","121.629881666667","25.0654233333333","6501100","汐止區"
"221035","622-UM","2018/10/12 18:59:29","新北市汐止區汐萬路一段216號","121.651963333333","25.0725566666667","6501100","汐止區"
"221025","623-UM","2018/10/12 18:59:43","新北市汐止區汐萬路一段145號","121.653413333333","25.0711533333333","6501100","汐止區"
"221038","646-BX","2018/10/12 18:59:36","新北市汐止區康寧街901號","121.650726666667","25.0753266666667","6501100","汐止區"
"221002","707-TV","2018/10/12 18:59:24","新北市汐止區大同路一段46號","121.622263333333","25.0548083333333","6501100","汐止區"
"220079","145-BY","2018/10/12 18:59:32","新北市板橋區民權路202巷9弄62號","121.459075","25.0157416666667","6500100","板橋區"
"220080","200-UY","2018/10/12 18:59:38","新北市板橋區大觀路二段153巷46弄42-4號","121.449248333333","25.0004516666667","6500100","板橋區"
"220082","610-BX","2018/10/12 18:59:39","新北市板橋區滿平街95號","121.42818","24.988805","6500100","板橋區"
"220101","245-BX","2018/10/12 18:59:22","新北市板橋區文化路二段182巷3弄2號","121.471468333333","25.0271433333333","6500100","板橋區"
"220056","276-BY","2018/10/12 18:59:27","新北市板橋區信義路165號","121.458725","24.992285","6500100","板橋區"
"220072","277-BY","2018/10/12 18:59:30","新北市樹林區樹新路108號","121.429803333333","24.997885","6500100","板橋區"
"220094","283-UM","2018/10/12 18:59:41","新北市板橋區莒光路9號","121.469781666667","25.0247866666667","6500100","板橋區"
"220071","283-VK","2018/10/12 18:59:28","新北市板橋區重慶路245巷61號","121.465581666667","25.0010116666667","6500100","板橋區"
"220053","285-VK","2018/10/12 18:59:28","新北市板橋區中山路二段89巷45號","121.473578333333","25.0172383333333","6500100","板橋區"
"220083","286-VK","2018/10/12 18:59:28","新北市板橋區僑中二街152號","121.44494","25.004285","6500100","板橋區"
"220081","287-VK","2018/10/12 18:59:34","新北市板橋區光華街28巷1號","121.453863333333","25.0125183333333","6500100","板橋區"
"220090","288-VK","2018/10/12 18:59:41","新北市板橋區民生路三段66-3號","121.46671","25.0256783333333","6500100","板橋區"
"220061","293-UM","2018/10/12 18:59:38","新北市板橋區富山街109巷70號","121.475295","25.0213183333333","6500100","板橋區"
"220084","296-UM","2018/10/12 18:59:41","新北市板橋區龍興街3號","121.442631666667","24.9993533333333","6500100","板橋區"
"220075","303-R5","2018/10/12 18:59:38","新北市板橋區館前西路158-8號","121.454681666667","25.0087516666667","6500100","板橋區"
"220062","305-R5","2018/10/12 18:59:29","新北市板橋區民享街138號","121.477913333333","25.0164083333333","6500100","板橋區"
"220092","307-R5","2018/10/12 18:59:37","新北市板橋區漢生東路63巷1號","121.46604","25.0164633333333","6500100","板橋區"
"220098","317-R6","2018/10/12 18:59:33","新北市板橋區民生路三段64號","121.466955","25.0254533333333","6500100","板橋區"
"220064","486-VK","2018/10/12 18:59:33","新北市板橋區板新路164號","121.47009","25.0156583333333","6500100","板橋區"
"220089","487-VK","2018/10/12 18:59:45","新北市板橋區文化路二段317號","121.472248333333","25.02986","6500100","板橋區"
"220088","491-VK","2018/10/12 18:59:31","新北市板橋區民生路二段228號","121.469061666667","25.021965","6500100","板橋區"
"220103","561-BX","2018/10/12 18:59:38","新北市板橋區介壽街130號","121.470063333333","25.0180683333333","6500100","板橋區"
"220063","609-BX","2018/10/12 18:59:38","新北市板橋區民生路一段62號","121.474031666667","25.0150433333333","6500100","板橋區"
"220091","637-BX","2018/10/12 18:59:43","新北市板橋區萬板路163號","121.473988333333","25.023425","6500100","板橋區"
"220057","686-BX","2018/10/12 18:59:25","新北市板橋區重慶路106號","121.462058333333","25.0055816666667","6500100","板橋區"
"220077","687-BX","2018/10/12 18:59:30","新北市板橋區大觀路二段146-2號","121.442071666667","24.9987816666667","6500100","板橋區"
"220093","689-BX","2018/10/12 18:59:36","新北市板橋區民生路三段32-6號","121.467316666667","25.0249033333333","6500100","板橋區"
"220054","741-BX","2018/10/12 18:59:30","新北市板橋區重慶路127巷8號","121.463125","25.004835","6500100","板橋區"
"220102","KEA-2699","2018/10/12 18:59:33","新北市板橋區懷德街235巷2-1號","121.481321666667","25.0282966666667","6500100","板橋區"
"220055","827-TW","2018/10/12 18:59:37","新北市板橋區中山路一段158巷27-4號","121.466438333333","25.011115","6500100","板橋區"
"220067","829-TW","2018/10/12 18:59:41","新北市板橋區三民路二段正隆巷33弄1號","121.477138333333","25.0132616666667","6500100","板橋區"
"220096","831-TW","2018/10/12 18:59:35","新北市板橋區莒光路103號","121.472673333333","25.02405","6500100","板橋區"
"220074","895-R6","2018/10/12 18:59:25","新北市板橋區林園街42-2號","121.453681666667","25.010305","6500100","板橋區"
"220073","985-R7","2018/10/12 18:59:31","新北市板橋區民權路226號","121.458623333333","25.0143633333333","6500100","板橋區"
"220097","AAC-210","2018/10/12 18:59:35","新北市板橋區漢生東路63巷2號","121.466013333333","25.0163766666667","6500100","板橋區"
"220070","AAC-253","2018/10/12 18:59:23","新北市板橋區四川路一段265號","121.459548333333","25.0021566666667","6500100","板橋區"
"235068","KEA-2873","2018/10/12 18:59:16","新北市中和區中正路211巷36弄20號","121.496825","24.9925016666667","6500300","中和區"
"235061","KEA-2875","2018/10/12 18:59:40","新北市中和區民治街130巷8號","121.474896666667","25.0026216666667","6500300","中和區"
