"lineid","car","time","location","longitude","latitude","cityid","cityname"
"234046","148-BY","2018/10/12 19:27:32","新北市永和區秀朗路二段150號","121.525506666667","25.0015516666667","6500400","永和區"
"234007","207-UY","2018/10/12 19:27:39","新北市永和區中山路一段66號","121.512675","25.0106966666667","6500400","永和區"
"234081","298-R6","2018/10/12 19:27:44","新北市永和區林森路10巷8號","121.526145","25.0060833333333","6500400","永和區"
"234038","336-UY","2018/10/12 19:27:31","新北市永和區民樂街42號","121.527463333333","25.0005683333333","6500400","永和區"
"234064","337-UY","2018/10/12 19:27:39","新北市永和區得和路243巷28弄1號","121.520846666667","25.0013633333333","6500400","永和區"
"234086","338-UY","2018/10/12 19:27:40","新北市永和區永利路72號","121.520233333333","25.0043583333333","6500400","永和區"
"234070","552-UM","2018/10/12 19:27:27","新北市永和區警光街14號","121.519668333333","25.0096066666667","6500400","永和區"
"234017","745-BX","2018/10/12 19:27:37","新北市永和區環河西路一段63號","121.51338","25.0181933333333","6500400","永和區"
"234030","746-BX","2018/10/12 19:27:28","新北市永和區四維街101號","121.524051666667","24.99816","6500400","永和區"
"234054","KEA-2590","2018/10/12 19:27:26","新北市永和區復興街19巷2號","121.516168333333","25.0131266666667","6500400","永和區"
"234013","KEA-2591","2018/10/12 19:27:38","新北市永和區中山路一段137號","121.510455","25.009835","6500400","永和區"
"234061","AAD-866","2018/10/12 19:27:31","新北市永和區永貞路147巷1號","121.515988333333","25.00412","6500400","永和區"
"234042","862-TW","2018/10/12 19:27:33","新北市永和區水源街39巷10號","121.51048","25.003825","6500400","永和區"
"234050","863-TW","2018/10/12 19:27:30","新北市永和區信義路106號","121.51235","25.014105","6500400","永和區"
"234026","9371-KE","2018/10/12 19:27:40","新北市永和區中正路1號","121.513745","24.9955033333333","6500400","永和區"
"234011","9373-KE","2018/10/12 19:27:39","新北市永和區保福路二段12號","121.510998333333","25.011205","6500400","永和區"
"249002","305-UY","2018/10/12 19:27:32","新北市八里區龍形一街33巷6-2號","121.449338333333","25.12948","6502300","八里區"
"249003","593-UM","2018/10/12 19:27:29","新北市八里區中山路二段500巷6號","121.398225","25.1469733333333","6502300","八里區"
"248016","026-BX","2018/10/12 19:27:34","新北市五股區凌雲路一段36號","121.451913333333","25.1007133333333","6501500","五股區"
"248008","095-VK","2018/10/12 19:27:27","新北市五股區中興路一段97號","121.466646666667","25.07294","6501500","五股區"
"248018","225-UY","2018/10/12 19:25:31","新北市五股區壟路16號","121.415353333333","25.085615","6501500","五股區"
"248014","261-SL","2018/10/12 19:27:37","新北市五股區民義路一段183巷14號","121.430985","25.0872383333333","6501500","五股區"
"248012","655-BX","2018/10/12 19:27:33","新北市五股區中興路四段48巷16號","121.438611666667","25.0834833333333","6501500","五股區"
"248004","677-BX","2018/10/12 19:27:31","新北市五股區五福路34號","121.434023333333","25.08919","6501500","五股區"
"248002","678-BX","2018/10/12 19:27:34","新北市五股區凌雲路一段158巷13號","121.447793333333","25.1035516666667","6501500","五股區"
"248010","682-TV","2018/10/12 19:27:29","新北市五股區水碓二路1號","121.430606666667","25.0712366666667","6501500","五股區"
"234023","9380-KE","2018/10/12 19:27:44","新北市永和區環河東路二段10號","121.522245","25.013305","6500400","永和區"
"234077","969-R7","2018/10/12 19:27:35","新北市永和區民治街29號","121.519698333333","24.9977266666667","6500400","永和區"
"234074","AAC-211","2018/10/12 19:27:29","新北市永和區環河東路一段122號","121.520571666667","25.015635","6500400","永和區"
"234067","AAC-212","2018/10/12 19:27:38","新北市永和區永貞路376號","121.509725","25.0070516666667","6500400","永和區"
"234003","AAC-295","2018/10/12 19:27:35","新北市永和區永和路184-1號","121.514256666667","25.0091116666667","6500400","永和區"
"244023","069-UM","2018/10/12 19:27:39","新北市林口區民有街75號","121.372946666667","25.0772316666667","6501700","林口區"
"244019","403-UM","2018/10/12 19:27:34","新北市林口區頂福里5鄰34號","121.353185","25.0999883333333","6501700","林口區"
"243013","AAD-798","2018/10/12 19:27:42","新北市泰山區明志路三段123巷1弄4號","121.42567","25.0406616666667","6501600","泰山區"
"243009","297-R6","2018/10/12 19:27:31","新北市泰山區半山雅3號","121.4313","25.0674683333333","6501600","泰山區"
"243015","421-VK","2018/10/12 19:27:37","新北市泰山區明志路二段104號","121.42815","25.0517916666667","6501600","泰山區"
"243011","KEA-2215","2018/10/12 19:27:42","新北市泰山區貴子路74號","121.427081666667","25.0413533333333","6501600","泰山區"
"243010","KEA-2216","2018/10/12 19:27:39","新北市泰山區明志路二段81號","121.428858333333","25.05232","6501600","泰山區"
"243012","646-TV","2018/10/12 19:27:23","新北市泰山區仁愛路36-6號","121.431686666667","25.05479","6501600","泰山區"
"243014","680-BX","2018/10/12 19:27:28","新北市泰山區泰林路二段23-6號","121.43618","25.0565683333333","6501600","泰山區"
"222003","436-BY","2018/10/12 19:27:39","新北市深坑區深南路88巷1號","121.620965","25.0117233333333","6501800","深坑區"
"222002","659-BX","2018/10/12 19:27:22","新北市深坑區北深路一段177號","121.632488333333","25.0109016666667","6501800","深坑區"
"231059","001-UM","2018/10/12 19:27:42","新北市新店區安和路三段31號","121.517936666667","24.9815583333333","6500600","新店區"
"231041","002-UM","2018/10/12 19:27:27","新北市新店區中正路612號","121.533921666667","24.9885733333333","6500600","新店區"
"231066","0291-UT","2018/10/12 19:27:40","新北市新店區安康路三段355巷2號","121.484616666667","24.9505966666667","6500600","新店區"
"231040","047-UY","2018/10/12 19:27:26","新北市新店區北新路一段295號","121.541133333333","24.96738","6500600","新店區"
"231044","106-UY","2018/10/12 19:27:41","新北市新店區中興路三段185號","121.544073333333","24.9810283333333","6500600","新店區"
"231046","107-UY","2018/10/12 19:27:26","新北市新店區環河路29巷1號","121.536755","24.9613466666667","6500600","新店區"
"231048","187-VK","2018/10/12 19:27:36","新北市新店區五峰路75號","121.546343333333","24.9678416666667","6500600","新店區"
"231062","188-VK","2018/10/12 19:27:33","新北市新店區莒光路1號","121.527871666667","24.9619083333333","6500600","新店區"
"231053","189-VK","2018/10/12 19:27:42","新北市新店區廣興路15號","121.541251666667","24.9118083333333","6500600","新店區"
"231054","KEA-2219","2018/10/12 19:27:44","新北市新店區文中路45號","121.53959","24.956635","6500600","新店區"
"231057","256-BX","2018/10/12 19:27:37","新北市新店區花園一路三段57號","121.5496","24.9330116666667","6500600","新店區"
"231042","268-BY","2018/10/12 19:27:39","新北市新店區中興路一段34號","121.538628333333","24.9585883333333","6500600","新店區"
"231051","278-BY","2018/10/12 19:27:22","新北市新店區中央五街22號","121.529308333333","24.9744983333333","6500600","新店區"
"231050","AAD-862","2018/10/12 19:27:28","新北市新店區竹林路97巷17號","121.555188333333","24.9491766666667","6500600","新店區"
"231061","355-BY","2018/10/12 19:27:29","新北市新店區安康路一段190號","121.524698333333","24.9633816666667","6500600","新店區"
"231058","3713-VJ","2018/10/12 19:27:44","新北市新店區寶橋路85巷57號","121.544243333333","24.9771866666667","6500600","新店區"
"231065","512-UM","2018/10/12 19:27:39","新北市新店區安祥路109巷3弄6號","121.475325","24.9594883333333","6500600","新店區"
"231049","513-UM","2018/10/12 19:27:42","新北市新店區北新路三段65巷12弄17號","121.540685","24.9815416666667","6500600","新店區"
"231063","616-UM","2018/10/12 19:27:38","新北市新店區達觀路16號","121.503321666667","24.9404116666667","6500600","新店區"
"231045","617-UM","2018/10/12 19:27:36","新北市新店區北宜路二段209號","121.553188333333","24.9533066666667","6500600","新店區"
"231064","719-UM","2018/10/12 19:27:30","新北市新店區安康路二段85巷44號","121.514375","24.96131","6500600","新店區"
"231060","897-TW","2018/10/12 19:27:38","新北市新店區安康路二段62號","121.514925","24.9636516666667","6500600","新店區"
"231043","899-TW","2018/10/12 19:27:25","新北市新店區北新路二段187號","121.542753333333","24.97769","6500600","新店區"
"231055","AKT-0513","2018/10/12 19:27:40","新北市新店區中央一街2號","121.528766666667","24.9721066666667","6500600","新店區"
"241028","022-UY","2018/10/12 19:27:36","新北市三重區中寮街30號","121.492606666667","25.059035","6500200","三重區"
"241008","059-VK","2018/10/12 19:27:21","新北市三重區永福街135巷32弄11號","121.477075","25.076925","6500200","三重區"
"241022","060-VK","2018/10/12 19:27:24","新北市三重區三民街171號","121.483385","25.06491","6500200","三重區"
"241031","061-VK","2018/10/12 19:27:38","新北市三重區集美街39號","121.48811","25.05561","6500200","三重區"
"241017","063-VK","2018/10/12 19:27:34","新北市三重區長壽西街168號","121.493256666667","25.0664783333333","6500200","三重區"
"241026","066-VK","2018/10/12 19:27:27","新北市三重區文化南路47巷17號","121.499665","25.0612766666667","6500200","三重區"
"241009","265-UM","2018/10/12 19:27:35","新北市三重區溪尾街242巷69號","121.486053333333","25.0814783333333","6500200","三重區"
"241032","269-UM","2018/10/12 19:27:29","新北市三重區三陽路28號","121.485505","25.0586083333333","6500200","三重區"
"241025","271-UM","2018/10/12 19:27:38","新北市三重區頂崁街210巷23弄1號","121.475938333333","25.0682483333333","6500200","三重區"
"241007","398-BY","2018/10/12 19:27:37","新北市三重區溪尾街160號","121.48878","25.0800383333333","6500200","三重區"
"241035","KEA-2210","2018/10/12 19:27:28","新北市三重區信義西街138號","121.49554","25.0643916666667","6500200","三重區"
"241020","478-VK","2018/10/12 19:27:27","新北市三重區三和路四段28號","121.490851666667","25.074265","6500200","三重區"
"241030","480-VK","2018/10/12 19:27:39","新北市三重區成功路41巷13號","121.49035","25.051585","6500200","三重區"
"241006","AAD-863","2018/10/12 19:27:40","新北市三重區自強路三段101號","121.487816666667","25.075505","6500200","三重區"
"241029","942-UM","2018/10/12 19:27:44","新北市三重區中正南路248號","121.493358333333","25.0538866666667","6500200","三重區"
"235066","003-UY","2018/10/12 19:27:38","新北市中和區中和路108號","121.502901666667","24.999665","6500300","中和區"
"235064","005-UY","2018/10/12 19:27:39","新北市中和區中和路33號","121.499996666667","25.0016416666667","6500300","中和區"
"235063","006-UY","2018/10/12 19:27:31","新北市中和區連城路249巷24號","121.494","24.9960416666667","6500300","中和區"
"235056","096-UM","2018/10/12 19:27:25","新北市中和區中山路二段678號","121.479985","25.0061616666667","6500300","中和區"
"235039","097-UM","2018/10/12 19:27:23","新北市中和區秀峰街103巷7弄2號","121.519985","24.9895733333333","6500300","中和區"
"235065","098-UM","2018/10/12 19:27:39","新北市中和區中山路二段2巷5弄1號","121.504525","25.0062983333333","6500300","中和區"
"235040","150-BY","2018/10/12 19:27:33","新北市中和區保健路63-1號","121.509643333333","24.997195","6500300","中和區"
"235058","151-BY","2018/10/12 19:27:21","新北市中和區員山路36巷16-2號","121.48529","24.9916716666667","6500300","中和區"
"235055","183-VK","2018/10/12 19:27:38","新北市中和區國光街8巷7號","121.471565","25.00067","6500300","中和區"
"235038","185-VK","2018/10/12 19:27:42","新北市中和區立人街33-3號","121.521081666667","24.9941716666667","6500300","中和區"
"235049","186-VK","2018/10/12 19:27:42","新北市中和區景新街285巷18號","121.510541666667","24.9936283333333","6500300","中和區"
"235067","255-BX","2018/10/12 19:27:28","新北市中和區連城路322號","121.483393333333","24.9960483333333","6500300","中和區"
"235044","293-VK","2018/10/12 19:27:41","新北市中和區南山路160號","121.504406666667","24.9918183333333","6500300","中和區"
"235072","301-VK","2018/10/12 19:27:29","新北市中和區連城路176號","121.493141666667","24.9970183333333","6500300","中和區"
"235043","352-BY","2018/10/12 19:27:29","新北市中和區南山路127巷18弄42號","121.5035","24.9964616666667","6500300","中和區"
"235042","KEA-2878","2018/10/12 19:27:37","新北市中和區中和路350巷8弄16號","121.510168333333","25.0000733333333","6500300","中和區"
"235050","4979-A6","2018/10/12 19:27:28","新北市中和區中正路348號","121.493871666667","24.9941366666667","6500300","中和區"
"235070","558-UM","2018/10/12 19:27:40","新北市中和區圓通路19號","121.501485","24.997975","6500300","中和區"
"235045","565-BX","2018/10/12 19:27:40","新北市中和區景新街399巷11號","121.51297","24.9898983333333","6500300","中和區"
"235054","640-BX","2018/10/12 19:27:35","新北市中和區國光街112巷23弄1號","121.469703333333","25.0022766666667","6500300","中和區"
"235047","732-UM","2018/10/12 19:27:34","新北市中和區景平路241巷66號","121.50769","24.992305","6500300","中和區"
"235046","733-UM","2018/10/12 19:27:42","新北市中和區忠孝街37巷30號","121.510823333333","24.9843216666667","6500300","中和區"
"235071","783-BX","2018/10/12 19:27:44","新北市中和區中正路637巷13號","121.484871666667","24.9951783333333","6500300","中和區"
"235057","801-TS","2018/10/12 19:27:34","新北市中和區員山路423巷14弄2號","121.480448333333","25.0029683333333","6500300","中和區"
"235041","802-TS","2018/10/12 19:27:38","新北市中和區中安街132號","121.510866666667","25.0004","6500300","中和區"
"235052","805-TS","2018/10/12 19:27:38","新北市中和區華新街143巷67弄35號","121.507525","24.9793316666667","6500300","中和區"
"235048","896-TW","2018/10/12 19:27:34","新北市中和區景新街418巷11弄15號","121.512805","24.9883283333333","6500300","中和區"
"235053","900-TW","2018/10/12 19:27:31","新北市中和區華順街57號","121.466456666667","24.9985333333333","6500300","中和區"
"235060","911-UM","2018/10/12 19:27:30","新北市中和區中山路二段523巷60號","121.482196666667","25.0028116666667","6500300","中和區"
"235051","157-BY","2018/10/12 19:27:32","新北市中和區景新街130號","121.505196666667","24.997995","6500300","中和區"
"235037","AAC-213","2018/10/12 19:27:38","新北市中和區秀朗路三段10巷14弄48號","121.524355","24.996465","6500300","中和區"
"235059","AAC-215","2018/10/12 19:27:32","新北市中和區圓通路252-3號","121.493608333333","24.9911683333333","6500300","中和區"
"220068","013-TV","2018/10/12 19:27:36","新北市板橋區林森街1巷35號","121.482915","25.0245316666667","6500100","板橋區"
"220035","015-TV","2018/10/12 19:27:35","新北市板橋區中正路375巷16號","121.454085","25.0208833333333","6500100","板橋區"
"220065","072-UY","2018/10/12 19:27:36","新北市板橋區國泰街75巷28弄62號","121.467445","25.00456","6500100","板橋區"
"220086","073-UY","2018/10/12 19:27:24","新北市板橋區中正路236巷28號","121.456881666667","25.0191566666667","6500100","板橋區"
"220106","075-UY","2018/10/12 19:27:37","新北市板橋區江寧路三段119號","121.473325","25.033195","6500100","板橋區"
"220069","AAD-861","2018/10/12 19:27:30","新北市板橋區大明街20巷29弄6號","121.457958333333","25.0035666666667","6500100","板橋區"
"226004","205-ST","2018/10/12 19:27:26","新北市平溪區十分里十分街142號","121.777528333333","25.043335","6502400","平溪區"
"228001","670-TC","2018/10/12 19:27:39","新北市貢寮區真理里延平街68號","121.925383333333","25.0574333333333","6502600","貢寮區"
"228003","828-UM","2018/10/12 19:27:30","新北市貢寮區和美里和美街19-2號","121.912741666667","25.0826283333333","6502600","貢寮區"
"224010","AGQ-8101","2018/10/12 19:27:38","新北市瑞芳區基山街34號","121.84486","25.1083816666667","6501200","瑞芳區"
"224002","639-TC","2018/10/12 19:27:30","新北市瑞芳區三爪子坑路11號","121.813976666667","25.1075666666667","6501200","瑞芳區"
"224009","273-VK","2018/10/12 19:27:42","新北市瑞芳區八分寮路12號","121.794681666667","25.0868783333333","6501200","瑞芳區"
"227003","642-TC","2018/10/12 19:27:28","新北市雙溪區雙溪里太平路7號","121.864108333333","25.0351516666667","6502500","雙溪區"
"227011","400-TW","2018/10/12 19:27:38","新北市雙溪區新基里新基北街43號","121.868198333333","25.0397","6502500","雙溪區"
"253006","032-BX","2018/10/12 19:27:24","新北市石門區老崩山10-6號","121.552598333333","25.2910233333333","6502200","石門區"
"253005","295-VK","2018/10/12 19:27:38","新北市石門區小坑9號","121.594395","25.2883583333333","6502200","石門區"
"222001","KEA-2212","2018/10/12 19:27:31","新北市深坑區北深路二段120號","121.616513333333","25.00307","6501800","深坑區"
"208002","KEA-2872","2018/10/12 19:27:41","新北市金山區仁愛路78巷1號","121.63461","25.2216066666667","6502700","金山區"
"208003","665-BX","2018/10/12 19:27:21","新北市金山區中山路263巷10號","121.636346666667","25.22165","6502700","金山區"
"208001","761-BX","2018/10/12 19:27:34","新北市金山區金包里街122號","121.637948333333","25.222145","6502700","金山區"
"251005","010-UM","2018/10/12 19:27:27","新北市淡水區水源街一段71巷18號","121.4444","25.17296","6501000","淡水區"
"251008","KEA-2871","2018/10/12 19:27:37","新北市淡水區中正路二段31號","121.419233333333","25.1819733333333","6501000","淡水區"
"251010","413-VK","2018/10/12 19:27:42","新北市淡水區淡海路242號","121.420156666667","25.18669","6501000","淡水區"
"251012","441-VK","2018/10/12 19:24:49","新北市淡水區淡金路二段599號","121.446456666667","25.1919283333333","6501000","淡水區"
"251001","559-UM","2018/10/12 19:27:28","新北市淡水區民權路179-5號","121.459571666667","25.1347866666667","6501000","淡水區"
"251006","561-UM","2018/10/12 19:27:32","新北市淡水區大義街51號","121.441436666667","25.1781116666667","6501000","淡水區"
"251009","575-R6","2018/10/12 19:27:36","新北市淡水區大忠街5巷9號","121.443376666667","25.1765433333333","6501000","淡水區"
"251007","577-R6","2018/10/12 19:27:40","新北市淡水區紅樹林路205號","121.460746666667","25.156205","6501000","淡水區"
"251011","650-BX","2018/10/12 19:27:22","新北市淡水區中正東路二段143巷2弄1號","121.46071","25.1473816666667","6501000","淡水區"
"251002","672-BX","2018/10/12 19:27:29","新北市淡水區沙崙路145-1號","121.423531666667","25.1830883333333","6501000","淡水區"
"207003","550-UM","2018/10/12 19:27:37","新北市萬里區大鵬里萬里加投193號","121.64442","25.2146016666667","6502800","萬里區"
"207004","225-TW","2018/10/12 19:27:32","新北市萬里區萬里里瑪鋉路67號","121.688148333333","25.1762733333333","6502800","萬里區"
"252002","178-VK","2018/10/12 19:27:35","新北市三芝區淡金路二段18-1號","121.502695","25.2595216666667","6502100","三芝區"
"252001","292-VK","2018/10/12 19:27:29","新北市三芝區長勤街35號","121.500871666667","25.2554","6502100","三芝區"
"237004","KEA-2597","2018/10/12 19:27:27","新北市三峽區有木206號","121.439238333333","24.8519666666667","6500900","三峽區"
"237007","153-BY","2018/10/12 19:27:24","新北市三峽區二鬮路136巷20弄81號","121.358128333333","24.9093333333333","6500900","三峽區"
"237009","210-TH","2018/10/12 19:27:41","新北市三峽區中山路22號","121.369325","24.93435","6500900","三峽區"
"237013","252-BX","2018/10/12 19:27:41","新北市三峽區介壽路一段318巷13號","121.381053333333","24.92953","6500900","三峽區"
"237012","275-BY","2018/10/12 19:27:37","新北市三峽區三樹路128-1號","121.378343333333","24.939615","6500900","三峽區"
"237008","302-VK","2018/10/12 19:27:43","新北市三峽區永安街95巷11號","121.37484","24.92856","6500900","三峽區"
"237014","433-BY","2018/10/12 19:27:42","新北市三峽區中山路67巷5號","121.366711666667","24.93422","6500900","三峽區"
"237006","5529-G3","2018/10/12 19:27:34","新北市三峽區中正路一段336巷15弄2號","121.369953333333","24.9249633333333","6500900","三峽區"
"237011","KEA-2596","2018/10/12 19:27:32","新北市三峽區介壽路一段361號","121.382336666667","24.9306166666667","6500900","三峽區"
"237015","649-BX","2018/10/12 19:27:39","新北市三峽區成福路184號","121.424191666667","24.92814","6500900","三峽區"
"237005","AKY-6261","2018/10/12 19:27:38","新北市三峽區復興路367巷1弄9號","121.363948333333","24.9382433333333","6500900","三峽區"
"236069","105-UM","2018/10/12 19:27:41","新北市土城區學府路一段143巷20弄2號","121.453895","24.985415","6501300","土城區"
"236079","166-UM","2018/10/12 19:27:36","新北市土城區中州路24巷10號","121.414826666667","24.95763","6501300","土城區"
"236026","269-VK","2018/10/12 19:27:23","新北市土城區中央路二段61巷26號","121.443283333333","24.97864","6501300","土城區"
"236020","401-BY","2018/10/12 19:27:29","新北市土城區金城路三段198號","121.46868","24.9878383333333","6501300","土城區"
"236059","912-UM","2018/10/12 19:27:32","新北市土城區城林路6巷80號","121.43866","24.979675","6501300","土城區"
"236048","913-UM","2018/10/12 19:27:36","新北市土城區清水路157號","121.458688333333","24.9815433333333","6501300","土城區"
"242023","362-BY","2018/10/12 19:27:29","新北市新莊區新泰路357巷3弄57號","121.442526666667","25.0397516666667","6500500","新莊區"
"242013","173-VK","2018/10/12 19:27:43","新北市新莊區三和路12-18號","121.442341666667","25.0375833333333","6500500","新莊區"
"242032","348-TH","2018/10/12 19:27:27","新北市新莊區新泰路225巷6號","121.445831666667","25.0392383333333","6500500","新莊區"
"242005","349-TH","2018/10/12 19:27:27","新北市新莊區化成路11巷106號","121.460985","25.0434816666667","6500500","新莊區"
"238015","755-BX","2018/10/12 19:27:30","新北市樹林區光明街11號","121.411128333333","24.9896016666667","6500700","樹林區"
"238023","601-UM","2018/10/12 19:27:41","新北市樹林區三福街75號","121.407515","25.0163366666667","6500700","樹林區"
"238019","599-UM","2018/10/12 19:27:36","新北市樹林區鎮前街411巷1弄20號","121.415688333333","24.9832233333333","6500700","樹林區"
"238018","571-TV","2018/10/12 19:27:32","新北市樹林區中華路150-8號","121.416095","24.9802266666667","6500700","樹林區"
"238024","5061-A6","2018/10/12 19:27:40","新北市樹林區福德街3號","121.401551666667","24.9755966666667","6500700","樹林區"
"238022","KEA-2213","2018/10/12 19:27:43","新北市樹林區國凱街66號","121.420721666667","24.979055","6500700","樹林區"
"238021","KEA-2539","2018/10/12 19:27:37","新北市樹林區大成路155-1號","121.381675","24.9485666666667","6500700","樹林區"
"238025","303-VK","2018/10/12 19:27:25","新北市樹林區中山路二段230號","121.408861666667","24.9800866666667","6500700","樹林區"
"238017","283-BY","2018/10/12 19:27:42","新北市樹林區光興街63巷8號","121.410751666667","25.0020633333333","6500700","樹林區"
"238014","282-BY","2018/10/12 19:27:29","新北市樹林區千歲街17號","121.424928333333","24.9956483333333","6500700","樹林區"
"238020","268-VK","2018/10/12 19:27:36","新北市樹林區俊英街83巷2號","121.425826666667","25.0080516666667","6500700","樹林區"
"238026","172-UY","2018/10/12 19:27:34","新北市樹林區佳園路三段95號","121.38752","24.9523966666667","6500700","樹林區"
"238016","169-UY","2018/10/12 19:27:27","新北市樹林區復興路462號","121.413328333333","24.9836616666667","6500700","樹林區"
"239007","AAC-297","2018/10/12 19:27:26","新北市鶯歌區大湖路47號","121.342658333333","24.9621266666667","6500800","鶯歌區"
"239006","891-R6","2018/10/12 19:27:35","新北市鶯歌區永昌街29號","121.342565","24.9497583333333","6500800","鶯歌區"
"239001","417-VK","2018/10/12 19:27:29","新北市鶯歌區建國路367巷1號","121.339238333333","24.949665","6500800","鶯歌區"
"239003","360-BY","2018/10/12 19:27:25","新北市鶯歌區中正二路41號","121.350718333333","24.9512616666667","6500800","鶯歌區"
"239002","359-BY","2018/10/12 19:27:31","新北市鶯歌區大湖路161巷5號","121.343838333333","24.9662983333333","6500800","鶯歌區"
"221008","489-VK","2018/10/12 19:27:24","新北市汐止區康寧街237號","121.624165","25.0667766666667","6501100","汐止區"
"221036","130-UY","2018/10/12 19:27:35","新北市汐止區康寧街901號","121.6516","25.0749616666667","6501100","汐止區"
"221015","131-UY","2018/10/12 19:27:40","新北市汐止區康寧街901號","121.651611666667","25.0749416666667","6501100","汐止區"
"221010","269-BY","2018/10/12 19:27:35","新北市汐止區康寧街901號","121.651506666667","25.0750016666667","6501100","汐止區"
"221012","278-VK","2018/10/12 19:27:36","新北市汐止區保一街37號","121.674136666667","25.0800316666667","6501100","汐止區"
"221023","279-VK","2018/10/12 19:27:31","新北市汐止區康寧街753巷2弄12號","121.639543333333","25.074135","6501100","汐止區"
"221027","281-BY","2018/10/12 19:27:40","新北市汐止區忠孝東路9號","121.658308333333","25.06595","6501100","汐止區"
"221029","298-VK","2018/10/12 19:27:28","新北市汐止區汐萬路一段256巷1號","121.651768333333","25.0748433333333","6501100","汐止區"
"221021","299-VK","2018/10/12 19:27:26","新北市汐止區康寧街901號","121.651313333333","25.0750083333333","6501100","汐止區"
"221031","353-TW","2018/10/12 19:27:26","新北市汐止區康寧街901號","121.650823333333","25.075265","6501100","汐止區"
"221025","623-UM","2018/10/12 19:27:43","新北市汐止區大同路二段430號","121.659148333333","25.0671133333333","6501100","汐止區"
"221038","646-BX","2018/10/12 19:27:36","新北市汐止區汐萬路一段16號","121.656083333333","25.0674566666667","6501100","汐止區"
"221002","707-TV","2018/10/12 19:27:36","新北市汐止區中興路22號","121.637095","25.0597716666667","6501100","汐止區"
"220079","145-BY","2018/10/12 19:27:32","新北市板橋區光正街45巷6弄18號","121.46097","25.0171016666667","6500100","板橋區"
"220080","200-UY","2018/10/12 19:27:37","新北市板橋區大觀路二段37巷180號","121.449575","25.0021316666667","6500100","板橋區"
"220082","610-BX","2018/10/12 19:27:39","新北市板橋區金門街129號","121.432988333333","24.991465","6500100","板橋區"
"220101","245-BX","2018/10/12 19:27:42","新北市板橋區縣民大道三段121巷32號","121.476515","25.0235016666667","6500100","板橋區"
"220056","276-BY","2018/10/12 19:27:34","新北市板橋區國慶路37號","121.459063333333","24.9956733333333","6500100","板橋區"
"220072","277-BY","2018/10/12 19:27:30","新北市板橋區金門街337巷9弄1號","121.430393333333","24.9847016666667","6500100","板橋區"
"220094","283-UM","2018/10/12 19:27:21","新北市板橋區吳鳳路17巷9號","121.467661666667","25.0299316666667","6500100","板橋區"
"220071","283-VK","2018/10/12 19:27:30","新北市板橋區仁愛路73巷12號","121.461035","25.0004033333333","6500100","板橋區"
"220053","285-VK","2018/10/12 19:27:43","新北市板橋區富山街53巷1弄18號","121.477868333333","25.0204166666667","6500100","板橋區"
"220083","286-VK","2018/10/12 19:27:44","新北市板橋區大觀路二段174巷173弄12號","121.441256666667","25.0039733333333","6500100","板橋區"
"220081","287-VK","2018/10/12 19:27:34","新北市板橋區大觀路一段75巷15號","121.447933333333","25.0043883333333","6500100","板橋區"
"220090","288-VK","2018/10/12 19:27:41","新北市板橋區長江路一段106巷18弄7號","121.460055","25.028485","6500100","板橋區"
"220061","293-UM","2018/10/12 19:27:38","新北市板橋區中山路二段309巷3號","121.478725","25.01864","6500100","板橋區"
"220084","296-UM","2018/10/12 19:27:28","新北市板橋區滿平街138號","121.42879","24.9881883333333","6500100","板橋區"
"220075","303-R5","2018/10/12 19:27:38","新北市板橋區中正路275巷81號","121.452036666667","25.0181883333333","6500100","板橋區"
"220062","305-R5","2018/10/12 19:27:35","新北市板橋區三民路二段153巷4弄2號","121.479606666667","25.0146583333333","6500100","板橋區"
"220092","307-R5","2018/10/12 19:27:37","新北市板橋區松江街41號","121.468513333333","25.0272066666667","6500100","板橋區"
"220098","317-R6","2018/10/12 19:27:33","新北市板橋區四維路266巷5弄6號","121.463705","25.02875","6500100","板橋區"
"220064","486-VK","2018/10/12 19:27:33","新北市板橋區重慶路22號","121.461033333333","25.007865","6500100","板橋區"
"220089","487-VK","2018/10/12 19:27:25","新北市板橋區文化路一段161號","121.462725","25.01595","6500100","板橋區"
"220088","491-VK","2018/10/12 19:27:31","新北市板橋區文化路二段498號","121.475405","25.0332666666667","6500100","板橋區"
"220103","561-BX","2018/10/12 19:27:34","新北市板橋區文化路一段220號","121.466698333333","25.02062","6500100","板橋區"
"220063","609-BX","2018/10/12 19:27:35","新北市板橋區三民路二段188號","121.478986666667","25.01487","6500100","板橋區"
"220091","637-BX","2018/10/12 19:27:42","新北市板橋區文聖街70號","121.477258333333","25.0303266666667","6500100","板橋區"
"220057","686-BX","2018/10/12 19:27:37","新北市板橋區和平路178號","121.463553333333","24.9956783333333","6500100","板橋區"
"220077","687-BX","2018/10/12 19:27:30","新北市板橋區僑中二街116巷1號","121.445631666667","25.0062983333333","6500100","板橋區"
"220093","689-BX","2018/10/12 19:27:36","新北市板橋區新海路150號","121.460483333333","25.0238633333333","6500100","板橋區"
"220054","741-BX","2018/10/12 19:27:29","新北市板橋區四川路一段281號","121.459386666667","25.001935","6500100","板橋區"
"220102","KEA-2699","2018/10/12 19:27:33","新北市板橋區雙十路二段112號","121.47458","25.0288433333333","6500100","板橋區"
"220055","827-TW","2018/10/12 19:27:37","新北市板橋區重慶路276-3號","121.463068333333","25.0000566666667","6500100","板橋區"
"220067","829-TW","2018/10/12 19:27:41","新北市板橋區長安街138巷7弄32號","121.47378","25.0088083333333","6500100","板橋區"
"220096","831-TW","2018/10/12 19:27:31","新北市板橋區雙十路二段6-12號","121.476535","25.02658","6500100","板橋區"
"220074","895-R6","2018/10/12 19:27:25","新北市板橋區中正路1巷18-1號","121.45512","25.0116366666667","6500100","板橋區"
"220073","985-R7","2018/10/12 19:27:30","新北市板橋區中正路330號","121.454378333333","25.0217016666667","6500100","板橋區"
"220097","AAC-210","2018/10/12 19:27:35","新北市板橋區新海路135巷35號","121.4598","25.022755","6500100","板橋區"
"220070","AAC-253","2018/10/12 19:27:43","新北市板橋區四川路一段253號","121.459706666667","25.002445","6500100","板橋區"
"235068","KEA-2873","2018/10/12 19:27:16","新北市中和區連勝街14號","121.498808333333","24.9983533333333","6500300","中和區"
"235061","KEA-2875","2018/10/12 19:27:40","新北市中和區員山路253號","121.481233333333","24.99885","6500300","中和區"
