"lineid","car","time","location","longitude","latitude","cityid","cityname"
"234046","148-BY","2018/10/12 19:49:32","新北市永和區永利路145號","121.524365","25.003635","6500400","永和區"
"234007","207-UY","2018/10/12 19:49:39","新北市中和區中和路232號","121.50669","24.99956","6500400","永和區"
"234081","298-R6","2018/10/12 19:49:44","新北市永和區永亨路98號","121.52301","25.0048866666667","6500400","永和區"
"234038","336-UY","2018/10/12 19:49:43","新北市永和區成功路二段121巷8號","121.527183333333","24.99829","6500400","永和區"
"234064","337-UY","2018/10/12 19:49:44","新北市永和區中正路368巷16號","121.518341666667","25.0008233333333","6500400","永和區"
"234086","338-UY","2018/10/12 19:49:40","新北市永和區永亨路142號","121.525081666667","25.00392","6500400","永和區"
"234070","552-UM","2018/10/12 19:49:27","新北市永和區竹林路88號","121.519358333333","25.012575","6500400","永和區"
"234017","745-BX","2018/10/12 19:49:37","新北市永和區永和路二段299號","121.51606","25.01613","6500400","永和區"
"234030","746-BX","2018/10/12 19:49:28","新北市永和區民生路67巷34號","121.524416666667","24.99733","6500400","永和區"
"234054","KEA-2590","2018/10/12 19:49:26","新北市永和區竹林路75巷25弄8號","121.52019","25.0144033333333","6500400","永和區"
"234013","KEA-2591","2018/10/12 19:49:38","新北市永和區永平路306號","121.50716","25.0124316666667","6500400","永和區"
"234061","AAD-866","2018/10/12 19:49:31","新北市永和區中正路98號","121.514146666667","24.9955483333333","6500400","永和區"
"234042","862-TW","2018/10/12 19:49:33","新北市永和區中和路389巷8號","121.508091666667","25.000945","6500400","永和區"
"234050","863-TW","2018/10/12 19:49:30","新北市永和區保安路69號","121.50905","25.0154066666667","6500400","永和區"
"234026","9371-KE","2018/10/12 19:49:40","新北市永和區雙和街25巷4號","121.508935","25.0019266666667","6500400","永和區"
"234011","9373-KE","2018/10/12 19:49:34","新北市永和區仁愛路352巷112弄26號","121.501825","25.0086683333333","6500400","永和區"
"249001","173-UM","2018/10/12 19:49:26","新北市八里區中華路二段252號","121.405346666667","25.149715","6502300","八里區"
"249004","303-UY","2018/10/12 19:49:24","新北市八里區仁愛路127號","121.410153333333","25.15889","6502300","八里區"
"249002","305-UY","2018/10/12 19:49:32","新北市八里區頂寮三街46號","121.451336666667","25.1260066666667","6502300","八里區"
"249003","593-UM","2018/10/12 19:49:29","新北市八里區中華路二段558號","121.39868","25.14517","6502300","八里區"
"248016","026-BX","2018/10/12 19:49:34","新北市五股區成泰路三段601巷17-1號","121.451738333333","25.1033183333333","6501500","五股區"
"248008","095-VK","2018/10/12 19:49:27","新北市五股區四維路171巷15號","121.467093333333","25.0752366666667","6501500","五股區"
"248018","225-UY","2018/10/12 19:49:31","新北市五股區外寮路1-5號","121.425991666667","25.076895","6501500","五股區"
"248014","261-SL","2018/10/12 19:49:44","新北市五股區五福路38號","121.433926666667","25.0892183333333","6501500","五股區"
"248012","655-BX","2018/10/12 19:49:33","新北市五股區蓬萊路4號","121.435611666667","25.07953","6501500","五股區"
"248004","677-BX","2018/10/12 19:49:31","新北市五股區成泰路一段42號","121.435313333333","25.0690233333333","6501500","五股區"
"248002","678-BX","2018/10/12 19:49:34","新北市五股區成泰路3段651-1號","121.452901666667","25.10515","6501500","五股區"
"248010","682-TV","2018/10/12 19:49:29","新北市五股區登林路貿商巷3弄15號","121.429696666667","25.069945","6501500","五股區"
"234023","9380-KE","2018/10/12 19:49:24","新北市永和區中正路702巷20弄1號","121.516483333333","25.010575","6500400","永和區"
"234077","969-R7","2018/10/12 19:49:35","新北市永和區民權路29巷9號","121.520651666667","24.99791","6500400","永和區"
"234074","AAC-211","2018/10/12 19:49:29","新北市永和區竹林路179巷35號","121.522168333333","25.0102516666667","6500400","永和區"
"234067","AAC-212","2018/10/12 19:49:33","新北市永和區永貞路353號","121.509056666667","25.007545","6500400","永和區"
"234003","AAC-295","2018/10/12 19:49:35","新北市永和區福和路318號","121.515736666667","25.0073166666667","6500400","永和區"
"243013","AAD-798","2018/10/12 19:49:22","新北市泰山區應化街7號","121.423856666667","25.0437383333333","6501600","泰山區"
"243009","297-R6","2018/10/12 19:49:31","新北市泰山區美寧街60號","121.430981666667","25.064655","6501600","泰山區"
"243015","421-VK","2018/10/12 19:49:36","新北市泰山區明志路二段214巷11號","121.426686666667","25.0488283333333","6501600","泰山區"
"243011","KEA-2215","2018/10/12 19:49:22","新北市泰山區台麗街8號","121.424368333333","25.0382416666667","6501600","泰山區"
"243010","KEA-2216","2018/10/12 19:49:38","新北市泰山區民生路33號","121.430695","25.05219","6501600","泰山區"
"243012","646-TV","2018/10/12 19:49:25","新北市泰山區全興路13號","121.43234","25.0589766666667","6501600","泰山區"
"243014","680-BX","2018/10/12 19:49:28","新北市泰山區泰林路二段33-7號","121.435195","25.05644","6501600","泰山區"
"222003","436-BY","2018/10/12 19:49:21","新北市深坑區深南路51-1號","121.621203333333","25.00986","6501800","深坑區"
"222002","659-BX","2018/10/12 19:49:42","新北市深坑區北深路二段55巷3弄14號","121.61945","25.0035283333333","6501800","深坑區"
"231059","001-UM","2018/10/12 19:49:42","新北市新店區安和路二段167號","121.518676666667","24.9744283333333","6500600","新店區"
"231041","002-UM","2018/10/12 19:49:27","新北市新店區中央路153號","121.5299","24.9730416666667","6500600","新店區"
"231066","0291-UT","2018/10/12 19:49:31","新北市新店區安康路二段341巷50號","121.496645","24.954305","6500600","新店區"
"231040","047-UY","2018/10/12 19:49:26","新北市新店區中正路75巷71號","121.543083333333","24.9688733333333","6500600","新店區"
"231044","106-UY","2018/10/12 19:49:41","新北市新店區復興路121號","121.534103333333","24.98798","6500600","新店區"
"231046","107-UY","2018/10/12 19:49:26","新北市新店區三民路159巷19弄46號","121.532198333333","24.9732316666667","6500600","新店區"
"231048","187-VK","2018/10/12 19:49:31","新北市新店區中興路二段100巷1號","121.547648333333","24.97151","6500600","新店區"
"231062","188-VK","2018/10/12 19:49:33","新北市新店區永業路81巷1弄1-1號","121.529343333333","24.94929","6500600","新店區"
"231053","189-VK","2018/10/12 19:49:22","新北市新店區新烏路二段470號","121.55162","24.9073716666667","6500600","新店區"
"231054","KEA-2219","2018/10/12 19:49:24","新北市新店區光明街91號","121.538991666667","24.9609683333333","6500600","新店區"
"231057","256-BX","2018/10/12 19:49:34","新北市新店區花園二路三段21-2號","121.55683","24.93132","6500600","新店區"
"231042","268-BY","2018/10/12 19:49:39","新北市新店區中興路一段266-6號","121.545013333333","24.9676616666667","6500600","新店區"
"231051","278-BY","2018/10/12 19:49:42","新北市新店區中央路147號","121.53009","24.973395","6500600","新店區"
"231050","AAD-862","2018/10/12 19:49:28","新北市新店區北宜路二段579巷2號","121.565418333333","24.9539333333333","6500600","新店區"
"231061","355-BY","2018/10/12 19:49:29","新北市新店區安民街192號","121.517138333333","24.97159","6500600","新店區"
"231056","4715-K9","2018/10/12 19:49:26","新北市新店區民權路72號","121.53812","24.9831716666667","6500600","新店區"
"231067","4772-VM","2018/10/12 19:49:41","新北市新店區精忠路10-1號","121.532655","24.95907","6500600","新店區"
"231065","512-UM","2018/10/12 19:49:39","新北市新店區安祥路109巷151弄12號","121.478111666667","24.9589016666667","6500600","新店區"
"231049","513-UM","2018/10/12 19:49:42","新北市新店區民權路102號","121.535923333333","24.9829283333333","6500600","新店區"
"231063","616-UM","2018/10/12 19:49:38","新北市新店區車子路11號","121.503023333333","24.952","6500600","新店區"
"231045","617-UM","2018/10/12 19:49:36","新北市新店區中生路66號","121.564633333333","24.9526133333333","6500600","新店區"
"231064","719-UM","2018/10/12 19:48:31","新北市新店區光華街8巷25號","121.517941666667","24.9699216666667","6500600","新店區"
"231068","719-UY","2018/10/12 19:49:44","新北市新店區安一路一段1-1號","121.519528333333","24.961055","6500600","新店區"
"231060","897-TW","2018/10/12 19:49:38","新北市新店區安康路二段199號","121.509163333333","24.9590283333333","6500600","新店區"
"231043","899-TW","2018/10/12 19:49:25","新北市新店區中正路263-2號","121.53845","24.9737616666667","6500600","新店區"
"231055","AKT-0513","2018/10/12 19:49:40","新北市新店區中華路83巷61號","121.538448333333","24.9674333333333","6500600","新店區"
"241011","013-R5","2018/10/12 19:49:29","新北市三重區介壽路39巷6號","121.498948333333","25.0701066666667","6500200","三重區"
"241028","022-UY","2018/10/12 19:49:36","新北市三重區中正南路127號","121.494028333333","25.0571783333333","6500200","三重區"
"241008","059-VK","2018/10/12 19:49:41","新北市三重區永福街147-8號","121.47875","25.07609","6500200","三重區"
"241022","060-VK","2018/10/12 19:49:24","新北市三重區新北大道一段7號","121.489915","25.061515","6500200","三重區"
"241031","061-VK","2018/10/12 19:49:38","新北市三重區重新路四段246號","121.485791666667","25.0534916666667","6500200","三重區"
"241015","062-VK","2018/10/12 19:49:26","新北市三重區重新路一段1號","121.50375","25.06427","6500200","三重區"
"241017","063-VK","2018/10/12 19:49:34","新北市三重區重陽路三段5巷8弄16號","121.489568333333","25.0665466666667","6500200","三重區"
"241026","066-VK","2018/10/12 19:49:26","新北市三重區文化南路51號","121.500223333333","25.061255","6500200","三重區"
"241003","091-VK","2018/10/12 19:49:30","新北市三重區五華街130號","121.491583333333","25.0834666666667","6500200","三重區"
"241009","265-UM","2018/10/12 19:49:35","新北市三重區三和路四段390巷61號","121.479366666667","25.0784083333333","6500200","三重區"
"241016","266-UM","2018/10/12 19:49:38","新北市三重區正義北路48巷74號","121.495586666667","25.06336","6500200","三重區"
"241018","268-UM","2018/10/12 19:49:31","新北市三重區雙園街57巷32號","121.494315","25.0683766666667","6500200","三重區"
"241032","269-UM","2018/10/12 19:49:29","新北市三重區重陽路一段10號","121.486296666667","25.0577083333333","6500200","三重區"
"241013","270-UM","2018/10/12 19:49:32","新北市三重區仁愛街112巷14號","121.49477","25.073955","6500200","三重區"
"241025","271-UM","2018/10/12 19:49:38","新北市三重區頂崁街189號","121.477705","25.0663466666667","6500200","三重區"
"241007","398-BY","2018/10/12 19:49:37","新北市三重區三和路四段135巷5號","121.48507","25.0781466666667","6500200","三重區"
"241035","KEA-2210","2018/10/12 19:49:28","新北市三重區中央北路18巷41號","121.499515","25.06394","6500200","三重區"
"241004","475-VK","2018/10/12 19:49:39","新北市三重區五華街74號","121.493436666667","25.0820116666667","6500200","三重區"
"241020","478-VK","2018/10/12 19:49:27","新北市三重區三和路4段20巷26-1號","121.490133333333","25.0733383333333","6500200","三重區"
"241030","480-VK","2018/10/12 19:49:39","新北市三重區環河南路254巷84號","121.488896666667","25.0516466666667","6500200","三重區"
"241014","543-UM","2018/10/12 19:49:23","新北市三重區三和路二段37-8號","121.501353333333","25.06755","6500200","三重區"
"241023","545-UM","2018/10/12 19:49:39","新北市三重區頂崁街166號","121.477595","25.0657516666667","6500200","三重區"
"241001","547-UM","2018/10/12 19:49:28","新北市三重區仁愛街327巷31號","121.493038333333","25.079955","6500200","三重區"
"241006","AAD-863","2018/10/12 19:49:40","新北市三重區力行路二段33巷10號","121.482485","25.07373","6500200","三重區"
"241019","743-BX","2018/10/12 19:49:36","新北市三重區自強路二段67巷15號","121.48939","25.0702583333333","6500200","三重區"
"241012","941-UM","2018/10/12 19:49:29","新北市三重區仁興街56巷14號","121.498631666667","25.0756066666667","6500200","三重區"
"241029","942-UM","2018/10/12 19:49:38","新北市三重區重安街16號","121.490603333333","25.0584416666667","6500200","三重區"
"235066","003-UY","2018/10/12 19:49:29","新北市中和區南工路26號","121.505595","25.0008466666667","6500300","中和區"
"235064","005-UY","2018/10/12 19:49:39","新北市中和區南華路33號","121.503176666667","24.996115","6500300","中和區"
"235063","006-UY","2018/10/12 19:49:31","新北市中和區連城路171巷41弄1號","121.496118333333","24.9965666666667","6500300","中和區"
"235056","096-UM","2018/10/12 19:49:24","新北市中和區民富街6號","121.476981666667","25.0060166666667","6500300","中和區"
"235039","097-UM","2018/10/12 19:49:23","新北市中和區大勇街27巷19號","121.516575","24.9937316666667","6500300","中和區"
"235065","098-UM","2018/10/12 19:49:39","新北市中和區莊敬路15號","121.49993","25.004485","6500300","中和區"
"235040","150-BY","2018/10/12 19:49:32","新北市中和區安平路59號","121.509621666667","24.9949433333333","6500300","中和區"
"235058","151-BY","2018/10/12 19:49:42","新北市中和區員山路142巷23號","121.482456666667","24.9965966666667","6500300","中和區"
"235055","183-VK","2018/10/12 19:49:38","新北市中和區德光路27巷1弄2號","121.47085","25.0038983333333","6500300","中和區"
"235038","185-VK","2018/10/12 19:49:43","新北市中和區自立路14號","121.522245","24.9962333333333","6500300","中和區"
"235049","186-VK","2018/10/12 19:49:42","新北市中和區中正路26號","121.502595","24.99384","6500300","中和區"
"235067","255-BX","2018/10/12 19:49:28","新北市中和區新生街186巷6號","121.48333","24.999685","6500300","中和區"
"235044","293-VK","2018/10/12 19:49:35","新北市中和區南山路152號","121.50423","24.992125","6500300","中和區"
"235072","301-VK","2018/10/12 19:49:29","新北市中和區中正路432巷36號","121.490733333333","24.9958083333333","6500300","中和區"
"235043","352-BY","2018/10/12 19:49:29","新北市中和區興南路二段159巷7號","121.505325","24.98312","6500300","中和區"
"235042","KEA-2878","2018/10/12 19:49:37","新北市中和區宜安路32號","121.512721666667","24.99616","6500300","中和區"
"235050","4979-A6","2018/10/12 19:49:28","新北市中和區和平街164巷4號","121.506033333333","24.992425","6500300","中和區"
"235069","4980-A6","2018/10/12 19:49:35","新北市中和區中正路589巷15號","121.485738333333","24.99363","6500300","中和區"
"235070","558-UM","2018/10/12 19:49:40","新北市中和區景平路513號","121.499238333333","24.998605","6500300","中和區"
"235054","640-BX","2018/10/12 19:49:34","新北市中和區莒光路93號","121.472398333333","25.0031533333333","6500300","中和區"
"235047","732-UM","2018/10/12 19:49:34","新北市中和區和平街18號","121.509893333333","24.9901","6500300","中和區"
"235046","733-UM","2018/10/12 19:49:42","新北市中和區仁愛街66號","121.511305","24.987775","6500300","中和區"
"235057","801-TS","2018/10/12 19:49:34","新北市中和區員山路120號","121.481118333333","24.9958833333333","6500300","中和區"
"235041","802-TS","2018/10/12 19:49:38","新北市中和區永貞路239巷15號","121.512691666667","25.0031","6500300","中和區"
"235052","805-TS","2018/10/12 19:49:38","新北市中和區華新街30巷16號","121.506858333333","24.9844666666667","6500300","中和區"
"235048","896-TW","2018/10/12 19:49:42","新北市中和區興南路一段143號","121.508726666667","24.98742","6500300","中和區"
"235053","900-TW","2018/10/12 19:49:35","新北市中和區國光街189巷12弄2號","121.467473333333","25.0014066666667","6500300","中和區"
"235060","911-UM","2018/10/12 19:49:30","新北市中和區新生街38號","121.483185","25.00359","6500300","中和區"
"235051","157-BY","2018/10/12 19:49:32","新北市中和區中興街127號","121.499931666667","24.9917433333333","6500300","中和區"
"235037","AAC-213","2018/10/12 19:49:38","新北市中和區自立路66號","121.52394","24.991285","6500300","中和區"
"235059","AAC-215","2018/10/12 19:49:32","新北市中和區圓通路305巷5弄34號","121.494463333333","24.990285","6500300","中和區"
"220068","013-TV","2018/10/12 19:49:30","新北市板橋區中山路二段416巷3弄1號","121.483436666667","25.0206466666667","6500100","板橋區"
"220035","015-TV","2018/10/12 19:49:35","新北市板橋區新生街23巷2號","121.456121666667","25.02141","6500100","板橋區"
"220065","072-UY","2018/10/12 19:49:36","新北市板橋區民族路61號","121.465021666667","25.0088066666667","6500100","板橋區"
"220106","075-UY","2018/10/12 19:49:37","新北市板橋區文化路二段608巷64號","121.480121666667","25.0340683333333","6500100","板橋區"
"220069","AAD-861","2018/10/12 19:49:30","新北市板橋區貴興路114號","121.455135","25.0019283333333","6500100","板橋區"
"247002","893-R6","2018/10/12 19:49:37","新北市蘆洲區永樂街38巷40號","121.458696666667","25.0900583333333","6501400","蘆洲區"
"247014","339-TH","2018/10/12 19:49:39","新北市蘆洲區復興路30號","121.472273333333","25.0850966666667","6501400","蘆洲區"
"247008","336-TH","2018/10/12 19:49:28","新北市蘆洲區中山一路48號","121.479343333333","25.080865","6501400","蘆洲區"
"247004","053-VK","2018/10/12 19:49:31","新北市蘆洲區中原路38號","121.459785","25.082645","6501400","蘆洲區"
"226004","205-ST","2018/10/12 19:49:26","新北市平溪區靜安路三段392巷3號","121.784418333333","25.049565","6502400","平溪區"
"228001","670-TC","2018/10/12 19:49:39","新北市貢寮區仁理村仁愛路95-1號","121.927643333333","25.05545","6502600","貢寮區"
"228003","828-UM","2018/10/12 19:49:30","新北市貢寮區真理里美艷山街9號","121.927113333333","25.05978","6502600","貢寮區"
"224010","AGQ-8101","2018/10/12 19:44:38","新北市瑞芳區金光路334號","121.848133333333","25.1094366666667","6501200","瑞芳區"
"224002","639-TC","2018/10/12 19:49:30","新北市瑞芳區員山子路員山巷21號","121.816968333333","25.1042733333333","6501200","瑞芳區"
"224009","273-VK","2018/10/12 19:49:21","新北市瑞芳區靜安路四段26號","121.797956666667","25.0897633333333","6501200","瑞芳區"
"227003","642-TC","2018/10/12 19:49:28","新北市雙溪區雙溪里內挖路36號","121.863208333333","25.0367216666667","6502500","雙溪區"
"227011","400-TW","2018/10/12 19:49:38","新北市雙溪區新基里中華路95號","121.865848333333","25.0386816666667","6502500","雙溪區"
"222001","KEA-2212","2018/10/12 19:49:31","新北市深坑區北深路三段71號","121.606686666667","25.0014283333333","6501800","深坑區"
"208002","KEA-2872","2018/10/12 19:49:41","新北市金山區中華路360號","121.63298","25.2240066666667","6502700","金山區"
"208003","665-BX","2018/10/12 19:49:41","新北市金山區清泉里清水路49號","121.629588333333","25.23444","6502700","金山區"
"208001","761-BX","2018/10/12 19:49:42","新北市金山區重和里林口25號","121.59687","25.210245","6502700","金山區"
"251005","010-UM","2018/10/12 19:49:27","新北市淡水區中正東路63號","121.44663","25.1674033333333","6501000","淡水區"
"251008","KEA-2871","2018/10/12 19:49:37","新北市淡水區中正路一段24巷5號","121.426636666667","25.17694","6501000","淡水區"
"251010","413-VK","2018/10/12 19:49:42","新北市淡水區下圭柔山90-8號","121.431546666667","25.21064","6501000","淡水區"
"251012","441-VK","2018/10/12 19:49:24","新北市淡水區淡金路三段66號","121.448226666667","25.1999466666667","6501000","淡水區"
"251004","443-VK","2018/10/12 19:49:37","新北市淡水區民權路177巷53號","121.460471666667","25.1338616666667","6501000","淡水區"
"251001","559-UM","2018/10/12 19:49:41","新北市淡水區淡金路137號","121.457643333333","25.1644516666667","6501000","淡水區"
"251006","561-UM","2018/10/12 19:49:32","新北市淡水區水碓街15號","121.443458333333","25.17698","6501000","淡水區"
"251009","575-R6","2018/10/12 19:49:36","新北市淡水區中正路38-1號","121.443716666667","25.1692666666667","6501000","淡水區"
"251007","577-R6","2018/10/12 19:49:40","新北市淡水區竿蓁二街97號","121.45654","25.1646416666667","6501000","淡水區"
"251011","650-BX","2018/10/12 19:49:33","新北市淡水區新市二路四段265號","121.445911666667","25.192465","6501000","淡水區"
"251003","673-BX","2018/10/12 19:49:25","新北市淡水區中山北路三段138號","121.444836666667","25.1952966666667","6501000","淡水區"
"207003","550-UM","2018/10/12 19:49:37","新北市萬里區大鵬里萬里加投45-1號","121.640818333333","25.2109216666667","6502800","萬里區"
"207004","225-TW","2018/10/12 19:49:25","新北市萬里區萬里里瑪鋉路238號","121.689023333333","25.1801816666667","6502800","萬里區"
"252002","178-VK","2018/10/12 19:49:35","新北市三芝區三民街31號","121.504588333333","25.258475","6502100","三芝區"
"252001","292-VK","2018/10/12 19:49:28","新北市三芝區公正街9號","121.499728333333","25.2574983333333","6502100","三芝區"
"237004","KEA-2597","2018/10/12 19:49:27","新北市三峽區添福295號","121.377463333333","24.8854216666667","6500900","三峽區"
"237007","153-BY","2018/10/12 19:49:24","新北市三峽區麻園13號","121.362598333333","24.915845","6500900","三峽區"
"237009","210-TH","2018/10/12 19:49:41","新北市三峽區中園街22號","121.368133333333","24.9269233333333","6500900","三峽區"
"237012","275-BY","2018/10/12 19:49:37","新北市三峽區中華路3巷2-7號","121.374895","24.9319966666667","6500900","三峽區"
"237008","302-VK","2018/10/12 19:49:43","新北市三峽區中正路一段108巷7弄2-5號","121.373373333333","24.92973","6500900","三峽區"
"237014","433-BY","2018/10/12 19:49:22","新北市三峽區添福141-13號","121.374516666667","24.9010166666667","6500900","三峽區"
"237006","5529-G3","2018/10/12 19:49:33","新北市三峽區中正路一段330號","121.370703333333","24.9248333333333","6500900","三峽區"
"237015","649-BX","2018/10/12 19:49:39","新北市三峽區橫溪路99巷3號","121.39966","24.9361333333333","6500900","三峽區"
"237005","AKY-6261","2018/10/12 19:49:38","新北市三峽區長泰街79-2號","121.375638333333","24.933105","6500900","三峽區"
"236069","105-UM","2018/10/12 19:49:40","新北市土城區中央路二段252號","121.441608333333","24.9747166666667","6501300","土城區"
"236042","107-UM","2018/10/12 19:49:35","新北市土城區金城路二段245巷15號","121.455311666667","24.9832466666667","6501300","土城區"
"236079","166-UM","2018/10/12 19:49:36","新北市土城區中州路30巷5號","121.41358","24.95881","6501300","土城區"
"236030","253-BX","2018/10/12 19:49:33","新北市土城區中央路一段290號","121.443331666667","24.98243","6501300","土城區"
"236026","269-VK","2018/10/12 19:49:23","新北市土城區中央路二段61巷26號","121.44334","24.9787516666667","6501300","土城區"
"236039","271-VK","2018/10/12 19:49:32","新北市土城區國際路158巷43號","121.468283333333","24.9754916666667","6501300","土城區"
"236020","401-BY","2018/10/12 19:49:29","新北市土城區峰廷街35號","121.469596666667","24.986385","6501300","土城區"
"236055","752-BX","2018/10/12 19:49:29","新北市土城區延和路174號","121.46878","24.9904","6501300","土城區"
"236059","912-UM","2018/10/12 19:49:32","新北市土城區中央路一段205號","121.44579","24.98668","6501300","土城區"
"236048","913-UM","2018/10/12 19:49:40","新北市土城區青雲路147-2號","121.458923333333","24.983795","6501300","土城區"
"236063","915-UM","2018/10/12 19:49:24","新北市土城區延和路146巷8號","121.467993333333","24.9896616666667","6501300","土城區"
"242037","AAC-296","2018/10/12 19:49:41","新北市新莊區建安街105號","121.426585","25.0241166666667","6500500","新莊區"
"242058","986-R7","2018/10/12 19:49:39","新北市新莊區中正路473-1號","121.441975","25.0332116666667","6500500","新莊區"
"242056","751-BX","2018/10/12 19:49:39","新北市新莊區新豐街2號","121.449051666667","25.034775","6500500","新莊區"
"242029","612-BX","2018/10/12 19:49:39","新北市新莊區中平路288-16號","121.44477","25.05117","6500500","新莊區"
"242048","497-BY","2018/10/12 19:49:25","新北市新莊區建安街76巷1弄18號","121.425865","25.0242866666667","6500500","新莊區"
"242015","442-UM","2018/10/12 19:49:28","新北市新莊區中平路82巷36-2號","121.446405","25.04491","6500500","新莊區"
"242023","362-BY","2018/10/12 19:49:41","新北市新莊區化成路228號","121.465621666667","25.0468816666667","6500500","新莊區"
"242034","135-UY","2018/10/12 19:49:37","新北市新莊區建中街116巷3弄1號","121.445636666667","25.0369066666667","6500500","新莊區"
"242013","173-VK","2018/10/12 19:49:43","新北市新莊區中泰街38巷9號","121.450723333333","25.0473283333333","6500500","新莊區"
"242007","176-VK","2018/10/12 19:49:35","新北市新莊區思源路593巷6弄23號","121.457593333333","25.0597733333333","6500500","新莊區"
"242017","346-TH","2018/10/12 19:49:25","新北市新莊區中華路一段226號","121.452628333333","25.0430116666667","6500500","新莊區"
"242002","347-TH","2018/10/12 19:49:36","新北市新莊區新泰路2-11號","121.450136666667","25.0325533333333","6500500","新莊區"
"242032","348-TH","2018/10/12 19:49:35","新北市新莊區忠孝街31號","121.443906666667","25.0356366666667","6500500","新莊區"
"242005","349-TH","2018/10/12 19:49:27","新北市新莊區思源路94巷21號","121.461498333333","25.045935","6500500","新莊區"
"242021","350-TH","2018/10/12 19:49:26","新北市新莊區中正路289號","121.448573333333","25.0353016666667","6500500","新莊區"
"238015","755-BX","2018/10/12 19:49:30","新北市樹林區育英街60號","121.421141666667","24.9895466666667","6500700","樹林區"
"238023","601-UM","2018/10/12 19:49:41","新北市樹林區中正路245號","121.422551666667","25.0041083333333","6500700","樹林區"
"238019","599-UM","2018/10/12 19:49:36","新北市樹林區民和街1號","121.385438333333","24.9682383333333","6500700","樹林區"
"238021","KEA-2539","2018/10/12 19:49:37","新北市樹林區田尾街194號","121.400626666667","24.94878","6500700","樹林區"
"238025","303-VK","2018/10/12 19:49:25","新北市樹林區中山路一段233號","121.42087","24.9869466666667","6500700","樹林區"
"238017","283-BY","2018/10/12 19:49:25","新北市樹林區保安街二段45巷21弄3號","121.414838333333","24.9998816666667","6500700","樹林區"
"239006","891-R6","2018/10/12 19:49:35","新北市鶯歌區文化路9號","121.360823333333","24.9566666666667","6500800","鶯歌區"
"221008","489-VK","2018/10/12 19:49:24","新北市汐止區康寧街39號","121.618495","25.0668966666667","6501100","汐止區"
"221036","130-UY","2018/10/12 19:49:35","新北市汐止區汐萬路一段160號","121.652618333333","25.0715","6501100","汐止區"
"221015","131-UY","2018/10/12 19:49:39","新北市汐止區忠孝東路414號","121.665935","25.07143","6501100","汐止區"
"221010","269-BY","2018/10/12 19:49:35","新北市汐止區康寧街885巷1號","121.650005","25.0762033333333","6501100","汐止區"
"221012","278-VK","2018/10/12 19:49:36","新北市汐止區大同路三段442號","121.683245","25.0728816666667","6501100","汐止區"
"221023","279-VK","2018/10/12 19:49:38","新北市汐止區明峰街164號","121.629115","25.07041","6501100","汐止區"
"221032","280-BY","2018/10/12 19:49:32","新北市汐止區橫科路403巷13號","121.624796666667","25.0476866666667","6501100","汐止區"
"221027","281-BY","2018/10/12 19:49:40","新北市汐止區中正路11號","121.662911666667","25.0701316666667","6501100","汐止區"
"221029","298-VK","2018/10/12 19:49:28","新北市汐止區康寧街901號","121.651463333333","25.0749783333333","6501100","汐止區"
"221021","299-VK","2018/10/12 19:49:28","新北市汐止區新興路83-2號","121.657696666667","25.0618833333333","6501100","汐止區"
"221031","353-TW","2018/10/12 19:49:26","新北市汐止區福德三路127號","121.63364","25.067585","6501100","汐止區"
"221035","622-UM","2018/10/12 19:49:29","新北市汐止區長江街13巷6弄1號","121.6547","25.07174","6501100","汐止區"
"221025","623-UM","2018/10/12 19:49:43","新北市汐止區秀峰路81巷14號","121.660733333333","25.06437","6501100","汐止區"
"221038","646-BX","2018/10/12 19:49:36","新北市汐止區忠孝東路415號","121.665608333333","25.071415","6501100","汐止區"
"221033","647-BX","2018/10/12 19:49:39","新北市汐止區東勢街76巷97號","121.636033333333","25.0390033333333","6501100","汐止區"
"221002","707-TV","2018/10/12 19:49:24","新北市汐止區工建路504號","121.63317","25.05841","6501100","汐止區"
"220079","145-BY","2018/10/12 19:49:32","新北市板橋區建國街54巷29號","121.459925","25.0170883333333","6500100","板橋區"
"220080","200-UY","2018/10/12 19:49:37","新北市板橋區大觀路二段109巷1號","121.447468333333","25.0011816666667","6500100","板橋區"
"220082","610-BX","2018/10/12 19:49:38","新北市板橋區存德街45號","121.43106","24.991435","6500100","板橋區"
"220101","245-BX","2018/10/12 19:49:22","新北市板橋區縣民大道三段93巷18號","121.475165","25.0223266666667","6500100","板橋區"
"220072","277-BY","2018/10/12 19:49:30","新北市板橋區金門街151巷40弄15號","121.433476666667","24.9895816666667","6500100","板橋區"
"220094","283-UM","2018/10/12 19:49:41","新北市板橋區長江路一段123號","121.460161666667","25.03001","6500100","板橋區"
"220071","283-VK","2018/10/12 19:49:32","新北市板橋區信義路279巷23號","121.465133333333","24.990415","6500100","板橋區"
"220053","285-VK","2018/10/12 19:49:22","新北市板橋區中山路二段90巷9號","121.47555","25.0160483333333","6500100","板橋區"
"220083","286-VK","2018/10/12 19:49:41","新北市板橋區僑中二街8巷13號","121.44648","25.0112616666667","6500100","板橋區"
"220081","287-VK","2018/10/12 19:49:34","新北市板橋區僑中一街82號","121.447475","25.0116","6500100","板橋區"
"220090","288-VK","2018/10/12 19:49:41","新北市板橋區龍泉街54巷8弄3號","121.457055","25.0267716666667","6500100","板橋區"
"220061","293-UM","2018/10/12 19:49:38","新北市板橋區板新路200巷2號","121.46915","25.01604","6500100","板橋區"
"220084","296-UM","2018/10/12 19:49:41","新北市板橋區溪崑二街92巷9號","121.426113333333","24.9897266666667","6500100","板橋區"
"242039","281-VK","2018/10/12 19:49:32","新北市新莊區民安路299巷15號","121.429241666667","25.0230483333333","6500500","新莊區"
"220075","303-R5","2018/10/12 19:49:38","新北市板橋區金華街3號","121.455568333333","25.020075","6500100","板橋區"
"220062","305-R5","2018/10/12 19:49:29","新北市板橋區中山路二段416巷52-2號","121.482856666667","25.0193","6500100","板橋區"
"220092","307-R5","2018/10/12 19:49:37","新北市板橋區自由路51巷24弄7-1號","121.46428","25.0234666666667","6500100","板橋區"
"220098","317-R6","2018/10/12 19:49:33","新北市板橋區新海路385巷18號","121.458231666667","25.0257166666667","6500100","板橋區"
"220064","486-VK","2018/10/12 19:49:33","新北市板橋區實踐路195號","121.4645","25.0031183333333","6500100","板橋區"
"220089","487-VK","2018/10/12 19:49:25","新北市板橋區綠堤街47號","121.455293333333","25.025885","6500100","板橋區"
"220088","491-VK","2018/10/12 19:49:31","新北市板橋區大同街67號","121.479353333333","25.0279266666667","6500100","板橋區"
"220103","561-BX","2018/10/12 19:49:34","新北市板橋區陽明街29巷4號","121.465095","25.0217733333333","6500100","板橋區"
"220063","609-BX","2018/10/12 19:49:35","新北市板橋區中山路二段563號","121.484206666667","25.0220433333333","6500100","板橋區"
"220091","637-BX","2018/10/12 19:49:42","新北市板橋區文聖街149巷41號","121.480085","25.0290983333333","6500100","板橋區"
"220057","686-BX","2018/10/12 19:49:25","新北市板橋區信義路201號","121.459195","24.9917466666667","6500100","板橋區"
"220077","687-BX","2018/10/12 19:49:36","新北市板橋區僑中一街124巷17弄2號","121.446103333333","25.01387","6500100","板橋區"
"220093","689-BX","2018/10/12 19:49:36","新北市板橋區長江路二段295號","121.470518333333","25.0331583333333","6500100","板橋區"
"220054","741-BX","2018/10/12 19:49:30","新北市板橋區實踐路93巷50號","121.465908333333","25.0050533333333","6500100","板橋區"
"220102","KEA-2699","2018/10/12 19:49:33","新北市板橋區文化路二段410巷11號","121.474508333333","25.0310983333333","6500100","板橋區"
"220055","827-TW","2018/10/12 19:49:37","新北市板橋區國慶路149巷4弄16-4號","121.461861666667","24.9970316666667","6500100","板橋區"
"220067","829-TW","2018/10/12 19:49:41","新北市板橋區長安街255巷42弄5號","121.472786666667","25.0113516666667","6500100","板橋區"
"220096","831-TW","2018/10/12 19:49:31","新北市板橋區文化路二段86號","121.470018333333","25.025695","6500100","板橋區"
"220074","895-R6","2018/10/12 19:49:35","新北市板橋區東門街15號","121.458158333333","25.008385","6500100","板橋區"
"220073","985-R7","2018/10/12 19:49:30","新北市板橋區大仁街75-1號","121.453901666667","25.0162316666667","6500100","板橋區"
"220097","AAC-210","2018/10/12 19:49:37","新北市板橋區文化路一段285巷1弄1號","121.464478333333","25.0188816666667","6500100","板橋區"
"220070","AAC-253","2018/10/12 19:49:42","新北市板橋區民族路87號","121.466073333333","25.0084133333333","6500100","板橋區"
"235068","KEA-2873","2018/10/12 19:49:16","新北市中和區枋寮街81號","121.500851666667","25.0013833333333","6500300","中和區"
"235061","KEA-2875","2018/10/12 19:49:40","新北市中和區民樂路3號","121.481578333333","25.0011516666667","6500300","中和區"
