"lineid","car","time","location","longitude","latitude","cityid","cityname"
"234086","338-UY","2018/10/12 20:39:40","新北市永和區光復街21號","121.516536666667","25.017425","6500400","永和區"
"234042","862-TW","2018/10/12 20:39:33","新北市永和區中正路513號","121.516941666667","25.0072383333333","6500400","永和區"
"249001","173-UM","2018/10/12 20:39:26","新北市八里區中山路三段335號","121.377278333333","25.1387433333333","6502300","八里區"
"249004","303-UY","2018/10/12 20:39:44","新北市八里區中山路一段159號","121.412685","25.15868","6502300","八里區"
"249002","305-UY","2018/10/12 20:39:32","新北市八里區中華路一段3號","121.42297","25.1586216666667","6502300","八里區"
"249003","593-UM","2018/10/12 20:39:29","新北市八里區中山路三段386號","121.368433333333","25.1360933333333","6502300","八里區"
"234074","AAC-211","2018/10/12 20:39:29","新北市永和區竹林路119巷16號","121.521028333333","25.0114116666667","6500400","永和區"
"243011","KEA-2215","2018/10/12 20:39:42","新北市泰山區明志路三段62號","121.424865","25.0419566666667","6501600","泰山區"
"222003","436-BY","2018/10/12 20:39:41","新北市深坑區文山路二段30巷35號","121.614786666667","24.9984816666667","6501800","深坑區"
"222002","659-BX","2018/10/12 20:39:42","新北市深坑區萬福路11號","121.597655","25.0063316666667","6501800","深坑區"
"231059","001-UM","2018/10/12 20:39:36","新北市新店區僑愛一路1號","121.499865","24.9449233333333","6500600","新店區"
"231041","002-UM","2018/10/12 20:39:27","新北市新店區中正路695巷2號","121.533983333333","24.9905516666667","6500600","新店區"
"231066","0291-UT","2018/10/12 20:39:31","新北市新店區安興路112號","121.514673333333","24.9776566666667","6500600","新店區"
"231040","047-UY","2018/10/12 20:39:26","新北市新店區中正路268號","121.539016666667","24.973535","6500600","新店區"
"231044","106-UY","2018/10/12 20:39:41","新北市新店區建國路276號","121.537146666667","24.983895","6500600","新店區"
"231048","187-VK","2018/10/12 20:39:30","新北市新店區寶慶街5號","121.544306666667","24.98669","6500600","新店區"
"231062","188-VK","2018/10/12 20:39:33","新北市新店區安泰路60巷100號","121.484035","24.945175","6500600","新店區"
"231053","189-VK","2018/10/12 20:39:42","新北市新店區廣興路2-1號","121.546331666667","24.91172","6500600","新店區"
"231054","KEA-2219","2018/10/12 20:39:44","新北市新店區北新路一段64巷43號","121.54233","24.9656583333333","6500600","新店區"
"231057","256-BX","2018/10/12 20:39:34","新北市新店區花園二路一段9-6號","121.556326666667","24.9328516666667","6500600","新店區"
"231042","268-BY","2018/10/12 20:39:39","新北市新店區寶橋路230號","121.551531666667","24.9788416666667","6500600","新店區"
"231051","278-BY","2018/10/12 20:39:42","新北市新店區溪園路397號","121.523606666667","24.9776916666667","6500600","新店區"
"231050","AAD-862","2018/10/12 20:39:28","新北市新店區中正路265巷1號","121.53797","24.97359","6500600","新店區"
"231061","355-BY","2018/10/12 20:39:29","新北市新店區新和街36號","121.519361666667","24.9848533333333","6500600","新店區"
"231058","3713-VJ","2018/10/12 20:39:44","新北市新店區平等街41號","121.536456666667","24.97326","6500600","新店區"
"231056","4715-K9","2018/10/12 20:39:26","新北市新店區中央七街61巷2號","121.528346666667","24.976525","6500600","新店區"
"231067","4772-VM","2018/10/12 20:39:40","新北市新店區安華路28-1號","121.519808333333","24.9607583333333","6500600","新店區"
"231065","512-UM","2018/10/12 20:39:39","新北市新店區安祥路104巷6弄46號","121.483416666667","24.963815","6500600","新店區"
"231049","513-UM","2018/10/12 20:39:41","新北市新店區永業路81巷5弄22號","121.530838333333","24.9494633333333","6500600","新店區"
"231063","616-UM","2018/10/12 20:39:38","新北市新店區玫瑰路4-1號","121.49364","24.9514166666667","6500600","新店區"
"231045","617-UM","2018/10/12 20:39:36","新北市新店區長春路39號","121.549825","24.9574533333333","6500600","新店區"
"231064","719-UM","2018/10/12 20:39:30","新北市新店區安和路三段130號","121.516463333333","24.98587","6500600","新店區"
"231068","719-UY","2018/10/12 20:39:44","新北市新店區寶慶街35巷1弄2號","121.54315","24.9862833333333","6500600","新店區"
"231060","897-TW","2018/10/12 20:39:38","新北市新店區安康路三段740號","121.473806666667","24.9419483333333","6500600","新店區"
"231043","899-TW","2018/10/12 20:39:45","新北市新店區博愛街13巷24號","121.540263333333","24.9740483333333","6500600","新店區"
"241011","013-R5","2018/10/12 20:39:29","新北市三重區龍濱路221號","121.50192","25.0720416666667","6500200","三重區"
"241028","022-UY","2018/10/12 20:39:36","新北市三重區光興街95號","121.497301666667","25.05994","6500200","三重區"
"241008","059-VK","2018/10/12 20:39:41","新北市三重區下竹圍街42-1號","121.48098","25.0748616666667","6500200","三重區"
"241022","060-VK","2018/10/12 20:39:24","新北市三重區過圳街27-5號","121.487958333333","25.0624033333333","6500200","三重區"
"241031","061-VK","2018/10/12 20:39:38","新北市三重區重陽路一段113巷1弄49號","121.488053333333","25.0585466666667","6500200","三重區"
"241015","062-VK","2018/10/12 20:39:26","新北市三重區文化北路103號","121.497855","25.0683733333333","6500200","三重區"
"241017","063-VK","2018/10/12 20:39:34","新北市三重區安慶街264號","121.49081","25.0677216666667","6500200","三重區"
"241026","066-VK","2018/10/12 20:39:26","新北市三重區福德南路24巷6號","121.503565","25.0632066666667","6500200","三重區"
"241002","090-VK","2018/10/12 20:39:43","新北市三重區仁義街161-4號","121.496946666667","25.0813833333333","6500200","三重區"
"241003","091-VK","2018/10/12 20:39:30","新北市三重區五華街141巷60號","121.493605","25.0867766666667","6500200","三重區"
"241005","262-UM","2018/10/12 20:39:39","新北市三重區仁義街286號","121.493535","25.086115","6500200","三重區"
"241009","265-UM","2018/10/12 20:39:35","新北市三重區碧華街57號","121.48474","25.0813033333333","6500200","三重區"
"241016","266-UM","2018/10/12 20:39:25","新北市三重區長壽西街143-3號","121.49431","25.06669","6500200","三重區"
"241018","268-UM","2018/10/12 20:39:30","新北市三重區自強路一段179號","121.492325","25.06785","6500200","三重區"
"241032","269-UM","2018/10/12 20:39:29","新北市三重區重陽路一段120巷35號","121.485065","25.0602333333333","6500200","三重區"
"241013","270-UM","2018/10/12 20:39:32","新北市三重區仁賢街12-1號","121.495705","25.0748416666667","6500200","三重區"
"241025","271-UM","2018/10/12 20:39:38","新北市三重區頂崁街210巷27號","121.475746666667","25.0681883333333","6500200","三重區"
"241007","398-BY","2018/10/12 20:39:37","新北市三重區自強路四段28號","121.488856666667","25.0767233333333","6500200","三重區"
"241035","KEA-2210","2018/10/12 20:39:28","新北市三重區正義北路312號","121.494918333333","25.0702166666667","6500200","三重區"
"241004","475-VK","2018/10/12 20:39:39","新北市三重區仁愛街400號","121.490735","25.0811266666667","6500200","三重區"
"241020","478-VK","2018/10/12 20:39:27","新北市三重區忠孝路一段101號","121.489465","25.0721366666667","6500200","三重區"
"241030","480-VK","2018/10/12 20:39:39","新北市三重區成功路73巷9號","121.489461666667","25.0518466666667","6500200","三重區"
"241014","543-UM","2018/10/12 20:39:44","新北市三重區萬壽街1號","121.49917","25.0692933333333","6500200","三重區"
"241023","545-UM","2018/10/12 20:39:39","新北市三重區自由街39巷14號","121.478443333333","25.066985","6500200","三重區"
"241001","547-UM","2018/10/12 20:39:28","新北市三重區自強路三段76巷27弄2號","121.485166666667","25.0740366666667","6500200","三重區"
"241006","AAD-863","2018/10/12 20:39:40","新北市三重區力行路二段164號","121.483053333333","25.0767016666667","6500200","三重區"
"241019","743-BX","2018/10/12 20:39:16","新北市三重區重陽路四段56號","121.491705","25.0702066666667","6500200","三重區"
"241024","887-TS","2018/10/12 20:39:35","新北市三重區三民街222號","121.480038333333","25.0672483333333","6500200","三重區"
"241012","941-UM","2018/10/12 20:39:28","新北市三重區秀江街26號","121.502426666667","25.0730333333333","6500200","三重區"
"241029","942-UM","2018/10/12 20:39:44","新北市三重區集美街126巷25號","121.490025","25.053825","6500200","三重區"
"241033","AAC-255","2018/10/12 20:39:30","新北市三重區光復路二段87巷39弄13號","121.47416","25.0569583333333","6500200","三重區"
"235064","005-UY","2018/10/12 20:39:39","新北市中和區中正路395號","121.48964","24.9939333333333","6500300","中和區"
"247012","KEA-2869","2018/10/12 20:39:39","新北市蘆洲區集賢路224巷41號","121.480466666667","25.08844","6501400","蘆洲區"
"235069","4980-A6","2018/10/12 20:39:35","新北市中和區中正路530號","121.487771666667","24.99441","6500300","中和區"
"247002","893-R6","2018/10/12 20:39:37","新北市蘆洲區永樂街2號","121.459306666667","25.08829","6501400","蘆洲區"
"247016","546-UM","2018/10/12 20:39:43","新北市蘆洲區中山二路288號","121.468888333333","25.0776666666667","6501400","蘆洲區"
"247024","500-BY","2018/10/12 20:39:29","新北市蘆洲區長樂路159號","121.461931666667","25.0882833333333","6501400","蘆洲區"
"247014","339-TH","2018/10/12 20:39:37","新北市蘆洲區成功路62號","121.472618333333","25.0805566666667","6501400","蘆洲區"
"247006","337-TH","2018/10/12 20:39:43","新北市蘆洲區和平路121巷8弄3號","121.466881666667","25.0797966666667","6501400","蘆洲區"
"247008","336-TH","2018/10/12 20:39:31","新北市蘆洲區永安北路2段8巷1-1號","121.480468333333","25.0807966666667","6501400","蘆洲區"
"247020","057-VK","2018/10/12 20:39:29","新北市蘆洲區民族路331號","121.473781666667","25.0917866666667","6501400","蘆洲區"
"247004","053-VK","2018/10/12 20:39:31","新北市蘆洲區長安街297號","121.458045","25.0847633333333","6501400","蘆洲區"
"247022","001-UY","2018/10/12 20:39:28","新北市蘆洲區中正路243巷1號","121.467473333333","25.0864416666667","6501400","蘆洲區"
"222001","KEA-2212","2018/10/12 20:39:31","新北市深坑區北深路三段228號","121.600796666667","25.0039466666667","6501800","深坑區"
"251010","413-VK","2018/10/12 20:39:41","新北市淡水區沙崙路181巷15號","121.423976666667","25.1843383333333","6501000","淡水區"
"251012","441-VK","2018/10/12 20:39:44","新北市淡水區興仁路99號","121.451618333333","25.2181266666667","6501000","淡水區"
"251001","559-UM","2018/10/12 20:39:28","新北市淡水區鄧公路278巷1號","121.460961666667","25.1687883333333","6501000","淡水區"
"251006","561-UM","2018/10/12 20:39:32","新北市淡水區商工路186巷11號","121.450973333333","25.1877583333333","6501000","淡水區"
"251009","575-R6","2018/10/12 20:39:36","新北市淡水區民權路187巷15號","121.46021","25.1334216666667","6501000","淡水區"
"251007","577-R6","2018/10/12 20:39:40","新北市淡水區忠愛街1-3號","121.455166666667","25.1716166666667","6501000","淡水區"
"251002","672-BX","2018/10/12 20:39:29","新北市淡水區中正路32號","121.443835","25.16922","6501000","淡水區"
"251003","673-BX","2018/10/12 20:39:25","新北市淡水區新民街120巷54號","121.438753333333","25.1784583333333","6501000","淡水區"
"252002","178-VK","2018/10/12 20:39:35","新北市三芝區淡金路二段81號","121.503791666667","25.26065","6502100","三芝區"
"252001","292-VK","2018/10/12 20:39:29","新北市三芝區中山路一段83號","121.500993333333","25.256675","6502100","三芝區"
"236048","913-UM","2018/10/12 20:39:36","新北市樹林區中山路三段210-2號","121.381511666667","24.96554","6501300","土城區"
"242037","AAC-296","2018/10/12 20:39:39","新北市新莊區建安街10-1號","121.42858","25.0264566666667","6500500","新莊區"
"242058","986-R7","2018/10/12 20:39:39","新北市新莊區四維路123-1號","121.423021666667","25.022935","6500500","新莊區"
"242056","751-BX","2018/10/12 20:39:39","新北市新莊區瓊泰路2巷8號","121.44501","25.029115","6500500","新莊區"
"242025","613-BX","2018/10/12 20:39:27","新北市新莊區化成路579巷1號","121.464256666667","25.0659983333333","6500500","新莊區"
"242029","612-BX","2018/10/12 20:39:38","新北市新莊區中華路二段39號","121.453423333333","25.04652","6500500","新莊區"
"242044","566-BX","2018/10/12 20:39:41","新北市新莊區龍安路30號","121.41467","25.0221383333333","6500500","新莊區"
"242048","497-BY","2018/10/12 20:39:25","新北市新莊區中正路713號","121.425265","25.0297183333333","6500500","新莊區"
"242015","442-UM","2018/10/12 20:39:28","新北市新莊區中和街2號","121.448433333333","25.0429133333333","6500500","新莊區"
"242054","441-UM","2018/10/12 20:39:29","新北市新莊區民安西路189巷7號","121.42646","25.0153933333333","6500500","新莊區"
"242009","413-TV","2018/10/12 20:39:28","新北市新莊區福壽街99巷11弄11號","121.457445","25.0499833333333","6500500","新莊區"
"242046","400-BY","2018/10/12 20:39:33","新北市新莊區龍安路80號","121.417586666667","25.0209316666667","6500500","新莊區"
"242023","362-BY","2018/10/12 20:39:32","新北市新莊區復興路三段50號","121.461756666667","25.0444533333333","6500500","新莊區"
"242060","353-BY","2018/10/12 20:39:34","新北市新莊區新樹路244巷57號","121.431161666667","25.0194116666667","6500500","新莊區"
"242011","132-UY","2018/10/12 20:39:36","新北市新莊區中榮街122巷18號","121.446655","25.0535116666667","6500500","新莊區"
"242041","133-UY","2018/10/12 20:39:30","新北市新莊區天祥街15巷9號","121.416688333333","25.027565","6500500","新莊區"
"242034","135-UY","2018/10/12 20:39:40","新北市新莊區新莊路362號","121.449683333333","25.0335416666667","6500500","新莊區"
"242050","172-VK","2018/10/12 20:39:35","新北市新莊區民安西路143號","121.426311666667","25.01699","6500500","新莊區"
"242013","173-VK","2018/10/12 20:39:43","新北市新莊區中和街191巷33號","121.447223333333","25.0507033333333","6500500","新莊區"
"242019","175-VK","2018/10/12 20:39:38","新北市新莊區中港路2號","121.454945","25.03684","6500500","新莊區"
"242007","176-VK","2018/10/12 20:39:35","新北市新莊區思源路287巷2弄1號","121.45926","25.048325","6500500","新莊區"
"242002","347-TH","2018/10/12 20:39:36","新北市新莊區中港路五守新村37巷1號","121.454635","25.0388366666667","6500500","新莊區"
"242032","348-TH","2018/10/12 20:39:27","新北市新莊區中正路508巷5弄2號","121.43509","25.0337716666667","6500500","新莊區"
"242005","349-TH","2018/10/12 20:39:27","新北市新莊區中原東路170號","121.462005","25.0544316666667","6500500","新莊區"
"221008","489-VK","2018/10/12 20:39:24","新北市汐止區康寧街861巷3號","121.645308333333","25.0761133333333","6501100","汐止區"
"221036","130-UY","2018/10/12 20:39:39","新北市汐止區新昌路76號","121.663618333333","25.0688583333333","6501100","汐止區"
"221015","131-UY","2018/10/12 20:39:39","新北市汐止區建成路21號","121.664325","25.0726066666667","6501100","汐止區"
"221023","279-VK","2018/10/12 20:39:30","新北市汐止區康寧街604號","121.63618","25.0708333333333","6501100","汐止區"
"221032","280-BY","2018/10/12 20:39:32","新北市汐止區橫科路221巷19-1號","121.621513333333","25.04953","6501100","汐止區"
"221027","281-BY","2018/10/12 20:39:40","新北市汐止區大同路二段563號","121.662715","25.0699","6501100","汐止區"
"221029","298-VK","2018/10/12 20:39:37","新北市汐止區新台五路一段79-12號","121.64548","25.062055","6501100","汐止區"
"221021","299-VK","2018/10/12 20:39:26","新北市汐止區水源路一段284號","121.654148333333","25.0582483333333","6501100","汐止區"
"221035","622-UM","2018/10/12 20:39:29","新北市汐止區長江街101-5號","121.658756666667","25.0730783333333","6501100","汐止區"
"221025","623-UM","2018/10/12 20:39:22","新北市汐止區水源路二段283巷1號","121.65916","25.0498866666667","6501100","汐止區"
"221038","646-BX","2018/10/12 20:39:36","新北市汐止區汐萬路一段244-1號","121.65124","25.0734816666667","6501100","汐止區"
"221033","647-BX","2018/10/12 20:39:32","新北市汐止區合順街18巷8弄5號","121.62035","25.041915","6501100","汐止區"
"221002","707-TV","2018/10/12 20:39:44","新北市汐止區福德二路167號","121.63091","25.065165","6501100","汐止區"
"221018","753-BX","2018/10/12 20:39:27","新北市汐止區茄苳路59號","121.66664","25.0707283333333","6501100","汐止區"
"220083","286-VK","2018/10/12 20:39:29","新北市板橋區僑中二街116巷21號","121.444755","25.0065216666667","6500100","板橋區"
"242039","281-VK","2018/10/12 20:39:27","新北市新莊區民安西路23號","121.42724","25.0211533333333","6500500","新莊區"
"220098","317-R6","2018/10/12 20:39:33","新北市林口區太平里180號","121.368158333333","25.1346883333333","6500100","板橋區"
"220103","561-BX","2018/10/12 20:39:34","新北市板橋區漢生東路53巷26號","121.46666","25.01732","6500100","板橋區"
"220070","AAC-253","2018/10/12 20:38:42","新北市五股區中直路21號","121.421713333333","25.11179","6500100","板橋區"
