"lineid","car","time","location","longitude","latitude","cityid","cityname"
"234042","862-TW","2018/10/12 20:49:33","新北市新店區安興路112號","121.515066666667","24.9775666666667","6500400","永和區"
"249002","305-UY","2018/10/12 20:49:32","新北市八里區中山路三段363號","121.375015","25.1386916666667","6502300","八里區"
"234074","AAC-211","2018/10/12 20:49:29","新北市永和區環河東路二段36號","121.522693333333","25.0124483333333","6500400","永和區"
"243011","KEA-2215","2018/10/12 20:49:42","新北市泰山區公園路97號","121.424823333333","25.055645","6501600","泰山區"
"231059","001-UM","2018/10/12 20:49:44","新北市新店區吉祥街15巷51號","121.499593333333","24.9455833333333","6500600","新店區"
"231066","0291-UT","2018/10/12 20:49:31","新北市新店區安興路112號","121.514648333333","24.9775983333333","6500600","新店區"
"231040","047-UY","2018/10/12 20:49:26","新北市新店區中正路268號","121.539001666667","24.97356","6500600","新店區"
"231044","106-UY","2018/10/12 20:49:41","新北市新店區民族路229號","121.536605","24.97578","6500600","新店區"
"231048","187-VK","2018/10/12 20:49:30","新北市新店區寶元路一段109號","121.545705","24.9831433333333","6500600","新店區"
"231062","188-VK","2018/10/12 20:49:33","新北市新店區和成街16巷2號","121.487716666667","24.9469383333333","6500600","新店區"
"231053","189-VK","2018/10/12 20:49:42","新北市新店區新烏路一段106號","121.546165","24.93627","6500600","新店區"
"231054","KEA-2219","2018/10/12 20:49:44","新北市新店區北新路一段96巷23號","121.542971666667","24.9687116666667","6500600","新店區"
"231057","256-BX","2018/10/12 20:49:34","新北市新店區新烏路一段1號","121.547453333333","24.9518616666667","6500600","新店區"
"231042","268-BY","2018/10/12 20:49:39","新北市新店區寶高路120巷1號","121.554588333333","24.9760433333333","6500600","新店區"
"231051","278-BY","2018/10/12 20:49:42","新北市新店區中正路663巷1弄34-1號","121.532173333333","24.9895666666667","6500600","新店區"
"231050","AAD-862","2018/10/12 20:49:28","新北市新店區三民路39號","121.53725","24.97074","6500600","新店區"
"231061","355-BY","2018/10/12 20:49:29","新北市新店區新和街120號","121.521333333333","24.986475","6500600","新店區"
"231058","3713-VJ","2018/10/12 20:49:44","新北市新店區中央路135號","121.530343333333","24.9737716666667","6500600","新店區"
"231056","4715-K9","2018/10/12 20:49:26","新北市新店區柴埕路52巷1-1號","121.511581666667","24.9643316666667","6500600","新店區"
"231067","4772-VM","2018/10/12 20:49:40","新北市新店區安華路28-1號","121.519846666667","24.9607116666667","6500600","新店區"
"231065","512-UM","2018/10/12 20:49:39","新北市新店區安祥路69巷19號","121.48192","24.9612766666667","6500600","新店區"
"231049","513-UM","2018/10/12 20:49:41","新北市新店區華城路2號","121.53056","24.9606616666667","6500600","新店區"
"231063","616-UM","2018/10/12 20:49:38","新北市新店區如意街17號","121.494705","24.9481883333333","6500600","新店區"
"231064","719-UM","2018/10/12 20:49:30","新北市新店區安民街365巷3號","121.516248333333","24.9756933333333","6500600","新店區"
"231068","719-UY","2018/10/12 20:49:29","新北市新店區中興路三段220巷19號","121.544968333333","24.9832266666667","6500600","新店區"
"231060","897-TW","2018/10/12 20:49:38","新北市新店區安康路三段535號","121.480195","24.9478833333333","6500600","新店區"
"231043","899-TW","2018/10/12 20:49:43","新北市新店區建國路92號","121.54027","24.9773983333333","6500600","新店區"
"241011","013-R5","2018/10/12 20:49:29","新北市三重區龍濱路249號","121.501513333333","25.0724916666667","6500200","三重區"
"241028","022-UY","2018/10/12 20:49:36","新北市三重區中正南路50號","121.493946666667","25.0599266666667","6500200","三重區"
"241008","059-VK","2018/10/12 20:49:41","新北市三重區永福街72巷11號","121.47942","25.0767583333333","6500200","三重區"
"241022","060-VK","2018/10/12 20:49:43","新北市三重區過圳街27-5號","121.487953333333","25.0624016666667","6500200","三重區"
"241031","061-VK","2018/10/12 20:49:38","新北市三重區重陽路一段113巷3號","121.487523333333","25.059815","6500200","三重區"
"241015","062-VK","2018/10/12 20:49:26","新北市三重區自強路一段11號","121.498728333333","25.0683016666667","6500200","三重區"
"241017","063-VK","2018/10/12 20:49:34","新北市三重區民生街42號","121.491716666667","25.0668733333333","6500200","三重區"
"241026","066-VK","2018/10/12 20:49:27","新北市三重區文化南路7號","121.49998","25.0623383333333","6500200","三重區"
"241002","090-VK","2018/10/12 20:49:43","新北市三重區仁義街157巷29號","121.497945","25.0813566666667","6500200","三重區"
"241003","091-VK","2018/10/12 20:49:30","新北市三重區五華街141巷60號","121.493605","25.08679","6500200","三重區"
"241005","262-UM","2018/10/12 20:49:39","新北市三重區五華街141巷13號","121.491531666667","25.085","6500200","三重區"
"241009","265-UM","2018/10/12 20:49:35","新北市三重區三和路四段388-2號","121.481965","25.0791683333333","6500200","三重區"
"241016","266-UM","2018/10/12 20:49:25","新北市三重區自強路一段103號","121.495538333333","25.066405","6500200","三重區"
"241018","268-UM","2018/10/12 20:49:44","新北市三重區正義北路303號","121.494585","25.0708966666667","6500200","三重區"
"241032","269-UM","2018/10/12 20:49:29","新北市三重區重陽路一段120巷35號","121.485065","25.0602216666667","6500200","三重區"
"241013","270-UM","2018/10/12 20:49:32","新北市三重區仁賢街12-1號","121.495656666667","25.0748533333333","6500200","三重區"
"241025","271-UM","2018/10/12 20:49:38","新北市三重區貴陽街14號","121.484211666667","25.0618566666667","6500200","三重區"
"241007","398-BY","2018/10/12 20:49:37","新北市三重區三和路四段145巷5號","121.484525","25.0783616666667","6500200","三重區"
"241004","475-VK","2018/10/12 20:49:39","新北市三重區分子尾街52號","121.489178333333","25.0814866666667","6500200","三重區"
"241020","478-VK","2018/10/12 20:49:27","新北市三重區忠孝路一段101號","121.489478333333","25.0721466666667","6500200","三重區"
"241030","480-VK","2018/10/12 20:49:39","新北市三重區昌隆街26號","121.492","25.0522333333333","6500200","三重區"
"241014","543-UM","2018/10/12 20:49:43","新北市三重區長壽街120巷60號","121.501791666667","25.0703433333333","6500200","三重區"
"241023","545-UM","2018/10/12 20:49:39","新北市三重區忠孝路三段84巷1號","121.480278333333","25.06454","6500200","三重區"
"241001","547-UM","2018/10/12 20:49:27","新北市三重區三和路四段118巷11號","121.488476666667","25.0748","6500200","三重區"
"241006","AAD-863","2018/10/12 20:49:40","新北市三重區力行路二段164號","121.483035","25.0766933333333","6500200","三重區"
"241019","743-BX","2018/10/12 20:49:42","新北市三重區忠孝路一段10巷47號","121.490876666667","25.0712216666667","6500200","三重區"
"241024","887-TS","2018/10/12 20:49:35","新北市三重區大勇街51號","121.481276666667","25.0719483333333","6500200","三重區"
"241012","941-UM","2018/10/12 20:49:28","新北市三重區龍門路274巷45號","121.50123","25.0755383333333","6500200","三重區"
"241029","942-UM","2018/10/12 20:49:24","新北市三重區中正南路181號","121.493728333333","25.0552733333333","6500200","三重區"
"241033","AAC-255","2018/10/12 20:49:30","新北市三重區光復路二段1號","121.472261666667","25.053335","6500200","三重區"
"235064","005-UY","2018/10/12 20:49:39","新北市中和區員山路36巷13號","121.484106666667","24.9910916666667","6500300","中和區"
"247012","KEA-2869","2018/10/12 20:49:30","新北市蘆洲區集賢路224巷17號","121.481793333333","25.0869016666667","6501400","蘆洲區"
"235069","4980-A6","2018/10/12 20:49:35","新北市中和區員山路359巷2號","121.480916666667","25.0021","6500300","中和區"
"247002","893-R6","2018/10/12 20:49:37","新北市蘆洲區長安街242號","121.457576666667","25.0860383333333","6501400","蘆洲區"
"247016","546-UM","2018/10/12 20:49:23","新北市蘆洲區中正路69號","121.470358333333","25.0826833333333","6501400","蘆洲區"
"247024","500-BY","2018/10/12 20:49:29","新北市蘆洲區長樂路136號","121.462105","25.0900616666667","6501400","蘆洲區"
"247014","339-TH","2018/10/12 20:49:37","新北市蘆洲區三民路71號","121.475065","25.0838533333333","6501400","蘆洲區"
"247006","337-TH","2018/10/12 20:49:40","新北市蘆洲區永安南路二段16巷8號","121.467733333333","25.0772716666667","6501400","蘆洲區"
"247008","336-TH","2018/10/12 20:49:28","新北市蘆洲區永安北路二段46-1號","121.482603333333","25.08327","6501400","蘆洲區"
"247020","057-VK","2018/10/12 20:49:29","新北市蘆洲區仁愛街75號","121.471493333333","25.0938216666667","6501400","蘆洲區"
"247010","056-VK","2018/10/12 20:49:29","新北市蘆洲區三民路52號","121.475358333333","25.0836416666667","6501400","蘆洲區"
"247004","053-VK","2018/10/12 20:49:31","新北市蘆洲區長安街100號","121.461695","25.0809133333333","6501400","蘆洲區"
"247022","001-UY","2018/10/12 20:49:28","新北市蘆洲區水湳街52號","121.471183333333","25.0898666666667","6501400","蘆洲區"
"222001","KEA-2212","2018/10/12 20:49:31","新北市深坑區北深路三段133號","121.603981666667","25.0025333333333","6501800","深坑區"
"251005","010-UM","2018/10/12 20:49:27","新北市淡水區學府路45號","121.448065","25.1691716666667","6501000","淡水區"
"251010","413-VK","2018/10/12 20:49:42","新北市淡水區沙崙路145號","121.423461666667","25.1830016666667","6501000","淡水區"
"251012","441-VK","2018/10/12 20:49:44","新北市淡水區淡金路四段516號","121.45206","25.2259016666667","6501000","淡水區"
"251001","559-UM","2018/10/12 20:49:28","新北市淡水區淡金路一段69號","121.458815","25.173095","6501000","淡水區"
"251006","561-UM","2018/10/12 20:49:32","新北市淡水區新市一路三段121號","121.447048333333","25.1828533333333","6501000","淡水區"
"251009","575-R6","2018/10/12 20:49:36","新北市淡水區民權路187巷17號","121.460258333333","25.1334","6501000","淡水區"
"251007","577-R6","2018/10/12 20:49:40","新北市淡水區鄧公路29巷26號","121.452845","25.1704083333333","6501000","淡水區"
"251011","650-BX","2018/10/12 20:49:33","新北市淡水區新民街一段13-1號","121.433036666667","25.184575","6501000","淡水區"
"251002","672-BX","2018/10/12 20:49:29","新北市淡水區中正東路6號","121.447125","25.167125","6501000","淡水區"
"251003","673-BX","2018/10/12 20:49:25","新北市淡水區中山北路一段247巷96號","121.442175","25.17937","6501000","淡水區"
"236048","913-UM","2018/10/12 20:49:36","新北市土城區福安街80-8號","121.417395","24.9651533333333","6501300","土城區"
"242037","AAC-296","2018/10/12 20:49:44","新北市新莊區中正路449號","121.443071666667","25.0340883333333","6500500","新莊區"
"242025","613-BX","2018/10/12 20:49:27","新北市新莊區中原路355號","121.444895","25.054525","6500500","新莊區"
"242029","612-BX","2018/10/12 20:49:38","新北市新莊區幸福路641號","121.451556666667","25.0491516666667","6500500","新莊區"
"242044","566-BX","2018/10/12 20:49:40","新北市新莊區龍安路108號","121.418378333333","25.0205116666667","6500500","新莊區"
"242054","441-UM","2018/10/12 20:49:29","新北市新莊區環漢路三段532號","121.435156666667","25.0004466666667","6500500","新莊區"
"242009","413-TV","2018/10/12 20:49:28","新北市新莊區幸福路26號","121.458776666667","25.0495233333333","6500500","新莊區"
"242023","362-BY","2018/10/12 20:49:29","新北市新莊區瓊林路47-1號","121.445958333333","25.0274166666667","6500500","新莊區"
"242060","353-BY","2018/10/12 20:49:31","新北市新莊區新樹路266-5號","121.432636666667","25.0137983333333","6500500","新莊區"
"242011","132-UY","2018/10/12 20:49:36","新北市新莊區中正路400號","121.441823333333","25.0343616666667","6500500","新莊區"
"242041","133-UY","2018/10/12 20:49:30","新北市樹林區三俊街127號","121.417933333333","25.0156233333333","6500500","新莊區"
"242034","135-UY","2018/10/12 20:49:37","新北市板橋區金門街215巷90號","121.433653333333","24.985645","6500500","新莊區"
"242005","349-TH","2018/10/12 20:49:27","新北市新莊區環漢路二段535號","121.447031666667","25.0283766666667","6500500","新莊區"
"221036","130-UY","2018/10/12 20:49:35","新北市汐止區新台五路一段159號","121.654023333333","25.0624683333333","6501100","汐止區"
"221027","281-BY","2018/10/12 20:49:40","新北市汐止區汐萬路一段117號","121.654213333333","25.070975","6501100","汐止區"
"221029","298-VK","2018/10/12 20:49:28","新北市汐止區康寧街777-1號","121.644855","25.0755316666667","6501100","汐止區"
"221035","622-UM","2018/10/12 20:49:29","新北市汐止區康寧街901號","121.651261666667","25.075085","6501100","汐止區"
"221038","646-BX","2018/10/12 20:49:36","新北市汐止區汐萬路一段256巷3號","121.652116666667","25.0747633333333","6501100","汐止區"
"221033","647-BX","2018/10/12 20:49:32","新北市汐止區合順街18巷8弄5號","121.620355","25.0419183333333","6501100","汐止區"
"221002","707-TV","2018/10/12 20:49:24","新北市汐止區福德一路310巷7弄1-1號","121.629311666667","25.0645683333333","6501100","汐止區"
"221018","753-BX","2018/10/12 20:49:27","新北市汐止區茄苳路26號","121.664973333333","25.070815","6501100","汐止區"
"242039","281-VK","2018/10/12 20:49:27","新北市新莊區新樹路166號","121.43476","25.02247","6500500","新莊區"
"220098","317-R6","2018/10/12 20:49:33","新北市八里區中山路三段106號","121.393276666667","25.1436916666667","6500100","板橋區"
"220070","AAC-253","2018/10/12 20:49:42","新北市林口區太平里180號","121.366895","25.1337083333333","6500100","板橋區"
