"lineid","car","time","location","longitude","latitude","cityid","cityname"
"234040","862-TW","2018/10/12 21:29:33","新北市永和區福和路1號","121.526333333333","25.00966","6500400","永和區"
"249002","305-UY","2018/10/12 21:29:32","新北市八里區博物館路10-1號","121.415216666667","25.1640066666667","6502300","八里區"
"231048","187-VK","2018/10/12 21:29:10","新北市新店區安康路二段320巷15弄18號","121.502278333333","24.9590516666667","6500600","新店區"
"231054","KEA-2219","2018/10/12 21:29:44","新北市新店區薏仁坑路自強巷6號","121.4966","24.9584533333333","6500600","新店區"
"231063","616-UM","2018/10/12 21:29:38","新北市新店區富貴街9巷2號","121.494063333333","24.9490566666667","6500600","新店區"
"241011","013-R5","2018/10/12 21:29:29","新北市三重區龍門路82號","121.497145","25.0726416666667","6500200","三重區"
"241026","066-VK","2018/10/12 21:29:26","新北市三重區中正北路9號","121.492825","25.0613333333333","6500200","三重區"
"241003","091-VK","2018/10/12 21:29:30","新北市三重區仁義街319號","121.495323333333","25.08428","6500200","三重區"
"241005","262-UM","2018/10/12 21:29:39","新北市三重區仁華街77號","121.485581666667","25.0830233333333","6500200","三重區"
"241016","266-UM","2018/10/12 21:29:45","新北市三重區正義北路99號","121.497043333333","25.065285","6500200","三重區"
"241007","398-BY","2018/10/12 21:29:37","新北市三重區正義北路110號","121.496896666667","25.0651083333333","6500200","三重區"
"241024","887-TS","2018/10/12 21:29:35","新北市三重區中正北路115巷6號","121.48403","25.06775","6500200","三重區"
"247012","KEA-2869","2018/10/12 21:29:44","新北市蘆洲區中正路520巷9號","121.462803333333","25.0997916666667","6501400","蘆洲區"
"235010","733-UM","2018/10/12 21:29:42","新北市中和區員山路36巷13號","121.484105","24.9908733333333","6500300","中和區"
"247008","336-TH","2018/10/12 21:29:28","新北市五股區新五路二段372巷20號","121.447896666667","25.0854716666667","6501400","蘆洲區"
"247004","053-VK","2018/10/12 21:28:31","新北市五股區中直路21號","121.421118333333","25.1120283333333","6501400","蘆洲區"
"251005","010-UM","2018/10/12 21:29:27","新北市淡水區水源街一段34巷7號","121.443098333333","25.17198","6501000","淡水區"
"251008","KEA-2871","2018/10/12 21:29:37","新北市淡水區水源街二段142號","121.453956666667","25.1749266666667","6501000","淡水區"
"251010","413-VK","2018/10/12 21:29:41","新北市淡水區沙崙路25巷21號","121.420521666667","25.182385","6501000","淡水區"
"251012","441-VK","2018/10/12 21:29:24","新北市淡水區石頭埔8號","121.452638333333","25.2345666666667","6501000","淡水區"
"251004","443-VK","2018/10/12 21:29:36","新北市淡水區民族路11號","121.46032","25.137035","6501000","淡水區"
"251001","559-UM","2018/10/12 21:29:28","新北市淡水區新市二路三段18號","121.432751666667","25.1937066666667","6501000","淡水區"
"251006","561-UM","2018/10/12 21:29:32","新北市淡水區公明街65號","121.443725","25.16859","6501000","淡水區"
"251009","575-R6","2018/10/12 21:29:36","新北市淡水區民族路65巷60號","121.4635","25.1359633333333","6501000","淡水區"
"251007","577-R6","2018/10/12 21:29:39","新北市淡水區水源街二段194號","121.456943333333","25.1760616666667","6501000","淡水區"
"251011","650-BX","2018/10/12 21:29:33","新北市淡水區新民街166號","121.436963333333","25.1786033333333","6501000","淡水區"
"251002","672-BX","2018/10/12 21:29:29","新北市淡水區學府路172巷21號","121.44834","25.1748483333333","6501000","淡水區"
"251003","673-BX","2018/10/12 21:29:25","新北市淡水區崁頂15-5號","121.439008333333","25.18588","6501000","淡水區"
"242025","613-BX","2018/10/12 21:29:27","新北市新莊區思源路167號","121.459665","25.0448783333333","6500500","新莊區"
"220070","AAC-253","2018/10/12 21:29:42","新北市板橋區板城路271號","121.450013333333","24.9982183333333","6500100","板橋區"
