"lineid","car","time","location","longitude","latitude","cityid","cityname"
"234040","862-TW","2018/10/12 22:02:14","新北市永和區福和路1號","121.526333333333","25.0096983333333","6500400","永和區"
"251008","KEA-2871","2018/10/12 22:19:37","新北市淡水區學府路104號","121.449825","25.17179","6501000","淡水區"
"251010","413-VK","2018/10/12 22:19:41","新北市淡水區沙崙路200號","121.424663333333","25.1839016666667","6501000","淡水區"
"251004","443-VK","2018/10/12 22:19:36","新北市淡水區民族路33號","121.462271666667","25.1357566666667","6501000","淡水區"
"251007","577-R6","2018/10/12 22:19:40","新北市淡水區北新路180號","121.449471666667","25.1787766666667","6501000","淡水區"
"251011","650-BX","2018/10/12 22:19:32","新北市淡水區水碓街7號","121.443178333333","25.17718","6501000","淡水區"
