"lineid","car","time","location","longitude","latitude","cityid","cityname"
"248005","653-BX","2018/06/19 08:09:35","新北市五股區明德路12巷6號","121.433413333333","25.0718016666667","6501500","五股區"
"248004","655-BX","2018/06/19 08:09:33","新北市五股區中興路二段11號","121.462851666667","25.0740966666667","6501500","五股區"
"244002","248-BX","2018/06/19 08:09:22","新北市林口區下福147-5號","121.2992","25.1171","6501700","林口區"
"222004","289-BY","2018/06/19 08:09:18","新北市深坑區昇高坑路32號","121.62766","24.9999383333333","6501800","深坑區"
"231007","189-VK","2018/06/19 08:09:35","新北市新店區華城路77巷6號","121.525325","24.9464116666667","6500600","新店區"
"231009","192-VK","2018/06/19 08:09:36","新北市新店區北新路一段89號","121.538783333333","24.9616283333333","6500600","新店區"
"235001","611-BX","2018/06/19 08:09:23","新北市中和區圓通路367巷33弄56號","121.496253333333","24.984995","6500300","中和區"
"226005","5620-A6","2018/06/19 08:09:36","新北市平溪區靜安路二段557號","121.749601666667","25.02525","6502400","平溪區"
"226002","7418-A5","2018/06/19 08:09:36","新北市平溪區十分里姜仔坑12號","121.769088333333","25.0379883333333","6502400","平溪區"
"226006","AGD-0702","2018/06/19 08:09:27","新北市平溪區十分里十分街281-1號","121.779938333333","25.0456433333333","6502400","平溪區"
"223002","KEA-2673","2018/06/19 07:52:43","新北市石碇區大格門3號","121.668265","24.9555283333333","6501900","石碇區"
"223003","205-TH","2018/06/19 08:03:23","新北市石碇區崩山36-1號","121.671588333333","24.95818","6501900","石碇區"
"223001","592-UM","2018/06/19 08:06:59","新北市石碇區樟空子10-2號","121.666913333333","24.9619066666667","6501900","石碇區"
"223004","660-BX","2018/06/19 08:09:34","新北市石碇區外按11-5號","121.65126","24.9992116666667","6501900","石碇區"
"223005","677-TV","2018/06/19 08:09:35","新北市石碇區外按16-3號","121.65051","24.998235","6501900","石碇區"
"227006","282-VK","2018/06/19 08:09:37","新北市雙溪區牡丹里聖南10-2號","121.860721666667","25.0496616666667","6502500","雙溪區"
"252004","249-BX","2018/06/19 08:09:07","新北市三芝區興華里車埕15-3號","121.502008333333","25.1968133333333","6502100","三芝區"
"252007","AAC-283","2018/06/19 08:09:29","新北市三芝區後厝里土地公坑61-5號","121.465066666667","25.2475466666667","6502100","三芝區"
"237001","159-UY","2018/06/19 08:09:27","新北市三峽區大學路150號","121.374123333333","24.9444183333333","6500900","三峽區"
"236008","165-UM","2018/06/19 08:09:30","新北市土城區青雲路587巷9-3號","121.466646666667","24.9706433333333","6501300","土城區"
"236002","339-SR","2018/06/19 08:09:20","新北市土城區龍泉路62-3號","121.415095","24.943635","6501300","土城區"
"236006","498-BY","2018/06/19 08:09:29","新北市土城區永平街51號","121.4276","24.9591683333333","6501300","土城區"
