"lineid","car","time","location","longitude","latitude","cityid","cityname"
"248005","653-BX","2018/06/19 09:29:35","新北市五股區登林路76-10號","121.429651666667","25.0693083333333","6501500","五股區"
"248004","655-BX","2018/06/19 09:29:33","新北市五股區芳洲七路2號","121.445168333333","25.087565","6501500","五股區"
"222004","289-BY","2018/06/19 09:29:19","新北市深坑區文山路三段15號","121.612985","24.997985","6501800","深坑區"
"231007","189-VK","2018/06/19 09:23:55","新北市新店區新潭路三段275-1號","121.502045","24.9024366666667","6500600","新店區"
"231009","192-VK","2018/06/19 09:28:24","新北市新店區平廣路一段201巷1號","121.514883333333","24.8892316666667","6500600","新店區"
"223003","205-TH","2018/06/19 09:29:23","新北市石碇區北宜路四段10號","121.615291666667","24.9609366666667","6501900","石碇區"
"227006","282-VK","2018/06/19 09:29:36","新北市雙溪區長源里土地公山2號","121.797336666667","25.0118866666667","6502500","雙溪區"
"227012","030-BX","2018/06/19 09:29:24","新北市坪林區鷺鶿岫4-2號","121.785186666667","24.9552066666667","6502500","雙溪區"
"252004","249-BX","2018/06/19 09:29:27","新北市三芝區店子里龜子山23號","121.507875","25.21441","6502100","三芝區"
"252007","AAC-283","2018/06/19 09:29:33","新北市三芝區古庄里四棧橋20號","121.489053333333","25.2611733333333","6502100","三芝區"
"237001","159-UY","2018/06/19 09:29:27","新北市三峽區復興路555號","121.35656","24.9405683333333","6500900","三峽區"
"236002","339-SR","2018/06/19 09:29:33","新北市土城區學府路二段85號","121.4489","24.9796733333333","6501300","土城區"
"236006","498-BY","2018/06/19 09:29:38","新北市土城區承天路66-6號","121.441681666667","24.9621","6501300","土城區"
