"lineid","car","time","location","longitude","latitude","cityid","cityname"
"248005","653-BX","2018/06/19 10:19:34","新北市五股區中興路二段37巷24號","121.460618333333","25.0751533333333","6501500","五股區"
"248004","655-BX","2018/06/19 10:19:33","新北市五股區中興路二段83巷26-6號","121.45983","25.07524","6501500","五股區"
"231007","189-VK","2018/06/19 10:19:35","新北市新店區新潭路三段215巷25號","121.508143333333","24.9040483333333","6500600","新店區"
"231009","192-VK","2018/06/19 10:19:36","新北市新店區小坑一路35巷1號","121.529778333333","24.9085166666667","6500600","新店區"
"227006","282-VK","2018/06/19 10:19:36","新北市雙溪區長源里柑腳9號","121.804646666667","25.0147266666667","6502500","雙溪區"
"252007","AAC-283","2018/06/19 10:19:29","新北市三芝區古庄里古庄99-1號","121.49572","25.2677483333333","6502100","三芝區"
