"lineid","car","time","location","longitude","latitude","cityid","cityname"
"234084","338-UY","2018/06/19 12:19:42","新北市永和區福和路1號","121.52651","25.0098366666667","6500400","永和區"
"231009","192-VK","2018/06/19 12:19:36","新北市新店區北宜路一段28號","121.538191666667","24.9570083333333","6500600","新店區"
"235029","098-UM","2018/06/19 12:19:35","新北市中和區員山路36巷16-3號","121.484996666667","24.991255","6500300","中和區"
"235031","255-BX","2018/06/19 12:05:19","新北市中和區和城路一段271巷1號","121.48566","24.9919033333333","6500300","中和區"
"235005","802-TS","2018/06/19 12:19:08","新北市中和區和城路一段271巷1號","121.485415","24.9917933333333","6500300","中和區"
"228004","212-TW","2018/06/19 12:19:24","新北市貢寮區貢寮里長泰路17-1號","121.891475","25.0213633333333","6502600","貢寮區"
"228005","828-UM","2018/06/19 12:19:32","新北市貢寮區福連里福連街1號","121.988188333333","25.0157116666667","6502600","貢寮區"
