"lineid","car","time","location","longitude","latitude","cityid","cityname"
"234044","148-BY","2018/06/19 13:29:28","新北市永和區秀朗路二段259號","121.526281666667","24.999195","6500400","永和區"
"234005","207-UY","2018/06/19 13:29:42","新北市永和區中山路一段186號","121.509111666667","25.0089766666667","6500400","永和區"
"234078","298-R6","2018/06/19 13:29:33","新北市永和區福和路5號","121.525075","25.00874","6500400","永和區"
"234036","336-UY","2018/06/19 13:29:30","新北市永和區民樂街35巷1號","121.527596666667","25.00102","6500400","永和區"
"234062","337-UY","2018/06/19 13:29:29","新北市永和區中正路368巷1弄84號","121.520383333333","25.0007616666667","6500400","永和區"
"234084","338-UY","2018/06/19 13:29:42","新北市永和區林森路62號","121.524061666667","25.00415","6500400","永和區"
"234068","552-UM","2018/06/19 13:29:25","新北市永和區竹林路182號","121.520391666667","25.0096733333333","6500400","永和區"
"234015","745-BX","2018/06/19 13:29:33","新北市永和區環河西路一段1號","121.51525","25.01802","6500400","永和區"
"234028","746-BX","2018/06/19 13:29:41","新北市永和區民生路59號","121.522646666667","24.9974833333333","6500400","永和區"
"234052","KEA-2590","2018/06/19 13:29:37","新北市永和區復興街17號","121.516053333333","25.0130266666667","6500400","永和區"
"234012","KEA-2591","2018/06/19 13:29:42","新北市永和區中山路一段211-1號","121.5087","25.0083916666667","6500400","永和區"
"234060","AAD-866","2018/06/19 13:29:37","新北市永和區中正路445號","121.517186666667","25.00533","6500400","永和區"
"234040","862-TW","2018/06/19 13:29:33","新北市永和區中和路519巷8號","121.510875","25.0030833333333","6500400","永和區"
"234048","863-TW","2018/06/19 13:29:40","新北市永和區仁愛路100號","121.512255","25.0132033333333","6500400","永和區"
"234025","9371-KE","2018/06/19 13:29:39","新北市永和區中山路一段17巷4弄14號","121.513156666667","25.0102233333333","6500400","永和區"
"234010","9373-KE","2018/06/19 13:29:46","新北市永和區保福路二段44巷2弄10號","121.511615","25.01179","6500400","永和區"
"248019","225-UY","2018/06/19 13:29:38","新北市五股區民義路二段52巷15號","121.412493333333","25.11244","6501500","五股區"
"234022","9380-KE","2018/06/19 13:29:43","新北市永和區竹林路91巷43弄2號","121.52128","25.0128233333333","6500400","永和區"
"234076","969-R7","2018/06/19 13:29:31","新北市永和區中正路286巷7號","121.517685","24.998695","6500400","永和區"
"234072","AAC-211","2018/06/19 13:29:34","新北市永和區光復街60巷4弄10號","121.516985","25.01778","6500400","永和區"
"234066","AAC-212","2018/06/19 13:29:40","新北市永和區保平路176號","121.510823333333","25.0067033333333","6500400","永和區"
"234001","AAC-295","2018/06/19 13:29:29","新北市永和區永和路一段107號","121.513923333333","25.0079166666667","6500400","永和區"
"244002","248-BX","2018/06/19 13:29:33","新北市林口區南勢六街233號","121.356693333333","25.0760466666667","6501700","林口區"
"231002","002-UM","2018/06/19 13:29:39","新北市新店區環河路78號","121.537038333333","24.9633216666667","6500600","新店區"
"231027","0293-UT","2018/06/19 13:29:45","新北市新店區新店後街102號","121.537658333333","24.955245","6500600","新店區"
"231028","046-UY","2018/06/19 13:29:25","新北市新店區安康路一段355-10號","121.520473333333","24.9638333333333","6500600","新店區"
"231001","047-UY","2018/06/19 13:29:26","新北市新店區中央四街5-1號","121.530201666667","24.9738316666667","6500600","新店區"
"231005","106-UY","2018/06/19 13:29:39","新北市新店區光明街137號","121.539388333333","24.9620416666667","6500600","新店區"
"231020","108-UY","2018/06/19 13:29:28","新北市新店區光明街1-1號","121.53806","24.9590633333333","6500600","新店區"
"231012","187-VK","2018/06/19 13:29:45","新北市新店區北新路一段62號","121.54121","24.9667116666667","6500600","新店區"
"231010","188-VK","2018/06/19 13:29:42","新北市新店區中央路69號","121.532488333333","24.97689","6500600","新店區"
"231023","KEA-2219","2018/06/19 13:29:24","新北市新店區新店路13號","121.540293333333","24.9528966666667","6500600","新店區"
"231026","256-BX","2018/06/19 13:29:41","新北市新店區北宜路一段9號","121.538161666667","24.9580483333333","6500600","新店區"
"231003","268-BY","2018/06/19 13:29:38","新北市新店區光明街231號","121.540305","24.9645116666667","6500600","新店區"
"231018","278-BY","2018/06/19 13:29:32","新北市新店區中央路63號","121.532616666667","24.9770483333333","6500600","新店區"
"231015","AAD-862","2018/06/19 13:29:28","新北市新店區北宜路二段30巷5弄5號","121.548378333333","24.9507516666667","6500600","新店區"
"231038","3712-VJ","2018/06/19 13:29:43","新北市新店區安華路28-1號","121.519245","24.9606233333333","6500600","新店區"
"231037","4716-K9","2018/06/19 13:29:43","新北市新店區安康路二段380號","121.500458333333","24.95737","6500600","新店區"
"231025","4715-K9","2018/06/19 13:29:39","新北市新店區中央六街56號","121.52786","24.9757233333333","6500600","新店區"
"231036","512-UM","2018/06/19 13:29:36","新北市新店區安祥路190巷9號","121.478051666667","24.9562666666667","6500600","新店區"
"231013","513-UM","2018/06/19 13:29:27","新北市新店區秀山路68號","121.53095","24.9609816666667","6500600","新店區"
"231006","617-UM","2018/06/19 13:29:33","新北市新店區安康路一段11號","121.533316666667","24.9604133333333","6500600","新店區"
"231030","619-UM","2018/06/19 13:29:30","新北市新店區安華路28-1號","121.51961","24.9609766666667","6500600","新店區"
"231034","641-BX","2018/06/19 13:29:45","新北市新店區安華路30巷3號","121.51878","24.958435","6500600","新店區"
"231035","719-UM","2018/06/19 13:29:33","新北市新店區安一路一段1-1號","121.519725","24.9622783333333","6500600","新店區"
"231032","720-UM","2018/06/19 13:29:27","新北市新店區安豐路63號","121.497966666667","24.9528516666667","6500600","新店區"
"231029","897-TW","2018/06/19 13:29:41","新北市新店區安華路30巷12-1號","121.518483333333","24.958","6500600","新店區"
"231004","899-TW","2018/06/19 13:29:28","新北市新店區安康路一段231號","121.525261666667","24.96318","6500600","新店區"
"231024","AKT-0513","2018/06/19 13:29:37","新北市新店區中正路154巷4號","121.5418","24.972005","6500600","新店區"
"235028","005-UY","2018/06/19 13:29:41","新北市中和區連城路139巷54號","121.496716666667","24.9973566666667","6500300","中和區"
"235027","006-UY","2018/06/19 13:29:37","新北市中和區連城路347巷16弄17號","121.487945","24.995045","6500300","中和區"
"235020","096-UM","2018/06/19 13:29:39","新北市中和區中山路二段594號","121.482333333333","25.0054783333333","6500300","中和區"
"235003","097-UM","2018/06/19 13:29:35","新北市中和區景平路278巷12號","121.513925","24.9929783333333","6500300","中和區"
"235029","098-UM","2018/06/19 13:29:41","新北市中和區莊敬路49巷15弄2號","121.501163333333","25.0056766666667","6500300","中和區"
"235004","150-BY","2018/06/19 13:29:24","新北市中和區保健路50巷66號","121.509383333333","24.99516","6500300","中和區"
"235022","151-BY","2018/06/19 13:29:25","新北市中和區圓通路369巷36弄103號","121.489718333333","24.98237","6500300","中和區"
"235019","183-VK","2018/06/19 13:29:45","新北市中和區莒光路120巷56號","121.471676666667","25.000975","6500300","中和區"
"235002","185-VK","2018/06/19 13:29:36","新北市中和區立人街1號","121.521968333333","24.9939183333333","6500300","中和區"
"235013","186-VK","2018/06/19 13:29:33","新北市中和區景安路138號","121.505115","24.99425","6500300","中和區"
"235031","255-BX","2018/06/19 13:29:31","新北市中和區新生街242巷9號","121.482948333333","24.9977466666667","6500300","中和區"
"235008","293-VK","2018/06/19 13:29:36","新北市中和區復興路301巷19號","121.50168","24.98972","6500300","中和區"
"235036","301-VK","2018/06/19 13:29:43","新北市中和區和城路一段271巷1號","121.48544","24.992055","6500300","中和區"
"235007","352-BY","2018/06/19 13:29:35","新北市中和區景平路317號","121.506176666667","24.9931433333333","6500300","中和區"
"235006","KEA-2878","2018/06/19 13:29:40","新北市中和區景平路159巷19號","121.512936666667","24.99154","6500300","中和區"
"235014","4979-A6","2018/06/19 13:29:35","新北市中和區景新街410巷18弄24號","121.511835","24.9900483333333","6500300","中和區"
"235033","4980-A6","2018/06/19 13:29:35","新北市中和區連城路127巷29號","121.497201666667","24.997565","6500300","中和區"
"235034","558-UM","2018/06/19 13:29:37","新北市中和區南華路11號","121.502303333333","24.9955066666667","6500300","中和區"
"235009","565-BX","2018/06/19 13:29:41","新北市中和區南山路236巷22弄14號","121.505265","24.9892233333333","6500300","中和區"
"235018","640-BX","2018/06/19 13:29:33","新北市中和區民享街89巷5號","121.474673333333","25.0016766666667","6500300","中和區"
"235024","647-TV","2018/06/19 13:29:43","新北市中和區員山路287號","121.48115","24.9997833333333","6500300","中和區"
"235011","732-UM","2018/06/19 13:29:42","新北市中和區南山路300號","121.507846666667","24.9870966666667","6500300","中和區"
"235035","783-BX","2018/06/19 13:29:36","新北市中和區環中路136號","121.48211","25.0128883333333","6500300","中和區"
"235026","800-TS","2018/06/19 13:29:26","新北市中和區中山路二段312巷1弄2號","121.49556","25.0028433333333","6500300","中和區"
"235021","801-TS","2018/06/19 13:29:25","新北市中和區民享街97巷19號","121.475385","24.9995483333333","6500300","中和區"
"235005","802-TS","2018/06/19 13:29:39","新北市中和區中和路322號","121.509836666667","25.000825","6500300","中和區"
"235016","805-TS","2018/06/19 13:29:37","新北市中和區興南路二段106號","121.504743333333","24.9840466666667","6500300","中和區"
"235012","896-TW","2018/06/19 13:29:29","新北市中和區和城路一段271巷1號","121.485368333333","24.9920166666667","6500300","中和區"
"235017","900-TW","2018/06/19 13:29:35","新北市中和區民享街457號","121.470391666667","24.9931583333333","6500300","中和區"
"235030","911-UM","2018/06/19 13:29:33","新北市中和區中山路二段122號","121.502546666667","25.0038066666667","6500300","中和區"
"235015","157-BY","2018/06/19 13:29:43","新北市中和區興南路二段114巷19號","121.503845","24.9844183333333","6500300","中和區"
"235001","AAC-213","2018/06/19 13:29:30","新北市中和區景德街84號","121.516406666667","24.9915","6500300","中和區"
"235023","AAC-215","2018/06/19 13:29:26","新北市中和區員山路36巷16-3號","121.48497","24.9913416666667","6500300","中和區"
"220034","073-UY","2018/06/19 13:29:36","新北市板橋區南雅南路二段120-2號","121.452338333333","24.9997866666667","6500100","板橋區"
"220017","AAD-861","2018/06/19 13:29:30","新北市板橋區華東街1-10號","121.448363333333","24.99511","6500100","板橋區"
"247007","056-VK","2018/06/19 13:29:40","新北市五股區中興路四段17號","121.440438333333","25.0822133333333","6501400","蘆洲區"
"247009","053-VK","2018/06/19 13:29:46","新北市五股區中興路三段163號","121.449191666667","25.080745","6501400","蘆洲區"
"247019","001-UY","2018/06/19 13:29:36","新北市五股區中興路三段163號","121.448911666667","25.0808033333333","6501400","蘆洲區"
"228004","212-TW","2018/06/19 13:29:24","新北市貢寮區龍崗里石壁坑街17號","121.910358333333","24.9894233333333","6502600","貢寮區"
"228005","828-UM","2018/06/19 13:29:32","新北市貢寮區美豐里文秀坑8號","121.90255","25.0503933333333","6502600","貢寮區"
"207002","749-BX","2018/06/19 13:29:39","新北市萬里區崁腳里崁腳路166號","121.645085","25.1558066666667","6502800","萬里區"
"207001","662-BX","2018/06/19 13:29:38","新北市萬里區野柳里八斗60號","121.664235","25.2057433333333","6502800","萬里區"
"252005","AAC-283","2018/06/19 13:29:45","新北市三芝區圓山里石曹子坑38-1號","121.53427","25.2297116666667","6502100","三芝區"
"236006","498-BY","2018/06/19 13:29:29","新北市土城區亞洲路11巷1弄15號","121.435466666667","24.9718016666667","6501300","土城區"
"221032","280-BY","2018/06/19 13:29:36","新北市汐止區大同路二段184巷15號","121.653996666667","25.0636316666667","6501100","汐止區"
"220027","145-BY","2018/06/19 13:29:26","新北市板橋區華東街1-10號","121.448305","24.9950633333333","6500100","板橋區"
"220028","200-UY","2018/06/19 13:29:30","新北市板橋區華東街1-9號","121.448141666667","24.9948783333333","6500100","板橋區"
"220030","610-BX","2018/06/19 13:29:40","新北市板橋區華東街1-9號","121.448221666667","24.9949066666667","6500100","板橋區"
"220019","283-VK","2018/06/19 13:29:46","新北市板橋區華東街1-9號","121.448053333333","24.99488","6500100","板橋區"
"220031","286-VK","2018/06/19 13:29:40","新北市板橋區華東街1-10號","121.448311666667","24.9951316666667","6500100","板橋區"
"220029","287-VK","2018/06/19 13:29:33","新北市板橋區華東街1-10號","121.44823","24.9950116666667","6500100","板橋區"
"220032","296-UM","2018/06/19 13:29:31","新北市板橋區華東街1-9號","121.448138333333","24.9949733333333","6500100","板橋區"
"220023","303-R5","2018/06/19 13:29:29","新北市板橋區華東街1-9號","121.448215","24.9949466666667","6500100","板橋區"
"220020","461-BY","2018/06/19 13:29:24","新北市板橋區華東街1-10號","121.448333333333","24.9950333333333","6500100","板橋區"
"220012","486-VK","2018/06/19 13:29:27","新北市板橋區南雅南路二段120-2號","121.452403333333","24.999735","6500100","板橋區"
"220104","560-BX","2018/06/19 13:29:42","新北市板橋區南雅南路二段116號","121.453298333333","25.0004816666667","6500100","板橋區"
"220011","609-BX","2018/06/19 13:29:45","新北市板橋區民生路二段188號","121.47004","25.02024","6500100","板橋區"
"220005","686-BX","2018/06/19 13:29:35","新北市板橋區華東街1-9號","121.44824","24.9948516666667","6500100","板橋區"
"220025","687-BX","2018/06/19 13:29:33","新北市板橋區大觀路二段265巷7-7號","121.444193333333","24.9945433333333","6500100","板橋區"
"220022","895-R6","2018/06/19 13:29:40","新北市板橋區南雅南路二段144巷1號","121.451528333333","24.9961283333333","6500100","板橋區"
"220021","985-R7","2018/06/19 13:29:40","新北市板橋區華東街1-10號","121.4483","24.9949633333333","6500100","板橋區"
"235032","KEA-2873","2018/06/19 13:29:23","新北市中和區中正路273-5號","121.495588333333","24.9933666666667","6500300","中和區"
"235025","KEA-2875","2018/06/19 13:29:38","新北市中和區民享街93巷8號","121.475516666667","25.0006483333333","6500300","中和區"
