"lineid","car","time","location","longitude","latitude","cityid","cityname"
"234044","148-BY","2018/06/19 13:39:40","新北市永和區永亨路166號","121.52607","25.0035966666667","6500400","永和區"
"234005","207-UY","2018/06/19 13:39:42","新北市永和區中山路一段58號","121.512898333333","25.01065","6500400","永和區"
"234078","298-R6","2018/06/19 13:39:33","新北市永和區林森路20巷7號","121.525916666667","25.0056433333333","6500400","永和區"
"234036","336-UY","2018/06/19 13:39:30","新北市永和區民樂街29號","121.52777","25.0014933333333","6500400","永和區"
"234062","337-UY","2018/06/19 13:39:30","新北市永和區秀朗路二段24巷28弄14號","121.519468333333","25.0020266666667","6500400","永和區"
"234084","338-UY","2018/06/19 13:39:42","新北市永和區永亨路165巷1-6號","121.526025","25.0039233333333","6500400","永和區"
"234068","552-UM","2018/06/19 13:39:25","新北市永和區永和路二段216號","121.515691666667","25.01406","6500400","永和區"
"234015","745-BX","2018/06/19 13:39:34","新北市永和區忠孝街26巷8號","121.515361666667","25.0167883333333","6500400","永和區"
"234028","746-BX","2018/06/19 13:39:41","新北市永和區民權路23號","121.520268333333","24.9977683333333","6500400","永和區"
"234052","KEA-2590","2018/06/19 13:39:37","新北市永和區竹林路39巷22號","121.518995","25.0147433333333","6500400","永和區"
"234012","KEA-2591","2018/06/19 13:39:42","新北市永和區仁愛路243巷8號","121.509511666667","25.0117416666667","6500400","永和區"
"234060","AAD-866","2018/06/19 13:39:37","新北市永和區中正路416號","121.517526666667","25.0021866666667","6500400","永和區"
"234040","862-TW","2018/06/19 13:39:32","新北市中和區中和路294號","121.508533333333","24.999665","6500400","永和區"
"234048","863-TW","2018/06/19 13:39:40","新北市永和區保安路39號","121.509766666667","25.0161133333333","6500400","永和區"
"234025","9371-KE","2018/06/19 13:39:45","新北市永和區永平路186號","121.510563333333","25.009305","6500400","永和區"
"234010","9373-KE","2018/06/19 13:39:44","新北市永和區保福路二段9巷3號","121.510766666667","25.0108816666667","6500400","永和區"
"248019","225-UY","2018/06/19 13:39:37","新北市五股區民義路二段50-16號","121.412705","25.102285","6501500","五股區"
"234022","9380-KE","2018/06/19 13:39:43","新北市永和區豫溪街57巷8弄6號","121.517638333333","25.0103983333333","6500400","永和區"
"234076","969-R7","2018/06/19 13:39:44","新北市永和區民權路34號","121.520186666667","24.9989416666667","6500400","永和區"
"234072","AAC-211","2018/06/19 13:39:35","新北市永和區竹林路213巷6號","121.521185","25.008845","6500400","永和區"
"234066","AAC-212","2018/06/19 13:39:40","新北市永和區中山路一段191巷16弄2號","121.509675","25.0079666666667","6500400","永和區"
"234001","AAC-295","2018/06/19 13:39:29","新北市永和區永和路一段114號","121.513841666667","25.0073533333333","6500400","永和區"
"244002","248-BX","2018/06/19 13:39:33","新北市林口區民族路302-99號","121.370688333333","25.07944","6501700","林口區"
"231002","002-UM","2018/06/19 13:39:39","新北市新店區溪園路403號","121.523976666667","24.978095","6500600","新店區"
"231027","0293-UT","2018/06/19 13:39:25","新北市新店區國校路76-1號","121.538583333333","24.9531083333333","6500600","新店區"
"231028","046-UY","2018/06/19 13:39:45","新北市新店區安和路一段6-1號","121.51712","24.9649116666667","6500600","新店區"
"231001","047-UY","2018/06/19 13:39:26","新北市新店區中正路376號","121.534796666667","24.976805","6500600","新店區"
"231005","106-UY","2018/06/19 13:39:39","新北市新店區寶中路72號","121.547886666667","24.9806083333333","6500600","新店區"
"231020","108-UY","2018/06/19 13:39:28","新北市新店區永興路88-1號","121.54408","24.9337316666667","6500600","新店區"
"231012","187-VK","2018/06/19 13:39:45","新北市新店區德正街23巷12-1號","121.544618333333","24.9721816666667","6500600","新店區"
"231010","188-VK","2018/06/19 13:39:45","新北市新店區平等街46巷15號","121.535768333333","24.9734583333333","6500600","新店區"
"231023","KEA-2219","2018/06/19 13:39:44","新北市新店區新店路132號","121.537121666667","24.9551183333333","6500600","新店區"
"231026","256-BX","2018/06/19 13:39:41","新北市新店區中正路336號","121.53673","24.9749466666667","6500600","新店區"
"231003","268-BY","2018/06/19 13:39:38","新北市新店區中興路一段280號","121.545676666667","24.9684133333333","6500600","新店區"
"231018","278-BY","2018/06/19 13:39:32","新北市新店區百忍街38號","121.533683333333","24.97585","6500600","新店區"
"231015","AAD-862","2018/06/19 13:39:43","新北市新店區竹林路28號","121.552035","24.9513633333333","6500600","新店區"
"231038","3712-VJ","2018/06/19 13:39:43","新北市新店區安華路30巷1號","121.519565","24.9592483333333","6500600","新店區"
"231037","4716-K9","2018/06/19 13:39:43","新北市新店區薏仁坑路51號","121.493985","24.9645616666667","6500600","新店區"
"231025","4715-K9","2018/06/19 13:39:39","新北市新店區中央六街56號","121.527875","24.9757366666667","6500600","新店區"
"231036","512-UM","2018/06/19 13:39:36","新北市新店區安祥路147巷68號","121.475936666667","24.955925","6500600","新店區"
"231013","513-UM","2018/06/19 13:39:27","新北市新店區中正路454-5號","121.534433333333","24.9790516666667","6500600","新店區"
"231006","617-UM","2018/06/19 13:39:33","新北市新店區北宜路一段97號","121.539051666667","24.9554333333333","6500600","新店區"
"231030","619-UM","2018/06/19 13:39:33","新北市新店區安康路一段319號","121.522095","24.9637333333333","6500600","新店區"
"231034","641-BX","2018/06/19 13:39:45","新北市新店區車子路151號","121.504395","24.9472533333333","6500600","新店區"
"231035","719-UM","2018/06/19 13:39:33","新北市新店區安忠路56巷6號","121.51289","24.9594233333333","6500600","新店區"
"231032","720-UM","2018/06/19 13:39:42","新北市新店區莒光路85巷1號","121.523305","24.9563","6500600","新店區"
"231029","897-TW","2018/06/19 13:39:41","新北市新店區安康路二段269號","121.50442","24.9578633333333","6500600","新店區"
"231004","899-TW","2018/06/19 13:39:28","新北市新店區北新路二段18號","121.5428","24.97126","6500600","新店區"
"231024","AKT-0513","2018/06/19 13:39:37","新北市新店區新生街18巷30號","121.539675","24.9669933333333","6500600","新店區"
"235028","005-UY","2018/06/19 13:39:41","新北市中和區連城路127巷31號","121.497423333333","24.99754","6500300","中和區"
"235027","006-UY","2018/06/19 13:39:37","新北市中和區錦和路103號","121.490165","24.9953983333333","6500300","中和區"
"235020","096-UM","2018/06/19 13:39:39","新北市中和區員山路466巷17弄17號","121.48052","25.007215","6500300","中和區"
"235003","097-UM","2018/06/19 13:39:35","新北市中和區大勇街25巷17號","121.51576","24.9936866666667","6500300","中和區"
"235029","098-UM","2018/06/19 13:39:35","新北市中和區中山路二段2巷81弄1號","121.50111","25.0075966666667","6500300","中和區"
"235004","150-BY","2018/06/19 13:39:44","新北市中和區安平路59號","121.509401666667","24.99522","6500300","中和區"
"235022","151-BY","2018/06/19 13:39:44","新北市中和區圓通路369巷165號","121.490506666667","24.982305","6500300","中和區"
"235019","183-VK","2018/06/19 13:39:45","新北市中和區民德路25巷7弄10號","121.469535","25.0034216666667","6500300","中和區"
"235002","185-VK","2018/06/19 13:39:36","新北市永和區民有街73號","121.51814","24.9957066666667","6500300","中和區"
"235013","186-VK","2018/06/19 13:39:33","新北市中和區明義街11巷12弄2號","121.503795","24.9947016666667","6500300","中和區"
"235031","255-BX","2018/06/19 13:39:31","新北市中和區新生街220巷4號","121.482923333333","24.9986116666667","6500300","中和區"
"235008","293-VK","2018/06/19 13:39:36","新北市中和區復興路280巷1弄2號","121.502228333333","24.990675","6500300","中和區"
"235036","301-VK","2018/06/19 13:35:02","新北市中和區員山路36巷1號","121.482493333333","24.9904383333333","6500300","中和區"
"235007","352-BY","2018/06/19 13:39:35","新北市中和區景平路105號","121.51679","24.9917883333333","6500300","中和區"
"235006","KEA-2878","2018/06/19 13:39:40","新北市中和區景平路159巷29弄3號","121.512951666667","24.99129","6500300","中和區"
"235014","4979-A6","2018/06/19 13:39:15","新北市中和區景新街496巷30弄1號","121.513463333333","24.9854766666667","6500300","中和區"
"235033","4980-A6","2018/06/19 13:39:35","新北市中和區連城路89巷1號","121.496618333333","24.9999766666667","6500300","中和區"
"235034","558-UM","2018/06/19 13:39:37","新北市中和區景平路572號","121.50175","24.995405","6500300","中和區"
"235009","565-BX","2018/06/19 13:39:40","新北市中和區南山路236巷63弄1號","121.503811666667","24.9876066666667","6500300","中和區"
"235018","640-BX","2018/06/19 13:39:32","新北市中和區民享街32巷15號","121.47291","25.003115","6500300","中和區"
"235024","647-TV","2018/06/19 13:39:43","新北市中和區中山路二段513號","121.482141666667","25.005045","6500300","中和區"
"235011","732-UM","2018/06/19 13:39:42","新北市中和區興南路二段32巷5號","121.507148333333","24.985445","6500300","中和區"
"235035","783-BX","2018/06/19 13:39:36","新北市中和區永和路356巷51號","121.48717","25.0142466666667","6500300","中和區"
"235026","800-TS","2018/06/19 13:39:46","新北市中和區景平路679號","121.496578333333","25.002905","6500300","中和區"
"235021","801-TS","2018/06/19 13:39:25","新北市中和區民安街42巷28號","121.4793","25.0010116666667","6500300","中和區"
"235005","802-TS","2018/06/19 13:39:39","新北市中和區中安街78號","121.512231666667","25.00188","6500300","中和區"
"235016","805-TS","2018/06/19 13:39:37","新北市中和區興南路三段52巷6號","121.493861666667","24.9761033333333","6500300","中和區"
"235012","896-TW","2018/06/19 13:39:29","新北市中和區中正路81號","121.500705","24.993375","6500300","中和區"
"235017","900-TW","2018/06/19 13:39:42","新北市中和區民享街492號","121.469625","24.9922483333333","6500300","中和區"
"235030","911-UM","2018/06/19 13:39:32","新北市中和區水源路33號","121.504305","25.003555","6500300","中和區"
"235015","157-BY","2018/06/19 13:39:43","新北市中和區華新街143巷106弄23號","121.506631666667","24.9783983333333","6500300","中和區"
"235001","AAC-213","2018/06/19 13:39:30","新北市中和區景平路73-3號","121.518471666667","24.9914483333333","6500300","中和區"
"235023","AAC-215","2018/06/19 13:39:26","新北市中和區中正路395號","121.489271666667","24.99352","6500300","中和區"
"220034","073-UY","2018/06/19 13:39:36","新北市板橋區大智街71巷7弄1號","121.453116666667","25.0146766666667","6500100","板橋區"
"220017","AAD-861","2018/06/19 13:39:30","新北市板橋區華東街1-10號","121.448341666667","24.9951216666667","6500100","板橋區"
"247007","056-VK","2018/06/19 13:39:41","新北市蘆洲區國道路二段57號","121.473116666667","25.074305","6501400","蘆洲區"
"247009","053-VK","2018/06/19 13:39:26","新北市五股區中興路三段163號","121.449198333333","25.080695","6501400","蘆洲區"
"247019","001-UY","2018/06/19 13:39:36","新北市五股區凌雲路一段21號","121.452371666667","25.1003133333333","6501400","蘆洲區"
"228004","212-TW","2018/06/19 13:39:04","新北市貢寮區龍崗里嵩陽街17號","121.90766","25.0092366666667","6502600","貢寮區"
"228005","828-UM","2018/06/19 13:39:32","新北市貢寮區美豐里文秀坑5-1號","121.903138333333","25.0511533333333","6502600","貢寮區"
"207002","749-BX","2018/06/19 13:39:39","新北市萬里區崁腳里崁腳路166號","121.64506","25.1558316666667","6502800","萬里區"
"207001","662-BX","2018/06/19 13:39:38","新北市萬里區磺潭里公館崙28號","121.632691666667","25.2117366666667","6502800","萬里區"
"252005","AAC-283","2018/06/19 13:39:25","新北市三芝區圓山里二坪頂77號","121.538188333333","25.2366366666667","6502100","三芝區"
"236074","166-UM","2018/06/19 13:39:28","新北市土城區中華路二段2號","121.439378333333","24.97959","6501300","土城區"
"236029","253-BX","2018/06/19 13:39:44","新北市土城區城林路6巷80號","121.438593333333","24.97979","6501300","土城區"
"236013","270-VK","2018/06/19 13:39:30","新北市土城區城林路6巷80號","121.43852","24.9797716666667","6501300","土城區"
"236006","498-BY","2018/06/19 13:39:29","新北市土城區中華路二段90號","121.43824","24.9748883333333","6501300","土城區"
"221032","280-BY","2018/06/19 13:39:36","新北市汐止區水源路一段56號","121.657385","25.06561","6501100","汐止區"
"220027","145-BY","2018/06/19 13:39:46","新北市板橋區中正路107號","121.45633","25.0148183333333","6500100","板橋區"
"220028","200-UY","2018/06/19 13:39:30","新北市板橋區大觀路二段265巷76弄33-1號","121.441278333333","24.9967133333333","6500100","板橋區"
"220030","610-BX","2018/06/19 13:39:40","新北市板橋區大觀路三段59巷17弄6-1號","121.43649","24.9954283333333","6500100","板橋區"
"220003","256-TC","2018/06/19 13:39:40","新北市板橋區板城路421號","121.44809","24.9956733333333","6500100","板橋區"
"220004","276-BY","2018/06/19 13:39:32","新北市土城區廣興街38號","121.453405","24.99144","6500100","板橋區"
"220019","283-VK","2018/06/19 13:39:26","新北市土城區四川路2號","121.455916666667","24.9961733333333","6500100","板橋區"
"220043","285-UM","2018/06/19 13:39:46","新北市板橋區民生路二段161巷3號","121.470071666667","25.0197583333333","6500100","板橋區"
"220031","286-VK","2018/06/19 13:39:44","新北市板橋區大觀路二段5-4號","121.446913333333","25.0036983333333","6500100","板橋區"
"220029","287-VK","2018/06/19 13:39:33","新北市板橋區大觀路二段2號","121.446905","25.0037916666667","6500100","板橋區"
"220009","293-UM","2018/06/19 13:39:28","新北市板橋區民生路二段56-6號","121.471131666667","25.0191933333333","6500100","板橋區"
"220032","296-UM","2018/06/19 13:39:31","新北市板橋區大觀路二段148巷1-3號","121.441783333333","24.99934","6500100","板橋區"
"220023","303-R5","2018/06/19 13:39:29","新北市板橋區館前西路160巷34號","121.451795","25.0092316666667","6500100","板橋區"
"220047","317-R6","2018/06/19 13:39:39","新北市板橋區民生路二段120號","121.47032","25.01982","6500100","板橋區"
"220020","461-BY","2018/06/19 13:39:44","新北市板橋區大觀路三段68號","121.433128333333","24.995055","6500100","板橋區"
"220012","486-VK","2018/06/19 13:39:47","新北市板橋區民生路二段36-1號","121.472125","25.0168","6500100","板橋區"
"220104","560-BX","2018/06/19 13:39:42","新北市板橋區南雅西路二段145巷10號","121.451591666667","25.0119083333333","6500100","板橋區"
"220011","609-BX","2018/06/19 13:39:25","新北市板橋區民生路二段171號","121.469746666667","25.020105","6500100","板橋區"
"220005","686-BX","2018/06/19 13:39:35","新北市板橋區華東街1-9號","121.448236666667","24.994865","6500100","板橋區"
"220025","687-BX","2018/06/19 13:39:33","新北市板橋區大觀路三段212巷72號","121.42979","24.9934283333333","6500100","板橋區"
"220002","741-BX","2018/06/19 13:39:37","新北市板橋區華東街1-9號","121.448085","24.9949116666667","6500100","板橋區"
"220014","829-TW","2018/06/19 13:39:40","新北市板橋區民生路二段120號","121.470316666667","25.0198116666667","6500100","板橋區"
"220045","831-TW","2018/06/19 13:39:25","新北市板橋區民生路二段161巷1號","121.470216666667","25.0199","6500100","板橋區"
"220022","895-R6","2018/06/19 13:39:40","新北市板橋區館前西路123號","121.456651666667","25.007455","6500100","板橋區"
"220021","985-R7","2018/06/19 13:39:40","新北市板橋區南雅南路二段116號","121.453256666667","25.0003183333333","6500100","板橋區"
"220018","AAC-253","2018/06/19 13:39:29","新北市板橋區華東街1-8號","121.447833333333","24.99477","6500100","板橋區"
"235032","KEA-2873","2018/06/19 13:39:23","新北市中和區中正路167巷46號","121.498415","24.992645","6500300","中和區"
"235025","KEA-2875","2018/06/19 13:39:38","新北市中和區民享街81號","121.474173333333","25.0018016666667","6500300","中和區"
