"lineid","car","time","location","longitude","latitude","cityid","cityname"
"234044","148-BY","2018/06/19 13:49:28","新北市永和區永利路248號","121.524131666667","25.0028033333333","6500400","永和區"
"234005","207-UY","2018/06/19 13:49:42","新北市永和區永和路一段42號","121.513043333333","25.0054883333333","6500400","永和區"
"234078","298-R6","2018/06/19 13:49:33","新北市永和區永亨路98號","121.52305","25.00492","6500400","永和區"
"234036","336-UY","2018/06/19 13:49:30","新北市永和區民樂街57巷6號","121.528031666667","24.99845","6500400","永和區"
"234062","337-UY","2018/06/19 13:49:34","新北市永和區中正路362號","121.517903333333","25.0008416666667","6500400","永和區"
"234084","338-UY","2018/06/19 13:49:42","新北市永和區永利路2號","121.517298333333","25.005845","6500400","永和區"
"234068","552-UM","2018/06/19 13:49:45","新北市永和區竹林路81號","121.519496666667","25.0125466666667","6500400","永和區"
"234015","745-BX","2018/06/19 13:49:37","新北市永和區文化路63號","121.514048333333","25.0150916666667","6500400","永和區"
"234028","746-BX","2018/06/19 13:49:41","新北市永和區民生路47巷3號","121.523108333333","24.997865","6500400","永和區"
"234052","KEA-2590","2018/06/19 13:49:37","新北市永和區竹林路39巷28弄21號","121.519875","25.0144916666667","6500400","永和區"
"234012","KEA-2591","2018/06/19 13:49:42","新北市永和區永平路286-1號","121.507608333333","25.011975","6500400","永和區"
"234060","AAD-866","2018/06/19 13:49:42","新北市永和區中正路279號","121.517573333333","25.001","6500400","永和區"
"234040","862-TW","2018/06/19 13:49:32","新北市永和區中和路389巷13號","121.508073333333","25.0009766666667","6500400","永和區"
"234048","863-TW","2018/06/19 13:49:40","新北市永和區保安路77號","121.508706666667","25.0148383333333","6500400","永和區"
"234010","9373-KE","2018/06/19 13:49:26","新北市永和區保生路55號","121.504726666667","25.0106033333333","6500400","永和區"
"248019","225-UY","2018/06/19 13:49:37","新北市五股區民義路二段22巷27號","121.423751666667","25.0979016666667","6501500","五股區"
"234022","9380-KE","2018/06/19 13:49:43","新北市永和區中正路662巷46號","121.51827","25.00871","6500400","永和區"
"234076","969-R7","2018/06/19 13:49:31","新北市永和區民族街35-1號","121.5188","24.9990566666667","6500400","永和區"
"234072","AAC-211","2018/06/19 13:49:34","新北市永和區豫溪街215巷11號","121.523835","25.0099033333333","6500400","永和區"
"234066","AAC-212","2018/06/19 13:49:40","新北市永和區中山路一段255巷22號","121.50842","25.007105","6500400","永和區"
"234001","AAC-295","2018/06/19 13:49:32","新北市永和區永和路一段45號","121.512918333333","25.0062783333333","6500400","永和區"
"244002","248-BX","2018/06/19 13:49:33","新北市林口區竹林路265號","121.38961","25.080755","6501700","林口區"
"231002","002-UM","2018/06/19 13:49:39","新北市新店區溪園路393號","121.524251666667","24.9790383333333","6500600","新店區"
"231027","0293-UT","2018/06/19 13:49:25","新北市新店區北宜路一段105巷10弄1號","121.540331666667","24.9557283333333","6500600","新店區"
"231028","046-UY","2018/06/19 13:49:45","新北市新店區安和路二段193號","121.518106666667","24.9750316666667","6500600","新店區"
"231001","047-UY","2018/06/19 13:49:39","新北市新店區三民路40號","121.53622","24.9714716666667","6500600","新店區"
"231005","106-UY","2018/06/19 13:49:39","新北市新店區寶中路121-1號","121.549655","24.9794116666667","6500600","新店區"
"231020","108-UY","2018/06/19 13:49:28","新北市新店區永興路132-3號","121.544625","24.9320283333333","6500600","新店區"
"231012","187-VK","2018/06/19 13:49:25","新北市新店區德正街27巷29弄135號","121.545755","24.9732983333333","6500600","新店區"
"231010","188-VK","2018/06/19 13:49:42","新北市新店區平等街81號","121.535671666667","24.97225","6500600","新店區"
"231023","KEA-2219","2018/06/19 13:49:44","新北市新店區國校路47號","121.537926666667","24.9548933333333","6500600","新店區"
"231026","256-BX","2018/06/19 13:49:41","新北市新店區三民路159巷19弄2號","121.53275","24.9742183333333","6500600","新店區"
"231003","268-BY","2018/06/19 13:49:38","新北市新店區中興路一段157號","121.542441666667","24.9641483333333","6500600","新店區"
"231018","278-BY","2018/06/19 13:49:32","新北市新店區中正路399巷24號","121.533881666667","24.9766583333333","6500600","新店區"
"231015","AAD-862","2018/06/19 13:49:28","新北市新店區北宜路二段82巷11號","121.553856666667","24.95197","6500600","新店區"
"231038","3712-VJ","2018/06/19 13:49:43","新北市新店區安康路一段321巷3號","121.521718333333","24.963055","6500600","新店區"
"231037","4716-K9","2018/06/19 13:49:43","新北市新店區安康路三段356-1號","121.486138333333","24.9517083333333","6500600","新店區"
"231025","4715-K9","2018/06/19 13:49:39","新北市新店區中央路7號","121.533475","24.9785516666667","6500600","新店區"
"231036","512-UM","2018/06/19 13:49:36","新北市新店區安祥路112號","121.475065","24.9568966666667","6500600","新店區"
"231013","513-UM","2018/06/19 13:49:27","新北市新店區二十張路25巷18弄27號","121.539236666667","24.9813683333333","6500600","新店區"
"231006","617-UM","2018/06/19 13:49:33","新北市新店區北宜路一段276號","121.546163333333","24.9526733333333","6500600","新店區"
"231030","619-UM","2018/06/19 13:49:36","新北市新店區安康路一段52巷2號","121.5302","24.9611866666667","6500600","新店區"
"231034","641-BX","2018/06/19 13:49:45","新北市新店區達觀路14巷3號","121.503033333333","24.9414283333333","6500600","新店區"
"231035","719-UM","2018/06/19 13:49:33","新北市新店區安忠路57巷2號","121.513388333333","24.9592116666667","6500600","新店區"
"231032","720-UM","2018/06/19 13:49:27","新北市新店區莒光路44巷21弄11-3號","121.518366666667","24.9521933333333","6500600","新店區"
"231029","897-TW","2018/06/19 13:49:41","新北市新店區安康路二段156號","121.512353333333","24.960905","6500600","新店區"
"231004","899-TW","2018/06/19 13:49:28","新北市新店區寶橋路69-1號","121.545498333333","24.975015","6500600","新店區"
"231024","AKT-0513","2018/06/19 13:49:37","新北市新店區新生街13巷14號","121.539418333333","24.965935","6500600","新店區"
"235028","005-UY","2018/06/19 13:49:41","新北市中和區連城路75巷13號","121.498526666667","24.9982633333333","6500300","中和區"
"235027","006-UY","2018/06/19 13:49:37","新北市中和區中正路520號","121.488106666667","24.9943833333333","6500300","中和區"
"235020","096-UM","2018/06/19 13:49:39","新北市中和區中正路1196號","121.480525","25.0104866666667","6500300","中和區"
"235003","097-UM","2018/06/19 13:49:35","新北市中和區大勇街25巷38弄13號","121.516161666667","24.9939983333333","6500300","中和區"
"235029","098-UM","2018/06/19 13:49:35","新北市中和區勝利路35巷9弄20號","121.499901666667","25.0074033333333","6500300","中和區"
"235004","150-BY","2018/06/19 13:49:44","新北市中和區保健路48巷19號","121.509855","24.9966883333333","6500300","中和區"
"235022","151-BY","2018/06/19 13:49:24","新北市中和區連城路384號","121.480683333333","24.9950716666667","6500300","中和區"
"235019","183-VK","2018/06/19 13:49:45","新北市板橋區民族路310號","121.470803333333","25.00659","6500300","中和區"
"235002","185-VK","2018/06/19 13:49:36","新北市中和區大勇街43巷8號","121.517525","24.9947416666667","6500300","中和區"
"235013","186-VK","2018/06/19 13:49:33","新北市中和區景新街210巷2弄2號","121.507","24.9943466666667","6500300","中和區"
"235031","255-BX","2018/06/19 13:49:31","新北市中和區連城路340巷14弄1號","121.483421666667","24.9971383333333","6500300","中和區"
"235008","293-VK","2018/06/19 13:49:36","新北市中和區中興街133號","121.499991666667","24.9915033333333","6500300","中和區"
"235036","301-VK","2018/06/19 13:49:40","新北市中和區連城路297號","121.490145","24.996395","6500300","中和區"
"235007","352-BY","2018/06/19 13:49:35","新北市中和區成功路139號","121.525898333333","24.9901283333333","6500300","中和區"
"235006","KEA-2878","2018/06/19 13:49:40","新北市中和區景平路159巷52號","121.51275","24.9912683333333","6500300","中和區"
"235014","4979-A6","2018/06/19 13:49:35","新北市中和區忠孝街62巷5號","121.512801666667","24.983575","6500300","中和區"
"235033","4980-A6","2018/06/19 13:49:35","新北市中和區圓通路2號","121.501991666667","24.9980516666667","6500300","中和區"
"235034","558-UM","2018/06/19 13:49:37","新北市中和區中和路104號","121.502808333333","24.9997533333333","6500300","中和區"
"235009","565-BX","2018/06/19 13:49:40","新北市中和區捷運路125號","121.507248333333","24.9906683333333","6500300","中和區"
"235018","640-BX","2018/06/19 13:49:32","新北市中和區民享街38-2號","121.473886666667","25.0029483333333","6500300","中和區"
"235024","647-TV","2018/06/19 13:49:23","新北市中和區中山路三段118號","121.475605","25.0060116666667","6500300","中和區"
"235011","732-UM","2018/06/19 13:49:46","新北市中和區興南路二段34巷20-5號","121.506053333333","24.9863983333333","6500300","中和區"
"235010","733-UM","2018/06/19 13:49:27","新北市中和區仁愛街36巷40號","121.51126","24.9865","6500300","中和區"
"235035","783-BX","2018/06/19 13:49:41","新北市中和區立德街28號","121.489768333333","25.006825","6500300","中和區"
"235026","800-TS","2018/06/19 13:49:26","新北市中和區中山路二段340巷38號","121.493355","25.0039066666667","6500300","中和區"
"235021","801-TS","2018/06/19 13:49:25","新北市中和區民安街19號","121.480468333333","25.0006066666667","6500300","中和區"
"235005","802-TS","2018/06/19 13:49:39","新北市中和區永貞路249巷10號","121.51255","25.0037333333333","6500300","中和區"
"235016","805-TS","2018/06/19 13:49:43","新北市中和區興南路二段399巷65-1號","121.50117","24.975175","6500300","中和區"
"235012","896-TW","2018/06/19 13:49:29","新北市中和區南山路194號","121.505918333333","24.9905633333333","6500300","中和區"
"235017","900-TW","2018/06/19 13:49:35","新北市中和區華福街40號","121.466428333333","24.9966333333333","6500300","中和區"
"235030","911-UM","2018/06/19 13:49:32","新北市中和區水源路16號","121.50401","25.0034366666667","6500300","中和區"
"235015","157-BY","2018/06/19 13:49:43","新北市中和區忠孝街106巷33號","121.513316666667","24.9842933333333","6500300","中和區"
"235001","AAC-213","2018/06/19 13:49:30","新北市中和區秀朗路三段128巷18號","121.524598333333","24.99326","6500300","中和區"
"235023","AAC-215","2018/06/19 13:49:46","新北市中和區圓通路393巷16號","121.489798333333","24.9886116666667","6500300","中和區"
"220034","073-UY","2018/06/19 13:49:43","新北市板橋區民權路258-7號","121.457898333333","25.0151783333333","6500100","板橋區"
"220105","075-UY","2018/06/19 13:49:39","新北市板橋區民生路二段161巷9號","121.470233333333","25.019635","6500100","板橋區"
"220017","AAD-861","2018/06/19 13:49:30","新北市板橋區大華街11號","121.458988333333","25.00619","6500100","板橋區"
"247003","337-TH","2018/06/19 13:49:29","新北市蘆洲區中原路26號","121.460118333333","25.0828416666667","6501400","蘆洲區"
"247005","336-TH","2018/06/19 13:49:41","新北市蘆洲區和平路77號","121.469303333333","25.0790016666667","6501400","蘆洲區"
"247007","056-VK","2018/06/19 13:49:40","新北市蘆洲區永安北路二段74號","121.483935","25.084475","6501400","蘆洲區"
"247009","053-VK","2018/06/19 13:49:46","新北市五股區成泰路三段544-1號","121.454756666667","25.1005566666667","6501400","蘆洲區"
"247019","001-UY","2018/06/19 13:49:36","新北市蘆洲區民族路408巷46號","121.474818333333","25.0930766666667","6501400","蘆洲區"
"228004","212-TW","2018/06/19 13:40:04","新北市貢寮區龍崗里嵩陽街41號","121.906623333333","25.0119866666667","6502600","貢寮區"
"228005","828-UM","2018/06/19 13:49:32","新北市雙溪區三港里雙澳路100號","121.888776666667","25.05604","6502600","貢寮區"
"207002","749-BX","2018/06/19 13:49:39","新北市萬里區崁腳里崁腳路166號","121.645095","25.15583","6502800","萬里區"
"207001","662-BX","2018/06/19 13:49:38","新北市萬里區磺潭里磺溪12-1號","121.630495","25.202775","6502800","萬里區"
"252005","AAC-283","2018/06/19 13:49:45","新北市三芝區圓山里二坪頂79號","121.539923333333","25.2446183333333","6502100","三芝區"
"236065","105-UM","2018/06/19 13:49:41","新北市土城區員福街50號","121.440511666667","24.979075","6501300","土城區"
"236074","166-UM","2018/06/19 13:49:26","新北市土城區中央路三段32號","121.438571666667","24.9691266666667","6501300","土城區"
"236029","253-BX","2018/06/19 13:49:24","新北市土城區城林路6巷80號","121.438593333333","24.97979","6501300","土城區"
"236013","270-VK","2018/06/19 13:49:30","新北市土城區城林路6巷80號","121.438485","24.9797433333333","6501300","土城區"
"236032","271-VK","2018/06/19 13:49:43","新北市土城區城林路6巷80號","121.438485","24.9797833333333","6501300","土城區"
"236017","401-BY","2018/06/19 13:49:28","新北市土城區城林路6巷80號","121.438415","24.9797983333333","6501300","土城區"
"236006","498-BY","2018/06/19 13:49:29","新北市土城區中央路二段61巷46號","121.444118333333","24.9783016666667","6501300","土城區"
"236057","912-UM","2018/06/19 13:49:35","新北市土城區中華路二段168-1號","121.437416666667","24.9720433333333","6501300","土城區"
"236045","913-UM","2018/06/19 13:49:44","新北市土城區城林路6巷80號","121.438458333333","24.9797183333333","6501300","土城區"
"236060","915-UM","2018/06/19 13:49:26","新北市土城區城林路6巷80號","121.438471666667","24.979775","6501300","土城區"
"236054","AAC-216","2018/06/19 13:49:34","新北市土城區城林路6巷80號","121.43868","24.9797466666667","6501300","土城區"
"220027","145-BY","2018/06/19 13:49:46","新北市板橋區民權路202巷7弄32號","121.4588","25.015085","6500100","板橋區"
"220028","200-UY","2018/06/19 13:49:42","新北市板橋區大觀路二段265巷60弄19號","121.442198333333","24.997895","6500100","板橋區"
"220030","610-BX","2018/06/19 13:49:40","新北市板橋區篤行路三段49號","121.428108333333","24.98613","6500100","板橋區"
"220050","245-BX","2018/06/19 13:48:41","新北市板橋區民生路二段120號","121.471095","25.0194466666667","6500100","板橋區"
"220003","256-TC","2018/06/19 13:49:40","新北市板橋區中山路一段140號","121.463506666667","25.0110733333333","6500100","板橋區"
"220052","257-TC","2018/06/19 13:49:31","新北市板橋區民生路二段120號","121.47038","25.0196583333333","6500100","板橋區"
"220040","267-BY","2018/06/19 13:49:38","新北市板橋區民生路二段120號","121.470346666667","25.02007","6500100","板橋區"
"220004","276-BY","2018/06/19 13:49:32","新北市板橋區信義路53號","121.45727","24.99586","6500100","板橋區"
"220019","283-VK","2018/06/19 13:49:26","新北市板橋區重慶路245巷56號","121.46525","25.00093","6500100","板橋區"
"220043","285-UM","2018/06/19 13:49:26","新北市板橋區民生路二段161巷1號","121.47004","25.01979","6500100","板橋區"
"220001","285-VK","2018/06/19 13:49:45","新北市板橋區民生路二段121號","121.470675","25.018425","6500100","板橋區"
"220031","286-VK","2018/06/19 13:49:40","新北市板橋區大觀路一段38巷156弄137號","121.443601666667","25.0086433333333","6500100","板橋區"
"220029","287-VK","2018/06/19 13:49:33","新北市板橋區光華街7號","121.454148333333","25.01154","6500100","板橋區"
"220039","288-VK","2018/06/19 13:49:44","新北市板橋區民生路二段120號","121.470393333333","25.0196616666667","6500100","板橋區"
"220009","293-UM","2018/06/19 13:49:28","新北市板橋區民生路二段56-6號","121.470871666667","25.01863","6500100","板橋區"
"220010","295-UM","2018/06/19 13:49:31","新北市板橋區中山路二段40巷24號","121.473575","25.014465","6500100","板橋區"
"220032","296-UM","2018/06/19 13:49:36","新北市板橋區大觀路二段156巷51號","121.441261666667","25.0000516666667","6500100","板橋區"
"220023","303-R5","2018/06/19 13:49:44","新北市板橋區館前西路269號","121.453566666667","25.008625","6500100","板橋區"
"220041","307-R5","2018/06/19 13:49:45","新北市板橋區民生路二段161巷5號","121.470216666667","25.019705","6500100","板橋區"
"220047","317-R6","2018/06/19 13:49:39","新北市板橋區民生路二段161巷5號","121.47029","25.0197783333333","6500100","板橋區"
"220020","461-BY","2018/06/19 13:49:26","新北市板橋區大觀路三段36巷54弄1號","121.434521666667","24.9972133333333","6500100","板橋區"
"220012","486-VK","2018/06/19 13:49:38","新北市板橋區中山路二段37號","121.47308","25.0155816666667","6500100","板橋區"
"220037","491-VK","2018/06/19 13:49:28","新北市板橋區民生路二段171號","121.469885","25.02016","6500100","板橋區"
"220104","560-BX","2018/06/19 13:49:42","新北市板橋區中正路325巷3弄23號","121.453976666667","25.0185316666667","6500100","板橋區"
"220011","609-BX","2018/06/19 13:49:35","新北市板橋區民生路一段113號","121.474128333333","25.0146033333333","6500100","板橋區"
"220005","686-BX","2018/06/19 13:49:35","新北市板橋區華興街91巷4號","121.456511666667","25.00513","6500100","板橋區"
"220025","687-BX","2018/06/19 13:49:33","新北市板橋區金門街65號","121.433233333333","24.99279","6500100","板橋區"
"220042","689-BX","2018/06/19 13:49:41","新北市板橋區民生路二段188號","121.470205","25.0202033333333","6500100","板橋區"
"220002","741-BX","2018/06/19 13:49:37","新北市板橋區華興街91巷4號","121.456545","25.0051183333333","6500100","板橋區"
"220051","KEA-2699","2018/06/19 13:49:38","新北市板橋區民生路二段161巷1號","121.470291666667","25.0199983333333","6500100","板橋區"
"220014","829-TW","2018/06/19 13:49:40","新北市板橋區民生路一段59號","121.475256666667","25.0131516666667","6500100","板橋區"
"220045","831-TW","2018/06/19 13:49:45","新北市板橋區民生路二段120號","121.470451666667","25.0197966666667","6500100","板橋區"
"220038","833-TW","2018/06/19 13:49:44","新北市板橋區民生路二段175號","121.469916666667","25.0202283333333","6500100","板橋區"
"220022","895-R6","2018/06/19 13:49:40","新北市板橋區南雅南路一段90號","121.455161666667","25.0047916666667","6500100","板橋區"
"220021","985-R7","2018/06/19 13:49:40","新北市板橋區府中路69號","121.4579","25.009405","6500100","板橋區"
"220018","AAC-253","2018/06/19 13:49:29","新北市板橋區四川路一段26號","121.459548333333","25.0063266666667","6500100","板橋區"
"235032","KEA-2873","2018/06/19 13:49:23","新北市中和區圓通路208號","121.496021666667","24.9938366666667","6500300","中和區"
"235025","KEA-2875","2018/06/19 13:49:38","新北市中和區民治街128巷1號","121.475201666667","25.0028666666667","6500300","中和區"
