"lineid","car","time","location","longitude","latitude","cityid","cityname"
"234005","207-UY","2018/06/19 14:39:42","新北市永和區安樂路208-1號","121.515096666667","25.0018733333333","6500400","永和區"
"234062","337-UY","2018/06/19 14:39:30","新北市永和區永和路二段190號","121.515481666667","25.013515","6500400","永和區"
"234028","746-BX","2018/06/19 14:39:41","新北市中和區中正路860號","121.484268333333","25.0051766666667","6500400","永和區"
"234048","863-TW","2018/06/19 14:39:40","新北市永和區保福路二段163巷14號","121.508718333333","25.0147066666667","6500400","永和區"
"234025","9371-KE","2018/06/19 14:39:39","新北市中和區中和路380號","121.510638333333","25.0022216666667","6500400","永和區"
"248019","225-UY","2018/06/19 14:22:37","新北市五股區外寮路6-1號","121.425251666667","25.0752883333333","6501500","五股區"
"234072","AAC-211","2018/06/19 14:39:34","新北市永和區環河東路二段54號","121.523285","25.01162","6500400","永和區"
"234001","AAC-295","2018/06/19 14:39:29","新北市永和區中正路618號","121.517108333333","25.0077","6500400","永和區"
"244002","248-BX","2018/06/19 14:39:33","新北市林口區竹林路267號","121.389591666667","25.0808316666667","6501700","林口區"
"231002","002-UM","2018/06/19 14:39:39","新北市新店區中正路468號","121.534","24.979405","6500600","新店區"
"231027","0293-UT","2018/06/19 14:39:45","新北市新店區三民路181號","121.535048333333","24.9752183333333","6500600","新店區"
"231028","046-UY","2018/06/19 14:39:45","新北市新店區安成街34號","121.510058333333","24.9611583333333","6500600","新店區"
"231001","047-UY","2018/06/19 14:39:26","新北市新店區中正路100號","121.543301666667","24.970405","6500600","新店區"
"231005","106-UY","2018/06/19 14:39:39","新北市新店區復興路102號","121.531978333333","24.9888583333333","6500600","新店區"
"231020","108-UY","2018/06/19 14:39:28","新北市新店區桂山路69號","121.566535","24.9006866666667","6500600","新店區"
"231012","187-VK","2018/06/19 14:39:25","新北市新店區寶宏路38號","121.549518333333","24.97564","6500600","新店區"
"231010","188-VK","2018/06/19 14:15:33","新北市新店區安一路一段1-1號","121.519656666667","24.9611216666667","6500600","新店區"
"231023","KEA-2219","2018/06/19 14:39:42","新北市新店區檳榔路27號","121.541721666667","24.9636766666667","6500600","新店區"
"231003","268-BY","2018/06/19 14:39:38","新北市新店區中興路一段292號","121.54594","24.9691316666667","6500600","新店區"
"231018","278-BY","2018/06/19 14:39:32","新北市新店區中央一街18號","121.52839","24.9729533333333","6500600","新店區"
"231015","AAD-862","2018/06/19 14:39:28","新北市新店區北宜路三段221號","121.592368333333","24.95321","6500600","新店區"
"231038","3712-VJ","2018/06/19 14:39:43","新北市新店區安華路28-1號","121.51963","24.9609416666667","6500600","新店區"
"231037","4716-K9","2018/06/19 14:39:42","新北市新店區柴埕路2-1號","121.51499","24.9659783333333","6500600","新店區"
"231036","512-UM","2018/06/19 14:39:16","新北市新店區安祥路106巷343號","121.472793333333","24.959305","6500600","新店區"
"231013","513-UM","2018/06/19 14:39:47","新北市新店區北新路二段139巷12弄2號","121.542215","24.9760433333333","6500600","新店區"
"231006","617-UM","2018/06/19 14:39:32","新北市新店區北宜路二段103號","121.550173333333","24.95246","6500600","新店區"
"231030","619-UM","2018/06/19 14:39:30","新北市新店區安民街235號","121.517166666667","24.9718966666667","6500600","新店區"
"231034","641-BX","2018/06/19 14:39:45","新北市新店區黎明路51巷8號","121.502223333333","24.9488433333333","6500600","新店區"
"231035","719-UM","2018/06/19 14:39:33","新北市新店區安康路二段58巷9號","121.513365","24.96392","6500600","新店區"
"231032","720-UM","2018/06/19 14:39:27","新北市新店區安德街148巷37號","121.507358333333","24.9613433333333","6500600","新店區"
"231029","897-TW","2018/06/19 14:39:41","新北市新店區安康路三段622號","121.479428333333","24.9463716666667","6500600","新店區"
"231004","899-TW","2018/06/19 14:39:38","新北市新店區中正路277號","121.537638333333","24.9743","6500600","新店區"
"231024","AKT-0513","2018/06/19 14:39:37","新北市新店區力行路14巷16弄8號","121.539451666667","24.9655583333333","6500600","新店區"
"235028","005-UY","2018/06/19 14:39:40","新北市中和區南山路81巷68號","121.50413","24.99775","6500300","中和區"
"235027","006-UY","2018/06/19 14:39:37","新北市中和區連城路263巷7弄2號","121.492261666667","24.99575","6500300","中和區"
"235020","096-UM","2018/06/19 14:39:39","新北市中和區員山路581巷2弄7-2號","121.477885","25.0096616666667","6500300","中和區"
"235003","097-UM","2018/06/19 14:39:35","新北市中和區安平路102號","121.511575","24.9972816666667","6500300","中和區"
"235029","098-UM","2018/06/19 14:39:36","新北市中和區福祥路87號","121.49885","25.0057966666667","6500300","中和區"
"235004","150-BY","2018/06/19 14:39:44","新北市中和區安平路59號","121.509656666667","24.9949416666667","6500300","中和區"
"235022","151-BY","2018/06/19 14:39:44","新北市中和區連城路376號","121.481441666667","24.9952516666667","6500300","中和區"
"235019","183-VK","2018/06/19 14:39:45","新北市中和區民生街85巷5弄1號","121.46926","25.004075","6500300","中和區"
"235002","185-VK","2018/06/19 14:39:36","新北市中和區自強路25號","121.520625","24.993055","6500300","中和區"
"235013","186-VK","2018/06/19 14:39:33","新北市中和區安平路13號","121.50918","24.9941033333333","6500300","中和區"
"235031","255-BX","2018/06/19 14:39:30","新北市中和區新生街220巷29弄2號","121.4825","24.9984866666667","6500300","中和區"
"235008","293-VK","2018/06/19 14:39:36","新北市中和區興南路一段71號","121.510161666667","24.9893633333333","6500300","中和區"
"235036","301-VK","2018/06/19 14:39:38","新北市中和區莊敬路33巷20號","121.500165","25.005495","6500300","中和區"
"235007","352-BY","2018/06/19 14:39:35","新北市中和區南華路37號","121.503148333333","24.99618","6500300","中和區"
"235014","4979-A6","2018/06/19 14:39:35","新北市中和區中正路19號","121.502921666667","24.9934183333333","6500300","中和區"
"235034","558-UM","2018/06/19 14:39:37","新北市中和區連城路67-1號","121.497483333333","25.001285","6500300","中和區"
"235009","565-BX","2018/06/19 14:39:40","新北市中和區景平路177號","121.511813333333","24.9924716666667","6500300","中和區"
"235018","640-BX","2018/06/19 14:39:32","新北市中和區德光路86號","121.468896666667","25.0036333333333","6500300","中和區"
"235024","647-TV","2018/06/19 14:39:43","新北市中和區員山路314巷7弄2號","121.4821","25.00297","6500300","中和區"
"235011","732-UM","2018/06/19 14:39:41","新北市中和區興南路一段86號","121.509953333333","24.9893033333333","6500300","中和區"
"235010","733-UM","2018/06/19 14:39:47","新北市中和區四維街21號","121.512916666667","24.9870966666667","6500300","中和區"
"235035","783-BX","2018/06/19 14:39:36","新北市中和區建八路116號","121.488123333333","24.99825","6500300","中和區"
"235026","800-TS","2018/06/19 14:39:46","新北市中和區中山路二段500號","121.486798333333","25.0049583333333","6500300","中和區"
"235021","801-TS","2018/06/19 14:39:40","新北市中和區員山路202號","121.481331666667","25.0006483333333","6500300","中和區"
"235005","802-TS","2018/06/19 14:39:39","新北市中和區中和路258號","121.507545","24.9995583333333","6500300","中和區"
"235016","805-TS","2018/06/19 14:39:37","新北市中和區華新街192巷2-1號","121.506791666667","24.9823533333333","6500300","中和區"
"235012","896-TW","2018/06/19 14:39:29","新北市中和區四維街21號","121.51299","24.98712","6500300","中和區"
"235017","900-TW","2018/06/19 14:39:35","新北市中和區國光街140巷4號","121.468606666667","25.0014166666667","6500300","中和區"
"235030","911-UM","2018/06/19 14:39:32","新北市中和區南華路89號","121.50564","24.9973133333333","6500300","中和區"
"235015","157-BY","2018/06/19 14:39:43","新北市中和區中興街233巷10號","121.501485","24.9894066666667","6500300","中和區"
"235001","AAC-213","2018/06/19 14:39:30","新北市中和區成功路6號","121.526115","24.9937533333333","6500300","中和區"
"235023","AAC-215","2018/06/19 14:39:26","新北市中和區圓通路305巷5弄2號","121.493583333333","24.9902233333333","6500300","中和區"
"220013","072-UY","2018/06/19 14:39:37","新北市板橋區國泰街39巷3弄2號","121.4685","25.0063016666667","6500100","板橋區"
"220105","075-UY","2018/06/19 14:39:39","新北市板橋區雙十路27號","121.47049","25.0312316666667","6500100","板橋區"
"220017","AAD-861","2018/06/19 14:39:30","新北市板橋區南雅南路二段18號","121.454515","25.0035683333333","6500100","板橋區"
"247023","893-R6","2018/06/19 14:39:43","新北市蘆洲區正和街63巷24號","121.469328333333","25.08035","6501400","蘆洲區"
"247013","546-UM","2018/06/19 14:39:27","新北市蘆洲區成功路132號","121.472061666667","25.082775","6501400","蘆洲區"
"247011","339-TH","2018/06/19 14:39:29","新北市蘆洲區民族路184號","121.480005","25.0868966666667","6501400","蘆洲區"
"247003","337-TH","2018/06/19 14:39:33","新北市蘆洲區長安街285巷8號","121.457886666667","25.0842766666667","6501400","蘆洲區"
"247005","336-TH","2018/06/19 14:39:41","新北市蘆洲區中華街65號","121.462321666667","25.0808083333333","6501400","蘆洲區"
"247007","056-VK","2018/06/19 14:39:40","新北市蘆洲區信義路42號","121.474898333333","25.0795083333333","6501400","蘆洲區"
"247009","053-VK","2018/06/19 14:39:45","新北市蘆洲區信義路222巷59號","121.481121666667","25.0852983333333","6501400","蘆洲區"
"247015","007-UY","2018/06/19 14:39:35","新北市蘆洲區正和街29號","121.469691666667","25.0819783333333","6501400","蘆洲區"
"247001","002-UY","2018/06/19 14:39:32","新北市蘆洲區長安街274巷11號","121.45794","25.0871416666667","6501400","蘆洲區"
"247019","001-UY","2018/06/19 14:39:36","新北市蘆洲區民義街88號","121.473693333333","25.09028","6501400","蘆洲區"
"228004","212-TW","2018/06/19 14:39:44","新北市貢寮區福隆里龜壽谷街36號","121.946508333333","25.014585","6502600","貢寮區"
"228005","828-UM","2018/06/19 14:39:31","新北市貢寮區美豐里雞母嶺街6-6號","121.902063333333","25.064195","6502600","貢寮區"
"207002","749-BX","2018/06/19 14:39:39","新北市萬里區崁腳里崁腳路73號","121.647576666667","25.1595866666667","6502800","萬里區"
"207001","662-BX","2018/06/19 14:39:38","新北市萬里區雙興里豐稟路22-1號","121.640231666667","25.1851466666667","6502800","萬里區"
"252005","AAC-283","2018/06/19 14:39:25","新北市三芝區埔坪里埔頭坑91-3號","121.508041666667","25.2530883333333","6502100","三芝區"
"236065","105-UM","2018/06/19 14:39:41","新北市土城區永豐路342-1號","121.47421","24.976825","6501300","土城區"
"236074","166-UM","2018/06/19 14:39:46","新北市土城區中央路四段52巷10號","121.420063333333","24.9609","6501300","土城區"
"236029","253-BX","2018/06/19 14:39:44","新北市土城區中華路二段128號","121.437771666667","24.9734616666667","6501300","土城區"
"236024","269-VK","2018/06/19 14:39:26","新北市土城區忠義路47號","121.440505","24.9693516666667","6501300","土城區"
"236013","270-VK","2018/06/19 14:39:30","新北市土城區清水路224號","121.460916666667","24.9823083333333","6501300","土城區"
"236032","271-VK","2018/06/19 14:39:43","新北市土城區明德路一段245號","121.462603333333","24.9781033333333","6501300","土城區"
"236017","401-BY","2018/06/19 14:39:44","新北市土城區延吉街240號","121.46685","24.9846933333333","6501300","土城區"
"236006","498-BY","2018/06/19 14:39:29","新北市土城區城林路6巷80號","121.438658333333","24.9797733333333","6501300","土城區"
"236040","752-BX","2018/06/19 14:39:35","新北市土城區裕民路55巷2號","121.4491","24.9880633333333","6501300","土城區"
"236057","912-UM","2018/06/19 14:39:35","新北市土城區中央路四段25-3號","121.424883333333","24.962475","6501300","土城區"
"236045","913-UM","2018/06/19 14:39:44","新北市土城區金城路三段3號","121.464326666667","24.986085","6501300","土城區"
"236060","915-UM","2018/06/19 14:39:47","新北市中和區民享街498號","121.469481666667","24.9917433333333","6501300","土城區"
"236054","AAC-216","2018/06/19 14:39:34","新北市土城區裕民路24號","121.44769","24.9886033333333","6501300","土城區"
"220027","145-BY","2018/06/19 14:39:45","新北市板橋區建國街54巷40號","121.45997","25.0170216666667","6500100","板橋區"
"220028","200-UY","2018/06/19 14:39:43","新北市板橋區大觀路二段37巷43號","121.448873333333","25.00266","6500100","板橋區"
"220030","610-BX","2018/06/19 14:39:40","新北市板橋區篤行路一段39號","121.432203333333","24.9941333333333","6500100","板橋區"
"220050","245-BX","2018/06/19 14:39:42","新北市板橋區八德路三段33巷17-1號","121.473886666667","25.0213633333333","6500100","板橋區"
"220003","256-TC","2018/06/19 14:39:40","新北市板橋區國慶路149巷5號","121.461126666667","24.9968833333333","6500100","板橋區"
"220052","257-TC","2018/06/19 14:39:34","新北市板橋區文化路一段369-1號","121.466883333333","25.0211366666667","6500100","板橋區"
"220040","267-BY","2018/06/19 14:39:38","新北市板橋區懷德街139巷20弄1號","121.480145","25.0307033333333","6500100","板橋區"
"220004","276-BY","2018/06/19 14:39:42","新北市板橋區四川路一段489號","121.457211666667","24.99705","6500100","板橋區"
"220019","283-VK","2018/06/19 14:39:26","新北市板橋區五權街32巷31號","121.463743333333","24.9926266666667","6500100","板橋區"
"220043","285-UM","2018/06/19 14:39:44","新北市板橋區宏國路77巷2弄16號","121.469665","25.0324383333333","6500100","板橋區"
"220001","285-VK","2018/06/19 14:39:37","新北市板橋區中山路二段265號","121.477686666667","25.0178633333333","6500100","板橋區"
"220031","286-VK","2018/06/19 14:39:40","新北市板橋區僑中二街8巷10號","121.4468","25.0113433333333","6500100","板橋區"
"220029","287-VK","2018/06/19 14:39:35","新北市板橋區大觀路一段29巷17號","121.450148333333","25.0079883333333","6500100","板橋區"
"220039","288-VK","2018/06/19 14:39:44","新北市板橋區長江路一段48巷3弄1號","121.459116666667","25.0286266666667","6500100","板橋區"
"220009","293-UM","2018/06/19 14:39:28","新北市板橋區中山路一段283巷18號","121.470335","25.0151566666667","6500100","板橋區"
"220010","295-UM","2018/06/19 14:39:31","新北市板橋區光復街33巷13弄6號","121.48213","25.01929","6500100","板橋區"
"220032","296-UM","2018/06/19 14:39:44","新北市板橋區溪崑二街103巷20號","121.427213333333","24.98863","6500100","板橋區"
"220023","303-R5","2018/06/19 14:39:46","新北市板橋區大勇街28號","121.454095","25.0171116666667","6500100","板橋區"
"220041","307-R5","2018/06/19 14:39:45","新北市板橋區四維路103巷33號","121.464283333333","25.0236833333333","6500100","板橋區"
"220047","317-R6","2018/06/19 14:39:39","新北市板橋區裕民街95號","121.46024","25.0280116666667","6500100","板橋區"
"220020","461-BY","2018/06/19 14:39:44","新北市板橋區金門街215巷6號","121.433033333333","24.9897183333333","6500100","板橋區"
"220012","486-VK","2018/06/19 14:39:47","新北市板橋區民權路33號","121.462261666667","25.0112383333333","6500100","板橋區"
"220037","491-VK","2018/06/19 14:39:28","新北市板橋區文化路二段488-1號","121.475386666667","25.0331416666667","6500100","板橋區"
"220104","560-BX","2018/06/19 14:39:42","新北市板橋區金華街47號","121.456736666667","25.0205333333333","6500100","板橋區"
"220011","609-BX","2018/06/19 14:39:45","新北市板橋區三民路一段26號","121.479158333333","25.0230366666667","6500100","板橋區"
"220005","686-BX","2018/06/19 14:39:35","新北市板橋區國慶路158巷9-4號","121.462111666667","24.9955766666667","6500100","板橋區"
"220025","687-BX","2018/06/19 14:39:36","新北市板橋區僑中二街112巷1號","121.445721666667","25.00695","6500100","板橋區"
"220042","689-BX","2018/06/19 14:39:44","新北市板橋區新海路378號","121.45919","25.0258483333333","6500100","板橋區"
"220002","741-BX","2018/06/19 14:39:37","新北市板橋區忠孝路204號","121.465971666667","25.0027233333333","6500100","板橋區"
"220051","KEA-2699","2018/06/19 14:39:38","新北市板橋區雙十路二段46巷35號","121.476236666667","25.02901","6500100","板橋區"
"220014","829-TW","2018/06/19 14:39:40","新北市板橋區漢生東路193巷53號","121.471688333333","25.0117133333333","6500100","板橋區"
"220016","830-TW","2018/06/19 14:39:42","新北市板橋區中山路二段412巷12號","121.483203333333","25.020275","6500100","板橋區"
"220045","831-TW","2018/06/19 14:39:45","新北市板橋區民生路二段240巷51號","121.46979","25.0229716666667","6500100","板橋區"
"220038","833-TW","2018/06/19 14:39:44","新北市板橋區英士路20號","121.461896666667","25.0252083333333","6500100","板橋區"
"220022","895-R6","2018/06/19 14:39:43","新北市板橋區文化路一段46巷40號","121.460598333333","25.0111933333333","6500100","板橋區"
"220021","985-R7","2018/06/19 14:39:40","新北市板橋區大仁街39號","121.455001666667","25.0166316666667","6500100","板橋區"
"220046","AAC-210","2018/06/19 14:39:28","新北市板橋區漢生西路87號","121.462381666667","25.0194766666667","6500100","板橋區"
"220018","AAC-253","2018/06/19 14:39:29","新北市板橋區民族路258號","121.469443333333","25.0071633333333","6500100","板橋區"
"235032","KEA-2873","2018/06/19 14:39:23","新北市中和區景平路736巷5弄11號","121.497773333333","25.003575","6500300","中和區"
"235025","KEA-2875","2018/06/19 14:39:38","新北市中和區新生街148巷35號","121.482335","25.000935","6500300","中和區"
"235006","KEA-2876","2018/06/19 14:39:20","新北市中和區景平路239號","121.50966","24.992665","6500300","中和區"
