"lineid","car","time","location","longitude","latitude","cityid","cityname"
"249005","172-UM","2018/06/19 16:39:25","新北市八里區仁愛路10號","121.413246666667","25.1623133333333","6502300","八里區"
"231046","188-VK","2018/06/19 16:39:30","新北市新店區灣潭路1-2號","121.541418333333","24.946695","6500600","新店區"
"231034","641-BX","2018/06/19 16:39:25","新北市新店區安華路16號","121.51766","24.958135","6500600","新店區"
"241011","013-R5","2018/06/19 16:39:34","新北市三重區仁愛街45號","121.496755","25.0717166666667","6500200","三重區"
"241028","022-UY","2018/06/19 16:39:19","新北市三重區重新路三段90號","121.492946666667","25.0606883333333","6500200","三重區"
"241008","059-VK","2018/06/19 16:39:30","新北市三重區永安北路一段27巷27號","121.477296666667","25.0755283333333","6500200","三重區"
"241022","060-VK","2018/06/19 16:39:35","新北市三重區新北大道一段100巷31號","121.485435","25.0629716666667","6500200","三重區"
"241031","061-VK","2018/06/19 16:39:39","新北市三重區重陽路一段43巷6號","121.487135","25.0581833333333","6500200","三重區"
"241015","062-VK","2018/06/19 16:39:35","新北市三重區文化北路41-2號","121.498975","25.0652683333333","6500200","三重區"
"241017","063-VK","2018/06/19 16:39:22","新北市三重區中正北路25巷6號","121.493291666667","25.0628483333333","6500200","三重區"
"241024","065-VK","2018/06/19 16:39:36","新北市三重區中正北路315巷6弄64號","121.476168333333","25.0725183333333","6500200","三重區"
"241026","066-VK","2018/06/19 16:39:28","新北市三重區和平街36號","121.501865","25.0626416666667","6500200","三重區"
"241002","090-VK","2018/06/19 16:39:28","新北市三重區仁義街243號","121.496248333333","25.0825983333333","6500200","三重區"
"241013","742-BX","2018/06/19 16:39:24","新北市三重區三和路三段83巷8-1號","121.495235","25.072435","6500200","三重區"
"241005","262-UM","2018/06/19 16:39:34","新北市三重區仁華街118巷16號","121.485988333333","25.0833816666667","6500200","三重區"
"241003","265-UM","2018/06/19 16:39:36","新北市三重區五華街110-1號","121.492311666667","25.0828816666667","6500200","三重區"
"241016","266-UM","2018/06/19 16:39:32","新北市三重區自強路一段160巷3弄19號","121.494675","25.0655066666667","6500200","三重區"
"241009","267-UM","2018/06/19 16:39:35","新北市三重區三和路四段203巷88號","121.484175","25.0800833333333","6500200","三重區"
"241018","268-UM","2018/06/19 16:39:22","新北市三重區六張街85-1號","121.492986666667","25.0702766666667","6500200","三重區"
"241032","269-UM","2018/06/19 16:39:34","新北市三重區新北大道一段160號","121.483835","25.0613683333333","6500200","三重區"
"241025","271-UM","2018/06/19 16:39:33","新北市三重區中正北路428巷11號","121.474525","25.0701983333333","6500200","三重區"
"241007","398-BY","2018/06/19 16:39:38","新北市三重區三和路四段167巷96號","121.485663333333","25.0796033333333","6500200","三重區"
"241004","475-VK","2018/06/19 16:39:26","新北市三重區五福街3號","121.493083333333","25.0816983333333","6500200","三重區"
"241020","478-VK","2018/06/19 16:39:20","新北市三重區後竹圍街185號","121.485635","25.0716166666667","6500200","三重區"
"241030","480-VK","2018/06/19 16:39:25","新北市三重區環河南路288號","121.488835","25.0489616666667","6500200","三重區"
"241014","543-UM","2018/06/19 16:39:21","新北市三重區龍濱路28號","121.502895","25.0680383333333","6500200","三重區"
"241001","547-UM","2018/06/19 16:39:23","新北市三重區仁愛街232號","121.493548333333","25.07779","6500200","三重區"
"241019","KEA-2593","2018/06/19 16:39:38","新北市三重區重陽路三段126號","121.48886","25.0664366666667","6500200","三重區"
"241006","AAD-863","2018/06/19 16:39:31","新北市三重區車路頭街138-1號","121.48351","25.0755666666667","6500200","三重區"
"241023","887-TS","2018/06/19 16:39:38","新北市三重區忠孝路三段50巷82號","121.48298","25.0645216666667","6500200","三重區"
"241012","941-UM","2018/06/19 16:39:27","新北市三重區仁興街4巷3號","121.499751666667","25.0737716666667","6500200","三重區"
"241029","942-UM","2018/06/19 16:39:23","新北市三重區集美街112巷23號","121.489925","25.05425","6500200","三重區"
"241033","AAC-255","2018/06/19 16:39:34","新北市三重區光復路二段74號","121.471983333333","25.0567566666667","6500200","三重區"
"235062","800-TS","2018/06/19 16:37:45","新北市中和區員山路36巷16-2號","121.485146666667","24.9918916666667","6500300","中和區"
"247006","336-TH","2018/06/19 16:39:27","新北市五股區中興路三段198號","121.441006666667","25.0827483333333","6501400","蘆洲區"
"247008","056-VK","2018/06/19 16:39:36","新北市蘆洲區永安南路二段154號","121.461736666667","25.078815","6501400","蘆洲區"
"247020","001-UY","2018/06/19 16:39:28","新北市五股區凌雲路一段25號","121.452295","25.0997033333333","6501400","蘆洲區"
"224006","676-BX","2018/06/19 16:39:34","新北市瑞芳區大寮路356-1號","121.78485","25.1031866666667","6501200","瑞芳區"
"224008","285-BY","2018/06/19 16:39:32","新北市瑞芳區大寮路356-1號","121.785026666667","25.1033216666667","6501200","瑞芳區"
"224007","275-VK","2018/06/19 16:39:28","新北市瑞芳區中央路9號","121.761983333333","25.1037216666667","6501200","瑞芳區"
"224009","273-VK","2018/06/19 16:39:17","新北市瑞芳區大寮路356-1號","121.784778333333","25.1032133333333","6501200","瑞芳區"
"224005","271-BY","2018/06/19 16:39:35","新北市瑞芳區明里路75號","121.86288","25.12295","6501200","瑞芳區"
"227003","642-TC","2018/06/19 16:39:18","新北市雙溪區外柑里土地公後4-1號","121.817581666667","25.021425","6502500","雙溪區"
"227009","400-TW","2018/06/19 16:39:33","新北市雙溪區牡丹里中正路77號","121.86314","25.0455466666667","6502500","雙溪區"
"251013","KEA-2871","2018/06/19 16:39:33","新北市淡水區楓樹湖13號","121.498838333333","25.1876733333333","6501000","淡水區"
"251016","179-VK","2018/06/19 16:39:29","新北市淡水區新春街95-6號","121.439731666667","25.1825716666667","6501000","淡水區"
"251014","180-VK","2018/06/19 16:39:35","新北市淡水區中山北路三段79號","121.444295","25.192365","6501000","淡水區"
"251008","181-VK","2018/06/19 16:39:21","台北市北投區中央北路四段30巷158號","121.474443333333","25.1410366666667","6501000","淡水區"
"251012","441-VK","2018/06/19 16:39:37","新北市淡水區中正路二段31號","121.419638333333","25.181505","6501000","淡水區"
"252002","178-VK","2018/06/19 16:39:19","新北市三芝區芝柏路29號","121.511843333333","25.255685","6502100","三芝區"
"242039","133-UY","2018/06/19 16:39:23","新北市新莊區新泰路255巷83號","121.442086666667","25.03883","6500500","新莊區"
"220047","317-R6","2018/06/19 16:16:17","新北市板橋區民生路二段161巷7號","121.470238333333","25.0196883333333","6500100","板橋區"
"235006","KEA-2876","2018/06/19 16:39:20","新北市新店區安康路二段269號","121.504093333333","24.9576983333333","6500300","中和區"
