"lineid","car","time","location","longitude","latitude","cityid","cityname"
"234026","9371-KE","2018/06/19 17:59:35","新北市永和區永和路一段45號","121.512858333333","25.0063183333333","6500400","永和區"
"234011","9373-KE","2018/06/19 17:47:36","新北市永和區福和路1號","121.525651666667","25.0093816666667","6500400","永和區"
"249005","172-UM","2018/06/19 17:59:25","新北市八里區荖阡坑路18號","121.398466666667","25.1384233333333","6502300","八里區"
"249001","173-UM","2018/06/19 17:59:37","新北市八里區龍米路二段37號","121.448398333333","25.14005","6502300","八里區"
"249004","303-UY","2018/06/19 17:59:35","新北市八里區賢一街51號","121.420175","25.1581133333333","6502300","八里區"
"249003","593-UM","2018/06/19 17:59:25","新北市八里區中山路二段173號","121.404826666667","25.1505583333333","6502300","八里區"
"248008","095-VK","2018/06/19 17:59:31","新北市五股區中興路二段150號","121.458623333333","25.0785583333333","6501500","五股區"
"248018","225-UY","2018/06/19 17:59:37","新北市五股區中興路二段83巷26-6號","121.4599","25.0752283333333","6501500","五股區"
"248002","678-BX","2018/06/19 17:59:32","新北市五股區中興路二段37巷26號","121.46063","25.0748116666667","6501500","五股區"
"232011","375-UM","2018/06/19 17:59:24","新北市坪林區北宜路八段205號","121.708293333333","24.9347883333333","6502000","坪林區"
"244007","080-UY","2018/06/19 17:59:26","新北市林口區林口路123號","121.38883","25.081025","6501700","林口區"
"244019","403-UM","2018/06/19 17:59:29","新北市林口區忠孝路528號","121.372278333333","25.0683183333333","6501700","林口區"
"244013","742-UY","2018/06/19 17:59:24","新北市林口區中山路73號","121.392656666667","25.0784783333333","6501700","林口區"
"244023","483-VK","2018/06/19 17:59:37","新北市林口區東湖一街71號","121.38535","25.0724766666667","6501700","林口區"
"244017","485-VK","2018/06/19 17:59:22","新北市林口區文化二路一段232號","121.369693333333","25.0725633333333","6501700","林口區"
"244009","656-BX","2018/06/19 17:59:20","新北市林口區佳林路56巷37號","121.385233333333","25.080855","6501700","林口區"
"244011","657-BX","2018/06/19 17:59:31","新北市林口區中正路190號","121.391536666667","25.0775233333333","6501700","林口區"
"244025","837-TS","2018/06/19 17:59:19","新北市林口區文化三路一段39巷179號","121.359091666667","25.06772","6501700","林口區"
"244021","838-TS","2018/06/19 17:59:29","新北市林口區新寮27-5號","121.396813333333","25.067135","6501700","林口區"
"243013","AAD-798","2018/06/19 17:59:21","新北市泰山區自強路23號","121.410841666667","25.0579066666667","6501600","泰山區"
"222003","436-BY","2018/06/19 17:59:34","新北市深坑區炮子崙23號","121.607166666667","24.9909066666667","6501800","深坑區"
"222002","659-BX","2018/06/19 17:59:36","新北市深坑區深坑街35號","121.616066666667","25.0018383333333","6501800","深坑區"
"231046","188-VK","2018/06/19 17:59:30","新北市新店區直潭路113號","121.532228333333","24.9348","6500600","新店區"
"231055","AKT-0513","2018/06/19 17:59:32","新北市新店區安華路28-1號","121.51942","24.960645","6500600","新店區"
"241024","065-VK","2018/06/19 17:59:36","新北市三重區車路頭街37巷4號","121.483988333333","25.0717966666667","6500200","三重區"
"241016","266-UM","2018/06/19 17:59:32","新北市新莊區化成路583號","121.463753333333","25.0666283333333","6500200","三重區"
"241032","269-UM","2018/06/19 17:59:32","新北市林口區太平里180號","121.366653333333","25.1339466666667","6500200","三重區"
"241002","413-TH","2018/06/19 17:59:40","新北市三重區仁義街101巷2號","121.497555","25.080285","6500200","三重區"
"241033","AAC-255","2018/06/19 17:59:34","新北市三重區重新路五段593號","121.46966","25.0455933333333","6500200","三重區"
"235064","005-UY","2018/06/19 17:59:19","新北市中和區員山路36巷16-3號","121.48496","24.991445","6500300","中和區"
"235065","098-UM","2018/06/19 17:59:34","新北市中和區中山路二段478號","121.487981666667","25.0047866666667","6500300","中和區"
"235058","151-BY","2018/06/19 17:59:29","新北市中和區錦和路366號","121.490668333333","24.9911233333333","6500300","中和區"
"235038","185-VK","2018/06/19 17:59:20","新北市中和區中正路305號","121.492475","24.9939066666667","6500300","中和區"
"235042","KEA-2878","2018/06/19 17:59:33","新北市中和區中正路637巷52弄1號","121.485471666667","24.9934916666667","6500300","中和區"
"235054","640-BX","2018/06/19 17:59:32","新北市中和區員山路36巷16-8號","121.485461666667","24.99223","6500300","中和區"
"235053","900-TW","2018/06/19 17:59:40","新北市中和區員山路36巷16-2號","121.484975","24.9919416666667","6500300","中和區"
"235051","157-BY","2018/06/19 17:59:29","新北市中和區中正路637巷60弄61號","121.485455","24.993175","6500300","中和區"
"235037","AAC-213","2018/06/19 17:59:28","新北市中和區中正路221號","121.496091666667","24.99366","6500300","中和區"
"247014","546-UM","2018/06/19 17:59:26","新北市蘆洲區三民路153號","121.471403333333","25.08663","6501400","蘆洲區"
"247022","500-BY","2018/06/19 17:59:41","新北市蘆洲區中正路516巷12號","121.462453333333","25.0980883333333","6501400","蘆洲區"
"247012","339-TH","2018/06/19 17:59:26","新北市蘆洲區民族路167巷13號","121.478348333333","25.0882216666667","6501400","蘆洲區"
"247006","336-TH","2018/06/19 17:59:27","新北市蘆洲區中華街31號","121.463266666667","25.0814333333333","6501400","蘆洲區"
"247018","057-VK","2018/06/19 17:59:27","新北市蘆洲區復興路282號","121.480625","25.0898766666667","6501400","蘆洲區"
"247016","007-UY","2018/06/19 17:59:27","新北市蘆洲區中正路185巷78弄7號","121.466003333333","25.0844866666667","6501400","蘆洲區"
"247002","002-UY","2018/06/19 17:59:22","新北市蘆洲區永平街32巷45弄36號","121.4584","25.0932866666667","6501400","蘆洲區"
"247020","001-UY","2018/06/19 17:59:28","新北市蘆洲區民義街35巷16號","121.471461666667","25.0898216666667","6501400","蘆洲區"
"228001","212-TW","2018/06/19 17:59:35","新北市貢寮區真理里新港街26巷52號","121.927858333333","25.053305","6502600","貢寮區"
"228002","663-BX","2018/06/19 17:56:55","新北市貢寮區福隆里桂安街17號","121.964286666667","25.0212666666667","6502600","貢寮區"
"228003","828-UM","2018/06/19 17:59:29","新北市貢寮區真理里美艷山街6-2號","121.928771666667","25.0607633333333","6502600","貢寮區"
"224006","676-BX","2018/06/19 17:59:34","新北市瑞芳區大寮路356-1號","121.78463","25.1031566666667","6501200","瑞芳區"
"224002","639-TC","2018/06/19 17:59:33","新北市瑞芳區三爪子坑路141號","121.810416666667","25.1065166666667","6501200","瑞芳區"
"224008","285-BY","2018/06/19 17:59:32","新北市瑞芳區明燈路一段45巷87號","121.821995","25.1045033333333","6501200","瑞芳區"
"224009","273-VK","2018/06/19 17:59:37","新北市瑞芳區山尖路187號","121.851381666667","25.1123433333333","6501200","瑞芳區"
"224005","271-BY","2018/06/19 17:59:35","新北市瑞芳區深澳路197-2號","121.819655","25.1338516666667","6501200","瑞芳區"
"227003","642-TC","2018/06/19 17:59:38","新北市雙溪區共和里東榮街52號","121.866403333333","25.033795","6502500","雙溪區"
"253005","032-BX","2018/06/19 17:59:30","新北市石門區中山路62-7號","121.5673","25.29007","6502200","石門區"
"253006","295-VK","2018/06/19 17:59:39","新北市石門區大丘田45-1號","121.5498","25.27503","6502200","石門區"
"222001","KEA-2212","2018/06/19 17:59:28","新北市深坑區北深路三段14號","121.6096","25.0010383333333","6501800","深坑區"
"208002","KEA-2872","2018/06/19 17:59:28","新北市金山區三界壇路6號","121.62653","25.2282033333333","6502700","金山區"
"208003","665-BX","2018/06/19 17:59:23","新北市金山區磺港里磺港路271號","121.643628333333","25.2264366666667","6502700","金山區"
"208001","761-BX","2018/06/19 17:59:32","新北市金山區磺港里磺港路248號","121.6438","25.225","6502700","金山區"
"251004","009-UM","2018/06/19 17:59:26","新北市淡水區民權路20號","121.45939","25.1378166666667","6501000","淡水區"
"251013","KEA-2871","2018/06/19 17:59:33","新北市淡水區泉洲厝31號","121.47959","25.19104","6501000","淡水區"
"251016","179-VK","2018/06/19 17:59:29","新北市淡水區埤島30-12號","121.447783333333","25.19828","6501000","淡水區"
"251014","180-VK","2018/06/19 17:59:35","新北市淡水區公埔子16-6號","121.48099","25.2245766666667","6501000","淡水區"
"251008","181-VK","2018/06/19 17:59:41","新北市淡水區八勢一街32巷4號","121.461846666667","25.155905","6501000","淡水區"
"251015","182-VK","2018/06/19 17:59:21","新北市淡水區興福寮66巷541號","121.484583333333","25.1651866666667","6501000","淡水區"
"251010","413-VK","2018/06/19 17:59:26","新北市淡水區中正路一段87巷1號","121.421788333333","25.179155","6501000","淡水區"
"251012","441-VK","2018/06/19 17:59:37","新北市淡水區北新路三段38巷7號","121.484513333333","25.18701","6501000","淡水區"
"251007","442-VK","2018/06/19 17:59:29","新北市淡水區中正東路二段153號","121.459676666667","25.14664","6501000","淡水區"
"251005","443-VK","2018/06/19 17:59:29","新北市淡水區英專路122巷1號","121.446558333333","25.1726583333333","6501000","淡水區"
"251001","559-UM","2018/06/19 17:59:33","新北市淡水區民權路94巷1號","121.463145","25.1248116666667","6501000","淡水區"
"251006","561-UM","2018/06/19 17:59:19","新北市淡水區真理街2-1號","121.438628333333","25.17294","6501000","淡水區"
"251009","575-R6","2018/06/19 17:59:28","新北市淡水區北新路182巷58號","121.448423333333","25.17745","6501000","淡水區"
"251011","650-BX","2018/06/19 17:59:31","新北市淡水區三空泉5-1號","121.478005","25.1620066666667","6501000","淡水區"
"251002","672-BX","2018/06/19 17:59:28","新北市淡水區中正東路40號","121.450155","25.1651183333333","6501000","淡水區"
"251003","673-BX","2018/06/19 17:59:35","新北市淡水區大仁街69號","121.442956666667","25.176395","6501000","淡水區"
"207003","550-UM","2018/06/19 17:59:25","新北市萬里區港東路野柳風景區攤販66號","121.691328333333","25.2058466666667","6502800","萬里區"
"207004","225-TW","2018/06/19 17:59:28","新北市萬里區中幅里中福路48號","121.683341666667","25.1740983333333","6502800","萬里區"
"252002","178-VK","2018/06/19 17:59:39","新北市三芝區中山路二段45號","121.503005","25.254865","6502100","三芝區"
"252001","292-VK","2018/06/19 17:59:35","新北市三芝區中興街二段2號","121.498395","25.2566316666667","6502100","三芝區"
"237007","153-BY","2018/06/19 17:59:20","新北市三峽區中園街126-17號","121.367028333333","24.9211033333333","6500900","三峽區"
"237013","252-BX","2018/06/19 17:59:38","新北市三峽區介壽路一段53號","121.375596666667","24.9329316666667","6500900","三峽區"
"237012","275-BY","2018/06/19 17:59:33","新北市三峽區民生街27巷30號","121.376065","24.93604","6500900","三峽區"
"237008","302-VK","2018/06/19 17:59:32","新北市三峽區白雞24號","121.368381666667","24.9125766666667","6500900","三峽區"
"237014","433-BY","2018/06/19 17:59:19","新北市三峽區復興路101巷1弄28號","121.371078333333","24.9377866666667","6500900","三峽區"
"237009","280-TH","2018/06/19 17:59:28","新北市三峽區中山路106巷16-2號","121.366138333333","24.9363983333333","6500900","三峽區"
"237006","5529-G3","2018/06/19 17:59:16","新北市三峽區介壽路二段136巷83-9號","121.393645","24.9312283333333","6500900","三峽區"
"237011","KEA-2596","2018/06/19 17:59:40","新北市三峽區大同路90號","121.375671666667","24.9276183333333","6500900","三峽區"
"237016","649-BX","2018/06/19 17:59:27","新北市三峽區紫微路105號","121.40945","24.91209","6500900","三峽區"
"237010","706-TV","2018/06/19 17:59:25","新北市三峽區仁愛街12號","121.368393333333","24.9327233333333","6500900","三峽區"
"237005","AKY-6261","2018/06/19 17:59:37","新北市三峽區和平街89巷8號","121.369905","24.93754","6500900","三峽區"
"236070","105-UM","2018/06/19 17:59:20","新北市土城區青雲路474號","121.463316666667","24.9665166666667","6501300","土城區"
"236079","166-UM","2018/06/19 17:59:32","新北市土城區永寧路32巷10弄21號","121.428978333333","24.9610616666667","6501300","土城區"
"236030","253-BX","2018/06/19 17:59:28","新北市土城區城林路6巷80號","121.438751666667","24.9796616666667","6501300","土城區"
"236026","269-VK","2018/06/19 17:59:19","新北市土城區承天路1號","121.435833333333","24.9665183333333","6501300","土城區"
"236014","270-VK","2018/06/19 17:59:27","新北市土城區城林路6巷80號","121.438518333333","24.9795966666667","6501300","土城區"
"236038","271-VK","2018/06/19 17:59:29","新北市土城區城林路6巷80號","121.438485","24.97976","6501300","土城區"
"236021","401-BY","2018/06/19 17:59:22","新北市土城區中華路二段2號","121.439343333333","24.9795733333333","6501300","土城區"
"236042","752-BX","2018/06/19 17:59:29","新北市土城區城林路6巷80號","121.438645","24.9796783333333","6501300","土城區"
"236059","912-UM","2018/06/19 17:59:36","新北市土城區中央路三段250號","121.427701666667","24.96417","6501300","土城區"
"236049","913-UM","2018/06/19 17:59:32","新北市土城區城林路6巷80號","121.438425","24.9797","6501300","土城區"
"236063","915-UM","2018/06/19 17:59:26","新北市土城區城林路6巷80號","121.438548333333","24.9796166666667","6501300","土城區"
"236055","AAC-216","2018/06/19 17:59:20","新北市土城區中央路二段280號","121.440693333333","24.97404","6501300","土城區"
"242034","AAC-296","2018/06/19 17:59:30","新北市新莊區中正路421巷17號","121.444746666667","25.0335366666667","6500500","新莊區"
"242058","986-R7","2018/06/19 17:59:37","新北市新莊區雙鳳路134巷5號","121.412695","25.0280133333333","6500500","新莊區"
"242054","751-BX","2018/06/19 17:59:33","新北市新莊區民安西路415巷4號","121.430781666667","25.0093166666667","6500500","新莊區"
"242027","615-BX","2018/06/19 17:59:24","新北市新莊區思源路388號","121.460156666667","25.05182","6500500","新莊區"
"242025","613-BX","2018/06/19 17:59:38","新北市新莊區五工路60號","121.458478333333","25.0631","6500500","新莊區"
"242029","612-BX","2018/06/19 17:59:39","新北市新莊區中平路52號","121.444865","25.0440466666667","6500500","新莊區"
"242042","566-BX","2018/06/19 17:59:37","新北市新莊區中正路612-1號","121.42604","25.0300783333333","6500500","新莊區"
"242046","497-BY","2018/06/19 17:59:38","新北市新莊區福營路187號","121.431325","25.0307383333333","6500500","新莊區"
"242051","441-UM","2018/06/19 17:59:26","新北市新莊區龍安路537號","121.428073333333","25.0175416666667","6500500","新莊區"
"242037","415-TV","2018/06/19 17:59:36","新北市新莊區建福路29號","121.426413333333","25.028735","6500500","新莊區"
"242007","413-TV","2018/06/19 17:59:29","新北市新莊區自信街51號","121.454755","25.04828","6500500","新莊區"
"242044","400-BY","2018/06/19 17:59:40","新北市新莊區雙鳳路109號","121.413981666667","25.0280516666667","6500500","新莊區"
"242023","362-BY","2018/06/19 17:59:22","新北市新莊區幸福路600號","121.453261666667","25.0492716666667","6500500","新莊區"
"242061","353-BY","2018/06/19 17:59:29","新北市新莊區新樹路523號","121.432781666667","25.01043","6500500","新莊區"
"242009","132-UY","2018/06/19 17:59:24","新北市新莊區中華路二段258巷21號","121.453231666667","25.0540816666667","6500500","新莊區"
"242039","133-UY","2018/06/19 17:59:23","新北市新莊區民安西路1號","121.426486666667","25.0219383333333","6500500","新莊區"
"242048","172-VK","2018/06/19 17:59:24","新北市新莊區萬安街59號","121.421393333333","25.0242983333333","6500500","新莊區"
"242011","173-VK","2018/06/19 17:59:23","新北市新莊區中港路629-1號","121.450711666667","25.0537833333333","6500500","新莊區"
"242017","175-VK","2018/06/19 17:59:37","新北市新莊區中和街60巷47號","121.449978333333","25.0450266666667","6500500","新莊區"
"242005","176-VK","2018/06/19 17:59:29","新北市新莊區思源路177巷30號","121.459338333333","25.04619","6500500","新莊區"
"242015","346-TH","2018/06/19 17:58:56","新北市新莊區新泰路502巷42弄13號","121.444238333333","25.0461333333333","6500500","新莊區"
"242056","347-TH","2018/06/19 17:59:28","新北市新莊區豐年街122-2號","121.446376666667","25.029945","6500500","新莊區"
"242021","348-TH","2018/06/19 17:59:29","新北市新莊區中正路160號","121.451501666667","25.0359883333333","6500500","新莊區"
"242002","349-TH","2018/06/19 17:59:22","新北市新莊區中正路161號","121.455443333333","25.03665","6500500","新莊區"
"242019","350-TH","2018/06/19 17:59:31","新北市新莊區明中街45-2號","121.457443333333","25.0392566666667","6500500","新莊區"
"242013","351-TH","2018/06/19 17:59:37","新北市新莊區中和街150號","121.447446666667","25.0485616666667","6500500","新莊區"
"238015","755-BX","2018/06/19 17:59:23","新北市樹林區啟智街78號","121.419798333333","24.99183","6500700","樹林區"
"238023","601-UM","2018/06/19 17:59:33","新北市樹林區龍興街57號","121.403203333333","25.015265","6500700","樹林區"
"238019","599-UM","2018/06/19 17:59:25","新北市樹林區八德街225號","121.421473333333","24.97946","6500700","樹林區"
"238018","571-TV","2018/06/19 17:59:24","新北市樹林區中正路7-1號","121.430263333333","24.9975666666667","6500700","樹林區"
"238022","KEA-2213","2018/06/19 17:59:33","新北市樹林區太順街92號","121.417063333333","24.9785833333333","6500700","樹林區"
"238021","KEA-2539","2018/06/19 17:59:35","新北市樹林區柑園街一段33巷21號","121.404848333333","24.957865","6500700","樹林區"
"238025","303-VK","2018/06/19 17:59:37","新北市樹林區俊興街211巷7弄42號","121.416593333333","25.0129433333333","6500700","樹林區"
"238017","283-BY","2018/06/19 17:59:23","新北市樹林區中正路576號","121.410945","25.0150233333333","6500700","樹林區"
"238014","282-BY","2018/06/19 17:59:29","新北市樹林區中正路63號","121.426471666667","24.9999166666667","6500700","樹林區"
"238020","268-VK","2018/06/19 17:59:31","新北市新莊區龍安路254巷18-1號","121.42065","25.01842","6500700","樹林區"
"238026","172-UY","2018/06/19 17:59:41","新北市樹林區中山路三段125-3號","121.3968","24.97338","6500700","樹林區"
"238016","169-UY","2018/06/19 17:59:31","新北市樹林區啟智街137巷9弄2號","121.417623333333","24.9880633333333","6500700","樹林區"
"239006","891-R6","2018/06/19 17:59:25","新北市鶯歌區鶯桃路413巷70號","121.33012","24.9631","6500800","鶯歌區"
"239008","527-UM","2018/06/19 17:59:36","新北市鶯歌區明圓街4號","121.336446666667","24.9774933333333","6500800","鶯歌區"
"239005","526-UM","2018/06/19 17:59:24","新北市鶯歌區鶯桃路668巷73號","121.329916666667","24.97179","6500800","鶯歌區"
"239001","417-VK","2018/06/19 17:59:31","新北市鶯歌區中正三路375號","121.327073333333","24.934475","6500800","鶯歌區"
"239003","360-BY","2018/06/19 17:59:24","新北市鶯歌區鶯桃路234巷1號","121.336673333333","24.9592766666667","6500800","鶯歌區"
"239004","193-VK","2018/06/19 17:59:29","新北市鶯歌區尖山路101巷9號","121.346578333333","24.94325","6500800","鶯歌區"
"221008","489-VK","2018/06/19 17:59:18","新北市汐止區明峰街31號","121.633966666667","25.07133","6501100","汐止區"
"221036","130-UY","2018/06/19 17:59:33","新北市汐止區茄苳路29巷14號","121.665061666667","25.071795","6501100","汐止區"
"221015","131-UY","2018/06/19 17:59:32","新北市汐止區長江街355號","121.667693333333","25.0821883333333","6501100","汐止區"
"221010","269-BY","2018/06/19 17:59:32","新北市汐止區汐萬路二段245巷54號","121.645273333333","25.0877566666667","6501100","汐止區"
"221012","278-VK","2018/06/19 17:59:36","新北市汐止區長興街二段30號","121.673286666667","25.0814333333333","6501100","汐止區"
"221023","279-VK","2018/06/19 17:59:31","新北市汐止區民族六街1巷1號","121.629141666667","25.0707733333333","6501100","汐止區"
"221032","280-BY","2018/06/19 17:59:26","新北市汐止區民權街一段16號","121.621288333333","25.0535566666667","6501100","汐止區"
"221027","281-BY","2018/06/19 17:59:21","新北市汐止區大同路二段374號","121.65781","25.067115","6501100","汐止區"
"221029","298-VK","2018/06/19 17:59:36","新北市汐止區樟樹二路328號","121.641521666667","25.070155","6501100","汐止區"
"221021","299-VK","2018/06/19 17:59:28","新北市汐止區新興路32號","121.65668","25.0641933333333","6501100","汐止區"
"221031","353-TW","2018/06/19 17:59:33","新北市汐止區福德二路120號","121.63136","25.0655583333333","6501100","汐止區"
"221035","622-UM","2018/06/19 17:59:24","新北市汐止區新江北路30巷22弄7號","121.651303333333","25.0697483333333","6501100","汐止區"
"221025","623-UM","2018/06/19 17:59:26","新北市汐止區新台五路一段266號","121.659033333333","25.0638016666667","6501100","汐止區"
"221038","646-BX","2018/06/19 17:59:32","新北市汐止區連興街128巷7弄5號","121.653525","25.061355","6501100","汐止區"
"221033","647-BX","2018/06/19 17:59:35","新北市汐止區合順街37號","121.620635","25.043225","6501100","汐止區"
"221002","707-TV","2018/06/19 17:59:20","新北市汐止區中興路62號","121.635471666667","25.06136","6501100","汐止區"
"221018","753-BX","2018/06/19 17:59:35","新北市汐止區招商街11巷4號","121.666685","25.068725","6501100","汐止區"
"242032","280-VK","2018/06/19 17:59:36","新北市新莊區新泰路289巷5號","121.445186666667","25.0405733333333","6500500","新莊區"
