"lineid","car","time","location","longitude","latitude","cityid","cityname"
"234081","298-R6","2018/06/19 18:09:36","新北市永和區福和路1號","121.526438333333","25.009885","6500400","永和區"
"234042","862-TW","2018/06/19 18:09:28","新北市永和區福和路1號","121.526276666667","25.0094833333333","6500400","永和區"
"234026","9371-KE","2018/06/19 18:09:35","新北市永和區秀朗路一段10巷21號","121.513298333333","25.0062816666667","6500400","永和區"
"234011","9373-KE","2018/06/19 17:47:36","新北市永和區福和路1號","121.525651666667","25.0093816666667","6500400","永和區"
"249005","172-UM","2018/06/19 18:09:25","新北市八里區荖阡坑路15-40號","121.401768333333","25.13997","6502300","八里區"
"249001","173-UM","2018/06/19 18:09:37","新北市八里區龍米路二段26號","121.44869","25.1395183333333","6502300","八里區"
"249004","303-UY","2018/06/19 18:09:35","新北市八里區龍米路二段159-2號","121.439228333333","25.1539633333333","6502300","八里區"
"249003","593-UM","2018/06/19 18:09:25","新北市八里區中華路二段165巷10-1號","121.407863333333","25.1506766666667","6502300","八里區"
"248014","025-BX","2018/06/19 18:09:39","新北市五股區成泰路一段235-2號","121.436291666667","25.0794766666667","6501500","五股區"
"248006","077-UY","2018/06/19 18:09:34","新北市五股區中興路二段95號","121.460355","25.077475","6501500","五股區"
"248008","095-VK","2018/06/19 18:09:31","新北市五股區中興路二段182巷15弄13-1號","121.457321666667","25.0810733333333","6501500","五股區"
"248018","225-UY","2018/06/19 18:09:37","新北市五股區成泰路三段544-1號","121.454061666667","25.1023116666667","6501500","五股區"
"248010","272-BY","2018/06/19 18:09:32","新北市五股區成泰路一段196號","121.435771666667","25.0783816666667","6501500","五股區"
"248004","655-BX","2018/06/19 18:09:26","新北市五股區新五路二段258號","121.44105","25.0821133333333","6501500","五股區"
"248002","678-BX","2018/06/19 18:09:32","新北市五股區新五路三段9號","121.44435","25.0897333333333","6501500","五股區"
"232011","375-UM","2018/06/19 18:09:24","新北市坪林區國中路4號","121.713453333333","24.9388416666667","6502000","坪林區"
"244007","080-UY","2018/06/19 18:09:26","新北市林口區林口路138號","121.388158333333","25.08196","6501700","林口區"
"244019","403-UM","2018/06/19 18:09:29","新北市林口區文化一路一段126號","121.375356666667","25.0725016666667","6501700","林口區"
"244013","742-UY","2018/06/19 18:09:24","新北市林口區中山路138號","121.39174","25.0786633333333","6501700","林口區"
"244023","483-VK","2018/06/19 18:09:37","新北市林口區東湖路105巷23號","121.384021666667","25.0722816666667","6501700","林口區"
"244017","485-VK","2018/06/19 18:09:22","新北市林口區忠孝路496號","121.370551666667","25.070235","6501700","林口區"
"244009","656-BX","2018/06/19 18:09:40","新北市林口區中山路298號","121.381751666667","25.08158","6501700","林口區"
"244011","657-BX","2018/06/19 18:09:31","新北市林口區中正路54號","121.395108333333","25.0774016666667","6501700","林口區"
"244025","837-TS","2018/06/19 18:09:38","新北市林口區文化北路一段290號","121.359976666667","25.0724433333333","6501700","林口區"
"244021","838-TS","2018/06/19 18:09:29","新北市林口區自強六街26號","121.399411666667","25.0761083333333","6501700","林口區"
"243013","AAD-798","2018/06/19 18:09:41","新北市泰山區南林路93號","121.415536666667","25.05119","6501600","泰山區"
"222003","436-BY","2018/06/19 18:09:35","新北市深坑區阿柔洋49號","121.611723333333","24.9969166666667","6501800","深坑區"
"222002","659-BX","2018/06/19 18:09:36","新北市深坑區文化街42號","121.619056666667","25.0015666666667","6501800","深坑區"
"231059","046-UY","2018/06/19 18:09:30","新北市新店區安華路28-1號","121.519546666667","24.960875","6500600","新店區"
"231040","047-UY","2018/06/19 18:09:25","新北市新店區安康路一段359-27號","121.518666666667","24.96098","6500600","新店區"
"231044","106-UY","2018/06/19 18:09:26","新北市新店區安華路28-1號","121.519658333333","24.9605866666667","6500600","新店區"
"231053","108-UY","2018/06/19 18:09:24","新北市新店區安康路一段355-10號","121.520381666667","24.9638166666667","6500600","新店區"
"231046","188-VK","2018/06/19 18:09:30","新北市新店區直潭七街60號","121.532316666667","24.9399433333333","6500600","新店區"
"231054","KEA-2219","2018/06/19 18:09:36","新北市新店區安華路28-1號","121.519965","24.9610266666667","6500600","新店區"
"231042","268-BY","2018/06/19 18:09:27","新北市新店區安華路1-1號","121.519365","24.9604566666667","6500600","新店區"
"231051","278-BY","2018/06/19 18:09:32","新北市新店區安華路28-1號","121.51981","24.9610283333333","6500600","新店區"
"231050","AAD-862","2018/06/19 18:08:52","新北市新店區安華路28-1號","121.520455","24.9608566666667","6500600","新店區"
"231058","3713-VJ","2018/06/19 18:09:24","新北市新店區安華路28-1號","121.519113333333","24.96073","6500600","新店區"
"231066","4716-K9","2018/06/19 18:09:37","新北市新店區安一路一段1-1號","121.51928","24.9610833333333","6500600","新店區"
"231056","4715-K9","2018/06/19 18:09:40","新北市新店區安華路1-1號","121.519506666667","24.9602533333333","6500600","新店區"
"231067","4772-VM","2018/06/19 18:09:22","新北市新店區安華路1-1號","121.5193","24.96052","6500600","新店區"
"231049","513-UM","2018/06/19 18:09:21","新北市新店區安一路一段1-1號","121.519678333333","24.9610883333333","6500600","新店區"
"231061","619-UM","2018/06/19 18:09:28","新北市新店區安華路28-1號","121.519636666667","24.9607733333333","6500600","新店區"
"231064","719-UM","2018/06/19 18:09:27","新北市新店區安一路一段1-1號","121.51955","24.9613883333333","6500600","新店區"
"231060","897-TW","2018/06/19 18:09:40","新北市新店區安華路28-1號","121.519715","24.9605816666667","6500600","新店區"
"231055","AKT-0513","2018/06/19 18:09:32","新北市新店區安華路28-1號","121.519426666667","24.9606516666667","6500600","新店區"
"241024","065-VK","2018/06/19 18:09:36","新北市三重區中正北路193巷33號","121.476293333333","25.070815","6500200","三重區"
"241032","269-UM","2018/06/19 18:09:12","新北市八里區荖阡坑路34-2號","121.401286666667","25.1300616666667","6500200","三重區"
"241002","413-TH","2018/06/19 18:09:40","新北市三重區五華街35巷7-1號","121.49483","25.0810666666667","6500200","三重區"
"241033","AAC-255","2018/06/19 18:09:33","新北市三重區中興北街48號","121.469468333333","25.049935","6500200","三重區"
"235064","005-UY","2018/06/19 18:09:19","新北市中和區中正路271號","121.495901666667","24.9936933333333","6500300","中和區"
"235056","096-UM","2018/06/19 18:09:24","新北市中和區連城路469巷11號","121.483623333333","24.9955166666667","6500300","中和區"
"235039","097-UM","2018/06/19 18:09:29","新北市中和區和城路一段271巷1號","121.485536666667","24.99159","6500300","中和區"
"235065","098-UM","2018/06/19 18:09:34","新北市中和區莊敬路49巷18號","121.501698333333","25.0060483333333","6500300","中和區"
"235058","151-BY","2018/06/19 18:09:29","新北市中和區圓通路367巷33弄1號","121.49392","24.9855016666667","6500300","中和區"
"235055","183-VK","2018/06/19 18:09:40","新北市中和區員山路36巷16-3號","121.485016666667","24.9913933333333","6500300","中和區"
"235038","185-VK","2018/06/19 18:09:40","新北市中和區景平路166號","121.516941666667","24.99209","6500300","中和區"
"235043","352-BY","2018/06/19 18:09:29","新北市中和區錦和路350-1號","121.490208333333","24.9935616666667","6500300","中和區"
"235042","KEA-2878","2018/06/19 18:09:33","新北市中和區景平路257號","121.508521666667","24.9928783333333","6500300","中和區"
"235069","4980-A6","2018/06/19 18:09:24","新北市中和區圓通路221號","121.49659","24.9943466666667","6500300","中和區"
"235070","558-UM","2018/06/19 18:09:34","新北市中和區中正路410號","121.492113333333","24.99385","6500300","中和區"
"235045","565-BX","2018/06/19 18:09:39","新北市中和區錦和路350-1號","121.490533333333","24.9935566666667","6500300","中和區"
"235054","640-BX","2018/06/19 18:09:32","新北市中和區民享街488號","121.469558333333","24.9923016666667","6500300","中和區"
"235047","732-UM","2018/06/19 18:09:30","新北市中和區中正路169號","121.498066666667","24.99349","6500300","中和區"
"235062","800-TS","2018/06/19 18:09:31","新北市中和區景平路999巷1號","121.49544","25.0059116666667","6500300","中和區"
"235057","801-TS","2018/06/19 18:09:19","新北市中和區連城路469巷50號","121.483498333333","24.9944483333333","6500300","中和區"
"235052","805-TS","2018/06/19 18:09:38","新北市中和區錦和路350-1號","121.49046","24.9935533333333","6500300","中和區"
"235053","900-TW","2018/06/19 18:09:20","新北市中和區員山路36巷16-3號","121.485021666667","24.991725","6500300","中和區"
"235051","157-BY","2018/06/19 18:09:29","新北市中和區南山路154號","121.504298333333","24.9920533333333","6500300","中和區"
"235037","AAC-213","2018/06/19 18:09:28","新北市中和區景平路149號","121.513823333333","24.9921366666667","6500300","中和區"
"226004","312-R5","2018/06/19 18:09:31","新北市平溪區白石里白石腳23號","121.72027","25.0216133333333","6502400","平溪區"
"228001","212-TW","2018/06/19 18:09:35","新北市貢寮區真理里新港街26巷55弄2-1號","121.927413333333","25.0528833333333","6502600","貢寮區"
"228002","663-BX","2018/06/19 18:09:34","新北市貢寮區福連里馬崗街31-1號","122.002078333333","25.012805","6502600","貢寮區"
"228003","828-UM","2018/06/19 18:09:29","新北市貢寮區真理里美艷山街6-2號","121.928726666667","25.0607633333333","6502600","貢寮區"
"224006","676-BX","2018/06/19 18:09:34","新北市瑞芳區中山路251號","121.79796","25.1093883333333","6501200","瑞芳區"
"224002","639-TC","2018/06/19 18:09:33","新北市瑞芳區三爪子坑路84號","121.81002","25.1055366666667","6501200","瑞芳區"
"224008","285-BY","2018/06/19 18:09:32","新北市瑞芳區員山子路23號","121.821378333333","25.103025","6501200","瑞芳區"
"224007","275-VK","2018/06/19 18:09:28","新北市瑞芳區四腳亭坑路9號","121.777663333333","25.109625","6501200","瑞芳區"
"224009","273-VK","2018/06/19 18:09:37","新北市瑞芳區金光路115號","121.8536","25.1062583333333","6501200","瑞芳區"
"224005","271-BY","2018/06/19 18:09:35","新北市瑞芳區建基路一段62巷24-1號","121.816376666667","25.1283766666667","6501200","瑞芳區"
"227003","642-TC","2018/06/19 18:09:38","新北市雙溪區共和里東榮街52號","121.866423333333","25.033815","6502500","雙溪區"
"253005","032-BX","2018/06/19 18:09:30","新北市石門區福安街6號","121.568453333333","25.2926533333333","6502200","石門區"
"253006","295-VK","2018/06/19 18:09:39","新北市石門區老梅路52巷17號","121.546285","25.2886133333333","6502200","石門區"
"222001","KEA-2212","2018/06/19 18:09:28","新北市深坑區北深路二段190號","121.613811666667","25.00224","6501800","深坑區"
"208002","KEA-2872","2018/06/19 18:09:34","新北市金山區三界壇路99巷19-1號","121.619943333333","25.227505","6502700","金山區"
"208003","665-BX","2018/06/19 18:09:23","新北市金山區磺港里磺港路11號","121.649676666667","25.230565","6502700","金山區"
"208001","761-BX","2018/06/19 18:09:32","新北市金山區磺港里磺港路73號","121.647593333333","25.227205","6502700","金山區"
"251004","009-UM","2018/06/19 18:09:26","新北市淡水區民權路187巷72號","121.461361666667","25.134515","6501000","淡水區"
"251013","KEA-2871","2018/06/19 18:09:33","新北市淡水區竹圍子9-6號","121.47654","25.1929833333333","6501000","淡水區"
"251016","179-VK","2018/06/19 18:09:29","新北市淡水區下圭柔山18-1號","121.45375","25.2026883333333","6501000","淡水區"
"251014","180-VK","2018/06/19 18:09:35","新北市淡水區南平15號","121.487938333333","25.219665","6501000","淡水區"
"251008","181-VK","2018/06/19 18:09:21","新北市淡水區淡金路16巷47號","121.45842","25.1605166666667","6501000","淡水區"
"251015","182-VK","2018/06/19 18:09:21","新北市淡水區興福寮66巷541號","121.484591666667","25.1651666666667","6501000","淡水區"
"251010","413-VK","2018/06/19 18:09:37","新北市淡水區中正路二段50巷18號","121.420251666667","25.1834933333333","6501000","淡水區"
"251012","441-VK","2018/06/19 18:09:40","新北市淡水區北新路三段173號","121.492473333333","25.1922983333333","6501000","淡水區"
"251005","443-VK","2018/06/19 18:09:29","新北市淡水區水源街一段141號","121.447215","25.1719183333333","6501000","淡水區"
"251001","559-UM","2018/06/19 18:09:33","新北市淡水區自立路8-6號","121.463295","25.129455","6501000","淡水區"
"251006","561-UM","2018/06/19 18:09:39","新北市淡水區新民街74號","121.438751666667","25.1764233333333","6501000","淡水區"
"251011","650-BX","2018/06/19 18:09:31","新北市淡水區三空泉9-1號","121.474756666667","25.1628433333333","6501000","淡水區"
"251002","672-BX","2018/06/19 18:09:23","新北市淡水區中正東路一段127巷2號","121.455578333333","25.1593866666667","6501000","淡水區"
"251003","673-BX","2018/06/19 18:09:35","新北市淡水區大忠街71-1號","121.445536666667","25.177025","6501000","淡水區"
"207003","550-UM","2018/06/19 18:09:25","新北市萬里區野柳里港西路701-2號","121.685293333333","25.2045783333333","6502800","萬里區"
"207004","225-TW","2018/06/19 18:09:28","新北市萬里區中幅里中福路116-1號","121.675483333333","25.16706","6502800","萬里區"
"252002","178-VK","2018/06/19 18:09:19","新北市三芝區中山路二段38號","121.502988333333","25.2550983333333","6502100","三芝區"
"252003","249-BX","2018/06/19 18:09:38","新北市三芝區埔頭里埔頭37號","121.498761666667","25.260475","6502100","三芝區"
"252001","292-VK","2018/06/19 18:09:35","新北市三芝區中興街二段2號","121.498405","25.2566566666667","6502100","三芝區"
"237007","153-BY","2018/06/19 18:09:40","新北市三峽區中正路二段370巷75號","121.36441","24.91141","6500900","三峽區"
"237013","252-BX","2018/06/19 18:09:18","新北市三峽區長泰街16號","121.378895","24.93114","6500900","三峽區"
"237012","275-BY","2018/06/19 18:09:33","新北市三峽區民生街1巷1-11號","121.37785","24.93634","6500900","三峽區"
"237008","302-VK","2018/06/19 18:09:32","新北市三峽區白雞44-50號","121.378361666667","24.910095","6500900","三峽區"
"237014","433-BY","2018/06/19 18:09:39","新北市三峽區國光街81巷13號","121.37367","24.93786","6500900","三峽區"
"237009","280-TH","2018/06/19 18:09:28","新北市三峽區大仁路48號","121.365443333333","24.937555","6500900","三峽區"
"237006","5529-G3","2018/06/19 18:09:36","新北市三峽區介壽路二段138巷1弄137-1號","121.399541666667","24.9309533333333","6500900","三峽區"
"237011","KEA-2596","2018/06/19 18:09:20","新北市三峽區中正路一段46-2號","121.37547","24.9305083333333","6500900","三峽區"
"237016","649-BX","2018/06/19 18:09:27","新北市三峽區紫新路48號","121.422133333333","24.9219416666667","6500900","三峽區"
"237010","706-TV","2018/06/19 18:09:25","新北市三峽區中園街20號","121.368345","24.927035","6500900","三峽區"
"237005","AKY-6261","2018/06/19 18:09:36","新北市三峽區忠孝街11號","121.370801666667","24.9344","6500900","三峽區"
"236070","105-UM","2018/06/19 18:09:20","新北市土城區青雲路364號","121.458683333333","24.9739533333333","6501300","土城區"
"236079","166-UM","2018/06/19 18:09:38","新北市土城區永寧路20-2號","121.42976","24.96148","6501300","土城區"
"236030","253-BX","2018/06/19 18:09:28","新北市土城區城林路6巷80號","121.438751666667","24.9796616666667","6501300","土城區"
"236026","269-VK","2018/06/19 18:09:39","新北市土城區承天路18號","121.439506666667","24.963435","6501300","土城區"
"236014","270-VK","2018/06/19 18:09:27","新北市土城區學府路一段280號","121.449881666667","24.9828383333333","6501300","土城區"
"236038","271-VK","2018/06/19 18:09:29","新北市土城區明德路一段369-2號","121.45321","24.97938","6501300","土城區"
"236021","401-BY","2018/06/19 18:09:22","新北市土城區中央路二段209號","121.44148","24.9743316666667","6501300","土城區"
"236042","752-BX","2018/06/19 18:09:29","新北市土城區城林路6巷80號","121.438618333333","24.979675","6501300","土城區"
"236059","912-UM","2018/06/19 18:09:21","新北市土城區中央路四段107號","121.41655","24.95779","6501300","土城區"
"236049","913-UM","2018/06/19 18:09:32","新北市土城區明德路一段369-6號","121.453308333333","24.9792766666667","6501300","土城區"
"236063","915-UM","2018/06/19 18:09:26","新北市土城區金城路二段28-6號","121.450455","24.9782266666667","6501300","土城區"
"236055","AAC-216","2018/06/19 18:09:40","新北市土城區中華路二段92號","121.43823","24.974735","6501300","土城區"
"242034","AAC-296","2018/06/19 18:09:30","新北市新莊區福海街24巷11號","121.44602","25.03419","6500500","新莊區"
"242058","986-R7","2018/06/19 18:09:37","新北市新莊區新北大道七段219號","121.413811666667","25.0300766666667","6500500","新莊區"
"242054","751-BX","2018/06/19 18:09:37","新北市新莊區光華街27號","121.428823333333","25.0110216666667","6500500","新莊區"
"242027","615-BX","2018/06/19 18:09:24","新北市新莊區幸福路513號","121.455701666667","25.0492533333333","6500500","新莊區"
"242025","613-BX","2018/06/19 18:09:38","新北市新莊區五權一路100號","121.459625","25.0676233333333","6500500","新莊區"
"242029","612-BX","2018/06/19 18:09:18","新北市新莊區中平路126號","121.444863333333","25.0465466666667","6500500","新莊區"
"242042","566-BX","2018/06/19 18:09:37","新北市新莊區壽山路31號","121.420055","25.0287133333333","6500500","新莊區"
"242046","497-BY","2018/06/19 18:09:38","新北市新莊區福營路333號","121.425386666667","25.028615","6500500","新莊區"
"242051","441-UM","2018/06/19 18:09:26","新北市新莊區民本街23巷19號","121.42915","25.019855","6500500","新莊區"
"242037","415-TV","2018/06/19 18:09:36","新北市新莊區後港一路65巷2號","121.426488333333","25.0267066666667","6500500","新莊區"
"242007","413-TV","2018/06/19 18:09:38","新北市新莊區自立街79巷6號","121.45443","25.0456766666667","6500500","新莊區"
"242044","400-BY","2018/06/19 18:09:39","新北市新莊區中正路730-2號","121.414786666667","25.0239733333333","6500500","新莊區"
"242023","362-BY","2018/06/19 18:09:22","新北市新莊區新泰路528號","121.441946666667","25.0470916666667","6500500","新莊區"
"242061","353-BY","2018/06/19 18:09:40","新北市新莊區新樹路210號","121.433935","25.0203333333333","6500500","新莊區"
"242009","132-UY","2018/06/19 18:09:24","新北市新莊區昌平街41巷19號","121.453835","25.0524733333333","6500500","新莊區"
"242039","133-UY","2018/06/19 18:09:24","新北市新莊區民安西路38巷26-1號","121.426616666667","25.02059","6500500","新莊區"
"242048","172-VK","2018/06/19 18:09:36","新北市新莊區富國路122號","121.422331666667","25.0252066666667","6500500","新莊區"
"242011","173-VK","2018/06/19 18:08:03","新北市新莊區中港路中慶巷42號","121.448681666667","25.0538516666667","6500500","新莊區"
"242017","175-VK","2018/06/19 18:09:37","新北市新莊區中港路335號","121.452261666667","25.0451716666667","6500500","新莊區"
"242005","176-VK","2018/06/19 18:09:29","新北市新莊區自立街108號","121.45511","25.0453366666667","6500500","新莊區"
"242015","346-TH","2018/06/19 18:09:36","新北市新莊區中平路132巷16號","121.445673333333","25.046715","6500500","新莊區"
"242056","347-TH","2018/06/19 18:09:28","新北市新莊區豐年街55-3號","121.446605","25.0311566666667","6500500","新莊區"
"242021","348-TH","2018/06/19 18:09:29","新北市新莊區建興街66號","121.449985","25.0391866666667","6500500","新莊區"
"242002","349-TH","2018/06/19 18:09:38","新北市新莊區新莊路79號","121.457975","25.0367966666667","6500500","新莊區"
"242019","350-TH","2018/06/19 18:09:31","新北市新莊區民樂街30號","121.457668333333","25.0408283333333","6500500","新莊區"
"238015","755-BX","2018/06/19 18:09:23","新北市樹林區大安路493號","121.414288333333","24.9867833333333","6500700","樹林區"
"238023","601-UM","2018/06/19 18:09:33","新北市樹林區三福街132號","121.405781666667","25.0162583333333","6500700","樹林區"
"238019","599-UM","2018/06/19 18:09:25","新北市樹林區水源街32巷36號","121.425195","24.981","6500700","樹林區"
"238018","571-TV","2018/06/19 18:09:34","新北市樹林區保順街75號","121.429271666667","24.99442","6500700","樹林區"
"238022","KEA-2213","2018/06/19 18:09:32","新北市樹林區太平路150巷23弄20號","121.417305","24.9768933333333","6500700","樹林區"
"238021","KEA-2539","2018/06/19 18:09:35","新北市樹林區佳園路二段175號","121.389835","24.9562266666667","6500700","樹林區"
"238025","303-VK","2018/06/19 18:09:39","新北市樹林區保安街二段198號","121.412571666667","25.0105516666667","6500700","樹林區"
"238017","283-BY","2018/06/19 18:09:32","新北市樹林區中正路811號","121.409501666667","25.01678","6500700","樹林區"
"238014","282-BY","2018/06/19 18:09:29","新北市樹林區潭興街6號","121.424968333333","24.9986766666667","6500700","樹林區"
"238020","268-VK","2018/06/19 18:09:31","新北市樹林區三俊街131號","121.418105","25.0155383333333","6500700","樹林區"
"238026","172-UY","2018/06/19 18:09:27","新北市樹林區育德街38-8號","121.390045","24.9694983333333","6500700","樹林區"
"238016","169-UY","2018/06/19 18:09:31","新北市樹林區文化街16號","121.419795","24.987465","6500700","樹林區"
"239006","891-R6","2018/06/19 18:09:39","新北市鶯歌區鶯桃路381巷2弄7號","121.333095","24.96359","6500800","鶯歌區"
"239008","527-UM","2018/06/19 18:09:32","新北市鶯歌區朝陽街26巷1號","121.337045","24.9773266666667","6500800","鶯歌區"
"239005","526-UM","2018/06/19 18:09:38","新北市鶯歌區鶯桃路668巷52弄6號","121.329356666667","24.9705016666667","6500800","鶯歌區"
"239001","417-VK","2018/06/19 18:09:31","新北市鶯歌區中正三路68號","121.338705","24.9412816666667","6500800","鶯歌區"
"239003","360-BY","2018/06/19 18:09:24","新北市鶯歌區福安街9巷1號","121.335175","24.964915","6500800","鶯歌區"
"239004","193-VK","2018/06/19 18:09:29","新北市鶯歌區尖山路137巷25弄9號","121.347205","24.9478466666667","6500800","鶯歌區"
"221008","489-VK","2018/06/19 18:09:38","新北市汐止區康寧街337號","121.627621666667","25.0675","6501100","汐止區"
"221036","130-UY","2018/06/19 18:09:33","新北市汐止區大同路三段139巷1弄5號","121.66913","25.0777233333333","6501100","汐止區"
"221015","131-UY","2018/06/19 18:09:32","新北市汐止區鄉長路二段29號","121.668356666667","25.0828466666667","6501100","汐止區"
"221010","269-BY","2018/06/19 18:09:32","新北市汐止區汐萬路二段275巷3弄1號","121.645303333333","25.0887366666667","6501100","汐止區"
"221012","278-VK","2018/06/19 18:09:36","新北市汐止區保長路37巷42號","121.674111666667","25.0798633333333","6501100","汐止區"
"221023","279-VK","2018/06/19 18:09:32","新北市汐止區民族五街79號","121.627543333333","25.0699633333333","6501100","汐止區"
"221032","280-BY","2018/06/19 18:09:36","新北市汐止區橫科路25號","121.618025","25.0511516666667","6501100","汐止區"
"221027","281-BY","2018/06/19 18:09:37","新北市汐止區大同路二段527號","121.66181","25.0689966666667","6501100","汐止區"
"221029","298-VK","2018/06/19 18:09:29","新北市汐止區樟樹二路101號","121.640283333333","25.06659","6501100","汐止區"
"221021","299-VK","2018/06/19 18:09:28","新北市汐止區龍安路202巷28號","121.652566666667","25.063435","6501100","汐止區"
"221031","353-TW","2018/06/19 18:09:33","新北市汐止區中興路167號","121.63095","25.06632","6501100","汐止區"
"221035","622-UM","2018/06/19 18:09:24","新北市汐止區大同路二段207號","121.65279","25.0644933333333","6501100","汐止區"
"221025","623-UM","2018/06/19 18:09:32","新北市汐止區秀峰路149號","121.660601666667","25.062005","6501100","汐止區"
"221038","646-BX","2018/06/19 18:09:23","新北市汐止區莊敬街119巷10號","121.65514","25.0601866666667","6501100","汐止區"
"221033","647-BX","2018/06/19 18:09:35","新北市汐止區宜興街40巷22弄6號","121.622641666667","25.0412483333333","6501100","汐止區"
"221002","707-TV","2018/06/19 18:09:40","新北市汐止區福德一路197號","121.63548","25.0656083333333","6501100","汐止區"
"221018","753-BX","2018/06/19 18:09:35","新北市汐止區忠孝東路351號","121.665585","25.0705033333333","6501100","汐止區"
"242032","280-VK","2018/06/19 18:09:36","新北市新莊區新泰路277巷11號","121.445281666667","25.04028","6500500","新莊區"
"235068","KEA-2873","2018/06/19 18:09:34","新北市中和區員山路36巷16-3號","121.484935","24.9912133333333","6500300","中和區"
"235025","KEA-2875","2018/06/19 18:09:33","新北市中和區連城路583巷15號","121.479173333333","24.9934333333333","6500300","中和區"
