"lineid","car","time","location","longitude","latitude","cityid","cityname"
"234046","148-BY","2018/06/19 18:39:22","新北市永和區林森路89號","121.523728333333","25.0037883333333","6500400","永和區"
"234081","298-R6","2018/06/19 18:39:36","新北市永和區林森路75號","121.524006666667","25.0039566666667","6500400","永和區"
"234064","337-UY","2018/06/19 18:39:40","新北市永和區福和路1號","121.526551666667","25.0101716666667","6500400","永和區"
"234086","338-UY","2018/06/19 18:39:34","新北市永和區安樂路222號","121.514906666667","25.0023283333333","6500400","永和區"
"234017","745-BX","2018/06/19 18:39:33","新北市永和區福和路1號","121.526366666667","25.0095516666667","6500400","永和區"
"234030","746-BX","2018/06/19 18:39:37","新北市永和區得和路321號","121.523413333333","24.999655","6500400","永和區"
"234013","KEA-2591","2018/06/19 18:39:31","新北市永和區仁愛路88號","121.512618333333","25.01328","6500400","永和區"
"234061","AAD-866","2018/06/19 18:39:20","新北市永和區福和路1號","121.52609","25.009355","6500400","永和區"
"234042","862-TW","2018/06/19 18:39:28","新北市永和區永貞路304號","121.511998333333","25.0048","6500400","永和區"
"234026","9371-KE","2018/06/19 18:39:35","新北市永和區永貞路372號","121.509936666667","25.0067333333333","6500400","永和區"
"234011","9373-KE","2018/06/19 18:39:20","新北市永和區文化路9巷22弄42號","121.514213333333","25.0145583333333","6500400","永和區"
"249005","172-UM","2018/06/19 18:39:38","新北市八里區中華路三段34-2號","121.388798333333","25.1254383333333","6502300","八里區"
"249001","173-UM","2018/06/19 18:39:37","新北市八里區龍米路一段366號","121.451521666667","25.131435","6502300","八里區"
"249004","303-UY","2018/06/19 18:39:35","新北市八里區忠孝路43號","121.428458333333","25.16013","6502300","八里區"
"249002","305-UY","2018/06/19 18:39:33","新北市八里區頂寮二街138號","121.449321666667","25.1294533333333","6502300","八里區"
"248014","025-BX","2018/06/19 18:39:39","新北市五股區蓬萊路24號","121.434136666667","25.07982","6501500","五股區"
"248016","026-BX","2018/06/19 18:39:34","新北市五股區凌雲路一段149巷5-1號","121.44896","25.1017166666667","6501500","五股區"
"248008","095-VK","2018/06/19 18:39:30","新北市五股區中興路一段150巷13-1號","121.464661666667","25.0745716666667","6501500","五股區"
"248018","225-UY","2018/06/19 18:39:37","新北市五股區孝義路55巷5號","121.451363333333","25.1120133333333","6501500","五股區"
"248012","247-BX","2018/06/19 18:39:24","新北市五股區成泰路三段51-1號","121.442536666667","25.0896016666667","6501500","五股區"
"248010","272-BY","2018/06/19 18:39:32","新北市五股區水碓三路120號","121.4318","25.0735933333333","6501500","五股區"
"248004","655-BX","2018/06/19 18:39:26","新北市五股區六合街13號","121.431361666667","25.0887133333333","6501500","五股區"
"248002","678-BX","2018/06/19 18:39:32","新北市五股區西雲路205號","121.44858","25.096495","6501500","五股區"
"234023","9380-KE","2018/06/19 18:39:31","新北市永和區福和路1號","121.525485","25.0095433333333","6500400","永和區"
"234077","969-R7","2018/06/19 18:39:24","新北市永和區中正路513號","121.516881666667","25.0073133333333","6500400","永和區"
"234067","AAC-212","2018/06/19 18:39:37","新北市中和區永貞路246號","121.514281666667","25.0037383333333","6500400","永和區"
"234003","AAC-295","2018/06/19 18:39:35","新北市永和區福和路1號","121.525875","25.0091383333333","6500400","永和區"
"244007","080-UY","2018/06/19 18:39:42","新北市林口區後湖18-3號","121.387375","25.0978","6501700","林口區"
"244019","403-UM","2018/06/19 18:39:29","新北市林口區忠孝路164號","121.377211666667","25.06821","6501700","林口區"
"244013","742-UY","2018/06/19 18:39:24","新北市林口區中正路512號","121.381728333333","25.0774033333333","6501700","林口區"
"244023","483-VK","2018/06/19 18:39:17","新北市林口區文化二路二段72號","121.37841","25.0804716666667","6501700","林口區"
"244017","485-VK","2018/06/19 18:39:22","新北市林口區八德路78號","121.36557","25.065655","6501700","林口區"
"244009","656-BX","2018/06/19 18:39:20","新北市林口區竹林路320巷19號","121.391325","25.081995","6501700","林口區"
"244011","657-BX","2018/06/19 18:39:31","新北市林口區中正路182號","121.391863333333","25.0774766666667","6501700","林口區"
"244025","837-TS","2018/06/19 18:39:38","新北市林口區南勢三街57號","121.35757","25.07703","6501700","林口區"
"244021","838-TS","2018/06/19 18:39:29","新北市林口區工六路10號","121.397943333333","25.0790666666667","6501700","林口區"
"243013","AAD-798","2018/06/19 18:29:29","新北市泰山區明志路三段206巷3號","121.423311666667","25.037935","6501600","泰山區"
"243016","380-SR","2018/06/19 18:38:52","新北市泰山區黎明路25號","121.422386666667","25.0609883333333","6501600","泰山區"
"243012","646-TV","2018/06/19 18:39:22","新北市泰山區泰林路二段202號","121.433383333333","25.0612983333333","6501600","泰山區"
"222003","436-BY","2018/06/19 18:39:34","新北市深坑區翠谷街37巷1號","121.626505","25.0094233333333","6501800","深坑區"
"222002","659-BX","2018/06/19 18:39:36","新北市深坑區雲鄉路2號","121.620928333333","24.99965","6501800","深坑區"
"231041","002-UM","2018/06/19 18:39:19","新北市新店區安華路28-1號","121.519726666667","24.9607133333333","6500600","新店區"
"231059","046-UY","2018/06/19 18:39:30","新北市新店區安華路28-1號","121.519628333333","24.9607833333333","6500600","新店區"
"231040","047-UY","2018/06/19 18:39:25","新北市新店區安一路一段1-1號","121.518968333333","24.960985","6500600","新店區"
"231044","106-UY","2018/06/19 18:39:26","新北市新店區安康路一段35號","121.531673333333","24.9607283333333","6500600","新店區"
"231053","108-UY","2018/06/19 18:39:23","新北市新店區永興路41號","121.543405","24.9385216666667","6500600","新店區"
"231048","187-VK","2018/06/19 18:39:30","新北市新店區安康路一段130號","121.526728333333","24.9627366666667","6500600","新店區"
"231046","188-VK","2018/06/19 18:39:30","新北市新店區直潭二街1號","121.535531666667","24.9431716666667","6500600","新店區"
"231054","KEA-2219","2018/06/19 18:39:36","新北市新店區安一路一段1-1號","121.519945","24.9612","6500600","新店區"
"231057","256-BX","2018/06/19 18:39:34","新北市新店區新烏路一段205-2號","121.547605","24.9326266666667","6500600","新店區"
"231042","268-BY","2018/06/19 18:39:27","新北市新店區安華路1-1號","121.519343333333","24.9604583333333","6500600","新店區"
"231051","278-BY","2018/06/19 18:39:32","新北市新店區環河路18號","121.53706","24.9614433333333","6500600","新店區"
"231050","AAD-862","2018/06/19 18:39:33","新北市新店區安華路28-1號","121.520105","24.9609833333333","6500600","新店區"
"231058","3713-VJ","2018/06/19 18:39:24","新北市新店區新店路13號","121.540316666667","24.9529233333333","6500600","新店區"
"231066","4716-K9","2018/06/19 18:39:37","新北市新店區安一路一段1-1號","121.519008333333","24.9611366666667","6500600","新店區"
"231056","4715-K9","2018/06/19 18:39:40","新北市新店區民族路81號","121.539061666667","24.9779533333333","6500600","新店區"
"231067","4772-VM","2018/06/19 18:39:22","新北市新店區安康路一段98號","121.527526666667","24.9622683333333","6500600","新店區"
"231065","512-UM","2018/06/19 18:39:23","新北市新店區安一路一段1-1號","121.519181666667","24.961205","6500600","新店區"
"231049","513-UM","2018/06/19 18:39:41","新北市新店區安一路一段1-1號","121.519663333333","24.9610566666667","6500600","新店區"
"231063","616-UM","2018/06/19 18:39:25","新北市新店區安華路1-1號","121.519423333333","24.9604933333333","6500600","新店區"
"231045","617-UM","2018/06/19 18:39:36","新北市新店區安華路28-1號","121.519458333333","24.9607816666667","6500600","新店區"
"231061","619-UM","2018/06/19 18:39:28","新北市新店區安華路1-1號","121.519458333333","24.96044","6500600","新店區"
"231064","719-UM","2018/06/19 18:39:27","新北市新店區安一路一段1-1號","121.519398333333","24.961065","6500600","新店區"
"231062","720-UM","2018/06/19 18:39:38","新北市新店區安一路一段1-1號","121.518963333333","24.9614066666667","6500600","新店區"
"231060","897-TW","2018/06/19 18:39:40","新北市新店區安華路1-1號","121.519513333333","24.9604883333333","6500600","新店區"
"231055","AKT-0513","2018/06/19 18:39:32","新北市新店區北新路一段271巷31-1號","121.539901666667","24.9670916666667","6500600","新店區"
"241032","269-UM","2018/06/19 18:26:30","新北市三重區重陽路一段120巷35號","121.485195","25.060135","6500200","三重區"
"241035","462-BY","2018/06/19 18:39:27","新北市三重區重新路四段121號","121.484916666667","25.0520516666667","6500200","三重區"
"235064","005-UY","2018/06/19 18:39:39","新北市中和區連城路109巷31號","121.496901666667","24.9985566666667","6500300","中和區"
"235063","006-UY","2018/06/19 18:39:22","新北市中和區連城路391號","121.486498333333","24.99607","6500300","中和區"
"235056","096-UM","2018/06/19 18:39:24","新北市中和區員山路611巷1號","121.477946666667","25.0113183333333","6500300","中和區"
"235039","097-UM","2018/06/19 18:39:32","新北市中和區安樂路185號","121.514918333333","24.9980583333333","6500300","中和區"
"235065","098-UM","2018/06/19 18:39:34","新北市中和區莊敬路33巷40號","121.5003","25.0066016666667","6500300","中和區"
"235040","150-BY","2018/06/19 18:39:27","新北市中和區宜安路63號","121.511305","24.99696","6500300","中和區"
"235058","151-BY","2018/06/19 18:39:29","新北市中和區員山路28-11號","121.481451666667","24.98609","6500300","中和區"
"235055","183-VK","2018/06/19 18:39:40","新北市中和區民生街6-1號","121.471231666667","25.00621","6500300","中和區"
"235038","185-VK","2018/06/19 18:39:20","新北市中和區大勇街45巷1號","121.518125","24.9949016666667","6500300","中和區"
"235049","186-VK","2018/06/19 18:39:42","新北市中和區景安路175號","121.50525","24.9942916666667","6500300","中和區"
"235067","255-BX","2018/06/19 18:39:41","新北市中和區新生街3號","121.483163333333","25.00473","6500300","中和區"
"235008","293-VK","2018/06/19 18:39:29","新北市中和區復興路280巷6號","121.50229","24.9910583333333","6500300","中和區"
"235043","352-BY","2018/06/19 18:39:29","新北市中和區景平路155號","121.51344","24.9922683333333","6500300","中和區"
"235042","KEA-2878","2018/06/19 18:39:33","新北市中和區成功路97巷5弄11號","121.526468333333","24.99207","6500300","中和區"
"235050","4979-A6","2018/06/19 18:39:34","新北市中和區忠孝街122-2號","121.5122","24.9861316666667","6500300","中和區"
"235069","4980-A6","2018/06/19 18:39:24","新北市中和區連城路67號","121.497653333333","25.0012683333333","6500300","中和區"
"235070","558-UM","2018/06/19 18:39:34","新北市中和區南華路36號","121.5035","24.99624","6500300","中和區"
"235045","565-BX","2018/06/19 18:39:19","新北市中和區南山路236巷63弄1號","121.503823333333","24.9876083333333","6500300","中和區"
"235054","640-BX","2018/06/19 18:39:32","新北市中和區莒光路140-1號","121.472576666667","25.0011383333333","6500300","中和區"
"235060","647-TV","2018/06/19 18:39:33","新北市中和區中山路三段15號","121.479525","25.0060233333333","6500300","中和區"
"235047","732-UM","2018/06/19 18:39:30","新北市中和區南山路320巷3號","121.507613333333","24.98648","6500300","中和區"
"235046","733-UM","2018/06/19 18:39:21","新北市中和區圓通路205巷13號","121.497746666667","24.9941666666667","6500300","中和區"
"235062","800-TS","2018/06/19 18:27:51","新北市中和區中山路二段306號","121.49585","25.0022833333333","6500300","中和區"
"235057","801-TS","2018/06/19 18:39:39","新北市中和區民安街20號","121.480455","25.000715","6500300","中和區"
"235041","802-TS","2018/06/19 18:39:23","新北市中和區宜安路170號","121.508906666667","24.998985","6500300","中和區"
"235052","805-TS","2018/06/19 18:39:38","新北市中和區興南路三段52巷2-5號","121.494313333333","24.975725","6500300","中和區"
"235048","896-TW","2018/06/19 18:39:38","新北市中和區南山路325號","121.505068333333","24.99123","6500300","中和區"
"235053","900-TW","2018/06/19 18:39:20","新北市中和區民享街482號","121.469351666667","24.9924833333333","6500300","中和區"
"235066","911-UM","2018/06/19 18:39:38","新北市中和區水源路45號","121.504763333333","25.00359","6500300","中和區"
"235051","157-BY","2018/06/19 18:39:29","新北市中和區華新街143巷106弄34號","121.506146666667","24.97853","6500300","中和區"
"235037","AAC-213","2018/06/19 18:39:28","新北市中和區景德街56號","121.517406666667","24.99158","6500300","中和區"
"235059","AAC-215","2018/06/19 18:39:37","新北市中和區錦和路354巷15號","121.489746666667","24.9915533333333","6500300","中和區"
"220072","015-TV","2018/06/19 18:39:31","新北市板橋區大觀路三段50巷47號","121.432718333333","24.995825","6500100","板橋區"
"220086","073-UY","2018/06/19 18:39:27","新北市板橋區南雅西路二段192巷24號","121.452705","25.013945","6500100","板橋區"
"220069","AAD-861","2018/06/19 18:39:21","新北市板橋區華東街1-10號","121.448308333333","24.9951483333333","6500100","板橋區"
"226004","312-R5","2018/06/19 18:39:31","新北市平溪區平溪里三坑路39號","121.733351666667","25.031405","6502400","平溪區"
"228001","212-TW","2018/06/19 18:39:35","新北市貢寮區仁理村研海街12-1號","121.923805","25.05165","6502600","貢寮區"
"228002","663-BX","2018/06/19 18:39:34","新北市貢寮區福隆里東興街6-11號","121.950748333333","25.0210966666667","6502600","貢寮區"
"228003","828-UM","2018/06/19 18:39:29","新北市貢寮區和美里龍洞街41號","121.912618333333","25.11327","6502600","貢寮區"
"224010","AGQ-8101","2018/06/19 18:39:27","新北市瑞芳區烏勢巷108號","121.846095","25.1088083333333","6501200","瑞芳區"
"224006","676-BX","2018/06/19 18:39:34","新北市瑞芳區明燈路三段84號","121.805766666667","25.1082616666667","6501200","瑞芳區"
"224002","639-TC","2018/06/19 18:39:33","新北市瑞芳區三爪子坑路127號","121.810263333333","25.1070283333333","6501200","瑞芳區"
"224008","285-BY","2018/06/19 18:39:32","新北市瑞芳區瑞芳街31號","121.806491666667","25.1094966666667","6501200","瑞芳區"
"224007","275-VK","2018/06/19 18:39:28","新北市瑞芳區大埔路167號","121.763785","25.1017266666667","6501200","瑞芳區"
"224009","273-VK","2018/06/19 18:39:37","新北市瑞芳區祈堂路105號","121.859031666667","25.1093833333333","6501200","瑞芳區"
"224005","271-BY","2018/06/19 18:39:35","新北市瑞芳區瑞濱路20-1號","121.826051666667","25.1212066666667","6501200","瑞芳區"
"227003","642-TC","2018/06/19 18:39:38","新北市雙溪區魚行里坤溪3-5號","121.876185","25.0208233333333","6502500","雙溪區"
"227009","400-TW","2018/06/19 18:39:13","新北市雙溪區牡丹里下坑11號","121.85101","25.0561833333333","6502500","雙溪區"
"253005","032-BX","2018/06/19 18:39:38","新北市石門區石門街36號","121.566291666667","25.2903416666667","6502200","石門區"
"253006","295-VK","2018/06/19 18:39:39","新北市石門區崁子腳1-1號","121.531823333333","25.2880266666667","6502200","石門區"
"222001","KEA-2212","2018/06/19 18:39:28","新北市深坑區北深路一段84號","121.636226666667","25.0108166666667","6501800","深坑區"
"208002","KEA-2872","2018/06/19 18:39:28","新北市金山區忠孝一路19巷7號","121.637788333333","25.2179666666667","6502700","金山區"
"208003","665-BX","2018/06/19 18:39:42","新北市金山區中山路345號","121.6349","25.2242616666667","6502700","金山區"
"208001","761-BX","2018/06/19 18:39:32","新北市金山區文化三路7號","121.635173333333","25.2249316666667","6502700","金山區"
"251004","009-UM","2018/06/19 18:39:26","新北市淡水區大同路105巷12號","121.462795","25.140895","6501000","淡水區"
"251013","KEA-2871","2018/06/19 18:39:13","新北市淡水區雲廣坑5-1號","121.474773333333","25.21316","6501000","淡水區"
"251016","179-VK","2018/06/19 18:39:29","新北市淡水區下圭柔山84號","121.437671666667","25.2059183333333","6501000","淡水區"
"251014","180-VK","2018/06/19 18:39:35","新北市淡水區崙頂12-8號","121.495593333333","25.217225","6501000","淡水區"
"251008","181-VK","2018/06/19 18:39:21","新北市淡水區北投子62-13號","121.45594","25.180115","6501000","淡水區"
"251015","182-VK","2018/06/19 18:39:21","新北市淡水區興福寮66巷18號","121.486611666667","25.1622433333333","6501000","淡水區"
"251010","413-VK","2018/06/19 18:39:26","新北市淡水區沙崙路141號","121.42322","25.182965","6501000","淡水區"
"251012","441-VK","2018/06/19 18:39:37","新北市淡水區北新路121號","121.448973333333","25.178755","6501000","淡水區"
"251005","443-VK","2018/06/19 18:39:29","新北市淡水區中山路141號","121.440896666667","25.1718016666667","6501000","淡水區"
"251001","559-UM","2018/06/19 18:39:33","新北市淡水區自強路166號","121.4655","25.134105","6501000","淡水區"
"251006","561-UM","2018/06/19 18:39:39","新北市淡水區崁頂37-6號","121.43955","25.1950166666667","6501000","淡水區"
"251011","650-BX","2018/06/19 18:39:31","新北市淡水區鄧公路278巷1號","121.461346666667","25.1688433333333","6501000","淡水區"
"251002","672-BX","2018/06/19 18:39:24","新北市淡水區中正東路一段3巷14弄1號","121.450888333333","25.1641133333333","6501000","淡水區"
"251003","673-BX","2018/06/19 18:39:35","新北市淡水區北新路69巷26號","121.446633333333","25.1801366666667","6501000","淡水區"
"207003","550-UM","2018/06/19 18:39:25","新北市萬里區野柳里八斗60號","121.660371666667","25.207205","6502800","萬里區"
"207004","225-TW","2018/06/19 18:39:28","新北市萬里區萬里里獅頭路10-1號","121.69204","25.1787033333333","6502800","萬里區"
"252002","178-VK","2018/06/19 18:39:19","新北市三芝區民生街64巷6號","121.503586666667","25.2552816666667","6502100","三芝區"
"252003","249-BX","2018/06/19 18:39:38","新北市三芝區後厝里土地公坑56號","121.463613333333","25.24873","6502100","三芝區"
"252001","292-VK","2018/06/19 18:39:35","新北市三芝區中興街二段260號","121.501896666667","25.252885","6502100","三芝區"
"237007","153-BY","2018/06/19 18:39:40","新北市三峽區中正路三段180號","121.351548333333","24.9033816666667","6500900","三峽區"
"237013","252-BX","2018/06/19 18:39:38","新北市三峽區光明路69巷35號","121.377171666667","24.9294633333333","6500900","三峽區"
"237012","275-BY","2018/06/19 18:39:32","新北市三峽區三樹路340號","121.38394","24.9432933333333","6500900","三峽區"
"237008","302-VK","2018/06/19 18:39:32","新北市三峽區紫微路87號","121.40403","24.90844","6500900","三峽區"
"237014","433-BY","2018/06/19 18:39:19","新北市三峽區復興路485號","121.361493333333","24.9386383333333","6500900","三峽區"
"237009","280-TH","2018/06/19 18:39:28","新北市三峽區大同路278號","121.36507","24.9252983333333","6500900","三峽區"
"237006","5529-G3","2018/06/19 18:39:36","新北市三峽區溪東路222號","121.407895","24.9319233333333","6500900","三峽區"
"237011","KEA-2596","2018/06/19 18:39:40","新北市三峽區溪東路426-1號","121.415278333333","24.9276466666667","6500900","三峽區"
"237016","649-BX","2018/06/19 18:39:27","新北市三峽區竹崙路131號","121.434311666667","24.9095183333333","6500900","三峽區"
"237010","706-TV","2018/06/19 18:39:25","新北市三峽區復興路281號","121.366171666667","24.9388666666667","6500900","三峽區"
"237005","AKY-6261","2018/06/19 18:39:36","新北市三峽區民生街116號","121.372818333333","24.9353016666667","6500900","三峽區"
"236070","105-UM","2018/06/19 18:39:40","新北市土城區永豐路157巷1號","121.46746","24.9818316666667","6501300","土城區"
"236079","166-UM","2018/06/19 18:39:32","新北市土城區中央路四段52巷42弄2號","121.418955","24.9604316666667","6501300","土城區"
"236030","253-BX","2018/06/19 18:39:28","新北市土城區中央路二段278巷11-2號","121.439696666667","24.974905","6501300","土城區"
"236026","269-VK","2018/06/19 18:39:39","新北市土城區金城路一段66號","121.443048333333","24.9714033333333","6501300","土城區"
"236014","270-VK","2018/06/19 18:39:27","新北市土城區清水路207巷19號","121.45977","24.9823816666667","6501300","土城區"
"236038","271-VK","2018/06/19 18:39:31","新北市土城區明德路一段313巷26號","121.459603333333","24.976135","6501300","土城區"
"236021","401-BY","2018/06/19 18:39:22","新北市土城區延吉街253巷3號","121.467661666667","24.9846733333333","6501300","土城區"
"236042","752-BX","2018/06/19 18:39:29","新北市土城區學成路108巷6號","121.450101666667","24.989505","6501300","土城區"
"236059","912-UM","2018/06/19 18:39:41","新北市土城區永寧路1號","121.430381666667","24.96478","6501300","土城區"
"236049","913-UM","2018/06/19 18:39:35","新北市土城區明德路一段69巷5號","121.465486666667","24.9837683333333","6501300","土城區"
"236063","915-UM","2018/06/19 18:39:26","新北市土城區延和路125巷31號","121.469091666667","24.9912466666667","6501300","土城區"
"236055","AAC-216","2018/06/19 18:39:20","新北市土城區中華路一段23號","121.446928333333","24.9890866666667","6501300","土城區"
"242058","986-R7","2018/06/19 18:39:37","新北市新莊區中正路891-32號","121.414663333333","25.023345","6500500","新莊區"
"242054","751-BX","2018/06/19 18:39:33","新北市新莊區大安路10巷10號","121.430506666667","25.006695","6500500","新莊區"
"242025","613-BX","2018/06/19 18:36:58","新北市新莊區中平路377巷28號","121.442201666667","25.0527433333333","6500500","新莊區"
"242042","566-BX","2018/06/19 18:39:37","新北市新莊區天祥街72巷11號","121.416156666667","25.029945","6500500","新莊區"
"242046","497-BY","2018/06/19 18:39:38","新北市新莊區中正路829巷22弄47號","121.420491666667","25.0265416666667","6500500","新莊區"
"242061","353-BY","2018/06/19 18:39:20","新北市新莊區民安路190號","121.425333333333","25.0235583333333","6500500","新莊區"
"242039","133-UY","2018/06/19 18:39:23","新北市板橋區溪城路90-2號","121.42926","24.9800616666667","6500500","新莊區"
"238015","755-BX","2018/06/19 18:39:23","新北市樹林區中山路三段87號","121.400121666667","24.974865","6500700","樹林區"
"238023","601-UM","2018/06/19 18:39:33","新北市樹林區三福街114號","121.406468333333","25.01628","6500700","樹林區"
"238019","599-UM","2018/06/19 18:39:25","新北市樹林區中華路190-16號","121.411791666667","24.9806566666667","6500700","樹林區"
"238018","571-TV","2018/06/19 18:39:24","新北市樹林區樹新路5號","121.426481666667","24.9939383333333","6500700","樹林區"
"238024","5061-A6","2018/06/19 18:39:24","新北市樹林區太順街49巷7號","121.418163333333","24.97886","6500700","樹林區"
"238022","KEA-2213","2018/06/19 18:39:31","新北市樹林區中山路三段109-1號","121.399538333333","24.9745366666667","6500700","樹林區"
"238025","303-VK","2018/06/19 18:39:36","新北市樹林區中山路三段22號","121.395681666667","24.9729283333333","6500700","樹林區"
"238017","283-BY","2018/06/19 18:39:23","新北市樹林區光興街44號","121.409888333333","25.00269","6500700","樹林區"
"238014","282-BY","2018/06/19 18:39:29","新北市樹林區大安路111巷25號","121.423133333333","24.9975183333333","6500700","樹林區"
"238020","268-VK","2018/06/19 18:39:31","新北市樹林區三龍街40號","121.412301666667","25.0184116666667","6500700","樹林區"
"238026","172-UY","2018/06/19 18:39:27","新北市樹林區育德街78-1號","121.387356666667","24.9681016666667","6500700","樹林區"
"238016","169-UY","2018/06/19 18:39:31","新北市樹林區文化街28號","121.419373333333","24.9876933333333","6500700","樹林區"
"239007","AAC-297","2018/06/19 18:34:47","新北市鶯歌區中正一路建德巷38號","121.364048333333","24.957805","6500800","鶯歌區"
"239008","527-UM","2018/06/19 18:39:33","新北市鶯歌區國際一路179號","121.336238333333","24.976495","6500800","鶯歌區"
"239005","526-UM","2018/06/19 18:39:24","新北市鶯歌區鳳吉一街95號","121.327278333333","24.9744133333333","6500800","鶯歌區"
"239001","417-VK","2018/06/19 18:39:31","新北市鶯歌區二甲路光照巷10弄1號","121.33798","24.9401283333333","6500800","鶯歌區"
"239003","360-BY","2018/06/19 18:39:23","新北市鶯歌區永和街181號","121.335825","24.9702733333333","6500800","鶯歌區"
"239004","193-VK","2018/06/19 18:39:29","新北市鶯歌區中正三路156巷61號","121.331868333333","24.94211","6500800","鶯歌區"
"221008","489-VK","2018/06/19 18:39:38","新北市汐止區康寧街901號","121.651348333333","25.0749083333333","6501100","汐止區"
"221036","130-UY","2018/06/19 18:39:33","新北市汐止區水碓街5號","121.664031666667","25.0701283333333","6501100","汐止區"
"221015","131-UY","2018/06/19 18:39:32","新北市汐止區鄉長路一段281號","121.668561666667","25.078725","6501100","汐止區"
"221010","269-BY","2018/06/19 18:39:32","新北市汐止區汐萬路三段247-1號","121.642388333333","25.1075416666667","6501100","汐止區"
"221012","278-VK","2018/06/19 18:39:36","新北市汐止區長江街190號","121.66007","25.0767233333333","6501100","汐止區"
"221023","279-VK","2018/06/19 18:39:31","新北市汐止區康寧街573號","121.634815","25.0695983333333","6501100","汐止區"
"221032","280-BY","2018/06/19 18:39:26","新北市汐止區福山街56巷19號","121.618008333333","25.045695","6501100","汐止區"
"221027","281-BY","2018/06/19 18:39:21","新北市汐止區汐萬路一段147號","121.653301666667","25.0711133333333","6501100","汐止區"
"221029","298-VK","2018/06/19 18:39:29","新北市汐止區樟樹一路131號","121.642163333333","25.0649583333333","6501100","汐止區"
"221021","299-VK","2018/06/19 18:39:28","新北市汐止區新台五路一段159號","121.654148333333","25.0625033333333","6501100","汐止區"
"221031","353-TW","2018/06/19 18:39:33","新北市汐止區福德一路270號","121.632213333333","25.06399","6501100","汐止區"
"221035","622-UM","2018/06/19 18:39:24","新北市汐止區大同路二段278號","121.654848333333","25.0663633333333","6501100","汐止區"
"221025","623-UM","2018/06/19 18:39:26","新北市汐止區仁愛路119巷4號","121.662611666667","25.0638316666667","6501100","汐止區"
"221038","646-BX","2018/06/19 18:39:23","新北市汐止區汐萬路一段256巷1號","121.65184","25.0748366666667","6501100","汐止區"
"221033","647-BX","2018/06/19 18:39:35","新北市汐止區南勢街1巷1號","121.62704","25.0374383333333","6501100","汐止區"
"221002","707-TV","2018/06/19 18:39:40","新北市汐止區中興路25號","121.636865","25.05959","6501100","汐止區"
"221018","753-BX","2018/06/19 18:39:35","新北市汐止區茄苳路255號","121.671868333333","25.0682333333333","6501100","汐止區"
"220079","145-BY","2018/06/19 18:39:30","新北市板橋區館前西路162號","121.452901666667","25.0085866666667","6500100","板橋區"
"220080","200-UY","2018/06/19 18:39:22","新北市板橋區大觀路二段265巷76弄35號","121.441146666667","24.9967216666667","6500100","板橋區"
"220082","610-BX","2018/06/19 18:39:31","新北市板橋區大觀路三段50巷47號","121.43274","24.99585","6500100","板橋區"
"220055","256-TC","2018/06/19 18:39:31","新北市板橋區華東街1-8號","121.44784","24.9947883333333","6500100","板橋區"
"220056","276-BY","2018/06/19 18:39:27","新北市板橋區華東街1-10號","121.448785","24.9947266666667","6500100","板橋區"
"220071","283-VK","2018/06/19 18:39:38","新北市板橋區四川路二段71號","121.453321666667","24.9950983333333","6500100","板橋區"
"220094","285-UM","2018/06/19 18:39:34","新北市板橋區民生路二段161巷1號","121.470121666667","25.019845","6500100","板橋區"
"220053","285-VK","2018/06/19 18:38:40","新北市板橋區民生路二段161巷1號","121.47006","25.01981","6500100","板橋區"
"220083","286-VK","2018/06/19 18:39:39","新北市板橋區大觀路二段107號","121.446411666667","25.0015533333333","6500100","板橋區"
"220081","287-VK","2018/06/19 18:39:28","新北市板橋區大觀路二段107號","121.446261666667","25.0015966666667","6500100","板橋區"
"220061","293-UM","2018/06/19 18:39:29","新北市板橋區民生路二段120號","121.470366666667","25.0197533333333","6500100","板橋區"
"220062","295-UM","2018/06/19 18:39:21","新北市板橋區民生路二段120號","121.470361666667","25.019835","6500100","板橋區"
"220084","296-UM","2018/06/19 18:39:31","新北市板橋區大觀路二段251號","121.443381666667","24.9992083333333","6500100","板橋區"
"220075","303-R5","2018/06/19 18:39:41","新北市板橋區南雅西路一段39巷29號","121.452755","25.0042516666667","6500100","板橋區"
"220064","486-VK","2018/06/19 18:39:29","新北市板橋區縣民大道一段310號","121.461575","25.0107166666667","6500100","板橋區"
"220035","560-BX","2018/06/19 18:39:29","新北市板橋區南雅西路二段175巷1號","121.451543333333","25.0123983333333","6500100","板橋區"
"220057","686-BX","2018/06/19 18:39:37","新北市板橋區華東街1-9號","121.448201666667","24.9949383333333","6500100","板橋區"
"220077","687-BX","2018/06/19 18:39:29","新北市板橋區大觀路二段174巷102弄9號","121.441006666667","25.001335","6500100","板橋區"
"220067","829-TW","2018/06/19 18:39:23","新北市板橋區民生路二段161巷1號","121.470283333333","25.0199466666667","6500100","板橋區"
"220073","985-R7","2018/06/19 18:39:19","新北市板橋區貴興路48號","121.457178333333","25.00321","6500100","板橋區"
"220070","AAC-253","2018/06/19 18:39:32","新北市板橋區華東街1-9號","121.448035","24.9948866666667","6500100","板橋區"
"235068","KEA-2873","2018/06/19 18:39:34","新北市中和區中正路211巷13弄5號","121.497083333333","24.9931033333333","6500300","中和區"
"235025","KEA-2875","2018/06/19 18:39:33","新北市中和區民享街92巷18號","121.474351666667","24.99979","6500300","中和區"
