"lineid","car","time","location","longitude","latitude","cityid","cityname"
"249002","305-UY","2018/06/19 21:09:33","新北市八里區下罟子30-35號","121.367996666667","25.1351916666667","6502300","八里區"
"243006","680-BX","2018/06/19 21:07:17","新北市泰山區黎明路25號","121.422118333333","25.060715","6501600","泰山區"
"231059","046-UY","2018/06/19 21:09:30","新北市新店區僑信路18-1號","121.499755","24.9524183333333","6500600","新店區"
"231040","047-UY","2018/06/19 21:09:45","新北市新店區北新路一段353號","121.54193","24.9695616666667","6500600","新店區"
"231048","187-VK","2018/06/19 21:09:39","新北市新店區中興路三段160號","121.54448","24.9807","6500600","新店區"
"231054","KEA-2219","2018/06/19 21:09:36","新北市新店區大新街7巷38號","121.544313333333","24.9677083333333","6500600","新店區"
"231042","268-BY","2018/06/19 21:09:27","新北市新店區寶興路60巷4號","121.549838333333","24.9718116666667","6500600","新店區"
"231051","278-BY","2018/06/19 21:09:32","新北市新店區中正路700巷26號","121.53532","24.9909933333333","6500600","新店區"
"231050","AAD-862","2018/06/19 21:09:33","新北市新店區三民路31號","121.538091666667","24.9704766666667","6500600","新店區"
"231065","512-UM","2018/06/19 21:09:43","新北市新店區安祥路69巷41弄29號","121.482318333333","24.9614383333333","6500600","新店區"
"231063","616-UM","2018/06/19 21:09:25","新北市新店區玫瑰路61巷2號","121.495961666667","24.9452383333333","6500600","新店區"
"231061","619-UM","2018/06/19 21:09:29","新北市新店區永平街24號","121.516715","24.98366","6500600","新店區"
"231064","719-UM","2018/06/19 21:09:42","新北市新店區薏仁坑路自強巷1號","121.497675","24.9576566666667","6500600","新店區"
"231062","720-UM","2018/06/19 21:09:38","新北市新店區雙城路60巷16弄13號","121.491725","24.9478933333333","6500600","新店區"
"231060","897-TW","2018/06/19 21:09:40","新北市新店區安康路二段380號","121.50047","24.95742","6500600","新店區"
"241011","013-R5","2018/06/19 21:09:39","新北市三重區龍濱路128號","121.50181","25.0716566666667","6500200","三重區"
"241028","022-UY","2018/06/19 21:09:27","新北市三重區正義南路50號","121.498243333333","25.0608066666667","6500200","三重區"
"241008","059-VK","2018/06/19 21:09:46","新北市三重區三和路三段8號","121.497125","25.07011","6500200","三重區"
"241022","060-VK","2018/06/19 21:09:41","新北市三重區中正北路64巷24號","121.486081666667","25.063725","6500200","三重區"
"241031","061-VK","2018/06/19 21:09:39","新北市三重區重新路五段422號","121.4754","25.0475716666667","6500200","三重區"
"241015","062-VK","2018/06/19 21:09:37","新北市三重區福德北路69號","121.502025","25.0656216666667","6500200","三重區"
"241017","063-VK","2018/06/19 21:09:42","新北市三重區國隆路30號","121.492293333333","25.0644033333333","6500200","三重區"
"241024","065-VK","2018/06/19 21:09:36","新北市三重區國道路一段58巷20號","121.481281666667","25.072045","6500200","三重區"
"241026","066-VK","2018/06/19 21:09:29","新北市三重區正義南路169號","121.49888","25.0574766666667","6500200","三重區"
"241013","742-BX","2018/06/19 21:09:24","新北市三重區仁愛街141巷21號","121.496655","25.0757616666667","6500200","三重區"
"241005","262-UM","2018/06/19 21:09:33","新北市三重區三信路186號","121.487908333333","25.0861266666667","6500200","三重區"
"241003","265-UM","2018/06/19 21:09:36","新北市三重區仁義街337-1號","121.494978333333","25.0848","6500200","三重區"
"241016","266-UM","2018/06/19 21:09:31","新北市三重區信義西街138號","121.495553333333","25.064325","6500200","三重區"
"241009","267-UM","2018/06/19 21:09:35","新北市三重區忠孝路二段122號","121.483036666667","25.0687916666667","6500200","三重區"
"241018","268-UM","2018/06/19 21:09:26","新北市三重區正義北路332-1號","121.494345","25.0705416666667","6500200","三重區"
"241032","269-UM","2018/06/19 21:09:25","新北市三重區光復路二段175號","121.472558333333","25.061535","6500200","三重區"
"241025","271-UM","2018/06/19 21:09:28","新北市三重區中正北路208巷10弄4號","121.48233","25.066915","6500200","三重區"
"241007","398-BY","2018/06/19 21:09:37","新北市三重區三和路四段145巷81號","121.486423333333","25.078665","6500200","三重區"
"241002","413-TH","2018/06/19 21:09:41","新北市三重區五華街20號","121.494823333333","25.08042","6500200","三重區"
"241004","475-VK","2018/06/19 21:09:40","新北市三重區仁愛街420號","121.490373333333","25.08141","6500200","三重區"
"241020","478-VK","2018/06/19 21:09:40","新北市三重區忠孝路二段35號","121.4859","25.07111","6500200","三重區"
"241030","480-VK","2018/06/19 21:09:24","新北市三重區五谷王北街20巷15弄1號","121.474996666667","25.0484816666667","6500200","三重區"
"241014","543-UM","2018/06/19 21:09:40","新北市三重區長安街82-1號","121.501393333333","25.067735","6500200","三重區"
"241001","547-UM","2018/06/19 21:09:25","新北市三重區福隆路97號","121.492353333333","25.0783283333333","6500200","三重區"
"241019","KEA-2593","2018/06/19 21:09:34","新北市三重區三張街104號","121.487893333333","25.0698883333333","6500200","三重區"
"241006","AAD-863","2018/06/19 21:09:31","新北市三重區中正北路2號","121.4893","25.0632283333333","6500200","三重區"
"241023","887-TS","2018/06/19 21:09:37","新北市三重區洛陽街45巷15號","121.482371666667","25.0637483333333","6500200","三重區"
"241012","941-UM","2018/06/19 21:09:26","新北市三重區龍濱路190號","121.501108333333","25.0732766666667","6500200","三重區"
"241029","942-UM","2018/06/19 21:09:44","新北市三重區正義南路111號","121.498218333333","25.05855","6500200","三重區"
"241033","AAC-255","2018/06/19 21:09:31","新北市三重區中興北街242-2號","121.469025","25.0622883333333","6500200","三重區"
"247024","893-R6","2018/06/19 21:09:40","新北市蘆洲區長興路50巷1號","121.46378","25.08378","6501400","蘆洲區"
"247014","546-UM","2018/06/19 21:09:41","新北市蘆洲區中央路155號","121.472656666667","25.08469","6501400","蘆洲區"
"247022","500-BY","2018/06/19 21:09:41","新北市蘆洲區三民路251號","121.468316666667","25.0893533333333","6501400","蘆洲區"
"247012","339-TH","2018/06/19 21:09:41","新北市蘆洲區民權路8-1號","121.47671","25.085765","6501400","蘆洲區"
"247004","337-TH","2018/06/19 21:09:42","新北市蘆洲區永安南路二段286號","121.457595","25.08134","6501400","蘆洲區"
"247006","336-TH","2018/06/19 21:09:24","新北市蘆洲區九芎街15巷12號","121.46787","25.0778933333333","6501400","蘆洲區"
"247018","057-VK","2018/06/19 21:09:35","新北市蘆洲區民族路408巷7號","121.474731666667","25.091855","6501400","蘆洲區"
"247008","056-VK","2018/06/19 21:09:32","新北市蘆洲區民生街47號","121.475","25.07884","6501400","蘆洲區"
"247010","053-VK","2018/06/19 21:09:38","新北市蘆洲區鷺江街48號","121.477225","25.083195","6501400","蘆洲區"
"247016","007-UY","2018/06/19 21:09:27","新北市蘆洲區中正路185巷92號","121.46538","25.083825","6501400","蘆洲區"
"247002","002-UY","2018/06/19 21:09:36","新北市蘆洲區長榮路387號","121.45926","25.089645","6501400","蘆洲區"
"247020","001-UY","2018/06/19 21:09:32","新北市蘆洲區民族路488號","121.471101666667","25.0912916666667","6501400","蘆洲區"
"251013","KEA-2871","2018/06/19 21:09:33","新北市淡水區行忠路328號","121.460513333333","25.19957","6501000","淡水區"
"251016","179-VK","2018/06/19 21:09:29","新北市淡水區前洲子6-1號","121.442205","25.219005","6501000","淡水區"
"251014","180-VK","2018/06/19 21:09:35","新北市淡水區六塊厝1-1號","121.449628333333","25.2428733333333","6501000","淡水區"
"251015","182-VK","2018/06/19 21:09:41","新北市淡水區淡金路四段542巷90號","121.454611666667","25.2253316666667","6501000","淡水區"
"251010","413-VK","2018/06/19 21:09:26","新北市淡水區中正路一段86號","121.424353333333","25.177645","6501000","淡水區"
"251012","441-VK","2018/06/19 21:09:37","新北市淡水區淡金路五段172號","121.457101666667","25.2400366666667","6501000","淡水區"
"251007","442-VK","2018/06/19 21:09:28","新北市淡水區英專路42-1號","121.445651666667","25.17042","6501000","淡水區"
"251005","443-VK","2018/06/19 21:09:29","新北市淡水區英專路2巷27號","121.446428333333","25.1694016666667","6501000","淡水區"
"251001","559-UM","2018/06/19 21:09:42","新北市淡水區新市一路三段101巷16弄1號","121.446165","25.1837366666667","6501000","淡水區"
"251009","575-R6","2018/06/19 21:09:28","新北市淡水區民族路112巷36號","121.461991666667","25.134505","6501000","淡水區"
"251011","650-BX","2018/06/19 21:09:29","新北市淡水區新民街120巷45弄24號","121.43788","25.1796733333333","6501000","淡水區"
"251002","672-BX","2018/06/19 21:09:43","新北市淡水區學府路172巷21號","121.448056666667","25.1745266666667","6501000","淡水區"
"251003","673-BX","2018/06/19 21:09:35","新北市淡水區新春街95-1號","121.43951","25.1826416666667","6501000","淡水區"
"221029","298-VK","2018/06/19 21:09:28","新北市汐止區康寧街901號","121.651715","25.07491","6501100","汐止區"
"220070","AAC-253","2018/06/19 21:09:31","新北市八里區中山路三段409號","121.368675","25.135775","6500100","板橋區"
