"lineid","car","time","location","longitude","latitude","cityid","cityname"
"249002","305-UY","2018/06/19 21:19:33","新北市八里區博物館路67號","121.411633333333","25.16127","6502300","八里區"
"243001","297-R6","2018/06/19 21:18:25","新北市泰山區黎明路25號","121.421785","25.060895","6501600","泰山區"
"243006","680-BX","2018/06/19 21:07:17","新北市泰山區黎明路25號","121.422118333333","25.060715","6501600","泰山區"
"231059","046-UY","2018/06/19 21:19:30","新北市新店區薏仁坑路自強巷6號","121.496615","24.9584533333333","6500600","新店區"
"231040","047-UY","2018/06/19 21:19:31","新北市新店區北新路一段225號","121.540543333333","24.965365","6500600","新店區"
"231048","187-VK","2018/06/19 21:19:30","新北市新店區中正路401號","121.534433333333","24.9775283333333","6500600","新店區"
"231054","KEA-2219","2018/06/19 21:19:36","新北市新店區中興路一段222號","121.543966666667","24.9659533333333","6500600","新店區"
"231051","278-BY","2018/06/19 21:19:32","新北市新店區環河路550號","121.52624","24.9843333333333","6500600","新店區"
"231050","AAD-862","2018/06/19 21:19:33","新北市新店區三民路14號","121.539441666667","24.9721183333333","6500600","新店區"
"231065","512-UM","2018/06/19 21:19:43","新北市新店區安康路二段446號","121.49557","24.9547666666667","6500600","新店區"
"231063","616-UM","2018/06/19 21:19:45","新北市新店區吉祥街6巷1號","121.49769","24.94561","6500600","新店區"
"231060","897-TW","2018/06/19 21:19:40","新北市新店區薏仁坑路自強巷6號","121.496345","24.9582616666667","6500600","新店區"
"241011","013-R5","2018/06/19 21:19:39","新北市三重區龍濱路197號","121.501833333333","25.071395","6500200","三重區"
"241028","022-UY","2018/06/19 21:19:27","新北市三重區正義南路169號","121.498933333333","25.05754","6500200","三重區"
"241008","059-VK","2018/06/19 21:19:44","新北市三重區自強路一段66號","121.497151666667","25.066515","6500200","三重區"
"241031","061-VK","2018/06/19 21:19:39","新北市三重區五谷王南街46巷37號","121.47571","25.0455266666667","6500200","三重區"
"241017","063-VK","2018/06/19 21:19:42","新北市三重區國隆路30號","121.492328333333","25.06438","6500200","三重區"
"241024","065-VK","2018/06/19 21:19:36","新北市三重區中正北路145巷8弄2號","121.48406","25.0678033333333","6500200","三重區"
"241026","066-VK","2018/06/19 21:19:29","新北市三重區大同南路157號","121.496671666667","25.05625","6500200","三重區"
"241013","742-BX","2018/06/19 21:19:44","新北市三重區仁愛街66號","121.495755","25.0732533333333","6500200","三重區"
"241005","262-UM","2018/06/19 21:19:34","新北市三重區三信路186號","121.487825","25.08615","6500200","三重區"
"241003","265-UM","2018/06/19 21:19:36","新北市三重區仁義街317號","121.495458333333","25.08423","6500200","三重區"
"241016","266-UM","2018/06/19 21:19:31","新北市三重區自強路一段99號","121.495786666667","25.06636","6500200","三重區"
"241009","267-UM","2018/06/19 21:19:35","新北市三重區忠孝路三段53號","121.480993333333","25.0664883333333","6500200","三重區"
"241018","268-UM","2018/06/19 21:19:26","新北市三重區忠孝路三段1號","121.481896666667","25.0676666666667","6500200","三重區"
"241032","269-UM","2018/06/19 21:19:45","新北市三重區光華路14號","121.470096666667","25.0598216666667","6500200","三重區"
"241025","271-UM","2018/06/19 21:19:28","新北市三重區中正北路208巷10弄4號","121.482368333333","25.06689","6500200","三重區"
"241007","398-BY","2018/06/19 21:19:37","新北市三重區忠孝路一段61號","121.490868333333","25.0719633333333","6500200","三重區"
"241002","413-TH","2018/06/19 21:19:41","新北市三重區自強路五段65號","121.494785","25.082025","6500200","三重區"
"241004","475-VK","2018/06/19 21:19:40","新北市三重區碧華街284-1號","121.48929","25.0830866666667","6500200","三重區"
"241030","480-VK","2018/06/19 21:19:24","新北市三重區五谷王北街181-1號","121.47723","25.0542","6500200","三重區"
"241014","543-UM","2018/06/19 21:19:40","新北市三重區萬全街9號","121.499353333333","25.0696983333333","6500200","三重區"
"241001","547-UM","2018/06/19 21:19:25","新北市三重區仁愛街465號","121.489471666667","25.0819583333333","6500200","三重區"
"241019","KEA-2593","2018/06/19 21:19:34","新北市三重區重陽路三段7-2號","121.489056666667","25.0665666666667","6500200","三重區"
"241006","AAD-863","2018/06/19 21:19:31","新北市三重區新北大道一段168號","121.483693333333","25.0615966666667","6500200","三重區"
"241023","887-TS","2018/06/19 21:19:37","新北市三重區中正北路176巷27號","121.482641666667","25.0659216666667","6500200","三重區"
"241012","941-UM","2018/06/19 21:19:26","新北市三重區龍門路282號","121.50187","25.07406","6500200","三重區"
"241033","AAC-255","2018/06/19 21:19:44","新北市三重區光復路二段102巷23號","121.470298333333","25.057955","6500200","三重區"
"247024","893-R6","2018/06/19 21:19:40","新北市蘆洲區長榮路269巷22號","121.459635","25.0860866666667","6501400","蘆洲區"
"247014","546-UM","2018/06/19 21:19:41","新北市蘆洲區保和街50-5號","121.469798333333","25.0863133333333","6501400","蘆洲區"
"247022","500-BY","2018/06/19 21:19:40","新北市蘆洲區三民路243號","121.469021666667","25.08889","6501400","蘆洲區"
"247012","339-TH","2018/06/19 21:19:41","新北市蘆洲區民族路236巷8號","121.480311666667","25.088535","6501400","蘆洲區"
"247004","337-TH","2018/06/19 21:19:26","新北市蘆洲區永安南路二段322號","121.456925","25.0827083333333","6501400","蘆洲區"
"247006","336-TH","2018/06/19 21:19:44","新北市蘆洲區長安街72號","121.462526666667","25.08013","6501400","蘆洲區"
"247018","057-VK","2018/06/19 21:19:35","新北市蘆洲區復興路105巷11號","121.476348333333","25.0883783333333","6501400","蘆洲區"
"247008","056-VK","2018/06/19 21:19:32","新北市蘆洲區中山一路97巷23號","121.475965","25.0808333333333","6501400","蘆洲區"
"247010","053-VK","2018/06/19 21:19:38","新北市蘆洲區鷺江街16-1號","121.478868333333","25.0824983333333","6501400","蘆洲區"
"247002","002-UY","2018/06/19 21:19:36","新北市蘆洲區永樂街80號","121.456758333333","25.0886133333333","6501400","蘆洲區"
"247020","001-UY","2018/06/19 21:19:32","新北市蘆洲區民族路426巷66號","121.472655","25.0941666666667","6501400","蘆洲區"
"251013","KEA-2871","2018/06/19 21:19:33","新北市淡水區行忠路328號","121.460503333333","25.199575","6501000","淡水區"
"251016","179-VK","2018/06/19 21:19:29","新北市淡水區前洲子28號","121.441226666667","25.2190983333333","6501000","淡水區"
"251014","180-VK","2018/06/19 21:19:35","新北市淡水區六塊厝2-1號","121.450121666667","25.2404583333333","6501000","淡水區"
"251008","181-VK","2018/06/19 21:19:35","新北市淡水區水源街二段225號","121.460131666667","25.1764866666667","6501000","淡水區"
"251015","182-VK","2018/06/19 21:19:40","新北市淡水區淡金路四段540號","121.451763333333","25.2268166666667","6501000","淡水區"
"251010","413-VK","2018/06/19 21:19:26","新北市淡水區中正路一段156巷51號","121.421815","25.1808733333333","6501000","淡水區"
"251012","441-VK","2018/06/19 21:19:37","新北市淡水區淡金路五段35巷46號","121.452461666667","25.2347533333333","6501000","淡水區"
"251007","442-VK","2018/06/19 21:19:29","新北市淡水區水源街二段160-10號","121.454536666667","25.175115","6501000","淡水區"
"251005","443-VK","2018/06/19 21:19:28","新北市淡水區仁愛街18巷8號","121.446966666667","25.17031","6501000","淡水區"
"251001","559-UM","2018/06/19 21:19:42","新北市淡水區中山北路二段195號","121.4443","25.1854583333333","6501000","淡水區"
"251006","561-UM","2018/06/19 21:19:39","新北市淡水區中正路261號","121.431123333333","25.175055","6501000","淡水區"
"251009","575-R6","2018/06/19 21:19:31","新北市淡水區民族路82號","121.462423333333","25.1355833333333","6501000","淡水區"
"251011","650-BX","2018/06/19 21:19:29","新北市淡水區新民街120巷29號","121.438843333333","25.1788","6501000","淡水區"
"251003","673-BX","2018/06/19 21:19:35","新北市淡水區崁頂15-5號","121.438906666667","25.1859466666667","6501000","淡水區"
"220070","AAC-253","2018/06/19 21:19:31","新北市五股區凌雲路三段24巷21-6號","121.434221666667","25.107385","6500100","板橋區"
