"lineid","car","time","location","longitude","latitude","cityid","cityname"
"234040","862-TW","2018/06/19 21:29:28","新北市永和區福和路1號","121.526008333333","25.0096","6500400","永和區"
"243001","297-R6","2018/06/19 21:18:25","新北市泰山區黎明路25號","121.421785","25.060895","6501600","泰山區"
"243006","680-BX","2018/06/19 21:07:17","新北市泰山區黎明路25號","121.422118333333","25.060715","6501600","泰山區"
"231048","187-VK","2018/06/19 21:29:30","新北市新店區安德街60巷5號","121.509713333333","24.9626916666667","6500600","新店區"
"231063","616-UM","2018/06/19 21:29:25","新北市新店區如意街51號","121.493351666667","24.947235","6500600","新店區"
"231060","897-TW","2018/06/19 21:29:40","新北市新店區薏仁坑路自強巷6號","121.496415","24.95838","6500600","新店區"
"241017","063-VK","2018/06/19 21:29:42","新北市三重區中正北路25巷2號","121.493203333333","25.0626716666667","6500200","三重區"
"241024","065-VK","2018/06/19 21:29:36","新北市三重區中正北路115巷6號","121.483983333333","25.0677","6500200","三重區"
"241005","262-UM","2018/06/19 21:29:33","新北市三重區仁華街75號","121.485628333333","25.0828883333333","6500200","三重區"
"241003","265-UM","2018/06/19 21:29:36","新北市三重區集賢路87-1號","121.493626666667","25.086865","6500200","三重區"
"241016","266-UM","2018/06/19 21:29:31","新北市三重區大同北路71號","121.495226666667","25.0638083333333","6500200","三重區"
"241007","398-BY","2018/06/19 21:29:37","新北市三重區正義北路113號","121.496906666667","25.0656016666667","6500200","三重區"
"241006","AAD-863","2018/06/19 21:28:31","新北市五股區中直路15-2號","121.423718333333","25.1109133333333","6500200","三重區"
"247022","500-BY","2018/06/19 21:29:40","新北市蘆洲區中正路513巷20號","121.460596666667","25.0969366666667","6501400","蘆洲區"
"247006","336-TH","2018/06/19 21:29:24","新北市蘆洲區中原路23號","121.460305","25.0828366666667","6501400","蘆洲區"
"247010","053-VK","2018/06/19 21:29:38","新北市蘆洲區中山二路62號","121.473611666667","25.082035","6501400","蘆洲區"
"251004","009-UM","2018/06/19 21:29:39","新北市淡水區民權路119號","121.46021","25.1369633333333","6501000","淡水區"
"251013","KEA-2871","2018/06/19 21:29:33","新北市淡水區埤島61-3號","121.459956666667","25.1954833333333","6501000","淡水區"
"251016","179-VK","2018/06/19 21:29:29","新北市淡水區前洲子28號","121.441228333333","25.2191216666667","6501000","淡水區"
"251014","180-VK","2018/06/19 21:29:35","新北市淡水區六塊厝2-5號","121.44935","25.2402683333333","6501000","淡水區"
"251008","181-VK","2018/06/19 21:29:35","新北市淡水區水源街二段122號","121.453016666667","25.1746433333333","6501000","淡水區"
"251015","182-VK","2018/06/19 21:29:40","新北市淡水區淡金路三段33號","121.446701666667","25.1978516666667","6501000","淡水區"
"251010","413-VK","2018/06/19 21:29:26","新北市淡水區沙崙路25巷21號","121.420626666667","25.182455","6501000","淡水區"
"251012","441-VK","2018/06/19 21:29:37","新北市淡水區淡金路五段35巷46號","121.452453333333","25.2347433333333","6501000","淡水區"
"251007","442-VK","2018/06/19 21:29:28","新北市淡水區水源街二段179號","121.455271666667","25.1759066666667","6501000","淡水區"
"251005","443-VK","2018/06/19 21:29:28","新北市淡水區水源街一段34巷8號","121.443166666667","25.1718466666667","6501000","淡水區"
"251001","559-UM","2018/06/19 21:29:42","新北市淡水區濱海路一段221號","121.437188333333","25.1898566666667","6501000","淡水區"
"251006","561-UM","2018/06/19 21:29:39","新北市淡水區公明街74號","121.443868333333","25.1683633333333","6501000","淡水區"
"251009","575-R6","2018/06/19 21:29:28","新北市淡水區民族路65巷68號","121.463655","25.1361016666667","6501000","淡水區"
"251011","650-BX","2018/06/19 21:29:30","新北市淡水區真理街32號","121.436838333333","25.1785633333333","6501000","淡水區"
"251003","673-BX","2018/06/19 21:29:35","新北市淡水區崁頂15-5號","121.438978333333","25.1858616666667","6501000","淡水區"
"220070","AAC-253","2018/06/19 21:29:32","新北市新莊區立信三街35巷19號","121.442155","25.050975","6500100","板橋區"
