"lineid","car","time","location","longitude","latitude","cityid","cityname"
"234040","862-TW","2018/06/19 21:45:19","新北市永和區福和路1號","121.526411666667","25.0097","6500400","永和區"
"235010","733-UM","2018/06/19 21:36:47","新北市中和區員山路36巷13號","121.484098333333","24.9909033333333","6500300","中和區"
"247010","053-VK","2018/06/19 21:59:38","新北市八里區中山路三段409號","121.36833","25.1350033333333","6501400","蘆洲區"
"251004","009-UM","2018/06/19 21:59:18","新北市淡水區民權路92巷35-1號","121.462163333333","25.1266533333333","6501000","淡水區"
"251008","181-VK","2018/06/19 21:59:35","新北市淡水區學府路104號","121.449833333333","25.1717933333333","6501000","淡水區"
"251010","413-VK","2018/06/19 21:59:26","新北市淡水區中正路二段211號","121.426216666667","25.1891083333333","6501000","淡水區"
"251007","442-VK","2018/06/19 21:59:28","新北市淡水區北新路184巷62號","121.450991666667","25.1776083333333","6501000","淡水區"
"251005","443-VK","2018/06/19 21:59:28","新北市淡水區鄧公路30巷1弄67號","121.454451666667","25.16958","6501000","淡水區"
"251006","561-UM","2018/06/19 21:59:39","新北市淡水區中正路11巷3號","121.437815","25.170745","6501000","淡水區"
"251011","650-BX","2018/06/19 21:59:29","新北市淡水區水碓街7號","121.443185","25.1770633333333","6501000","淡水區"
"251002","672-BX","2018/06/19 21:59:43","新北市淡水區中正路177號","121.438546666667","25.1713233333333","6501000","淡水區"
"251003","673-BX","2018/06/19 21:59:35","新北市淡水區新春街117號","121.441391666667","25.18196","6501000","淡水區"
