"lineid","car","time","location","longitude","latitude","cityid","cityname"
"244002","248-BX","2018/12/04 08:19:15","新北市林口區下福里99-99號","121.285705","25.1161133333333","6501700","林口區"
"222004","289-BY","2018/12/04 08:11:35","新北市深坑區昇高坑路43號","121.629333333333","24.9968416666667","6501800","深坑區"
"231007","189-VK","2018/12/04 08:19:15","新北市新店區新潭路一段100-3號","121.527211666667","24.93781","6500600","新店區"
"231009","192-VK","2018/12/04 08:19:21","新北市新店區新烏路二段301號","121.549485","24.9113916666667","6500600","新店區"
"235001","611-BX","2018/12/04 08:19:06","新北市中和區錦和路350-1號","121.490733333333","24.993545","6500300","中和區"
"235001","157-BY","2018/12/04 08:19:04","新北市中和區圓通路435-1號","121.48794","24.9858733333333","6500300","中和區"
"226005","5620-A6","2018/12/04 08:19:08","新北市平溪區南山里南山坪119號","121.78355","25.0443783333333","6502400","平溪區"
"226002","7418-A5","2018/12/04 08:19:17","新北市平溪區南山里南山坪15號","121.767761666667","25.033465","6502400","平溪區"
"226006","AGD-0702","2018/12/04 08:19:14","新北市平溪區新寮里石碣11號","121.787868333333","25.0581816666667","6502400","平溪區"
"223006","022-BY","2018/12/04 08:19:12","新北市坪林區上坑子口19-1號","121.704205","24.9484466666667","6501900","石碇區"
"223002","KEA-2673","2018/12/04 08:00:53","新北市石碇區大格門5號","121.666338333333","24.957435","6501900","石碇區"
"223003","205-TH","2018/12/04 08:07:56","新北市石碇區崩山36-1號","121.67155","24.9581766666667","6501900","石碇區"
"223004","437-BY","2018/12/04 08:19:04","新北市石碇區碇坪路一段48號","121.655518333333","24.9918916666667","6501900","石碇區"
"223001","592-UM","2018/12/04 08:13:35","新北市石碇區樟空子10-1號","121.666943333333","24.9623916666667","6501900","石碇區"
"223007","661-BX","2018/12/04 08:19:06","新北市石碇區大溪墘2-3號","121.698313333333","25.0091283333333","6501900","石碇區"
"223005","677-TV","2018/12/04 08:19:15","新北市石碇區碇坪路一段48號","121.655553333333","24.9919633333333","6501900","石碇區"
"227006","282-VK","2018/12/04 08:19:20","新北市雙溪區牡丹里下坑17號","121.851476666667","25.0561016666667","6502500","雙溪區"
"252004","249-BX","2018/12/04 08:19:05","新北市三芝區興華里車埕60號","121.49867","25.1969366666667","6502100","三芝區"
"252007","AAC-283","2018/12/04 08:19:13","新北市三芝區後厝里大片頭77-3號","121.460156666667","25.2463266666667","6502100","三芝區"
"237001","361-BY","2018/12/04 08:19:10","新北市三峽區學成路283號","121.375918333333","24.943395","6500900","三峽區"
"220002","741-BX","2018/12/04 08:19:07","新北市鶯歌區中正一路113-1號","121.370763333333","24.9585633333333","6500100","板橋區"
