"lineid","car","time","location","longitude","latitude","cityid","cityname"
"222004","289-BY","2018/12/04 08:49:15","新北市深坑區王軍寮1-10號","121.617663333333","24.988945","6501800","深坑區"
"231007","189-VK","2018/12/04 08:49:15","新北市新店區小坑二路2巷11號","121.531265","24.9170033333333","6500600","新店區"
"231009","192-VK","2018/12/04 08:49:21","新北市新店區松林路5號","121.546893333333","24.9114716666667","6500600","新店區"
"235001","611-BX","2018/12/04 08:47:06","新北市中和區國光街58號","121.470578333333","25.000265","6500300","中和區"
"226005","5620-A6","2018/12/04 08:49:08","新北市平溪區十分里十分街124號","121.777131666667","25.043195","6502400","平溪區"
"226002","7418-A5","2018/12/04 08:43:16","新北市平溪區東勢里東勢格11號","121.735251666667","25.002985","6502400","平溪區"
"226006","AGD-0702","2018/12/04 08:49:14","新北市平溪區十分里十分街212號","121.779423333333","25.044165","6502400","平溪區"
"223006","022-BY","2018/12/04 08:49:05","新北市石碇區雙溪48號","121.651448333333","25.0064316666667","6501900","石碇區"
"223003","205-TH","2018/12/04 08:49:05","新北市石碇區北宜路六段柑腳巷2號","121.65952","24.938025","6501900","石碇區"
"223004","437-BY","2018/12/04 08:49:24","新北市石碇區崩山53號","121.682413333333","24.9688966666667","6501900","石碇區"
"223001","592-UM","2018/12/04 08:49:15","新北市石碇區北宜路六段柑腳巷2號","121.659606666667","24.9380533333333","6501900","石碇區"
"223007","661-BX","2018/12/04 08:39:08","新北市石碇區小粗坑(潭邊里)9-2號","121.678736666667","24.985985","6501900","石碇區"
"223005","677-TV","2018/12/04 08:47:14","新北市石碇區崩山53號","121.682415","24.9688916666667","6501900","石碇區"
"227006","282-VK","2018/12/04 08:49:20","新北市雙溪區上林里大瀨1號","121.83","25.025245","6502500","雙溪區"
"227012","030-BX","2018/12/04 08:49:02","新北市雙溪區泰平里料角坑32號","121.796236666667","24.9741166666667","6502500","雙溪區"
"252004","249-BX","2018/12/04 08:49:05","新北市三芝區興華里田心子16號","121.493343333333","25.2042883333333","6502100","三芝區"
"252007","AAC-283","2018/12/04 08:49:13","新北市三芝區後厝里番子崙10-1號","121.489116666667","25.2390966666667","6502100","三芝區"
"237001","361-BY","2018/12/04 08:49:10","新北市三峽區中山路459巷163-1號","121.349313333333","24.9335083333333","6500900","三峽區"
"220002","741-BX","2018/12/04 08:49:07","新北市鶯歌區鶯桃路110-1號","121.338721666667","24.9543083333333","6500100","板橋區"
