"lineid","car","time","location","longitude","latitude","cityid","cityname"
"222004","289-BY","2018/12/04 08:59:15","新北市深坑區大崙尾4號","121.613405","24.9749166666667","6501800","深坑區"
"231007","189-VK","2018/12/04 08:59:15","新北市新店區新潭路二段102號","121.515448333333","24.9244366666667","6500600","新店區"
"231009","192-VK","2018/12/04 08:59:21","新北市新店區廣興路60巷1-1號","121.539396666667","24.9140316666667","6500600","新店區"
"235001","611-BX","2018/12/04 08:59:26","新北市中和區莒光路185號","121.472701666667","24.9990566666667","6500300","中和區"
"226002","7418-A5","2018/12/04 08:43:16","新北市平溪區東勢里東勢格11號","121.735251666667","25.002985","6502400","平溪區"
"226006","AGD-0702","2018/12/04 08:58:14","新北市平溪區望古里望古坑21-5號","121.760141666667","25.0337166666667","6502400","平溪區"
"223006","022-BY","2018/12/04 08:59:25","新北市石碇區溪邊寮1-1號","121.658473333333","24.978675","6501900","石碇區"
"223003","205-TH","2018/12/04 08:59:05","新北市石碇區北宜路六段十三股巷3號","121.649735","24.944155","6501900","石碇區"
"223004","437-BY","2018/12/04 08:59:24","新北市石碇區磨石坑36-9號","121.690003333333","24.9650533333333","6501900","石碇區"
"223001","592-UM","2018/12/04 08:59:15","新北市石碇區北宜路六段十三股巷1號","121.649256666667","24.947505","6501900","石碇區"
"223007","661-BX","2018/12/04 08:39:08","新北市石碇區小粗坑(潭邊里)9-2號","121.678736666667","24.985985","6501900","石碇區"
"223005","677-TV","2018/12/04 08:59:25","新北市石碇區磨石坑33號","121.692653333333","24.96824","6501900","石碇區"
"227006","282-VK","2018/12/04 08:59:20","新北市雙溪區上林里內平林100-1號","121.825778333333","25.0252583333333","6502500","雙溪區"
"227012","030-BX","2018/12/04 08:49:42","新北市雙溪區泰平里料角坑32號","121.796838333333","24.9737566666667","6502500","雙溪區"
"252004","249-BX","2018/12/04 08:59:25","新北市三芝區興華里田心子31號","121.48884","25.2004783333333","6502100","三芝區"
"252007","AAC-283","2018/12/04 08:59:13","新北市三芝區後厝里北勢子22號","121.473335","25.253375","6502100","三芝區"
"237001","159-UY","2018/12/04 08:59:19","新北市三峽區復興路553號","121.356751666667","24.940295","6500900","三峽區"
"220002","741-BX","2018/12/04 08:59:06","新北市鶯歌區中正一路481號","121.373485","24.95978","6500100","板橋區"
