"lineid","car","time","location","longitude","latitude","cityid","cityname"
"231007","189-VK","2018/12/04 09:59:15","新北市新店區新潭路三段215巷25號","121.507978333333","24.9039716666667","6500600","新店區"
"231009","192-VK","2018/12/04 09:55:41","新北市新店區小坑一路21-1號","121.532273333333","24.912795","6500600","新店區"
"227006","282-VK","2018/12/04 09:39:40","新北市雙溪區長源里柑腳58-1號","121.794111666667","25.006565","6502500","雙溪區"
"227012","030-BX","2018/12/04 09:59:22","新北市坪林區鷺鶿岫4-1號","121.787751666667","24.9558516666667","6502500","雙溪區"
"252004","249-BX","2018/12/04 09:59:05","新北市三芝區福德里土地公埔62號","121.51628","25.22428","6502100","三芝區"
"252007","AAC-283","2018/12/04 09:59:13","新北市三芝區新庄里番社后43號","121.504441666667","25.2712616666667","6502100","三芝區"
"237001","159-UY","2018/12/04 09:59:19","新北市三峽區國際一街56號","121.372838333333","24.942475","6500900","三峽區"
