"lineid","car","time","location","longitude","latitude","cityid","cityname"
"234044","148-BY","2018/12/04 12:38:58","新北市永和區永元路94號","121.52256","25.0016433333333","6500400","永和區"
"234036","336-UY","2018/12/04 12:39:11","新北市永和區福和路1號","121.52662","25.0101633333333","6500400","永和區"
"234062","337-UY","2018/12/04 12:39:09","新北市永和區福和路1號","121.526676666667","25.0100933333333","6500400","永和區"
"234078","553-UM","2018/12/04 12:39:09","新北市永和區林森路89號","121.523745","25.0037416666667","6500400","永和區"
"234015","745-BX","2018/12/04 12:39:15","新北市永和區福和路1號","121.526285","25.0096633333333","6500400","永和區"
"234028","746-BX","2018/12/04 12:39:08","新北市永和區得和路293號","121.52271","24.9995883333333","6500400","永和區"
"234012","KEA-2591","2018/12/04 12:39:17","新北市永和區環河西路一段83號","121.512838333333","25.0182016666667","6500400","永和區"
"234060","AAD-866","2018/12/04 12:39:17","新北市永和區福和路1號","121.52602","25.0095033333333","6500400","永和區"
"234084","748-BX","2018/12/04 12:39:03","新北市中和區安樂路73-1號","121.512675","24.9940066666667","6500400","永和區"
"234040","862-TW","2018/12/04 12:39:24","新北市永和區永貞路265號","121.511756666667","25.0047566666667","6500400","永和區"
"234025","9372-KE","2018/12/04 12:39:22","新北市永和區福和路1號","121.526675","25.0098916666667","6500400","永和區"
"234010","9373-KE","2018/12/04 12:39:10","新北市永和區福和路1號","121.525595","25.0093483333333","6500400","永和區"
"234022","9380-KE","2018/12/04 12:39:06","新北市永和區福和路1號","121.525403333333","25.009395","6500400","永和區"
"234076","969-R7","2018/12/04 12:39:23","新北市中和區安樂路101-3號","121.513508333333","24.9950733333333","6500400","永和區"
"234001","AAC-295","2018/12/04 12:39:10","新北市永和區福和路1號","121.526601666667","25.00998","6500400","永和區"
"231005","106-UY","2018/12/04 12:39:05","新北市新店區安華路28-1號","121.519655","24.9608616666667","6500600","新店區"
"231036","512-UM","2018/12/04 12:39:20","新北市新店區安一路一段1-1號","121.519383333333","24.961235","6500600","新店區"
"231035","719-UM","2018/12/04 12:39:12","新北市新店區安一路一段1-1號","121.519581666667","24.9613983333333","6500600","新店區"
"235031","255-BX","2018/12/04 12:39:19","新北市中和區新生街163號","121.483668333333","25.001115","6500300","中和區"
"235001","611-BX","2018/12/04 12:39:19","新北市中和區員山路127-3號","121.481046666667","24.9957716666667","6500300","中和區"
"235026","800-TS","2018/12/04 12:39:22","新北市中和區員山路36巷16-3號","121.484893333333","24.9916433333333","6500300","中和區"
"228004","212-TW","2018/12/04 12:39:09","新北市貢寮區吉林里枋腳街6-2號","121.88701","25.0075466666667","6502600","貢寮區"
"228005","828-UM","2018/12/04 12:39:17","新北市貢寮區福連里蓬萊街15號","121.994295","25.0018633333333","6502600","貢寮區"
"207002","749-BX","2018/12/04 12:39:16","新北市萬里區雙興里太和路7-2號","121.658671666667","25.1741183333333","6502800","萬里區"
"220002","741-BX","2018/12/04 12:37:50","新北市板橋區華東街1-9號","121.448135","24.994885","6500100","板橋區"
"235025","KEA-2875","2018/12/04 12:28:40","新北市中和區員山路36巷16-2號","121.485263333333","24.99167","6500300","中和區"
"235029","KEA-2876","2018/12/04 12:38:12","新北市中和區員山路36巷13號","121.483971666667","24.9911733333333","6500300","中和區"
