"lineid","car","time","location","longitude","latitude","cityid","cityname"
"234044","148-BY","2018/12/04 13:09:18","新北市永和區得和路373巷31弄12號","121.524275","25.0004983333333","6500400","永和區"
"234005","207-UY","2018/12/04 13:09:12","新北市永和區中山路一段175-1號","121.509518333333","25.0091216666667","6500400","永和區"
"234036","336-UY","2018/12/04 13:09:15","新北市永和區民樂街69巷3號","121.527468333333","24.9977383333333","6500400","永和區"
"234062","337-UY","2018/12/04 13:09:09","新北市永和區秀朗路二段48號","121.521666666667","25.00218","6500400","永和區"
"234068","552-UM","2018/12/04 13:09:06","新北市永和區豫溪街137巷2號","121.519801666667","25.0105016666667","6500400","永和區"
"234078","553-UM","2018/12/04 13:09:09","新北市永和區永亨路67號","121.521353333333","25.0059366666667","6500400","永和區"
"234015","745-BX","2018/12/04 13:09:15","新北市永和區文化路90巷17號","121.513703333333","25.0162483333333","6500400","永和區"
"234028","746-BX","2018/12/04 13:09:08","新北市永和區民生路21號","121.522838333333","24.99897","6500400","永和區"
"234052","KEA-2590","2018/12/04 13:09:19","新北市永和區竹林路72巷6號","121.518788333333","25.0128916666667","6500400","永和區"
"234012","KEA-2591","2018/12/04 13:09:17","新北市永和區保福路二段69號","121.510691666667","25.0125533333333","6500400","永和區"
"234060","AAD-866","2018/12/04 13:09:17","新北市永和區安樂路342號","121.514446666667","25.0062083333333","6500400","永和區"
"234084","748-BX","2018/12/04 13:09:23","新北市永和區永貞路73號","121.518785","25.004285","6500400","永和區"
"234040","862-TW","2018/12/04 13:09:19","新北市永和區永和路一段49巷3弄34號","121.51171","25.006055","6500400","永和區"
"234048","863-TW","2018/12/04 13:09:08","新北市永和區文化路135巷26弄2號","121.510448333333","25.0145166666667","6500400","永和區"
"234025","9372-KE","2018/12/04 13:09:22","新北市永和區自由街3號","121.515053333333","25.0071666666667","6500400","永和區"
"234010","9373-KE","2018/12/04 13:09:10","新北市永和區仁愛路38號","121.514281666667","25.013475","6500400","永和區"
"248017","225-UY","2018/12/04 13:09:04","新北市五股區新五路二段367號","121.444315","25.0879816666667","6501500","五股區"
"234022","9380-KE","2018/12/04 13:09:06","新北市永和區中興街52巷3弄4號","121.517271666667","25.01096","6500400","永和區"
"234076","969-R7","2018/12/04 13:09:23","新北市永和區民有街3號","121.516013333333","24.9971933333333","6500400","永和區"
"234072","AAC-211","2018/12/04 13:09:20","新北市永和區福和路38號","121.52375","25.0082966666667","6500400","永和區"
"234066","AAC-212","2018/12/04 13:09:20","新北市永和區保平路23號","121.512616666667","25.0074133333333","6500400","永和區"
"234001","AAC-295","2018/12/04 13:09:21","新北市永和區和平街2號","121.51426","25.010105","6500400","永和區"
"231028","046-UY","2018/12/04 13:09:15","新北市新店區安華路28-1號","121.519548333333","24.9608416666667","6500600","新店區"
"231001","047-UY","2018/12/04 13:09:20","新北市新店區安華路28-1號","121.519301666667","24.9609883333333","6500600","新店區"
"231005","106-UY","2018/12/04 13:09:05","新北市新店區安華路28-1號","121.51961","24.9608566666667","6500600","新店區"
"231012","187-VK","2018/12/04 13:09:19","新北市新店區安一路一段1-1號","121.519525","24.9610433333333","6500600","新店區"
"231003","268-BY","2018/12/04 13:09:10","新北市新店區安一路一段1-1號","121.519795","24.9611883333333","6500600","新店區"
"231015","AAD-862","2018/12/04 13:09:14","新北市新店區安一路一段1-1號","121.519763333333","24.9611583333333","6500600","新店區"
"231037","4716-K9","2018/12/04 13:09:24","新北市新店區安一路一段1-1號","121.51932","24.961155","6500600","新店區"
"231036","512-UM","2018/12/04 13:09:20","新北市新店區安一路一段1-1號","121.519525","24.9613633333333","6500600","新店區"
"231013","513-UM","2018/12/04 13:09:21","新北市新店區安一路一段1-1號","121.519598333333","24.9611216666667","6500600","新店區"
"231034","616-UM","2018/12/04 13:09:12","新北市新店區安華路28-1號","121.519403333333","24.96059","6500600","新店區"
"231030","619-UM","2018/12/04 13:09:16","新北市新店區安華路28-1號","121.519698333333","24.960785","6500600","新店區"
"231035","719-UM","2018/12/04 13:09:12","新北市新店區安一路一段1-1號","121.519481666667","24.9611916666667","6500600","新店區"
"231010","719-UY","2018/12/04 13:09:23","新北市新店區安一路一段1-1號","121.51954","24.9611016666667","6500600","新店區"
"231032","720-UM","2018/12/04 13:09:05","新北市新店區安一路一段1-1號","121.519056666667","24.9612033333333","6500600","新店區"
"235030","003-UY","2018/12/04 13:09:15","新北市中和區南山路6號","121.502021666667","24.99877","6500300","中和區"
"235028","005-UY","2018/12/04 13:09:03","新北市中和區中正路291號","121.493645","24.9937166666667","6500300","中和區"
"235027","006-UY","2018/12/04 13:09:04","新北市中和區員山路36巷16-3號","121.485006666667","24.9914033333333","6500300","中和區"
"235004","150-BY","2018/12/04 12:55:18","新北市中和區員山路36巷16-3號","121.48496","24.991335","6500300","中和區"
"235022","151-BY","2018/12/04 13:09:13","新北市中和區圓通路367巷65號","121.493155","24.9827866666667","6500300","中和區"
"235002","185-VK","2018/12/04 13:09:05","新北市中和區大勇街31巷13弄13號","121.517385","24.99404","6500300","中和區"
"235031","255-BX","2018/12/04 13:09:10","新北市中和區新生街142號","121.483571666667","25.0008466666667","6500300","中和區"
"235036","301-VK","2018/12/04 13:09:13","新北市中和區員山路36巷13號","121.484038333333","24.9911283333333","6500300","中和區"
"235006","KEA-2878","2018/12/04 13:08:47","新北市中和區和城路一段271巷1號","121.485741666667","24.99196","6500300","中和區"
"235014","4979-A6","2018/12/04 13:09:10","新北市中和區中正路273號","121.495685","24.9936766666667","6500300","中和區"
"235009","565-BX","2018/12/04 13:09:08","新北市中和區中正路637巷52弄1號","121.48542","24.9933433333333","6500300","中和區"
"235018","640-BX","2018/12/04 13:09:19","新北市土城區金城路三段257號","121.471905","24.9900216666667","6500300","中和區"
"235011","732-UM","2018/12/04 13:09:14","新北市中和區錦和路350-1號","121.490531666667","24.99355","6500300","中和區"
"235035","783-BX","2018/12/04 13:09:08","新北市中和區板南路520巷15號","121.483685","25.0088816666667","6500300","中和區"
"235026","800-TS","2018/12/04 13:09:22","新北市中和區板南路430號","121.490275","25.0046466666667","6500300","中和區"
"235005","802-TS","2018/12/04 13:09:15","新北市中和區錦和路350-1號","121.490435","24.9935933333333","6500300","中和區"
"235016","805-TS","2018/12/04 13:09:19","新北市中和區中正路277號","121.495356666667","24.99383","6500300","中和區"
"235017","900-TW","2018/12/04 13:09:15","新北市中和區員山路36巷16-2號","121.485055","24.9917183333333","6500300","中和區"
"235015","157-BY","2018/12/04 13:09:11","新北市中和區興南路一段86號","121.509931666667","24.9894016666667","6500300","中和區"
"235001","AAC-213","2018/12/04 13:09:19","新北市中和區景平路149號","121.51391","24.992095","6500300","中和區"
"228004","212-TW","2018/12/04 13:09:09","新北市貢寮區吉林里內寮街75號","121.89122","24.9715116666667","6502600","貢寮區"
"228005","828-UM","2018/12/04 13:09:17","新北市貢寮區仁理村研海街45號","121.925956666667","25.0421166666667","6502600","貢寮區"
"207002","749-BX","2018/12/04 13:09:15","新北市萬里區崁腳里崁腳路118-1號","121.644996666667","25.1585216666667","6502800","萬里區"
"207001","662-BX","2018/12/04 13:09:15","新北市萬里區萬里里瑪鋉路189號","121.690346666667","25.178695","6502800","萬里區"
"252005","AAC-283","2018/12/04 13:09:03","新北市三芝區八賢里八連溪25號","121.511675","25.239445","6502100","三芝區"
"242053","441-UM","2018/12/04 13:09:07","新北市新莊區壽山路63-5號","121.41123","25.0340083333333","6500500","新莊區"
"221010","269-BY","2018/12/04 13:09:13","新北市汐止區忠三街8號","121.624741666667","25.0783883333333","6501100","汐止區"
"221032","280-BY","2018/12/04 13:09:07","新北市汐止區大同路二段196號","121.652925","25.0646483333333","6501100","汐止區"
"221033","647-BX","2018/12/04 13:09:01","新北市汐止區秀峰路151巷3號","121.661048333333","25.0623383333333","6501100","汐止區"
"220021","985-R7","2018/12/04 13:09:13","新北市板橋區華東街1-10號","121.44833","24.9949116666667","6500100","板橋區"
"235032","KEA-2873","2018/12/04 13:09:08","新北市中和區員山路36巷16-3號","121.48501","24.9913","6500300","中和區"
"235025","KEA-2875","2018/12/04 13:08:58","新北市中和區連城路607號","121.478516666667","24.99315","6500300","中和區"
"235029","KEA-2876","2018/12/04 13:09:23","新北市中和區莊敬路49巷20弄20號","121.502668333333","25.0058416666667","6500300","中和區"
