"lineid","car","time","location","longitude","latitude","cityid","cityname"
"234044","148-BY","2018/12/04 13:19:18","新北市永和區得和路373巷6弄1號","121.524888333333","24.9999433333333","6500400","永和區"
"234005","207-UY","2018/12/04 13:19:12","新北市中和區中山路二段65號","121.504085","25.0046616666667","6500400","永和區"
"234036","336-UY","2018/12/04 13:19:21","新北市永和區民樂街51號","121.527486666667","24.998775","6500400","永和區"
"234062","337-UY","2018/12/04 13:19:09","新北市永和區永元路17巷14號","121.521503333333","25.0011666666667","6500400","永和區"
"234068","552-UM","2018/12/04 13:19:06","新北市永和區中正路605號","121.51633","25.00978","6500400","永和區"
"234078","553-UM","2018/12/04 13:19:09","新北市永和區福和路7巷7號","121.525381666667","25.0077983333333","6500400","永和區"
"234015","745-BX","2018/12/04 13:19:15","新北市永和區環河西路一段95巷19弄3號","121.51178","25.017195","6500400","永和區"
"234028","746-BX","2018/12/04 13:19:03","新北市永和區厚德街73號","121.524716666667","24.9986766666667","6500400","永和區"
"234052","KEA-2590","2018/12/04 13:19:19","新北市永和區中興街20號","121.516018333333","25.011775","6500400","永和區"
"234012","KEA-2591","2018/12/04 13:19:17","新北市永和區信義路23號","121.513943333333","25.0122583333333","6500400","永和區"
"234060","AAD-866","2018/12/04 13:19:17","新北市永和區秀朗路一段175號","121.517046666667","25.0036","6500400","永和區"
"234084","748-BX","2018/12/04 13:19:23","新北市永和區永利路69號","121.51978","25.0047333333333","6500400","永和區"
"234040","862-TW","2018/12/04 13:19:04","新北市永和區保平路151巷3號","121.510123333333","25.0055883333333","6500400","永和區"
"234048","863-TW","2018/12/04 13:19:10","新北市永和區保福路二段88巷25號","121.511673333333","25.013825","6500400","永和區"
"234025","9372-KE","2018/12/04 13:19:22","新北市永和區豫溪街42巷14號","121.515351666667","25.0092233333333","6500400","永和區"
"234010","9373-KE","2018/12/04 13:19:10","新北市永和區文化路126巷15弄2號","121.513068333333","25.0159266666667","6500400","永和區"
"248017","225-UY","2018/12/04 13:19:04","新北市五股區御史路205-1號","121.431305","25.101205","6501500","五股區"
"234022","9380-KE","2018/12/04 13:19:06","新北市永和區竹林路91巷15弄1號","121.520293333333","25.01234","6500400","永和區"
"234076","969-R7","2018/12/04 13:19:23","新北市永和區民有街100號","121.517678333333","24.9956266666667","6500400","永和區"
"234072","AAC-211","2018/12/04 13:19:20","新北市永和區復興街91號","121.517715","25.0141883333333","6500400","永和區"
"234066","AAC-212","2018/12/04 13:19:20","新北市永和區保平路95號","121.511481666667","25.0069716666667","6500400","永和區"
"234001","AAC-295","2018/12/04 13:19:10","新北市永和區中山路一段106號","121.511011666667","25.0104083333333","6500400","永和區"
"231027","0293-UT","2018/12/04 13:19:04","新北市新店區安華路28-1號","121.519536666667","24.9605583333333","6500600","新店區"
"231028","046-UY","2018/12/04 13:19:15","新北市新店區安華路28-1號","121.51956","24.96085","6500600","新店區"
"231001","047-UY","2018/12/04 13:19:20","新北市新店區安一路一段1-1號","121.519106666667","24.960985","6500600","新店區"
"231005","106-UY","2018/12/04 13:19:05","新北市新店區安華路28-1號","121.51961","24.9608166666667","6500600","新店區"
"231020","108-UY","2018/12/04 13:19:18","新北市新店區安華路28-1號","121.519326666667","24.9609316666667","6500600","新店區"
"231012","187-VK","2018/12/04 13:19:19","新北市新店區安一路一段1-1號","121.519505","24.96112","6500600","新店區"
"231018","188-VK","2018/12/04 13:19:21","新北市新店區安康路一段17號","121.53315","24.96042","6500600","新店區"
"231023","KEA-2219","2018/12/04 13:19:09","新北市新店區安一路一段1-1號","121.519625","24.9612266666667","6500600","新店區"
"231026","256-BX","2018/12/04 13:19:18","新北市新店區安一路一段1-1號","121.519548333333","24.961155","6500600","新店區"
"231003","268-BY","2018/12/04 13:19:10","新北市新店區安一路一段1-1號","121.519761666667","24.961115","6500600","新店區"
"231015","AAD-862","2018/12/04 13:19:14","新北市新店區安康路一段85號","121.5295","24.9613783333333","6500600","新店區"
"231038","3712-VJ","2018/12/04 13:19:05","新北市新店區安華路1-1號","121.519338333333","24.9604933333333","6500600","新店區"
"231037","4716-K9","2018/12/04 13:19:04","新北市新店區安華路28-1號","121.519618333333","24.96065","6500600","新店區"
"231025","4715-K9","2018/12/04 13:19:11","新北市新店區環河路116號","121.537063333333","24.9669916666667","6500600","新店區"
"231036","512-UM","2018/12/04 13:19:20","新北市新店區安忠路205巷8號","121.510035","24.95543","6500600","新店區"
"231013","513-UM","2018/12/04 13:19:21","新北市新店區安一路一段1-1號","121.519563333333","24.9611066666667","6500600","新店區"
"231034","616-UM","2018/12/04 13:19:12","新北市新店區安華路28-1號","121.519393333333","24.9605583333333","6500600","新店區"
"231006","617-UM","2018/12/04 13:19:06","新北市新店區安華路28-1號","121.519451666667","24.9610116666667","6500600","新店區"
"231030","619-UM","2018/12/04 13:19:16","新北市新店區安華路28-1號","121.51966","24.9607983333333","6500600","新店區"
"231035","719-UM","2018/12/04 13:19:12","新北市新店區安一路一段1-1號","121.519415","24.961125","6500600","新店區"
"231010","719-UY","2018/12/04 13:19:03","新北市新店區安一路一段1-1號","121.5198","24.9620683333333","6500600","新店區"
"231032","720-UM","2018/12/04 13:19:05","新北市新店區安華路28-1號","121.519536666667","24.96081","6500600","新店區"
"231029","897-TW","2018/12/04 13:19:08","新北市新店區安華路28-1號","121.519695","24.9607316666667","6500600","新店區"
"231004","898-TW","2018/12/04 13:19:05","新北市新店區安華路28-1號","121.519381666667","24.9609166666667","6500600","新店區"
"231024","AKT-0513","2018/12/04 13:19:21","新北市新店區安康路一段3-1號","121.535185","24.9608866666667","6500600","新店區"
"235030","003-UY","2018/12/04 13:19:15","新北市中和區中山路二段120號","121.502643333333","25.0037883333333","6500300","中和區"
"235028","005-UY","2018/12/04 13:19:23","新北市中和區中正路166號","121.498365","24.9937733333333","6500300","中和區"
"235027","006-UY","2018/12/04 13:19:04","新北市中和區中正路637巷60弄61號","121.485525","24.9929166666667","6500300","中和區"
"235004","150-BY","2018/12/04 13:15:58","新北市中和區圓通路252巷36弄1號","121.491995","24.9935","6500300","中和區"
"235022","151-BY","2018/12/04 13:19:09","新北市中和區圓通路367巷8號","121.49153","24.9891216666667","6500300","中和區"
"235019","183-VK","2018/12/04 13:19:10","新北市中和區連城路469巷79弄2號","121.483461666667","24.993645","6500300","中和區"
"235002","185-VK","2018/12/04 13:19:05","新北市中和區大智街42巷13號","121.522663333333","24.9920416666667","6500300","中和區"
"235013","186-VK","2018/12/04 13:19:10","新北市中和區員山路36巷13號","121.484416666667","24.99122","6500300","中和區"
"235031","255-BX","2018/12/04 13:19:10","新北市中和區員山路148巷42號","121.482496666667","24.9971","6500300","中和區"
"235036","301-VK","2018/12/04 13:19:13","新北市中和區連城路220號","121.491376666667","24.99648","6500300","中和區"
"235006","KEA-2878","2018/12/04 13:19:07","新北市中和區景平路161-1號","121.512581666667","24.992395","6500300","中和區"
"235014","4979-A6","2018/12/04 13:19:10","新北市中和區捷運路61巷14號","121.508851666667","24.9893116666667","6500300","中和區"
"235033","4980-A6","2018/12/04 13:19:15","新北市中和區圓通路299巷48弄3號","121.495826666667","24.9909916666667","6500300","中和區"
"235070","558-UM","2018/12/04 13:19:07","新北市中和區圓通路78號","121.500036666667","24.99704","6500300","中和區"
"235009","565-BX","2018/12/04 13:19:08","新北市中和區景安路200巷5號","121.503506666667","24.991595","6500300","中和區"
"235018","640-BX","2018/12/04 13:19:19","新北市中和區民享街86巷26號","121.473403333333","25.0006666666667","6500300","中和區"
"235024","647-TV","2018/12/04 13:19:10","新北市中和區連城路523巷13弄28號","121.48242","24.99363","6500300","中和區"
"235011","732-UM","2018/12/04 13:19:14","新北市中和區南山路282號","121.507898333333","24.9878816666667","6500300","中和區"
"235035","783-BX","2018/12/04 13:19:08","新北市中和區中板路18巷1弄16號","121.483648333333","25.01247","6500300","中和區"
"235026","800-TS","2018/12/04 13:19:22","新北市中和區福美路319號","121.496683333333","25.0045016666667","6500300","中和區"
"235021","801-TS","2018/12/04 13:19:18","新北市中和區民安街83號","121.477918333333","24.9997866666667","6500300","中和區"
"235005","802-TS","2018/12/04 13:19:15","新北市中和區景安路30-5號","121.507286666667","24.998415","6500300","中和區"
"235016","805-TS","2018/12/04 13:19:19","新北市中和區興南路二段94號","121.505328333333","24.9843466666667","6500300","中和區"
"235012","896-TW","2018/12/04 13:19:07","新北市中和區中正路571巷1弄4號","121.486916666667","24.9936216666667","6500300","中和區"
"235017","900-TW","2018/12/04 13:19:15","新北市中和區員山路36巷16-2號","121.485165","24.99177","6500300","中和區"
"235015","157-BY","2018/12/04 13:19:10","新北市中和區忠孝街1巷2-1號","121.509078333333","24.982985","6500300","中和區"
"235001","AAC-213","2018/12/04 13:19:19","新北市中和區景德街72號","121.516716666667","24.99161","6500300","中和區"
"220013","072-UY","2018/12/04 13:19:16","新北市板橋區華東街1-9號","121.448216666667","24.9949816666667","6500100","板橋區"
"220017","AAD-861","2018/12/04 13:19:13","新北市板橋區華東街1-10號","121.448421666667","24.9950366666667","6500100","板橋區"
"247021","001-UY","2018/12/04 13:19:09","新北市五股區中興路三段2巷10號","121.4492","25.08093","6501400","蘆洲區"
"228004","212-TW","2018/12/04 13:18:29","新北市貢寮區吉林里內寮街35-2號","121.90033","24.9817633333333","6502600","貢寮區"
"228005","828-UM","2018/12/04 13:19:17","新北市貢寮區美豐里丹裡街16-12號","121.913076666667","25.0571416666667","6502600","貢寮區"
"207002","749-BX","2018/12/04 13:19:15","新北市萬里區崁腳里崁腳路166號","121.645105","25.15583","6502800","萬里區"
"207001","662-BX","2018/12/04 13:19:15","新北市萬里區龜吼里玉田路29號","121.681133333333","25.1953133333333","6502800","萬里區"
"252005","AAC-283","2018/12/04 13:19:03","新北市三芝區圓山里木屐寮31-1號","121.52888","25.2242366666667","6502100","三芝區"
"242053","441-UM","2018/12/04 13:19:07","新北市新莊區壽山路190號","121.405685","25.0449866666667","6500500","新莊區"
"221010","269-BY","2018/12/04 13:19:13","新北市汐止區忠三街10巷8號","121.624885","25.0782166666667","6501100","汐止區"
"221032","280-BY","2018/12/04 13:19:07","新北市汐止區龍安路38-3號","121.654636666667","25.0640583333333","6501100","汐止區"
"221033","647-BX","2018/12/04 13:19:21","新北市汐止區秀峰路137巷6號","121.660778333333","25.0624416666667","6501100","汐止區"
"220030","610-BX","2018/12/04 13:19:09","新北市板橋區華東街1-9號","121.448186666667","24.994975","6500100","板橋區"
"220010","305-R5","2018/12/04 13:19:14","新北市板橋區民生路二段120號","121.470556666667","25.019765","6500100","板橋區"
"220005","686-BX","2018/12/04 13:19:12","新北市板橋區華東街1-9號","121.44818","24.9949966666667","6500100","板橋區"
"220021","985-R7","2018/12/04 13:19:13","新北市板橋區華東街1-9號","121.448235","24.994925","6500100","板橋區"
"235032","KEA-2873","2018/12/04 13:19:08","新北市中和區員山路36巷16-3號","121.485095","24.991295","6500300","中和區"
"235025","KEA-2875","2018/12/04 13:18:58","新北市中和區民德路187號","121.46837","24.9992966666667","6500300","中和區"
"235029","KEA-2876","2018/12/04 13:19:23","新北市中和區莊敬路49巷20弄20號","121.50265","25.005755","6500300","中和區"
