"lineid","car","time","location","longitude","latitude","cityid","cityname"
"234044","148-BY","2018/12/04 13:39:18","新北市永和區永元路102號","121.522675","25.00199","6500400","永和區"
"234005","207-UY","2018/12/04 13:39:12","新北市永和區永和路二段28號","121.514613333333","25.0103166666667","6500400","永和區"
"234036","336-UY","2018/12/04 13:39:11","新北市永和區民樂街39巷16號","121.528266666667","25.0003716666667","6500400","永和區"
"234062","337-UY","2018/12/04 13:39:09","新北市永和區秀朗路一段192巷6弄3號","121.51931","25.0021983333333","6500400","永和區"
"234068","552-UM","2018/12/04 13:39:06","新北市永和區永和路二段243號","121.515755","25.0147066666667","6500400","永和區"
"234078","553-UM","2018/12/04 13:39:09","新北市永和區林森路20巷7號","121.525908333333","25.0056866666667","6500400","永和區"
"234015","745-BX","2018/12/04 13:39:18","新北市永和區忠孝街26巷27弄1號","121.515243333333","25.0169133333333","6500400","永和區"
"234028","746-BX","2018/12/04 13:39:08","新北市永和區民權路1巷30號","121.52167","24.99832","6500400","永和區"
"234052","KEA-2590","2018/12/04 13:39:19","新北市永和區竹林路39巷26號","121.519021666667","25.0147766666667","6500400","永和區"
"234012","KEA-2591","2018/12/04 13:39:19","新北市永和區仁愛路186巷2號","121.509983333333","25.012635","6500400","永和區"
"234060","AAD-866","2018/12/04 13:39:17","新北市永和區中正路390號","121.517581666667","25.0014933333333","6500400","永和區"
"234084","748-BX","2018/12/04 13:39:23","新北市永和區永亨路132號","121.524675","25.0039433333333","6500400","永和區"
"234040","862-TW","2018/12/04 13:39:04","新北市中和區中和路258號","121.507591666667","24.9995966666667","6500400","永和區"
"234048","863-TW","2018/12/04 13:39:08","新北市永和區環河西路一段95巷4弄19號","121.51117","25.017165","6500400","永和區"
"234025","9372-KE","2018/12/04 13:39:22","新北市永和區永平路180巷7號","121.510881666667","25.0096716666667","6500400","永和區"
"234010","9373-KE","2018/12/04 13:39:12","新北市永和區信義路17巷24號","121.51308","25.0112416666667","6500400","永和區"
"248017","225-UY","2018/12/04 13:39:04","新北市五股區民義路二段46-2號","121.413876666667","25.1015466666667","6501500","五股區"
"234022","9380-KE","2018/12/04 13:39:06","新北市永和區中正路702巷18號","121.51647","25.0105033333333","6500400","永和區"
"234076","969-R7","2018/12/04 13:39:23","新北市永和區民權路3號","121.520241666667","24.9985266666667","6500400","永和區"
"234072","AAC-211","2018/12/04 13:39:20","新北市永和區竹林路213巷23號","121.5223","25.0090366666667","6500400","永和區"
"234066","AAC-212","2018/12/04 13:39:20","新北市永和區中山路一段177號","121.509425","25.008825","6500400","永和區"
"234001","AAC-295","2018/12/04 13:39:10","新北市永和區福和路352號","121.514725","25.0074366666667","6500400","永和區"
"231002","002-UM","2018/12/04 13:39:07","新北市新店區中央三街127號","121.524028333333","24.9768833333333","6500600","新店區"
"231027","0293-UT","2018/12/04 13:39:04","新北市新店區國校路32-3號","121.537711666667","24.9541616666667","6500600","新店區"
"231028","046-UY","2018/12/04 13:39:19","新北市新店區安和路一段23號","121.517045","24.964825","6500600","新店區"
"231001","047-UY","2018/12/04 13:39:20","新北市新店區中央路7號","121.533413333333","24.9786233333333","6500600","新店區"
"231005","106-UY","2018/12/04 13:39:25","新北市新店區寶中路72號","121.547866666667","24.9806466666667","6500600","新店區"
"231020","108-UY","2018/12/04 13:39:18","新北市新店區永興路88-1號","121.544051666667","24.93367","6500600","新店區"
"231012","187-VK","2018/12/04 13:39:19","新北市新店區德正街25巷2號","121.544358333333","24.97159","6500600","新店區"
"231018","188-VK","2018/12/04 13:39:21","新北市新店區百忍街15號","121.534605","24.9756216666667","6500600","新店區"
"231023","KEA-2219","2018/12/04 13:39:09","新北市新店區新店路143號","121.537043333333","24.954835","6500600","新店區"
"231026","256-BX","2018/12/04 13:39:18","新北市新店區中正路246號","121.539503333333","24.973195","6500600","新店區"
"231003","268-BY","2018/12/04 13:39:10","新北市新店區中正路100號","121.543321666667","24.9704433333333","6500600","新店區"
"231015","AAD-862","2018/12/04 13:39:14","新北市新店區竹林路30巷1號","121.552176666667","24.95135","6500600","新店區"
"231038","3712-VJ","2018/12/04 13:39:05","新北市新店區安華路28-1號","121.519301666667","24.96063","6500600","新店區"
"231037","4716-K9","2018/12/04 13:39:04","新北市新店區薏仁坑路33號","121.494028333333","24.9630083333333","6500600","新店區"
"231025","4715-K9","2018/12/04 13:39:11","新北市新店區中央五街37號","121.52866","24.9750266666667","6500600","新店區"
"231036","512-UM","2018/12/04 13:39:20","新北市新店區安祥路145巷2號","121.474715","24.95541","6500600","新店區"
"231013","513-UM","2018/12/04 13:39:21","新北市新店區中正路454-5號","121.53445","24.9790533333333","6500600","新店區"
"231034","616-UM","2018/12/04 13:39:12","新北市新店區車子路110號","121.505238333333","24.9520833333333","6500600","新店區"
"231006","617-UM","2018/12/04 13:39:06","新北市新店區光明街1-1號","121.538198333333","24.95912","6500600","新店區"
"231030","619-UM","2018/12/04 13:39:16","新北市新店區安康路一段299-1號","121.522316666667","24.9637133333333","6500600","新店區"
"231035","719-UM","2018/12/04 13:39:12","新北市新店區安忠路56巷2號","121.512743333333","24.9592283333333","6500600","新店區"
"231010","719-UY","2018/12/04 13:39:23","新北市新店區中正路293號","121.537263333333","24.9745983333333","6500600","新店區"
"231032","720-UM","2018/12/04 13:39:17","新北市新店區安忠路205巷8號","121.509815","24.95489","6500600","新店區"
"231029","897-TW","2018/12/04 13:39:08","新北市新店區車子路1-1號","121.504508333333","24.957885","6500600","新店區"
"231004","898-TW","2018/12/04 13:39:05","新北市新店區北新路一段98號","121.542041666667","24.9690516666667","6500600","新店區"
"231024","AKT-0513","2018/12/04 13:39:21","新北市新店區北新路一段271巷33號","121.539776666667","24.9671283333333","6500600","新店區"
"235030","003-UY","2018/12/04 13:39:15","新北市中和區水源路7巷5號","121.503686666667","25.0036133333333","6500300","中和區"
"235028","005-UY","2018/12/04 13:39:03","新北市中和區連城路89巷1-3號","121.497041666667","24.9998516666667","6500300","中和區"
"235027","006-UY","2018/12/04 13:39:04","新北市中和區連城路389巷8號","121.486418333333","24.9957116666667","6500300","中和區"
"235020","096-UM","2018/12/04 13:39:09","新北市中和區新民街101號","121.480253333333","25.0081333333333","6500300","中和區"
"235003","097-UM","2018/12/04 13:39:17","新北市中和區景平路278巷14弄4號","121.514273333333","24.99285","6500300","中和區"
"235004","150-BY","2018/12/04 13:15:58","新北市中和區圓通路252巷36弄1號","121.491995","24.9935","6500300","中和區"
"235022","151-BY","2018/12/04 13:39:10","新北市中和區員山路37-8號","121.482138333333","24.990115","6500300","中和區"
"235019","183-VK","2018/12/04 13:39:10","新北市中和區民德路81號","121.469061666667","25.00122","6500300","中和區"
"235002","185-VK","2018/12/04 13:39:05","新北市中和區大勇街45巷12號","121.517776666667","24.9949466666667","6500300","中和區"
"235013","186-VK","2018/12/04 13:39:21","新北市中和區景平路480號","121.50514","24.9938033333333","6500300","中和區"
"235031","255-BX","2018/12/04 13:39:10","新北市中和區新生街220巷4號","121.482965","24.99863","6500300","中和區"
"235008","293-VK","2018/12/04 13:39:23","新北市中和區復興路280巷1弄2號","121.502201666667","24.990615","6500300","中和區"
"235036","301-VK","2018/12/04 13:39:13","新北市中和區連城路87號","121.496858333333","25.0003383333333","6500300","中和區"
"235006","KEA-2878","2018/12/04 13:39:07","新北市中和區秀朗路三段175巷21號","121.525541666667","24.9909366666667","6500300","中和區"
"235014","4979-A6","2018/12/04 13:39:09","新北市中和區景新街496巷28-2號","121.513203333333","24.9855633333333","6500300","中和區"
"235033","4980-A6","2018/12/04 13:39:15","新北市中和區連城路87號","121.496861666667","25.0003016666667","6500300","中和區"
"235070","558-UM","2018/12/04 13:39:07","新北市中和區圓通路54號","121.500681666667","24.997515","6500300","中和區"
"235009","565-BX","2018/12/04 13:39:08","新北市中和區南山路236-2號","121.506248333333","24.9893866666667","6500300","中和區"
"235018","640-BX","2018/12/04 13:39:18","新北市中和區民享街54巷17號","121.473278333333","25.0023383333333","6500300","中和區"
"235024","647-TV","2018/12/04 13:39:14","新北市中和區中山路三段1號","121.47995","25.006005","6500300","中和區"
"235011","732-UM","2018/12/04 13:39:14","新北市中和區興南路二段32巷21號","121.506931666667","24.9863083333333","6500300","中和區"
"235035","783-BX","2018/12/04 13:39:08","新北市中和區立德街57號","121.487951666667","25.0075716666667","6500300","中和區"
"235026","800-TS","2018/12/04 13:39:22","新北市中和區景平路709號","121.496326666667","25.003635","6500300","中和區"
"235021","801-TS","2018/12/04 13:39:18","新北市中和區員山路327巷52號","121.480148333333","25.001835","6500300","中和區"
"235005","802-TS","2018/12/04 13:39:15","新北市中和區中和路400巷12弄1號","121.511505","25.00234","6500300","中和區"
"235016","805-TS","2018/12/04 13:38:59","新北市中和區興南路三段42號","121.496018333333","24.9774116666667","6500300","中和區"
"235012","896-TW","2018/12/04 13:39:07","新北市中和區中正路83號","121.500598333333","24.9934416666667","6500300","中和區"
"235017","900-TW","2018/12/04 13:39:15","新北市中和區民德路264號","121.468018333333","24.996635","6500300","中和區"
"235015","157-BY","2018/12/04 13:39:10","新北市中和區華新街143巷106弄30號","121.50616","24.9787016666667","6500300","中和區"
"235001","AAC-213","2018/12/04 13:38:59","新北市中和區景德街74號","121.516655","24.9915366666667","6500300","中和區"
"235023","AAC-215","2018/12/04 13:39:20","新北市中和區中正路507號","121.488521666667","24.9935533333333","6500300","中和區"
"220013","072-UY","2018/12/04 13:39:16","新北市板橋區成都街101號","121.463466666667","25.00532","6500100","板橋區"
"220034","073-UY","2018/12/04 13:39:09","新北市板橋區南雅西路二段177號","121.451773333333","25.0125416666667","6500100","板橋區"
"220105","075-UY","2018/12/04 13:39:09","新北市板橋區民生路二段161巷5號","121.469993333333","25.0196583333333","6500100","板橋區"
"220017","AAD-861","2018/12/04 13:39:13","新北市板橋區大華街5號","121.458886666667","25.0062816666667","6500100","板橋區"
"247009","056-VK","2018/12/04 13:39:06","新北市五股區中興路三段163號","121.449191666667","25.0807","6501400","蘆洲區"
"247021","001-UY","2018/12/04 13:39:09","新北市五股區中興路三段5號","121.449165","25.0797216666667","6501400","蘆洲區"
"228004","212-TW","2018/12/04 13:39:09","新北市貢寮區龍崗里嵩陽街41-2號","121.907145","25.0070883333333","6502600","貢寮區"
"228005","828-UM","2018/12/04 13:39:17","新北市貢寮區美豐里文秀坑3號","121.904205","25.0525633333333","6502600","貢寮區"
"207002","749-BX","2018/12/04 13:39:15","新北市萬里區崁腳里崁腳路166號","121.645101666667","25.1558316666667","6502800","萬里區"
"207001","662-BX","2018/12/04 13:39:15","新北市萬里區大鵬里萬里加投46-1號","121.64185","25.211115","6502800","萬里區"
"252005","AAC-283","2018/12/04 13:39:23","新北市三芝區圓山里二坪頂78號","121.541758333333","25.245905","6502100","三芝區"
"236065","105-UM","2018/12/04 13:39:02","新北市土城區城林路6巷80號","121.438561666667","24.9797133333333","6501300","土城區"
"236040","KED-0685","2018/12/04 13:39:20","新北市土城區城林路6巷80號","121.43849","24.979715","6501300","土城區"
"236074","166-UM","2018/12/04 13:39:21","新北市土城區城林路6巷80號","121.438681666667","24.97974","6501300","土城區"
"236032","271-VK","2018/12/04 13:39:06","新北市土城區城林路6巷80號","121.438463333333","24.9797466666667","6501300","土城區"
"236057","912-UM","2018/12/04 13:39:15","新北市土城區城林路6巷80號","121.438461666667","24.9796833333333","6501300","土城區"
"242053","441-UM","2018/12/04 13:39:07","新北市泰山區中山路二段72-2號","121.43742","25.0502433333333","6500500","新莊區"
"221010","269-BY","2018/12/04 13:39:13","新北市汐止區長青路124號","121.607976666667","25.1077783333333","6501100","汐止區"
"221032","280-BY","2018/12/04 13:39:08","新北市汐止區仁愛路1號","121.658695","25.064345","6501100","汐止區"
"221033","647-BX","2018/12/04 13:39:21","新北市汐止區大同路一段160-10號","121.634991666667","25.0539933333333","6501100","汐止區"
"220028","200-UY","2018/12/04 13:39:06","新北市板橋區大觀路二段265巷76弄36號","121.441001666667","24.99682","6500100","板橋區"
"220030","610-BX","2018/12/04 13:39:09","新北市板橋區篤行路二段31號","121.431838333333","24.9926183333333","6500100","板橋區"
"220004","276-BY","2018/12/04 13:39:15","新北市板橋區四川路一段95號","121.459766666667","25.0054833333333","6500100","板橋區"
"220020","277-BY","2018/12/04 13:39:12","新北市板橋區大觀路二段443-2號","121.44029","24.995055","6500100","板橋區"
"220043","283-UM","2018/12/04 13:39:19","新北市板橋區民生路二段161巷3號","121.470163333333","25.0197983333333","6500100","板橋區"
"220019","283-VK","2018/12/04 13:39:17","新北市板橋區四川路一段387號","121.45809","24.9992516666667","6500100","板橋區"
"220031","286-VK","2018/12/04 13:39:11","新北市板橋區大觀路二段107號","121.446263333333","25.0016716666667","6500100","板橋區"
"220029","287-VK","2018/12/04 13:39:07","新北市板橋區大觀路二段107號","121.446151666667","25.0016833333333","6500100","板橋區"
"220039","288-VK","2018/12/04 13:39:21","新北市板橋區民生路二段161巷9號","121.470228333333","25.01964","6500100","板橋區"
"220009","293-UM","2018/12/04 13:39:08","新北市板橋區民生路二段161巷1號","121.470118333333","25.01993","6500100","板橋區"
"220032","296-UM","2018/12/04 13:39:21","新北市板橋區大觀路二段148巷29號","121.441845","25.0003066666667","6500100","板橋區"
"220041","299-UM","2018/12/04 13:39:14","新北市板橋區民生路二段161巷9號","121.470301666667","25.0195716666667","6500100","板橋區"
"220023","303-R5","2018/12/04 13:39:15","新北市板橋區華東街328號","121.452786666667","25.0033733333333","6500100","板橋區"
"220010","305-R5","2018/12/04 13:39:14","新北市板橋區民生路二段120號","121.470411666667","25.0196516666667","6500100","板橋區"
"220047","317-R6","2018/12/04 13:39:20","新北市板橋區民生路二段120號","121.470496666667","25.0197466666667","6500100","板橋區"
"220038","487-VK","2018/12/04 13:39:09","新北市板橋區民生路二段161巷1號","121.46977","25.0198833333333","6500100","板橋區"
"220037","491-VK","2018/12/04 13:39:04","新北市板橋區民生路二段161巷1號","121.470085","25.0200316666667","6500100","板橋區"
"220104","560-BX","2018/12/04 13:39:23","新北市板橋區南雅西路二段145巷6號","121.45164","25.0118266666667","6500100","板橋區"
"220052","561-BX","2018/12/04 13:39:16","新北市板橋區民生路二段120號","121.470425","25.0196466666667","6500100","板橋區"
"220011","609-BX","2018/12/04 13:39:14","新北市板橋區民生路二段120號","121.470393333333","25.0195233333333","6500100","板橋區"
"220040","637-BX","2018/12/04 13:39:23","新北市板橋區民生路二段120號","121.47036","25.0198516666667","6500100","板橋區"
"220005","686-BX","2018/12/04 13:39:12","新北市板橋區南雅南路二段120-16號","121.452028333333","24.99925","6500100","板橋區"
"220025","687-BX","2018/12/04 13:39:14","新北市板橋區大觀路三段240號","121.42933","24.9926133333333","6500100","板橋區"
"220042","689-BX","2018/12/04 13:39:08","新北市板橋區民生路二段161巷1號","121.470115","25.020105","6500100","板橋區"
"220002","741-BX","2018/12/04 13:39:22","新北市板橋區南雅南路二段120-12號","121.452166666667","24.9994333333333","6500100","板橋區"
"220051","KEA-2699","2018/12/04 13:39:16","新北市板橋區民生路二段120號","121.470376666667","25.0197966666667","6500100","板橋區"
"220003","827-TW","2018/12/04 13:39:18","新北市板橋區忠孝路40號","121.460418333333","25.0018516666667","6500100","板橋區"
"220022","895-R6","2018/12/04 13:39:21","新北市板橋區南雅南路一段60-1號","121.455436666667","25.0054566666667","6500100","板橋區"
"220021","985-R7","2018/12/04 13:39:13","新北市板橋區南雅南路二段17號","121.453958333333","24.9991516666667","6500100","板橋區"
"220012","AAC-253","2018/12/04 13:39:22","新北市板橋區縣民大道二段68號","121.463223333333","25.0126666666667","6500100","板橋區"
"235032","KEA-2873","2018/12/04 13:39:08","新北市中和區中正路211巷36弄22號","121.496765","24.9924366666667","6500300","中和區"
"235025","KEA-2875","2018/12/04 13:38:58","新北市中和區民享街30巷6號","121.473605","25.0035233333333","6500300","中和區"
"235029","KEA-2876","2018/12/04 13:38:53","新北市中和區莊敬路49巷29弄6-6號","121.501406666667","25.0064316666667","6500300","中和區"
