"lineid","car","time","location","longitude","latitude","cityid","cityname"
"234044","148-BY","2018/12/04 13:59:18","新北市永和區成功路一段16巷4號","121.526776666667","25.00548","6500400","永和區"
"234005","207-UY","2018/12/04 13:59:12","新北市中和區宜安路182號","121.508586666667","24.99954","6500400","永和區"
"234036","336-UY","2018/12/04 13:59:11","新北市永和區成功路二段92號","121.526558333333","24.9984833333333","6500400","永和區"
"234062","337-UY","2018/12/04 13:59:18","新北市永和區中正路412巷20弄14號","121.518835","25.001505","6500400","永和區"
"234068","552-UM","2018/12/04 13:59:06","新北市永和區國光路49巷6號","121.518915","25.00791","6500400","永和區"
"234078","553-UM","2018/12/04 13:59:10","新北市永和區永亨路98號","121.523021666667","25.004715","6500400","永和區"
"234015","745-BX","2018/12/04 13:59:15","新北市永和區文化路82號","121.514008333333","25.015185","6500400","永和區"
"234028","746-BX","2018/12/04 13:59:10","新北市永和區民生路67巷49號","121.525323333333","24.99753","6500400","永和區"
"234052","KEA-2590","2018/12/04 13:59:19","新北市永和區竹林路39巷46號","121.520205","25.0152666666667","6500400","永和區"
"234012","KEA-2591","2018/12/04 13:59:17","新北市永和區保生路55號","121.504686666667","25.0105966666667","6500400","永和區"
"234060","AAD-866","2018/12/04 13:59:17","新北市永和區中正路151巷5弄2-1號","121.515635","24.9987333333333","6500400","永和區"
"234084","748-BX","2018/12/04 13:59:23","新北市永和區福和路85號","121.522255","25.0079116666667","6500400","永和區"
"234040","862-TW","2018/12/04 13:59:24","新北市永和區中和路335巷18弄9號","121.507733333333","25.0003333333333","6500400","永和區"
"234048","863-TW","2018/12/04 13:59:09","新北市永和區新生路210巷7-1號","121.50542","25.0131","6500400","永和區"
"234025","9372-KE","2018/12/04 13:59:22","新北市永和區自由街49號","121.513925","25.005885","6500400","永和區"
"234010","9373-KE","2018/12/04 13:59:24","新北市永和區仁愛路352巷94號","121.501146666667","25.00805","6500400","永和區"
"248017","225-UY","2018/12/04 13:59:04","新北市五股區民義路一段220巷17號","121.428953333333","25.0945566666667","6501500","五股區"
"234022","9380-KE","2018/12/04 13:59:06","新北市永和區永和路二段233號","121.515608333333","25.0142316666667","6500400","永和區"
"234076","969-R7","2018/12/04 13:59:23","新北市永和區民族街43巷7號","121.518823333333","24.99844","6500400","永和區"
"234072","AAC-211","2018/12/04 13:59:20","新北市永和區豫溪街181號","121.522335","25.01047","6500400","永和區"
"234066","AAC-212","2018/12/04 13:59:20","新北市永和區永貞路358號","121.510176666667","25.00661","6500400","永和區"
"234001","AAC-295","2018/12/04 13:59:10","新北市永和區福和路343號","121.515538333333","25.0070766666667","6500400","永和區"
"244002","248-BX","2018/12/04 13:59:17","新北市林口區竹林路267號","121.389625","25.08083","6501700","林口區"
"231002","002-UM","2018/12/04 13:59:07","新北市新店區中正路607號","121.533751666667","24.9884766666667","6500600","新店區"
"231027","0293-UT","2018/12/04 13:59:04","新北市新店區北宜路一段3號","121.53844","24.95849","6500600","新店區"
"231028","046-UY","2018/12/04 13:59:15","新北市新店區安和路三段4號","121.517961666667","24.9807533333333","6500600","新店區"
"231001","047-UY","2018/12/04 13:59:20","新北市新店區三民路43號","121.537136666667","24.97087","6500600","新店區"
"231005","106-UY","2018/12/04 13:59:05","新北市新店區中興路三段186號","121.544026666667","24.9814616666667","6500600","新店區"
"231020","108-UY","2018/12/04 13:59:18","新北市新店區自強路94號","121.546348333333","24.9239016666667","6500600","新店區"
"231012","187-VK","2018/12/04 13:59:19","新北市新店區中興路二段67巷19號","121.545761666667","24.9712933333333","6500600","新店區"
"231018","188-VK","2018/12/04 13:59:01","新北市新店區中央路192號","121.530836666667","24.97469","6500600","新店區"
"231023","KEA-2219","2018/12/04 13:59:09","新北市新店區文中路45號","121.53966","24.9566366666667","6500600","新店區"
"231026","256-BX","2018/12/04 13:59:18","新北市新店區安康路一段355-3號","121.51954","24.9630066666667","6500600","新店區"
"231003","268-BY","2018/12/04 13:59:10","新北市新店區光明街138巷13弄1號","121.54028","24.9611283333333","6500600","新店區"
"231015","AAD-862","2018/12/04 13:59:14","新北市新店區郵政路1巷6號","121.557361666667","24.9521316666667","6500600","新店區"
"231038","3712-VJ","2018/12/04 13:59:25","新北市新店區安華路30巷1號","121.519596666667","24.959265","6500600","新店區"
"231037","4716-K9","2018/12/04 13:59:15","新北市新店區安康路三段355巷2號","121.484605","24.950585","6500600","新店區"
"231025","4715-K9","2018/12/04 13:59:11","新北市新店區中正路328巷42弄12號","121.538451666667","24.9759566666667","6500600","新店區"
"231036","512-UM","2018/12/04 13:59:20","新北市新店區安祥路112號","121.47494","24.9569283333333","6500600","新店區"
"231013","513-UM","2018/12/04 13:59:21","新北市新店區明德路64號","121.541548333333","24.9794483333333","6500600","新店區"
"231034","616-UM","2018/12/04 13:59:24","新北市新店區達觀路27-1號","121.503718333333","24.9383883333333","6500600","新店區"
"231006","617-UM","2018/12/04 13:59:06","新北市新店區北宜路二段213號","121.55325","24.953415","6500600","新店區"
"231030","619-UM","2018/12/04 13:59:16","新北市新店區安康路一段302號","121.518421666667","24.9640766666667","6500600","新店區"
"231035","719-UM","2018/12/04 13:59:12","新北市新店區安和路一段52巷2號","121.517651666667","24.966245","6500600","新店區"
"231010","719-UY","2018/12/04 13:58:06","新北市新店區安康路一段20號","121.531021666667","24.96108","6500600","新店區"
"231032","720-UM","2018/12/04 13:59:17","新北市新店區華城路36巷33號","121.52767","24.9545583333333","6500600","新店區"
"231029","897-TW","2018/12/04 13:59:22","新北市新店區安康路二段63號","121.514013333333","24.9631966666667","6500600","新店區"
"231004","898-TW","2018/12/04 13:59:05","新北市新店區北新路二段160號","121.542923333333","24.9756166666667","6500600","新店區"
"231024","AKT-0513","2018/12/04 13:59:21","新北市新店區安和路三段1-1號","121.517265","24.9795966666667","6500600","新店區"
"235030","003-UY","2018/12/04 13:59:15","新北市中和區中山路二段131巷5弄3號","121.502853333333","25.0028916666667","6500300","中和區"
"235028","005-UY","2018/12/04 13:59:03","新北市中和區景平路634-11號","121.498696666667","24.9999483333333","6500300","中和區"
"235027","006-UY","2018/12/04 13:59:04","新北市中和區中正路602號","121.485535","24.995265","6500300","中和區"
"235020","096-UM","2018/12/04 13:59:09","新北市中和區中正路1222號","121.479653333333","25.010795","6500300","中和區"
"235003","097-UM","2018/12/04 13:59:17","新北市中和區景平路4號","121.524318333333","24.9907083333333","6500300","中和區"
"235004","150-BY","2018/12/04 13:59:18","新北市中和區保健路42-3號","121.509433333333","24.997215","6500300","中和區"
"235022","151-BY","2018/12/04 13:59:23","新北市中和區連城路539號","121.480358333333","24.9948583333333","6500300","中和區"
"235019","183-VK","2018/12/04 13:59:10","新北市中和區德光路18號","121.471096666667","25.0044916666667","6500300","中和區"
"235002","185-VK","2018/12/04 13:59:05","新北市中和區立人街24-5號","121.518876666667","24.994195","6500300","中和區"
"235013","186-VK","2018/12/04 13:59:10","新北市中和區景安路167巷31號","121.506921666667","24.99503","6500300","中和區"
"235031","255-BX","2018/12/04 13:59:10","新北市中和區新生街168號","121.483673333333","25.0001516666667","6500300","中和區"
"235008","293-VK","2018/12/04 13:59:02","新北市中和區中興街161巷6弄2號","121.500728333333","24.9908633333333","6500300","中和區"
"235036","301-VK","2018/12/04 13:59:13","新北市中和區中山路二段183號","121.5006","25.0027633333333","6500300","中和區"
"235006","KEA-2878","2018/12/04 13:59:19","新北市永和區成功路二段199號","121.526588333333","24.9962116666667","6500300","中和區"
"235014","4979-A6","2018/12/04 13:59:09","新北市中和區興南路二段49號","121.507361666667","24.985385","6500300","中和區"
"235033","4980-A6","2018/12/04 13:59:15","新北市中和區圓通路109巷1弄2號","121.499905","24.9963783333333","6500300","中和區"
"235070","558-UM","2018/12/04 13:59:07","新北市中和區中和路180號","121.504918333333","24.99968","6500300","中和區"
"235009","565-BX","2018/12/04 13:59:08","新北市中和區景新街467巷20弄21號","121.515085","24.9873516666667","6500300","中和區"
"235018","640-BX","2018/12/04 13:59:18","新北市中和區國光街107巷2弄29號","121.469341666667","24.9989983333333","6500300","中和區"
"235024","647-TV","2018/12/04 13:59:10","新北市中和區民治街158號","121.475453333333","25.0014383333333","6500300","中和區"
"235011","732-UM","2018/12/04 13:59:14","新北市中和區興南路二段74巷16號","121.505355","24.9850816666667","6500300","中和區"
"235010","733-UM","2018/12/04 13:59:17","新北市中和區興南路一段135巷22弄4號","121.509121666667","24.986885","6500300","中和區"
"235035","783-BX","2018/12/04 13:59:08","新北市中和區立德街98巷74號","121.488635","25.0085616666667","6500300","中和區"
"235026","800-TS","2018/12/04 13:59:22","新北市中和區中山路二段366巷7號","121.49161","25.00379","6500300","中和區"
"235021","801-TS","2018/12/04 13:59:18","新北市中和區民利街63號","121.478956666667","24.9985966666667","6500300","中和區"
"235005","802-TS","2018/12/04 13:59:15","新北市中和區永貞路239巷15號","121.512626666667","25.0031366666667","6500300","中和區"
"235016","805-TS","2018/12/04 13:59:19","新北市中和區興南路二段131-6號","121.503835","24.981425","6500300","中和區"
"235012","896-TW","2018/12/04 13:59:07","新北市中和區華新街67號","121.508051666667","24.9840433333333","6500300","中和區"
"235017","900-TW","2018/12/04 13:59:15","新北市中和區和平路200巷21號","121.464731666667","24.99493","6500300","中和區"
"235015","157-BY","2018/12/04 13:59:10","新北市中和區忠孝街19巷11號","121.509895","24.983985","6500300","中和區"
"235001","AAC-213","2018/12/04 13:59:19","新北市中和區自立路99巷1號","121.522041666667","24.9950666666667","6500300","中和區"
"235023","AAC-215","2018/12/04 13:59:20","新北市中和區圓通路367巷20弄29號","121.491326666667","24.9882716666667","6500300","中和區"
"220013","072-UY","2018/12/04 13:59:19","新北市板橋區漢生東路340巷11號","121.47144","25.0072566666667","6500100","板橋區"
"220034","073-UY","2018/12/04 13:59:09","新北市板橋區中正路236巷25號","121.457001666667","25.0192516666667","6500100","板橋區"
"220105","075-UY","2018/12/04 13:59:09","新北市板橋區雙十路三段10巷10號","121.472025","25.030705","6500100","板橋區"
"220017","AAD-861","2018/12/04 13:59:13","新北市板橋區貴興路7號","121.457778333333","25.0043333333333","6500100","板橋區"
"247015","546-UM","2018/12/04 13:59:11","新北市蘆洲區光華路44號","121.4688","25.0830633333333","6501400","蘆洲區"
"247005","337-TH","2018/12/04 13:59:21","新北市蘆洲區永安南路二段44-2號","121.46625","25.077525","6501400","蘆洲區"
"247019","057-VK","2018/12/04 13:59:16","新北市蘆洲區民族路422巷17號","121.473883333333","25.0927933333333","6501400","蘆洲區"
"247009","056-VK","2018/12/04 13:59:26","新北市蘆洲區集賢路224巷27號","121.481715","25.087065","6501400","蘆洲區"
"247013","053-VK","2018/12/04 13:59:16","新北市蘆洲區中正路187號","121.468531666667","25.0856883333333","6501400","蘆洲區"
"247017","007-UY","2018/12/04 13:59:11","新北市蘆洲區民權路96巷26號","121.475716666667","25.0888616666667","6501400","蘆洲區"
"247003","002-UY","2018/12/04 13:59:10","新北市蘆洲區長榮路3號","121.463708333333","25.0821533333333","6501400","蘆洲區"
"247021","001-UY","2018/12/04 13:59:09","新北市蘆洲區中正路263巷2號","121.467341666667","25.0874083333333","6501400","蘆洲區"
"228004","212-TW","2018/12/04 13:59:09","新北市貢寮區龍崗里泮宮路19號","121.9078","25.0177433333333","6502600","貢寮區"
"228005","828-UM","2018/12/04 13:52:17","新北市貢寮區美豐里土地公嶺24號","121.890901666667","25.0653333333333","6502600","貢寮區"
"207002","749-BX","2018/12/04 13:58:56","新北市萬里區溪底里富士坪路19號","121.626361666667","25.1490866666667","6502800","萬里區"
"207001","662-BX","2018/12/04 13:59:15","新北市萬里區磺潭里清水13號","121.637381666667","25.2023383333333","6502800","萬里區"
"252005","AAC-283","2018/12/04 13:59:03","新北市三芝區橫山里橫山8-1號","121.5352","25.2619133333333","6502100","三芝區"
"236065","105-UM","2018/12/04 13:59:22","新北市土城區金城路一段88巷24號","121.445753333333","24.97297","6501300","土城區"
"236040","KED-0685","2018/12/04 13:59:05","新北市土城區城林路6巷80號","121.438791666667","24.9796533333333","6501300","土城區"
"236074","166-UM","2018/12/04 13:59:20","新北市土城區永寧路32巷42弄10號","121.428233333333","24.9615116666667","6501300","土城區"
"236029","253-BX","2018/12/04 13:59:18","新北市土城區城林路6巷80號","121.438586666667","24.9797533333333","6501300","土城區"
"236024","269-VK","2018/12/04 13:59:14","新北市土城區承天路31號","121.436893333333","24.9651766666667","6501300","土城區"
"236013","270-VK","2018/12/04 13:59:14","新北市土城區城林路6巷80號","121.438511666667","24.9797933333333","6501300","土城區"
"236032","271-VK","2018/12/04 13:59:06","新北市土城區城林路6巷80號","121.438513333333","24.979755","6501300","土城區"
"247007","KED-0683","2018/12/04 13:59:23","新北市三重區三和路四段237號","121.48095","25.0804","6501400","蘆洲區"
"236017","401-BY","2018/12/04 13:59:25","新北市土城區城林路6巷80號","121.43865","24.9796566666667","6501300","土城區"
"236054","752-BX","2018/12/04 13:56:56","新北市土城區城林路6巷80號","121.43879","24.9797316666667","6501300","土城區"
"236057","912-UM","2018/12/04 13:59:15","新北市土城區中央路三段250號","121.427601666667","24.9641833333333","6501300","土城區"
"236045","913-UM","2018/12/04 13:59:20","新北市土城區城林路6巷80號","121.438476666667","24.97975","6501300","土城區"
"236060","915-UM","2018/12/04 13:59:17","新北市土城區中央路二段282號","121.440643333333","24.9739666666667","6501300","土城區"
"221010","269-BY","2018/12/04 13:59:13","新北市汐止區長青路210巷188號","121.61627","25.1133016666667","6501100","汐止區"
"221033","647-BX","2018/12/04 13:59:21","新北市汐止區明峰街212號","121.627248333333","25.0691283333333","6501100","汐止區"
"220027","145-BY","2018/12/04 13:59:16","新北市板橋區中正路84號","121.456516666667","25.0149033333333","6500100","板橋區"
"220028","200-UY","2018/12/04 13:59:06","新北市板橋區大觀路二段265巷3-1號","121.442956666667","24.9964766666667","6500100","板橋區"
"220030","610-BX","2018/12/04 13:59:09","新北市板橋區溪北路52號","121.427495","24.9898666666667","6500100","板橋區"
"220050","245-BX","2018/12/04 13:59:21","新北市板橋區莊敬路229號","121.471718333333","25.02177","6500100","板橋區"
"220004","276-BY","2018/12/04 13:59:15","新北市板橋區信義路150巷49號","121.45721","24.9917566666667","6500100","板橋區"
"220020","277-BY","2018/12/04 13:59:12","新北市板橋區大觀路三段50巷79號","121.43141","24.996345","6500100","板橋區"
"220043","283-UM","2018/12/04 13:59:19","新北市板橋區吳鳳路81巷33號","121.465645","25.0308233333333","6500100","板橋區"
"220019","283-VK","2018/12/04 13:59:15","新北市板橋區忠孝路154巷3號","121.464086666667","25.0021233333333","6500100","板橋區"
"220001","285-VK","2018/12/04 13:59:14","新北市板橋區太和街6巷2號","121.473785","25.0199316666667","6500100","板橋區"
"220031","286-VK","2018/12/04 13:59:23","新北市板橋區龍興街101巷15號","121.443776666667","25.0033966666667","6500100","板橋區"
"220029","287-VK","2018/12/04 13:59:07","新北市板橋區光華街39巷1號","121.453636666667","25.0131033333333","6500100","板橋區"
"220039","288-VK","2018/12/04 13:59:21","新北市板橋區裕民街42號","121.461771666667","25.02888","6500100","板橋區"
"220009","293-UM","2018/12/04 13:59:08","新北市板橋區懷仁街77巷4號","121.477661666667","25.0185266666667","6500100","板橋區"
"220032","296-UM","2018/12/04 13:59:21","新北市板橋區篤行路一段8號","121.43191","24.9952816666667","6500100","板橋區"
"220041","299-UM","2018/12/04 13:59:18","新北市板橋區文化路二段225巷60弄43號","121.469096666667","25.0294666666667","6500100","板橋區"
"220023","303-R5","2018/12/04 13:59:15","新北市板橋區南雅西路二段173號","121.451956666667","25.0125216666667","6500100","板橋區"
"220010","305-R5","2018/12/04 13:59:17","新北市板橋區三民路二段245巷73號","121.481183333333","25.0125966666667","6500100","板橋區"
"220047","317-R6","2018/12/04 13:59:20","新北市板橋區民生路二段234巷77號","121.470371666667","25.0225833333333","6500100","板橋區"
"220038","487-VK","2018/12/04 13:59:09","新北市板橋區文化路二段181號","121.470828333333","25.0280416666667","6500100","板橋區"
"220037","491-VK","2018/12/04 13:59:04","新北市板橋區莊敬路40號","121.472983333333","25.0269533333333","6500100","板橋區"
"220104","560-BX","2018/12/04 13:59:03","新北市板橋區中正路375巷27號","121.453795","25.0201666666667","6500100","板橋區"
"220052","561-BX","2018/12/04 13:59:19","新北市板橋區文化路一段188巷7弄30號","121.467903333333","25.0194716666667","6500100","板橋區"
"220011","609-BX","2018/12/04 13:59:14","新北市板橋區中山路二段258號","121.47888","25.018395","6500100","板橋區"
"220040","637-BX","2018/12/04 13:59:03","新北市板橋區大同街26巷13號","121.478206666667","25.0268983333333","6500100","板橋區"
"220005","686-BX","2018/12/04 13:59:12","新北市板橋區重慶路293號","121.463308333333","24.999455","6500100","板橋區"
"220025","687-BX","2018/12/04 13:59:14","新北市板橋區大觀路二段156巷39號","121.441041666667","24.99973","6500100","板橋區"
"220042","689-BX","2018/12/04 13:59:08","新北市板橋區民生路三段11號","121.467436666667","25.0237466666667","6500100","板橋區"
"220002","741-BX","2018/12/04 13:59:02","新北市板橋區重慶路93巷47號","121.463346666667","25.0060516666667","6500100","板橋區"
"220051","KEA-2699","2018/12/04 13:59:16","新北市板橋區田單街2巷28號","121.482135","25.0279783333333","6500100","板橋區"
"220003","827-TW","2018/12/04 13:59:18","新北市板橋區新站路3號","121.466995","25.01138","6500100","板橋區"
"220016","830-TW","2018/12/04 13:59:20","新北市板橋區中山路二段465巷40弄2號","121.481193333333","25.0214533333333","6500100","板橋區"
"220014","831-TW","2018/12/04 13:59:17","新北市板橋區三民路186巷13-1號","121.478676666667","25.01492","6500100","板橋區"
"220022","895-R6","2018/12/04 13:59:21","新北市板橋區林園街1號","121.45377","25.009085","6500100","板橋區"
"220021","985-R7","2018/12/04 13:59:13","新北市板橋區館前西路154-2號","121.455148333333","25.0084133333333","6500100","板橋區"
"220046","AAC-210","2018/12/04 13:59:23","新北市板橋區幸福路70巷23號","121.46018","25.0208983333333","6500100","板橋區"
"220012","AAC-253","2018/12/04 13:59:20","新北市板橋區中山路一段317號","121.471573333333","25.0149016666667","6500100","板橋區"
"235032","KEA-2873","2018/12/04 13:59:08","新北市中和區連勝街2號","121.499071666667","24.9986416666667","6500300","中和區"
"235025","KEA-2875","2018/12/04 13:58:58","新北市中和區員山路394巷12弄8號","121.481258333333","25.0041283333333","6500300","中和區"
"235029","KEA-2876","2018/12/04 13:59:23","新北市中和區勝利路35巷1弄35號","121.500296666667","25.0079933333333","6500300","中和區"
