"lineid","car","time","location","longitude","latitude","cityid","cityname"
"241031","209-UY","2018/12/04 15:10:11","新北市永和區保生路55號","121.504615","25.010775","6500200","三重區"
"249004","303-UY","2018/12/04 15:29:36","新北市八里區挖子尾街6號","121.41546","25.1641616666667","6502300","八里區"
"231028","046-UY","2018/12/04 15:39:15","新北市新店區僑義路22號","121.500533333333","24.9502366666667","6500600","新店區"
"231005","106-UY","2018/12/04 15:39:05","新北市新店區三民路191號","121.535466666667","24.9757433333333","6500600","新店區"
"231020","108-UY","2018/12/04 15:39:18","新北市新店區花園二路三段19號","121.556326666667","24.93139","6500600","新店區"
"231012","187-VK","2018/12/04 15:39:19","新北市新店區寶元路一段109號","121.545721666667","24.9831566666667","6500600","新店區"
"231018","188-VK","2018/12/04 15:39:21","新北市新店區中正路663巷7弄15號","121.532943333333","24.9901016666667","6500600","新店區"
"231023","KEA-2219","2018/12/04 15:39:09","新北市新店區大新街7巷21號","121.544088333333","24.96798","6500600","新店區"
"231026","256-BX","2018/12/04 15:39:07","新北市新店區三民路75巷4弄2號","121.535615","24.970965","6500600","新店區"
"231003","268-BY","2018/12/04 15:39:10","新北市新店區寶高路102巷20號","121.552573333333","24.9740016666667","6500600","新店區"
"231015","AAD-862","2018/12/04 15:39:14","新北市新店區北宜路一段276號","121.546295","24.9527466666667","6500600","新店區"
"231038","3712-VJ","2018/12/04 15:39:25","新北市新店區安康路二段14號","121.516163333333","24.9639483333333","6500600","新店區"
"231037","4716-K9","2018/12/04 15:39:24","新北市新店區安興路112號","121.51475","24.9775133333333","6500600","新店區"
"231025","4715-K9","2018/12/04 15:39:11","新北市新店區薏仁坑路5號","121.499028333333","24.9590883333333","6500600","新店區"
"231036","512-UM","2018/12/04 15:39:20","新北市新店區薏仁坑路自強巷6號","121.496671666667","24.9584533333333","6500600","新店區"
"231013","513-UM","2018/12/04 15:39:21","新北市新店區永業路81巷1弄4號","121.529841666667","24.94967","6500600","新店區"
"231034","616-UM","2018/12/04 15:39:12","新北市新店區玫瑰路61巷2號","121.49599","24.94522","6500600","新店區"
"231030","619-UM","2018/12/04 15:39:16","新北市新店區新和街93巷2號","121.521076666667","24.9865633333333","6500600","新店區"
"231039","718-UY","2018/12/04 15:39:18","新北市新店區寶元路二段39號","121.546983333333","24.9813533333333","6500600","新店區"
"231035","719-UM","2018/12/04 15:39:12","新北市新店區安興路83-8號","121.515248333333","24.9755983333333","6500600","新店區"
"231032","720-UM","2018/12/04 15:39:17","新北市新店區雙城路175-2號","121.494651666667","24.9448033333333","6500600","新店區"
"231029","897-TW","2018/12/04 15:39:08","新北市新店區安康路二段454號","121.4945","24.9542883333333","6500600","新店區"
"231004","898-TW","2018/12/04 15:39:25","新北市新店區民族路108號","121.538056666667","24.977295","6500600","新店區"
"241011","013-R5","2018/12/04 15:39:12","新北市三重區三和路二段173巷45號","121.499291666667","25.0701533333333","6500200","三重區"
"241028","022-UY","2018/12/04 15:39:22","新北市三重區成功路6號","121.49012","25.049975","6500200","三重區"
"241022","060-VK","2018/12/04 15:39:12","新北市三重區重新路四段121號","121.485245","25.052055","6500200","三重區"
"241015","062-VK","2018/12/04 15:39:16","新北市三重區重新路四段121號","121.48501","25.0520083333333","6500200","三重區"
"241017","063-VK","2018/12/04 15:39:21","新北市三重區重新路三段132號","121.491518333333","25.0598683333333","6500200","三重區"
"241024","065-VK","2018/12/04 15:39:19","新北市三重區重新路四段121號","121.484723333333","25.0525033333333","6500200","三重區"
"241002","090-VK","2018/12/04 15:39:20","新北市三重區重新路四段121號","121.484941666667","25.0521416666667","6500200","三重區"
"241003","091-VK","2018/12/04 15:39:13","新北市三重區重新路四段121號","121.484735","25.05212","6500200","三重區"
"241005","262-UM","2018/12/04 15:39:18","新北市三重區重新路四段121號","121.48449","25.0519866666667","6500200","三重區"
"241016","265-UM","2018/12/04 15:39:20","新北市三重區重新路四段121號","121.485066666667","25.0519433333333","6500200","三重區"
"241018","268-UM","2018/12/04 15:39:20","新北市三重區重新路四段121號","121.48472","25.05198","6500200","三重區"
"241013","270-UM","2018/12/04 15:39:07","新北市三重區正義北路297號","121.494836666667","25.0706916666667","6500200","三重區"
"241025","271-UM","2018/12/04 15:39:11","新北市三重區重新路四段121號","121.484715","25.0525","6500200","三重區"
"241007","398-BY","2018/12/04 15:39:12","新北市三重區重新路四段121號","121.484731666667","25.05193","6500200","三重區"
"241004","475-VK","2018/12/04 15:39:08","新北市三重區重新路四段121號","121.484533333333","25.0526483333333","6500200","三重區"
"241020","478-VK","2018/12/04 15:39:19","新北市三重區忠孝路三段84巷1號","121.48027","25.0647133333333","6500200","三重區"
"241014","543-UM","2018/12/04 15:39:26","新北市三重區重新路四段121號","121.484951666667","25.0519816666667","6500200","三重區"
"241023","545-UM","2018/12/04 15:39:21","新北市三重區重新路四段121號","121.484603333333","25.0523533333333","6500200","三重區"
"241019","KEA-2593","2018/12/04 15:39:14","新北市三重區忠孝路三段84巷5號","121.480178333333","25.0644","6500200","三重區"
"241026","743-BX","2018/12/04 15:39:10","新北市三重區重新路四段121號","121.48487","25.0523833333333","6500200","三重區"
"241006","887-TS","2018/12/04 15:39:10","新北市三重區重新路四段121號","121.48506","25.0522816666667","6500200","三重區"
"241012","941-UM","2018/12/04 15:39:17","新北市三重區自強路一段73號","121.497101666667","25.06676","6500200","三重區"
"241029","942-UM","2018/12/04 15:39:16","新北市三重區環河南路220-8號","121.49339","25.0526833333333","6500200","三重區"
"235033","4980-A6","2018/12/04 15:39:15","新北市中和區員山路359巷2號","121.480936666667","25.002115","6500300","中和區"
"235054","640-BX","2018/12/04 15:39:18","新北市中和區員山路36巷16-3號","121.484816666667","24.9919333333333","6500300","中和區"
"235046","733-UM","2018/12/04 15:28:12","新北市中和區員山路36巷13號","121.484161666667","24.990875","6500300","中和區"
"235023","AAC-215","2018/12/04 15:39:19","新北市中和區員山路36巷13號","121.483998333333","24.991315","6500300","中和區"
"227003","642-TC","2018/12/04 15:39:19","新北市雙溪區牡丹里中正路61巷16號","121.865885","25.04299","6502500","雙溪區"
"236065","105-UM","2018/12/04 15:39:21","新北市土城區大安路37-1號","121.432676666667","24.96613","6501300","土城區"
"236040","KED-0685","2018/12/04 15:39:25","新北市土城區中華路一段301號","121.439775","24.9797333333333","6501300","土城區"
"236074","166-UM","2018/12/04 15:39:20","新北市土城區福安街106號","121.417241666667","24.9639033333333","6501300","土城區"
"236029","253-BX","2018/12/04 15:39:18","新北市土城區學成路128巷11號","121.449541666667","24.990085","6501300","土城區"
"236024","269-VK","2018/12/04 15:39:14","新北市土城區中央路一段252-1號","121.444388333333","24.98452","6501300","土城區"
"236013","270-VK","2018/12/04 15:39:14","新北市土城區四川路1號","121.45611","24.9958033333333","6501300","土城區"
"247008","KED-0683","2018/12/04 15:39:12","新北市五股區中興路三段2巷10號","121.448923333333","25.08111","6501400","蘆洲區"
"236017","401-BY","2018/12/04 15:39:25","新北市土城區延吉街111巷1弄1號","121.471476666667","24.9864833333333","6501300","土城區"
"236054","752-BX","2018/12/04 15:39:15","新北市土城區學成路114號","121.44954","24.9892683333333","6501300","土城區"
"236057","912-UM","2018/12/04 15:39:15","新北市土城區中央路一段273號","121.444633333333","24.98482","6501300","土城區"
"236045","913-UM","2018/12/04 15:39:20","新北市土城區金城路三段205-1號","121.470341666667","24.989355","6501300","土城區"
"234001","TL-1","2018/12/04 15:34:46","桃園市楊梅區電研路99號","121.166131666667","24.9536233333333","6500400","永和區"
