"lineid","car","time","location","longitude","latitude","cityid","cityname"
"234026","9372-KE","2018/12/04 17:49:13","新北市永和區永平路180巷5號","121.510756666667","25.0095866666667","6500400","永和區"
"249005","172-UM","2018/12/04 17:49:23","新北市八里區荖阡坑路34-3號","121.402301666667","25.131725","6502300","八里區"
"249001","173-UM","2018/12/04 17:49:11","新北市八里區龍米路二段135號","121.444803333333","25.1479766666667","6502300","八里區"
"249004","303-UY","2018/12/04 17:49:17","新北市八里區中華路一段309巷19-13號","121.417266666667","25.15338","6502300","八里區"
"249002","305-UY","2018/12/04 17:49:08","新北市八里區龍形五街37巷8-3號","121.449115","25.1333983333333","6502300","八里區"
"249003","593-UM","2018/12/04 17:49:10","新北市八里區中山路一段452號","121.410381666667","25.1570016666667","6502300","八里區"
"248020","225-UY","2018/12/04 17:49:24","新北市五股區中興路二段83巷26-6號","121.460095","25.0752883333333","6501500","五股區"
"232011","375-UM","2018/12/04 17:49:19","新北市坪林區北宜路八段383號","121.70859","24.93229","6502000","坪林區"
"244023","069-UM","2018/12/04 17:49:19","新北市林口區興林路318巷13號","121.388183333333","25.0704516666667","6501700","林口區"
"244007","080-UY","2018/12/04 17:49:09","新北市林口區林口路251號","121.386545","25.0841466666667","6501700","林口區"
"244019","402-UM","2018/12/04 17:49:21","新北市林口區忠孝路542巷8號","121.372718333333","25.0670183333333","6501700","林口區"
"244013","KEA-2802","2018/12/04 17:49:09","新北市林口區中正路507號","121.383068333333","25.0775633333333","6501700","林口區"
"244017","485-VK","2018/12/04 17:49:27","新北市林口區公園路179-2號","121.371131666667","25.072265","6501700","林口區"
"244009","656-BX","2018/12/04 17:49:17","新北市林口區林口路297巷11號","121.38556","25.0844516666667","6501700","林口區"
"244011","701-TV","2018/12/04 17:49:19","新北市林口區竹林路35號","121.386863333333","25.0776533333333","6501700","林口區"
"244025","837-TS","2018/12/04 17:49:22","新北市林口區忠孝三路42號","121.360231666667","25.0699716666667","6501700","林口區"
"244021","838-TS","2018/12/04 17:49:12","新北市林口區新寮28號","121.399576666667","25.0663566666667","6501700","林口區"
"222002","016-RS","2018/12/04 17:49:25","新北市深坑區平埔街22巷17弄1號","121.614913333333","25.000835","6501800","深坑區"
"222003","436-BY","2018/12/04 17:49:24","新北市深坑區阿柔洋60-1號","121.608548333333","24.998495","6501800","深坑區"
"231046","719-UY","2018/12/04 17:49:16","新北市新店區康雅崙路12號","121.536315","24.9266216666667","6500600","新店區"
"241024","065-VK","2018/12/04 17:49:18","新北市三重區力行路二段9巷2號","121.482345","25.0722433333333","6500200","三重區"
"241005","262-UM","2018/12/04 17:49:18","新北市三重區仁愛街612號","121.483646666667","25.0808833333333","6500200","三重區"
"241016","265-UM","2018/12/04 17:49:20","新北市三重區新北大道一段7號","121.489911666667","25.0612833333333","6500200","三重區"
"241033","557-UM","2018/12/04 17:37:04","新北市三重區光復路一段49號","121.472043333333","25.048785","6500200","三重區"
"235064","005-UY","2018/12/04 17:49:16","新北市中和區員山路36巷16-3號","121.485111666667","24.9913216666667","6500300","中和區"
"247012","KEA-2869","2018/12/04 17:49:29","新北市蘆洲區復興路163號","121.47826","25.08903","6501400","蘆洲區"
"235054","640-BX","2018/12/04 17:49:16","新北市中和區員山路36巷16-2號","121.484995","24.991915","6500300","中和區"
"247002","893-R6","2018/12/04 17:49:20","新北市蘆洲區永平街32巷33弄20號","121.458638333333","25.09253","6501400","蘆洲區"
"247016","546-UM","2018/12/04 17:49:23","新北市蘆洲區中正路185巷23弄22號","121.467466666667","25.0840266666667","6501400","蘆洲區"
"247024","500-BY","2018/12/04 17:49:14","新北市蘆洲區長樂路231號","121.4619","25.0898316666667","6501400","蘆洲區"
"247006","337-TH","2018/12/04 17:49:15","新北市蘆洲區長安街22巷8號","121.464466666667","25.07962","6501400","蘆洲區"
"247020","057-VK","2018/12/04 17:49:24","新北市蘆洲區民權路186號","121.471915","25.0906283333333","6501400","蘆洲區"
"247010","056-VK","2018/12/04 17:49:26","新北市蘆洲區民族路106號","121.478316666667","25.0852066666667","6501400","蘆洲區"
"247014","053-VK","2018/12/04 17:49:30","新北市蘆洲區保和街50-5號","121.469728333333","25.086335","6501400","蘆洲區"
"247018","007-UY","2018/12/04 17:49:15","新北市蘆洲區復興路252號","121.479916666667","25.0896333333333","6501400","蘆洲區"
"247022","001-UY","2018/12/04 17:49:11","新北市蘆洲區中正路516巷18-1號","121.462895","25.098185","6501400","蘆洲區"
"228001","212-TW","2018/12/04 17:49:11","新北市貢寮區仁理村仁愛路95-1號","121.927658333333","25.0554383333333","6502600","貢寮區"
"228002","663-BX","2018/12/04 17:49:14","新北市貢寮區福隆里龜壽谷街12號","121.955718333333","25.006355","6502600","貢寮區"
"228003","828-UM","2018/12/04 17:49:15","新北市貢寮區真理里美艷山街13-1號","121.928553333333","25.060795","6502600","貢寮區"
"224006","676-BX","2018/12/04 17:49:22","新北市瑞芳區傑魚坑路183號","121.788455","25.108265","6501200","瑞芳區"
"224008","285-BY","2018/12/04 17:49:25","新北市瑞芳區明燈路一段12號","121.821548333333","25.10708","6501200","瑞芳區"
"224007","275-VK","2018/12/04 17:49:16","新北市瑞芳區大寮路356-1號","121.78462","25.1030933333333","6501200","瑞芳區"
"224009","273-VK","2018/12/04 17:49:17","新北市瑞芳區山尖路82號","121.853883333333","25.11458","6501200","瑞芳區"
"224005","271-BY","2018/12/04 17:49:11","新北市瑞芳區豎崎路32-5號","121.82475","25.1208983333333","6501200","瑞芳區"
"227003","642-TC","2018/12/04 17:49:19","新北市雙溪區共和里東榮街27號","121.866035","25.03365","6502500","雙溪區"
"253006","032-BX","2018/12/04 17:49:12","新北市石門區中央路6號","121.566526666667","25.291445","6502200","石門區"
"208002","KEA-2872","2018/12/04 17:49:23","新北市金山區磺清路135號","121.639396666667","25.2278016666667","6502700","金山區"
"208001","761-BX","2018/12/04 17:49:27","新北市金山區磺清路135號","121.639365","25.2277116666667","6502700","金山區"
"251005","010-UM","2018/12/04 17:49:18","新北市淡水區學府路102巷2號","121.450403333333","25.1719983333333","6501000","淡水區"
"251001","011-UM","2018/12/04 17:49:24","新北市淡水區民權路92巷35-1號","121.462138333333","25.12664","6501000","淡水區"
"251013","KEA-2871","2018/12/04 17:49:27","新北市淡水區泉洲厝31號","121.479545","25.1911166666667","6501000","淡水區"
"251016","179-VK","2018/12/04 17:49:12","新北市淡水區埤島39-15號","121.452778333333","25.1958433333333","6501000","淡水區"
"251014","180-VK","2018/12/04 17:49:08","新北市淡水區公埔子16-6號","121.481033333333","25.22456","6501000","淡水區"
"251008","181-VK","2018/12/04 17:49:24","新北市淡水區八勢路一段123巷5弄1號","121.466676666667","25.156565","6501000","淡水區"
"251015","182-VK","2018/12/04 17:49:24","新北市淡水區糞箕湖17-3號","121.487513333333","25.1696483333333","6501000","淡水區"
"251010","413-VK","2018/12/04 17:49:18","新北市淡水區淡海路280巷33弄34-2號","121.418721666667","25.1886033333333","6501000","淡水區"
"251012","441-VK","2018/12/04 17:49:22","新北市淡水區北新路一段606號","121.472258333333","25.1849133333333","6501000","淡水區"
"251004","443-VK","2018/12/04 17:49:16","新北市淡水區民權一街25號","121.459006666667","25.136185","6501000","淡水區"
"251006","561-UM","2018/12/04 17:49:14","新北市淡水區大信街1巷25號","121.440218333333","25.1767133333333","6501000","淡水區"
"251009","575-R6","2018/12/04 17:49:24","新北市淡水區長興街48號","121.444248333333","25.1717816666667","6501000","淡水區"
"251007","577-R6","2018/12/04 17:49:10","新北市淡水區民生路117巷22號","121.464926666667","25.1394083333333","6501000","淡水區"
"251011","650-BX","2018/12/04 17:47:48","新北市淡水區吳(仔)厝7-1號","121.480673333333","25.14786","6501000","淡水區"
"251002","672-BX","2018/12/04 17:49:20","新北市淡水區中山路52號","121.444045","25.1704283333333","6501000","淡水區"
"251003","673-BX","2018/12/04 17:49:29","新北市淡水區大忠街5巷2號","121.443128333333","25.1763583333333","6501000","淡水區"
"207003","550-UM","2018/12/04 17:49:18","新北市萬里區野柳里東澳路66號","121.692648333333","25.2008883333333","6502800","萬里區"
"207004","225-TW","2018/12/04 17:49:24","新北市萬里區萬里里瑪鋉頂街61號","121.688336666667","25.180455","6502800","萬里區"
"252002","178-VK","2018/12/04 17:49:20","新北市三芝區智成街12號","121.50312","25.2567083333333","6502100","三芝區"
"252001","292-VK","2018/12/04 17:49:17","新北市三芝區中興街一段30號","121.497665","25.2578283333333","6502100","三芝區"
"237007","153-BY","2018/12/04 17:49:24","新北市三峽區中園街207號","121.367031666667","24.9205616666667","6500900","三峽區"
"237009","210-TH","2018/12/04 17:49:14","新北市三峽區大勇路3巷29號","121.36771","24.9367533333333","6500900","三峽區"
"237013","252-BX","2018/12/04 17:49:16","新北市三峽區愛國路16巷5號","121.373936666667","24.93341","6500900","三峽區"
"237012","275-BY","2018/12/04 17:49:27","新北市三峽區民生街108號","121.373445","24.9353316666667","6500900","三峽區"
"237008","302-VK","2018/12/04 17:49:11","新北市三峽區中正路二段1號","121.367441666667","24.9196716666667","6500900","三峽區"
"237014","433-BY","2018/12/04 17:49:13","新北市三峽區文化路120巷20號","121.371173333333","24.93693","6500900","三峽區"
"237006","5529-G3","2018/12/04 17:49:20","新北市三峽區介壽路二段38巷10-3號","121.391588333333","24.9350516666667","6500900","三峽區"
"237011","KEA-2596","2018/12/04 17:49:12","新北市三峽區民權街132號","121.368561666667","24.931955","6500900","三峽區"
"237016","649-BX","2018/12/04 17:49:16","新北市三峽區白雞149-2號","121.400161666667","24.9055783333333","6500900","三峽區"
"237010","706-TV","2018/12/04 17:49:11","新北市三峽區文化路147號","121.368506666667","24.93592","6500900","三峽區"
"237005","AKY-6261","2018/12/04 17:49:25","新北市三峽區中山路459巷52-1號","121.356665","24.936015","6500900","三峽區"
"236070","105-UM","2018/12/04 17:49:15","新北市土城區青雲路322巷28號","121.457546666667","24.9748233333333","6501300","土城區"
"236042","KED-0685","2018/12/04 17:49:09","新北市土城區城林路6巷80號","121.43862","24.979685","6501300","土城區"
"236079","166-UM","2018/12/04 17:49:20","新北市土城區中央路三段134號","121.433836666667","24.9656483333333","6501300","土城區"
"236026","269-VK","2018/12/04 17:49:15","新北市土城區城林路6巷80號","121.43841","24.9796","6501300","土城區"
"236014","270-VK","2018/12/04 17:49:15","新北市土城區城林路6巷80號","121.4384","24.9795933333333","6501300","土城區"
"236038","271-VK","2018/12/04 17:49:26","新北市土城區城林路6巷80號","121.438538333333","24.97965","6501300","土城區"
"247008","KED-0683","2018/12/04 17:49:12","新北市蘆洲區信義路37巷2號","121.474448333333","25.0795666666667","6501400","蘆洲區"
"236021","401-BY","2018/12/04 17:49:19","新北市土城區城林路6巷80號","121.438768333333","24.9796783333333","6501300","土城區"
"236055","752-BX","2018/12/04 17:49:18","新北市土城區城林路6巷80號","121.438503333333","24.9795916666667","6501300","土城區"
"236059","912-UM","2018/12/04 17:49:08","新北市土城區中華路二段90號","121.438443333333","24.97498","6501300","土城區"
"236049","913-UM","2018/12/04 17:49:13","新北市土城區城林路6巷80號","121.438618333333","24.979735","6501300","土城區"
"236063","915-UM","2018/12/04 17:49:17","新北市土城區城林路6巷80號","121.438468333333","24.9797433333333","6501300","土城區"
"242037","AAC-296","2018/12/04 17:49:25","新北市新莊區建福路50號","121.426575","25.0275","6500500","新莊區"
"242058","986-R7","2018/12/04 17:49:23","新北市新莊區中正路730-5號","121.414801666667","25.02359","6500500","新莊區"
"242056","751-BX","2018/12/04 17:49:13","新北市新莊區瓊林路40巷17號","121.447056666667","25.03018","6500500","新莊區"
"242027","705-TV","2018/12/04 17:49:14","新北市新莊區福壽街173號","121.457985","25.0538416666667","6500500","新莊區"
"242025","613-BX","2018/12/04 17:49:18","新北市三重區光復路二段172-1號","121.471028333333","25.06137","6500500","新莊區"
"242029","612-BX","2018/12/04 17:49:14","新北市新莊區復興路一段29號","121.446356666667","25.041845","6500500","新莊區"
"242044","566-BX","2018/12/04 17:49:30","新北市新莊區中正路855巷26號","121.420028333333","25.0271","6500500","新莊區"
"242048","497-BY","2018/12/04 17:49:28","新北市新莊區萬安街136號","121.420243333333","25.0214233333333","6500500","新莊區"
"242042","442-UM","2018/12/04 17:49:25","新北市新莊區中正路400號","121.441955","25.0341866666667","6500500","新莊區"
"242054","441-UM","2018/12/04 17:49:19","新北市新莊區民安西路470-1號","121.431688333333","25.007785","6500500","新莊區"
"242002","440-UM","2018/12/04 17:49:26","新北市新莊區景德路93號","121.451928333333","25.03471","6500500","新莊區"
"242039","415-TV","2018/12/04 17:49:12","新北市新莊區民安路176號","121.425191666667","25.023965","6500500","新莊區"
"242009","413-TV","2018/12/04 17:49:29","新北市新莊區昌平街30號","121.45486","25.053085","6500500","新莊區"
"242046","400-BY","2018/12/04 17:49:23","新北市新莊區建國一路31巷11號","121.434768333333","25.0316566666667","6500500","新莊區"
"242023","362-BY","2018/12/04 17:49:20","新北市新莊區福樂街45號","121.457563333333","25.0472416666667","6500500","新莊區"
"242061","353-BY","2018/12/04 17:49:28","新北市新莊區瓊林南路220號","121.433451666667","25.0056216666667","6500500","新莊區"
"242011","132-UY","2018/12/04 17:49:17","新北市新莊區中港路689號","121.450715","25.0566733333333","6500500","新莊區"
"242034","135-UY","2018/12/04 17:49:27","新北市新莊區新莊路692號","121.440673333333","25.0327516666667","6500500","新莊區"
"242051","172-VK","2018/12/04 17:49:29","新北市新莊區西盛街257巷19號","121.428875","25.0158566666667","6500500","新莊區"
"242013","173-VK","2018/12/04 17:49:10","新北市新莊區中誠街142巷11號","121.448625","25.048065","6500500","新莊區"
"242019","175-VK","2018/12/04 17:49:27","新北市新莊區明中街30號","121.457281666667","25.0394183333333","6500500","新莊區"
"242017","346-TH","2018/12/04 17:49:26","新北市新莊區永安街17號","121.452105","25.044735","6500500","新莊區"
"242032","347-TH","2018/12/04 17:49:21","新北市新莊區新泰路357巷1弄2號","121.44267","25.041235","6500500","新莊區"
"242005","349-TH","2018/12/04 17:49:14","新北市新莊區自立街247號","121.45869","25.045565","6500500","新莊區"
"242021","350-TH","2018/12/04 17:49:15","新北市新莊區永寧街28巷2號","121.452696666667","25.0386233333333","6500500","新莊區"
"242015","351-TH","2018/12/04 17:49:25","新北市新莊區新泰路502巷40號","121.443706666667","25.0463","6500500","新莊區"
"238015","755-BX","2018/12/04 17:49:26","新北市樹林區大安路249巷7號","121.419865","24.9941416666667","6500700","樹林區"
"238023","601-UM","2018/12/04 17:49:16","新北市樹林區龍興街14巷13號","121.402251666667","25.0159133333333","6500700","樹林區"
"238019","599-UM","2018/12/04 17:49:23","新北市樹林區太順街5巷1號","121.420155","24.979995","6500700","樹林區"
"238018","571-TV","2018/12/04 17:49:11","新北市樹林區博愛街132號","121.426433333333","24.9913333333333","6500700","樹林區"
"238022","KEA-2213","2018/12/04 17:49:19","新北市樹林區太順街62巷4號","121.41779","24.9794483333333","6500700","樹林區"
"238021","KEA-2539","2018/12/04 17:49:25","新北市樹林區田尾街80號","121.409285","24.9583483333333","6500700","樹林區"
"238025","303-VK","2018/12/04 17:49:19","新北市樹林區俊興街209-3號","121.417446666667","25.0140766666667","6500700","樹林區"
"238017","283-BY","2018/12/04 17:49:29","新北市樹林區三德街34-3號","121.41512","25.0131416666667","6500700","樹林區"
"238014","282-BY","2018/12/04 17:49:26","新北市樹林區大安路151號","121.42176","24.99688","6500700","樹林區"
"238020","268-VK","2018/12/04 17:49:21","新北市樹林區俊英街252號","121.424483333333","25.0109966666667","6500700","樹林區"
"238026","172-UY","2018/12/04 17:49:25","新北市樹林區新興街19巷34弄10號","121.401986666667","24.9731316666667","6500700","樹林區"
"238016","169-UY","2018/12/04 17:49:22","新北市樹林區復興路335巷1號","121.417981666667","24.987895","6500700","樹林區"
"239007","AAC-297","2018/12/04 17:49:13","新北市鶯歌區鶯桃路94巷31號","121.341341666667","24.9541033333333","6500800","鶯歌區"
"239006","891-R6","2018/12/04 17:49:20","新北市鶯歌區永和街113號","121.333591666667","24.9686866666667","6500800","鶯歌區"
"239008","527-UM","2018/12/04 17:49:22","新北市鶯歌區大湖路642號","121.334025","24.9755883333333","6500800","鶯歌區"
"239005","526-UM","2018/12/04 17:49:08","新北市鶯歌區鳳吉四街44號","121.327593333333","24.9730333333333","6500800","鶯歌區"
"239001","417-VK","2018/12/04 17:49:22","新北市鶯歌區中正三路400-1號","121.325898333333","24.9345783333333","6500800","鶯歌區"
"239003","360-BY","2018/12/04 17:49:11","新北市鶯歌區永吉街46巷17號","121.335033333333","24.9574333333333","6500800","鶯歌區"
"239002","359-BY","2018/12/04 17:49:29","新北市鶯歌區國華路71-1號","121.342963333333","24.9546483333333","6500800","鶯歌區"
"239004","193-VK","2018/12/04 17:49:27","新北市鶯歌區尖山路38號","121.351063333333","24.9504683333333","6500800","鶯歌區"
"221008","489-VK","2018/12/04 17:49:13","新北市汐止區康寧街901號","121.651331666667","25.0750483333333","6501100","汐止區"
"221036","130-UY","2018/12/04 17:49:26","新北市汐止區汐萬路一段127號","121.653941666667","25.07108","6501100","汐止區"
"221015","131-UY","2018/12/04 17:49:19","新北市汐止區長江街249-1號","121.662886666667","25.0792516666667","6501100","汐止區"
"221010","269-BY","2018/12/04 17:49:14","新北市汐止區汐萬路二段122巷9號","121.648393333333","25.0857833333333","6501100","汐止區"
"221012","278-VK","2018/12/04 17:49:20","新北市汐止區長江街43號","121.655888333333","25.0712616666667","6501100","汐止區"
"221032","280-BY","2018/12/04 17:49:29","新北市汐止區大同路一段207號","121.633633333333","25.0573316666667","6501100","汐止區"
"221027","281-BY","2018/12/04 17:49:19","新北市汐止區汐萬路一段312號","121.650656666667","25.07537","6501100","汐止區"
"221021","299-VK","2018/12/04 17:49:16","新北市汐止區汐萬路一段10號","121.656088333333","25.0673583333333","6501100","汐止區"
"221031","353-TW","2018/12/04 17:49:20","新北市汐止區中興路96巷16號","121.635593333333","25.062505","6501100","汐止區"
"221002","129-UY","2018/12/04 17:49:10","新北市汐止區康寧街901號","121.651431666667","25.0749966666667","6501100","汐止區"
"221035","622-UM","2018/12/04 17:49:12","新北市汐止區汐萬路一段211巷13號","121.651643333333","25.0718816666667","6501100","汐止區"
"221025","623-UM","2018/12/04 17:49:21","新北市汐止區大同路二段169巷22弄32號","121.651788333333","25.0655533333333","6501100","汐止區"
"221038","646-BX","2018/12/04 17:49:23","新北市汐止區汐萬路一段220號","121.65181","25.07278","6501100","汐止區"
"221018","753-BX","2018/12/04 17:49:26","新北市汐止區水碓街2號","121.663728333333","25.0699783333333","6501100","汐止區"
"242007","280-VK","2018/12/04 17:49:22","新北市新莊區福樂街132巷11號","121.456781666667","25.0484766666667","6500500","新莊區"
"235065","KEA-2876","2018/12/04 17:49:23","新北市中和區中正路637巷60弄61號","121.485406666667","24.9924883333333","6500300","中和區"
