"lineid","car","time","location","longitude","latitude","cityid","cityname"
"234007","207-UY","2018/12/04 18:09:19","新北市永和區福和路1號","121.526508333333","25.01011","6500400","永和區"
"234026","9372-KE","2018/12/04 18:09:13","新北市永和區秀朗路一段10巷21號","121.513321666667","25.00615","6500400","永和區"
"249005","172-UM","2018/12/04 18:09:23","新北市八里區荖阡坑路15-40號","121.401746666667","25.1398816666667","6502300","八里區"
"249001","173-UM","2018/12/04 18:09:11","新北市八里區龍米路二段28號","121.44867","25.13964","6502300","八里區"
"249004","303-UY","2018/12/04 18:09:17","新北市八里區龍米路二段200巷3號","121.43372","25.158755","6502300","八里區"
"249002","305-UY","2018/12/04 18:09:28","新北市八里區龍米路一段386巷2號","121.451798333333","25.131915","6502300","八里區"
"249003","593-UM","2018/12/04 18:09:30","新北市八里區松子腳3-2號","121.40301","25.144285","6502300","八里區"
"248014","025-BX","2018/12/04 18:09:16","新北市五股區成泰路二段3號","121.436956666667","25.0811833333333","6501500","五股區"
"248006","077-UY","2018/12/04 18:09:27","新北市五股區中興路二段77-1號","121.460881666667","25.0772033333333","6501500","五股區"
"248008","095-VK","2018/12/04 18:09:26","新北市蘆洲區永安南路二段294號","121.457251666667","25.08188","6501500","五股區"
"248020","225-UY","2018/12/04 18:09:24","新北市五股區成泰路三段544-1號","121.454525","25.1018366666667","6501500","五股區"
"248010","272-BY","2018/12/04 18:09:09","新北市五股區新五路二段258號","121.440811666667","25.08215","6501500","五股區"
"248004","677-BX","2018/12/04 18:09:26","新北市五股區工商路63號","121.438991666667","25.0843183333333","6501500","五股區"
"232011","375-UM","2018/12/04 18:09:19","新北市坪林區坪雙路一段31號","121.711698333333","24.94242","6502000","坪林區"
"244023","069-UM","2018/12/04 18:09:19","新北市林口區東湖路105巷77號","121.384635","25.07154","6501700","林口區"
"244007","080-UY","2018/12/04 18:09:30","新北市林口區竹林路560號","121.387018333333","25.0840366666667","6501700","林口區"
"244019","402-UM","2018/12/04 18:09:24","新北市林口區麗園路82號","121.37278","25.0690516666667","6501700","林口區"
"244013","KEA-2802","2018/12/04 18:09:09","新北市林口區中山路148號","121.391281666667","25.0787733333333","6501700","林口區"
"244017","485-VK","2018/12/04 18:09:17","新北市林口區忠孝路506號","121.370716666667","25.0700216666667","6501700","林口區"
"244009","656-BX","2018/12/04 18:09:17","新北市林口區文化一路二段202號","121.383355","25.0807216666667","6501700","林口區"
"244011","701-TV","2018/12/04 18:09:20","新北市林口區粉寮路一段41號","121.396555","25.077355","6501700","林口區"
"244025","837-TS","2018/12/04 18:09:22","新北市林口區文化北路一段299巷27號","121.358961666667","25.073435","6501700","林口區"
"244021","838-TS","2018/12/04 18:09:12","新北市林口區自強一街93號","121.400206666667","25.0768933333333","6501700","林口區"
"243013","AAD-798","2018/12/04 18:09:09","新北市泰山區南林路99巷1-1號","121.4155","25.0511316666667","6501600","泰山區"
"222002","016-RS","2018/12/04 18:09:25","新北市深坑區文化街42號","121.6191","25.001575","6501800","深坑區"
"222003","436-BY","2018/12/04 18:09:24","新北市深坑區阿柔洋47號","121.612255","24.9972766666667","6501800","深坑區"
"231041","002-UM","2018/12/04 18:09:15","新北市新店區安華路28-1號","121.5198","24.9608516666667","6500600","新店區"
"231059","046-UY","2018/12/04 18:09:30","新北市新店區安華路28-1號","121.51959","24.9607083333333","6500600","新店區"
"231040","047-UY","2018/12/04 18:09:21","新北市新店區安華路28-1號","121.519183333333","24.9609083333333","6500600","新店區"
"231044","106-UY","2018/12/04 18:09:15","新北市新店區安華路28-1號","121.519658333333","24.9606516666667","6500600","新店區"
"231053","108-UY","2018/12/04 18:09:19","新北市新店區安一路一段1-1號","121.51944","24.9611183333333","6500600","新店區"
"231048","187-VK","2018/12/04 18:09:24","新北市新店區安一路一段1-1號","121.519683333333","24.9612183333333","6500600","新店區"
"231051","188-VK","2018/12/04 18:09:25","新北市新店區安一路一段1-1號","121.519686666667","24.9610566666667","6500600","新店區"
"231057","256-BX","2018/12/04 18:09:26","新北市新店區安一路一段1-1號","121.519613333333","24.9612","6500600","新店區"
"231042","268-BY","2018/12/04 18:09:23","新北市新店區安華路1-1號","121.519411666667","24.9604266666667","6500600","新店區"
"231050","AAD-862","2018/12/04 18:09:28","新北市新店區安華路28-1號","121.51997","24.9609283333333","6500600","新店區"
"231058","3713-VJ","2018/12/04 18:09:11","新北市新店區安華路28-1號","121.519241666667","24.960645","6500600","新店區"
"231066","4716-K9","2018/12/04 18:09:18","新北市新店區安一路一段1-1號","121.519203333333","24.96131","6500600","新店區"
"231056","4715-K9","2018/12/04 18:09:16","新北市新店區安康路一段226號","121.523495","24.9635683333333","6500600","新店區"
"231065","512-UM","2018/12/04 18:09:21","新北市新店區安一路一段1-1號","121.5193","24.9612266666667","6500600","新店區"
"231049","513-UM","2018/12/04 18:09:17","新北市新店區安一路一段1-1號","121.519805","24.9613883333333","6500600","新店區"
"231045","617-UM","2018/12/04 18:09:18","新北市新店區安華路28-1號","121.519473333333","24.96091","6500600","新店區"
"231064","719-UM","2018/12/04 18:09:05","新北市新店區安一路一段1-1號","121.519431666667","24.9611633333333","6500600","新店區"
"231046","719-UY","2018/12/04 18:09:16","新北市新店區直潭七街60號","121.532221666667","24.9399016666667","6500600","新店區"
"231062","720-UM","2018/12/04 18:09:16","新北市新店區安一路一段1-1號","121.519316666667","24.9611766666667","6500600","新店區"
"231060","897-TW","2018/12/04 18:09:26","新北市新店區安華路28-1號","121.519576666667","24.960615","6500600","新店區"
"231043","898-TW","2018/12/04 18:09:20","新北市新店區安華路28-1號","121.519295","24.960805","6500600","新店區"
"231055","AKT-0513","2018/12/04 18:09:16","新北市新店區安華路1-1號","121.519468333333","24.9604733333333","6500600","新店區"
"241024","065-VK","2018/12/04 18:09:18","新北市三重區中正北路193巷28號","121.475881666667","25.0706866666667","6500200","三重區"
"241033","557-UM","2018/12/04 18:05:04","新北市三重區中興北街135巷32號","121.46956","25.05108","6500200","三重區"
"235066","003-UY","2018/12/04 18:09:24","新北市中和區中和路12號","121.499716666667","25.00208","6500300","中和區"
"235064","005-UY","2018/12/04 18:09:16","新北市中和區中正路175號","121.497478333333","24.99358","6500300","中和區"
"235063","006-UY","2018/12/04 18:09:13","新北市中和區員山路36巷16-3號","121.485016666667","24.9913116666667","6500300","中和區"
"235039","097-UM","2018/12/04 18:09:18","新北市中和區和城路一段271巷1號","121.485431666667","24.9919233333333","6500300","中和區"
"235058","151-BY","2018/12/04 18:09:24","新北市中和區圓通路367巷58號","121.492231666667","24.9845966666667","6500300","中和區"
"235038","185-VK","2018/12/04 18:09:29","新北市中和區景平路180號","121.516448333333","24.992205","6500300","中和區"
"235072","301-VK","2018/12/04 18:09:17","新北市中和區員山路36巷13號","121.484261666667","24.99077","6500300","中和區"
"235043","352-BY","2018/12/04 18:09:13","新北市中和區和城路一段271巷1號","121.485391666667","24.9920383333333","6500300","中和區"
"235050","4979-A6","2018/12/04 18:09:25","新北市中和區中正路166-1號","121.498383333333","24.9941166666667","6500300","中和區"
"235070","558-UM","2018/12/04 18:09:21","新北市中和區圓通路215號","121.496788333333","24.9943483333333","6500300","中和區"
"235045","565-BX","2018/12/04 18:09:19","新北市中和區中正路273-3號","121.495623333333","24.9934866666667","6500300","中和區"
"235054","640-BX","2018/12/04 18:09:16","新北市中和區連城路469巷79弄22號","121.483975","24.9936716666667","6500300","中和區"
"235060","647-TV","2018/12/04 18:09:15","新北市中和區員山路36巷16-3號","121.484763333333","24.9917333333333","6500300","中和區"
"235047","732-UM","2018/12/04 18:09:07","新北市中和區錦和路350-1號","121.490008333333","24.99352","6500300","中和區"
"235046","733-UM","2018/12/04 18:09:27","新北市中和區員山路36巷13號","121.484061666667","24.9910183333333","6500300","中和區"
"235071","783-BX","2018/12/04 18:09:10","新北市中和區員山路36巷16-3號","121.485023333333","24.9913133333333","6500300","中和區"
"235062","800-TS","2018/12/04 18:09:19","新北市中和區中山路二段441號","121.484655","25.0046616666667","6500300","中和區"
"235057","801-TS","2018/12/04 18:09:13","新北市中和區中正路637巷52弄7號","121.485128333333","24.9937216666667","6500300","中和區"
"235052","805-TS","2018/12/04 18:09:29","新北市中和區錦和路350-1號","121.490483333333","24.99357","6500300","中和區"
"235053","900-TW","2018/12/04 18:09:21","新北市中和區員山路36巷16-3號","121.484876666667","24.99172","6500300","中和區"
"235051","157-BY","2018/12/04 18:09:09","新北市中和區板南路100號","121.50386","24.9923516666667","6500300","中和區"
"235037","AAC-213","2018/12/04 18:09:27","新北市中和區景平路155號","121.513685","24.9922333333333","6500300","中和區"
"235059","AAC-215","2018/12/04 18:09:13","新北市中和區員山路36巷16-3號","121.484918333333","24.991295","6500300","中和區"
"226004","312-R5","2018/12/04 18:00:24","新北市平溪區石底里公園街18-3號","121.73332","25.0258033333333","6502400","平溪區"
"228001","212-TW","2018/12/04 18:09:11","新北市貢寮區真理里新港街26巷55弄2-1號","121.927413333333","25.05286","6502600","貢寮區"
"228002","663-BX","2018/12/04 18:09:13","新北市貢寮區福連里福興街39-3號","121.993825","25.0133183333333","6502600","貢寮區"
"228003","828-UM","2018/12/04 18:09:15","新北市貢寮區真理里美艷山街6-2號","121.928875","25.060675","6502600","貢寮區"
"224006","676-BX","2018/12/04 18:09:22","新北市瑞芳區中山路22號","121.804085","25.106235","6501200","瑞芳區"
"224008","285-BY","2018/12/04 18:09:25","新北市瑞芳區員山子路23號","121.82135","25.10302","6501200","瑞芳區"
"224007","275-VK","2018/12/04 18:09:16","新北市瑞芳區四腳亭坑路8號","121.77774","25.1096616666667","6501200","瑞芳區"
"224009","273-VK","2018/12/04 18:09:17","新北市瑞芳區金光路115號","121.85358","25.10625","6501200","瑞芳區"
"224005","271-BY","2018/12/04 18:09:11","新北市瑞芳區深澳路1號","121.816243333333","25.1283533333333","6501200","瑞芳區"
"227003","642-TC","2018/12/04 18:09:19","新北市雙溪區共和里東榮街27號","121.866088333333","25.0336716666667","6502500","雙溪區"
"253006","032-BX","2018/12/04 18:09:12","新北市石門區老梅路52巷25弄2-1號","121.546595","25.2874116666667","6502200","石門區"
"253005","295-VK","2018/12/04 18:09:14","新北市石門區福安街37號","121.56868","25.29213","6502200","石門區"
"222001","KEA-2212","2018/12/04 18:09:27","新北市深坑區北深路二段188號","121.613941666667","25.002295","6501800","深坑區"
"208002","KEA-2872","2018/12/04 18:09:23","新北市金山區三界壇路111巷20-3號","121.617816666667","25.2320883333333","6502700","金山區"
"208003","665-BX","2018/12/04 18:09:17","新北市金山區民生路151-2號","121.644531666667","25.2228133333333","6502700","金山區"
"208001","761-BX","2018/12/04 18:09:26","新北市金山區磺港里磺港路74號","121.647603333333","25.2268683333333","6502700","金山區"
"251005","010-UM","2018/12/04 18:09:17","新北市淡水區水源街一段141號","121.44721","25.1718716666667","6501000","淡水區"
"251001","011-UM","2018/12/04 18:09:24","新北市淡水區自立路1巷27號","121.46266","25.1295133333333","6501000","淡水區"
"251013","KEA-2871","2018/12/04 18:09:27","新北市淡水區竹圍子19-2號","121.477181666667","25.1914683333333","6501000","淡水區"
"251016","179-VK","2018/12/04 18:09:12","新北市淡水區下圭柔山15號","121.453245","25.202255","6501000","淡水區"
"251014","180-VK","2018/12/04 18:09:08","新北市淡水區南平14-3號","121.486485","25.2204766666667","6501000","淡水區"
"251008","181-VK","2018/12/04 18:09:24","新北市淡水區坪頂路70巷41號","121.46068","25.160395","6501000","淡水區"
"251015","182-VK","2018/12/04 18:09:24","新北市淡水區興福寮88巷1號","121.485226666667","25.1648616666667","6501000","淡水區"
"251010","413-VK","2018/12/04 18:09:18","新北市淡水區中正路二段50巷10號","121.41985","25.1833233333333","6501000","淡水區"
"251012","441-VK","2018/12/04 18:09:22","新北市淡水區泉洲厝19號","121.490443333333","25.1908616666667","6501000","淡水區"
"251004","443-VK","2018/12/04 18:09:16","新北市淡水區民族路110巷10號","121.46209","25.1355216666667","6501000","淡水區"
"251006","561-UM","2018/12/04 18:09:14","新北市淡水區真理街3巷24-1號","121.437908333333","25.1765933333333","6501000","淡水區"
"251009","575-R6","2018/12/04 18:09:24","新北市淡水區大忠街34巷19號","121.44406","25.175675","6501000","淡水區"
"251011","650-BX","2018/12/04 18:09:08","新北市淡水區三空泉9-2號","121.474161666667","25.163535","6501000","淡水區"
"251002","672-BX","2018/12/04 18:09:17","新北市淡水區中正東路一段129號","121.455486666667","25.1591983333333","6501000","淡水區"
"251003","673-BX","2018/12/04 18:09:29","新北市淡水區大忠街113巷29號","121.447535","25.1774733333333","6501000","淡水區"
"207003","550-UM","2018/12/04 18:09:17","新北市萬里區野柳里港西路701-2號","121.685371666667","25.2046116666667","6502800","萬里區"
"207004","225-TW","2018/12/04 18:09:24","新北市萬里區中幅里中福路106號","121.67646","25.1694983333333","6502800","萬里區"
"252002","178-VK","2018/12/04 18:09:20","新北市三芝區中山路二段38號","121.50299","25.2551416666667","6502100","三芝區"
"252003","249-BX","2018/12/04 18:09:16","新北市三芝區埔頭里埔頭39-1號","121.499078333333","25.2607466666667","6502100","三芝區"
"252001","292-VK","2018/12/04 18:09:17","新北市三芝區中興街二段2號","121.498408333333","25.25662","6502100","三芝區"
"237007","153-BY","2018/12/04 18:09:23","新北市三峽區中正路二段399號","121.36473","24.907485","6500900","三峽區"
"237009","210-TH","2018/12/04 18:09:14","新北市三峽區大仁路52號","121.365415","24.937635","6500900","三峽區"
"237013","252-BX","2018/12/04 18:09:16","新北市三峽區長泰街55號","121.377411666667","24.9328916666667","6500900","三峽區"
"237012","275-BY","2018/12/04 18:09:06","新北市三峽區民生街1巷1-17號","121.37772","24.9358166666667","6500900","三峽區"
"237008","302-VK","2018/12/04 18:09:11","新北市三峽區白雞58-23號","121.386128333333","24.9096533333333","6500900","三峽區"
"237014","433-BY","2018/12/04 18:09:13","新北市三峽區復興路80巷22號","121.37369","24.937835","6500900","三峽區"
"237006","5529-G3","2018/12/04 18:09:20","新北市三峽區介壽路二段167號","121.394725","24.9359016666667","6500900","三峽區"
"237011","KEA-2596","2018/12/04 18:09:12","新北市三峽區大同路11-1號","121.377266666667","24.9287866666667","6500900","三峽區"
"237016","649-BX","2018/12/04 18:09:16","新北市三峽區紫微路42-1號","121.422653333333","24.9200016666667","6500900","三峽區"
"237010","706-TV","2018/12/04 18:09:11","新北市三峽區中園街3號","121.368573333333","24.92748","6500900","三峽區"
"237005","AKY-6261","2018/12/04 18:09:25","新北市三峽區文化路65巷12號","121.372055","24.9354716666667","6500900","三峽區"
"236070","105-UM","2018/12/04 18:09:15","新北市土城區青雲路456號","121.459468333333","24.9689566666667","6501300","土城區"
"236042","KED-0685","2018/12/04 18:09:29","新北市土城區城林路6巷80號","121.438653333333","24.9796883333333","6501300","土城區"
"236079","166-UM","2018/12/04 18:09:28","新北市土城區永寧路35號","121.430155","24.962","6501300","土城區"
"236030","253-BX","2018/12/04 18:09:16","新北市土城區城林路6巷80號","121.438656666667","24.9796333333333","6501300","土城區"
"236026","269-VK","2018/12/04 18:09:15","新北市土城區承天路18號","121.439353333333","24.9634766666667","6501300","土城區"
"236014","270-VK","2018/12/04 18:09:14","新北市土城區學府路一段175號","121.452426666667","24.9852883333333","6501300","土城區"
"236038","271-VK","2018/12/04 18:09:26","新北市土城區明德路一段369-2號","121.453335","24.9793066666667","6501300","土城區"
"236021","401-BY","2018/12/04 18:09:19","新北市土城區城林路6巷80號","121.438791666667","24.979615","6501300","土城區"
"236055","752-BX","2018/12/04 18:09:18","新北市土城區中華路二段62號","121.438975","24.976815","6501300","土城區"
"236059","912-UM","2018/12/04 18:09:28","新北市土城區中央路四段159-3號","121.415185","24.9568883333333","6501300","土城區"
"236049","913-UM","2018/12/04 18:09:13","新北市土城區明德路一段365-1號","121.453555","24.9790283333333","6501300","土城區"
"236063","915-UM","2018/12/04 18:09:17","新北市土城區金城路二段14號","121.449466666667","24.9774416666667","6501300","土城區"
"242037","AAC-296","2018/12/04 18:09:30","新北市新莊區後港一路49巷8號","121.42596","25.0267766666667","6500500","新莊區"
"242058","986-R7","2018/12/04 18:09:23","新北市新莊區新北大道七段349號","121.412093333333","25.0274383333333","6500500","新莊區"
"242056","751-BX","2018/12/04 18:09:13","新北市新莊區泰豐街11巷9號","121.448046666667","25.03124","6500500","新莊區"
"242027","705-TV","2018/12/04 18:09:14","新北市新莊區幸福路559號","121.454388333333","25.0491916666667","6500500","新莊區"
"242025","613-BX","2018/12/04 18:09:18","新北市新莊區五權一路92號","121.45948","25.0674583333333","6500500","新莊區"
"242029","612-BX","2018/12/04 18:09:14","新北市新莊區中平路202-1號","121.44488","25.0487933333333","6500500","新莊區"
"242044","566-BX","2018/12/04 18:09:10","新北市新莊區中正路702-3號","121.41752","25.0260916666667","6500500","新莊區"
"242048","497-BY","2018/12/04 18:09:28","新北市新莊區福營路435號","121.42054","25.026205","6500500","新莊區"
"242042","442-UM","2018/12/04 18:09:25","新北市泰山區新北大道六段369號","121.422376666667","25.0328916666667","6500500","新莊區"
"242054","441-UM","2018/12/04 18:09:19","新北市新莊區民安西路327巷4弄2號","121.427978333333","25.0113766666667","6500500","新莊區"
"242002","440-UM","2018/12/04 18:09:26","新北市新莊區新莊路167號","121.456203333333","25.036005","6500500","新莊區"
"242039","415-TV","2018/12/04 18:09:11","新北市新莊區民安西路38巷13號","121.426801666667","25.0206683333333","6500500","新莊區"
"242009","413-TV","2018/12/04 18:09:26","新北市新莊區昌平街71巷23號","121.453398333333","25.0536566666667","6500500","新莊區"
"242046","400-BY","2018/12/04 18:09:24","新北市新莊區福營路329號","121.425713333333","25.02868","6500500","新莊區"
"242061","353-BY","2018/12/04 18:09:28","新北市新莊區新樹路295-5號","121.433745","25.019885","6500500","新莊區"
"242011","132-UY","2018/12/04 18:09:17","新北市新莊區中原路271號","121.448445","25.0538716666667","6500500","新莊區"
"242034","135-UY","2018/12/04 18:09:27","新北市新莊區新莊路496-1號","121.446348333333","25.0334466666667","6500500","新莊區"
"242051","172-VK","2018/12/04 18:09:29","新北市新莊區民本街11巷30號","121.42907","25.0202516666667","6500500","新莊區"
"242019","175-VK","2018/12/04 18:09:27","新北市新莊區復興路一段4號","121.445566666667","25.0414333333333","6500500","新莊區"
"242032","347-TH","2018/12/04 18:09:21","新北市新莊區新泰路277巷53號","121.443651666667","25.0401316666667","6500500","新莊區"
"242005","349-TH","2018/12/04 18:09:14","新北市新莊區自立街62號","121.453966666667","25.0453766666667","6500500","新莊區"
"242021","350-TH","2018/12/04 18:09:15","新北市新莊區新興街50號","121.450785","25.03743","6500500","新莊區"
"242015","351-TH","2018/12/04 18:09:25","新北市新莊區中平路152巷46號","121.44673","25.0473916666667","6500500","新莊區"
"238015","755-BX","2018/12/04 18:09:27","新北市樹林區啟智街156巷9號","121.414828333333","24.9877533333333","6500700","樹林區"
"238023","601-UM","2018/12/04 18:09:14","新北市樹林區龍興街31巷20號","121.403683333333","25.016015","6500700","樹林區"
"238019","599-UM","2018/12/04 18:09:24","新北市樹林區水源街44號","121.42561","24.9813233333333","6500700","樹林區"
"238018","571-TV","2018/12/04 18:09:11","新北市板橋區大觀路三段236-6號","121.42928","24.9923766666667","6500700","樹林區"
"238022","KEA-2213","2018/12/04 18:09:19","新北市樹林區太平路174巷32弄5號","121.417255","24.9766016666667","6500700","樹林區"
"238021","KEA-2539","2018/12/04 18:09:25","新北市樹林區柑園街二段149巷1號","121.382305","24.95383","6500700","樹林區"
"238025","303-VK","2018/12/04 18:09:19","新北市樹林區保安街二段57號","121.416125","25.0004","6500700","樹林區"
"238017","283-BY","2018/12/04 18:09:09","新北市樹林區中正路714號","121.409176666667","25.01786","6500700","樹林區"
"238014","282-BY","2018/12/04 18:09:26","新北市樹林區潭興街107巷21弄24號","121.423706666667","24.99857","6500700","樹林區"
"238020","268-VK","2018/12/04 18:09:21","新北市樹林區三俊街157號","121.419051666667","25.0155916666667","6500700","樹林區"
"238026","172-UY","2018/12/04 18:09:25","新北市樹林區佳園路一段4號","121.392696666667","24.971625","6500700","樹林區"
"238016","169-UY","2018/12/04 18:09:02","新北市樹林區中山路一段242巷21號","121.420336666667","24.9878483333333","6500700","樹林區"
"239007","AAC-297","2018/12/04 18:09:13","新北市鶯歌區尖山埔路54號","121.348548333333","24.9510283333333","6500800","鶯歌區"
"239006","891-R6","2018/12/04 18:09:20","新北市鶯歌區鶯桃路381巷2弄11號","121.332996666667","24.9637033333333","6500800","鶯歌區"
"239008","527-UM","2018/12/04 18:09:22","新北市鶯歌區朝陽街53巷22號","121.338731666667","24.9776583333333","6500800","鶯歌區"
"239005","526-UM","2018/12/04 18:09:28","新北市鶯歌區鶯桃路658巷37弄16號","121.329835","24.9701616666667","6500800","鶯歌區"
"239001","417-VK","2018/12/04 18:09:22","新北市鶯歌區中正三路福德巷2弄1號","121.339498333333","24.9413833333333","6500800","鶯歌區"
"239003","360-BY","2018/12/04 18:09:11","新北市鶯歌區福安街11巷1號","121.335335","24.965115","6500800","鶯歌區"
"239002","359-BY","2018/12/04 18:09:29","新北市鶯歌區中山路145號","121.34905","24.9569683333333","6500800","鶯歌區"
"239004","193-VK","2018/12/04 18:09:17","新北市鶯歌區尖山路137巷2號","121.34688","24.94866","6500800","鶯歌區"
"221008","489-VK","2018/12/04 18:09:13","新北市汐止區康寧街315號","121.627106666667","25.0678433333333","6501100","汐止區"
"221036","130-UY","2018/12/04 18:09:26","新北市汐止區大同路三段101號","121.668326666667","25.0774766666667","6501100","汐止區"
"221015","131-UY","2018/12/04 18:09:19","新北市汐止區鄉長路二段29-1號","121.668281666667","25.083035","6501100","汐止區"
"221010","269-BY","2018/12/04 18:09:14","新北市汐止區祥雲街8號","121.646056666667","25.089765","6501100","汐止區"
"221012","278-VK","2018/12/04 18:09:20","新北市汐止區保一街81-1號","121.67464","25.0802183333333","6501100","汐止區"
"221032","280-BY","2018/12/04 18:09:28","新北市汐止區力行街14號","121.617048333333","25.05085","6501100","汐止區"
"221027","281-BY","2018/12/04 18:09:25","新北市汐止區大同路二段585號","121.663643333333","25.070465","6501100","汐止區"
"221029","298-VK","2018/12/04 18:09:19","新北市汐止區樟樹二路132號","121.639906666667","25.0656216666667","6501100","汐止區"
"221021","299-VK","2018/12/04 18:09:16","新北市汐止區復興路9號","121.655955","25.06463","6501100","汐止區"
"221031","353-TW","2018/12/04 18:09:20","新北市汐止區中興路152-3號","121.632413333333","25.06485","6501100","汐止區"
"221002","129-UY","2018/12/04 18:09:10","新北市汐止區福德一路188號","121.635396666667","25.0656633333333","6501100","汐止區"
"221035","622-UM","2018/12/04 18:09:27","新北市汐止區大同路二段252號","121.654298333333","25.0659716666667","6501100","汐止區"
"221025","623-UM","2018/12/04 18:09:21","新北市汐止區秀峰路151巷1號","121.660881666667","25.0619333333333","6501100","汐止區"
"221038","646-BX","2018/12/04 18:09:23","新北市汐止區水源路一段268號","121.65409","25.0588133333333","6501100","汐止區"
"221033","647-BX","2018/12/04 18:09:21","新北市汐止區宜興街40巷22弄6號","121.622658333333","25.0412566666667","6501100","汐止區"
"221018","753-BX","2018/12/04 18:09:26","新北市汐止區忠孝東路351號","121.665545","25.0703866666667","6501100","汐止區"
"224002","257-TC","2018/12/04 18:09:21","新北市瑞芳區三爪子坑路149巷24號","121.811563333333","25.1065133333333","6501200","瑞芳區"
"242007","280-VK","2018/12/04 18:09:18","新北市新莊區自強街37巷10號","121.454268333333","25.0465866666667","6500500","新莊區"
"220054","741-BX","2018/12/04 18:09:27","新北市板橋區華東街1-9號","121.44809","24.9949066666667","6500100","板橋區"
"235068","KEA-2873","2018/12/04 18:09:13","新北市中和區員山路36巷16-3號","121.485068333333","24.9911833333333","6500300","中和區"
"235061","KEA-2875","2018/12/04 18:09:07","新北市中和區連城路469巷79弄14號","121.483745","24.99366","6500300","中和區"
"235065","KEA-2876","2018/12/04 18:09:23","新北市中和區莊敬路49巷27號","121.501578333333","25.00616","6500300","中和區"
