"lineid","car","time","location","longitude","latitude","cityid","cityname"
"234046","148-BY","2018/12/04 18:29:24","新北市永和區福和路1號","121.525475","25.0095266666667","6500400","永和區"
"234007","207-UY","2018/12/04 18:29:19","新北市永和區環河西路二段219號","121.501285","25.010235","6500400","永和區"
"234081","553-UM","2018/12/04 18:29:18","新北市永和區豫溪街217巷1號","121.524886666667","25.0092683333333","6500400","永和區"
"234030","746-BX","2018/12/04 18:29:23","新北市永和區環河東路三段12號","121.525738333333","25.0080083333333","6500400","永和區"
"234042","862-TW","2018/12/04 18:29:13","新北市永和區福和路167號","121.520113333333","25.007655","6500400","永和區"
"234026","9372-KE","2018/12/04 18:29:13","新北市永和區中正路659號","121.514773333333","25.0101616666667","6500400","永和區"
"234011","9373-KE","2018/12/04 18:29:22","新北市永和區保福路二段162巷2號","121.508953333333","25.0151833333333","6500400","永和區"
"249005","172-UM","2018/12/04 18:29:23","新北市八里區長坑口47-5號","121.389821666667","25.13418","6502300","八里區"
"249001","173-UM","2018/12/04 18:29:25","新北市八里區龍米路一段156號","121.45279","25.1258966666667","6502300","八里區"
"249004","303-UY","2018/12/04 18:29:17","新北市八里區忠孝路70號","121.426366666667","25.1603516666667","6502300","八里區"
"249002","305-UY","2018/12/04 18:29:28","新北市八里區龍形三街17號","121.44889","25.131705","6502300","八里區"
"248014","025-BX","2018/12/04 18:29:26","新北市五股區明德路7巷37號","121.434638333333","25.0708116666667","6501500","五股區"
"248016","026-BX","2018/12/04 18:29:26","新北市五股區凌雲路一段83巷11號","121.449495","25.1008966666667","6501500","五股區"
"248006","077-UY","2018/12/04 18:29:27","新北市五股區四維路44號","121.467325","25.0719816666667","6501500","五股區"
"248008","095-VK","2018/12/04 18:29:26","新北市五股區四維路185巷42弄2號","121.46334","25.0770866666667","6501500","五股區"
"248020","225-UY","2018/12/04 18:29:24","新北市五股區孝義路90號","121.447788333333","25.1145016666667","6501500","五股區"
"248010","272-BY","2018/12/04 18:29:29","新北市五股區水碓路7號","121.433806666667","25.0722866666667","6501500","五股區"
"248004","677-BX","2018/12/04 18:29:26","新北市五股區工商路150號","121.433171666667","25.087385","6501500","五股區"
"248002","678-BX","2018/12/04 18:29:25","新北市五股區西雲路113-1號","121.443973333333","25.0932766666667","6501500","五股區"
"248012","682-TV","2018/12/04 18:29:11","新北市五股區御成路145號","121.44094","25.094255","6501500","五股區"
"234067","AAC-212","2018/12/04 18:29:26","新北市永和區環河東路二段90號","121.524428333333","25.01063","6500400","永和區"
"232011","375-UM","2018/12/04 18:13:09","新北市坪林區坪雙路一段31號","121.711695","24.94242","6502000","坪林區"
"244023","069-UM","2018/12/04 18:29:19","新北市林口區仁愛路2段1-2號","121.386203333333","25.0764033333333","6501700","林口區"
"244007","080-UY","2018/12/04 18:29:30","新北市林口區後湖17號","121.386928333333","25.0973783333333","6501700","林口區"
"244019","402-UM","2018/12/04 18:29:21","新北市林口區忠孝路622巷8號","121.377791666667","25.0682283333333","6501700","林口區"
"244013","KEA-2802","2018/12/04 18:29:09","新北市林口區中山路255號","121.385335","25.0793033333333","6501700","林口區"
"244017","485-VK","2018/12/04 18:29:17","新北市林口區八德路78號","121.36551","25.0656816666667","6501700","林口區"
"244009","656-BX","2018/12/04 18:29:17","新北市林口區民生路152號","121.379311666667","25.0879583333333","6501700","林口區"
"244011","701-TV","2018/12/04 18:29:19","新北市林口區林口路7號","121.391696666667","25.0776816666667","6501700","林口區"
"244025","837-TS","2018/12/04 18:29:22","新北市林口區南勢四街196巷17號","121.356906666667","25.0729916666667","6501700","林口區"
"244021","838-TS","2018/12/04 18:29:12","新北市林口區自強二街50號","121.399255","25.0771","6501700","林口區"
"243013","AAD-798","2018/12/04 18:26:06","新北市泰山區明志路三段206巷3號","121.423266666667","25.0379433333333","6501600","泰山區"
"222002","016-RS","2018/12/04 18:29:05","新北市深坑區雲鄉路155號","121.62141","24.9983733333333","6501800","深坑區"
"222003","436-BY","2018/12/04 18:29:24","新北市深坑區北深路一段288號","121.628121666667","25.0076333333333","6501800","深坑區"
"231041","002-UM","2018/12/04 18:29:15","新北市新店區安華路28-1號","121.519826666667","24.9608166666667","6500600","新店區"
"231059","046-UY","2018/12/04 18:29:10","新北市新店區安華路28-1號","121.519618333333","24.96057","6500600","新店區"
"231040","047-UY","2018/12/04 18:29:21","新北市新店區安華路28-1號","121.51918","24.9609116666667","6500600","新店區"
"231044","106-UY","2018/12/04 18:29:15","新北市新店區安華路28-1號","121.519543333333","24.9608683333333","6500600","新店區"
"231053","108-UY","2018/12/04 18:29:19","新北市新店區新烏路一段17巷12號","121.546088333333","24.950615","6500600","新店區"
"231048","187-VK","2018/12/04 18:29:24","新北市新店區安一路一段1-1號","121.519551666667","24.9612516666667","6500600","新店區"
"231051","188-VK","2018/12/04 18:29:25","新北市新店區安一路一段1-1號","121.519658333333","24.961135","6500600","新店區"
"231054","KEA-2219","2018/12/04 18:29:20","新北市新店區安一路一段1-1號","121.519933333333","24.961095","6500600","新店區"
"231057","256-BX","2018/12/04 18:29:26","新北市新店區北宜路一段175號","121.544643333333","24.95311","6500600","新店區"
"231042","268-BY","2018/12/04 18:29:23","新北市新店區安華路1-1號","121.519413333333","24.9604133333333","6500600","新店區"
"231050","AAD-862","2018/12/04 18:29:28","新北市新店區安華路28-1號","121.520265","24.96097","6500600","新店區"
"231058","3713-VJ","2018/12/04 18:29:10","新北市新店區環河路19巷13號","121.537575","24.9604333333333","6500600","新店區"
"231066","4716-K9","2018/12/04 18:29:18","新北市新店區安一路一段1-1號","121.519246666667","24.9611833333333","6500600","新店區"
"231056","4715-K9","2018/12/04 18:29:16","新北市新店區二十張路96號","121.536088333333","24.9796333333333","6500600","新店區"
"231067","4772-VM","2018/12/04 18:29:13","新北市新店區安華路1-1號","121.519253333333","24.9605","6500600","新店區"
"231065","512-UM","2018/12/04 18:29:21","新北市新店區安一路一段1-1號","121.519275","24.9610416666667","6500600","新店區"
"231049","513-UM","2018/12/04 18:29:17","新北市新店區安一路一段1-1號","121.519621666667","24.96109","6500600","新店區"
"231063","616-UM","2018/12/04 18:29:10","新北市新店區安華路1-1號","121.519471666667","24.9604883333333","6500600","新店區"
"231045","617-UM","2018/12/04 18:25:29","新北市新店區安華路28-1號","121.519441666667","24.9608233333333","6500600","新店區"
"231061","619-UM","2018/12/04 18:29:24","新北市新店區安華路28-1號","121.519546666667","24.9608633333333","6500600","新店區"
"231064","719-UM","2018/12/04 18:29:25","新北市新店區安一路一段1-1號","121.51945","24.9612733333333","6500600","新店區"
"231046","719-UY","2018/12/04 18:29:21","新北市新店區直潭八街46號","121.532673333333","24.9393216666667","6500600","新店區"
"231062","720-UM","2018/12/04 18:29:16","新北市新店區安一路一段1-1號","121.519315","24.9611383333333","6500600","新店區"
"231060","897-TW","2018/12/04 18:29:26","新北市新店區安華路28-1號","121.519503333333","24.9607466666667","6500600","新店區"
"231043","898-TW","2018/12/04 18:29:20","新北市新店區安華路28-1號","121.519246666667","24.9608583333333","6500600","新店區"
"231055","AKT-0513","2018/12/04 18:29:16","新北市新店區中正路154巷12號","121.542006666667","24.9722416666667","6500600","新店區"
"235066","003-UY","2018/12/04 18:29:24","新北市中和區中山路二段120號","121.502705","25.0036883333333","6500300","中和區"
"235064","005-UY","2018/12/04 18:29:16","新北市中和區圓通路124號","121.498696666667","24.9957733333333","6500300","中和區"
"235063","006-UY","2018/12/04 18:29:12","新北市中和區連城路347巷16號","121.488361666667","24.995075","6500300","中和區"
"235056","096-UM","2018/12/04 18:29:30","新北市中和區員山路611巷1號","121.477885","25.0112016666667","6500300","中和區"
"235039","097-UM","2018/12/04 18:29:18","新北市中和區安平路192號","121.513155","24.99926","6500300","中和區"
"235040","150-BY","2018/12/04 18:11:37","新北市中和區中正路305號","121.492788333333","24.99386","6500300","中和區"
"235058","151-BY","2018/12/04 18:29:24","新北市中和區圓通路369巷30弄92號","121.488621666667","24.984805","6500300","中和區"
"235055","183-VK","2018/12/04 18:29:22","新北市中和區莒光路65號","121.472291666667","25.0033716666667","6500300","中和區"
"235038","185-VK","2018/12/04 18:29:29","新北市中和區立人街63號","121.520153333333","24.9942783333333","6500300","中和區"
"235049","186-VK","2018/12/04 18:29:24","新北市中和區景安路80號","121.50566","24.9963066666667","6500300","中和區"
"235067","255-BX","2018/12/04 18:29:11","新北市中和區民樂路47號","121.483488333333","25.0016533333333","6500300","中和區"
"235044","293-VK","2018/12/04 18:29:23","新北市中和區復興路301巷15號","121.501525","24.9898683333333","6500300","中和區"
"235072","301-VK","2018/12/04 18:29:22","新北市中和區連城路87號","121.496736666667","25.000325","6500300","中和區"
"235043","352-BY","2018/12/04 18:29:13","新北市中和區景平路295號","121.506938333333","24.9930783333333","6500300","中和區"
"235042","KEA-2878","2018/12/04 18:29:23","新北市中和區大仁街44號","121.51842","24.9938416666667","6500300","中和區"
"235050","4979-A6","2018/12/04 18:29:25","新北市中和區景新街410巷18弄10號","121.512025","24.9894766666667","6500300","中和區"
"235069","4980-A6","2018/12/04 18:29:17","新北市中和區連城路127巷19-10號","121.49681","24.9980283333333","6500300","中和區"
"235070","558-UM","2018/12/04 18:29:21","新北市中和區南華路48號","121.504093333333","24.9968316666667","6500300","中和區"
"235045","565-BX","2018/12/04 18:29:19","新北市中和區南山路236巷36弄5號","121.50408","24.9882966666667","6500300","中和區"
"235054","640-BX","2018/12/04 18:29:16","新北市中和區民享街110號","121.474635","24.9993166666667","6500300","中和區"
"235060","647-TV","2018/12/04 18:29:15","新北市中和區員山路479號","121.480115","25.0052933333333","6500300","中和區"
"235047","732-UM","2018/12/04 18:29:27","新北市中和區南山路250巷2號","121.507766666667","24.9890183333333","6500300","中和區"
"235046","733-UM","2018/12/04 18:29:27","新北市中和區南山路150號","121.504248333333","24.9921733333333","6500300","中和區"
"235071","783-BX","2018/12/04 18:29:10","新北市中和區員山路36巷16-3號","121.485188333333","24.9911866666667","6500300","中和區"
"235062","800-TS","2018/12/04 18:29:19","新北市中和區景平路754號","121.496415","25.00457","6500300","中和區"
"235057","801-TS","2018/12/04 18:29:13","新北市中和區民安街45號","121.479843333333","25.0002133333333","6500300","中和區"
"235041","802-TS","2018/12/04 18:29:12","新北市中和區景新街170號","121.505865","24.9964983333333","6500300","中和區"
"235052","805-TS","2018/12/04 18:29:29","新北市中和區興南路二段96號","121.5049","24.98405","6500300","中和區"
"235048","896-TW","2018/12/04 18:29:25","新北市中和區中正路75號","121.500935","24.993365","6500300","中和區"
"235053","900-TW","2018/12/04 18:29:21","新北市中和區連城路469巷79弄30號","121.484191666667","24.993685","6500300","中和區"
"235051","157-BY","2018/12/04 18:29:10","新北市中和區興南路二段128巷7弄6號","121.503025","24.98398","6500300","中和區"
"235037","AAC-213","2018/12/04 18:29:27","新北市中和區景德街97號","121.515708333333","24.9912766666667","6500300","中和區"
"235059","AAC-215","2018/12/04 18:29:13","新北市中和區員山路36巷16-3號","121.484925","24.991325","6500300","中和區"
"220065","072-UY","2018/12/04 18:29:16","新北市板橋區華興街91巷4號","121.456446666667","25.0050916666667","6500100","板橋區"
"220086","073-UY","2018/12/04 18:29:20","新北市板橋區南雅南路二段11-23號","121.453941666667","25.0021633333333","6500100","板橋區"
"220069","AAD-861","2018/12/04 18:29:12","新北市板橋區華東街1-10號","121.448313333333","24.9951016666667","6500100","板橋區"
"226004","312-R5","2018/12/04 18:29:23","新北市平溪區靜安路二段116號","121.720791666667","25.0235233333333","6502400","平溪區"
"228001","212-TW","2018/12/04 18:29:11","新北市貢寮區仁理村仁和路90號","121.92281","25.0503083333333","6502600","貢寮區"
"228002","663-BX","2018/12/04 18:29:13","新北市貢寮區福連里香蘭街34號","121.986781666667","25.0199083333333","6502600","貢寮區"
"228003","828-UM","2018/12/04 18:29:16","新北市貢寮區和美里和美街38號","121.9122","25.0887683333333","6502600","貢寮區"
"224006","676-BX","2018/12/04 18:29:23","新北市瑞芳區明燈路二段71號","121.81044","25.10789","6501200","瑞芳區"
"224008","285-BY","2018/12/04 18:29:25","新北市瑞芳區岳王路1巷27號","121.805965","25.1104516666667","6501200","瑞芳區"
"224009","273-VK","2018/12/04 18:29:17","新北市瑞芳區五號路114號","121.854601666667","25.11111","6501200","瑞芳區"
"224005","271-BY","2018/12/04 18:29:11","新北市瑞芳區瑞濱路117號","121.820251666667","25.1201083333333","6501200","瑞芳區"
"227003","642-TC","2018/12/04 18:29:19","新北市雙溪區共和里中山路57號","121.867298333333","25.0317933333333","6502500","雙溪區"
"227009","400-TW","2018/12/04 18:29:16","新北市雙溪區牡丹里牡丹133號","121.851033333333","25.05906","6502500","雙溪區"
"253006","032-BX","2018/12/04 18:29:12","新北市石門區老梅路41號","121.545093333333","25.28949","6502200","石門區"
"253005","295-VK","2018/12/04 18:29:14","新北市石門區老崩山10-5號","121.552655","25.290995","6502200","石門區"
"222001","KEA-2212","2018/12/04 18:29:27","新北市深坑區北深路一段199號","121.630763333333","25.0093416666667","6501800","深坑區"
"208002","KEA-2872","2018/12/04 18:29:23","新北市金山區民生路81號","121.63999","25.2195383333333","6502700","金山區"
"208003","665-BX","2018/12/04 18:29:17","新北市金山區中山路192號","121.63779","25.221515","6502700","金山區"
"208001","761-BX","2018/12/04 18:29:26","新北市金山區金包里街158號","121.637686666667","25.22303","6502700","金山區"
"251005","010-UM","2018/12/04 18:29:17","新北市淡水區中正東路35巷9號","121.4464","25.1685933333333","6501000","淡水區"
"251001","011-UM","2018/12/04 18:29:24","新北市淡水區自強路381號","121.46476","25.1334616666667","6501000","淡水區"
"251013","KEA-2871","2018/12/04 18:29:08","新北市淡水區椿子林19-1號","121.480511666667","25.2039933333333","6501000","淡水區"
"251016","179-VK","2018/12/04 18:29:12","新北市淡水區下圭柔山105-5號","121.445288333333","25.2102116666667","6501000","淡水區"
"251014","180-VK","2018/12/04 18:29:28","新北市淡水區番社前25-1號","121.494643333333","25.2145666666667","6501000","淡水區"
"251008","181-VK","2018/12/04 18:29:23","新北市淡水區北投子86-5號","121.469145","25.18242","6501000","淡水區"
"251015","182-VK","2018/12/04 18:29:24","新北市淡水區興福寮88巷216號","121.485966666667","25.1665533333333","6501000","淡水區"
"251010","413-VK","2018/12/04 18:29:18","新北市淡水區沙崙路181巷1號","121.424175","25.1841716666667","6501000","淡水區"
"251012","441-VK","2018/12/04 18:29:22","新北市淡水區北投子55號","121.458283333333","25.1822216666667","6501000","淡水區"
"251004","443-VK","2018/12/04 18:29:16","新北市淡水區民族路31巷9號","121.462345","25.1363416666667","6501000","淡水區"
"251006","561-UM","2018/12/04 18:29:13","新北市淡水區新生街51巷26號","121.440646666667","25.1757133333333","6501000","淡水區"
"251011","650-BX","2018/12/04 18:29:28","新北市淡水區中正東路8-8號","121.447908333333","25.1666033333333","6501000","淡水區"
"251002","672-BX","2018/12/04 18:29:17","新北市淡水區竿蓁二街15號","121.453175","25.1630283333333","6501000","淡水區"
"251003","673-BX","2018/12/04 18:29:09","新北市淡水區北新路169巷16號","121.44977","25.18019","6501000","淡水區"
"207003","550-UM","2018/12/04 18:29:17","新北市萬里區野柳里港東路74-2號","121.688813333333","25.2050883333333","6502800","萬里區"
"207004","225-TW","2018/12/04 18:29:24","新北市萬里區萬里里瑪鋉路21號","121.687486666667","25.1754333333333","6502800","萬里區"
"252002","178-VK","2018/12/04 18:29:20","新北市三芝區中山路二段39號","121.502928333333","25.2551","6502100","三芝區"
"252003","249-BX","2018/12/04 18:29:16","新北市三芝區後厝里北勢子42-1號","121.471516666667","25.2522666666667","6502100","三芝區"
"252001","292-VK","2018/12/04 18:29:17","新北市三芝區中興街二段6號","121.49849","25.2565516666667","6502100","三芝區"
"237007","153-BY","2018/12/04 18:29:23","新北市三峽區中正路三段238號","121.342816666667","24.9029233333333","6500900","三峽區"
"237009","210-TH","2018/12/04 18:29:14","新北市三峽區大同路225號","121.367303333333","24.9267466666667","6500900","三峽區"
"237013","252-BX","2018/12/04 18:29:16","新北市三峽區永安街9巷4號","121.37756","24.929745","6500900","三峽區"
"237012","275-BY","2018/12/04 18:28:27","新北市三峽區三樹路212-1號","121.379243333333","24.9422316666667","6500900","三峽區"
"237008","302-VK","2018/12/04 18:29:11","新北市三峽區白雞68-16號","121.390556666667","24.9090833333333","6500900","三峽區"
"237014","433-BY","2018/12/04 18:29:13","新北市三峽區文化路111號","121.370475","24.93607","6500900","三峽區"
"237006","5529-G3","2018/12/04 18:29:20","新北市三峽區溪東路315巷61號","121.41185","24.93123","6500900","三峽區"
"237011","KEA-2596","2018/12/04 18:29:12","新北市三峽區溪東路281號","121.408993333333","24.9313516666667","6500900","三峽區"
"237016","649-BX","2018/12/04 18:29:16","新北市三峽區紫微路42-1號","121.422375","24.9201716666667","6500900","三峽區"
"237010","706-TV","2018/12/04 18:29:11","新北市三峽區復興路449號","121.362606666667","24.9384933333333","6500900","三峽區"
"237005","AKY-6261","2018/12/04 18:29:25","新北市三峽區秀川街42號","121.371561666667","24.9340083333333","6500900","三峽區"
"236070","105-UM","2018/12/04 18:29:23","新北市土城區永豐路255巷27弄21號","121.476126666667","24.973065","6501300","土城區"
"236042","KED-0685","2018/12/04 18:29:09","新北市土城區裕民路61巷4號","121.449343333333","24.98798","6501300","土城區"
"236079","166-UM","2018/12/04 18:29:20","新北市土城區大暖路68號","121.42289","24.9590716666667","6501300","土城區"
"236030","253-BX","2018/12/04 18:29:28","新北市土城區水源街63號","121.440066666667","24.9762316666667","6501300","土城區"
"236026","269-VK","2018/12/04 18:29:19","新北市土城區南天母路135巷20號","121.44869","24.95471","6501300","土城區"
"236014","270-VK","2018/12/04 18:29:14","新北市土城區青雲路39巷7號","121.460291666667","24.98742","6501300","土城區"
"236038","271-VK","2018/12/04 18:29:26","新北市土城區青雲路449號","121.458855","24.97507","6501300","土城區"
"236021","401-BY","2018/12/04 18:29:19","新北市土城區永豐路202巷14號","121.466236666667","24.983365","6501300","土城區"
"236055","752-BX","2018/12/04 18:29:18","新北市土城區中華路一段243號","121.441211666667","24.9822783333333","6501300","土城區"
"236059","912-UM","2018/12/04 18:29:28","新北市土城區中央路四段133-1號","121.41606","24.957405","6501300","土城區"
"236049","913-UM","2018/12/04 18:29:13","新北市土城區青雲路364號","121.458691666667","24.9738866666667","6501300","土城區"
"236063","915-UM","2018/12/04 18:29:17","新北市土城區延壽路75巷1號","121.469211666667","24.9925333333333","6501300","土城區"
"242058","986-R7","2018/12/04 18:29:23","桃園市龜山區萬壽路一段78號","121.408335","25.01905","6500500","新莊區"
"242025","613-BX","2018/12/04 18:29:18","新北市新莊區中央路232號","121.454653333333","25.0593583333333","6500500","新莊區"
"242044","566-BX","2018/12/04 18:29:29","新北市新莊區新北大道七段788號","121.413225","25.02441","6500500","新莊區"
"242042","442-UM","2018/12/04 18:29:25","新北市新莊區天祥街53號","121.414885","25.0303283333333","6500500","新莊區"
"242054","441-UM","2018/12/04 18:29:23","新北市新莊區樹新路120巷51號","121.430063333333","24.9958766666667","6500500","新莊區"
"242046","400-BY","2018/12/04 18:29:23","新北市新莊區民安路16-9號","121.42257","25.02814","6500500","新莊區"
"242061","353-BY","2018/12/04 18:29:28","新北市新莊區後港一路160號","121.43075","25.0275583333333","6500500","新莊區"
"242011","132-UY","2018/12/04 18:29:17","新北市新莊區中榮街595-1號","121.451305","25.05265","6500500","新莊區"
"242032","347-TH","2018/12/04 18:29:21","新北市新莊區新泰路277巷11號","121.445251666667","25.040325","6500500","新莊區"
"242005","349-TH","2018/12/04 18:29:14","新北市新莊區三和路12-21號","121.442328333333","25.0383083333333","6500500","新莊區"
"238015","755-BX","2018/12/04 18:29:26","新北市樹林區啟智街187巷2號","121.415108333333","24.987215","6500700","樹林區"
"238023","601-UM","2018/12/04 18:29:14","新北市樹林區三福街81號","121.40713","25.0163383333333","6500700","樹林區"
"238019","599-UM","2018/12/04 18:29:23","新北市樹林區中華路190-16號","121.411766666667","24.98062","6500700","樹林區"
"238018","571-TV","2018/12/04 18:29:31","新北市樹林區樹新路50巷5弄5號","121.429486666667","24.9968666666667","6500700","樹林區"
"238024","5061-A6","2018/12/04 18:29:11","新北市樹林區中山路一段176-1號","121.421853333333","24.9888316666667","6500700","樹林區"
"238025","303-VK","2018/12/04 18:29:19","新北市樹林區中山路二段133號","121.406505","24.979105","6500700","樹林區"
"238017","283-BY","2018/12/04 18:29:29","新北市樹林區光榮街79號","121.412056666667","25.002975","6500700","樹林區"
"238014","282-BY","2018/12/04 18:29:25","新北市樹林區大安路111巷6號","121.42308","24.99748","6500700","樹林區"
"238020","268-VK","2018/12/04 18:29:21","新北市樹林區三俊街63號","121.413591666667","25.0159683333333","6500700","樹林區"
"238026","172-UY","2018/12/04 18:29:25","新北市樹林區佳園路一段75巷40號","121.395946666667","24.9705966666667","6500700","樹林區"
"238016","169-UY","2018/12/04 18:29:22","新北市樹林區中山路二段34號","121.417343333333","24.984885","6500700","樹林區"
"239007","AAC-297","2018/12/04 18:29:13","新北市鶯歌區中正一路建德巷38號","121.364511666667","24.9577933333333","6500800","鶯歌區"
"239006","891-R6","2018/12/04 18:29:20","新北市鶯歌區鶯桃路296巷53號","121.335865","24.9613333333333","6500800","鶯歌區"
"239008","527-UM","2018/12/04 18:29:22","新北市鶯歌區國際一路179號","121.336253333333","24.9764466666667","6500800","鶯歌區"
"239005","526-UM","2018/12/04 18:29:28","新北市鶯歌區鳳吉二街104號","121.327448333333","24.9743283333333","6500800","鶯歌區"
"239001","417-VK","2018/12/04 18:29:22","新北市鶯歌區二橋街80號","121.337063333333","24.9383783333333","6500800","鶯歌區"
"239003","360-BY","2018/12/04 18:29:11","新北市鶯歌區鶯桃路510號","121.331806666667","24.9663683333333","6500800","鶯歌區"
"239002","359-BY","2018/12/04 18:29:29","新北市鶯歌區中正一路阿四巷5-3號","121.368158333333","24.957445","6500800","鶯歌區"
"239004","193-VK","2018/12/04 18:29:18","新北市鶯歌區尖山路314號","121.340491666667","24.94346","6500800","鶯歌區"
"221008","489-VK","2018/12/04 18:29:13","新北市汐止區康寧街901號","121.651396666667","25.0750583333333","6501100","汐止區"
"221036","130-UY","2018/12/04 18:29:25","新北市汐止區南昌街31號","121.663155","25.069145","6501100","汐止區"
"221015","131-UY","2018/12/04 18:29:19","新北市汐止區鄉長路二段23巷6號","121.667251666667","25.0829183333333","6501100","汐止區"
"221010","269-BY","2018/12/04 18:29:14","新北市汐止區瑞松街49巷6號","121.645396666667","25.10707","6501100","汐止區"
"221012","278-VK","2018/12/04 18:29:20","新北市汐止區大同路三段275號","121.676235","25.075715","6501100","汐止區"
"221032","280-BY","2018/12/04 18:29:19","新北市汐止區福山街62巷10號","121.61824","25.0465783333333","6501100","汐止區"
"221027","281-BY","2018/12/04 18:29:18","新北市汐止區和平街53號","121.66191","25.0706866666667","6501100","汐止區"
"221029","298-VK","2018/12/04 18:29:19","新北市汐止區樟樹二路330巷68號","121.643005","25.0697966666667","6501100","汐止區"
"221021","299-VK","2018/12/04 18:28:56","新北市汐止區新台五路一段91號","121.649996666667","25.0613933333333","6501100","汐止區"
"221031","353-TW","2018/12/04 18:29:20","新北市汐止區新台五路一段35號","121.636666666667","25.0558616666667","6501100","汐止區"
"221002","129-UY","2018/12/04 18:29:10","新北市汐止區福德一路169號","121.636105","25.0661783333333","6501100","汐止區"
"221035","622-UM","2018/12/04 18:29:12","新北市汐止區大同路二段4號","121.647613333333","25.0626333333333","6501100","汐止區"
"221025","623-UM","2018/12/04 18:29:21","新北市汐止區仁愛路122巷3號","121.663151666667","25.0635833333333","6501100","汐止區"
"221038","646-BX","2018/12/04 18:29:23","新北市汐止區秀峰路2號","121.659133333333","25.0669166666667","6501100","汐止區"
"221033","647-BX","2018/12/04 18:29:21","新北市汐止區宜興街1號","121.620818333333","25.0412033333333","6501100","汐止區"
"221018","753-BX","2018/12/04 18:29:26","新北市汐止區茄苳路226號","121.671011666667","25.06865","6501100","汐止區"
"220079","145-BY","2018/12/04 18:29:21","新北市板橋區南雅南路二段144巷54號","121.450061666667","24.9972233333333","6500100","板橋區"
"220082","610-BX","2018/12/04 18:29:22","新北市板橋區華東街1-9號","121.448286666667","24.9948716666667","6500100","板橋區"
"224002","257-TC","2018/12/04 18:29:21","新北市瑞芳區國中新村18號","121.817196666667","25.10737","6501200","瑞芳區"
"220072","277-BY","2018/12/04 18:29:10","新北市板橋區華東街1-10號","121.448273333333","24.9950616666667","6500100","板橋區"
"220094","283-UM","2018/12/04 18:29:25","新北市板橋區民生路二段161巷1號","121.470103333333","25.0198766666667","6500100","板橋區"
"220071","283-VK","2018/12/04 18:29:20","新北市板橋區華東街1-9號","121.448073333333","24.9949383333333","6500100","板橋區"
"220083","286-VK","2018/12/04 18:29:17","新北市板橋區華東街1-10號","121.448346666667","24.9950733333333","6500100","板橋區"
"220081","287-VK","2018/12/04 18:29:09","新北市板橋區華東街1-10號","121.448285","24.99497","6500100","板橋區"
"220084","296-UM","2018/12/04 18:29:15","新北市板橋區華東街1-9號","121.448136666667","24.9949516666667","6500100","板橋區"
"220075","303-R5","2018/12/04 18:29:11","新北市板橋區華東街1-9號","121.448195","24.9949583333333","6500100","板橋區"
"220062","305-R5","2018/12/04 18:29:15","新北市板橋區民生路二段120號","121.470415","25.0196716666667","6500100","板橋區"
"220035","560-BX","2018/12/04 18:29:09","新北市板橋區南雅南路二段18號","121.454616666667","25.00361","6500100","板橋區"
"220103","561-BX","2018/12/04 18:29:25","新北市板橋區民生路二段120號","121.470343333333","25.0198683333333","6500100","板橋區"
"220057","686-BX","2018/12/04 18:29:10","新北市板橋區華東街1-9號","121.448171666667","24.9949266666667","6500100","板橋區"
"220077","687-BX","2018/12/04 18:29:27","新北市板橋區華東街1-10號","121.448315","24.99493","6500100","板橋區"
"220054","741-BX","2018/12/04 18:29:15","新北市板橋區華東街1-9號","121.448103333333","24.994895","6500100","板橋區"
"220055","827-TW","2018/12/04 18:29:12","新北市板橋區華東街1-9號","121.448171666667","24.9949083333333","6500100","板橋區"
"220074","895-R6","2018/12/04 18:29:24","新北市板橋區華東街1-10號","121.448238333333","24.9949933333333","6500100","板橋區"
"220073","985-R7","2018/12/04 18:29:10","新北市板橋區四川路二段橋頭9號","121.4483","24.9935683333333","6500100","板橋區"
"220064","AAC-253","2018/12/04 18:29:20","新北市板橋區南雅南路二段120-2號","121.452348333333","24.9999416666667","6500100","板橋區"
"235068","KEA-2873","2018/12/04 18:29:13","新北市中和區錦和路350-1號","121.490293333333","24.99353","6500300","中和區"
"235061","KEA-2875","2018/12/04 18:29:07","新北市中和區國光街215巷46號","121.467506666667","24.9998983333333","6500300","中和區"
"235065","KEA-2876","2018/12/04 18:29:23","新北市中和區莊敬路49巷20弄18號","121.502533333333","25.0055816666667","6500300","中和區"
