"lineid","car","time","location","longitude","latitude","cityid","cityname"
"234046","148-BY","2018/12/04 18:49:24","新北市永和區秀朗路二段128號","121.524855","25.001435","6500400","永和區"
"234007","207-UY","2018/12/04 18:49:19","新北市永和區文化路123號","121.512156666667","25.0153516666667","6500400","永和區"
"234038","336-UY","2018/12/04 18:49:14","新北市永和區成功路一段89號","121.526876666667","25.0028666666667","6500400","永和區"
"234064","337-UY","2018/12/04 18:49:19","新北市永和區福和路1號","121.526433333333","25.0100066666667","6500400","永和區"
"234070","552-UM","2018/12/04 18:49:31","新北市永和區竹林路137號","121.5202","25.0107566666667","6500400","永和區"
"234081","553-UM","2018/12/04 18:49:18","新北市永和區永利路116號","121.521426666667","25.0032383333333","6500400","永和區"
"234017","745-BX","2018/12/04 18:49:18","新北市永和區忠孝街26巷8號","121.515443333333","25.0166666666667","6500400","永和區"
"234030","746-BX","2018/12/04 18:49:23","新北市永和區得和路395號","121.525391666667","24.9993033333333","6500400","永和區"
"234054","KEA-2590","2018/12/04 18:49:22","新北市永和區豫溪街191巷1弄1號","121.523093333333","25.01041","6500400","永和區"
"234013","KEA-2591","2018/12/04 18:49:19","新北市永和區保福路二段133巷27號","121.509286666667","25.0136016666667","6500400","永和區"
"234061","AAD-866","2018/12/04 18:49:14","新北市永和區福和路307號","121.516238333333","25.0071366666667","6500400","永和區"
"234086","748-BX","2018/12/04 18:49:29","新北市永和區中正路35號","121.514285","24.995955","6500400","永和區"
"234042","862-TW","2018/12/04 18:49:13","新北市永和區永貞路308號","121.511841666667","25.004865","6500400","永和區"
"234026","9372-KE","2018/12/04 18:49:13","新北市永和區自由街49號","121.513946666667","25.0059283333333","6500400","永和區"
"234011","9373-KE","2018/12/04 18:49:22","新北市永和區文化路124號","121.513026666667","25.0153766666667","6500400","永和區"
"249005","172-UM","2018/12/04 18:49:23","新北市八里區長道坑17號","121.396276666667","25.11559","6502300","八里區"
"249001","173-UM","2018/12/04 18:49:11","新北市八里區龍米路二段50號","121.448155","25.140695","6502300","八里區"
"248014","025-BX","2018/12/04 18:49:16","新北市五股區民義路一段107巷23號","121.432181666667","25.084435","6501500","五股區"
"248016","026-BX","2018/12/04 18:49:13","新北市五股區凌雲路一段149巷13-1號","121.448603333333","25.1008516666667","6501500","五股區"
"248006","077-UY","2018/12/04 18:49:32","新北市五股區四維路71號","121.467225","25.0720716666667","6501500","五股區"
"248008","095-VK","2018/12/04 18:49:26","新北市五股區中興路一段128巷6號","121.465666666667","25.074035","6501500","五股區"
"248020","225-UY","2018/12/04 18:49:24","新北市五股區凌雲路三段35-1號","121.430451666667","25.116735","6501500","五股區"
"248010","272-BY","2018/12/04 18:49:29","新北市五股區水碓一路61號","121.431516666667","25.07249","6501500","五股區"
"248004","677-BX","2018/12/04 18:49:26","新北市五股區民義路二段46-6號","121.413426666667","25.1018233333333","6501500","五股區"
"248002","678-BX","2018/12/04 18:48:05","新北市五股區西雲路225巷2號","121.448691666667","25.0973183333333","6501500","五股區"
"248012","682-TV","2018/12/04 18:49:11","新北市五股區成泰路二段147巷5-16號","121.437111666667","25.0884216666667","6501500","五股區"
"234023","9380-KE","2018/12/04 18:49:19","新北市永和區竹林路119巷45號","121.521841666667","25.011835","6500400","永和區"
"234077","969-R7","2018/12/04 18:49:21","新北市永和區中正路2巷29弄13號","121.513663333333","24.9940316666667","6500400","永和區"
"234067","AAC-212","2018/12/04 18:49:26","新北市永和區中和路625號","121.512973333333","25.00485","6500400","永和區"
"234003","AAC-295","2018/12/04 18:49:11","新北市永和區豫溪街35號","121.516636666667","25.009965","6500400","永和區"
"232011","375-UM","2018/12/04 18:49:15","新北市坪林區坪林街2號","121.711525","24.935605","6502000","坪林區"
"244023","069-UM","2018/12/04 18:49:19","新北市林口區文化二路二段88巷8號","121.37939","25.0808216666667","6501700","林口區"
"244007","080-UY","2018/12/04 18:49:09","新北市林口區後湖59號","121.383801666667","25.106955","6501700","林口區"
"244019","402-UM","2018/12/04 18:49:21","新北市林口區麗園二街42巷14號","121.381746666667","25.0670566666667","6501700","林口區"
"244013","KEA-2802","2018/12/04 18:49:29","新北市林口區麗園一街6巷5-3號","121.3753","25.07028","6501700","林口區"
"244017","485-VK","2018/12/04 18:49:17","新北市林口區文化二路一段68巷2號","121.366143333333","25.0687333333333","6501700","林口區"
"244009","656-BX","2018/12/04 18:49:17","新北市林口區竹林路366巷14號","121.392658333333","25.0846316666667","6501700","林口區"
"244011","701-TV","2018/12/04 18:49:19","新北市林口區中正路41巷3號","121.395771666667","25.0769116666667","6501700","林口區"
"244025","837-TS","2018/12/04 18:49:22","新北市林口區忠孝一路182號","121.35888","25.0741266666667","6501700","林口區"
"243013","AAD-798","2018/12/04 18:26:06","新北市泰山區明志路三段206巷3號","121.423266666667","25.0379433333333","6501600","泰山區"
"243016","KEA-2801","2018/12/04 18:49:20","新北市泰山區明志路二段137號","121.427635","25.050695","6501600","泰山區"
"243012","646-TV","2018/12/04 18:49:11","新北市泰山區福興三街11號","121.434491666667","25.05776","6501600","泰山區"
"243014","680-BX","2018/12/04 18:49:20","新北市泰山區黎明路31號","121.421716666667","25.060735","6501600","泰山區"
"222002","016-RS","2018/12/04 18:49:25","新北市深坑區文山路一段69號","121.626971666667","25.0018683333333","6501800","深坑區"
"222003","436-BY","2018/12/04 18:49:24","新北市深坑區深南路51-1號","121.621373333333","25.0101083333333","6501800","深坑區"
"231041","002-UM","2018/12/04 18:49:15","新北市新店區安華路28-1號","121.519795","24.960815","6500600","新店區"
"231059","046-UY","2018/12/04 18:49:30","新北市新店區安一路一段1-1號","121.519515","24.96108","6500600","新店區"
"231040","047-UY","2018/12/04 18:49:21","新北市新店區環河路116號","121.537031666667","24.967125","6500600","新店區"
"231044","106-UY","2018/12/04 18:49:15","新北市新店區中正路9號","121.54554","24.9693983333333","6500600","新店區"
"231053","108-UY","2018/12/04 18:49:19","新北市新店區新烏路一段100-2號","121.545983333333","24.9370816666667","6500600","新店區"
"231048","187-VK","2018/12/04 18:49:25","新北市新店區北新路一段136號","121.54241","24.970185","6500600","新店區"
"231051","188-VK","2018/12/04 18:49:25","新北市新店區環河路120號","121.536638333333","24.96807","6500600","新店區"
"231054","KEA-2219","2018/12/04 18:49:20","新北市新店區安康路一段116號","121.527145","24.9625733333333","6500600","新店區"
"231042","268-BY","2018/12/04 18:49:23","新北市新店區安康路一段249-1號","121.524686666667","24.9632866666667","6500600","新店區"
"231050","AAD-862","2018/12/04 18:49:28","新北市新店區環河路17號","121.537456666667","24.961395","6500600","新店區"
"231058","3713-VJ","2018/12/04 18:49:11","新北市新店區北宜路一段105巷4弄3-1號","121.539968333333","24.9556866666667","6500600","新店區"
"231066","4716-K9","2018/12/04 18:49:18","新北市新店區安一路一段1-1號","121.519165","24.9612","6500600","新店區"
"231056","4715-K9","2018/12/04 18:49:16","新北市新店區大同街25號","121.53875","24.9807183333333","6500600","新店區"
"231067","4772-VM","2018/12/04 18:48:53","新北市新店區安華路1-1號","121.519213333333","24.960445","6500600","新店區"
"231065","512-UM","2018/12/04 18:49:21","新北市新店區車子路115-11號","121.507161666667","24.954665","6500600","新店區"
"231049","513-UM","2018/12/04 18:49:17","新北市新店區安康路一段77號","121.53","24.961185","6500600","新店區"
"231063","616-UM","2018/12/04 18:49:10","新北市新店區安華路28-1號","121.519438333333","24.9605483333333","6500600","新店區"
"231045","617-UM","2018/12/04 18:49:11","新北市新店區安一路一段1-1號","121.519653333333","24.9617183333333","6500600","新店區"
"231061","619-UM","2018/12/04 18:49:24","新北市新店區安華路1-1號","121.519441666667","24.9605","6500600","新店區"
"231064","719-UM","2018/12/04 18:49:05","新北市新店區安一路一段1-1號","121.51945","24.961375","6500600","新店區"
"231046","719-UY","2018/12/04 18:49:16","新北市新店區直潭路60號","121.531726666667","24.9409533333333","6500600","新店區"
"231062","720-UM","2018/12/04 18:49:16","新北市新店區安一路一段1-1號","121.519233333333","24.9613116666667","6500600","新店區"
"231060","897-TW","2018/12/04 18:49:26","新北市新店區安華路1-1號","121.519516666667","24.9604266666667","6500600","新店區"
"231043","898-TW","2018/12/04 18:49:20","新北市新店區安康路一段319號","121.522175","24.9637316666667","6500600","新店區"
"231055","AKT-0513","2018/12/04 18:49:16","新北市新店區北新路一段271巷5號","121.54052","24.9667016666667","6500600","新店區"
"235066","003-UY","2018/12/04 18:49:24","新北市中和區水源路7巷4號","121.504066666667","25.00369","6500300","中和區"
"235064","005-UY","2018/12/04 18:49:16","新北市中和區連勝街22號","121.498573333333","24.9981333333333","6500300","中和區"
"235063","006-UY","2018/12/04 18:49:12","新北市中和區連城路319巷11弄8號","121.489446666667","24.9949466666667","6500300","中和區"
"235056","096-UM","2018/12/04 18:49:11","新北市中和區員山路556號","121.478676666667","25.01039","6500300","中和區"
"235039","097-UM","2018/12/04 18:49:18","新北市中和區安樂路217巷40弄1號","121.513186666667","24.9978483333333","6500300","中和區"
"235040","150-BY","2018/12/04 18:49:17","新北市中和區安平路38號","121.509966666667","24.995225","6500300","中和區"
"235058","151-BY","2018/12/04 18:49:24","新北市中和區連城路534巷2號","121.475326666667","24.9913633333333","6500300","中和區"
"235055","183-VK","2018/12/04 18:49:23","新北市中和區民生街55號","121.469536666667","25.0051183333333","6500300","中和區"
"235038","185-VK","2018/12/04 18:49:09","新北市中和區大勇街45巷3號","121.51778","24.9946816666667","6500300","中和區"
"235049","186-VK","2018/12/04 18:49:25","新北市中和區景安路179號","121.505188333333","24.9940466666667","6500300","中和區"
"235067","255-BX","2018/12/04 18:49:11","新北市中和區中正路831號","121.484783333333","25.0019816666667","6500300","中和區"
"235044","293-VK","2018/12/04 18:49:23","新北市中和區中興街143號","121.499978333333","24.9912383333333","6500300","中和區"
"235072","301-VK","2018/12/04 18:49:17","新北市中和區中山路二段166號","121.50137","25.00288","6500300","中和區"
"235043","352-BY","2018/12/04 18:49:13","新北市中和區成功路129號","121.525981666667","24.990665","6500300","中和區"
"235042","KEA-2878","2018/12/04 18:49:23","新北市中和區秀朗路三段133巷2號","121.525263333333","24.9926416666667","6500300","中和區"
"235050","4979-A6","2018/12/04 18:49:25","新北市中和區忠孝街62巷46號","121.513156666667","24.9839316666667","6500300","中和區"
"235069","4980-A6","2018/12/04 18:49:17","新北市中和區中和路82號","121.501055","25.00059","6500300","中和區"
"235070","558-UM","2018/12/04 18:49:21","新北市中和區南山路7號","121.502133333333","24.99945","6500300","中和區"
"235045","565-BX","2018/12/04 18:49:19","新北市中和區興南路一段55-2號","121.510691666667","24.9901216666667","6500300","中和區"
"235054","640-BX","2018/12/04 18:49:16","新北市中和區民享街62號","121.474141666667","25.0021783333333","6500300","中和區"
"235060","647-TV","2018/12/04 18:49:15","新北市中和區中山路三段167號","121.473226666667","25.0062483333333","6500300","中和區"
"235047","732-UM","2018/12/04 18:49:27","新北市中和區興南路二段34巷59號","121.504926666667","24.9854016666667","6500300","中和區"
"235046","733-UM","2018/12/04 18:49:27","新北市中和區仁愛街36巷46號","121.51144","24.98613","6500300","中和區"
"235071","783-BX","2018/12/04 18:49:10","新北市中和區員山路36巷16-3號","121.485223333333","24.9911716666667","6500300","中和區"
"235062","800-TS","2018/12/04 18:49:19","新北市中和區景平路708號","121.496718333333","25.0026216666667","6500300","中和區"
"235057","801-TS","2018/12/04 18:49:13","新北市中和區民利街14巷3-3號","121.480656666667","24.9994933333333","6500300","中和區"
"235041","802-TS","2018/12/04 18:49:12","新北市中和區中安街202-1號","121.511738333333","24.99908","6500300","中和區"
"235052","805-TS","2018/12/04 18:49:23","新北市中和區興南路二段399巷98弄40號","121.498961666667","24.97682","6500300","中和區"
"235048","896-TW","2018/12/04 18:49:19","新北市中和區華新街57號","121.507973333333","24.984275","6500300","中和區"
"235053","900-TW","2018/12/04 18:49:21","新北市中和區華福街42巷8號","121.466335","24.996165","6500300","中和區"
"235051","157-BY","2018/12/04 18:49:10","新北市中和區忠孝街2-1號","121.508868333333","24.98294","6500300","中和區"
"235037","AAC-213","2018/12/04 18:49:27","新北市中和區秀朗路三段128巷12弄1號","121.524571666667","24.9928133333333","6500300","中和區"
"235059","AAC-215","2018/12/04 18:49:20","新北市中和區圓通路391-4號","121.489838333333","24.989205","6500300","中和區"
"220065","072-UY","2018/12/04 18:49:16","新北市板橋區民族路61號","121.464945","25.0086583333333","6500100","板橋區"
"220086","073-UY","2018/12/04 18:49:20","新北市板橋區大智街29號","121.454881666667","25.0151383333333","6500100","板橋區"
"220106","075-UY","2018/12/04 18:49:13","新北市板橋區文化路二段124巷8號","121.47057","25.02598","6500100","板橋區"
"220069","AAD-861","2018/12/04 18:49:12","新北市板橋區東興街48號","121.458521666667","25.005645","6500100","板橋區"
"226004","312-R5","2018/12/04 18:49:23","新北市平溪區平溪里三坑路38號","121.733968333333","25.0327866666667","6502400","平溪區"
"228001","212-TW","2018/12/04 18:49:30","新北市貢寮區仁理村研海街12-1號","121.923795","25.0516383333333","6502600","貢寮區"
"228002","663-BX","2018/12/04 18:49:13","新北市貢寮區福隆里東興街6-11號","121.950775","25.0210966666667","6502600","貢寮區"
"228003","828-UM","2018/12/04 18:49:15","新北市貢寮區和美里龍洞街53號","121.912405","25.113665","6502600","貢寮區"
"224010","AGQ-8101","2018/12/04 18:48:05","新北市瑞芳區崙頂路1-6號","121.84715","25.105515","6501200","瑞芳區"
"224006","676-BX","2018/12/04 18:49:22","新北市瑞芳區民生街18號","121.805821666667","25.1075566666667","6501200","瑞芳區"
"224008","285-BY","2018/12/04 18:49:25","新北市瑞芳區逢甲路323號","121.801078333333","25.11179","6501200","瑞芳區"
"224009","273-VK","2018/12/04 18:49:17","新北市瑞芳區祈堂路53-1號","121.859573333333","25.1104783333333","6501200","瑞芳區"
"224005","271-BY","2018/12/04 18:49:11","新北市瑞芳區海濱路147號","121.830328333333","25.122195","6501200","瑞芳區"
"227003","642-TC","2018/12/04 18:49:19","新北市雙溪區平林里梅竹蹊28號","121.861615","25.036035","6502500","雙溪區"
"227009","400-TW","2018/12/04 18:49:17","新北市雙溪區牡丹里聖南26號","121.856308333333","25.053495","6502500","雙溪區"
"253006","032-BX","2018/12/04 18:49:12","新北市石門區下員坑33-6號","121.518223333333","25.2828516666667","6502200","石門區"
"253005","295-VK","2018/12/04 18:49:14","新北市石門區中山路28-3號","121.56578","25.289905","6502200","石門區"
"222001","KEA-2212","2018/12/04 18:49:27","新北市深坑區松柏街30巷1號","121.63867","25.0112533333333","6501800","深坑區"
"208002","KEA-2872","2018/12/04 18:49:23","新北市金山區仁愛路37-10號","121.636001666667","25.219165","6502700","金山區"
"208003","665-BX","2018/12/04 18:49:17","新北市金山區中山路393號","121.633391666667","25.2252483333333","6502700","金山區"
"208001","761-BX","2018/12/04 18:49:26","新北市金山區文化三路66巷1號","121.634151666667","25.2256116666667","6502700","金山區"
"251001","011-UM","2018/12/04 18:49:24","新北市淡水區自強路88號","121.462668333333","25.12834","6501000","淡水區"
"251013","KEA-2871","2018/12/04 18:49:27","新北市淡水區安子內5-5號","121.482051666667","25.214465","6501000","淡水區"
"251016","179-VK","2018/12/04 18:49:12","新北市淡水區下圭柔山71-3號","121.447013333333","25.2061666666667","6501000","淡水區"
"251014","180-VK","2018/12/04 18:49:28","新北市淡水區崙頂2-2號","121.491655","25.22391","6501000","淡水區"
"251015","182-VK","2018/12/04 18:49:24","新北市淡水區糞箕湖20號","121.485626666667","25.1710283333333","6501000","淡水區"
"251010","413-VK","2018/12/04 18:49:18","新北市淡水區沙崙路13號","121.42116","25.18126","6501000","淡水區"
"251012","441-VK","2018/12/04 18:49:22","新北市淡水區新興街23號","121.442766666667","25.1801683333333","6501000","淡水區"
"251004","443-VK","2018/12/04 18:48:48","新北市淡水區中正東路二段143巷2弄1號","121.460565","25.1472766666667","6501000","淡水區"
"251009","575-R6","2018/12/04 18:49:24","新北市淡水區重建街170號","121.440746666667","25.1739016666667","6501000","淡水區"
"251007","577-R6","2018/12/04 18:49:30","新北市淡水區民生路152號","121.464736666667","25.13857","6501000","淡水區"
"251011","650-BX","2018/12/04 18:49:28","新北市淡水區學府路16號","121.44762","25.1679516666667","6501000","淡水區"
"251002","672-BX","2018/12/04 18:49:17","新北市淡水區學府路71號","121.44833","25.1698666666667","6501000","淡水區"
"251003","673-BX","2018/12/04 18:49:29","新北市淡水區中山北路一段186巷22號","121.446135","25.178705","6501000","淡水區"
"207003","550-UM","2018/12/04 18:49:17","新北市萬里區大鵬里頂社1號","121.657001666667","25.2097166666667","6502800","萬里區"
"207004","225-TW","2018/12/04 18:49:24","新北市萬里區萬里里獅頭路23號","121.693243333333","25.17828","6502800","萬里區"
"252002","178-VK","2018/12/04 18:49:20","新北市三芝區中正路一段101號","121.504766666667","25.2564516666667","6502100","三芝區"
"252003","249-BX","2018/12/04 18:49:16","新北市三芝區後厝里大片頭105-5號","121.4582","25.24202","6502100","三芝區"
"252001","292-VK","2018/12/04 18:49:17","新北市三芝區中正路三段9號","121.502955","25.2539933333333","6502100","三芝區"
"237007","153-BY","2018/12/04 18:49:23","新北市三峽區大埔路104號","121.366495","24.9066633333333","6500900","三峽區"
"237013","252-BX","2018/12/04 18:49:16","新北市三峽區光明路69巷24號","121.376585","24.9290666666667","6500900","三峽區"
"237012","275-BY","2018/12/04 18:49:27","新北市三峽區三樹路277號","121.379085","24.943105","6500900","三峽區"
"237008","302-VK","2018/12/04 18:49:30","新北市三峽區白雞2號","121.367946666667","24.9134933333333","6500900","三峽區"
"237014","433-BY","2018/12/04 18:49:13","新北市三峽區隆恩街158巷68號","121.36504","24.9446166666667","6500900","三峽區"
"237006","5529-G3","2018/12/04 18:49:20","新北市三峽區溪東路233巷47弄2號","121.410711666667","24.9346066666667","6500900","三峽區"
"237011","KEA-2596","2018/12/04 18:49:12","新北市三峽區溪東路1號","121.399193333333","24.9352516666667","6500900","三峽區"
"237016","649-BX","2018/12/04 18:49:16","新北市三峽區竹崙路17號","121.427885","24.9225316666667","6500900","三峽區"
"237010","706-TV","2018/12/04 18:49:11","新北市三峽區國光街45號","121.374718333333","24.9378383333333","6500900","三峽區"
"237005","AKY-6261","2018/12/04 18:49:25","新北市三峽區中山路459巷163-3號","121.3488","24.93275","6500900","三峽區"
"236070","105-UM","2018/12/04 18:49:15","新北市土城區延和路21巷17號","121.46398","24.9888333333333","6501300","土城區"
"236042","KED-0685","2018/12/04 18:49:30","新北市土城區裕民路92巷23弄2號","121.449668333333","24.986185","6501300","土城區"
"236079","166-UM","2018/12/04 18:49:23","新北市土城區中央路四段165巷55號","121.416581666667","24.9559116666667","6501300","土城區"
"236030","253-BX","2018/12/04 18:49:16","新北市土城區忠義路36巷22號","121.43982","24.9695716666667","6501300","土城區"
"236026","269-VK","2018/12/04 18:49:15","新北市土城區興城路64號","121.44118","24.972315","6501300","土城區"
"236014","270-VK","2018/12/04 18:49:14","新北市土城區金城路二段362號","121.462225","24.985275","6501300","土城區"
"236038","271-VK","2018/12/04 18:49:26","新北市土城區明德路一段195巷3弄1號","121.464211666667","24.978495","6501300","土城區"
"236021","401-BY","2018/12/04 18:49:19","新北市土城區延吉街194號","121.46769","24.9850966666667","6501300","土城區"
"236055","752-BX","2018/12/04 18:49:21","新北市土城區裕民路167-1號","121.45301","24.9851366666667","6501300","土城區"
"236059","912-UM","2018/12/04 18:49:27","新北市土城區金城路二段14號","121.449411666667","24.9773866666667","6501300","土城區"
"236049","913-UM","2018/12/04 18:49:20","新北市土城區青雲路13號","121.460331666667","24.98958","6501300","土城區"
"236063","915-UM","2018/12/04 18:49:17","新北市土城區金城路三段139巷8號","121.467958333333","24.9886416666667","6501300","土城區"
"242042","442-UM","2018/12/04 18:49:25","新北市新莊區壽山路41號","121.415041666667","25.03044","6500500","新莊區"
"242005","349-TH","2018/12/04 18:49:14","新北市新莊區三和路12-21號","121.44216","25.0383683333333","6500500","新莊區"
"238023","601-UM","2018/12/04 18:49:14","新北市樹林區工興街14巷1號","121.398951666667","25.0137066666667","6500700","樹林區"
"238019","599-UM","2018/12/04 18:49:23","新北市樹林區東陽街3號","121.412775","24.9821933333333","6500700","樹林區"
"238022","KEA-2213","2018/12/04 18:49:19","新北市樹林區中華路379巷32號","121.413105","24.9787466666667","6500700","樹林區"
"238021","KEA-2539","2018/12/04 18:49:28","新北市樹林區西圳街二段29號","121.388605","24.9617166666667","6500700","樹林區"
"238025","303-VK","2018/12/04 18:49:19","新北市樹林區中山路三段22號","121.395626666667","24.9728883333333","6500700","樹林區"
"238017","283-BY","2018/12/04 18:49:09","新北市樹林區光興街50號","121.409838333333","25.00274","6500700","樹林區"
"238014","282-BY","2018/12/04 18:49:25","新北市樹林區大安路111巷11號","121.423131666667","24.9976183333333","6500700","樹林區"
"238020","268-VK","2018/12/04 18:49:21","新北市樹林區三俊街250-1號","121.421306666667","25.01466","6500700","樹林區"
"238026","172-UY","2018/12/04 18:49:25","新北市樹林區信和街2巷1號","121.389741666667","24.97095","6500700","樹林區"
"238016","169-UY","2018/12/04 18:49:22","新北市樹林區中山路二段10號","121.417606666667","24.985065","6500700","樹林區"
"239007","AAC-297","2018/12/04 18:49:13","新北市鶯歌區中山路6號","121.353048333333","24.957315","6500800","鶯歌區"
"239006","891-R6","2018/12/04 18:49:20","新北市鶯歌區鶯桃路296巷53號","121.33588","24.961315","6500800","鶯歌區"
"239008","527-UM","2018/12/04 18:49:22","新北市鶯歌區晨曦街37號","121.338166666667","24.977085","6500800","鶯歌區"
"239005","526-UM","2018/12/04 18:49:28","新北市鶯歌區大湖路361巷24弄20號","121.329686666667","24.9781233333333","6500800","鶯歌區"
"239001","417-VK","2018/12/04 18:49:22","新北市鶯歌區永明街13號","121.338245","24.9551666666667","6500800","鶯歌區"
"239003","360-BY","2018/12/04 18:49:11","新北市鶯歌區鶯桃路660號","121.32914","24.9692333333333","6500800","鶯歌區"
"239002","359-BY","2018/12/04 18:49:09","新北市鶯歌區中正一路245號","121.354491666667","24.95707","6500800","鶯歌區"
"239004","193-VK","2018/12/04 18:49:23","新北市鶯歌區中正三路230巷1號","121.33091","24.937995","6500800","鶯歌區"
"221008","489-VK","2018/12/04 18:49:13","新北市汐止區康寧街901號","121.651381666667","25.07505","6501100","汐止區"
"221036","130-UY","2018/12/04 18:49:25","新北市汐止區忠孝東路314巷17號","121.664541666667","25.0684916666667","6501100","汐止區"
"221015","131-UY","2018/12/04 18:49:19","新北市汐止區鄉長路一段275號","121.668373333333","25.078665","6501100","汐止區"
"221010","269-BY","2018/12/04 18:49:14","新北市汐止區康寧街901號","121.651566666667","25.075025","6501100","汐止區"
"221012","278-VK","2018/12/04 18:49:20","新北市汐止區康寧街901號","121.650763333333","25.0752333333333","6501100","汐止區"
"221032","280-BY","2018/12/04 18:49:28","新北市汐止區橫科路121巷52弄3號","121.622676666667","25.05094","6501100","汐止區"
"221027","281-BY","2018/12/04 18:49:18","新北市汐止區康寧街901號","121.650823333333","25.0752983333333","6501100","汐止區"
"221029","298-VK","2018/12/04 18:49:19","新北市汐止區工建路56號","121.640851666667","25.0629916666667","6501100","汐止區"
"221021","299-VK","2018/12/04 18:49:16","新北市汐止區大同路二段187巷13號","121.651775","25.06497","6501100","汐止區"
"221031","353-TW","2018/12/04 18:49:20","新北市汐止區福德一路300巷34號","121.630445","25.0644333333333","6501100","汐止區"
"221002","129-UY","2018/12/04 18:49:10","新北市汐止區環河街218號","121.62567","25.0551266666667","6501100","汐止區"
"221035","622-UM","2018/12/04 18:49:12","新北市汐止區汐萬路一段142號","121.653245","25.0711166666667","6501100","汐止區"
"221025","623-UM","2018/12/04 18:49:21","新北市汐止區仁愛路32號","121.66036","25.0628316666667","6501100","汐止區"
"221038","646-BX","2018/12/04 18:49:23","新北市汐止區汐萬路一段312號","121.650655","25.0753266666667","6501100","汐止區"
"221018","753-BX","2018/12/04 18:49:26","新北市汐止區茄苳路66號","121.666535","25.0707083333333","6501100","汐止區"
"220079","145-BY","2018/12/04 18:49:21","新北市板橋區南雅西路二段180巷18號","121.45241","25.0138816666667","6500100","板橋區"
"220080","200-UY","2018/12/04 18:49:20","新北市板橋區大觀路二段265巷20弄52號","121.441138333333","24.998015","6500100","板橋區"
"220082","610-BX","2018/12/04 18:49:22","新北市板橋區篤行路三段玉平巷76弄10號","121.42774","24.985885","6500100","板橋區"
"220101","245-BX","2018/12/04 18:49:24","新北市板橋區文化路二段182巷5弄1號","121.471668333333","25.0271216666667","6500100","板橋區"
"224002","257-TC","2018/12/04 18:49:01","新北市瑞芳區靜安路四段28號","121.797798333333","25.091175","6501200","瑞芳區"
"220056","276-BY","2018/12/04 18:49:18","新北市板橋區信義路16-7號","121.457008333333","24.9957033333333","6500100","板橋區"
"220072","277-BY","2018/12/04 18:49:23","新北市板橋區大觀路三段36巷48號","121.434458333333","24.99693","6500100","板橋區"
"220094","283-UM","2018/12/04 18:49:25","新北市板橋區莒光路5號","121.469658333333","25.0248666666667","6500100","板橋區"
"220071","283-VK","2018/12/04 18:49:20","新北市板橋區四川路一段2號","121.459345","25.0069566666667","6500100","板橋區"
"220053","285-VK","2018/12/04 18:49:25","新北市板橋區永豐街55巷12弄23號","121.472758333333","25.0186483333333","6500100","板橋區"
"220083","286-VK","2018/12/04 18:49:17","新北市板橋區大觀路二段22巷37號","121.444683333333","25.0037166666667","6500100","板橋區"
"220081","287-VK","2018/12/04 18:49:09","新北市板橋區南雅西路二段40號","121.452915","25.01001","6500100","板橋區"
"220090","288-VK","2018/12/04 18:49:15","新北市板橋區四維路177巷1弄2號","121.464098333333","25.0262266666667","6500100","板橋區"
"220061","293-UM","2018/12/04 18:49:25","新北市板橋區太和街4巷9號","121.474151666667","25.0199616666667","6500100","板橋區"
"220084","296-UM","2018/12/04 18:49:26","新北市板橋區大觀路二段148巷1-3號","121.441698333333","24.9993066666667","6500100","板橋區"
"220092","299-UM","2018/12/04 18:49:19","新北市板橋區漢生東路7號","121.464675","25.017435","6500100","板橋區"
"220075","303-R5","2018/12/04 18:49:31","新北市板橋區南雅東路86號","121.453933333333","25.0075483333333","6500100","板橋區"
"220062","305-R5","2018/12/04 18:49:15","新北市板橋區中山路二段23號","121.472413333333","25.0153","6500100","板橋區"
"220098","317-R6","2018/12/04 18:49:23","新北市板橋區民生路二段234巷26弄9號","121.470536666667","25.0220783333333","6500100","板橋區"
"220089","487-VK","2018/12/04 18:49:27","新北市板橋區文化路一段360號","121.468501666667","25.0238383333333","6500100","板橋區"
"220088","491-VK","2018/12/04 18:49:08","新北市板橋區民生路二段148號","121.47134","25.0198916666667","6500100","板橋區"
"220035","560-BX","2018/12/04 18:49:29","新北市板橋區中正路325巷41號","121.453423333333","25.0193133333333","6500100","板橋區"
"220103","561-BX","2018/12/04 18:49:25","新北市板橋區文化路一段188巷9弄39號","121.469353333333","25.01912","6500100","板橋區"
"220063","609-BX","2018/12/04 18:49:11","新北市板橋區民生路一段66號","121.473928333333","25.01504","6500100","板橋區"
"220091","637-BX","2018/12/04 18:49:29","新北市板橋區萬板路161號","121.47393","25.0234416666667","6500100","板橋區"
"220057","686-BX","2018/12/04 18:49:30","新北市板橋區館前東路29號","121.460685","25.0073216666667","6500100","板橋區"
"220077","687-BX","2018/12/04 18:49:27","新北市板橋區大觀路二段174巷181號","121.44217","25.00392","6500100","板橋區"
"220093","689-BX","2018/12/04 18:49:13","新北市板橋區民生路三段54號","121.467126666667","25.025185","6500100","板橋區"
"220054","741-BX","2018/12/04 18:49:15","新北市板橋區後埔街46號","121.460461666667","25.0060216666667","6500100","板橋區"
"220102","KEA-2699","2018/12/04 18:49:26","新北市板橋區萬板路468號","121.479781666667","25.0259166666667","6500100","板橋區"
"220055","827-TW","2018/12/04 18:49:12","新北市板橋區忠孝路181號","121.464286666667","25.0025433333333","6500100","板橋區"
"220068","830-TW","2018/12/04 18:49:20","新北市板橋區大同街35巷16號","121.47748","25.027795","6500100","板橋區"
"220067","831-TW","2018/12/04 18:49:25","新北市板橋區三民路二段正隆巷42號","121.476951666667","25.013785","6500100","板橋區"
"220074","895-R6","2018/12/04 18:49:29","新北市板橋區林園街34號","121.453783333333","25.010145","6500100","板橋區"
"220073","985-R7","2018/12/04 18:49:10","新北市板橋區館前西路158號","121.454898333333","25.0085916666667","6500100","板橋區"
"220097","AAC-210","2018/12/04 18:49:21","新北市板橋區四維路137巷17號","121.46436","25.024945","6500100","板橋區"
"220064","AAC-253","2018/12/04 18:49:20","新北市板橋區漢生東路178號","121.467355","25.014585","6500100","板橋區"
"235068","KEA-2873","2018/12/04 18:49:17","新北市中和區中正路167巷15號","121.4984","24.9927383333333","6500300","中和區"
"235061","KEA-2875","2018/12/04 18:49:07","新北市中和區民享街114巷3號","121.474398333333","24.99924","6500300","中和區"
"235065","KEA-2876","2018/12/04 18:49:22","新北市中和區中山路二段2巷45弄1號","121.502341666667","25.0069266666667","6500300","中和區"
