"lineid","car","time","location","longitude","latitude","cityid","cityname"
"234046","148-BY","2018/12/04 19:29:24","新北市永和區得和路423號","121.526246666667","24.999245","6500400","永和區"
"234007","207-UY","2018/12/04 19:29:22","新北市永和區永和路一段102號","121.513218333333","25.0070516666667","6500400","永和區"
"234038","336-UY","2018/12/04 19:29:14","新北市永和區民樂街30巷2號","121.527508333333","25.0012533333333","6500400","永和區"
"234064","337-UY","2018/12/04 19:29:20","新北市永和區得和路243巷28弄1號","121.520871666667","25.0013666666667","6500400","永和區"
"234070","552-UM","2018/12/04 19:29:31","新北市永和區竹林路182號","121.52033","25.00973","6500400","永和區"
"234081","553-UM","2018/12/04 19:29:18","新北市永和區環河東路三段60號","121.526988333333","25.00606","6500400","永和區"
"234017","745-BX","2018/12/04 19:29:18","新北市永和區環河西路一段73號","121.513291666667","25.0181483333333","6500400","永和區"
"234030","746-BX","2018/12/04 19:29:23","新北市永和區民生路28號","121.522555","24.9972","6500400","永和區"
"234054","KEA-2590","2018/12/04 19:29:22","新北市永和區復興街19巷2號","121.516111666667","25.0131366666667","6500400","永和區"
"234013","KEA-2591","2018/12/04 19:29:19","新北市永和區中山路一段184巷9弄1號","121.508476666667","25.00929","6500400","永和區"
"234061","AAD-866","2018/12/04 19:29:24","新北市永和區中正路514號","121.517343333333","25.004705","6500400","永和區"
"234086","748-BX","2018/12/04 19:29:22","新北市永和區國中路2號","121.52414","25.004205","6500400","永和區"
"234042","862-TW","2018/12/04 19:29:13","新北市永和區中和路519巷6號","121.511025","25.0030416666667","6500400","永和區"
"234050","863-TW","2018/12/04 19:29:28","新北市永和區信義路115號","121.51227","25.0148166666667","6500400","永和區"
"234026","9372-KE","2018/12/04 19:28:59","新北市永和區中正路3號","121.513788333333","24.9955966666667","6500400","永和區"
"234011","9373-KE","2018/12/04 19:29:22","新北市永和區保福路二段9巷5號","121.510721666667","25.0108933333333","6500400","永和區"
"249002","305-UY","2018/12/04 19:29:23","新北市八里區頂寮二街138號","121.449361666667","25.1294516666667","6502300","八里區"
"249003","593-UM","2018/12/04 19:29:28","新北市八里區中山路二段448號","121.399251666667","25.1472933333333","6502300","八里區"
"248014","025-BX","2018/12/04 19:29:26","新北市五股區民義路一段183巷8-3號","121.429868333333","25.0868333333333","6501500","五股區"
"248016","026-BX","2018/12/04 19:29:13","新北市五股區成泰路三段476號","121.451818333333","25.101415","6501500","五股區"
"248008","095-VK","2018/12/04 19:29:26","新北市五股區中興路一段95巷15號","121.46658","25.07224","6501500","五股區"
"248020","225-UY","2018/12/04 19:29:24","新北市五股區凌雲路三段45-2號","121.427695","25.1204466666667","6501500","五股區"
"248010","272-BY","2018/12/04 19:29:29","新北市五股區水碓一路23號","121.430586666667","25.0712516666667","6501500","五股區"
"248004","677-BX","2018/12/04 19:29:26","新北市五股區五福路41號","121.43323","25.08941","6501500","五股區"
"248002","678-BX","2018/12/04 19:29:25","新北市五股區凌雲路一段158巷14-1號","121.447941666667","25.103405","6501500","五股區"
"248012","682-TV","2018/12/04 19:29:11","新北市五股區成泰路二段97號","121.437925","25.084295","6501500","五股區"
"234023","9380-KE","2018/12/04 19:29:19","新北市永和區竹林路91巷43弄2號","121.521335","25.0128533333333","6500400","永和區"
"234077","969-R7","2018/12/04 19:29:21","新北市永和區民族街43巷9號","121.518905","24.9984266666667","6500400","永和區"
"234074","AAC-211","2018/12/04 19:29:31","新北市永和區環河東路二段46號","121.523058333333","25.0120133333333","6500400","永和區"
"234067","AAC-212","2018/12/04 19:29:27","新北市永和區永貞路376號","121.50973","25.0070816666667","6500400","永和區"
"234003","AAC-295","2018/12/04 19:29:31","新北市永和區福和路379號","121.514423333333","25.00754","6500400","永和區"
"244023","069-UM","2018/12/04 19:29:19","新北市林口區文化三路一段617巷90號","121.369985","25.0777833333333","6501700","林口區"
"243013","AAD-798","2018/12/04 19:29:16","新北市泰山區貴子路36巷5弄1號","121.425966666667","25.041095","6501600","泰山區"
"243009","297-R6","2018/12/04 19:29:16","新北市五股區成泰路一段7巷56號","121.432116666667","25.06735","6501600","泰山區"
"243016","KEA-2801","2018/12/04 19:29:20","新北市泰山區明志路三段166號","121.424118333333","25.039385","6501600","泰山區"
"243015","421-VK","2018/12/04 19:29:17","新北市泰山區民權街21號","121.428601666667","25.050755","6501600","泰山區"
"243011","KEA-2215","2018/12/04 19:29:29","新北市泰山區貴子路120號","121.428231666667","25.040655","6501600","泰山區"
"243010","KEA-2216","2018/12/04 19:29:14","新北市泰山區民生路17巷37號","121.429536666667","25.05158","6501600","泰山區"
"243012","646-TV","2018/12/04 19:29:31","新北市泰山區仁愛路6巷4弄4號","121.430853333333","25.0538333333333","6501600","泰山區"
"243014","680-BX","2018/12/04 19:29:20","新北市泰山區中港西路498巷2號","121.432248333333","25.0525733333333","6501600","泰山區"
"222002","016-RS","2018/12/04 19:29:25","新北市深坑區北深路一段177號","121.632598333333","25.0108883333333","6501800","深坑區"
"222003","436-BY","2018/12/04 19:29:22","新北市深坑區深南路51-1號","121.621253333333","25.009725","6501800","深坑區"
"231041","002-UM","2018/12/04 19:29:20","新北市新店區中正路547號","121.533765","24.9877366666667","6500600","新店區"
"231059","046-UY","2018/12/04 19:29:30","新北市新店區安和路三段7號","121.518083333333","24.9805733333333","6500600","新店區"
"231040","047-UY","2018/12/04 19:29:21","新北市新店區中華路14號","121.540561666667","24.9675166666667","6500600","新店區"
"231044","106-UY","2018/12/04 19:29:14","新北市新店區中興路三段134號","121.544686666667","24.9798233333333","6500600","新店區"
"231053","108-UY","2018/12/04 19:29:27","新北市新店區廣興路66巷6號","121.538985","24.9135633333333","6500600","新店區"
"231048","187-VK","2018/12/04 19:29:24","新北市新店區中興路一段282-5號","121.546301666667","24.968135","6500600","新店區"
"231051","188-VK","2018/12/04 19:29:25","新北市新店區中央五街22號","121.529375","24.97444","6500600","新店區"
"231054","KEA-2219","2018/12/04 19:29:20","新北市新店區文中路45號","121.539575","24.9565933333333","6500600","新店區"
"231057","256-BX","2018/12/04 19:29:24","新北市新店區花園一路二段25號","121.551266666667","24.9325516666667","6500600","新店區"
"231042","268-BY","2018/12/04 19:29:23","新北市新店區北宜路一段7號","121.53845","24.9582833333333","6500600","新店區"
"231050","AAD-862","2018/12/04 19:29:28","新北市新店區竹林路97巷1號","121.554495","24.95023","6500600","新店區"
"231058","3713-VJ","2018/12/04 19:29:30","新北市新店區北新路二段228巷13號","121.543408333333","24.9771033333333","6500600","新店區"
"231066","4716-K9","2018/12/04 19:29:18","新北市新店區安康路三段359巷10弄2號","121.48429","24.9504033333333","6500600","新店區"
"231056","4715-K9","2018/12/04 19:29:15","新北市新店區安康路二段414巷2號","121.495853333333","24.9578183333333","6500600","新店區"
"231065","512-UM","2018/12/04 19:29:21","新北市新店區安祥路109巷1弄29號","121.476603333333","24.9600933333333","6500600","新店區"
"231049","513-UM","2018/12/04 19:29:16","新北市新店區北新路3段65巷34弄29-1號","121.540055","24.9819666666667","6500600","新店區"
"231063","616-UM","2018/12/04 19:29:10","新北市新店區達觀路14巷3號","121.503185","24.9418433333333","6500600","新店區"
"231045","617-UM","2018/12/04 19:29:31","新北市新店區北宜路二段209號","121.553118333333","24.95346","6500600","新店區"
"231061","619-UM","2018/12/04 19:29:25","新北市新店區安康路一段250號","121.521076666667","24.9639316666667","6500600","新店區"
"231064","719-UM","2018/12/04 19:28:45","新北市新店區安忠路57巷1-8號","121.513468333333","24.95924","6500600","新店區"
"231046","719-UY","2018/12/04 19:29:16","新北市新店區自由街9號","121.535571666667","24.974925","6500600","新店區"
"231062","720-UM","2018/12/04 19:29:15","新北市新店區莒光路97號","121.522678333333","24.954465","6500600","新店區"
"231060","897-TW","2018/12/04 19:29:26","新北市新店區安康路二段4號","121.516366666667","24.9637733333333","6500600","新店區"
"231043","898-TW","2018/12/04 19:29:20","新北市新店區北新路二段185號","121.542786666667","24.9776483333333","6500600","新店區"
"241028","022-UY","2018/12/04 19:29:18","新北市三重區中寮街94號","121.493443333333","25.0578933333333","6500200","三重區"
"241008","059-VK","2018/12/04 19:29:14","新北市三重區永福街135巷36號","121.477348333333","25.0772466666667","6500200","三重區"
"241031","061-VK","2018/12/04 19:29:19","新北市三重區集美街100號","121.488535","25.0542133333333","6500200","三重區"
"241017","063-VK","2018/12/04 19:29:21","新北市三重區國隆路16號","121.492903333333","25.0639416666667","6500200","三重區"
"241009","267-UM","2018/12/04 19:29:21","新北市三重區溪尾街242巷60號","121.486305","25.081495","6500200","三重區"
"241013","270-UM","2018/12/04 19:29:10","新北市三重區仁愛街129巷4號","121.495746666667","25.0750716666667","6500200","三重區"
"241025","271-UM","2018/12/04 19:29:31","新北市三重區頂崁街210巷28弄9號","121.475798333333","25.0672066666667","6500200","三重區"
"241007","398-BY","2018/12/04 19:29:31","新北市三重區慈愛街151號","121.489551666667","25.0794466666667","6500200","三重區"
"241035","KEA-2210","2018/12/04 19:29:12","新北市三重區信義西街1號","121.498075","25.06485","6500200","三重區"
"241020","478-VK","2018/12/04 19:29:27","新北市三重區三和路四段20巷9號","121.490548333333","25.0739616666667","6500200","三重區"
"241030","480-VK","2018/12/04 19:29:19","新北市三重區成功路41巷3號","121.490248333333","25.0514283333333","6500200","三重區"
"241023","545-UM","2018/12/04 19:29:21","新北市三重區頂崁街99號","121.478035","25.0638066666667","6500200","三重區"
"241026","743-BX","2018/12/04 19:29:23","新北市三重區文化南路47巷17號","121.499695","25.0612533333333","6500200","三重區"
"241006","887-TS","2018/12/04 19:29:09","新北市三重區自強路三段78號","121.487063333333","25.0743183333333","6500200","三重區"
"241012","941-UM","2018/12/04 19:29:24","新北市三重區河邊北街262號","121.501618333333","25.0764466666667","6500200","三重區"
"241029","942-UM","2018/12/04 19:29:16","新北市三重區重安街103號","121.493918333333","25.055135","6500200","三重區"
"235066","003-UY","2018/12/04 19:29:24","新北市中和區景新街48號","121.50391","24.9991433333333","6500300","中和區"
"235064","005-UY","2018/12/04 19:29:16","新北市中和區南山路81巷50號","121.50367","24.9983516666667","6500300","中和區"
"235063","006-UY","2018/12/04 19:29:12","新北市中和區連勝街179號","121.494036666667","24.9970166666667","6500300","中和區"
"235056","096-UM","2018/12/04 19:29:10","新北市中和區民富街9號","121.476566666667","25.007265","6500300","中和區"
"235039","097-UM","2018/12/04 19:29:18","新北市中和區秀峰街103巷3弄2號","121.520425","24.9899083333333","6500300","中和區"
"235040","150-BY","2018/12/04 19:28:57","新北市中和區景安路79巷39號","121.507468333333","24.99622","6500300","中和區"
"235058","151-BY","2018/12/04 19:29:24","新北市中和區連城路334號","121.483165","24.9958566666667","6500300","中和區"
"235055","183-VK","2018/12/04 19:29:22","新北市中和區莒光路120巷11號","121.471595","25.001655","6500300","中和區"
"235038","185-VK","2018/12/04 19:29:28","新北市中和區自立路101號","121.522048333333","24.99474","6500300","中和區"
"235049","186-VK","2018/12/04 19:29:24","新北市中和區景新街285巷8號","121.510195","24.99354","6500300","中和區"
"235067","255-BX","2018/12/04 19:29:11","新北市中和區新生街186巷5弄3號","121.482911666667","24.9995533333333","6500300","中和區"
"235044","293-VK","2018/12/04 19:29:23","新北市中和區捷運路122號","121.505423333333","24.99148","6500300","中和區"
"235072","301-VK","2018/12/04 19:29:17","新北市中和區連城路265巷12弄2號","121.491716666667","24.9952116666667","6500300","中和區"
"235043","352-BY","2018/12/04 19:29:13","新北市中和區景安路85號","121.50627","24.9970516666667","6500300","中和區"
"235042","KEA-2878","2018/12/04 19:29:23","新北市中和區中和路378巷14弄21號","121.510966666667","25.00127","6500300","中和區"
"235070","558-UM","2018/12/04 19:29:21","新北市中和區景平路634-3號","121.499491666667","24.9988866666667","6500300","中和區"
"235045","565-BX","2018/12/04 19:29:19","新北市中和區景新街383巷49號","121.513428333333","24.9906566666667","6500300","中和區"
"235054","640-BX","2018/12/04 19:29:16","新北市中和區國光街112巷14弄15號","121.470611666667","25.0013516666667","6500300","中和區"
"235060","647-TV","2018/12/04 19:29:15","新北市中和區中山路二段523巷41號","121.482241666667","25.0031616666667","6500300","中和區"
"235047","732-UM","2018/12/04 19:29:27","新北市中和區景平路259巷17號","121.507443333333","24.992715","6500300","中和區"
"235046","733-UM","2018/12/04 19:29:27","新北市中和區忠孝街37巷44號","121.51074","24.9846183333333","6500300","中和區"
"235071","783-BX","2018/12/04 19:29:30","新北市中和區連城路469巷21弄12號","121.483956666667","24.9950383333333","6500300","中和區"
"235057","801-TS","2018/12/04 19:29:13","新北市中和區中山路三段37巷37號","121.479696666667","25.004785","6500300","中和區"
"235041","802-TS","2018/12/04 19:29:12","新北市中和區中和路400巷14弄1號","121.5117","25.0021483333333","6500300","中和區"
"235052","805-TS","2018/12/04 19:29:09","新北市中和區華新街143巷67弄27號","121.507368333333","24.9791916666667","6500300","中和區"
"235048","896-TW","2018/12/04 19:29:29","新北市中和區忠孝街136號","121.512066666667","24.9867083333333","6500300","中和區"
"235053","900-TW","2018/12/04 19:29:21","新北市中和區華順街6號","121.467538333333","24.998825","6500300","中和區"
"235051","157-BY","2018/12/04 19:29:09","新北市中和區景新街134號","121.505166666667","24.997965","6500300","中和區"
"235037","AAC-213","2018/12/04 19:29:27","新北市中和區秀朗路三段10巷14弄18號","121.5249","24.996615","6500300","中和區"
"235059","AAC-215","2018/12/04 19:29:13","新北市中和區圓通路252巷16號","121.492296666667","24.99217","6500300","中和區"
"220065","072-UY","2018/12/04 19:29:16","新北市板橋區國泰街111巷1號","121.46593","25.006285","6500100","板橋區"
"220086","073-UY","2018/12/04 19:29:20","新北市板橋區中正路236巷83號","121.459283333333","25.0197716666667","6500100","板橋區"
"220106","075-UY","2018/12/04 19:29:13","新北市板橋區雙十路三段10巷1弄31號","121.4713","25.0317733333333","6500100","板橋區"
"220069","AAD-861","2018/12/04 19:29:12","新北市板橋區南雅南路二段18號","121.45446","25.0035783333333","6500100","板橋區"
"247004","002-UY","2018/12/04 19:29:13","新北市蘆洲區長安街225號","121.459605","25.0826366666667","6501400","蘆洲區"
"226004","312-R5","2018/12/04 19:29:23","新北市平溪區十分里十分街180號","121.778621666667","25.0439083333333","6502400","平溪區"
"228001","212-TW","2018/12/04 19:29:30","新北市貢寮區真理里延平街68號","121.925363333333","25.0574233333333","6502600","貢寮區"
"228002","663-BX","2018/12/04 19:29:19","新北市貢寮區龍門里龍門街78號","121.931101666667","25.0268316666667","6502600","貢寮區"
"228003","828-UM","2018/12/04 19:29:15","新北市貢寮區和美里和美街19-2號","121.912815","25.0825766666667","6502600","貢寮區"
"224010","AGQ-8101","2018/12/04 19:29:24","新北市瑞芳區基山街171號","121.84324","25.1080116666667","6501200","瑞芳區"
"227003","642-TC","2018/12/04 19:29:21","新北市雙溪區雙溪里光復街10號","121.865","25.0353166666667","6502500","雙溪區"
"227009","400-TW","2018/12/04 19:29:16","新北市雙溪區新基里新基北街43號","121.86816","25.0396783333333","6502500","雙溪區"
"253006","032-BX","2018/12/04 19:29:12","新北市石門區老崩山2-1號","121.554078333333","25.2918033333333","6502200","石門區"
"222001","KEA-2212","2018/12/04 19:29:27","新北市深坑區深坑街10號","121.615825","25.002835","6501800","深坑區"
"208002","KEA-2872","2018/12/04 19:29:23","新北市金山區仁愛路87巷1號","121.634643333333","25.2215116666667","6502700","金山區"
"208003","665-BX","2018/12/04 19:29:28","新北市金山區仁愛路66號","121.63527","25.2212316666667","6502700","金山區"
"208001","761-BX","2018/12/04 19:29:26","新北市金山區六股里下六股41號","121.618946666667","25.2216383333333","6502700","金山區"
"251005","010-UM","2018/12/04 19:29:17","新北市淡水區水源街一段47巷16號","121.444056666667","25.1728733333333","6501000","淡水區"
"251001","011-UM","2018/12/04 19:29:24","新北市淡水區民權路179號","121.459673333333","25.135175","6501000","淡水區"
"251013","KEA-2871","2018/12/04 19:29:27","新北市淡水區安子內18號","121.475365","25.2186783333333","6501000","淡水區"
"251016","179-VK","2018/12/04 19:29:31","新北市淡水區下圭柔山119-51號","121.450711666667","25.2085083333333","6501000","淡水區"
"251014","180-VK","2018/12/04 19:29:28","新北市淡水區小中寮19-7號","121.484758333333","25.2296083333333","6501000","淡水區"
"251015","182-VK","2018/12/04 19:29:04","新北市淡水區北新路三段126號","121.487883333333","25.1895966666667","6501000","淡水區"
"251010","413-VK","2018/12/04 19:29:18","新北市淡水區中正路二段150號","121.42286","25.1877083333333","6501000","淡水區"
"251012","441-VK","2018/12/04 19:29:22","新北市淡水區崁頂103號","121.433813333333","25.20383","6501000","淡水區"
"251006","561-UM","2018/12/04 19:29:14","新北市淡水區大義街46號","121.441888333333","25.178385","6501000","淡水區"
"251009","575-R6","2018/12/04 19:29:24","新北市淡水區大忠街5巷9號","121.443348333333","25.1765683333333","6501000","淡水區"
"251007","577-R6","2018/12/04 19:29:30","新北市淡水區坪頂路47號","121.457533333333","25.1624766666667","6501000","淡水區"
"207003","550-UM","2018/12/04 19:29:17","新北市萬里區大鵬里萬里加投249號","121.644371666667","25.2156283333333","6502800","萬里區"
"207004","225-TW","2018/12/04 19:29:24","新北市萬里區萬里里瑪鋉路135號","121.688955","25.17769","6502800","萬里區"
"252002","178-VK","2018/12/04 19:29:20","新北市三芝區淡金路二段18-1號","121.502711666667","25.25951","6502100","三芝區"
"252001","292-VK","2018/12/04 19:29:17","新北市三芝區長勤街62-1號","121.500143333333","25.2560933333333","6502100","三芝區"
"237007","153-BY","2018/12/04 19:29:23","新北市三峽區二鬮路136巷20弄53號","121.357565","24.909975","6500900","三峽區"
"237009","210-TH","2018/12/04 19:29:13","新北市三峽區民權街91號","121.36929","24.93281","6500900","三峽區"
"237013","252-BX","2018/12/04 19:29:30","新北市三峽區介壽路一段309號","121.38119","24.930555","6500900","三峽區"
"237012","275-BY","2018/12/04 19:29:26","新北市三峽區民生街2號","121.376363333333","24.9368816666667","6500900","三峽區"
"237008","302-VK","2018/12/04 19:29:30","新北市三峽區永安街133號","121.373815","24.9284283333333","6500900","三峽區"
"237014","433-BY","2018/12/04 19:29:13","新北市三峽區中園街51號","121.368145","24.9260433333333","6500900","三峽區"
"237006","5529-G3","2018/12/04 19:29:19","新北市三峽區中正路一段336巷15弄2號","121.369941666667","24.9249416666667","6500900","三峽區"
"237011","KEA-2596","2018/12/04 19:29:32","新北市三峽區介壽路一段207號","121.378693333333","24.9304716666667","6500900","三峽區"
"237016","649-BX","2018/12/04 19:29:16","新北市三峽區安坑51-2號","121.463691666667","24.9313766666667","6500900","三峽區"
"237005","AKY-6261","2018/12/04 19:29:25","新北市三峽區中山路184巷19號","121.364338333333","24.9373883333333","6500900","三峽區"
"236070","105-UM","2018/12/04 19:29:15","新北市土城區裕民路185巷36弄10號","121.454368333333","24.98455","6501300","土城區"
"236079","166-UM","2018/12/04 19:29:20","新北市土城區中州路27巷81號","121.412625","24.9563233333333","6501300","土城區"
"236026","269-VK","2018/12/04 19:29:15","新北市土城區中央路二段61巷22號","121.44331","24.978905","6501300","土城區"
"236021","401-BY","2018/12/04 19:29:19","新北市土城區峰廷街3號","121.469051666667","24.9872966666667","6501300","土城區"
"236049","913-UM","2018/12/04 19:29:22","新北市土城區清水路200號","121.46042","24.9818716666667","6501300","土城區"
"242048","497-BY","2018/12/04 19:29:28","新北市新莊區後港一路3號","121.424096666667","25.026275","6500500","新莊區"
"242023","362-BY","2018/12/04 19:29:12","新北市新莊區新泰路488號","121.442413333333","25.045755","6500500","新莊區"
"242013","173-VK","2018/12/04 19:29:09","新北市新莊區新泰路488號","121.442381666667","25.045825","6500500","新莊區"
"242032","347-TH","2018/12/04 19:29:16","新北市新莊區新泰路225巷22弄36號","121.44405","25.0391633333333","6500500","新莊區"
"238015","755-BX","2018/12/04 19:29:30","新北市樹林區備內街1巷31號","121.412633333333","24.9863316666667","6500700","樹林區"
"238023","601-UM","2018/12/04 19:29:14","新北市樹林區三福街166號","121.404741666667","25.0159833333333","6500700","樹林區"
"238019","599-UM","2018/12/04 19:29:23","新北市樹林區鎮前街327-3號","121.416998333333","24.9844966666667","6500700","樹林區"
"238018","571-TV","2018/12/04 19:29:13","新北市樹林區中華路112號","121.418296666667","24.9807483333333","6500700","樹林區"
"238024","5061-A6","2018/12/04 19:29:30","新北市樹林區中山路三段155巷5號","121.39566","24.9725883333333","6500700","樹林區"
"238022","KEA-2213","2018/12/04 19:29:19","新北市樹林區名園街11號","121.419215","24.9795216666667","6500700","樹林區"
"238021","KEA-2539","2018/12/04 19:29:28","新北市樹林區大雅路1號","121.38071","24.944305","6500700","樹林區"
"238025","303-VK","2018/12/04 19:29:19","新北市樹林區中山路一段183號","121.421645","24.9880066666667","6500700","樹林區"
"238017","283-BY","2018/12/04 19:29:29","新北市樹林區光興街40號","121.410828333333","25.00283","6500700","樹林區"
"238014","282-BY","2018/12/04 19:29:25","新北市樹林區保安二街64巷25號","121.42441","24.9966916666667","6500700","樹林區"
"238020","268-VK","2018/12/04 19:29:20","新北市樹林區俊英街121巷29號","121.423331666667","25.0100383333333","6500700","樹林區"
"238026","172-UY","2018/12/04 19:29:25","新北市樹林區佳園路三段93號","121.38763","24.95234","6500700","樹林區"
"238016","169-UY","2018/12/04 19:29:22","新北市樹林區復興路428號","121.413941666667","24.984645","6500700","樹林區"
"239006","891-R6","2018/12/04 19:29:20","新北市鶯歌區永昌街17號","121.342911666667","24.9497516666667","6500800","鶯歌區"
"239001","417-VK","2018/12/04 19:29:22","新北市鶯歌區尖山埔路二段57號","121.341758333333","24.94839","6500800","鶯歌區"
"239003","360-BY","2018/12/04 19:29:11","新北市鶯歌區二甲路13號","121.34457","24.9351933333333","6500800","鶯歌區"
"239002","359-BY","2018/12/04 19:29:29","新北市鶯歌區中山路300號","121.342815","24.9573266666667","6500800","鶯歌區"
"239004","193-VK","2018/12/04 19:29:17","新北市鶯歌區二甲路50-2號","121.337365","24.9346316666667","6500800","鶯歌區"
"221008","489-VK","2018/12/04 19:29:13","新北市汐止區康寧街145號","121.62178","25.06671","6501100","汐止區"
"221036","130-UY","2018/12/04 19:29:25","新北市汐止區康寧街901號","121.651075","25.075185","6501100","汐止區"
"221015","131-UY","2018/12/04 19:29:19","新北市汐止區康寧街901號","121.651435","25.07501","6501100","汐止區"
"221010","269-BY","2018/12/04 19:29:14","新北市汐止區連峰街7號","121.646391666667","25.0772533333333","6501100","汐止區"
"221012","278-VK","2018/12/04 19:29:26","新北市汐止區大同路三段174號","121.674091666667","25.0749333333333","6501100","汐止區"
"221027","281-BY","2018/12/04 19:29:18","新北市汐止區忠孝東路9號","121.658341666667","25.06599","6501100","汐止區"
"221021","299-VK","2018/12/04 19:29:15","新北市汐止區康寧街901號","121.651528333333","25.07502","6501100","汐止區"
"221031","353-TW","2018/12/04 19:29:20","新北市汐止區康寧街901號","121.650716666667","25.0752483333333","6501100","汐止區"
"221002","129-UY","2018/12/04 19:29:10","新北市汐止區大同路一段331號","121.63835","25.0592583333333","6501100","汐止區"
"221025","623-UM","2018/12/04 19:29:21","新北市汐止區秀峰路57號","121.660023333333","25.0649233333333","6501100","汐止區"
"221038","646-BX","2018/12/04 19:29:23","新北市汐止區大同路二段341號","121.65653","25.0671533333333","6501100","汐止區"
"220079","145-BY","2018/12/04 19:29:28","新北市板橋區民權路260巷54號","121.459926666667","25.0151","6500100","板橋區"
"220080","200-UY","2018/12/04 19:29:22","新北市板橋區大觀路二段3巷63號","121.449511666667","25.0034283333333","6500100","板橋區"
"220082","610-BX","2018/12/04 19:29:31","新北市板橋區金門街271號","121.431478333333","24.9883933333333","6500100","板橋區"
"220101","245-BX","2018/12/04 19:29:24","新北市板橋區民生路二段226巷46號","121.4718","25.0222766666667","6500100","板橋區"
"224002","257-TC","2018/12/04 19:29:21","新北市瑞芳區三爪子坑路27號","121.813886666667","25.1076833333333","6501200","瑞芳區"
"220056","276-BY","2018/12/04 19:29:18","新北市板橋區和平路15-1號","121.459646666667","24.994775","6500100","板橋區"
"220072","277-BY","2018/12/04 19:29:30","新北市板橋區金門街253巷12號","121.432923333333","24.9882733333333","6500100","板橋區"
"220094","283-UM","2018/12/04 19:29:25","新北市板橋區銘傳街41-7號","121.46939","25.0315233333333","6500100","板橋區"
"220071","283-VK","2018/12/04 19:29:22","新北市板橋區忠孝路48巷9弄28號","121.462096666667","25.0001716666667","6500100","板橋區"
"220053","285-VK","2018/12/04 19:29:24","新北市板橋區永豐街231號","121.477303333333","25.02126","6500100","板橋區"
"220083","286-VK","2018/12/04 19:29:32","新北市板橋區龍興街73巷6號","121.443666666667","25.0022133333333","6500100","板橋區"
"220081","287-VK","2018/12/04 19:29:29","新北市板橋區南雅西路一段7巷1號","121.45429","25.0043483333333","6500100","板橋區"
"220090","288-VK","2018/12/04 19:29:15","新北市板橋區長江路一段48巷3弄1號","121.459131666667","25.0286866666667","6500100","板橋區"
"220061","293-UM","2018/12/04 19:29:25","新北市板橋區中山路二段95號","121.474405","25.01607","6500100","板橋區"
"220084","296-UM","2018/12/04 19:29:15","新北市板橋區篤行路三段47號","121.428291666667","24.9862033333333","6500100","板橋區"
"220092","299-UM","2018/12/04 19:29:19","新北市板橋區文化路一段387巷21-4號","121.466056666667","25.0221816666667","6500100","板橋區"
"220075","303-R5","2018/12/04 19:29:26","新北市板橋區中正路253巷36號","121.454313333333","25.017815","6500100","板橋區"
"220062","305-R5","2018/12/04 19:29:14","新北市板橋區三民路二段123巷12號","121.479965","25.01559","6500100","板橋區"
"220098","317-R6","2018/12/04 19:29:30","新北市板橋區民有街91號","121.464613333333","25.0275683333333","6500100","板橋區"
"220089","487-VK","2018/12/04 19:29:27","新北市板橋區龍泉街82巷7號","121.455985","25.0255016666667","6500100","板橋區"
"220088","491-VK","2018/12/04 19:29:28","新北市板橋區文化路二段182巷3弄79號","121.47246","25.0295333333333","6500100","板橋區"
"220035","560-BX","2018/12/04 19:29:09","新北市板橋區中正路399巷26號","121.453301666667","25.0226066666667","6500100","板橋區"
"220103","561-BX","2018/12/04 19:29:25","新北市板橋區陽明街29巷8號","121.46492","25.0218933333333","6500100","板橋區"
"220063","609-BX","2018/12/04 19:29:29","新北市板橋區中山路二段505巷56號","121.482026666667","25.0229983333333","6500100","板橋區"
"220091","637-BX","2018/12/04 19:29:29","新北市板橋區文聖街149巷18號","121.479285","25.028415","6500100","板橋區"
"220057","686-BX","2018/12/04 19:29:10","新北市板橋區和平路61號","121.461138333333","24.99456","6500100","板橋區"
"220077","687-BX","2018/12/04 19:29:27","新北市板橋區僑中二街102巷1號","121.446","25.00813","6500100","板橋區"
"220093","689-BX","2018/12/04 19:29:20","新北市板橋區長江路一段153號","121.461038333333","25.0304583333333","6500100","板橋區"
"220054","741-BX","2018/12/04 19:29:15","新北市板橋區忠孝路101號","121.46248","25.0023483333333","6500100","板橋區"
"220102","KEA-2699","2018/12/04 19:29:26","新北市板橋區雙十路二段46巷15號","121.476168333333","25.02811","6500100","板橋區"
"220055","827-TW","2018/12/04 19:29:11","新北市板橋區實踐路65巷6-7號","121.464431666667","25.0065216666667","6500100","板橋區"
"220068","830-TW","2018/12/04 19:29:28","新北市板橋區萬安街67號","121.483813333333","25.02398","6500100","板橋區"
"220067","831-TW","2018/12/04 19:29:25","新北市板橋區漢生東路279巷8號","121.47185","25.0089966666667","6500100","板橋區"
"220074","895-R6","2018/12/04 19:29:25","新北市板橋區府中路99號","121.456936666667","25.0095033333333","6500100","板橋區"
"220073","985-R7","2018/12/04 19:29:17","新北市板橋區中正路346號","121.454561666667","25.0234283333333","6500100","板橋區"
"220097","AAC-210","2018/12/04 19:29:21","新北市板橋區文化路一段285巷57號","121.463181666667","25.0198133333333","6500100","板橋區"
"220064","AAC-253","2018/12/04 19:29:20","新北市板橋區中山路一段68號","121.46153","25.0098533333333","6500100","板橋區"
"235068","KEA-2873","2018/12/04 19:29:13","新北市中和區連勝街57巷20號","121.498061666667","24.9964266666667","6500300","中和區"
"235061","KEA-2875","2018/12/04 19:29:24","新北市中和區員山路143巷36號","121.479356666667","24.9956616666667","6500300","中和區"
"235065","KEA-2876","2018/12/04 19:29:23","新北市中和區中山路二段64巷16弄3號","121.50327","25.0059866666667","6500300","中和區"
