"lineid","car","time","location","longitude","latitude","cityid","cityname"
"234046","148-BY","2018/12/04 19:39:24","新北市永和區永利路141號","121.52419","25.00356","6500400","永和區"
"234007","207-UY","2018/12/04 19:39:19","新北市中和區中和路330號","121.509873333333","25.0011833333333","6500400","永和區"
"241031","209-UY","2018/12/04 19:39:22","新北市永和區保生路55號","121.504648333333","25.0108216666667","6500200","三重區"
"234038","336-UY","2018/12/04 19:39:23","新北市永和區民樂街35巷5號","121.528015","25.0011266666667","6500400","永和區"
"234064","337-UY","2018/12/04 19:39:19","新北市永和區秀朗路一段192巷6弄14號","121.519108333333","25.002305","6500400","永和區"
"234070","552-UM","2018/12/04 19:39:10","新北市永和區永和路二段234號","121.515821666667","25.0145266666667","6500400","永和區"
"234081","553-UM","2018/12/04 19:39:21","新北市永和區國中路104巷10號","121.524763333333","25.0068816666667","6500400","永和區"
"234017","745-BX","2018/12/04 19:39:18","新北市永和區永和路二段425巷64號","121.513585","25.0172116666667","6500400","永和區"
"234030","746-BX","2018/12/04 19:39:23","新北市永和區四維街103巷4號","121.52391","24.9977566666667","6500400","永和區"
"234054","KEA-2590","2018/12/04 19:39:27","新北市永和區竹林路37號","121.517956666667","25.0142583333333","6500400","永和區"
"234013","KEA-2591","2018/12/04 19:39:26","新北市永和區仁愛路196號","121.509583333333","25.0124","6500400","永和區"
"234061","AAD-866","2018/12/04 19:39:14","新北市永和區中正路470號","121.51741","25.0031833333333","6500400","永和區"
"234086","748-BX","2018/12/04 19:39:22","新北市永和區永亨路154號","121.52561","25.0038216666667","6500400","永和區"
"234042","862-TW","2018/12/04 19:39:13","新北市永和區永貞路300號","121.51214","25.0046366666667","6500400","永和區"
"234050","863-TW","2018/12/04 19:39:14","新北市永和區保福路二段162巷2號","121.509061666667","25.01518","6500400","永和區"
"234026","9372-KE","2018/12/04 19:39:13","新北市永和區中和路501巷5號","121.510475","25.0025566666667","6500400","永和區"
"249004","303-UY","2018/12/04 19:39:18","新北市八里區中山路一段268巷5弄11號","121.414336666667","25.1603016666667","6502300","八里區"
"249002","305-UY","2018/12/04 19:39:23","新北市八里區頂寮二街33-1號","121.450291666667","25.12517","6502300","八里區"
"249003","593-UM","2018/12/04 19:39:28","新北市八里區華峰三街21號","121.399533333333","25.1459466666667","6502300","八里區"
"248014","025-BX","2018/12/04 19:39:26","新北市五股區五福路68巷1弄15號","121.432951666667","25.09082","6501500","五股區"
"248016","026-BX","2018/12/04 19:39:13","新北市五股區成泰路四段22巷29號","121.455583333333","25.1082533333333","6501500","五股區"
"248008","095-VK","2018/12/04 19:39:26","新北市五股區四維路118巷13號","121.46919","25.0742383333333","6501500","五股區"
"248020","225-UY","2018/12/04 19:39:24","新北市五股區中直路10-5號","121.427938333333","25.1114733333333","6501500","五股區"
"248010","272-BY","2018/12/04 19:39:29","新北市五股區自強路148號","121.432211666667","25.0705033333333","6501500","五股區"
"248004","677-BX","2018/12/04 19:39:26","新北市五股區成泰路二段116號","121.43792","25.083345","6501500","五股區"
"248002","678-BX","2018/12/04 19:39:25","新北市五股區成泰路三段577巷51號","121.450626666667","25.1031816666667","6501500","五股區"
"234077","969-R7","2018/12/04 19:39:21","新北市永和區民權路3號","121.520266666667","24.99848","6500400","永和區"
"234074","AAC-211","2018/12/04 19:39:16","新北市永和區竹林路206號","121.5206","25.0084233333333","6500400","永和區"
"234067","AAC-212","2018/12/04 19:39:26","新北市永和區永貞路406巷28號","121.509738333333","25.0079","6500400","永和區"
"234003","AAC-295","2018/12/04 19:39:11","新北市永和區自由街71號","121.513378333333","25.0052766666667","6500400","永和區"
"244023","069-UM","2018/12/04 19:39:19","新北市林口區仁愛路二段265號","121.373576666667","25.0773666666667","6501700","林口區"
"243013","AAD-798","2018/12/04 19:39:25","新北市泰山區應化街7號","121.423901666667","25.0436983333333","6501600","泰山區"
"243009","297-R6","2018/12/04 19:39:16","新北市泰山區美寧街69號","121.430961666667","25.0647266666667","6501600","泰山區"
"243016","KEA-2801","2018/12/04 19:39:20","新北市泰山區明志路三段427號","121.420836666667","25.0332083333333","6501600","泰山區"
"243015","421-VK","2018/12/04 19:39:18","新北市泰山區明志路二段237巷6號","121.427498333333","25.04807","6501600","泰山區"
"243011","KEA-2215","2018/12/04 19:39:29","新北市泰山區貴子路41-1號","121.4297","25.0399133333333","6501600","泰山區"
"243010","KEA-2216","2018/12/04 19:39:14","新北市泰山區仁義路220巷53號","121.432158333333","25.0525866666667","6501600","泰山區"
"243012","646-TV","2018/12/04 19:39:25","新北市泰山區仁武街21號","121.433671666667","25.05464","6501600","泰山區"
"243014","680-BX","2018/12/04 19:39:20","新北市泰山區仁愛路126號","121.433955","25.0557133333333","6501600","泰山區"
"222002","016-RS","2018/12/04 19:39:25","新北市深坑區北深路一段177號","121.632585","25.01088","6501800","深坑區"
"222003","436-BY","2018/12/04 19:29:22","新北市深坑區深南路51-1號","121.621253333333","25.009725","6501800","深坑區"
"231041","002-UM","2018/12/04 19:39:15","新北市新店區中正路485號","121.533916666667","24.9819633333333","6500600","新店區"
"231059","046-UY","2018/12/04 19:39:30","新北市新店區安和路三段125號","121.517301666667","24.9852866666667","6500600","新店區"
"231040","047-UY","2018/12/04 19:39:21","新北市新店區北新路一段96巷23號","121.542921666667","24.9686933333333","6500600","新店區"
"231044","106-UY","2018/12/04 19:39:14","新北市新店區北新路三段137號","121.541298333333","24.9829166666667","6500600","新店區"
"231053","108-UY","2018/12/04 19:39:19","新北市新店區新烏路二段401號","121.55136","24.90949","6500600","新店區"
"231048","187-VK","2018/12/04 19:39:24","新北市新店區五峰路63巷8弄20號","121.547343333333","24.9693133333333","6500600","新店區"
"231051","188-VK","2018/12/04 19:39:25","新北市新店區中央四街50號","121.52781","24.974895","6500600","新店區"
"231054","KEA-2219","2018/12/04 19:39:20","新北市新店區文中路37號","121.539125","24.9568916666667","6500600","新店區"
"231057","256-BX","2018/12/04 19:39:24","新北市新店區橘園一路11號","121.547968333333","24.934035","6500600","新店區"
"231042","268-BY","2018/12/04 19:39:23","新北市新店區中興路一段191號","121.543261666667","24.96506","6500600","新店區"
"231050","AAD-862","2018/12/04 19:39:28","新北市新店區郵政路1巷2號","121.557525","24.95229","6500600","新店區"
"231058","3713-VJ","2018/12/04 19:39:10","新北市新店區北新路二段92巷8號","121.54357","24.9730433333333","6500600","新店區"
"231066","4716-K9","2018/12/04 19:39:23","新北市新店區安康路三段242-1號","121.487823333333","24.9518016666667","6500600","新店區"
"231056","4715-K9","2018/12/04 19:39:15","新北市新店區安民街121巷20號","121.515341666667","24.9690366666667","6500600","新店區"
"231067","4772-VM","2018/12/04 19:39:13","新北市新店區柴埕路52巷1-6號","121.512968333333","24.9647533333333","6500600","新店區"
"231065","512-UM","2018/12/04 19:39:22","新北市新店區安祥路109巷85弄1號","121.477801666667","24.9603333333333","6500600","新店區"
"231049","513-UM","2018/12/04 19:39:16","新北市新店區大豐路65號","121.539621666667","24.979625","6500600","新店區"
"231063","616-UM","2018/12/04 19:39:10","新北市新店區達觀路41號","121.50279","24.938245","6500600","新店區"
"231045","617-UM","2018/12/04 19:39:12","新北市新店區北宜路二段170號","121.558386666667","24.9541033333333","6500600","新店區"
"231061","619-UM","2018/12/04 19:39:24","新北市新店區安民街47號","121.51603","24.9657566666667","6500600","新店區"
"231064","719-UM","2018/12/04 19:39:25","新北市新店區安和路一段52巷2-1號","121.517686666667","24.966375","6500600","新店區"
"231046","719-UY","2018/12/04 19:39:26","新北市新店區三民路84巷7號","121.534675","24.9730316666667","6500600","新店區"
"231062","720-UM","2018/12/04 19:39:16","新北市新店區精忠路10-1號","121.532508333333","24.9591633333333","6500600","新店區"
"231060","897-TW","2018/12/04 19:39:26","新北市新店區安康路二段144-1號","121.512435","24.961555","6500600","新店區"
"231043","898-TW","2018/12/04 19:39:20","新北市新店區中正路114號","121.54259","24.9710516666667","6500600","新店區"
"231055","AKT-0513","2018/12/04 19:39:16","新北市新店區新生街5巷12號","121.5398","24.96574","6500600","新店區"
"241011","013-R5","2018/12/04 19:39:16","新北市三重區秀江街184號","121.497851666667","25.071615","6500200","三重區"
"241028","022-UY","2018/12/04 19:39:18","新北市三重區中正南路192號","121.49386","25.0560433333333","6500200","三重區"
"241008","059-VK","2018/12/04 19:39:29","新北市三重區永福街68號","121.478948333333","25.07687","6500200","三重區"
"241031","061-VK","2018/12/04 19:39:19","新北市三重區重新路四段248號","121.486116666667","25.0534466666667","6500200","三重區"
"241015","062-VK","2018/12/04 19:39:11","新北市三重區福德北路34號","121.502156666667","25.0651583333333","6500200","三重區"
"241017","063-VK","2018/12/04 19:39:21","新北市三重區重陽路三段5巷38號","121.491815","25.0650416666667","6500200","三重區"
"241003","091-VK","2018/12/04 19:39:17","新北市三重區五華街93巷99號","121.49424","25.0852016666667","6500200","三重區"
"241009","267-UM","2018/12/04 19:39:26","新北市三重區三和路四段400巷27號","121.479991666667","25.07932","6500200","三重區"
"241013","270-UM","2018/12/04 19:39:30","新北市三重區仁賢街8號","121.495786666667","25.0746433333333","6500200","三重區"
"241025","271-UM","2018/12/04 19:39:31","新北市三重區忠孝路三段84巷1號","121.480348333333","25.064845","6500200","三重區"
"241007","398-BY","2018/12/04 19:39:31","新北市三重區三和路四段125巷66號","121.486975","25.078535","6500200","三重區"
"241035","KEA-2210","2018/12/04 19:39:22","新北市三重區正義北路61-2號","121.497473333333","25.06452","6500200","三重區"
"241004","475-VK","2018/12/04 19:39:28","新北市三重區五華街74號","121.493411666667","25.0820033333333","6500200","三重區"
"241020","478-VK","2018/12/04 19:39:19","新北市三重區自強路三段63號","121.486938333333","25.07333","6500200","三重區"
"241030","480-VK","2018/12/04 19:39:12","新北市三重區新興路24號","121.491943333333","25.053215","6500200","三重區"
"241014","543-UM","2018/12/04 19:39:25","新北市三重區河邊北街82號","121.50426","25.0689283333333","6500200","三重區"
"241023","545-UM","2018/12/04 19:39:21","新北市三重區忠孝路三段99巷11號","121.479743333333","25.0643283333333","6500200","三重區"
"241001","547-UM","2018/12/04 19:39:26","新北市三重區五華街26號","121.494625","25.080485","6500200","三重區"
"241019","KEA-2593","2018/12/04 19:39:24","新北市三重區六張街248巷2-6號","121.487566666667","25.0681266666667","6500200","三重區"
"241026","743-BX","2018/12/04 19:39:23","新北市三重區文化南路65巷27號","121.499181666667","25.060765","6500200","三重區"
"241006","887-TS","2018/12/04 19:39:29","新北市三重區聯華街93號","121.485541666667","25.07531","6500200","三重區"
"241012","941-UM","2018/12/04 19:39:24","新北市三重區仁興街26-8號","121.499171666667","25.0754066666667","6500200","三重區"
"241029","942-UM","2018/12/04 19:39:16","新北市三重區光明路122號","121.492936666667","25.0559566666667","6500200","三重區"
"235066","003-UY","2018/12/04 19:39:24","新北市中和區中和路196巷11號","121.505186666667","24.9991533333333","6500300","中和區"
"235064","005-UY","2018/12/04 19:39:16","新北市中和區南山路127巷17號","121.503013333333","24.9974266666667","6500300","中和區"
"235063","006-UY","2018/12/04 19:39:12","新北市中和區連城路139巷66號","121.49667","24.9967033333333","6500300","中和區"
"235056","096-UM","2018/12/04 19:39:30","新北市中和區中山路三段114巷70號","121.476045","25.00773","6500300","中和區"
"235039","097-UM","2018/12/04 19:39:18","新北市中和區景平路148號","121.518303333333","24.9919066666667","6500300","中和區"
"235040","150-BY","2018/12/04 19:39:16","新北市中和區保健路65號","121.509753333333","24.9971916666667","6500300","中和區"
"235058","151-BY","2018/12/04 19:39:24","新北市中和區員山路124巷25號","121.482528333333","24.9960933333333","6500300","中和區"
"235055","183-VK","2018/12/04 19:39:22","新北市中和區中山路三段179巷7號","121.473136666667","25.00589","6500300","中和區"
"235038","185-VK","2018/12/04 19:39:28","新北市中和區自立路20巷8號","121.521803333333","24.993375","6500300","中和區"
"235049","186-VK","2018/12/04 19:39:24","新北市中和區景新街222號","121.50725","24.9950166666667","6500300","中和區"
"235067","255-BX","2018/12/04 19:39:11","新北市中和區新生街220巷1弄6號","121.483288333333","24.9981616666667","6500300","中和區"
"235044","293-VK","2018/12/04 19:39:24","新北市中和區興南路二段3巷1號","121.508195","24.9865683333333","6500300","中和區"
"235072","301-VK","2018/12/04 19:39:17","新北市中和區錦和路93巷2弄1號","121.49031","24.9956583333333","6500300","中和區"
"235043","352-BY","2018/12/04 19:39:13","新北市中和區捷運路6號","121.510203333333","24.9895566666667","6500300","中和區"
"235042","KEA-2878","2018/12/04 19:39:23","新北市中和區景安路79巷37弄14-6號","121.508261666667","24.996","6500300","中和區"
"235070","558-UM","2018/12/04 19:39:21","新北市中和區連城路139巷66號","121.496946666667","24.9968333333333","6500300","中和區"
"235045","565-BX","2018/12/04 19:39:19","新北市中和區景新街338號","121.51203","24.9906566666667","6500300","中和區"
"235054","640-BX","2018/12/04 19:39:16","新北市中和區民德路72號","121.468798333333","25.0017533333333","6500300","中和區"
"235060","647-TV","2018/12/04 19:39:15","新北市中和區中山路二段570號","121.483048333333","25.005075","6500300","中和區"
"235047","732-UM","2018/12/04 19:39:27","新北市中和區南山路283巷12號","121.504641666667","24.9925433333333","6500300","中和區"
"235046","733-UM","2018/12/04 19:39:26","新北市中和區四維街8號","121.513383333333","24.98731","6500300","中和區"
"235071","783-BX","2018/12/04 19:39:10","新北市中和區中正路839巷29號","121.483603333333","25.002375","6500300","中和區"
"235057","801-TS","2018/12/04 19:39:13","新北市中和區員山路176號","121.481351666667","25.0000083333333","6500300","中和區"
"235041","802-TS","2018/12/04 19:39:12","新北市永和區安樂路417號","121.514451666667","25.0038366666667","6500300","中和區"
"235052","805-TS","2018/12/04 19:39:29","新北市中和區華新街190號","121.50689","24.9821966666667","6500300","中和區"
"235048","896-TW","2018/12/04 19:39:19","新北市中和區忠孝街2-7號","121.509155","24.98299","6500300","中和區"
"235053","900-TW","2018/12/04 19:39:21","新北市中和區國光街205巷2號","121.466718333333","25.001955","6500300","中和區"
"235051","157-BY","2018/12/04 19:39:09","新北市中和區中興街132巷11號","121.4988","24.99162","6500300","中和區"
"235037","AAC-213","2018/12/04 19:39:27","新北市中和區秀朗路三段107號","121.526411666667","24.994515","6500300","中和區"
"235059","AAC-215","2018/12/04 19:39:13","新北市中和區錦和路203巷13號","121.491338333333","24.990575","6500300","中和區"
"220065","072-UY","2018/12/04 19:39:16","新北市板橋區國泰街39巷5弄8號","121.468701666667","25.006015","6500100","板橋區"
"220086","073-UY","2018/12/04 19:39:20","新北市板橋區中正路15號","121.456131666667","25.01234","6500100","板橋區"
"220106","075-UY","2018/12/04 19:39:13","新北市板橋區文化路二段586號","121.476821666667","25.0348033333333","6500100","板橋區"
"220069","AAD-861","2018/12/04 19:39:32","新北市板橋區貴興路119巷1弄1號","121.455771666667","25.002215","6500100","板橋區"
"247004","002-UY","2018/12/04 19:39:13","新北市蘆洲區長安街102巷26號","121.462898333333","25.08211","6501400","蘆洲區"
"226004","312-R5","2018/12/04 19:39:23","新北市平溪區靜安路三段392巷3號","121.784588333333","25.0496266666667","6502400","平溪區"
"228001","212-TW","2018/12/04 19:39:10","新北市貢寮區真理里延平街61號","121.924555","25.05568","6502600","貢寮區"
"228003","828-UM","2018/12/04 19:39:15","新北市貢寮區真理里美艷山街53-2號","121.9232","25.06929","6502600","貢寮區"
"224010","AGQ-8101","2018/12/04 19:36:44","新北市瑞芳區烏勢巷137號","121.8468","25.1076166666667","6501200","瑞芳區"
"227003","642-TC","2018/12/04 19:39:19","新北市雙溪區雙溪里太平路66號","121.865343333333","25.0359883333333","6502500","雙溪區"
"227009","400-TW","2018/12/04 19:39:16","新北市雙溪區新基里新基北街22號","121.867216666667","25.0389233333333","6502500","雙溪區"
"253006","032-BX","2018/12/04 19:39:12","新北市石門區小坑9號","121.594353333333","25.288655","6502200","石門區"
"222001","KEA-2212","2018/12/04 19:39:27","新北市深坑區深坑街148號","121.613013333333","25.0015016666667","6501800","深坑區"
"208002","KEA-2872","2018/12/04 19:39:23","新北市金山區三民街15號","121.634675","25.22281","6502700","金山區"
"208003","665-BX","2018/12/04 19:39:16","新北市金山區仁愛路1巷1號","121.638581666667","25.2200766666667","6502700","金山區"
"208001","761-BX","2018/12/04 19:39:26","新北市金山區重和里茅埔頭2號","121.604166666667","25.2172866666667","6502700","金山區"
"251005","010-UM","2018/12/04 19:39:17","新北市淡水區原德路108巷2號","121.443393333333","25.173545","6501000","淡水區"
"251001","011-UM","2018/12/04 19:39:24","新北市淡水區民權路6號","121.459735","25.13972","6501000","淡水區"
"251013","KEA-2871","2018/12/04 19:39:27","新北市淡水區頂田寮路145號","121.461976666667","25.2162183333333","6501000","淡水區"
"251016","179-VK","2018/12/04 19:39:11","新北市淡水區下圭柔山119-51號","121.450701666667","25.2085033333333","6501000","淡水區"
"251014","180-VK","2018/12/04 19:39:28","新北市淡水區北勢子21號","121.477266666667","25.2303633333333","6501000","淡水區"
"251015","182-VK","2018/12/04 19:39:24","新北市淡水區北新路三段157號","121.488756666667","25.1902616666667","6501000","淡水區"
"251010","413-VK","2018/12/04 19:39:18","新北市淡水區沙崙路二段112號","121.433258333333","25.198525","6501000","淡水區"
"251012","441-VK","2018/12/04 19:39:22","新北市淡水區淡金路二段605號","121.44614","25.193435","6501000","淡水區"
"251004","443-VK","2018/12/04 19:39:20","新北市淡水區中正東路二段88巷39號","121.459578333333","25.1428466666667","6501000","淡水區"
"251006","561-UM","2018/12/04 19:39:13","新北市淡水區中山北路一段207巷70號","121.441565","25.179265","6501000","淡水區"
"251009","575-R6","2018/12/04 19:39:24","新北市淡水區中山北路一段196號","121.444541666667","25.1794016666667","6501000","淡水區"
"251007","577-R6","2018/12/04 19:39:30","新北市淡水區中正東路一段111巷10號","121.454645","25.160625","6501000","淡水區"
"207003","550-UM","2018/12/04 19:39:17","新北市萬里區大鵬里下社2號","121.647778333333","25.2161716666667","6502800","萬里區"
"207004","225-TW","2018/12/04 19:39:24","新北市萬里區萬里里瑪鋉路21號","121.687241666667","25.1753583333333","6502800","萬里區"
"252002","178-VK","2018/12/04 19:39:00","新北市三芝區中正路一段18巷52號","121.504151666667","25.2588433333333","6502100","三芝區"
"252001","292-VK","2018/12/04 19:39:17","新北市三芝區公正街66號","121.49978","25.2574533333333","6502100","三芝區"
"237007","153-BY","2018/12/04 19:39:23","新北市三峽區二鬮路136巷22弄45號","121.357466666667","24.9104283333333","6500900","三峽區"
"237009","210-TH","2018/12/04 19:39:30","新北市三峽區中園街117號","121.367613333333","24.924175","6500900","三峽區"
"237013","252-BX","2018/12/04 19:39:16","新北市三峽區橫溪路10號","121.396083333333","24.9360416666667","6500900","三峽區"
"237012","275-BY","2018/12/04 19:39:26","新北市三峽區光明路19號","121.373165","24.9312833333333","6500900","三峽區"
"237008","302-VK","2018/12/04 19:39:30","新北市三峽區中正路一段292巷10號","121.370996666667","24.9259716666667","6500900","三峽區"
"237014","433-BY","2018/12/04 19:39:13","新北市三峽區添福29-2號","121.37302","24.90363","6500900","三峽區"
"237006","5529-G3","2018/12/04 19:39:19","新北市三峽區中正路一段336巷15弄2號","121.369941666667","24.9249483333333","6500900","三峽區"
"237011","KEA-2596","2018/12/04 19:39:12","新北市三峽區中正路一段350號","121.371161666667","24.924395","6500900","三峽區"
"237016","649-BX","2018/12/04 19:39:16","新北市三峽區安坑1-12號","121.43901","24.9266566666667","6500900","三峽區"
"237005","AKY-6261","2018/12/04 19:39:25","新北市三峽區中山路231巷1弄6號","121.363173333333","24.936575","6500900","三峽區"
"236070","105-UM","2018/12/04 19:39:15","新北市土城區金城路2段39巷3-1號","121.44869","24.9783816666667","6501300","土城區"
"236042","KED-0685","2018/12/04 19:39:29","新北市土城區裕民路253-2號","121.454711666667","24.98303","6501300","土城區"
"236079","166-UM","2018/12/04 19:39:20","新北市土城區溪頭路35號","121.412305","24.955205","6501300","土城區"
"236030","253-BX","2018/12/04 19:39:16","新北市土城區福祥街65號","121.441091666667","24.98059","6501300","土城區"
"236026","269-VK","2018/12/04 19:39:15","新北市土城區中央路二段61巷26號","121.443358333333","24.978855","6501300","土城區"
"236038","271-VK","2018/12/04 19:39:26","新北市土城區青雲路281巷13弄6號","121.459836666667","24.9804333333333","6501300","土城區"
"247008","KED-0683","2018/12/04 19:39:23","新北市蘆洲區中山一路176號","121.474206666667","25.081195","6501400","蘆洲區"
"236021","401-BY","2018/12/04 19:39:19","新北市土城區峰廷街3號","121.469076666667","24.9872933333333","6501300","土城區"
"236055","752-BX","2018/12/04 19:38:38","新北市土城區學府路一段26號","121.458315","24.98848","6501300","土城區"
"236049","913-UM","2018/12/04 19:39:13","新北市土城區明德路一段71號","121.465831666667","24.98358","6501300","土城區"
"236063","915-UM","2018/12/04 19:39:17","新北市土城區延平街69巷2號","121.467478333333","24.9929066666667","6501300","土城區"
"242029","612-BX","2018/12/04 19:39:17","新北市新莊區新泰路255巷83號","121.442056666667","25.03884","6500500","新莊區"
"242048","497-BY","2018/12/04 19:39:28","新北市新莊區後港一路18號","121.424813333333","25.0259466666667","6500500","新莊區"
"242023","362-BY","2018/12/04 19:39:12","新北市新莊區復興路三段64號","121.463706666667","25.0445466666667","6500500","新莊區"
"242034","135-UY","2018/12/04 19:39:31","新北市新莊區仁愛街16-5號","121.444275","25.0355633333333","6500500","新莊區"
"242013","173-VK","2018/12/04 19:39:29","新北市新莊區中誠街147巷8號","121.448823333333","25.0469983333333","6500500","新莊區"
"242032","347-TH","2018/12/04 19:39:16","新北市新莊區公園一路115號","121.445106666667","25.0379883333333","6500500","新莊區"
"242005","349-TH","2018/12/04 19:39:14","新北市新莊區化成路29巷75號","121.462","25.0439","6500500","新莊區"
"242015","351-TH","2018/12/04 19:39:16","新北市新莊區新泰路361巷23號","121.442335","25.0426466666667","6500500","新莊區"
"238015","755-BX","2018/12/04 19:39:30","新北市樹林區復興路200號","121.41978","24.9907066666667","6500700","樹林區"
"238023","601-UM","2018/12/04 19:39:14","新北市樹林區忠信街11號","121.408485","25.0149916666667","6500700","樹林區"
"238019","599-UM","2018/12/04 19:39:23","新北市樹林區中華路188號","121.41371","24.980495","6500700","樹林區"
"238024","5061-A6","2018/12/04 19:39:30","新北市樹林區佳園路一段72巷9號","121.392735","24.9699883333333","6500700","樹林區"
"238022","KEA-2213","2018/12/04 19:39:19","新北市樹林區國凱街50巷11號","121.420553333333","24.9784683333333","6500700","樹林區"
"238021","KEA-2539","2018/12/04 19:39:28","新北市樹林區佳園路三段145巷36-28號","121.389148333333","24.94909","6500700","樹林區"
"238025","303-VK","2018/12/04 19:39:19","新北市樹林區中山路一段71號","121.42365","24.9917433333333","6500700","樹林區"
"238017","283-BY","2018/12/04 19:39:29","新北市樹林區保安街二段167巷22號","121.41433","25.0028466666667","6500700","樹林區"
"238014","282-BY","2018/12/04 19:39:25","新北市樹林區千歲街30巷30弄2號","121.425921666667","24.9963333333333","6500700","樹林區"
"238020","268-VK","2018/12/04 19:39:20","新北市樹林區俊英街105號","121.425016666667","25.0096333333333","6500700","樹林區"
"238026","172-UY","2018/12/04 19:39:25","新北市樹林區佳園路二段95號","121.39059","24.9591016666667","6500700","樹林區"
"239006","891-R6","2018/12/04 19:39:20","新北市鶯歌區文化路265號","121.353326666667","24.95301","6500800","鶯歌區"
"239004","193-VK","2018/12/04 19:37:37","新北市鶯歌區二甲路13號","121.344861666667","24.934225","6500800","鶯歌區"
"221008","489-VK","2018/12/04 19:39:13","新北市汐止區康寧街61巷33號","121.619635","25.0675716666667","6501100","汐止區"
"221036","130-UY","2018/12/04 19:39:25","新北市汐止區康寧街901號","121.651085","25.0751716666667","6501100","汐止區"
"221015","131-UY","2018/12/04 19:39:19","新北市汐止區康寧街901號","121.65107","25.0751666666667","6501100","汐止區"
"221010","269-BY","2018/12/04 19:39:14","新北市汐止區汐萬路二段7號","121.64927","25.080035","6501100","汐止區"
"221012","278-VK","2018/12/04 19:39:20","新北市汐止區汐平路一段1號","121.680705","25.0712733333333","6501100","汐止區"
"221027","281-BY","2018/12/04 19:39:18","新北市汐止區忠孝東路9號","121.658296666667","25.0660016666667","6501100","汐止區"
"221021","299-VK","2018/12/04 19:39:29","新北市汐止區新台五路一段129號","121.65231","25.0618033333333","6501100","汐止區"
"221031","353-TW","2018/12/04 19:39:20","新北市汐止區康寧街901號","121.650716666667","25.0753116666667","6501100","汐止區"
"221002","129-UY","2018/12/04 19:39:30","新北市汐止區大同路一段219巷27號","121.63323","25.0583516666667","6501100","汐止區"
"221025","623-UM","2018/12/04 19:39:21","新北市汐止區福安街20巷1號","121.662601666667","25.0649916666667","6501100","汐止區"
"221038","646-BX","2018/12/04 19:39:23","新北市汐止區忠孝東路250號","121.662875","25.06741","6501100","汐止區"
"221033","647-BX","2018/12/04 19:39:21","新北市汐止區南勢街3號","121.627076666667","25.0374066666667","6501100","汐止區"
"220079","145-BY","2018/12/04 19:39:21","新北市板橋區民權路202巷17弄26號","121.459708333333","25.0167133333333","6500100","板橋區"
"220080","200-UY","2018/12/04 19:39:25","新北市板橋區大觀路二段37巷252號","121.449856666667","25.002095","6500100","板橋區"
"220082","610-BX","2018/12/04 19:39:29","新北市板橋區溪崑一街11-3號","121.430856666667","24.99245","6500100","板橋區"
"220101","245-BX","2018/12/04 19:39:28","新北市板橋區縣民大道三段93巷10號","121.475516666667","25.022205","6500100","板橋區"
"224002","257-TC","2018/12/04 19:39:21","新北市瑞芳區民享新村30號","121.816708333333","25.1060183333333","6501200","瑞芳區"
"220056","276-BY","2018/12/04 19:39:18","新北市板橋區信義路1巷26弄31號","121.458676666667","24.9966616666667","6500100","板橋區"
"220072","277-BY","2018/12/04 19:39:30","新北市板橋區金門街215巷41號","121.433388333333","24.989595","6500100","板橋區"
"220094","283-UM","2018/12/04 19:39:25","新北市板橋區長江路二段165號","121.466496666667","25.0319966666667","6500100","板橋區"
"220071","283-VK","2018/12/04 19:39:20","新北市板橋區四川路一段283巷23號","121.459456666667","25.000605","6500100","板橋區"
"220053","285-VK","2018/12/04 19:39:24","新北市板橋區中山路二段148巷30號","121.477116666667","25.016095","6500100","板橋區"
"220083","286-VK","2018/12/04 19:39:31","新北市板橋區龍興街71巷33-2號","121.442366666667","25.0024333333333","6500100","板橋區"
"220081","287-VK","2018/12/04 19:39:29","新北市板橋區大觀路一段75巷13號","121.447878333333","25.0043816666667","6500100","板橋區"
"220090","288-VK","2018/12/04 19:39:30","新北市板橋區龍泉街54巷7弄2號","121.45684","25.026665","6500100","板橋區"
"220061","293-UM","2018/12/04 19:39:25","新北市板橋區漢生東路113巷25號","121.468313333333","25.0156083333333","6500100","板橋區"
"220084","296-UM","2018/12/04 19:39:27","新北市板橋區滿平二街2巷1弄48號","121.424818333333","24.98797","6500100","板橋區"
"220092","299-UM","2018/12/04 19:39:28","新北市板橋區四維路137巷1弄12號","121.46486","25.024695","6500100","板橋區"
"220075","303-R5","2018/12/04 19:39:30","新北市板橋區大勇街16號","121.454493333333","25.0172533333333","6500100","板橋區"
"220062","305-R5","2018/12/04 19:39:14","新北市板橋區三民路二段29巷7號","121.481623333333","25.0181083333333","6500100","板橋區"
"220098","317-R6","2018/12/04 19:39:23","新北市板橋區民生路三段263巷4弄2號","121.463776666667","25.0296466666667","6500100","板橋區"
"220089","487-VK","2018/12/04 19:39:27","新北市板橋區新海路403巷16號","121.458013333333","25.0265033333333","6500100","板橋區"
"242007","280-VK","2018/12/04 19:39:18","新北市新莊區思源路593巷6弄23號","121.45765","25.059815","6500500","新莊區"
"220088","491-VK","2018/12/04 19:39:28","新北市板橋區仁化街182號","121.478506666667","25.0339983333333","6500100","板橋區"
"220035","560-BX","2018/12/04 19:39:29","新北市板橋區新生街89巷2號","121.458286666667","25.0220783333333","6500100","板橋區"
"220103","561-BX","2018/12/04 19:39:25","新北市板橋區自由路21號","121.465493333333","25.0229916666667","6500100","板橋區"
"220063","609-BX","2018/12/04 19:39:29","新北市板橋區中山路二段363號","121.479805","25.0190366666667","6500100","板橋區"
"220091","637-BX","2018/12/04 19:39:29","新北市板橋區懷德街139巷20弄1號","121.48013","25.030735","6500100","板橋區"
"220057","686-BX","2018/12/04 19:39:30","新北市板橋區廣和街106號","121.462378333333","24.9930966666667","6500100","板橋區"
"220077","687-BX","2018/12/04 19:39:27","新北市板橋區僑中三街22號","121.446001666667","25.004745","6500100","板橋區"
"220093","689-BX","2018/12/04 19:39:31","新北市板橋區長江路三段69號","121.474153333333","25.0342316666667","6500100","板橋區"
"220054","741-BX","2018/12/04 19:39:26","新北市板橋區實踐路65巷35號","121.464883333333","25.00654","6500100","板橋區"
"220102","KEA-2699","2018/12/04 19:39:26","新北市板橋區文化路二段410巷25號","121.47485","25.0307833333333","6500100","板橋區"
"220055","827-TW","2018/12/04 19:39:11","新北市板橋區重慶路290巷2號","121.463126666667","24.99895","6500100","板橋區"
"220068","830-TW","2018/12/04 19:39:25","新北市板橋區中山路二段416巷2號","121.48295","25.02094","6500100","板橋區"
"220067","831-TW","2018/12/04 19:39:25","新北市板橋區長安街261巷19號","121.473045","25.0109383333333","6500100","板橋區"
"220074","895-R6","2018/12/04 19:39:25","新北市板橋區南門街1號","121.457698333333","25.0093833333333","6500100","板橋區"
"220073","985-R7","2018/12/04 19:39:10","新北市板橋區國光路69號","121.459153333333","25.01821","6500100","板橋區"
"220097","AAC-210","2018/12/04 19:39:21","新北市板橋區文化路一段219-7號","121.463846666667","25.0173533333333","6500100","板橋區"
"220064","AAC-253","2018/12/04 19:39:20","新北市板橋區實踐路159號","121.464288333333","25.0039933333333","6500100","板橋區"
"235068","KEA-2873","2018/12/04 19:39:13","新北市中和區景平路634-8號","121.499043333333","24.9992883333333","6500300","中和區"
"235061","KEA-2875","2018/12/04 19:39:07","新北市中和區民安街10號","121.480721666667","25.00088","6500300","中和區"
"235065","KEA-2876","2018/12/04 19:39:29","新北市中和區福祥路62號","121.499338333333","25.0047983333333","6500300","中和區"
