"lineid","car","time","location","longitude","latitude","cityid","cityname"
"234046","148-BY","2018/12/04 19:59:24","新北市永和區成功路一段32號","121.527026666667","25.0045966666667","6500400","永和區"
"234007","207-UY","2018/12/04 19:59:19","新北市永和區保生路22巷19弄2號","121.50712","25.0084983333333","6500400","永和區"
"241031","209-UY","2018/12/04 19:59:22","新北市永和區保生路55號","121.504675","25.01074","6500200","三重區"
"234038","336-UY","2018/12/04 19:59:14","新北市永和區成功路二段117號","121.526683333333","24.9985983333333","6500400","永和區"
"234064","337-UY","2018/12/04 19:59:29","新北市永和區中正路412巷20弄10號","121.518736666667","25.0015866666667","6500400","永和區"
"234070","552-UM","2018/12/04 19:59:11","新北市永和區福和路246號","121.518716666667","25.007825","6500400","永和區"
"234081","553-UM","2018/12/04 19:59:31","新北市永和區永利路81巷2弄1號","121.521828333333","25.00366","6500400","永和區"
"234017","745-BX","2018/12/04 19:59:25","新北市永和區文化路34號","121.515031666667","25.0150233333333","6500400","永和區"
"234030","746-BX","2018/12/04 19:59:23","新北市永和區民生路22巷28號","121.521143333333","24.9970633333333","6500400","永和區"
"234054","KEA-2590","2018/12/04 19:59:22","新北市永和區竹林路39巷34號","121.519701666667","25.0151016666667","6500400","永和區"
"234013","KEA-2591","2018/12/04 19:59:19","新北市永和區保生路55號","121.50471","25.0106183333333","6500400","永和區"
"234061","AAD-866","2018/12/04 19:59:30","新北市永和區得和路76號","121.516496666667","25.0000783333333","6500400","永和區"
"234086","748-BX","2018/12/04 19:59:22","新北市永和區福和路152號","121.521611666667","25.007975","6500400","永和區"
"234042","862-TW","2018/12/04 19:59:13","新北市永和區中和路335巷14號","121.507556666667","25.0002783333333","6500400","永和區"
"234050","863-TW","2018/12/04 19:59:14","新北市永和區保安路214號","121.50736","25.01363","6500400","永和區"
"234026","9372-KE","2018/12/04 19:59:27","新北市永和區水源街27巷1號","121.511208333333","25.0043033333333","6500400","永和區"
"234011","9373-KE","2018/12/04 19:59:22","新北市永和區仁愛路352巷112弄12號","121.50117","25.0085933333333","6500400","永和區"
"249005","172-UM","2018/12/04 19:59:23","新北市八里區楓林路3-1號","121.38245","25.1305183333333","6502300","八里區"
"249001","173-UM","2018/12/04 19:59:11","新北市八里區中華路二段310號","121.403801666667","25.1483916666667","6502300","八里區"
"249004","303-UY","2018/12/04 19:59:18","新北市八里區中山路二段229-1號","121.41085","25.157655","6502300","八里區"
"249002","305-UY","2018/12/04 19:59:23","新北市八里區頂寮一街8-1號","121.452261666667","25.1242466666667","6502300","八里區"
"249003","593-UM","2018/12/04 19:59:28","新北市八里區中華路二段538-4號","121.398846666667","25.1450633333333","6502300","八里區"
"248014","025-BX","2018/12/04 19:59:26","新北市五股區五福路6巷19號","121.43532","25.0885166666667","6501500","五股區"
"248016","026-BX","2018/12/04 19:59:13","新北市五股區成泰路三段577巷80弄72號","121.448923333333","25.1047233333333","6501500","五股區"
"248008","095-VK","2018/12/04 19:59:26","新北市五股區四維路30巷12號","121.467833333333","25.0714833333333","6501500","五股區"
"248020","225-UY","2018/12/04 19:59:30","新北市五股區凌雲路三段23-3號","121.430028333333","25.1107116666667","6501500","五股區"
"248010","272-BY","2018/12/04 19:59:29","新北市五股區成泰路一段87-1號","121.435131666667","25.0688533333333","6501500","五股區"
"248004","677-BX","2018/12/04 19:59:26","新北市五股區成泰路一段8巷2-3號","121.43489","25.06693","6501500","五股區"
"248002","678-BX","2018/12/04 19:59:05","新北市五股區成泰路三段503號","121.451318333333","25.1003766666667","6501500","五股區"
"234023","9380-KE","2018/12/04 19:59:19","新北市永和區中正路702巷18號","121.51645","25.0105866666667","6500400","永和區"
"234077","969-R7","2018/12/04 19:59:21","新北市永和區智光街94號","121.516145","24.9969433333333","6500400","永和區"
"234074","AAC-211","2018/12/04 19:59:16","新北市永和區豫溪街191巷1弄2號","121.52322","25.010385","6500400","永和區"
"234067","AAC-212","2018/12/04 19:59:26","新北市永和區永貞路331號","121.509695","25.0069483333333","6500400","永和區"
"234003","AAC-295","2018/12/04 19:59:23","新北市永和區中正路708號","121.51601","25.01004","6500400","永和區"
"243013","AAD-798","2018/12/04 19:59:17","新北市泰山區應化街7號","121.423898333333","25.0436766666667","6501600","泰山區"
"243009","297-R6","2018/12/04 19:59:16","新北市泰山區楓江路16巷15號","121.43394","25.0617516666667","6501600","泰山區"
"243016","KEA-2801","2018/12/04 19:59:20","新北市泰山區中山路二段776號","121.42384","25.0340833333333","6501600","泰山區"
"243015","421-VK","2018/12/04 19:59:17","新北市泰山區文程路1號","121.42757","25.04977","6501600","泰山區"
"243011","KEA-2215","2018/12/04 19:59:29","新北市泰山區明志路三段196巷37號","121.421935","25.039705","6501600","泰山區"
"243010","KEA-2216","2018/12/04 19:59:14","新北市泰山區中華街9號","121.427725","25.0524216666667","6501600","泰山區"
"243012","646-TV","2018/12/04 19:59:11","新北市泰山區全興路107號","121.433686666667","25.0568033333333","6501600","泰山區"
"243014","680-BX","2018/12/04 19:59:21","新北市泰山區明志路一段123號","121.433415","25.0633033333333","6501600","泰山區"
"222002","016-RS","2018/12/04 19:59:25","新北市深坑區北深路二段81巷8弄2號","121.618323333333","25.0031366666667","6501800","深坑區"
"222003","436-BY","2018/12/04 19:59:23","新北市深坑區埔新街14號","121.620666666667","25.00394","6501800","深坑區"
"231041","002-UM","2018/12/04 19:59:15","新北市新店區中正路327號","121.536235","24.975225","6500600","新店區"
"231059","046-UY","2018/12/04 19:59:10","新北市新店區吉安街2號","121.517365","24.9656666666667","6500600","新店區"
"231040","047-UY","2018/12/04 19:59:21","新北市新店區中正路62號","121.544291666667","24.9701283333333","6500600","新店區"
"231044","106-UY","2018/12/04 19:59:14","新北市新店區復興路27號","121.538996666667","24.9866683333333","6500600","新店區"
"231053","108-UY","2018/12/04 19:58:59","新北市新店區新烏路三段寶島巷4號","121.551588333333","24.8990616666667","6500600","新店區"
"231048","187-VK","2018/12/04 19:59:24","新北市新店區寶宏路38號","121.549451666667","24.975495","6500600","新店區"
"231051","188-VK","2018/12/04 19:59:25","新北市新店區中央路224號","121.529663333333","24.97293","6500600","新店區"
"231054","KEA-2219","2018/12/04 19:59:20","新北市新店區光明街139號","121.539483333333","24.9620266666667","6500600","新店區"
"231057","256-BX","2018/12/04 19:59:24","新北市新店區花園二路一段11號","121.555473333333","24.9324683333333","6500600","新店區"
"231042","268-BY","2018/12/04 19:59:23","新北市新店區中興路一段285-1號","121.54549","24.96858","6500600","新店區"
"231050","AAD-862","2018/12/04 19:59:28","新北市新店區北宜路二段169號","121.552258333333","24.9532016666667","6500600","新店區"
"231066","4716-K9","2018/12/04 19:59:18","新北市新店區薏仁坑路自強巷6號","121.496658333333","24.958345","6500600","新店區"
"231056","4715-K9","2018/12/04 19:59:15","新北市新店區明德路26巷4號","121.542183333333","24.97775","6500600","新店區"
"231067","4772-VM","2018/12/04 19:59:33","新北市新店區秀山路11巷22號","121.5315","24.9586983333333","6500600","新店區"
"231065","512-UM","2018/12/04 19:59:21","新北市新店區安祥路106巷10號","121.478568333333","24.9626133333333","6500600","新店區"
"231049","513-UM","2018/12/04 19:59:16","新北市新店區民族路11號","121.541463333333","24.9787716666667","6500600","新店區"
"231063","616-UM","2018/12/04 19:59:30","新北市新店區車子路11號","121.50303","24.95199","6500600","新店區"
"231045","617-UM","2018/12/04 19:59:16","新北市新店區北宜路二段150-2號","121.558106666667","24.9540333333333","6500600","新店區"
"231061","619-UM","2018/12/04 19:59:24","新北市新店區安民街321號","121.51744","24.9744816666667","6500600","新店區"
"231068","718-UY","2018/12/04 19:59:18","新北市新店區安一路一段1-1號","121.519391666667","24.9611783333333","6500600","新店區"
"231064","719-UM","2018/12/04 19:58:45","新北市新店區安和路二段77號","121.518375","24.968795","6500600","新店區"
"231046","719-UY","2018/12/04 19:59:16","新北市新店區薏仁坑路5號","121.499051666667","24.95908","6500600","新店區"
"231062","720-UM","2018/12/04 19:59:15","新北市新店區華潭街26巷3弄1號","121.530078333333","24.9531916666667","6500600","新店區"
"231060","897-TW","2018/12/04 19:59:26","新北市新店區安康路二段436號","121.4958","24.9549316666667","6500600","新店區"
"231043","898-TW","2018/12/04 19:59:20","新北市新店區中正路263-4號","121.538341666667","24.9739216666667","6500600","新店區"
"231055","AKT-0513","2018/12/04 19:59:15","新北市新店區中華路83巷55號","121.538508333333","24.9675433333333","6500600","新店區"
"241011","013-R5","2018/12/04 19:59:12","新北市三重區三和路二段165號","121.497926666667","25.0695616666667","6500200","三重區"
"241028","022-UY","2018/12/04 19:59:18","新北市三重區重新路三段94號","121.492585","25.0609","6500200","三重區"
"241008","059-VK","2018/12/04 19:59:14","新北市三重區永福街179巷21號","121.478195","25.074945","6500200","三重區"
"241022","060-VK","2018/12/04 19:59:24","新北市三重區新北大道一段11號","121.488601666667","25.060585","6500200","三重區"
"241031","061-VK","2018/12/04 19:59:19","新北市三重區重新路四段144巷16號","121.48708","25.0554966666667","6500200","三重區"
"241015","062-VK","2018/12/04 19:59:31","新北市三重區三和路二段35-1號","121.500881666667","25.067215","6500200","三重區"
"241017","063-VK","2018/12/04 19:59:21","新北市三重區重陽路四段1號","121.49108","25.0687083333333","6500200","三重區"
"241024","065-VK","2018/12/04 19:59:18","新北市三重區大勇街49號","121.481426666667","25.071785","6500200","三重區"
"241002","090-VK","2018/12/04 19:59:19","新北市三重區仁愛街300號","121.492175","25.0794016666667","6500200","三重區"
"241003","091-VK","2018/12/04 19:59:17","新北市三重區仁愛街419號","121.490588333333","25.0814533333333","6500200","三重區"
"241005","262-UM","2018/12/04 19:59:18","新北市三重區溪尾街325巷25號","121.488675","25.08327","6500200","三重區"
"241016","265-UM","2018/12/04 19:59:19","新北市三重區正義北路36巷17號","121.496731666667","25.063405","6500200","三重區"
"241009","267-UM","2018/12/04 19:59:21","新北市三重區三和路四段388-2號","121.48208","25.079155","6500200","三重區"
"241018","268-UM","2018/12/04 19:59:19","新北市三重區正義北路244巷26號","121.495326666667","25.0679983333333","6500200","三重區"
"241032","269-UM","2018/12/04 19:59:23","新北市三重區朝陽街4巷2號","121.483728333333","25.0561383333333","6500200","三重區"
"241013","270-UM","2018/12/04 19:59:30","新北市三重區三和路三段139巷4號","121.492678333333","25.0737","6500200","三重區"
"241025","271-UM","2018/12/04 19:59:11","新北市三重區頂崁街210巷16號","121.476491666667","25.0676916666667","6500200","三重區"
"241007","398-BY","2018/12/04 19:59:11","新北市三重區慈愛街90號","121.488618333333","25.0800833333333","6500200","三重區"
"241035","KEA-2210","2018/12/04 19:59:12","新北市三重區大榮街7號","121.498221666667","25.0630883333333","6500200","三重區"
"241004","475-VK","2018/12/04 19:59:28","新北市三重區仁愛街425巷95號","121.492291666667","25.0827016666667","6500200","三重區"
"241020","478-VK","2018/12/04 19:59:19","新北市三重區忠孝路一段101號","121.489648333333","25.0721816666667","6500200","三重區"
"241030","480-VK","2018/12/04 19:59:12","新北市三重區重新路四段248號","121.486191666667","25.053505","6500200","三重區"
"241014","543-UM","2018/12/04 19:59:25","新北市三重區長樂街5號","121.499483333333","25.069025","6500200","三重區"
"241023","545-UM","2018/12/04 19:59:21","新北市三重區頂崁街172號","121.477603333333","25.0659116666667","6500200","三重區"
"241001","547-UM","2018/12/04 19:59:26","新北市三重區福隆路8號","121.489918333333","25.07734","6500200","三重區"
"241033","557-UM","2018/12/04 19:45:17","新北市三重區五谷王南街11巷17弄11號","121.472933333333","25.0441416666667","6500200","三重區"
"241019","KEA-2593","2018/12/04 19:59:19","新北市三重區自強路二段9號","121.49021","25.06909","6500200","三重區"
"241026","743-BX","2018/12/04 19:59:23","新北市三重區仁慈街29號","121.502325","25.0631066666667","6500200","三重區"
"241006","887-TS","2018/12/04 19:59:09","新北市三重區力行路二段71號","121.482248333333","25.075155","6500200","三重區"
"241012","941-UM","2018/12/04 19:59:24","新北市三重區仁興街56巷43號","121.498023333333","25.0756266666667","6500200","三重區"
"241029","942-UM","2018/12/04 19:59:16","新北市三重區重安街6號","121.490176666667","25.0583533333333","6500200","三重區"
"235066","003-UY","2018/12/04 19:59:24","新北市中和區中山路二段68號","121.503995","25.004615","6500300","中和區"
"235056","096-UM","2018/12/04 19:59:30","新北市中和區中山路三段170巷2弄4號","121.473108333333","25.0066083333333","6500300","中和區"
"235039","097-UM","2018/12/04 19:59:18","新北市中和區大勇街25巷39弄13號","121.514586666667","24.9939466666667","6500300","中和區"
"235040","150-BY","2018/12/04 19:46:56","新北市中和區保健路65號","121.509753333333","24.9971916666667","6500300","中和區"
"235058","151-BY","2018/12/04 19:59:24","新北市中和區員山路150號","121.481351666667","24.9971466666667","6500300","中和區"
"235055","183-VK","2018/12/04 19:59:22","新北市中和區中山路三段216號","121.471373333333","25.0065383333333","6500300","中和區"
"235049","186-VK","2018/12/04 19:59:24","新北市中和區南華路15號","121.502403333333","24.9956283333333","6500300","中和區"
"235067","255-BX","2018/12/04 19:59:31","新北市中和區中正路998號","121.482283333333","25.0089166666667","6500300","中和區"
"235044","293-VK","2018/12/04 19:59:22","新北市中和區復興路56號","121.50379","24.990395","6500300","中和區"
"235050","4979-A6","2018/12/04 19:59:25","新北市中和區景平路183號","121.511703333333","24.992615","6500300","中和區"
"235069","4980-A6","2018/12/04 19:59:26","新北市中和區圓通路219號","121.496703333333","24.9941616666667","6500300","中和區"
"235070","558-UM","2018/12/04 19:59:21","新北市中和區圓通路208號","121.496055","24.993915","6500300","中和區"
"235054","640-BX","2018/12/04 19:59:16","新北市中和區中山路三段203號","121.472161666667","25.0064466666667","6500300","中和區"
"235046","733-UM","2018/12/04 19:59:27","新北市中和區興南路一段93巷58弄3號","121.51059","24.9858966666667","6500300","中和區"
"235026","800-TS","2018/12/04 19:59:19","新北市中和區員山路36巷13號","121.48441","24.9907633333333","6500300","中和區"
"235052","805-TS","2018/12/04 19:59:29","新北市中和區忠孝街70號","121.511985","24.9840783333333","6500300","中和區"
"235048","896-TW","2018/12/04 19:59:20","新北市中和區景新街385號","121.512426666667","24.9901133333333","6500300","中和區"
"235053","900-TW","2018/12/04 19:59:21","新北市中和區民享街86巷36號","121.472945","25.0004816666667","6500300","中和區"
"235051","157-BY","2018/12/04 19:59:29","新北市中和區景安路225號","121.504275","24.9913416666667","6500300","中和區"
"235037","AAC-213","2018/12/04 19:59:27","新北市中和區自立路16號","121.522001666667","24.9938083333333","6500300","中和區"
"235059","AAC-215","2018/12/04 19:59:13","新北市中和區圓通路335巷3弄20號","121.493476666667","24.9901633333333","6500300","中和區"
"220065","072-UY","2018/12/04 19:59:16","新北市板橋區區運路32號","121.465668333333","25.0096583333333","6500100","板橋區"
"220086","073-UY","2018/12/04 19:59:20","新北市五股區新五路二段130-1號","121.43827","25.0783733333333","6500100","板橋區"
"220106","075-UY","2018/12/04 19:59:12","新北市板橋區仁化街147號","121.47761","25.03316","6500100","板橋區"
"220069","AAD-861","2018/12/04 19:59:32","新北市板橋區大明街20巷19弄5號","121.45824","25.0032366666667","6500100","板橋區"
"247002","893-R6","2018/12/04 19:59:28","新北市蘆洲區長安街272號","121.457355","25.0870083333333","6501400","蘆洲區"
"247016","546-UM","2018/12/04 19:59:12","新北市蘆洲區光華路29號","121.469213333333","25.08318","6501400","蘆洲區"
"247024","500-BY","2018/12/04 19:59:26","新北市蘆洲區光榮路120巷8弄20號","121.464396666667","25.0877783333333","6501400","蘆洲區"
"247006","337-TH","2018/12/04 19:59:19","新北市蘆洲區九芎街141號","121.465371666667","25.0792916666667","6501400","蘆洲區"
"247020","057-VK","2018/12/04 19:59:25","新北市蘆洲區民權路113號","121.472456666667","25.0894133333333","6501400","蘆洲區"
"247014","053-VK","2018/12/04 19:59:09","新北市蘆洲區成功路132號","121.472138333333","25.08265","6501400","蘆洲區"
"247018","007-UY","2018/12/04 19:59:14","新北市蘆洲區民族路290巷13號","121.478531666667","25.0899833333333","6501400","蘆洲區"
"226004","312-R5","2018/12/04 19:59:23","新北市平溪區十分里十分街116號","121.776926666667","25.0431316666667","6502400","平溪區"
"228003","828-UM","2018/12/04 19:59:29","新北市貢寮區仁理村仁和路23號","121.923855","25.0536416666667","6502600","貢寮區"
"224010","AGQ-8101","2018/12/04 19:59:24","新北市瑞芳區輕便路143號","121.84178","25.1071833333333","6501200","瑞芳區"
"227003","642-TC","2018/12/04 19:59:19","新北市雙溪區雙溪里長安街16號","121.864976666667","25.0347","6502500","雙溪區"
"227009","400-TW","2018/12/04 19:59:16","新北市雙溪區新基里新基南街25號","121.866256666667","25.0381416666667","6502500","雙溪區"
"222001","KEA-2212","2018/12/04 19:59:29","新北市深坑區北深路三段160號","121.602515","25.003305","6501800","深坑區"
"208002","KEA-2872","2018/12/04 19:59:23","新北市金山區中正路145號","121.631966666667","25.22119","6502700","金山區"
"208003","665-BX","2018/12/04 19:59:16","新北市金山區永興里濆水路7-1號","121.627341666667","25.2679633333333","6502700","金山區"
"208001","761-BX","2018/12/04 19:59:26","新北市金山區南勢湖16號","121.620976666667","25.2192016666667","6502700","金山區"
"251005","010-UM","2018/12/04 19:59:17","新北市淡水區學府路136巷29號","121.451435","25.1727516666667","6501000","淡水區"
"251001","011-UM","2018/12/04 19:59:24","新北市淡水區淡金路二段270-1號","121.446975","25.18898","6501000","淡水區"
"251013","KEA-2871","2018/12/04 19:59:27","新北市淡水區奎柔山路63號","121.451726666667","25.2062","6501000","淡水區"
"251016","179-VK","2018/12/04 19:59:23","新北市淡水區淡金路四段207號","121.451795","25.22208","6501000","淡水區"
"251014","180-VK","2018/12/04 19:59:28","新北市淡水區石頭厝1號","121.458998333333","25.23532","6501000","淡水區"
"251015","182-VK","2018/12/04 19:59:24","新北市淡水區埤島80-2號","121.449151666667","25.1893716666667","6501000","淡水區"
"251010","413-VK","2018/12/04 19:59:18","新北市淡水區崁頂里77號","121.430688333333","25.2032416666667","6501000","淡水區"
"251012","441-VK","2018/12/04 19:59:22","新北市淡水區下圭柔山110-10號","121.439468333333","25.211935","6501000","淡水區"
"251004","443-VK","2018/12/04 19:59:20","新北市淡水區民權路177巷9號","121.4608","25.13542","6501000","淡水區"
"251006","561-UM","2018/12/04 19:59:13","新北市淡水區水碓街57號","121.444388333333","25.177365","6501000","淡水區"
"251009","575-R6","2018/12/04 19:59:24","新北市淡水區英專路28巷20號","121.445951666667","25.1698016666667","6501000","淡水區"
"251003","673-BX","2018/12/04 19:59:28","新北市淡水區中山北路二段189巷15弄29號","121.44343","25.1842216666667","6501000","淡水區"
"207003","550-UM","2018/12/04 19:59:17","新北市萬里區磺潭里公館崙5號","121.641913333333","25.2142366666667","6502800","萬里區"
"207004","225-TW","2018/12/04 19:59:24","新北市萬里區北基里忠二街35號","121.685643333333","25.1757583333333","6502800","萬里區"
"252002","178-VK","2018/12/04 19:59:20","新北市三芝區三民街39巷5號","121.505418333333","25.2576766666667","6502100","三芝區"
"252001","292-VK","2018/12/04 19:59:17","新北市三芝區公正街66號","121.499803333333","25.2574433333333","6502100","三芝區"
"237007","153-BY","2018/12/04 19:59:23","新北市三峽區麻園43號","121.363775","24.9211916666667","6500900","三峽區"
"237009","210-TH","2018/12/04 19:59:13","新北市三峽區民族街3號","121.36916","24.931195","6500900","三峽區"
"237012","275-BY","2018/12/04 19:59:26","新北市三峽區大同路197號","121.370955","24.9269466666667","6500900","三峽區"
"237006","5529-G3","2018/12/04 19:59:21","新北市三峽區中正路二段156號","121.366101666667","24.9159616666667","6500900","三峽區"
"237016","649-BX","2018/12/04 19:59:16","新北市三峽區溪東路218巷25號","121.407165","24.9308916666667","6500900","三峽區"
"237005","AKY-6261","2018/12/04 19:59:25","新北市三峽區民生街1巷26-1號","121.379356666667","24.9340966666667","6500900","三峽區"
"236070","105-UM","2018/12/04 19:59:15","新北市土城區忠義路77號","121.44301","24.96508","6501300","土城區"
"236042","KED-0685","2018/12/04 19:59:29","新北市土城區學府路一段111號","121.455698333333","24.9875516666667","6501300","土城區"
"236079","166-UM","2018/12/04 19:59:20","新北市土城區福安街55巷11號","121.418905","24.96391","6501300","土城區"
"236030","253-BX","2018/12/04 19:59:16","新北市土城區中央路一段250巷2-2號","121.444053333333","24.9847616666667","6501300","土城區"
"236026","269-VK","2018/12/04 19:59:30","新北市土城區中央路二段93號","121.442271666667","24.9780616666667","6501300","土城區"
"236014","270-VK","2018/12/04 19:59:14","新北市土城區廣福街123號","121.456281666667","24.9928566666667","6501300","土城區"
"236038","271-VK","2018/12/04 19:59:26","新北市土城區國際路60號","121.466611666667","24.9775683333333","6501300","土城區"
"247008","KED-0683","2018/12/04 19:59:23","新北市蘆洲區信義路117號","121.478536666667","25.0802283333333","6501400","蘆洲區"
"236021","401-BY","2018/12/04 19:59:19","新北市土城區延吉街137巷25弄5號","121.471456666667","24.9851633333333","6501300","土城區"
"236055","752-BX","2018/12/04 19:59:18","新北市土城區學府路一段48號","121.457756666667","24.98846","6501300","土城區"
"236059","912-UM","2018/12/04 19:59:27","新北市土城區中央路一段264-2號","121.443913333333","24.9837166666667","6501300","土城區"
"236049","913-UM","2018/12/04 19:59:23","新北市土城區金城路三段309號","121.474473333333","24.9909733333333","6501300","土城區"
"236063","915-UM","2018/12/04 19:59:17","新北市土城區金城路三段33巷39號","121.464733333333","24.9876316666667","6501300","土城區"
"242037","AAC-296","2018/12/04 19:59:21","新北市新莊區建安街37號","121.428963333333","25.0256616666667","6500500","新莊區"
"242058","986-R7","2018/12/04 19:59:23","新北市新莊區八德街60號","121.42491","25.0223666666667","6500500","新莊區"
"242056","751-BX","2018/12/04 19:59:13","新北市新莊區中正路347巷21號","121.447193333333","25.0341283333333","6500500","新莊區"
"242025","613-BX","2018/12/04 19:59:29","新北市新莊區五工二路86巷52號","121.461003333333","25.0675666666667","6500500","新莊區"
"242029","612-BX","2018/12/04 19:59:17","新北市新莊區中榮街152巷18號","121.445958333333","25.0534583333333","6500500","新莊區"
"242048","497-BY","2018/12/04 19:59:28","新北市新莊區四維路126巷3號","121.422956666667","25.0240333333333","6500500","新莊區"
"242042","442-UM","2018/12/04 19:59:25","新北市新莊區青山路一段100號","121.406623333333","25.0281133333333","6500500","新莊區"
"242002","440-UM","2018/12/04 19:59:10","新北市新莊區中正路170號","121.450876666667","25.0358566666667","6500500","新莊區"
"242039","415-TV","2018/12/04 19:59:22","新北市新莊區民安路287-2號","121.428901666667","25.0229116666667","6500500","新莊區"
"242023","362-BY","2018/12/04 19:59:12","新北市新莊區化成路478號","121.466063333333","25.051585","6500500","新莊區"
"242061","353-BY","2018/12/04 19:59:30","新北市新莊區瓊泰路48號","121.443755","25.02863","6500500","新莊區"
"242011","132-UY","2018/12/04 19:59:17","新北市新莊區中港路531巷35號","121.449876666667","25.0514716666667","6500500","新莊區"
"242034","135-UY","2018/12/04 19:59:20","新北市新莊區新泰路159號","121.447618333333","25.0369066666667","6500500","新莊區"
"242051","172-VK","2018/12/04 19:59:29","新北市新莊區龍安路462號","121.426875","25.0176016666667","6500500","新莊區"
"242013","173-VK","2018/12/04 19:59:29","新北市新莊區幸福路672號","121.450933333333","25.0494116666667","6500500","新莊區"
"242019","175-VK","2018/12/04 19:59:31","新北市新莊區長青街35巷7號","121.45687","25.04185","6500500","新莊區"
"242017","346-TH","2018/12/04 19:59:32","新北市新莊區中港路318號","121.452838333333","25.0456766666667","6500500","新莊區"
"242032","347-TH","2018/12/04 19:59:16","新北市新莊區忠孝街29巷36號","121.443635","25.0370466666667","6500500","新莊區"
"242005","349-TH","2018/12/04 19:59:14","新北市新莊區化成路488-1號","121.466146666667","25.0518816666667","6500500","新莊區"
"242021","350-TH","2018/12/04 19:59:25","新北市新莊區建中街14號","121.44944","25.0377033333333","6500500","新莊區"
"242015","351-TH","2018/12/04 19:59:26","新北市新莊區復興路一段33巷8號","121.446281666667","25.0423","6500500","新莊區"
"238015","755-BX","2018/12/04 19:59:10","新北市樹林區樹德街8號","121.422993333333","24.9914766666667","6500700","樹林區"
"238021","KEA-2539","2018/12/04 19:59:28","新北市樹林區佳園路三段99巷19號","121.389315","24.9521666666667","6500700","樹林區"
"238017","283-BY","2018/12/04 19:59:29","新北市樹林區保安街一段219號","121.420545","24.9962733333333","6500700","樹林區"
"221008","489-VK","2018/12/04 19:59:33","新北市汐止區忠一街9巷7號","121.620556666667","25.073175","6501100","汐止區"
"221036","130-UY","2018/12/04 19:59:25","新北市汐止區忠孝東路258巷11弄2號","121.663668333333","25.067165","6501100","汐止區"
"221015","131-UY","2018/12/04 19:59:31","新北市汐止區大同路二段689號","121.665048333333","25.0724916666667","6501100","汐止區"
"221010","269-BY","2018/12/04 19:59:14","新北市汐止區連峰街227號","121.645003333333","25.0813183333333","6501100","汐止區"
"221012","278-VK","2018/12/04 19:59:20","新北市汐止區大同路三段262-1號","121.676885","25.071645","6501100","汐止區"
"221032","280-BY","2018/12/04 19:59:31","新北市汐止區橫科路18巷32弄4號","121.61763","25.05001","6501100","汐止區"
"221027","281-BY","2018/12/04 19:59:18","新北市汐止區中正路102號","121.661025","25.0694616666667","6501100","汐止區"
"221029","298-VK","2018/12/04 19:59:19","新北市汐止區樟樹一路137巷24號","121.641193333333","25.0659366666667","6501100","汐止區"
"221021","299-VK","2018/12/04 19:59:15","新北市汐止區水源路一段137號","121.6561","25.0623566666667","6501100","汐止區"
"221031","353-TW","2018/12/04 19:59:20","新北市汐止區福德一路256號","121.633631666667","25.0647583333333","6501100","汐止區"
"221002","129-UY","2018/12/04 19:59:30","新北市汐止區大同路一段219巷27號","121.633241666667","25.0583566666667","6501100","汐止區"
"221035","622-UM","2018/12/04 19:59:12","新北市汐止區長江街57巷2號","121.656296666667","25.07169","6501100","汐止區"
"221025","623-UM","2018/12/04 19:59:21","新北市汐止區秀峰路114號","121.660005","25.0635466666667","6501100","汐止區"
"221038","646-BX","2018/12/04 19:59:23","新北市汐止區忠孝東路510號","121.666781666667","25.0754233333333","6501100","汐止區"
"221033","647-BX","2018/12/04 19:59:21","新北市汐止區東勢街201巷2號","121.633803333333","25.0420283333333","6501100","汐止區"
"221018","753-BX","2018/12/04 19:59:25","新北市汐止區忠孝東路397號","121.665653333333","25.0708766666667","6501100","汐止區"
"220079","145-BY","2018/12/04 19:59:26","新北市板橋區建國街103號","121.460038333333","25.0175333333333","6500100","板橋區"
"220080","200-UY","2018/12/04 19:59:20","新北市板橋區大觀路二段163巷6號","121.445701666667","25.000305","6500100","板橋區"
"220082","610-BX","2018/12/04 19:59:22","新北市板橋區存德街3號","121.429878333333","24.992005","6500100","板橋區"
"220101","245-BX","2018/12/04 19:59:24","新北市板橋區莒光路165巷32號","121.474456666667","25.024665","6500100","板橋區"
"224002","257-TC","2018/12/04 19:59:21","新北市瑞芳區蛇子形路7號","121.825951666667","25.1050066666667","6501200","瑞芳區"
"220056","276-BY","2018/12/04 19:59:18","新北市板橋區四川路二段99巷2弄2號","121.452685","24.9944666666667","6500100","板橋區"
"220072","277-BY","2018/12/04 19:59:10","新北市板橋區金門街109巷16號","121.433871666667","24.991735","6500100","板橋區"
"220094","283-UM","2018/12/04 19:59:25","新北市板橋區文化路一段130號","121.465163333333","25.0186733333333","6500100","板橋區"
"220071","283-VK","2018/12/04 19:59:00","新北市板橋區五權街32巷13號","121.464401666667","24.99292","6500100","板橋區"
"220053","285-VK","2018/12/04 19:59:25","新北市板橋區永豐街155號","121.475336666667","25.0202333333333","6500100","板橋區"
"220083","286-VK","2018/12/04 19:59:17","新北市板橋區僑中二街8巷18號","121.446378333333","25.0113716666667","6500100","板橋區"
"220081","287-VK","2018/12/04 19:59:29","新北市板橋區大觀路一段28巷101號","121.450026666667","25.0119233333333","6500100","板橋區"
"220090","288-VK","2018/12/04 19:59:24","新北市板橋區新海路72巷7號","121.462276666667","25.0220116666667","6500100","板橋區"
"220061","293-UM","2018/12/04 19:59:25","新北市板橋區觀光街4巷2弄2-3號","121.472335","25.015805","6500100","板橋區"
"220084","296-UM","2018/12/04 19:59:14","新北市樹林區博愛街215號","121.424266666667","24.9870366666667","6500100","板橋區"
"220092","299-UM","2018/12/04 19:59:19","新北市板橋區幸福路32巷54號","121.460378333333","25.02218","6500100","板橋區"
"220075","303-R5","2018/12/04 19:59:10","新北市板橋區金華街10巷95號","121.458695","25.0205216666667","6500100","板橋區"
"220062","305-R5","2018/12/04 19:59:31","新北市板橋區中山路二段359號","121.479681666667","25.0189966666667","6500100","板橋區"
"220098","317-R6","2018/12/04 19:59:23","新北市板橋區新海路385巷12號","121.458515","25.0258583333333","6500100","板橋區"
"220089","487-VK","2018/12/04 19:59:27","新北市板橋區四維路319號","121.462891666667","25.0290133333333","6500100","板橋區"
"242007","280-VK","2018/12/04 19:59:18","新北市新莊區中原路55號","121.457955","25.0545533333333","6500500","新莊區"
"220088","491-VK","2018/12/04 19:59:28","新北市板橋區仁化街131號","121.477151666667","25.03268","6500100","板橋區"
"220035","560-BX","2018/12/04 19:59:29","新北市板橋區新生街23巷2號","121.45611","25.02139","6500100","板橋區"
"220103","561-BX","2018/12/04 19:59:25","新北市板橋區新海路198號","121.460973333333","25.0235133333333","6500100","板橋區"
"220063","609-BX","2018/12/04 19:59:29","新北市板橋區民生路二段62號","121.472033333333","25.0179316666667","6500100","板橋區"
"220091","637-BX","2018/12/04 19:59:29","新北市板橋區文聖街89巷28號","121.47828","25.0303033333333","6500100","板橋區"
"220057","686-BX","2018/12/04 19:59:30","新北市板橋區四川路二段245巷16-2號","121.451065","24.99304","6500100","板橋區"
"220077","687-BX","2018/12/04 19:59:27","新北市板橋區僑中一街102巷3弄20號","121.445978333333","25.0124766666667","6500100","板橋區"
"220093","689-BX","2018/12/04 19:59:13","新北市板橋區長江路一段55號","121.458781666667","25.029245","6500100","板橋區"
"220102","KEA-2699","2018/12/04 19:59:26","新北市板橋區莒光路40巷9號","121.4704","25.0236383333333","6500100","板橋區"
"220055","827-TW","2018/12/04 19:59:11","新北市板橋區國慶路149巷37弄2號","121.460813333333","24.9980316666667","6500100","板橋區"
"220068","830-TW","2018/12/04 19:59:20","新北市板橋區中山路二段559-2號","121.484336666667","25.021905","6500100","板橋區"
"220067","831-TW","2018/12/04 19:59:25","新北市板橋區中山路一段206巷125號","121.47261","25.0134316666667","6500100","板橋區"
"220074","895-R6","2018/12/04 19:59:24","新北市板橋區文化路一段46巷52號","121.460816666667","25.0109216666667","6500100","板橋區"
"220073","985-R7","2018/12/04 19:59:31","新北市板橋區南雅西路二段210號","121.451945","25.0151016666667","6500100","板橋區"
"220097","AAC-210","2018/12/04 19:59:21","新北市板橋區光正街18巷1-2號","121.46262","25.017205","6500100","板橋區"
"220064","AAC-253","2018/12/04 19:59:20","新北市板橋區漢生東路217號","121.470741666667","25.0102166666667","6500100","板橋區"
"235068","KEA-2873","2018/12/04 19:59:12","新北市中和區景平路736巷1弄12號","121.497568333333","25.00403","6500300","中和區"
"235065","KEA-2876","2018/12/04 19:59:22","新北市中和區福祥路112號","121.498986666667","25.00635","6500300","中和區"
