"lineid","car","time","location","longitude","latitude","cityid","cityname"
"241031","209-UY","2018/12/04 20:49:03","新北市永和區保生路55號","121.504616666667","25.0107516666667","6500200","三重區"
"234064","337-UY","2018/12/04 20:48:59","新北市新店區安德街148巷31號","121.505776666667","24.9603516666667","6500400","永和區"
"249004","303-UY","2018/12/04 20:48:58","新北市八里區中山路一段63號","121.418361666667","25.159375","6502300","八里區"
"234074","AAC-211","2018/12/04 20:48:56","新北市永和區環河東路二段20號","121.522263333333","25.01313","6500400","永和區"
"244018","402-UM","2018/12/04 20:49:01","新北市林口區粉寮69號","121.404968333333","25.0908233333333","6501700","林口區"
"222002","016-RS","2018/12/04 20:48:45","新北市深坑區北深路三段93巷13號","121.60531","25.0009483333333","6501800","深坑區"
"222003","436-BY","2018/12/04 20:49:03","新北市深坑區文山路三段48-1號","121.609911666667","24.9985183333333","6501800","深坑區"
"231059","046-UY","2018/12/04 20:48:50","新北市新店區僑愛三路4號","121.499698333333","24.944655","6500600","新店區"
"231040","047-UY","2018/12/04 20:49:01","新北市新店區中正路272號","121.538966666667","24.9736316666667","6500600","新店區"
"231044","106-UY","2018/12/04 20:48:55","新北市新店區自由街2-1號","121.535671666667","24.9755666666667","6500600","新店區"
"231053","108-UY","2018/12/04 20:48:59","新北市新店區新烏路一段100號","121.544685","24.9366083333333","6500600","新店區"
"231048","187-VK","2018/12/04 20:48:45","新北市新店區寶元路一段109號","121.545706666667","24.9831266666667","6500600","新店區"
"231051","188-VK","2018/12/04 20:48:45","新北市新店區民生路158巷100號","121.526861666667","24.9822733333333","6500600","新店區"
"231054","KEA-2219","2018/12/04 20:49:00","新北市新店區中正路75巷67號","121.543218333333","24.9691066666667","6500600","新店區"
"231057","256-BX","2018/12/04 20:48:44","新北市新店區新烏路一段65號","121.546111666667","24.9437116666667","6500600","新店區"
"231042","268-BY","2018/12/04 20:49:03","新北市新店區寶高路120巷1號","121.554586666667","24.97606","6500600","新店區"
"231050","AAD-862","2018/12/04 20:48:47","新北市新店區三民路34-1號","121.536493333333","24.971305","6500600","新店區"
"231058","3713-VJ","2018/12/04 20:48:50","新北市新店區平等街64號","121.53568","24.9724433333333","6500600","新店區"
"231066","4716-K9","2018/12/04 20:48:58","新北市新店區安興路112號","121.514651666667","24.9776183333333","6500600","新店區"
"231056","4715-K9","2018/12/04 20:48:55","新北市新店區安德街60巷5-1號","121.509681666667","24.9626366666667","6500600","新店區"
"231067","4772-VM","2018/12/04 20:48:53","新北市新店區安華路28-1號","121.51966","24.9608966666667","6500600","新店區"
"231065","512-UM","2018/12/04 20:49:01","新北市新店區安祥路69巷1號","121.482148333333","24.96218","6500600","新店區"
"231049","513-UM","2018/12/04 20:48:56","新北市新店區華城路36巷1-1號","121.528415","24.9554033333333","6500600","新店區"
"231063","616-UM","2018/12/04 20:48:50","新北市新店區如意街7-3號","121.495141666667","24.9485816666667","6500600","新店區"
"231045","617-UM","2018/12/04 20:48:51","新北市新店區北新路一段99號","121.539088333333","24.9620216666667","6500600","新店區"
"231061","619-UM","2018/12/04 20:49:03","新北市新店區新和街93巷2號","121.521088333333","24.986505","6500600","新店區"
"231068","718-UY","2018/12/04 20:48:58","新北市新店區寶元路一段74巷1號","121.544106666667","24.9841366666667","6500600","新店區"
"231064","719-UM","2018/12/04 20:48:45","新北市新店區安民街365巷10弄2號","121.516006666667","24.9757283333333","6500600","新店區"
"231062","720-UM","2018/12/04 20:48:56","新北市新店區和成街16巷2號","121.487683333333","24.946885","6500600","新店區"
"231060","897-TW","2018/12/04 20:48:46","新北市新店區安康路三段557號","121.476358333333","24.944325","6500600","新店區"
"231043","898-TW","2018/12/04 20:49:00","新北市新店區明德路67巷17號","121.54048","24.97702","6500600","新店區"
"241011","013-R5","2018/12/04 20:48:52","新北市三重區龍濱路211號","121.501885","25.0717066666667","6500200","三重區"
"241028","022-UY","2018/12/04 20:48:58","新北市三重區中正南路50號","121.493965","25.0598966666667","6500200","三重區"
"241008","059-VK","2018/12/04 20:48:54","新北市三重區永福街72巷11號","121.47941","25.076765","6500200","三重區"
"241022","060-VK","2018/12/04 20:48:44","新北市三重區重陽路二段19巷12號","121.488063333333","25.062435","6500200","三重區"
"241031","061-VK","2018/12/04 20:48:59","新北市三重區重陽路一段113巷1弄1號","121.4875","25.0598166666667","6500200","三重區"
"241015","062-VK","2018/12/04 20:48:51","新北市三重區自強路一段10-2號","121.498905","25.06821","6500200","三重區"
"241017","063-VK","2018/12/04 20:48:41","新北市三重區自強路一段272號","121.492203333333","25.0676966666667","6500200","三重區"
"241024","065-VK","2018/12/04 20:48:58","新北市三重區中正北路344號","121.478123333333","25.0693366666667","6500200","三重區"
"241002","090-VK","2018/12/04 20:48:59","新北市三重區仁義街167巷38弄2號","121.498803333333","25.08269","6500200","三重區"
"241003","091-VK","2018/12/04 20:48:57","新北市三重區五華街141巷58號","121.493485","25.0866833333333","6500200","三重區"
"241005","262-UM","2018/12/04 20:48:58","新北市三重區五華街141巷19號","121.49182","25.08521","6500200","三重區"
"241016","265-UM","2018/12/04 20:49:00","新北市三重區自強路一段158號","121.495873333333","25.066165","6500200","三重區"
"241009","267-UM","2018/12/04 20:49:01","新北市三重區三和路四段197號","121.482145","25.079275","6500200","三重區"
"241018","268-UM","2018/12/04 20:48:59","新北市三重區正義北路227號","121.495931666667","25.06897","6500200","三重區"
"241032","269-UM","2018/12/04 20:48:43","新北市三重區重陽路一段120巷35號","121.48516","25.0602666666667","6500200","三重區"
"241013","270-UM","2018/12/04 20:48:49","新北市三重區仁賢街12-1號","121.495735","25.0748316666667","6500200","三重區"
"241025","271-UM","2018/12/04 20:48:51","新北市三重區貴陽街14號","121.484243333333","25.0618566666667","6500200","三重區"
"241007","398-BY","2018/12/04 20:48:51","新北市三重區三和路四段145巷7號","121.484551666667","25.0783066666667","6500200","三重區"
"241035","KEA-2210","2018/12/04 20:48:52","新北市三重區三和路三段8號","121.497083333333","25.07011","6500200","三重區"
"241004","475-VK","2018/12/04 20:48:48","新北市三重區分子尾街36-1號","121.48949","25.0810116666667","6500200","三重區"
"241020","478-VK","2018/12/04 20:48:59","新北市三重區忠孝路一段101號","121.489458333333","25.07218","6500200","三重區"
"241030","480-VK","2018/12/04 20:48:52","新北市三重區昌隆街26號","121.491983333333","25.05228","6500200","三重區"
"241014","543-UM","2018/12/04 20:48:45","新北市三重區萬全街76號","121.501458333333","25.0702233333333","6500200","三重區"
"241023","545-UM","2018/12/04 20:49:01","新北市三重區忠孝路三段99巷4號","121.480145","25.0643116666667","6500200","三重區"
"241001","547-UM","2018/12/04 20:48:46","新北市三重區三和路四段148號","121.488398333333","25.0756516666667","6500200","三重區"
"241033","557-UM","2018/12/04 20:48:17","新北市三重區光復路一段138-1號","121.471985","25.0531366666667","6500200","三重區"
"241019","KEA-2593","2018/12/04 20:48:59","新北市三重區自強路二段74巷21號","121.487996666667","25.0698566666667","6500200","三重區"
"241026","743-BX","2018/12/04 20:49:03","新北市三重區和平街1號","121.500073333333","25.0622616666667","6500200","三重區"
"241006","887-TS","2018/12/04 20:48:49","新北市三重區車路頭街139巷14號","121.484315","25.0762033333333","6500200","三重區"
"241012","941-UM","2018/12/04 20:49:04","新北市三重區仁信街27號","121.501263333333","25.0755366666667","6500200","三重區"
"241029","942-UM","2018/12/04 20:48:56","新北市三重區重安街14號","121.490256666667","25.0581783333333","6500200","三重區"
"247012","KEA-2869","2018/12/04 20:48:41","新北市蘆洲區民族路90號","121.477905","25.0849966666667","6501400","蘆洲區"
"235069","4980-A6","2018/12/04 20:48:46","新北市中和區員山路381巷1弄18號","121.480895","25.00222","6500300","中和區"
"247002","893-R6","2018/12/04 20:48:48","新北市蘆洲區長榮路269巷24號","121.459655","25.0860516666667","6501400","蘆洲區"
"247016","546-UM","2018/12/04 20:48:52","新北市蘆洲區正和街3號","121.470471666667","25.0826883333333","6501400","蘆洲區"
"247024","500-BY","2018/12/04 20:48:46","新北市蘆洲區長樂路235號","121.462055","25.090175","6501400","蘆洲區"
"247006","337-TH","2018/12/04 20:48:59","新北市蘆洲區九芎街154號","121.4644","25.0781966666667","6501400","蘆洲區"
"247020","057-VK","2018/12/04 20:48:45","新北市蘆洲區仁愛街64號","121.471425","25.0938733333333","6501400","蘆洲區"
"247010","056-VK","2018/12/04 20:48:53","新北市蘆洲區三民路52號","121.475246666667","25.0836183333333","6501400","蘆洲區"
"247014","053-VK","2018/12/04 20:48:49","新北市蘆洲區三民路95號","121.474016666667","25.0848283333333","6501400","蘆洲區"
"247004","002-UY","2018/12/04 20:48:33","新北市蘆洲區長安街103號","121.461556666667","25.0808983333333","6501400","蘆洲區"
"247022","001-UY","2018/12/04 20:48:51","新北市蘆洲區民權路137巷7號","121.471225","25.0900183333333","6501400","蘆洲區"
"222001","KEA-2212","2018/12/04 20:48:47","新北市深坑區北深路三段137號","121.60392","25.0025516666667","6501800","深坑區"
"251001","011-UM","2018/12/04 20:48:44","新北市淡水區淡金路218號","121.460445","25.1672866666667","6501000","淡水區"
"251013","KEA-2871","2018/12/04 20:48:47","新北市淡水區埤島41號","121.452016666667","25.19759","6501000","淡水區"
"251016","179-VK","2018/12/04 20:48:43","新北市淡水區興仁路160號","121.451495","25.22041","6501000","淡水區"
"251014","180-VK","2018/12/04 20:48:48","新北市淡水區公埔子32-8號","121.46163","25.23237","6501000","淡水區"
"251008","181-VK","2018/12/04 20:48:43","新北市淡水區下圭柔山90-2號","121.431415","25.2116116666667","6501000","淡水區"
"251015","182-VK","2018/12/04 20:49:04","新北市淡水區淡金路四段542巷17號","121.452763333333","25.2270833333333","6501000","淡水區"
"251010","413-VK","2018/12/04 20:48:58","新北市淡水區沙崙路141-1號","121.4233","25.183025","6501000","淡水區"
"251012","441-VK","2018/12/04 20:48:42","新北市淡水區淡金路四段478號","121.452026666667","25.224195","6501000","淡水區"
"251004","443-VK","2018/12/04 20:23:10","新北市淡水區中正東路二段143巷2弄1號","121.460583333333","25.1473166666667","6501000","淡水區"
"251009","575-R6","2018/12/04 20:48:43","新北市淡水區民權路187巷19號","121.460505","25.1334533333333","6501000","淡水區"
"251007","577-R6","2018/12/04 20:48:49","新北市淡水區鄧公路29巷13號","121.451935","25.1701666666667","6501000","淡水區"
"251011","650-BX","2018/12/04 20:48:45","新北市淡水區新民街一段13號","121.432903333333","25.184575","6501000","淡水區"
"251002","672-BX","2018/12/04 20:48:57","新北市淡水區中正東路6號","121.447053333333","25.167025","6501000","淡水區"
"251003","673-BX","2018/12/04 20:48:48","新北市淡水區中山北路一段207巷54號","121.442346666667","25.17927","6501000","淡水區"
"236014","270-VK","2018/12/04 20:48:54","新北市樹林區中山路三段210-2號","121.380571666667","24.966785","6501300","土城區"
"247008","KED-0683","2018/12/04 20:49:03","新北市三重區三和路四段237號","121.480818333333","25.080255","6501400","蘆洲區"
"242037","AAC-296","2018/12/04 20:49:01","新北市新莊區中正路471-1號","121.441678333333","25.0337433333333","6500500","新莊區"
"242058","986-R7","2018/12/04 20:48:43","新北市新莊區新樹路6號","121.440561666667","25.0328433333333","6500500","新莊區"
"242027","705-TV","2018/12/04 20:48:55","新北市三重區重光街124-1號","121.466138333333","25.0654633333333","6500500","新莊區"
"242029","612-BX","2018/12/04 20:48:58","新北市新莊區幸福東路66號","121.464865","25.0493816666667","6500500","新莊區"
"242044","566-BX","2018/12/04 20:48:56","新北市新莊區龍安路108號","121.418331666667","25.0204166666667","6500500","新莊區"
"242054","441-UM","2018/12/04 20:48:58","新北市新莊區中正路459號","121.442295","25.0334716666667","6500500","新莊區"
"242002","440-UM","2018/12/04 20:48:50","新北市新莊區中港路五守新村1巷5號","121.455321666667","25.0381833333333","6500500","新莊區"
"242023","362-BY","2018/12/04 20:48:52","新北市五股區新五路二段372巷20號","121.447896666667","25.084935","6500500","新莊區"
"242011","132-UY","2018/12/04 20:48:57","新北市新莊區中榮街104巷13號","121.447153333333","25.0535033333333","6500500","新莊區"
"242034","135-UY","2018/12/04 20:48:59","新北市新莊區中正路311號","121.448133333333","25.03517","6500500","新莊區"
"242005","349-TH","2018/12/04 20:48:34","新北市五股區中直路13-7號","121.424898333333","25.1104533333333","6500500","新莊區"
"221002","129-UY","2018/12/04 20:48:49","新北市汐止區福德二路94-1號","121.632746666667","25.06624","6501100","汐止區"
"221035","622-UM","2018/12/04 20:48:52","新北市汐止區汐萬路一段300號","121.650548333333","25.074545","6501100","汐止區"
"221038","646-BX","2018/12/04 20:48:43","新北市汐止區汐萬路一段256巷3號","121.652081666667","25.0747816666667","6501100","汐止區"
"221033","647-BX","2018/12/04 20:49:00","新北市汐止區合順街18巷8弄5號","121.62039","25.0418916666667","6501100","汐止區"
"221018","753-BX","2018/12/04 20:48:46","新北市汐止區汐萬路一段2號","121.65623","25.0671533333333","6501100","汐止區"
"220083","286-VK","2018/12/04 20:48:37","新北市板橋區僑中二街116巷9-3號","121.445205","25.0064733333333","6500100","板橋區"
"220064","AAC-253","2018/12/04 20:49:00","新北市林口區汕頭32號","121.366575","25.13502","6500100","板橋區"
