"lineid","car","time","location","longitude","latitude","cityid","cityname"
"241031","209-UY","2018/12/04 20:58:43","新北市永和區保生路55號","121.504626666667","25.0107583333333","6500200","三重區"
"244018","402-UM","2018/12/04 20:58:41","新北市林口區粉寮69號","121.40497","25.09087","6501700","林口區"
"231059","046-UY","2018/12/04 20:58:50","新北市新店區僑信路63號","121.49952","24.9487083333333","6500600","新店區"
"231040","047-UY","2018/12/04 20:58:52","新北市新店區中正路184號","121.540955","24.9721216666667","6500600","新店區"
"231053","108-UY","2018/12/04 20:58:59","新北市新店區環河路18號","121.537363333333","24.9615016666667","6500600","新店區"
"231048","187-VK","2018/12/04 20:58:45","新北市新店區寶元路一段109號","121.545688333333","24.983095","6500600","新店區"
"231051","188-VK","2018/12/04 20:59:05","新北市新店區中正路663巷1弄2號","121.532923333333","24.9900433333333","6500600","新店區"
"231054","KEA-2219","2018/12/04 20:59:00","新北市新店區五峰路27號","121.544146666667","24.9691833333333","6500600","新店區"
"231042","268-BY","2018/12/04 20:58:43","新北市新店區寶高路102巷20號","121.552556666667","24.9739983333333","6500600","新店區"
"231050","AAD-862","2018/12/04 20:58:47","新北市新店區三民路53號","121.536916666667","24.9709966666667","6500600","新店區"
"231058","3713-VJ","2018/12/04 20:56:50","新北市新店區中央一街45號","121.526846666667","24.9739183333333","6500600","新店區"
"231066","4716-K9","2018/12/04 20:58:58","新北市新店區吉安街10號","121.516808333333","24.9657466666667","6500600","新店區"
"231067","4772-VM","2018/12/04 20:58:53","新北市新店區安德街130巷10號","121.508223333333","24.9607766666667","6500600","新店區"
"231065","512-UM","2018/12/04 20:59:01","新北市新店區安祥路67巷50弄1號","121.484795","24.95901","6500600","新店區"
"231049","513-UM","2018/12/04 20:58:56","新北市新店區薏仁坑路2-4號","121.501813333333","24.9588016666667","6500600","新店區"
"231063","616-UM","2018/12/04 20:58:50","新北市新店區富貴街6巷1號","121.494511666667","24.9500066666667","6500600","新店區"
"231045","617-UM","2018/12/04 20:58:51","新北市新店區柴埕路116號","121.505386666667","24.96013","6500600","新店區"
"231061","619-UM","2018/12/04 20:59:03","新北市新店區永安街103號","121.520875","24.9858016666667","6500600","新店區"
"231068","718-UY","2018/12/04 20:58:58","新北市新店區寶元路二段31巷2號","121.546735","24.98172","6500600","新店區"
"231064","719-UM","2018/12/04 20:58:45","新北市新店區安民街128號","121.516446666667","24.96914","6500600","新店區"
"231062","720-UM","2018/12/04 20:58:56","新北市新店區裕合街31號","121.489908333333","24.9497566666667","6500600","新店區"
"231060","897-TW","2018/12/04 20:58:46","新北市新店區安康路三段60號","121.492306666667","24.95216","6500600","新店區"
"231043","898-TW","2018/12/04 20:59:00","新北市新店區中央路216-1號","121.529848333333","24.97319","6500600","新店區"
"241011","013-R5","2018/12/04 20:58:52","新北市三重區秀江街119號","121.49969","25.0721733333333","6500200","三重區"
"241028","022-UY","2018/12/04 20:58:58","新北市三重區重新路二段51-1號","121.497098333333","25.0619183333333","6500200","三重區"
"241008","059-VK","2018/12/04 20:58:54","新北市三重區車路頭街139巷2號","121.483841666667","25.076335","6500200","三重區"
"241022","060-VK","2018/12/04 20:58:44","新北市三重區重陽路二段19巷12號","121.488075","25.0624516666667","6500200","三重區"
"241031","061-VK","2018/12/04 20:58:59","新北市三重區重陽路一段113巷2弄2號","121.487511666667","25.0598316666667","6500200","三重區"
"241015","062-VK","2018/12/04 20:58:51","新北市三重區福德北路46號","121.50201","25.065505","6500200","三重區"
"241017","063-VK","2018/12/04 20:59:01","新北市三重區國隆路31號","121.49236","25.06444","6500200","三重區"
"241024","065-VK","2018/12/04 20:58:58","新北市三重區大勇街49號","121.481345","25.0719633333333","6500200","三重區"
"241002","090-VK","2018/12/04 20:58:59","新北市三重區仁義街155號","121.497135","25.081105","6500200","三重區"
"241003","091-VK","2018/12/04 20:58:57","新北市三重區進安街198號","121.493848333333","25.085975","6500200","三重區"
"241005","262-UM","2018/12/04 20:58:58","新北市三重區五華街170號","121.489001666667","25.0861016666667","6500200","三重區"
"241016","265-UM","2018/12/04 20:58:59","新北市三重區自強路一段107號","121.495435","25.0664133333333","6500200","三重區"
"241009","267-UM","2018/12/04 20:59:01","新北市三重區三和路四段360號","121.483268333333","25.0785266666667","6500200","三重區"
"241018","268-UM","2018/12/04 20:58:59","新北市三重區雙園街97號","121.493853333333","25.0672983333333","6500200","三重區"
"241032","269-UM","2018/12/04 20:58:43","新北市三重區三陽路112號","121.48305","25.0587766666667","6500200","三重區"
"241013","270-UM","2018/12/04 20:58:49","新北市三重區仁賢街12-1號","121.495701666667","25.0748466666667","6500200","三重區"
"241025","271-UM","2018/12/04 20:58:51","新北市三重區貴陽街14號","121.484176666667","25.06186","6500200","三重區"
"241007","398-BY","2018/12/04 20:58:51","新北市三重區三和路四段155巷33號","121.484901666667","25.07861","6500200","三重區"
"241004","475-VK","2018/12/04 20:58:48","新北市三重區仁愛街420號","121.490375","25.0814166666667","6500200","三重區"
"241020","478-VK","2018/12/04 20:58:59","新北市三重區忠孝路二段34號","121.485761666667","25.0710216666667","6500200","三重區"
"241030","480-VK","2018/12/04 20:58:52","新北市三重區環河南路220-8號","121.493383333333","25.0526783333333","6500200","三重區"
"241014","543-UM","2018/12/04 20:58:45","新北市三重區長榮路75號","121.502566666667","25.0691733333333","6500200","三重區"
"241023","545-UM","2018/12/04 20:59:01","新北市三重區洛陽街45巷13號","121.482355","25.06376","6500200","三重區"
"241001","547-UM","2018/12/04 20:58:46","新北市三重區自強路三段87巷29號","121.488583333333","25.0750983333333","6500200","三重區"
"241033","557-UM","2018/12/04 20:48:17","新北市三重區光復路一段138-1號","121.471985","25.0531366666667","6500200","三重區"
"241019","KEA-2593","2018/12/04 20:58:59","新北市三重區自強路二段74巷21號","121.487975","25.0698666666667","6500200","三重區"
"241026","743-BX","2018/12/04 20:58:43","新北市三重區文化南路36號","121.50028","25.0613783333333","6500200","三重區"
"241006","887-TS","2018/12/04 20:58:49","新北市三重區永福街46-3號","121.48193","25.0781233333333","6500200","三重區"
"241012","941-UM","2018/12/04 20:58:44","新北市三重區仁信街27號","121.501296666667","25.075535","6500200","三重區"
"241029","942-UM","2018/12/04 20:58:56","新北市三重區正義南路107號","121.498243333333","25.0585416666667","6500200","三重區"
"247012","KEA-2869","2018/12/04 20:59:01","新北市蘆洲區民權路5號","121.476626666667","25.0857216666667","6501400","蘆洲區"
"235069","4980-A6","2018/12/04 20:58:46","新北市中和區連城路469巷70弄16號","121.482838333333","24.9934516666667","6500300","中和區"
"247002","893-R6","2018/12/04 20:58:48","新北市蘆洲區長安街292號","121.457313333333","25.0881916666667","6501400","蘆洲區"
"247016","546-UM","2018/12/04 20:58:52","新北市蘆洲區正和街81號","121.468235","25.0807616666667","6501400","蘆洲區"
"247024","500-BY","2018/12/04 20:58:46","新北市蘆洲區長興路200號","121.46078","25.08701","6501400","蘆洲區"
"247006","337-TH","2018/12/04 20:58:59","新北市蘆洲區永安南路二段16巷8號","121.46775","25.077285","6501400","蘆洲區"
"247020","057-VK","2018/12/04 20:58:45","新北市蘆洲區民族路488號","121.47114","25.0912866666667","6501400","蘆洲區"
"247010","056-VK","2018/12/04 20:58:45","新北市蘆洲區鷺江街76號","121.476973333333","25.083805","6501400","蘆洲區"
"247014","053-VK","2018/12/04 20:58:49","新北市蘆洲區得勝街67-1號","121.473926666667","25.0836733333333","6501400","蘆洲區"
"247018","007-UY","2018/12/04 20:58:54","新北市蘆洲區民權路81號","121.473231666667","25.088595","6501400","蘆洲區"
"247004","002-UY","2018/12/04 20:58:53","新北市蘆洲區永安南路二段254號","121.459656666667","25.0803416666667","6501400","蘆洲區"
"247022","001-UY","2018/12/04 20:58:51","新北市蘆洲區中正路198號","121.466816666667","25.08824","6501400","蘆洲區"
"251005","010-UM","2018/12/04 20:58:57","新北市淡水區學府路73巷2弄1號","121.447916666667","25.1700583333333","6501000","淡水區"
"251001","011-UM","2018/12/04 20:58:44","新北市淡水區北投子14-3號","121.449316666667","25.18306","6501000","淡水區"
"251013","KEA-2871","2018/12/04 20:58:48","新北市淡水區行忠路332號","121.463233333333","25.1993016666667","6501000","淡水區"
"251016","179-VK","2018/12/04 20:58:43","新北市淡水區牛埔子11-1號","121.450335","25.2184716666667","6501000","淡水區"
"251014","180-VK","2018/12/04 20:58:48","新北市淡水區溪口10號","121.455918333333","25.236465","6501000","淡水區"
"251015","182-VK","2018/12/04 20:58:44","新北市淡水區淡金路四段542巷17號","121.45275","25.2270833333333","6501000","淡水區"
"251010","413-VK","2018/12/04 20:58:58","新北市淡水區中正路一段118-3號","121.42389","25.178785","6501000","淡水區"
"251012","441-VK","2018/12/04 20:59:02","新北市淡水區淡金路五段110號","121.456508333333","25.2366483333333","6501000","淡水區"
"251009","575-R6","2018/12/04 20:58:43","新北市淡水區民族路112巷68號","121.461803333333","25.13389","6501000","淡水區"
"251007","577-R6","2018/12/04 20:58:50","新北市淡水區仁愛街2巷15號","121.44624","25.1707816666667","6501000","淡水區"
"251011","650-BX","2018/12/04 20:58:45","新北市淡水區新民街322巷1號","121.435293333333","25.1837533333333","6501000","淡水區"
"251002","672-BX","2018/12/04 20:58:57","新北市淡水區英專路64號","121.445675","25.1709633333333","6501000","淡水區"
"251003","673-BX","2018/12/04 20:58:48","新北市淡水區新春街125巷5號","121.441465","25.1823833333333","6501000","淡水區"
"236014","270-VK","2018/12/04 20:58:54","新北市土城區城林路6巷75號","121.437893333333","24.979205","6501300","土城區"
"247008","KED-0683","2018/12/04 20:59:03","新北市蘆洲區和平路9號","121.472948333333","25.0792133333333","6501400","蘆洲區"
"242027","705-TV","2018/12/04 20:58:55","新北市八里區商港路40號","121.396391666667","25.1450533333333","6500500","新莊區"
"242011","132-UY","2018/12/04 20:58:57","新北市新莊區新北大道四段217號","121.44399","25.056875","6500500","新莊區"
"242005","349-TH","2018/12/04 20:58:34","新北市林口區太平里180號","121.366445","25.1343366666667","6500500","新莊區"
"221018","753-BX","2018/12/04 20:58:46","新北市汐止區汐萬路一段256巷3號","121.652551666667","25.0745683333333","6501100","汐止區"
"220064","AAC-253","2018/12/04 20:59:00","新北市八里區中山路三段409號","121.368598333333","25.134905","6500100","板橋區"
