"lineid","car","time","location","longitude","latitude","cityid","cityname"
"234040","862-TW","2018/12/04 21:58:53","新北市永和區福和路1號","121.52613","25.00976","6500400","永和區"
"235005","551-UM","2018/12/04 21:53:47","新北市中和區員山路36巷16-2號","121.48525","24.9916216666667","6500300","中和區"
"235010","733-UM","2018/12/04 21:45:35","新北市中和區員山路36巷13號","121.484156666667","24.9907833333333","6500300","中和區"
"251005","010-UM","2018/12/04 21:58:57","新北市淡水區鄧公路30巷2弄23號","121.453163333333","25.16923","6501000","淡水區"
"251008","181-VK","2018/12/04 21:59:03","新北市淡水區學府路104號","121.449843333333","25.1717583333333","6501000","淡水區"
"251010","413-VK","2018/12/04 21:58:58","新北市淡水區中正路二段208號","121.42628","25.18927","6501000","淡水區"
"251004","443-VK","2018/12/04 21:58:53","新北市淡水區民權路167號","121.459943333333","25.1358683333333","6501000","淡水區"
"251006","561-UM","2018/12/04 21:58:53","新北市淡水區中正路11巷3號","121.43782","25.17075","6501000","淡水區"
"251007","577-R6","2018/12/04 21:58:49","新北市淡水區北新路184巷60號","121.451116666667","25.1776366666667","6501000","淡水區"
"251011","650-BX","2018/12/04 21:58:45","新北市淡水區水碓街7號","121.443203333333","25.177085","6501000","淡水區"
"251003","673-BX","2018/12/04 21:58:48","新北市淡水區新春街83號","121.438876666667","25.1824083333333","6501000","淡水區"
