"lineid","car","time","location","longitude","latitude","cityid","cityname"
"248005","653-BX","2018/03/10 07:56:31","新北市五股區明德路12巷6號","121.433345","25.0718683333333","6501500","五股區"
"244005","248-BX","2018/03/10 07:59:17","新北市林口區下福2號","121.31861","25.108135","6501700","林口區"
"231007","189-VK","2018/03/10 07:59:25","新北市新店區安華路28-1號","121.519808333333","24.9610766666667","6500600","新店區"
"231008","192-VK","2018/03/10 07:59:17","新北市新店區安華路28-1號","121.519146666667","24.9611716666667","6500600","新店區"
"226005","5620-A6","2018/03/10 07:59:13","新北市平溪區石底里公園街18-3號","121.733288333333","25.02582","6502400","平溪區"
"226002","7418-A5","2018/03/10 07:59:21","新北市平溪區南山里乾坑11號","121.782781666667","25.04718","6502400","平溪區"
"226003","AGD-0702","2018/03/10 07:59:19","新北市平溪區新寮里頂寮子4號","121.773701666667","25.05181","6502400","平溪區"
"223006","022-BY","2018/03/10 07:58:42","新北市石碇區溪邊寮1-3號","121.658071666667","24.977525","6501900","石碇區"
"223001","205-TH","2018/03/10 07:59:19","新北市石碇區小粗坑(格頭里)1號","121.652761666667","24.9539916666667","6501900","石碇區"
"223008","406-TH","2018/03/10 07:59:25","新北市石碇區靜安路一段282號","121.687701666667","25.0096883333333","6501900","石碇區"
"223001","592-UM","2018/03/10 07:59:19","新北市石碇區小粗坑(格頭里)1號","121.652723333333","24.95384","6501900","石碇區"
"223004","660-BX","2018/03/10 07:59:15","新北市石碇區外按16-1號","121.650796666667","24.99748","6501900","石碇區"
"223007","661-BX","2018/03/10 07:59:11","新北市石碇區靜安路一段282號","121.687821666667","25.009515","6501900","石碇區"
"223005","677-TV","2018/03/10 07:59:16","新北市石碇區外按16-1號","121.65081","24.9974683333333","6501900","石碇區"
"224007","275-VK","2018/03/10 07:59:15","新北市瑞芳區鐵路巷9號","121.806893333333","25.1085566666667","6501200","瑞芳區"
"227006","282-VK","2018/03/10 07:59:20","新北市雙溪區牡丹里中正路1-1號","121.863626666667","25.0435183333333","6502500","雙溪區"
"252004","249-BX","2018/03/10 07:57:55","新北市三芝區興華里車埕36-21號","121.505848333333","25.193015","6502100","三芝區"
"252007","AAC-283","2018/03/10 07:59:10","新北市三芝區後厝里北勢子45-6號","121.470461666667","25.2509583333333","6502100","三芝區"
"237001","159-UY","2018/03/10 07:59:20","新北市三峽區大學路86號","121.375966666667","24.9420933333333","6500900","三峽區"
"236011","165-UM","2018/03/10 07:59:12","新北市土城區青雲路322巷28號","121.457138333333","24.9750983333333","6501300","土城區"
"236001","339-SR","2018/03/10 07:59:28","新北市土城區龍泉路74-1號","121.428985","24.9423133333333","6501300","土城區"
