"lineid","car","time","location","longitude","latitude","cityid","cityname"
"248005","653-BX","2018/03/10 08:19:29","新北市五股區明德路12巷16號","121.433286666667","25.07192","6501500","五股區"
"244005","248-BX","2018/03/10 08:19:17","新北市林口區下福147-5號","121.299285","25.1170666666667","6501700","林口區"
"244002","657-BX","2018/03/10 08:19:30","新北市林口區粉寮路二段160巷40號","121.405598333333","25.0912366666667","6501700","林口區"
"222004","289-BY","2018/03/10 08:19:20","新北市深坑區大崙腳2-2號","121.613943333333","24.9945116666667","6501800","深坑區"
"231007","189-VK","2018/03/10 08:19:25","新北市新店區新潭路一段78-1號","121.525103333333","24.939925","6500600","新店區"
"231008","192-VK","2018/03/10 08:19:17","新北市新店區新烏路二段132號","121.549585","24.9197933333333","6500600","新店區"
"226005","5620-A6","2018/03/10 08:19:13","新北市平溪區南山里南山坪125號","121.78565","25.0451383333333","6502400","平溪區"
"226002","7418-A5","2018/03/10 08:19:21","新北市平溪區靜安路三段59號","121.764625","25.03284","6502400","平溪區"
"226003","AGD-0702","2018/03/10 08:19:19","新北市平溪區十分里十分街59號","121.775471666667","25.0417116666667","6502400","平溪區"
"223006","022-BY","2018/03/10 08:19:22","新北市石碇區楓子林1-2號","121.642541666667","25.008795","6501900","石碇區"
"223001","205-TH","2018/03/10 08:19:19","新北市石碇區北宜路六段塗潭巷56號","121.653376666667","24.9350816666667","6501900","石碇區"
"223008","406-TH","2018/03/10 08:19:25","新北市石碇區番子坑38-9號","121.678138333333","25.01113","6501900","石碇區"
"223001","592-UM","2018/03/10 08:19:27","新北市石碇區北宜路六段直潭巷26號","121.660078333333","24.9344316666667","6501900","石碇區"
"223004","660-BX","2018/03/10 08:19:15","新北市石碇區石碇西街69號","121.656218333333","24.991595","6501900","石碇區"
"223007","661-BX","2018/03/10 08:19:31","新北市石碇區十八重溪6號","121.677995","25.0112866666667","6501900","石碇區"
"223005","677-TV","2018/03/10 08:19:16","新北市石碇區石碇西街71號","121.655998333333","24.9916666666667","6501900","石碇區"
"224007","275-VK","2018/03/10 08:19:15","新北市瑞芳區楓子瀨路112-1號","121.778765","25.099175","6501200","瑞芳區"
"227006","282-VK","2018/03/10 08:19:00","新北市雙溪區平林里竹寮坑10號","121.844038333333","25.0460866666667","6502500","雙溪區"
"252004","249-BX","2018/03/10 08:19:15","新北市三芝區興華里車埕62號","121.498651666667","25.19688","6502100","三芝區"
"252007","AAC-283","2018/03/10 08:19:10","新北市三芝區後厝里大片頭102號","121.459805","25.2397683333333","6502100","三芝區"
"237001","159-UY","2018/03/10 08:19:20","新北市三峽區大義路1號","121.37898","24.9435216666667","6500900","三峽區"
"236011","165-UM","2018/03/10 08:19:32","新北市土城區清水路32巷14號","121.457075","24.9812416666667","6501300","土城區"
"236001","339-SR","2018/03/10 08:19:28","新北市土城區中央路四段272號","121.41465","24.9565716666667","6501300","土城區"
"236006","498-BY","2018/03/10 08:19:22","新北市土城區大暖路120號","121.423001666667","24.9570816666667","6501300","土城區"
