"lineid","car","time","location","longitude","latitude","cityid","cityname"
"248005","653-BX","2018/03/10 08:59:13","新北市五股區水碓路5巷1-1號","121.433616666667","25.0722216666667","6501500","五股區"
"244005","248-BX","2018/03/10 08:59:17","新北市八里區中山路三段409號","121.368546666667","25.1343316666667","6501700","林口區"
"244002","657-BX","2018/03/10 08:59:31","新北市林口區公園路52號","121.368718333333","25.0694366666667","6501700","林口區"
"222004","289-BY","2018/03/10 08:59:28","新北市深坑區大崙尾1-1號","121.615711666667","24.9753533333333","6501800","深坑區"
"231007","189-VK","2018/03/10 08:59:25","新北市新店區新潭路三段236號","121.501565","24.9032633333333","6500600","新店區"
"231008","192-VK","2018/03/10 08:59:17","新北市新店區廣興路96號","121.537841666667","24.9129783333333","6500600","新店區"
"226005","5620-A6","2018/03/10 08:59:13","新北市平溪區靜安路二段426號","121.739818333333","25.02479","6502400","平溪區"
"226002","7418-A5","2018/03/10 08:59:21","新北市平溪區東勢里芊蓁坑30號","121.727545","24.9791666666667","6502400","平溪區"
"226003","AGD-0702","2018/03/10 08:59:19","新北市平溪區十分里十分街212號","121.7793","25.0444816666667","6502400","平溪區"
"223001","205-TH","2018/03/10 08:59:19","新北市石碇區北宜路五段58號","121.633816666667","24.9531116666667","6501900","石碇區"
"223001","592-UM","2018/03/10 08:59:19","新北市石碇區北宜路四段18-1號","121.61915","24.95921","6501900","石碇區"
"223004","660-BX","2018/03/10 08:59:15","新北市石碇區碇坪路二段25號","121.683125","24.976305","6501900","石碇區"
"223005","677-TV","2018/03/10 08:59:17","新北市石碇區磨石坑36號","121.691668333333","24.9676283333333","6501900","石碇區"
"224007","275-VK","2018/03/10 08:59:15","新北市瑞芳區楓子瀨路70號","121.76619","25.0987033333333","6501200","瑞芳區"
"227006","282-VK","2018/03/10 08:59:20","新北市雙溪區長源里赤皮崙5-1號","121.794303333333","25.015715","6502500","雙溪區"
"252004","249-BX","2018/03/10 08:59:15","新北市三芝區興華里田心子32-6號","121.491581666667","25.1997","6502100","三芝區"
"252007","AAC-283","2018/03/10 08:59:30","新北市三芝區後厝里北勢子3-5號","121.479746666667","25.25293","6502100","三芝區"
"237001","159-UY","2018/03/10 08:59:20","新北市三峽區大德路493號","121.373833333333","24.9485616666667","6500900","三峽區"
"236011","165-UM","2018/03/10 08:59:32","新北市土城區大安路2號","121.43291","24.9654783333333","6501300","土城區"
"236001","339-SR","2018/03/10 08:59:28","新北市土城區中央路三段264號","121.42715","24.9638","6501300","土城區"
"236006","498-BY","2018/03/10 08:59:30","新北市土城區中央路三段76巷50弄1號","121.435553333333","24.9694533333333","6501300","土城區"
