"lineid","car","time","location","longitude","latitude","cityid","cityname"
"248005","653-BX","2018/03/10 10:09:33","新北市五股區中興路二段57-6號","121.460503333333","25.075445","6501500","五股區"
"244002","657-BX","2018/03/10 10:09:30","新北市林口區文化一路一段15巷8-1號","121.368765","25.0692216666667","6501700","林口區"
"231007","189-VK","2018/03/10 10:09:25","新北市新店區新潭路三段215巷25號","121.50813","24.904045","6500600","新店區"
"231008","192-VK","2018/03/10 10:09:17","新北市新店區成功路50巷1號","121.54347","24.903505","6500600","新店區"
"223001","592-UM","2018/03/10 10:09:19","新北市深坑區旺耽路45巷21號","121.62818","25.0028633333333","6501900","石碇區"
"224007","275-VK","2018/03/10 10:09:15","新北市瑞芳區八分寮路21號","121.792496666667","25.0834883333333","6501200","瑞芳區"
"227006","282-VK","2018/03/10 10:09:20","新北市雙溪區長源里柑腳18號","121.804666666667","25.0142633333333","6502500","雙溪區"
"252004","249-BX","2018/03/10 10:09:15","新北市三芝區福德里埔尾2號","121.50203","25.2470133333333","6502100","三芝區"
"252007","AAC-283","2018/03/10 10:09:30","新北市三芝區新庄里番社后43號","121.504591666667","25.27134","6502100","三芝區"
