"lineid","car","time","location","longitude","latitude","cityid","cityname"
"234044","148-BY","2018/03/10 13:09:18","新北市永和區永元路18巷16號","121.523096666667","25.0002216666667","6500400","永和區"
"234005","207-UY","2018/03/10 13:09:27","新北市永和區中山路一段177號","121.509305","25.0089466666667","6500400","永和區"
"234078","298-R6","2018/03/10 13:09:32","新北市永和區永貞路39巷9弄2號","121.522136666667","25.006695","6500400","永和區"
"234038","336-UY","2018/03/10 13:09:23","新北市永和區民樂街69巷2號","121.527363333333","24.9976383333333","6500400","永和區"
"234062","337-UY","2018/03/10 13:09:19","新北市永和區秀朗路二段17號","121.52105","25.00266","6500400","永和區"
"234084","338-UY","2018/03/10 13:09:33","新北市永和區永貞路112號","121.518846666667","25.0045066666667","6500400","永和區"
"234068","552-UM","2018/03/10 13:09:28","新北市永和區豫溪街137巷1弄24號","121.518291666667","25.0105083333333","6500400","永和區"
"234015","745-BX","2018/03/10 13:09:30","新北市永和區文化路90巷9弄2號","121.51378","25.0158066666667","6500400","永和區"
"234028","746-BX","2018/03/10 13:09:25","新北市永和區民生路21號","121.522828333333","24.9988466666667","6500400","永和區"
"234052","KEA-2590","2018/03/10 13:09:33","新北市永和區中興街133巷14號","121.518401666667","25.012615","6500400","永和區"
"234012","KEA-2591","2018/03/10 13:09:36","新北市永和區保福路二段47號","121.510956666667","25.0118133333333","6500400","永和區"
"234060","AAD-866","2018/03/10 13:09:37","新北市永和區安樂路304巷7號","121.51449","25.0051216666667","6500400","永和區"
"234042","862-TW","2018/03/10 13:09:23","新北市永和區永貞路330號","121.511263333333","25.0054916666667","6500400","永和區"
"234048","863-TW","2018/03/10 13:09:22","新北市永和區保福路二段94巷19號","121.510933333333","25.01398","6500400","永和區"
"234025","9371-KE","2018/03/10 13:09:30","新北市永和區秀朗路一段10巷19號","121.513493333333","25.006155","6500400","永和區"
"234010","9373-KE","2018/03/10 13:09:35","新北市永和區仁愛路23號","121.514536666667","25.01343","6500400","永和區"
"248017","225-UY","2018/03/10 13:09:24","新北市五股區中興路三段198號","121.441131666667","25.0829233333333","6501500","五股區"
"234022","9380-KE","2018/03/10 13:09:17","新北市永和區中興街86號","121.518598333333","25.01221","6500400","永和區"
"234076","969-R7","2018/03/10 13:09:31","新北市永和區民光街11號","121.51548","24.996185","6500400","永和區"
"234072","AAC-211","2018/03/10 13:09:31","新北市永和區竹林路187號","121.520568333333","25.00954","6500400","永和區"
"234066","AAC-212","2018/03/10 13:09:19","新北市永和區保平路30巷2號","121.512026666667","25.007395","6500400","永和區"
"234001","AAC-295","2018/03/10 13:09:25","新北市永和區中山路一段10號","121.514156666667","25.0104583333333","6500400","永和區"
"244005","248-BX","2018/03/10 13:09:32","新北市林口區中山路152號","121.39109","25.07874","6501700","林口區"
"231002","002-UM","2018/03/10 13:09:32","新北市新店區安華路28-1號","121.519681666667","24.9608033333333","6500600","新店區"
"231025","0293-UT","2018/03/10 13:09:24","新北市新店區安華路28-1號","121.519691666667","24.9613833333333","6500600","新店區"
"231028","046-UY","2018/03/10 13:09:24","新北市新店區安華路28-1號","121.519536666667","24.960865","6500600","新店區"
"231030","047-UY","2018/03/10 13:09:35","新北市新店區安華路28-1號","121.519133333333","24.9610066666667","6500600","新店區"
"231029","106-UY","2018/03/10 13:09:37","新北市新店區安華路28-1號","121.519626666667","24.9607916666667","6500600","新店區"
"231018","107-UY","2018/03/10 13:09:27","新北市新店區安康路一段355-3號","121.519398333333","24.961475","6500600","新店區"
"231012","108-UY","2018/03/10 13:09:24","新北市新店區安華路28-1號","121.51949","24.9609433333333","6500600","新店區"
"231020","187-VK","2018/03/10 13:09:37","新北市新店區安華路28-1號","121.519571666667","24.9611083333333","6500600","新店區"
"231017","KEA-2219","2018/03/10 13:09:27","新北市新店區安華路28-1號","121.520065","24.9611333333333","6500600","新店區"
"231026","256-BX","2018/03/10 13:09:31","新北市新店區安華路28-1號","121.519725","24.9611966666667","6500600","新店區"
"231010","278-BY","2018/03/10 13:08:44","新北市新店區安康路一段355-3號","121.519506666667","24.9623416666667","6500600","新店區"
"231023","AAD-862","2018/03/10 13:09:19","新北市新店區安華路28-1號","121.52015","24.9609383333333","6500600","新店區"
"231024","4716-K9","2018/03/10 13:09:34","新北市新店區安華路28-1號","121.519268333333","24.961255","6500600","新店區"
"231038","4715-K9","2018/03/10 13:09:20","新北市新店區安華路1-1號","121.519335","24.9603483333333","6500600","新店區"
"231036","512-UM","2018/03/10 13:09:24","新北市新店區安華路28-1號","121.519248333333","24.9612166666667","6500600","新店區"
"231035","515-UM","2018/03/10 13:09:27","新北市新店區安華路28-1號","121.519806666667","24.960685","6500600","新店區"
"231006","617-UM","2018/03/10 13:09:23","新北市新店區安華路28-1號","121.51941","24.96085","6500600","新店區"
"231001","619-UM","2018/03/10 13:09:35","新北市新店區安華路28-1號","121.519613333333","24.9608083333333","6500600","新店區"
"231003","641-BX","2018/03/10 13:09:21","新北市新店區安華路1-1號","121.519438333333","24.9604883333333","6500600","新店區"
"231034","645-TV","2018/03/10 13:09:33","新北市新店區安華路1-1號","121.51937","24.960515","6500600","新店區"
"231013","719-UM","2018/03/10 13:09:25","新北市新店區安華路28-1號","121.519513333333","24.9610416666667","6500600","新店區"
"231033","720-UM","2018/03/10 13:09:21","新北市新店區安華路28-1號","121.519268333333","24.9611183333333","6500600","新店區"
"231005","897-TW","2018/03/10 13:09:38","新北市新店區安康路一段355-3號","121.519746666667","24.9620516666667","6500600","新店區"
"231004","899-TW","2018/03/10 13:09:30","新北市新店區安華路28-1號","121.519391666667","24.96086","6500600","新店區"
"231037","AKT-0513","2018/03/10 13:09:31","新北市新店區安康路二段362號","121.501716666667","24.9574533333333","6500600","新店區"
"235030","003-UY","2018/03/10 13:09:34","新北市中和區中和路115號","121.501538333333","25.000325","6500300","中和區"
"235028","005-UY","2018/03/10 13:09:17","新北市中和區中正路277-6號","121.495141666667","24.99378","6500300","中和區"
"235003","097-UM","2018/03/10 13:09:30","新北市中和區和城路一段271巷1號","121.485398333333","24.9916516666667","6500300","中和區"
"235029","098-UM","2018/03/10 13:09:28","新北市中和區永和路1-5號","121.499608333333","25.003215","6500300","中和區"
"235004","150-BY","2018/03/10 13:09:27","新北市中和區中正路503號","121.488625","24.99356","6500300","中和區"
"235022","151-BY","2018/03/10 13:09:28","新北市中和區圓通路367巷33弄6-1號","121.493198333333","24.9855683333333","6500300","中和區"
"235002","185-VK","2018/03/10 13:09:24","新北市中和區大智街15號","121.519861666667","24.9919166666667","6500300","中和區"
"235031","255-BX","2018/03/10 13:09:35","新北市中和區中正路879號","121.484288333333","25.004075","6500300","中和區"
"235025","378-QA","2018/03/10 13:09:27","新北市中和區連城路607號","121.478633333333","24.9929166666667","6500300","中和區"
"235035","269-TV","2018/03/10 13:09:27","新北市中和區立德街213號","121.483605","25.0097683333333","6500300","中和區"
"235014","4979-A6","2018/03/10 13:09:31","新北市中和區員山路36巷16-3號","121.484846666667","24.9912166666667","6500300","中和區"
"235006","551-UM","2018/03/10 13:09:37","新北市中和區中正路271號","121.4959","24.993805","6500300","中和區"
"235009","565-BX","2018/03/10 13:09:37","新北市中和區員山路36巷13號","121.484106666667","24.9911433333333","6500300","中和區"
"235001","611-BX","2018/03/10 13:09:36","新北市中和區莒光路84巷62號","121.470768333333","25.00242","6500300","中和區"
"235018","640-BX","2018/03/10 13:09:25","新北市土城區金城路三段257號","121.471783333333","24.990085","6500300","中和區"
"235024","647-TV","2018/03/10 13:09:33","新北市中和區員山路36巷16-3號","121.484811666667","24.99169","6500300","中和區"
"235011","732-UM","2018/03/10 13:09:20","新北市中和區員山路36巷13號","121.484186666667","24.9909716666667","6500300","中和區"
"235026","800-TS","2018/03/10 13:09:30","新北市中和區橋和路56號","121.489466666667","25.0051166666667","6500300","中和區"
"235021","801-TS","2018/03/10 13:09:35","新北市中和區員山路36巷16-3號","121.48484","24.991635","6500300","中和區"
"235005","802-TS","2018/03/10 13:09:24","新北市中和區員山路36巷16-2號","121.485318333333","24.9918233333333","6500300","中和區"
"235017","900-TW","2018/03/10 13:09:36","新北市中和區員山路36巷16-3號","121.484978333333","24.9916916666667","6500300","中和區"
"235034","911-UM","2018/03/10 13:09:29","新北市中和區錦和路350-1號","121.490413333333","24.9935583333333","6500300","中和區"
"235015","157-BY","2018/03/10 13:09:30","新北市中和區板南路190-1號","121.499995","24.9929466666667","6500300","中和區"
"247001","002-UY","2018/03/10 13:09:30","新北市五股區中興路三段163號","121.449383333333","25.0807083333333","6501400","蘆洲區"
"228005","097-TW","2018/03/10 13:09:31","新北市貢寮區仁理村研海街62-2號","121.925771666667","25.0435133333333","6502600","貢寮區"
"228004","212-TW","2018/03/10 13:09:30","新北市貢寮區吉林里內寮街75號","121.891093333333","24.9719166666667","6502600","貢寮區"
"253003","6232-TK","2018/03/10 13:09:27","新北市石門區石崩山9號","121.565551666667","25.2797216666667","6502200","石門區"
"253001","6251-TK","2018/03/10 13:09:33","新北市石門區老梅路51-1號","121.545561666667","25.2893833333333","6502200","石門區"
"253002","637-UY","2018/03/10 13:09:38","新北市石門區老崩山35號","121.557558333333","25.2767366666667","6502200","石門區"
"253004","8270-PC","2018/03/10 13:09:17","新北市石門區小坑20-1號","121.596125","25.2807766666667","6502200","石門區"
"207002","749-BX","2018/03/10 13:09:21","新北市萬里區崁腳里崁腳路166號","121.64504","25.15582","6502800","萬里區"
"252005","073-UM","2018/03/10 13:09:16","新北市三芝區八賢里八連溪1號","121.50889","25.24677","6502100","三芝區"
"207001","662-BX","2018/03/10 13:09:24","新北市萬里區萬里里瑪鋉路189號","121.69035","25.1786633333333","6502800","萬里區"
"236006","498-BY","2018/03/10 13:09:22","新北市土城區亞洲路21號","121.434081666667","24.9720283333333","6501300","土城區"
"221032","280-BY","2018/03/10 13:09:31","新北市汐止區大同路二段370號","121.657638333333","25.0671933333333","6501100","汐止區"
