"lineid","car","time","location","longitude","latitude","cityid","cityname"
"234044","148-BY","2018/03/10 13:29:18","新北市永和區秀朗路二段259號","121.52636","24.9992283333333","6500400","永和區"
"234005","207-UY","2018/03/10 13:29:27","新北市永和區中山路一段130號","121.510508333333","25.010015","6500400","永和區"
"234078","298-R6","2018/03/10 13:29:32","新北市永和區環河東路三段32號","121.526451666667","25.0068866666667","6500400","永和區"
"234038","336-UY","2018/03/10 13:29:23","新北市永和區民樂街36號","121.527488333333","25.0007733333333","6500400","永和區"
"234062","337-UY","2018/03/10 13:29:38","新北市永和區得和路243巷20號","121.520706666667","25.0009","6500400","永和區"
"234084","338-UY","2018/03/10 13:29:33","新北市永和區林森路62號","121.524038333333","25.0042033333333","6500400","永和區"
"234068","552-UM","2018/03/10 13:29:28","新北市永和區警光街5-1號","121.519695","25.0095083333333","6500400","永和區"
"234015","745-BX","2018/03/10 13:29:30","新北市永和區環河西路一段5號","121.515066666667","25.0180216666667","6500400","永和區"
"234028","746-BX","2018/03/10 13:29:25","新北市永和區民生路57號","121.522666666667","24.997595","6500400","永和區"
"234052","KEA-2590","2018/03/10 13:29:33","新北市永和區復興街21號","121.51608","25.013055","6500400","永和區"
"234012","KEA-2591","2018/03/10 13:29:34","新北市永和區永平路203巷1號","121.509298333333","25.009865","6500400","永和區"
"234060","AAD-866","2018/03/10 13:29:17","新北市永和區中正路568號","121.517143333333","25.0062066666667","6500400","永和區"
"234042","862-TW","2018/03/10 13:29:23","新北市永和區水源街39巷5號","121.510481666667","25.004055","6500400","永和區"
"234048","863-TW","2018/03/10 13:29:22","新北市永和區信義路81號","121.512411666667","25.013465","6500400","永和區"
"234025","9371-KE","2018/03/10 13:29:30","新北市永和區中正路742-1號","121.515093333333","25.010275","6500400","永和區"
"234010","9373-KE","2018/03/10 13:29:35","新北市永和區仁愛路88號","121.51256","25.0133016666667","6500400","永和區"
"248017","225-UY","2018/03/10 13:29:24","新北市五股區御史路300號","121.417776666667","25.10819","6501500","五股區"
"234022","9380-KE","2018/03/10 13:29:17","新北市永和區竹林路91巷45號","121.521348333333","25.01288","6500400","永和區"
"234076","969-R7","2018/03/10 13:29:19","新北市永和區中正路286巷7號","121.517726666667","24.9986616666667","6500400","永和區"
"234072","AAC-211","2018/03/10 13:29:31","新北市永和區光復街60巷20弄2號","121.517665","25.0175733333333","6500400","永和區"
"234066","AAC-212","2018/03/10 13:29:19","新北市永和區保平路186號","121.510533333333","25.0065216666667","6500400","永和區"
"234001","AAC-295","2018/03/10 13:29:25","新北市永和區永和路一段118號","121.513985","25.0077566666667","6500400","永和區"
"244005","248-BX","2018/03/10 13:29:32","新北市林口區南勢里73-2-20號","121.353416666667","25.0784666666667","6501700","林口區"
"231002","002-UM","2018/03/10 13:29:32","新北市新店區環河路62號","121.537005","24.9626283333333","6500600","新店區"
"231025","0293-UT","2018/03/10 13:29:24","新北市新店區中央七街61巷1號","121.528211666667","24.9764883333333","6500600","新店區"
"231028","046-UY","2018/03/10 13:29:24","新北市新店區安華路28-1號","121.519511666667","24.960825","6500600","新店區"
"231030","047-UY","2018/03/10 13:29:35","新北市新店區安康路一段351-1號","121.51954","24.9639333333333","6500600","新店區"
"231029","106-UY","2018/03/10 13:29:37","新北市新店區安康路二段380號","121.500608333333","24.9569983333333","6500600","新店區"
"231018","107-UY","2018/03/10 13:29:27","新北市新店區環河路111-10號","121.530671666667","24.9706133333333","6500600","新店區"
"231012","108-UY","2018/03/10 13:29:24","新北市新店區寶橋路6巷4號","121.543393333333","24.973455","6500600","新店區"
"231020","187-VK","2018/03/10 13:29:37","新北市新店區北宜路一段123-2號","121.54054","24.95332","6500600","新店區"
"231017","KEA-2219","2018/03/10 13:29:27","新北市新店區新烏路一段11巷1弄2號","121.547306666667","24.95135","6500600","新店區"
"231026","256-BX","2018/03/10 13:29:31","新北市新店區環河路29巷1號","121.536875","24.961305","6500600","新店區"
"231010","278-BY","2018/03/10 13:29:25","新北市新店區中正路412號","121.534385","24.9777516666667","6500600","新店區"
"231023","AAD-862","2018/03/10 13:29:19","新北市新店區北宜路一段168號","121.540315","24.9529383333333","6500600","新店區"
"231027","3712-VJ","2018/03/10 13:29:33","新北市新店區新店後街118號","121.537683333333","24.95553","6500600","新店區"
"231024","4716-K9","2018/03/10 13:29:14","新北市新店區中正路128巷17號","121.542561666667","24.9724233333333","6500600","新店區"
"231038","4715-K9","2018/03/10 13:29:20","新北市新店區安華路30巷1號","121.519575","24.9592833333333","6500600","新店區"
"231036","512-UM","2018/03/10 13:29:24","新北市新店區建業路96-1號","121.47969","24.9555366666667","6500600","新店區"
"231035","515-UM","2018/03/10 13:29:27","新北市新店區安康路一段355號","121.519943333333","24.963745","6500600","新店區"
"231006","617-UM","2018/03/10 13:29:22","新北市新店區安康路一段65號","121.530328333333","24.9610533333333","6500600","新店區"
"231001","619-UM","2018/03/10 13:29:35","新北市新店區環河路29巷1號","121.536956666667","24.9613966666667","6500600","新店區"
"231003","641-BX","2018/03/10 13:29:22","新北市新店區中正路96號","121.543433333333","24.970365","6500600","新店區"
"231034","645-TV","2018/03/10 13:29:33","新北市新店區車子路14號","121.504805","24.9538583333333","6500600","新店區"
"231013","719-UM","2018/03/10 13:29:34","新北市新店區中正路454-5號","121.53444","24.9790883333333","6500600","新店區"
"231033","720-UM","2018/03/10 13:29:21","新北市新店區安康路一段249-1號","121.524641666667","24.9633033333333","6500600","新店區"
"231005","897-TW","2018/03/10 13:29:38","新北市新店區寶中路72號","121.547803333333","24.9805633333333","6500600","新店區"
"231004","899-TW","2018/03/10 13:29:30","新北市新店區安康路一段84號","121.528085","24.9619116666667","6500600","新店區"
"231037","AKT-0513","2018/03/10 13:29:31","新北市新店區薏仁坑路29-1號","121.495743333333","24.9603366666667","6500600","新店區"
"235030","003-UY","2018/03/10 13:29:34","新北市中和區中山路二段122號","121.502623333333","25.00368","6500300","中和區"
"235028","005-UY","2018/03/10 13:29:17","新北市中和區圓通路141巷48弄9號","121.49853","24.9942333333333","6500300","中和區"
"235016","031-BX","2018/03/10 13:29:28","新北市中和區興南路一段88號","121.509866666667","24.9892683333333","6500300","中和區"
"235020","096-UM","2018/03/10 13:29:28","新北市中和區中山路二段594號","121.482338333333","25.0055416666667","6500300","中和區"
"235003","097-UM","2018/03/10 13:29:30","新北市中和區大勇街34號","121.517295","24.993385","6500300","中和區"
"235029","098-UM","2018/03/10 13:29:28","新北市中和區莊敬路49巷20弄24號","121.502768333333","25.0055683333333","6500300","中和區"
"235004","150-BY","2018/03/10 13:29:27","新北市中和區安平路59號","121.509616666667","24.9954116666667","6500300","中和區"
"235022","151-BY","2018/03/10 13:29:28","新北市中和區圓通路369巷152號","121.487973333333","24.9815816666667","6500300","中和區"
"235019","183-VK","2018/03/10 13:29:25","新北市中和區民享街283號","121.471578333333","24.996165","6500300","中和區"
"235002","185-VK","2018/03/10 13:29:24","新北市中和區立人街14巷40弄7號","121.519043333333","24.9957783333333","6500300","中和區"
"235013","186-VK","2018/03/10 13:29:36","新北市中和區景安路130號","121.505161666667","24.9944266666667","6500300","中和區"
"235031","255-BX","2018/03/10 13:29:35","新北市中和區員山路148巷42-4號","121.482515","24.9969666666667","6500300","中和區"
"235008","293-VK","2018/03/10 13:29:26","新北市中和區復興路301巷2弄2號","121.501491666667","24.9899883333333","6500300","中和區"
"235036","301-VK","2018/03/10 13:29:24","新北市中和區連城路261號","121.492595","24.9967066666667","6500300","中和區"
"235007","352-BY","2018/03/10 13:29:31","新北市中和區景平路315號","121.50629","24.993215","6500300","中和區"
"235032","377-QA","2018/03/10 13:29:27","新北市中和區圓通路282號","121.491573333333","24.99063","6500300","中和區"
"235025","378-QA","2018/03/10 13:29:27","新北市中和區民享街97巷11號","121.475203333333","24.9995216666667","6500300","中和區"
"235035","269-TV","2018/03/10 13:29:27","新北市中和區中山路二段486號","121.487645","25.005165","6500300","中和區"
"235014","4979-A6","2018/03/10 13:29:31","新北市中和區景新街362巷5號","121.511995","24.9901233333333","6500300","中和區"
"235033","4980-A6","2018/03/10 13:29:17","新北市中和區連城路127巷21號","121.496881666667","24.9980466666667","6500300","中和區"
"235006","551-UM","2018/03/10 13:29:37","新北市中和區景平路64巷26號","121.522393333333","24.99159","6500300","中和區"
"235009","565-BX","2018/03/10 13:29:37","新北市中和區復興路47號","121.504738333333","24.9899983333333","6500300","中和區"
"235018","640-BX","2018/03/10 13:29:25","新北市中和區民享街86巷2號","121.47442","25.0010916666667","6500300","中和區"
"235024","647-TV","2018/03/10 13:29:33","新北市中和區員山路162號","121.481305","24.9997266666667","6500300","中和區"
"235011","732-UM","2018/03/10 13:29:40","新北市中和區南山路493號","121.507986666667","24.9878616666667","6500300","中和區"
"235026","800-TS","2018/03/10 13:29:30","新北市中和區景平路732號","121.49666","25.003955","6500300","中和區"
"235021","801-TS","2018/03/10 13:29:35","新北市中和區民安街77號","121.478211666667","24.9997666666667","6500300","中和區"
"235005","802-TS","2018/03/10 13:29:24","新北市中和區中和路324巷6弄1號","121.509923333333","25.0005966666667","6500300","中和區"
"235012","896-TW","2018/03/10 13:29:21","新北市中和區中正路637巷60弄61號","121.485395","24.9932183333333","6500300","中和區"
"235017","900-TW","2018/03/10 13:29:36","新北市土城區金城路三段255號","121.47175","24.99006","6500300","中和區"
"235034","911-UM","2018/03/10 13:29:28","新北市中和區景平路568號","121.50204","24.9953416666667","6500300","中和區"
"235015","157-BY","2018/03/10 13:29:30","新北市中和區興南路二段142巷23號","121.503106666667","24.9838433333333","6500300","中和區"
"220013","072-UY","2018/03/10 13:29:20","新北市板橋區四川路二段130巷24號","121.449523333333","24.9942316666667","6500100","板橋區"
"220034","073-UY","2018/03/10 13:29:38","新北市板橋區南雅南路二段116號","121.452475","25.0005983333333","6500100","板橋區"
"247007","056-VK","2018/03/10 13:29:26","新北市五股區新五路二段258號","121.440961666667","25.08216","6501400","蘆洲區"
"247001","002-UY","2018/03/10 13:29:30","新北市五股區中興路三段163號","121.449301666667","25.080765","6501400","蘆洲區"
"228005","097-TW","2018/03/10 13:29:31","新北市貢寮區美豐里文秀坑8號","121.902446666667","25.0503266666667","6502600","貢寮區"
"228004","212-TW","2018/03/10 13:29:30","新北市貢寮區龍崗里石壁坑街17號","121.910381666667","24.9894783333333","6502600","貢寮區"
"253003","6232-TK","2018/03/10 13:29:27","新北市石門區石崩山20-7號","121.567596666667","25.2754583333333","6502200","石門區"
"253001","6251-TK","2018/03/10 13:29:33","新北市石門區下員坑33-2號","121.519458333333","25.2831016666667","6502200","石門區"
"253002","637-UY","2018/03/10 13:29:38","新北市石門區老崩山39-1號","121.563583333333","25.26635","6502200","石門區"
"253004","8270-PC","2018/03/10 13:29:17","新北市石門區竹子湖6號","121.616855","25.2612133333333","6502200","石門區"
"207002","749-BX","2018/03/10 13:29:21","新北市萬里區崁腳里崁腳路166號","121.645106666667","25.1558183333333","6502800","萬里區"
"252005","073-UM","2018/03/10 13:29:36","新北市三芝區福德里土地公埔72-1號","121.522386666667","25.2239066666667","6502100","三芝區"
"207001","662-BX","2018/03/10 13:29:24","新北市萬里區龜吼里新墾丁路122號","121.677793333333","25.20052","6502800","萬里區"
"208004","170-UY","2018/03/10 13:27:58","新北市金山區磺清路135號","121.639186666667","25.22751","",""
"236006","498-BY","2018/03/10 13:29:02","新北市土城區慶祥街86號","121.436018333333","24.9733083333333","6501300","土城區"
"236047","970-R7","2018/03/10 13:25:11","新北市土城區城林路6巷80號","121.438071666667","24.97956","6501300","土城區"
"221032","280-BY","2018/03/10 13:29:31","新北市汐止區水源路一段56號","121.657455","25.0655916666667","6501100","汐止區"
"220027","145-BY","2018/03/10 13:29:32","新北市板橋區華東街1-10號","121.4483","24.9950583333333","6500100","板橋區"
"220028","200-UY","2018/03/10 13:29:35","新北市板橋區華東街1-9號","121.448023333333","24.9948333333333","6500100","板橋區"
"220030","610-BX","2018/03/10 13:29:31","新北市板橋區華東街1-9號","121.448226666667","24.9949666666667","6500100","板橋區"
"220004","276-BY","2018/03/10 13:29:33","新北市板橋區華東街1-9號","121.448185","24.9949483333333","6500100","板橋區"
"220019","283-VK","2018/03/10 13:29:36","新北市板橋區華東街1-9號","121.448091666667","24.99488","6500100","板橋區"
"220029","287-VK","2018/03/10 13:29:28","新北市板橋區華東街1-10號","121.448273333333","24.9949883333333","6500100","板橋區"
"220032","296-UM","2018/03/10 13:29:39","新北市板橋區華東街1-9號","121.448098333333","24.9949433333333","6500100","板橋區"
"220104","560-BX","2018/03/10 13:29:25","新北市板橋區南雅南路二段114號","121.453248333333","25.000515","6500100","板橋區"
"220025","687-BX","2018/03/10 13:29:33","新北市板橋區篤行路一段37號","121.431955","24.9939683333333","6500100","板橋區"
"220002","741-BX","2018/03/10 13:29:31","新北市板橋區華東街1-9號","121.448136666667","24.9949283333333","6500100","板橋區"
"220003","827-TW","2018/03/10 13:29:21","新北市板橋區華東街1-9號","121.448155","24.99492","6500100","板橋區"
"220022","895-R6","2018/03/10 13:29:22","新北市板橋區華東街1-10號","121.448225","24.9949866666667","6500100","板橋區"
"220018","AAC-253","2018/03/10 13:29:33","新北市板橋區華東街1-9號","121.448271666667","24.9948733333333","6500100","板橋區"
"235027","KEA-2873","2018/03/10 13:29:34","新北市中和區連城路347巷16號","121.488428333333","24.9950666666667","6500300","中和區"
