"lineid","car","time","location","longitude","latitude","cityid","cityname"
"234005","207-UY","2018/03/10 14:29:27","新北市永和區安樂路164號","121.514711666667","25.00082","6500400","永和區"
"234078","298-R6","2018/03/10 14:29:31","新北市永和區永貞路82號","121.520163333333","25.004995","6500400","永和區"
"234036","336-UY","2018/03/10 14:29:23","新北市永和區環河東路四段38號","121.528676666667","24.99895","6500400","永和區"
"234062","337-UY","2018/03/10 14:29:39","新北市永和區中正路433號","121.517026666667","25.005045","6500400","永和區"
"234084","338-UY","2018/03/10 14:29:33","新北市永和區光復街27號","121.516555","25.0175183333333","6500400","永和區"
"234068","552-UM","2018/03/10 14:29:28","新北市永和區永亨路7號","121.519331666667","25.00574","6500400","永和區"
"234028","746-BX","2018/03/10 14:29:25","新北市永和區民族街182巷10號","121.517996666667","24.99724","6500400","永和區"
"234052","KEA-2590","2018/03/10 14:29:33","新北市永和區環河東路一段42號","121.518723333333","25.0170033333333","6500400","永和區"
"234060","AAD-866","2018/03/10 14:29:37","新北市永和區秀朗路一段175號","121.51705","25.00368","6500400","永和區"
"234042","862-TW","2018/03/10 14:29:23","新北市永和區安樂路340號","121.514435","25.00612","6500400","永和區"
"234048","863-TW","2018/03/10 14:29:22","新北市永和區保安路79號","121.508655","25.0147733333333","6500400","永和區"
"234025","9371-KE","2018/03/10 14:29:41","新北市中和區安樂路255號","121.514041666667","24.9998866666667","6500400","永和區"
"248017","225-UY","2018/03/10 14:23:23","新北市五股區壟路16號","121.415251666667","25.0855583333333","6501500","五股區"
"234022","9380-KE","2018/03/10 14:29:37","新北市永和區保生路55-1號","121.504468333333","25.010915","6500400","永和區"
"234072","AAC-211","2018/03/10 14:29:31","新北市永和區環河東路一段124號","121.520681666667","25.0154016666667","6500400","永和區"
"234001","AAC-295","2018/03/10 14:29:35","新北市永和區大新街47號","121.51562","25.0084566666667","6500400","永和區"
"231002","002-UM","2018/03/10 14:29:32","新北市新店區中正路349-1號","121.535346666667","24.9759466666667","6500600","新店區"
"231025","0293-UT","2018/03/10 14:29:24","新北市新店區民族路161號","121.5377","24.97673","6500600","新店區"
"231028","046-UY","2018/03/10 14:29:24","新北市新店區安康路二段149號","121.511126666667","24.95983","6500600","新店區"
"231030","047-UY","2018/03/10 14:29:37","新北市新店區安民街169號","121.516678333333","24.97029","6500600","新店區"
"231029","106-UY","2018/03/10 14:29:37","新北市新店區安康路二段416號","121.496443333333","24.9552083333333","6500600","新店區"
"231018","107-UY","2018/03/10 14:29:27","新北市新店區中央二街47號","121.52738","24.9741933333333","6500600","新店區"
"231012","108-UY","2018/03/10 14:29:24","新北市新店區寶橋路103號","121.548318333333","24.97689","6500600","新店區"
"231020","187-VK","2018/03/10 14:29:37","新北市新店區桂山路37號","121.562925","24.9045283333333","6500600","新店區"
"231017","KEA-2219","2018/03/10 14:29:27","新北市新店區北宜路三段124號","121.58067","24.9503333333333","6500600","新店區"
"231023","AAD-862","2018/03/10 14:29:21","新北市新店區光明街135號","121.539393333333","24.961975","6500600","新店區"
"231027","3712-VJ","2018/03/10 14:29:33","新北市新店區中正路76巷11弄22號","121.543695","24.9717983333333","6500600","新店區"
"231038","4715-K9","2018/03/10 14:29:20","新北市新店區溪洲路8巷2-2號","121.53354","24.9613416666667","6500600","新店區"
"231036","512-UM","2018/03/10 14:29:24","新北市新店區安祥路109巷129號","121.476885","24.9579983333333","6500600","新店區"
"231035","515-UM","2018/03/10 14:29:27","新北市新店區安光路13-1號","121.513391666667","24.9638316666667","6500600","新店區"
"231006","617-UM","2018/03/10 14:29:22","新北市新店區北宜路二段401號","121.559631666667","24.9544466666667","6500600","新店區"
"231001","619-UM","2018/03/10 14:29:35","新北市新店區北新路一段96巷23號","121.54293","24.9688083333333","6500600","新店區"
"231003","641-BX","2018/03/10 14:29:22","新北市新店區中興路一段273號","121.544998333333","24.9682416666667","6500600","新店區"
"231034","645-TV","2018/03/10 14:29:33","新北市新店區黎明路62巷1號","121.5024","24.9464383333333","6500600","新店區"
"231013","719-UM","2018/03/10 14:29:25","新北市新店區民權路108-1號","121.535986666667","24.9835433333333","6500600","新店區"
"231005","897-TW","2018/03/10 14:29:38","新北市新店區北新路三段83號","121.541605","24.9815483333333","6500600","新店區"
"231004","899-TW","2018/03/10 14:29:29","新北市新店區中正路263-3號","121.538403333333","24.9738666666667","6500600","新店區"
"231037","AKT-0513","2018/03/10 14:29:31","新北市新店區柴埕路49號","121.513755","24.9653916666667","6500600","新店區"
"235030","003-UY","2018/03/10 14:29:34","新北市中和區景新街61號","121.50469","24.9987966666667","6500300","中和區"
"235028","005-UY","2018/03/10 14:29:37","新北市中和區南山路81巷58號","121.503951666667","24.9981166666667","6500300","中和區"
"235016","031-BX","2018/03/10 14:29:28","新北市中和區華新街143巷67弄35號","121.507566666667","24.9792783333333","6500300","中和區"
"235020","096-UM","2018/03/10 14:29:28","新北市中和區員山路514巷2號","121.479536666667","25.0095916666667","6500300","中和區"
"235003","097-UM","2018/03/10 14:29:29","新北市中和區秀峰街103巷7弄4號","121.51948","24.98887","6500300","中和區"
"235029","098-UM","2018/03/10 14:29:28","新北市中和區永和路66巷2號","121.498793333333","25.0045316666667","6500300","中和區"
"235004","150-BY","2018/03/10 14:28:27","新北市中和區安樂路85號","121.51275","24.9945016666667","6500300","中和區"
"235022","151-BY","2018/03/10 14:29:28","新北市中和區員山路126-2號","121.481408333333","24.99604","6500300","中和區"
"235019","183-VK","2018/03/10 14:29:25","新北市中和區中山路三段181巷18弄11號","121.472658333333","25.00485","6500300","中和區"
"235002","185-VK","2018/03/10 14:29:24","新北市中和區自立路103號","121.522015","24.9947433333333","6500300","中和區"
"235013","186-VK","2018/03/10 14:29:36","新北市中和區景新街230巷2號","121.508116666667","24.9941333333333","6500300","中和區"
"235031","255-BX","2018/03/10 14:29:35","新北市中和區連城路340巷10弄3號","121.482845","24.9965933333333","6500300","中和區"
"235008","293-VK","2018/03/10 14:29:26","新北市中和區景安路206號","121.50401","24.990965","6500300","中和區"
"235036","301-VK","2018/03/10 14:29:24","新北市中和區中山路二段3巷22弄33號","121.505878333333","25.004155","6500300","中和區"
"235007","352-BY","2018/03/10 14:29:30","新北市中和區景平路300號","121.512626666667","24.992625","6500300","中和區"
"235032","377-QA","2018/03/10 14:29:27","新北市中和區廟美街8號","121.500955","25.0014633333333","6500300","中和區"
"235025","378-QA","2018/03/10 14:29:27","新北市中和區民安街1號","121.480826666667","25.000915","6500300","中和區"
"235035","269-TV","2018/03/10 14:29:27","新北市中和區連城路519號","121.482056666667","24.995295","6500300","中和區"
"235014","4979-A6","2018/03/10 14:29:31","新北市中和區連城路263巷26號","121.492535","24.994325","6500300","中和區"
"235033","4980-A6","2018/03/10 14:29:37","新北市中和區連城路128號","121.495993333333","24.9991483333333","6500300","中和區"
"235006","551-UM","2018/03/10 14:29:37","新北市中和區中安街226號","121.512216666667","24.9986716666667","6500300","中和區"
"235009","565-BX","2018/03/10 14:29:17","新北市中和區景新街423巷35弄19號","121.513861666667","24.9904633333333","6500300","中和區"
"235018","640-BX","2018/03/10 14:29:25","新北市中和區國光街112巷11弄1號","121.46967","25.001605","6500300","中和區"
"235024","647-TV","2018/03/10 14:29:33","新北市中和區員山路469巷1號","121.480361666667","25.0046616666667","6500300","中和區"
"235011","732-UM","2018/03/10 14:29:20","新北市中和區景平路239巷38號","121.508225","24.9921816666667","6500300","中和區"
"235010","733-UM","2018/03/10 14:29:23","新北市中和區忠孝街37巷67號","121.5106","24.9846633333333","6500300","中和區"
"235026","800-TS","2018/03/10 14:29:36","新北市中和區建六路59號","121.48676","25.0022016666667","6500300","中和區"
"235021","801-TS","2018/03/10 14:29:35","新北市中和區中山路三段31號","121.47913","25.0058933333333","6500300","中和區"
"235005","802-TS","2018/03/10 14:29:24","新北市中和區景安路26號","121.507348333333","24.9984483333333","6500300","中和區"
"235012","896-TW","2018/03/10 14:29:37","新北市中和區忠孝街60巷2弄4號","121.511618333333","24.9836883333333","6500300","中和區"
"235017","900-TW","2018/03/10 14:29:36","新北市中和區民德路188號","121.468271666667","24.99898","6500300","中和區"
"235034","911-UM","2018/03/10 14:29:28","新北市中和區中和路42號","121.500316666667","25.0010683333333","6500300","中和區"
"235015","157-BY","2018/03/10 14:29:30","新北市中和區興南路一段75號","121.510136666667","24.9891883333333","6500300","中和區"
"235023","AAC-215","2018/03/10 14:29:36","新北市中和區圓通路303號","121.493576666667","24.990985","6500300","中和區"
"220016","013-TV","2018/03/10 14:29:25","新北市板橋區中山路二段505巷2號","121.482565","25.021395","6500100","板橋區"
"220013","072-UY","2018/03/10 14:29:20","新北市板橋區實踐路93巷83號","121.46728","25.0058166666667","6500100","板橋區"
"220034","073-UY","2018/03/10 14:29:19","新北市板橋區中正路250巷93號","121.45947","25.0200566666667","6500100","板橋區"
"220105","075-UY","2018/03/10 14:29:31","新北市板橋區江寧路三段131巷2號","121.473643333333","25.03334","6500100","板橋區"
"220017","AAD-861","2018/03/10 14:29:38","新北市板橋區稚暉街46巷1號","121.456436666667","25.0043033333333","6500100","板橋區"
"247023","893-R6","2018/03/10 14:29:39","新北市蘆洲區中正路261號","121.467345","25.087345","6501400","蘆洲區"
"247013","546-UM","2018/03/10 14:29:31","新北市蘆洲區中山二路170號","121.470751666667","25.0808333333333","6501400","蘆洲區"
"247009","341-TH","2018/03/10 14:29:35","新北市蘆洲區三民路26巷20弄7號","121.477658333333","25.0827116666667","6501400","蘆洲區"
"247011","339-TH","2018/03/10 14:29:34","新北市蘆洲區中興街163號","121.482053333333","25.0897366666667","6501400","蘆洲區"
"247003","337-TH","2018/03/10 14:29:25","新北市蘆洲區長安街295號","121.458106666667","25.0847683333333","6501400","蘆洲區"
"247005","336-TH","2018/03/10 14:29:23","新北市蘆洲區長安街46巷10號","121.463743333333","25.0800666666667","6501400","蘆洲區"
"247017","057-VK","2018/03/10 14:29:27","新北市蘆洲區復興路227巷37號","121.478856666667","25.0916183333333","6501400","蘆洲區"
"247007","056-VK","2018/03/10 14:29:26","新北市蘆洲區民生街105號","121.473481666667","25.078735","6501400","蘆洲區"
"247019","053-VK","2018/03/10 14:29:35","新北市蘆洲區仁愛街101巷16號","121.470486666667","25.0939783333333","6501400","蘆洲區"
"247015","007-UY","2018/03/10 14:29:30","新北市蘆洲區中正路185巷78弄16號","121.465906666667","25.0846766666667","6501400","蘆洲區"
"247001","002-UY","2018/03/10 14:29:30","新北市蘆洲區永樂街38巷33弄60號","121.4564","25.0900466666667","6501400","蘆洲區"
"228005","097-TW","2018/03/10 14:29:31","新北市貢寮區美豐里巫里岸9-1號","121.90193","25.0701116666667","6502600","貢寮區"
"228004","212-TW","2018/03/10 14:29:30","新北市貢寮區雙玉里田寮洋街33-1號","121.932161666667","25.0136133333333","6502600","貢寮區"
"253003","6232-TK","2018/03/10 14:29:27","新北市石門區尖子鹿33號","121.582731666667","25.263025","6502200","石門區"
"253001","6251-TK","2018/03/10 14:29:33","新北市石門區八甲12-4號","121.522533333333","25.2817633333333","6502200","石門區"
"253002","637-UY","2018/03/10 14:24:18","新北市三芝區橫山里橫山39-5號","121.54571","25.2531533333333","6502200","石門區"
"253004","8270-PC","2018/03/10 14:29:37","新北市石門區內阿里磅37-1號","121.585325","25.2391816666667","6502200","石門區"
"207002","749-BX","2018/03/10 14:29:21","新北市萬里區崁腳里崁腳路73號","121.647558333333","25.1595933333333","6502800","萬里區"
"252005","073-UM","2018/03/10 14:29:36","新北市三芝區橫山里橫山21號","121.540203333333","25.262775","6502100","三芝區"
"207001","662-BX","2018/03/10 14:29:24","新北市萬里區磺潭里清水2-2號","121.642285","25.20153","6502800","萬里區"
"208004","170-UY","2018/03/10 14:20:49","新北市金山區磺清路135號","121.639171666667","25.2274966666667","",""
"236068","105-UM","2018/03/10 14:29:32","新北市土城區永豐路255巷12號","121.47543","24.97308","6501300","土城區"
"236041","107-UM","2018/03/10 14:29:30","新北市土城區裕民路67巷13號","121.449848333333","24.9882516666667","6501300","土城區"
"236075","166-UM","2018/03/10 14:29:33","新北市土城區大暖路61-2號","121.422075","24.9582583333333","6501300","土城區"
"236029","253-BX","2018/03/10 14:29:38","新北市土城區水源街30號","121.440873333333","24.9755533333333","6501300","土城區"
"236024","269-VK","2018/03/10 14:29:03","新北市土城區承天路18號","121.43943","24.9634366666667","6501300","土城區"
"236013","270-VK","2018/03/10 14:29:39","新北市土城區青雲路39巷7號","121.460365","24.9875683333333","6501300","土城區"
"236035","271-VK","2018/03/10 14:29:30","新北市土城區明德路一段309號","121.459601666667","24.97715","6501300","土城區"
"236017","401-BY","2018/03/10 14:29:32","新北市土城區永豐路143號","121.466575","24.9834783333333","6501300","土城區"
"236057","912-UM","2018/03/10 14:29:36","新北市土城區中央路四段390號","121.412736666667","24.9543","6501300","土城區"
"236045","913-UM","2018/03/10 14:29:25","新北市土城區青雲路449-1號","121.458706666667","24.9747483333333","6501300","土城區"
"236061","915-UM","2018/03/10 14:29:34","新北市土城區延壽路111巷1號","121.469038333333","24.9936616666667","6501300","土城區"
"236054","AAC-216","2018/03/10 14:29:21","新北市土城區中華路一段245號","121.44094","24.9817983333333","6501300","土城區"
"220027","145-BY","2018/03/10 14:29:32","新北市板橋區建國街1巷6號","121.457343333333","25.0170216666667","6500100","板橋區"
"220028","200-UY","2018/03/10 14:29:35","新北市板橋區大觀路二段37巷244號","121.44972","25.00175","6500100","板橋區"
"220030","610-BX","2018/03/10 14:29:31","新北市板橋區金門街223號","121.432195","24.989715","6500100","板橋區"
"220050","245-BX","2018/03/10 14:29:37","新北市板橋區縣民大道三段135號","121.47769","25.02329","6500100","板橋區"
"220047","257-TC","2018/03/10 14:29:22","新北市板橋區民生路三段299巷3號","121.463381666667","25.0304","6500100","板橋區"
"220004","276-BY","2018/03/10 14:29:33","新北市板橋區四川路一段481號","121.457435","24.99715","6500100","板橋區"
"220020","277-BY","2018/03/10 14:29:23","新北市板橋區篤行路二段143號","121.429806666667","24.9882366666667","6500100","板橋區"
"220043","280-UM","2018/03/10 14:29:33","新北市板橋區吳鳳路50巷73號","121.469853333333","25.0303433333333","6500100","板橋區"
"220019","283-VK","2018/03/10 14:29:36","新北市板橋區忠孝路2號","121.459411666667","25.001685","6500100","板橋區"
"220001","285-VK","2018/03/10 14:29:29","新北市板橋區永豐街211號","121.476766666667","25.0210883333333","6500100","板橋區"
"220031","286-VK","2018/03/10 14:29:37","新北市板橋區龍興街71巷6號","121.44352","25.0019683333333","6500100","板橋區"
"220029","287-VK","2018/03/10 14:29:28","新北市板橋區南雅西路一段10巷7弄1號","121.454676666667","25.004445","6500100","板橋區"
"220039","288-VK","2018/03/10 14:29:22","新北市板橋區裕民街87-4號","121.460438333333","25.0281","6500100","板橋區"
"220009","293-UM","2018/03/10 14:29:30","新北市板橋區中山路一段265巷36弄2號","121.469145","25.0150866666667","6500100","板橋區"
"220010","295-UM","2018/03/10 14:29:35","新北市板橋區三民路二段181巷12號","121.479793333333","25.0143083333333","6500100","板橋區"
"220032","296-UM","2018/03/10 14:29:39","新北市板橋區滿平二街32-3號","121.425203333333","24.9875333333333","6500100","板橋區"
"220023","303-R5","2018/03/10 14:29:28","新北市板橋區南雅西路一段116號","121.452511666667","25.0064583333333","6500100","板橋區"
"220041","307-R5","2018/03/10 14:29:27","新北市板橋區光武街2巷21號","121.468501666667","25.02542","6500100","板橋區"
"220012","486-VK","2018/03/10 14:29:40","新北市板橋區館前東路21號","121.460276666667","25.00725","6500100","板橋區"
"220038","487-VK","2018/03/10 14:29:32","新北市板橋區文化路一段145號","121.462348333333","25.0155666666667","6500100","板橋區"
"220037","491-VK","2018/03/10 14:29:19","新北市板橋區雙十路二段37-1號","121.476816666667","25.0258433333333","6500100","板橋區"
"220104","560-BX","2018/03/10 14:29:25","新北市板橋區中正路415號","121.454178333333","25.02268","6500100","板橋區"
"220052","561-BX","2018/03/10 14:29:38","新北市板橋區文化路一段266號","121.467221666667","25.0205533333333","6500100","板橋區"
"220011","609-BX","2018/03/10 14:29:31","新北市板橋區三民路二段140-3號","121.47912","25.0157666666667","6500100","板橋區"
"220040","637-BX","2018/03/10 14:29:24","新北市板橋區懷德街201巷1號","121.480776666667","25.0292716666667","6500100","板橋區"
"220005","686-BX","2018/03/10 14:29:28","新北市板橋區五權街61-4號","121.464788333333","24.9934366666667","6500100","板橋區"
"220025","687-BX","2018/03/10 14:29:33","新北市板橋區僑中二街92巷1號","121.446351666667","25.008845","6500100","板橋區"
"220042","689-BX","2018/03/10 14:29:24","新北市板橋區雨農路50號","121.461118333333","25.0244166666667","6500100","板橋區"
"220002","741-BX","2018/03/10 14:29:31","新北市板橋區光明街86號","121.46184","25.002795","6500100","板橋區"
"220051","KEA-2699","2018/03/10 14:29:28","新北市板橋區松柏街22巷32號","121.474978333333","25.029065","6500100","板橋區"
"220003","827-TW","2018/03/10 14:29:21","新北市板橋區重慶路290巷2號","121.4632","24.9991183333333","6500100","板橋區"
"220014","830-TW","2018/03/10 14:29:27","新北市板橋區長安街138巷1弄16號","121.473146666667","25.00967","6500100","板橋區"
"220045","831-TW","2018/03/10 14:29:29","新北市板橋區民生路二段226巷38號","121.471348333333","25.0221783333333","6500100","板橋區"
"220022","895-R6","2018/03/10 14:29:22","新北市板橋區倉後街1-6號","121.455455","25.009045","6500100","板橋區"
"220021","985-R7","2018/03/10 14:29:29","新北市板橋區新生街16號","121.455581666667","25.02113","6500100","板橋區"
"220046","AAC-210","2018/03/10 14:29:27","新北市板橋區幸福路60巷49號","121.460318333333","25.0213283333333","6500100","板橋區"
"220018","AAC-253","2018/03/10 14:29:33","新北市板橋區四川路一段74號","121.459701666667","25.0053516666667","6500100","板橋區"
"235027","KEA-2873","2018/03/10 14:29:34","新北市中和區連城路171巷41弄1號","121.496121666667","24.9965666666667","6500300","中和區"
