"lineid","car","time","location","longitude","latitude","cityid","cityname"
"248017","225-UY","2018/03/10 15:19:26","新北市五股區自強路90巷70號","121.430906666667","25.0714283333333","6501500","五股區"
"231002","002-UM","2018/03/10 15:19:32","新北市新店區中正路700巷3號","121.533486666667","24.99167","6500600","新店區"
"231025","0293-UT","2018/03/10 15:19:24","新北市新店區二十張路46巷37弄23號","121.536026666667","24.98156","6500600","新店區"
"231028","046-UY","2018/03/10 15:19:24","新北市新店區僑信路120巷40號","121.499281666667","24.94601","6500600","新店區"
"231030","047-UY","2018/03/10 15:19:35","新北市新店區安和路二段207號","121.517726666667","24.97526","6500600","新店區"
"231029","106-UY","2018/03/10 15:19:37","新北市新店區安康路三段740號","121.473815","24.9419666666667","6500600","新店區"
"231018","107-UY","2018/03/10 15:19:27","新北市新店區中央七街58號","121.52803","24.97621","6500600","新店區"
"231012","108-UY","2018/03/10 15:19:23","新北市新店區復興路32號","121.539048333333","24.986775","6500600","新店區"
"231020","187-VK","2018/03/10 15:19:37","新北市新店區花園二路三段21-3號","121.557001666667","24.9317866666667","6500600","新店區"
"231026","256-BX","2018/03/10 15:19:27","新北市新店區中正路263巷12號","121.538006666667","24.9730916666667","6500600","新店區"
"231023","AAD-862","2018/03/10 15:19:41","新北市新店區行政街20號","121.543181666667","24.965795","6500600","新店區"
"231027","3712-VJ","2018/03/10 15:19:33","新北市新店區吉安街14號","121.516735","24.9657683333333","6500600","新店區"
"231024","4716-K9","2018/03/10 15:19:34","新北市新店區北新路一段189號","121.540258333333","24.9645733333333","6500600","新店區"
"231036","512-UM","2018/03/10 15:19:30","新北市新店區安祥路104巷6弄5號","121.48159","24.9629466666667","6500600","新店區"
"231035","515-UM","2018/03/10 15:19:27","新北市新店區永平街6號","121.517438333333","24.9835533333333","6500600","新店區"
"231001","619-UM","2018/03/10 15:19:35","新北市新店區北新路一段189號","121.540305","24.9646733333333","6500600","新店區"
"231003","641-BX","2018/03/10 15:19:22","新北市新店區寶高路120巷1號","121.554613333333","24.976015","6500600","新店區"
"231034","645-TV","2018/03/10 15:19:33","新北市新店區如意街1巷2號","121.49573","24.9494916666667","6500600","新店區"
"231039","718-UY","2018/03/10 15:19:35","新北市新店區寶元路一段65號","121.542223333333","24.9858083333333","6500600","新店區"
"231005","897-TW","2018/03/10 15:19:38","新北市新店區建國路217號","121.537593333333","24.980855","6500600","新店區"
"231004","899-TW","2018/03/10 15:19:29","新北市新店區建國路29號","121.540198333333","24.974085","6500600","新店區"
"231037","AKT-0513","2018/03/10 15:19:31","新北市新店區安興路91巷41號","121.513585","24.9744916666667","6500600","新店區"
"235030","003-UY","2018/03/10 15:19:34","新北市中和區保平路326巷13號","121.506665","25.00454","6500300","中和區"
"235004","150-BY","2018/03/10 15:19:27","新北市中和區景安路79巷21號","121.507126666667","24.9968233333333","6500300","中和區"
"235014","4979-A6","2018/03/10 15:19:31","新北市中和區景平路464巷2弄1-4號","121.505858333333","24.9939733333333","6500300","中和區"
"235033","4980-A6","2018/03/10 15:19:37","新北市中和區圓通路165-1號","121.497753333333","24.9954883333333","6500300","中和區"
"235011","732-UM","2018/03/10 15:19:40","新北市新店區安興路105號","121.51498","24.97779","6500300","中和區"
"235012","896-TW","2018/03/10 15:19:41","新北市中和區景新街377號","121.512236666667","24.9904166666667","6500300","中和區"
"235023","AAC-215","2018/03/10 15:19:24","新北市中和區圓通路435巷2-13號","121.487743333333","24.98633","6500300","中和區"
"220017","AAD-861","2018/03/10 15:19:38","新北市五股區新五路二段558號","121.443145","25.0859266666667","6500100","板橋區"
"247002","002-UY","2018/03/10 15:17:41","新北市五股區中興路三段163號","121.44916","25.0808783333333","6501400","蘆洲區"
"253003","6232-TK","2018/03/10 15:19:26","新北市石門區小坑9號","121.594396666667","25.288405","6502200","石門區"
"253001","6251-TK","2018/03/10 15:19:33","新北市石門區小坑12-8號","121.595408333333","25.285375","6502200","石門區"
"253002","637-UY","2018/03/10 15:19:38","新北市石門區小坑9號","121.594496666667","25.28919","6502200","石門區"
"253004","8270-PC","2018/03/10 15:19:37","新北市石門區小坑29-1號","121.59827","25.270825","6502200","石門區"
"207002","749-BX","2018/03/10 15:19:27","新北市萬里區崁腳里內中福路2-1號","121.66883","25.16535","6502800","萬里區"
"207001","662-BX","2018/03/10 15:19:24","新北市萬里區大鵬里萬里加投10號","121.650601666667","25.20711","6502800","萬里區"
"236068","105-UM","2018/03/10 15:19:32","新北市土城區裕民路185巷36弄10號","121.454318333333","24.9844316666667","6501300","土城區"
"236041","107-UM","2018/03/10 15:19:30","新北市土城區裕民路259巷1號","121.455073333333","24.98328","6501300","土城區"
"236075","166-UM","2018/03/10 15:19:33","新北市土城區中州路65號","121.412496666667","24.9578383333333","6501300","土城區"
"236029","253-BX","2018/03/10 15:19:38","新北市土城區中華路一段203號","121.44293","24.984975","6501300","土城區"
"236024","269-VK","2018/03/10 15:19:23","新北市土城區中央路二段61巷26號","121.443261666667","24.9787066666667","6501300","土城區"
"236013","270-VK","2018/03/10 15:19:39","新北市土城區廣福街11號","121.457136666667","24.9889266666667","6501300","土城區"
"236035","271-VK","2018/03/10 15:19:37","新北市土城區國際路156號","121.467855","24.9764433333333","6501300","土城區"
"236017","401-BY","2018/03/10 15:19:23","新北市土城區峰廷街3號","121.469103333333","24.9873716666667","6501300","土城區"
"236057","912-UM","2018/03/10 15:19:36","新北市土城區中央路三段67號","121.438745","24.9693366666667","6501300","土城區"
"236045","913-UM","2018/03/10 15:19:25","新北市土城區明德路一段289號","121.460351666667","24.97727","6501300","土城區"
"236061","915-UM","2018/03/10 15:19:26","新北市土城區延和路105巷5弄1號","121.467293333333","24.991085","6501300","土城區"
"236054","AAC-216","2018/03/10 15:19:35","新北市土城區學府路一段42號","121.45793","24.9884966666667","6501300","土城區"
"220050","245-BX","2018/03/10 15:19:37","新北市板橋區縣民大道三段32號","121.471458333333","25.0189083333333","6500100","板橋區"
"220031","286-VK","2018/03/10 15:19:37","新北市板橋區僑中二街106巷24號","121.444858333333","25.0077733333333","6500100","板橋區"
"220038","487-VK","2018/03/10 15:19:32","新北市板橋區四維路137巷2號","121.464921666667","25.02523","6500100","板橋區"
"220037","491-VK","2018/03/10 15:19:39","新北市板橋區民治街59號","121.479545","25.033215","6500100","板橋區"
"220025","687-BX","2018/03/10 15:19:33","新北市板橋區華東街1-10號","121.448606666667","24.995015","6500100","板橋區"
"220042","689-BX","2018/03/10 15:19:32","新北市板橋區長江路一段142號","121.460745","25.0301966666667","6500100","板橋區"
"220051","KEA-2699","2018/03/10 15:19:28","新北市板橋區文化路一段114號","121.464843333333","25.018425","6500100","板橋區"
"220003","827-TW","2018/03/10 15:19:21","新北市板橋區國慶路213巷23號","121.462588333333","24.9971333333333","6500100","板橋區"
"220046","AAC-210","2018/03/10 15:19:24","新北市板橋區光正街43號","121.461816666667","25.0171566666667","6500100","板橋區"
"220018","AAC-253","2018/03/10 15:19:32","新北市板橋區四川路二段245巷34號","121.451488333333","24.9927316666667","6500100","板橋區"
