"lineid","car","time","location","longitude","latitude","cityid","cityname"
"231046","278-BY","2018/03/10 16:29:27","新北市新店區灣潭路3-3號","121.538165","24.9507383333333","6500600","新店區"
"241011","013-R5","2018/03/10 16:29:27","新北市三重區秀江街57號","121.500941666667","25.0726233333333","6500200","三重區"
"241028","022-UY","2018/03/10 16:29:34","新北市三重區同安街131號","121.493508333333","25.0562033333333","6500200","三重區"
"241008","059-VK","2018/03/10 16:29:25","新北市三重區力行路二段136巷45弄10號","121.479226666667","25.0753066666667","6500200","三重區"
"241009","060-VK","2018/03/10 16:29:27","新北市三重區三和路四段191巷70號","121.483955","25.07972","6500200","三重區"
"241031","061-VK","2018/03/10 16:29:36","新北市三重區重陽路一段59號","121.486693333333","25.0585366666667","6500200","三重區"
"241015","062-VK","2018/03/10 16:29:30","新北市三重區福德北路36-1號","121.501776666667","25.065195","6500200","三重區"
"241017","063-VK","2018/03/10 16:29:38","新北市三重區重新路二段97號","121.495681666667","25.0617066666667","6500200","三重區"
"241024","065-VK","2018/03/10 16:29:41","新北市三重區中正北路315巷16弄16號","121.475635","25.07179","6500200","三重區"
"241026","066-VK","2018/03/10 16:29:34","新北市三重區光興街1號","121.500341666667","25.0604166666667","6500200","三重區"
"241002","090-VK","2018/03/10 16:29:36","新北市三重區五華街9號","121.495083333333","25.0801433333333","6500200","三重區"
"241003","091-VK","2018/03/10 16:29:33","新北市三重區仁義街230巷7號","121.49425","25.0848166666667","6500200","三重區"
"241020","156-TC","2018/03/10 16:29:19","新北市三重區車路頭街37巷2號","121.483918333333","25.0718733333333","6500200","三重區"
"241005","262-UM","2018/03/10 16:29:37","新北市三重區碧華街246號","121.487538333333","25.0827833333333","6500200","三重區"
"241016","265-UM","2018/03/10 16:29:28","新北市三重區大智街23號","121.494188333333","25.0658783333333","6500200","三重區"
"241022","267-UM","2018/03/10 16:29:42","新北市三重區三民街65-1號","121.486073333333","25.06243","6500200","三重區"
"241018","268-UM","2018/03/10 16:29:40","新北市三重區重陽路四段62號","121.491885","25.07025","6500200","三重區"
"241013","270-UM","2018/03/10 16:29:35","新北市三重區仁愛街50號","121.496066666667","25.0727916666667","6500200","三重區"
"241025","271-UM","2018/03/10 16:29:29","新北市三重區中正北路560巷100弄2號","121.472423333333","25.06821","6500200","三重區"
"241007","398-BY","2018/03/10 16:29:24","新北市三重區三和路四段163巷108號","121.487703333333","25.0799733333333","6500200","三重區"
"241004","475-VK","2018/03/10 16:29:24","新北市三重區仁愛街377巷3號","121.492021666667","25.0805883333333","6500200","三重區"
"241001","478-VK","2018/03/10 16:29:34","新北市三重區福隆路22號","121.491565","25.0780333333333","6500200","三重區"
"241030","480-VK","2018/03/10 16:29:38","新北市三重區成功路112-4號","121.4856","25.0520066666667","6500200","三重區"
"241014","543-UM","2018/03/10 16:29:35","新北市三重區河邊北街70-3號","121.50435","25.0683966666667","6500200","三重區"
"241023","545-UM","2018/03/10 16:29:38","新北市三重區忠孝路三段50巷49號","121.483166666667","25.064335","6500200","三重區"
"241019","KEA-2593","2018/03/10 16:29:30","新北市三重區安慶街307號","121.48836","25.06724","6500200","三重區"
"241006","AAD-863","2018/03/10 16:29:36","新北市三重區力行路二段121號","121.48297","25.07646","6500200","三重區"
"241032","887-TS","2018/03/10 16:29:30","新北市三重區三陽路100巷3弄13號","121.482963333333","25.0581","6500200","三重區"
"241012","941-UM","2018/03/10 16:29:35","新北市三重區河邊北街272號","121.501613333333","25.0766316666667","6500200","三重區"
"241029","942-UM","2018/03/10 16:29:33","新北市三重區集美街126巷12號","121.48945","25.0537666666667","6500200","三重區"
"241033","AAC-255","2018/03/10 16:29:40","新北市三重區重新路五段432號","121.475135","25.04758","6500200","三重區"
"235004","150-BY","2018/03/10 16:14:28","新北市中和區和城路一段271巷1號","121.485363333333","24.99176","6500300","中和區"
"224007","275-VK","2018/03/10 16:29:38","新北市瑞芳區大埔路183號","121.763386666667","25.10207","6501200","瑞芳區"
"224005","271-BY","2018/03/10 16:29:38","新北市瑞芳區連福新城25號","121.820408333333","25.1189416666667","6501200","瑞芳區"
"227010","642-TC","2018/03/10 16:29:23","新北市雙溪區三港里雙澳路35-1號","121.868291666667","25.0506183333333","6502500","雙溪區"
"227002","400-TW","2018/03/10 16:29:31","新北市雙溪區上林里內平林120-2號","121.824461666667","25.0262866666667","6502500","雙溪區"
"251013","179-VK","2018/03/10 16:29:32","新北市淡水區楓樹湖12-7號","121.498408333333","25.18808","6501000","淡水區"
"251008","181-VK","2018/03/10 16:29:27","新北市淡水區民權路41號","121.460448333333","25.1403116666667","6501000","淡水區"
"251015","182-VK","2018/03/10 16:29:37","新北市淡水區中正路二段31號","121.41915","25.1818816666667","6501000","淡水區"
"251011","650-BX","2018/03/10 16:29:37","新北市淡水區中正路二段31號","121.419258333333","25.1816883333333","6501000","淡水區"
"252002","178-VK","2018/03/10 16:29:36","新北市三芝區茂長里陳厝坑64-2號","121.511756666667","25.2548333333333","6502100","三芝區"
