"lineid","car","time","location","longitude","latitude","cityid","cityname"
"249005","172-UM","2018/03/10 16:39:37","新北市八里區忠八街59-1號","121.41917","25.1613133333333","6502300","八里區"
"231046","278-BY","2018/03/10 16:39:28","新北市新店區灣潭路78號","121.538113333333","24.9414866666667","6500600","新店區"
"241011","013-R5","2018/03/10 16:39:22","新北市三重區仁愛街51號","121.496486666667","25.0718216666667","6500200","三重區"
"241028","022-UY","2018/03/10 16:39:34","新北市三重區重新路三段49號","121.49302","25.0611916666667","6500200","三重區"
"241008","059-VK","2018/03/10 16:39:29","新北市三重區永安北路一段27巷38號","121.477616666667","25.075615","6500200","三重區"
"241009","060-VK","2018/03/10 16:39:27","新北市三重區三和路四段203巷87號","121.484131666667","25.07998","6500200","三重區"
"241031","061-VK","2018/03/10 16:39:36","新北市三重區重新路四段41巷14號","121.487613333333","25.0579366666667","6500200","三重區"
"241015","062-VK","2018/03/10 16:39:30","新北市三重區文化北路37-2號","121.498981666667","25.065055","6500200","三重區"
"241017","063-VK","2018/03/10 16:39:38","新北市三重區中正北路25巷2號","121.493193333333","25.0627833333333","6500200","三重區"
"241024","065-VK","2018/03/10 16:39:21","新北市三重區中正北路315巷6弄80號","121.477161666667","25.072515","6500200","三重區"
"241026","066-VK","2018/03/10 16:39:34","新北市三重區福和街5號","121.502768333333","25.061765","6500200","三重區"
"241002","090-VK","2018/03/10 16:39:36","新北市三重區仁義街241巷6號","121.496475","25.0828166666667","6500200","三重區"
"241003","091-VK","2018/03/10 16:39:33","新北市三重區五華街71巷22號","121.492965","25.0831166666667","6500200","三重區"
"241020","156-TC","2018/03/10 16:39:40","新北市三重區後竹圍街177號","121.48587","25.0717866666667","6500200","三重區"
"241005","262-UM","2018/03/10 16:39:28","新北市三重區碧華街167號","121.486931666667","25.0823316666667","6500200","三重區"
"241016","265-UM","2018/03/10 16:39:28","新北市三重區大智街1-1號","121.494785","25.0649616666667","6500200","三重區"
"241022","267-UM","2018/03/10 16:39:36","新北市三重區新北大道一段140號","121.484581666667","25.0615366666667","6500200","三重區"
"241018","268-UM","2018/03/10 16:39:40","新北市三重區六張街71號","121.49358","25.0702633333333","6500200","三重區"
"241013","270-UM","2018/03/10 16:39:35","新北市三重區三和路三段101巷64號","121.496261666667","25.0730033333333","6500200","三重區"
"241025","271-UM","2018/03/10 16:39:29","新北市三重區中正北路422號","121.474773333333","25.0709583333333","6500200","三重區"
"241007","398-BY","2018/03/10 16:39:24","新北市三重區三和路四段167巷81號","121.486461666667","25.0797233333333","6500200","三重區"
"241004","475-VK","2018/03/10 16:39:24","新北市三重區五福街20號","121.492748333333","25.0813616666667","6500200","三重區"
"241001","478-VK","2018/03/10 16:39:34","新北市三重區仁政街86巷2號","121.49242","25.0775566666667","6500200","三重區"
"241030","480-VK","2018/03/10 16:39:38","新北市三重區環河南路286號","121.489113333333","25.0488583333333","6500200","三重區"
"241014","543-UM","2018/03/10 16:39:35","新北市三重區龍濱路40號","121.502765","25.0683933333333","6500200","三重區"
"241023","545-UM","2018/03/10 16:39:24","新北市三重區忠孝路三段50巷82號","121.482953333333","25.0645133333333","6500200","三重區"
"241019","KEA-2593","2018/03/10 16:39:30","新北市三重區力行路一段149號","121.48547","25.06869","6500200","三重區"
"241006","AAD-863","2018/03/10 16:39:29","新北市三重區車路頭街136巷6號","121.483645","25.075365","6500200","三重區"
"241032","887-TS","2018/03/10 16:39:30","新北市三重區新北大道一段19號","121.486551666667","25.06143","6500200","三重區"
"241012","941-UM","2018/03/10 16:39:35","新北市三重區仁興街4巷10號","121.49962","25.07368","6500200","三重區"
"241029","942-UM","2018/03/10 16:39:33","新北市三重區集美街112巷13號","121.489448333333","25.054145","6500200","三重區"
"241033","AAC-255","2018/03/10 16:39:40","新北市三重區光復路二段90號","121.47209","25.0576716666667","6500200","三重區"
"235004","150-BY","2018/03/10 16:14:28","新北市中和區和城路一段271巷1號","121.485363333333","24.99176","6500300","中和區"
"235046","733-UM","2018/03/10 16:35:03","新北市中和區員山路36巷13號","121.484143333333","24.9908616666667","6500300","中和區"
"247006","336-TH","2018/03/10 16:39:41","新北市五股區中興路三段5號","121.450061666667","25.0797266666667","6501400","蘆洲區"
"247002","002-UY","2018/03/10 16:39:28","新北市五股區中興路三段163號","121.449293333333","25.0806083333333","6501400","蘆洲區"
"228002","585-TW","2018/03/10 16:39:35","新北市貢寮區貢寮里朝陽街2號","121.912523333333","25.0215916666667","6502600","貢寮區"
"224008","285-BY","2018/03/10 16:39:27","新北市瑞芳區民權街3-1號","121.809245","25.1083583333333","6501200","瑞芳區"
"224007","275-VK","2018/03/10 16:39:38","新北市瑞芳區中央路4號","121.761896666667","25.10393","6501200","瑞芳區"
"224005","271-BY","2018/03/10 16:39:38","新北市瑞芳區洞頂路132-1號","121.862081666667","25.1235283333333","6501200","瑞芳區"
"227010","642-TC","2018/03/10 16:39:23","新北市雙溪區牡丹里中正路97號","121.861935","25.0471666666667","6502500","雙溪區"
"227002","400-TW","2018/03/10 16:39:31","新北市雙溪區外柑里外柑腳58號","121.80792","25.017895","6502500","雙溪區"
"251013","179-VK","2018/03/10 16:39:32","新北市淡水區楓樹湖1-1號","121.495196666667","25.18956","6501000","淡水區"
"251008","181-VK","2018/03/10 16:37:27","新北市淡水區樹梅坑10-1號","121.474296666667","25.141785","6501000","淡水區"
"251015","182-VK","2018/03/10 16:39:37","新北市淡水區水源街一段31-1號","121.443441666667","25.1723783333333","6501000","淡水區"
"251016","442-VK","2018/03/10 16:39:37","新北市淡水區水頭42號","121.478413333333","25.1851033333333","6501000","淡水區"
"251007","577-R6","2018/03/10 16:39:38","新北市淡水區中正路二段31號","121.41954","25.18148","6501000","淡水區"
"251011","650-BX","2018/03/10 16:39:37","新北市淡水區馬偕街28號","121.437696666667","25.17303","6501000","淡水區"
"252002","178-VK","2018/03/10 16:39:24","新北市三芝區茂長里陳厝坑15號","121.516808333333","25.2549116666667","6502100","三芝區"
"208004","170-UY","2018/03/10 16:36:17","新北市金山區磺清路135號","121.63918","25.2275016666667","",""
