"lineid","car","time","location","longitude","latitude","cityid","cityname"
"249005","172-UM","2018/03/10 16:59:37","新北市八里區渡船頭3-15號","121.43361","25.15368","6502300","八里區"
"249001","173-UM","2018/03/10 16:59:23","新北市八里區中山路三段106號","121.39186","25.1428033333333","6502300","八里區"
"249004","303-UY","2018/03/10 16:59:41","新北市八里區挖子尾街20號","121.415486666667","25.16496","6502300","八里區"
"249002","305-UY","2018/03/10 16:59:30","新北市八里區牛寮埔21號","121.43243","25.1431216666667","6502300","八里區"
"249003","593-UM","2018/03/10 16:59:26","新北市八里區中山路二段370號","121.401028333333","25.14811","6502300","八里區"
"244007","080-UY","2018/03/10 16:59:30","新北市林口區中湖43-5號","121.381763333333","25.09239","6501700","林口區"
"244023","483-VK","2018/03/10 16:59:23","新北市林口區粉寮69號","121.405103333333","25.0908","6501700","林口區"
"231046","278-BY","2018/03/10 16:59:27","新北市新店區新潭路一段39巷8號","121.526115","24.9430866666667","6500600","新店區"
"241011","013-R5","2018/03/10 16:59:42","新北市三重區仁愛街55巷90號","121.498185","25.0725933333333","6500200","三重區"
"241028","022-UY","2018/03/10 16:59:34","新北市三重區中正南路32號","121.493711666667","25.0602283333333","6500200","三重區"
"241008","059-VK","2018/03/10 16:59:25","新北市三重區永福街179巷25號","121.478051666667","25.0749583333333","6500200","三重區"
"241009","060-VK","2018/03/10 16:59:27","新北市三重區溪尾街218巷53號","121.48595","25.0808516666667","6500200","三重區"
"241031","061-VK","2018/03/10 16:59:36","新北市三重區重新路三段115巷2號","121.490606666667","25.0598683333333","6500200","三重區"
"241015","062-VK","2018/03/10 16:59:30","新北市三重區三和路二段1-4號","121.501628333333","25.0665566666667","6500200","三重區"
"241017","063-VK","2018/03/10 16:59:38","新北市三重區大仁街3巷35號","121.492625","25.063885","6500200","三重區"
"241024","065-VK","2018/03/10 16:59:41","新北市三重區大勇街82巷26弄34號","121.478356666667","25.071945","6500200","三重區"
"241026","066-VK","2018/03/10 16:59:34","新北市三重區文化南路42號","121.500393333333","25.0602633333333","6500200","三重區"
"241002","090-VK","2018/03/10 16:59:36","新北市三重區仁義街101巷2號","121.497835","25.0798333333333","6500200","三重區"
"241003","091-VK","2018/03/10 16:59:33","新北市三重區集賢路87-1號","121.493611666667","25.0868566666667","6500200","三重區"
"241020","156-TC","2018/03/10 16:59:39","新北市三重區國道路一段8號","121.486096666667","25.0733633333333","6500200","三重區"
"241005","262-UM","2018/03/10 16:59:37","新北市三重區碧華街53號","121.48471","25.08166","6500200","三重區"
"241016","265-UM","2018/03/10 16:59:28","新北市三重區大同北路111號","121.494195","25.0642716666667","6500200","三重區"
"241022","267-UM","2018/03/10 16:59:22","新北市三重區中華路121號","121.483638333333","25.0637916666667","6500200","三重區"
"241018","268-UM","2018/03/10 16:59:40","新北市三重區六張街126巷2弄26號","121.492601666667","25.0695133333333","6500200","三重區"
"241013","270-UM","2018/03/10 16:59:35","新北市三重區公園街32號","121.498346666667","25.0742216666667","6500200","三重區"
"241025","271-UM","2018/03/10 16:59:38","新北市三重區中正北路510號","121.472633333333","25.0714983333333","6500200","三重區"
"241007","398-BY","2018/03/10 16:59:24","新北市三重區三和路四段181巷157號","121.486198333333","25.0799666666667","6500200","三重區"
"241004","475-VK","2018/03/10 16:59:24","新北市三重區五華街98巷21號","121.491805","25.0819533333333","6500200","三重區"
"241001","478-VK","2018/03/10 16:59:34","新北市三重區仁愛街245巷14號","121.493923333333","25.078285","6500200","三重區"
"241030","480-VK","2018/03/10 16:59:38","新北市三重區昌隆街64號","121.491195","25.05094","6500200","三重區"
"241014","543-UM","2018/03/10 16:59:35","新北市三重區三和路二段173巷153號","121.501246666667","25.0705683333333","6500200","三重區"
"241023","545-UM","2018/03/10 16:59:44","新北市三重區忠孝路三段84巷1號","121.480153333333","25.0643883333333","6500200","三重區"
"241019","KEA-2593","2018/03/10 16:59:30","新北市三重區自強路二段74巷21號","121.487955","25.0698816666667","6500200","三重區"
"241006","AAD-863","2018/03/10 16:59:29","新北市三重區車路頭街117巷45號","121.48536","25.075535","6500200","三重區"
"241032","887-TS","2018/03/10 16:59:30","新北市三重區新北大道一段33號","121.48609","25.061275","6500200","三重區"
"241012","941-UM","2018/03/10 16:59:35","新北市三重區仁和街131號","121.49897","25.07442","6500200","三重區"
"241029","942-UM","2018/03/10 16:59:33","新北市三重區中正南路260-1號","121.493221666667","25.0528533333333","6500200","三重區"
"241033","AAC-255","2018/03/10 16:59:40","新北市三重區中興北街271號","121.469193333333","25.060595","6500200","三重區"
"235046","733-UM","2018/03/10 16:35:03","新北市中和區員山路36巷13號","121.484143333333","24.9908616666667","6500300","中和區"
"247024","893-R6","2018/03/10 16:59:33","新北市蘆洲區長興路202號","121.460671666667","25.0873766666667","6501400","蘆洲區"
"247014","546-UM","2018/03/10 16:59:40","新北市蘆洲區中央路20巷14號","121.474098333333","25.0828","6501400","蘆洲區"
"247010","341-TH","2018/03/10 16:59:36","新北市蘆洲區信義路201號","121.478891666667","25.0831466666667","6501400","蘆洲區"
"247012","339-TH","2018/03/10 16:59:39","新北市蘆洲區復興路186號","121.478098333333","25.088645","6501400","蘆洲區"
"247004","337-TH","2018/03/10 16:59:37","新北市蘆洲區長安街137號","121.460753333333","25.0813933333333","6501400","蘆洲區"
"247006","336-TH","2018/03/10 16:59:21","新北市蘆洲區長安街111巷32弄2號","121.460526666667","25.080155","6501400","蘆洲區"
"247018","057-VK","2018/03/10 16:59:40","新北市蘆洲區民族路223號","121.477451666667","25.0895116666667","6501400","蘆洲區"
"247008","056-VK","2018/03/10 16:59:25","新北市蘆洲區信義路56號","121.47543","25.0796583333333","6501400","蘆洲區"
"247020","053-VK","2018/03/10 16:59:41","新北市蘆洲區民族路422巷82弄10號","121.474158333333","25.093765","6501400","蘆洲區"
"247016","007-UY","2018/03/10 16:59:24","新北市蘆洲區正和街12號","121.470243333333","25.08254","6501400","蘆洲區"
"247002","002-UY","2018/03/10 16:59:28","新北市蘆洲區永平街24號","121.459045","25.0907883333333","6501400","蘆洲區"
"228003","097-TW","2018/03/10 16:59:32","新北市貢寮區福隆里興隆街13-5號","121.944178333333","25.016575","6502600","貢寮區"
"228001","212-TW","2018/03/10 16:59:31","新北市貢寮區貢寮里朝陽街1-2號","121.912078333333","25.0213666666667","6502600","貢寮區"
"228002","585-TW","2018/03/10 16:59:35","新北市貢寮區貢寮里朝陽街1號","121.90992","25.0212516666667","6502600","貢寮區"
"224006","676-BX","2018/03/10 16:59:39","新北市瑞芳區大寮路14號","121.783763333333","25.0993733333333","6501200","瑞芳區"
"224008","285-BY","2018/03/10 16:59:27","新北市瑞芳區明燈路一段199號","121.818678333333","25.10787","6501200","瑞芳區"
"224007","275-VK","2018/03/10 16:59:38","新北市瑞芳區瑞竹路8號","121.765161666667","25.1032816666667","6501200","瑞芳區"
"224009","273-VK","2018/03/10 16:59:40","新北市瑞芳區明燈路一段1號","121.83172","25.11173","6501200","瑞芳區"
"224005","271-BY","2018/03/10 16:59:38","新北市瑞芳區南雅路29-1號","121.88801","25.1205883333333","6501200","瑞芳區"
"227010","642-TC","2018/03/10 16:59:43","新北市雙溪區牡丹里聖南21號","121.85849","25.0533133333333","6502500","雙溪區"
"227002","400-TW","2018/03/10 16:59:31","新北市雙溪區長源里柑腳26號","121.804446666667","25.0142333333333","6502500","雙溪區"
"251009","008-UM","2018/03/10 16:59:32","新北市淡水區中正路233-2號","121.435508333333","25.1733266666667","6501000","淡水區"
"251004","009-UM","2018/03/10 16:59:34","新北市淡水區中正東路40-2號","121.449761666667","25.1653966666667","6501000","淡水區"
"251013","179-VK","2018/03/10 16:59:32","新北市淡水區泉洲厝32號","121.489401666667","25.192495","6501000","淡水區"
"251014","180-VK","2018/03/10 16:59:38","新北市淡水區淡金路四段472巷24號","121.452968333333","25.2240033333333","6501000","淡水區"
"251008","181-VK","2018/03/10 16:59:27","新北市淡水區樹梅坑9號","121.472651666667","25.1427166666667","6501000","淡水區"
"251015","182-VK","2018/03/10 16:59:37","新北市淡水區忠愛街9號","121.456495","25.1743966666667","6501000","淡水區"
"251010","413-VK","2018/03/10 16:59:29","新北市淡水區沙崙路172號","121.424256666667","25.18362","6501000","淡水區"
"251012","441-VK","2018/03/10 16:59:35","新北市淡水區中正路342號","121.435073333333","25.1736383333333","6501000","淡水區"
"251016","442-VK","2018/03/10 16:59:37","新北市淡水區瓦坑5號","121.477678333333","25.1809133333333","6501000","淡水區"
"251005","443-VK","2018/03/10 16:59:40","新北市淡水區中正路253號","121.4334","25.1744433333333","6501000","淡水區"
"251006","561-UM","2018/03/10 16:59:23","新北市淡水區中正路一段66號","121.425266666667","25.177015","6501000","淡水區"
"251007","577-R6","2018/03/10 16:59:38","新北市淡水區中正東路二段19號","121.458875","25.1567466666667","6501000","淡水區"
"251011","650-BX","2018/03/10 16:59:37","新北市淡水區坪頂路50號","121.457933333333","25.1624533333333","6501000","淡水區"
"252002","178-VK","2018/03/10 16:59:24","新北市三芝區忠孝街175號","121.505381666667","25.2614033333333","6502100","三芝區"
"252001","292-VK","2018/03/10 16:59:35","新北市三芝區淡金路二段47-2號","121.5036","25.2605816666667","6502100","三芝區"
"208004","170-UY","2018/03/10 16:36:17","新北市金山區磺清路135號","121.63918","25.2275016666667","",""
"242053","751-BX","2018/03/10 16:59:27","新北市新莊區新泰路357巷3弄57號","121.442073333333","25.0390983333333","6500500","新莊區"
"242029","612-BX","2018/03/10 16:59:27","新北市新莊區新泰路357巷3弄57號","121.441743333333","25.039425","6500500","新莊區"
"242042","566-BX","2018/03/10 16:59:21","新北市新莊區新泰路255巷83號","121.442063333333","25.039045","6500500","新莊區"
"242046","497-BY","2018/03/10 16:59:26","新北市新莊區新泰路357巷3弄57號","121.442351666667","25.039645","6500500","新莊區"
"242051","441-UM","2018/03/10 16:59:30","新北市新莊區三和路12-21號","121.44192","25.0383166666667","6500500","新莊區"
"242036","415-TV","2018/03/10 16:59:33","新北市新莊區新泰路357巷3弄57號","121.442005","25.03935","6500500","新莊區"
"242007","413-TV","2018/03/10 16:59:25","新北市新莊區新泰路357巷3弄57號","121.442003333333","25.0394366666667","6500500","新莊區"
"242044","400-BY","2018/03/10 16:59:39","新北市新莊區新泰路357巷3弄57號","121.442213333333","25.0396316666667","6500500","新莊區"
"242023","362-BY","2018/03/10 16:59:29","新北市新莊區新泰路255巷83號","121.44246","25.0386733333333","6500500","新莊區"
"242039","133-UY","2018/03/10 16:59:24","新北市新莊區三和路12-21號","121.442023333333","25.0388366666667","6500500","新莊區"
"242017","175-VK","2018/03/10 16:59:31","新北市新莊區三和路12-21號","121.441936666667","25.038605","6500500","新莊區"
"242011","347-TH","2018/03/10 16:59:26","新北市新莊區三和路12-17號","121.441946666667","25.0375633333333","6500500","新莊區"
"242021","348-TH","2018/03/10 16:59:20","新北市新莊區新泰路357巷3弄57號","121.442078333333","25.0395233333333","6500500","新莊區"
"242002","349-TH","2018/03/10 16:59:26","新北市新莊區三和路12-15號","121.44192","25.037335","6500500","新莊區"
"242013","351-TH","2018/03/10 16:59:27","新北市新莊區新泰路357巷3弄57號","121.441935","25.0393966666667","6500500","新莊區"
"238019","599-UM","2018/03/10 16:59:37","新北市樹林區育德街78-1號","121.387973333333","24.96829","6500700","樹林區"
"238022","KEA-2213","2018/03/10 16:40:01","新北市樹林區育德街78號","121.387896666667","24.96835","6500700","樹林區"
"238025","303-VK","2018/03/10 16:59:44","新北市樹林區育德街78號","121.388078333333","24.9683116666667","6500700","樹林區"
"238026","172-UY","2018/03/10 16:59:27","新北市樹林區育德街78號","121.387821666667","24.9683966666667","6500700","樹林區"
"238016","169-UY","2018/03/10 16:58:48","新北市樹林區育德街78-1號","121.387698333333","24.96816","6500700","樹林區"
"239007","AAC-297","2018/03/10 16:59:32","新北市鶯歌區二甲路9-2號","121.346741666667","24.9374566666667","6500800","鶯歌區"
"239006","891-R6","2018/03/10 16:59:33","新北市鶯歌區二甲路171-1號","121.344553333333","24.9356283333333","6500800","鶯歌區"
"239005","526-UM","2018/03/10 16:59:38","新北市鶯歌區環河路85-1號","121.347721666667","24.9401483333333","6500800","鶯歌區"
"239002","359-BY","2018/03/10 16:59:35","新北市鶯歌區環河路85號","121.347275","24.9391766666667","6500800","鶯歌區"
"242056","280-VK","2018/03/10 16:59:31","新北市新莊區三和路12-21號","121.441818333333","25.0382716666667","6500500","新莊區"
