"lineid","car","time","location","longitude","latitude","cityid","cityname"
"249005","172-UM","2018/03/10 17:19:37","新北市五股區中直路70號","121.415538333333","25.12342","6502300","八里區"
"249001","173-UM","2018/03/10 17:19:23","新北市八里區中華路二段165巷3號","121.407663333333","25.1508666666667","6502300","八里區"
"249004","303-UY","2018/03/10 17:19:36","新北市八里區賢三街23號","121.418831666667","25.1590316666667","6502300","八里區"
"249002","305-UY","2018/03/10 17:19:30","新北市八里區龍米路二段117巷29-1號","121.446173333333","25.1429166666667","6502300","八里區"
"249003","593-UM","2018/03/10 17:19:26","新北市八里區中山路二段453-1號","121.396308333333","25.1456083333333","6502300","八里區"
"244007","080-UY","2018/03/10 17:19:30","新北市林口區湖子11號","121.38735","25.0896216666667","6501700","林口區"
"244019","402-UM","2018/03/10 17:19:40","新北市林口區文化一路一段190巷7弄2-1號","121.38024","25.07491","6501700","林口區"
"244025","742-UY","2018/03/10 17:19:37","新北市林口區仁愛二路63號","121.368486666667","25.0754666666667","6501700","林口區"
"244023","483-VK","2018/03/10 17:19:23","新北市林口區仁愛路一段649號","121.388326666667","25.0764066666667","6501700","林口區"
"244021","838-TS","2018/03/10 17:19:23","新北市林口區粉寮路二段160巷18號","121.405575","25.09277","6501700","林口區"
"231046","278-BY","2018/03/10 17:19:27","新北市新店區直潭路92號","121.530906666667","24.9376416666667","6500600","新店區"
"241011","013-R5","2018/03/10 17:19:31","新北市三重區龍濱路191號","121.501961666667","25.071115","6500200","三重區"
"241028","022-UY","2018/03/10 17:19:34","新北市三重區仁化街66號","121.493936666667","25.0589483333333","6500200","三重區"
"241008","059-VK","2018/03/10 17:19:25","新北市三重區永福街72巷37號","121.480378333333","25.0762566666667","6500200","三重區"
"241009","060-VK","2018/03/10 17:19:27","新北市三重區仁愛街664號","121.482478333333","25.0803733333333","6500200","三重區"
"241015","062-VK","2018/03/10 17:19:30","新北市三重區長元街82-1號","121.501863333333","25.0663033333333","6500200","三重區"
"241017","063-VK","2018/03/10 17:19:38","新北市三重區大同北路85號","121.494818333333","25.0636383333333","6500200","三重區"
"241024","065-VK","2018/03/10 17:19:41","新北市三重區中正北路165巷15號","121.479208333333","25.0705383333333","6500200","三重區"
"241026","066-VK","2018/03/10 17:19:34","新北市三重區中央南路14巷3號","121.501818333333","25.0628433333333","6500200","三重區"
"241002","090-VK","2018/03/10 17:19:39","新北市三重區仁愛街355號","121.491906666667","25.08002","6500200","三重區"
"241003","091-VK","2018/03/10 17:19:33","新北市三重區五華街150號","121.491163333333","25.0840333333333","6500200","三重區"
"241020","156-TC","2018/03/10 17:19:39","新北市三重區永德街17號","121.48905","25.0725633333333","6500200","三重區"
"241005","262-UM","2018/03/10 17:19:37","新北市三重區永安北路二段43巷22號","121.482985","25.0828583333333","6500200","三重區"
"241016","265-UM","2018/03/10 17:19:28","新北市三重區大同北路97-3號","121.494398333333","25.0636083333333","6500200","三重區"
"241022","267-UM","2018/03/10 17:19:41","新北市三重區重陽路二段36號","121.486916666667","25.0631716666667","6500200","三重區"
"241018","268-UM","2018/03/10 17:19:40","新北市三重區安慶街167號","121.493905","25.0686283333333","6500200","三重區"
"241013","270-UM","2018/03/10 17:19:35","新北市三重區仁愛街82巷14號","121.494706666667","25.0733633333333","6500200","三重區"
"241025","271-UM","2018/03/10 17:19:29","新北市三重區中正北路205號","121.476701666667","25.0698283333333","6500200","三重區"
"241007","398-BY","2018/03/10 17:19:24","新北市三重區三和路四段163巷1號","121.483555","25.0786383333333","6500200","三重區"
"241004","475-VK","2018/03/10 17:19:24","新北市三重區五華街110巷3號","121.491868333333","25.0828983333333","6500200","三重區"
"241001","478-VK","2018/03/10 17:19:34","新北市三重區碧華街277號","121.489913333333","25.08343","6500200","三重區"
"241030","480-VK","2018/03/10 17:19:38","新北市三重區成功路73巷21號","121.489776666667","25.05221","6500200","三重區"
"241014","543-UM","2018/03/10 17:19:35","新北市三重區三和路二段83號","121.500143333333","25.0684066666667","6500200","三重區"
"241023","545-UM","2018/03/10 17:19:44","新北市三重區三民街189號","121.482305","25.0655266666667","6500200","三重區"
"241019","KEA-2593","2018/03/10 17:19:30","新北市三重區忠孝路二段2號","121.487311666667","25.0713966666667","6500200","三重區"
"241032","887-TS","2018/03/10 17:19:30","新北市三重區中華路2巷31弄8號","121.482203333333","25.0607366666667","6500200","三重區"
"241012","941-UM","2018/03/10 17:19:35","新北市三重區仁昌街92號","121.499265","25.074945","6500200","三重區"
"241033","AAC-255","2018/03/10 17:19:40","新北市新莊區化成路630巷19弄12號","121.467355","25.0558516666667","6500200","三重區"
"235061","378-QA","2018/03/10 17:19:38","新北市中和區員山路36巷16-2號","121.485318333333","24.9916183333333","6500300","中和區"
"247024","893-R6","2018/03/10 17:19:33","新北市蘆洲區光榮路2號","121.460211666667","25.0862916666667","6501400","蘆洲區"
"247014","546-UM","2018/03/10 17:19:40","新北市蘆洲區中正路83號","121.470038333333","25.083575","6501400","蘆洲區"
"247022","500-BY","2018/03/10 17:19:24","新北市蘆洲區水湳街36號","121.470718333333","25.0895766666667","6501400","蘆洲區"
"247010","341-TH","2018/03/10 17:19:34","新北市蘆洲區中山一路120巷7弄24號","121.477263333333","25.0820983333333","6501400","蘆洲區"
"247012","339-TH","2018/03/10 17:19:39","新北市蘆洲區信義路319巷10弄17號","121.477501666667","25.0866083333333","6501400","蘆洲區"
"247004","337-TH","2018/03/10 17:19:37","新北市蘆洲區中原路52號","121.459153333333","25.0823133333333","6501400","蘆洲區"
"247006","336-TH","2018/03/10 17:19:21","新北市蘆洲區長安街49巷8弄1號","121.462331666667","25.0786233333333","6501400","蘆洲區"
"247018","057-VK","2018/03/10 17:19:40","新北市蘆洲區民權路82巷5弄11號","121.474695","25.0883883333333","6501400","蘆洲區"
"247008","056-VK","2018/03/10 17:19:45","新北市蘆洲區永安北路一段72巷10號","121.476846666667","25.0771416666667","6501400","蘆洲區"
"247020","053-VK","2018/03/10 17:19:41","新北市蘆洲區仁愛街37號","121.472131666667","25.0928433333333","6501400","蘆洲區"
"247016","007-UY","2018/03/10 17:19:24","新北市蘆洲區正和街96巷7號","121.467636666667","25.0811466666667","6501400","蘆洲區"
"247002","002-UY","2018/03/10 17:19:28","新北市蘆洲區永樂街38巷33弄8號","121.457698333333","25.0895916666667","6501400","蘆洲區"
"228003","097-TW","2018/03/10 17:19:32","新北市貢寮區福隆里興隆街15號","121.9438","25.0165983333333","6502600","貢寮區"
"228001","212-TW","2018/03/10 17:19:31","新北市貢寮區仁理村尖山腳街18-3號","121.925485","25.0483316666667","6502600","貢寮區"
"228002","585-TW","2018/03/10 17:19:35","新北市貢寮區雙玉里下雙溪街28號","121.924985","25.01174","6502600","貢寮區"
"224010","AGQ-8101","2018/03/10 17:19:39","新北市瑞芳區逢甲路11號","121.80984","25.1083483333333","6501200","瑞芳區"
"224006","676-BX","2018/03/10 17:19:31","新北市瑞芳區傑魚坑路245巷2號","121.78849","25.106415","6501200","瑞芳區"
"224008","285-BY","2018/03/10 17:19:27","新北市瑞芳區侯硐路152-1號","121.826618333333","25.0842533333333","6501200","瑞芳區"
"224009","273-VK","2018/03/10 17:19:40","新北市瑞芳區汽車路159號","121.838103333333","25.1098166666667","6501200","瑞芳區"
"224005","271-BY","2018/03/10 17:19:38","新北市瑞芳區南雅路1號","121.894376666667","25.1195983333333","6501200","瑞芳區"
"227010","642-TC","2018/03/10 17:19:23","新北市雙溪區三貂里政光路6-2號","121.851786666667","25.07025","6502500","雙溪區"
"227002","400-TW","2018/03/10 17:19:31","新北市雙溪區上林里內平林90號","121.82758","25.0275216666667","6502500","雙溪區"
"251009","008-UM","2018/03/10 17:19:32","新北市淡水區三民街17號","121.438998333333","25.1717883333333","6501000","淡水區"
"251004","009-UM","2018/03/10 17:19:34","新北市淡水區中正東路二段88巷15號","121.458976666667","25.1504983333333","6501000","淡水區"
"251001","011-UM","2018/03/10 17:19:31","新北市淡水區民權路92巷35-1號","121.462216666667","25.1266716666667","6501000","淡水區"
"251002","012-UM","2018/03/10 17:19:38","新北市淡水區中正路二段31號","121.419451666667","25.181535","6501000","淡水區"
"251013","179-VK","2018/03/10 17:19:32","新北市淡水區竹圍子12號","121.47668","25.193305","6501000","淡水區"
"251014","180-VK","2018/03/10 17:19:38","新北市淡水區番子田120-1號","121.464725","25.2278683333333","6501000","淡水區"
"251008","181-VK","2018/03/10 17:19:26","新北市淡水區大同路289號","121.468155","25.1426016666667","6501000","淡水區"
"251015","182-VK","2018/03/10 17:15:57","新北市淡水區樹林口22號","121.477848333333","25.1699","6501000","淡水區"
"251010","413-VK","2018/03/10 17:19:29","新北市淡水區中正路二段397號","121.42503","25.1913416666667","6501000","淡水區"
"251012","441-VK","2018/03/10 17:19:35","新北市淡水區中山北路一段156號","121.444113333333","25.1779316666667","6501000","淡水區"
"251016","442-VK","2018/03/10 17:19:37","新北市淡水區鄒厝崙14號","121.461606666667","25.1904633333333","6501000","淡水區"
"251005","443-VK","2018/03/10 17:19:40","新北市淡水區鄧公路19-1號","121.450275","25.1699533333333","6501000","淡水區"
"251006","561-UM","2018/03/10 17:19:43","新北市淡水區大智街31號","121.442353333333","25.1743416666667","6501000","淡水區"
"251007","577-R6","2018/03/10 17:19:38","新北市淡水區民生路47-4號","121.46203","25.1380283333333","6501000","淡水區"
"251011","650-BX","2018/03/10 17:19:37","新北市淡水區坪頂路146號","121.466913333333","25.1616366666667","6501000","淡水區"
"251003","766-UM","2018/03/10 17:19:41","新北市淡水區中正路二段28號","121.419825","25.18179","6501000","淡水區"
"207003","550-UM","2018/03/10 17:19:25","新北市萬里區萬里里瑪鋉路340號","121.688023333333","25.1825866666667","6502800","萬里區"
"207004","225-TW","2018/03/10 17:19:24","新北市萬里區萬里里獅頭路23號","121.693205","25.17831","6502800","萬里區"
"252002","178-VK","2018/03/10 17:19:24","新北市三芝區忠孝街1-14號","121.505506666667","25.25392","6502100","三芝區"
"252001","292-VK","2018/03/10 17:19:35","新北市三芝區長安街119號","121.498006666667","25.2596616666667","6502100","三芝區"
"242034","AAC-296","2018/03/10 17:19:32","新北市新莊區新莊路771巷10號","121.442171666667","25.031785","6500500","新莊區"
"242058","986-R7","2018/03/10 17:19:29","新北市新莊區新泰路357巷2-2號","121.44202","25.04117","6500500","新莊區"
"242053","751-BX","2018/03/10 17:19:27","新北市新莊區環河路636-7號","121.43682","25.01137","6500500","新莊區"
"242027","615-BX","2018/03/10 17:19:26","新北市新莊區復興路一段211號","121.452416666667","25.0436633333333","6500500","新莊區"
"242025","613-BX","2018/03/10 17:19:36","新北市新莊區中港一街149號","121.447698333333","25.044945","6500500","新莊區"
"242029","612-BX","2018/03/10 17:19:27","新北市新莊區幸福路604號","121.452026666667","25.04924","6500500","新莊區"
"242042","566-BX","2018/03/10 17:19:41","新北市新莊區中正路487號","121.441101666667","25.03371","6500500","新莊區"
"242046","497-BY","2018/03/10 17:19:26","新北市新莊區新樹路65-5號","121.439441666667","25.0307966666667","6500500","新莊區"
"242019","442-UM","2018/03/10 17:19:22","新北市新莊區中港路292號","121.452868333333","25.0446483333333","6500500","新莊區"
"242051","441-UM","2018/03/10 17:19:30","新北市新莊區瓊林南路33-9號","121.435971666667","25.0177933333333","6500500","新莊區"
"242036","415-TV","2018/03/10 17:19:33","新北市新莊區新樹路223號","121.435383333333","25.0231183333333","6500500","新莊區"
"242007","413-TV","2018/03/10 17:19:25","新北市新莊區新泰路482號","121.442631666667","25.0456716666667","6500500","新莊區"
"242044","400-BY","2018/03/10 17:19:39","新北市新莊區富國路101-1號","121.421293333333","25.0255333333333","6500500","新莊區"
"242023","362-BY","2018/03/10 17:19:28","新北市新莊區中港一街139號","121.448101666667","25.04507","6500500","新莊區"
"242061","353-BY","2018/03/10 17:19:31","新北市新莊區新泰路357巷3弄49號","121.441991666667","25.0401283333333","6500500","新莊區"
"242009","132-UY","2018/03/10 17:19:31","新北市新莊區新泰路500號","121.442563333333","25.0460233333333","6500500","新莊區"
"242039","133-UY","2018/03/10 17:19:44","新北市新莊區民安路292號","121.428088333333","25.0216983333333","6500500","新莊區"
"242031","135-UY","2018/03/10 17:19:27","新北市新莊區中環路二段392-1號","121.442451666667","25.0455266666667","6500500","新莊區"
"242048","172-VK","2018/03/10 17:19:40","新北市新莊區龍安路249巷1號","121.418998333333","25.0206083333333","6500500","新莊區"
"242017","175-VK","2018/03/10 17:19:31","新北市新莊區中港一街147號","121.447726666667","25.04505","6500500","新莊區"
"242004","176-VK","2018/03/10 17:19:36","新北市新莊區新泰路486號","121.44267","25.0457816666667","6500500","新莊區"
"242015","346-TH","2018/03/10 17:19:32","新北市新莊區公園一路112號","121.444653333333","25.0379066666667","6500500","新莊區"
"242011","347-TH","2018/03/10 17:19:06","新北市新莊區中港一街155號","121.447526666667","25.04501","6500500","新莊區"
"242021","348-TH","2018/03/10 17:19:40","新北市新莊區中港路264號","121.453501666667","25.043675","6500500","新莊區"
"242002","349-TH","2018/03/10 17:19:26","新北市新莊區新泰路260號","121.446066666667","25.0400066666667","6500500","新莊區"
"242013","351-TH","2018/03/10 17:19:27","新北市新莊區新泰路480號","121.442685","25.0453733333333","6500500","新莊區"
"238023","601-UM","2018/03/10 17:19:32","新北市樹林區保安街二段55號","121.415991666667","25.0003083333333","6500700","樹林區"
"238019","599-UM","2018/03/10 17:19:37","新北市樹林區八德街82號","121.419985","24.9812383333333","6500700","樹林區"
"238018","571-TV","2018/03/10 17:19:37","新北市樹林區鎮前街269巷2號","121.420203333333","24.985685","6500700","樹林區"
"238024","5061-A6","2018/03/10 17:19:26","新北市樹林區保安街一段48巷28號","121.426583333333","24.9952783333333","6500700","樹林區"
"238021","KEA-2539","2018/03/10 17:19:44","新北市樹林區西圳街一段165巷12號","121.395683333333","24.9616216666667","6500700","樹林區"
"238025","303-VK","2018/03/10 17:19:24","新北市樹林區中山路一段249號","121.420451666667","24.98636","6500700","樹林區"
"238017","283-BY","2018/03/10 17:19:32","新北市樹林區大安路436號","121.415153333333","24.988435","6500700","樹林區"
"238014","282-BY","2018/03/10 17:19:38","新北市樹林區長壽街70巷26號","121.421945","24.9949566666667","6500700","樹林區"
"238020","268-VK","2018/03/10 17:19:05","新北市樹林區千歲街99-1號","121.428188333333","25.0007416666667","6500700","樹林區"
"238026","172-UY","2018/03/10 17:19:26","新北市樹林區味王街46巷19號","121.403471666667","24.9737183333333","6500700","樹林區"
"238016","169-UY","2018/03/10 17:19:29","新北市樹林區中山路一段412號","121.417493333333","24.9850583333333","6500700","樹林區"
"239007","AAC-297","2018/03/10 17:19:32","新北市鶯歌區光復街10-2號","121.351651666667","24.9552133333333","6500800","鶯歌區"
"239006","891-R6","2018/03/10 17:19:33","新北市鶯歌區福昌街14號","121.333106666667","24.9608883333333","6500800","鶯歌區"
"239008","527-UM","2018/03/10 17:19:24","新北市鶯歌區西湖街289巷10號","121.34085","24.9690633333333","6500800","鶯歌區"
"239005","526-UM","2018/03/10 17:19:37","新北市鶯歌區福德三街23號","121.329433333333","24.9673233333333","6500800","鶯歌區"
"239001","417-VK","2018/03/10 17:19:22","新北市鶯歌區尖山路260號","121.342488333333","24.9463583333333","6500800","鶯歌區"
"239003","360-BY","2018/03/10 17:19:32","新北市鶯歌區德昌街98號","121.33233","24.9602583333333","6500800","鶯歌區"
"239002","359-BY","2018/03/10 17:19:35","新北市鶯歌區南雅路2號","121.350103333333","24.9543583333333","6500800","鶯歌區"
"242056","280-VK","2018/03/10 17:19:31","新北市新莊區新莊路771巷10號","121.442136666667","25.0318","6500500","新莊區"
