"lineid","car","time","location","longitude","latitude","cityid","cityname"
"234026","9371-KE","2018/03/10 17:29:37","新北市永和區福和路1號","121.525743333333","25.009425","6500400","永和區"
"249005","172-UM","2018/03/10 17:29:37","新北市八里區荖阡坑路30號","121.404756666667","25.1303383333333","6502300","八里區"
"249001","173-UM","2018/03/10 17:29:43","新北市八里區大崁腳47-3號","121.424521666667","25.1589716666667","6502300","八里區"
"249004","303-UY","2018/03/10 17:28:36","新北市八里區賢三街170號","121.414473333333","25.1566983333333","6502300","八里區"
"249002","305-UY","2018/03/10 17:29:30","新北市八里區龍米路二段65巷15弄1號","121.447113333333","25.1407533333333","6502300","八里區"
"249003","593-UM","2018/03/10 17:29:26","新北市八里區中山路二段317號","121.400606666667","25.147685","6502300","八里區"
"244007","080-UY","2018/03/10 17:29:30","新北市林口區湖子45號","121.384741666667","25.09453","6501700","林口區"
"244019","402-UM","2018/03/10 17:29:40","新北市林口區文化二路一段380號","121.374221666667","25.0764483333333","6501700","林口區"
"244025","742-UY","2018/03/10 17:29:37","新北市林口區忠孝一路33號","121.363405","25.0730883333333","6501700","林口區"
"244023","483-VK","2018/03/10 17:29:23","新北市林口區東明一街35巷2號","121.392161666667","25.072005","6501700","林口區"
"244009","656-BX","2018/03/10 17:29:27","新北市林口區中北一街15巷56號","121.384898333333","25.08666","6501700","林口區"
"244011","701-TV","2018/03/10 17:29:29","新北市林口區中正路345巷1弄1號","121.387971666667","25.077275","6501700","林口區"
"244021","838-TS","2018/03/10 17:29:23","新北市林口區粉寮路二段27號","121.40057","25.0841683333333","6501700","林口區"
"231046","278-BY","2018/03/10 17:29:27","新北市新店區直潭路92號","121.530895","24.93764","6500600","新店區"
"241011","013-R5","2018/03/10 17:29:22","新北市三重區河邊北街124巷31號","121.502963333333","25.071345","6500200","三重區"
"241009","060-VK","2018/03/10 17:29:27","新北市三重區車路頭街135號","121.48417","25.0759383333333","6500200","三重區"
"241015","062-VK","2018/03/10 17:29:30","新北市三重區長元街65巷16弄15號","121.503521666667","25.066255","6500200","三重區"
"241017","063-VK","2018/03/10 17:29:38","新北市三重區重新路三段47巷5弄2號","121.492825","25.0620016666667","6500200","三重區"
"241024","065-VK","2018/03/10 17:29:41","新北市三重區國道路一段58巷20號","121.48118","25.0720516666667","6500200","三重區"
"241026","066-VK","2018/03/10 17:29:34","新北市三重區文化南路42號","121.500398333333","25.060275","6500200","三重區"
"241003","091-VK","2018/03/10 17:29:13","新北市三重區集賢路87-1號","121.493743333333","25.0869666666667","6500200","三重區"
"241020","156-TC","2018/03/10 17:29:39","新北市三重區忠孝路二段35號","121.485915","25.071095","6500200","三重區"
"241005","262-UM","2018/03/10 17:29:37","新北市三重區碧華街79號","121.485165","25.0814666666667","6500200","三重區"
"241016","265-UM","2018/03/10 17:29:28","新北市三重區信義西街41號","121.495313333333","25.0640116666667","6500200","三重區"
"241022","267-UM","2018/03/10 17:29:42","新北市三重區新北大道一段252號","121.479638333333","25.06162","6500200","三重區"
"241013","270-UM","2018/03/10 17:29:35","新北市三重區仁愛街125巷30號","121.49768","25.0760783333333","6500200","三重區"
"241025","271-UM","2018/03/10 17:29:29","新北市三重區中正北路430號","121.474433333333","25.07114","6500200","三重區"
"241007","398-BY","2018/03/10 17:29:24","新北市三重區慈愛街11號","121.485215","25.0786633333333","6500200","三重區"
"241030","480-VK","2018/03/10 17:29:38","新北市三重區中正南路252巷5號","121.493448333333","25.0526483333333","6500200","三重區"
"241014","543-UM","2018/03/10 17:29:35","新北市三重區長壽街63號","121.501545","25.0684516666667","6500200","三重區"
"241023","545-UM","2018/03/10 17:29:44","新北市三重區三民街146巷3弄2號","121.481658333333","25.064665","6500200","三重區"
"241019","KEA-2593","2018/03/10 17:29:30","新北市三重區自強路二段24號","121.489468333333","25.0691466666667","6500200","三重區"
"241032","887-TS","2018/03/10 17:29:30","新北市三重區名源街46號","121.482386666667","25.0594166666667","6500200","三重區"
"241012","941-UM","2018/03/10 17:29:35","新北市三重區仁興街39巷39號","121.499931666667","25.0760383333333","6500200","三重區"
"241033","AAC-255","2018/03/10 17:29:40","新北市三重區興德路133號","121.470143333333","25.0528716666667","6500200","三重區"
"235061","378-QA","2018/03/10 17:19:38","新北市中和區員山路36巷16-2號","121.485318333333","24.9916183333333","6500300","中和區"
"247024","893-R6","2018/03/10 17:29:33","新北市蘆洲區長興路331號","121.460621666667","25.0903333333333","6501400","蘆洲區"
"247014","546-UM","2018/03/10 17:29:40","新北市蘆洲區三民路34號","121.475523333333","25.0828366666667","6501400","蘆洲區"
"247022","500-BY","2018/03/10 17:29:44","新北市蘆洲區三民路130號","121.47091","25.0875616666667","6501400","蘆洲區"
"247010","341-TH","2018/03/10 17:29:34","新北市蘆洲區中山一路120巷23號","121.478013333333","25.0820333333333","6501400","蘆洲區"
"247012","339-TH","2018/03/10 17:29:42","新北市蘆洲區民族路1號","121.475511666667","25.083825","6501400","蘆洲區"
"247004","337-TH","2018/03/10 17:29:37","新北市蘆洲區長安街233巷22號","121.45852","25.0825016666667","6501400","蘆洲區"
"247006","336-TH","2018/03/10 17:29:41","新北市蘆洲區長安街22巷43號","121.465268333333","25.0805716666667","6501400","蘆洲區"
"247018","057-VK","2018/03/10 17:29:40","新北市蘆洲區民義街22巷1號","121.4716","25.0884833333333","6501400","蘆洲區"
"247008","056-VK","2018/03/10 17:29:25","新北市蘆洲區民生街38號","121.474128333333","25.0786633333333","6501400","蘆洲區"
"247020","053-VK","2018/03/10 17:29:41","新北市蘆洲區水湳街126號","121.46971","25.0935416666667","6501400","蘆洲區"
"247016","007-UY","2018/03/10 17:29:24","新北市蘆洲區光華路22巷39號","121.468371666667","25.0846633333333","6501400","蘆洲區"
"247002","002-UY","2018/03/10 17:29:42","新北市蘆洲區永樂街38巷57弄6號","121.458168333333","25.090385","6501400","蘆洲區"
"228003","097-TW","2018/03/10 17:29:32","新北市貢寮區仁理村尖山腳街2號","121.925133333333","25.0465216666667","6502600","貢寮區"
"228001","212-TW","2018/03/10 17:29:31","新北市貢寮區仁理村仁愛路62巷1號","121.925878333333","25.053515","6502600","貢寮區"
"228002","585-TW","2018/03/10 17:29:35","新北市貢寮區福隆里惠隆街1巷2號","121.944906666667","25.0163866666667","6502600","貢寮區"
"224010","AGQ-8101","2018/03/10 17:28:54","新北市瑞芳區逢甲路67號","121.807826666667","25.1092633333333","6501200","瑞芳區"
"224006","676-BX","2018/03/10 17:29:30","新北市瑞芳區靜安路四段101號","121.793233333333","25.1095283333333","6501200","瑞芳區"
"224008","285-BY","2018/03/10 17:29:27","新北市瑞芳區九芎橋路8號","121.832908333333","25.0898916666667","6501200","瑞芳區"
"224007","275-VK","2018/03/10 17:23:16","新北市瑞芳區大寮路356-1號","121.78504","25.1033533333333","6501200","瑞芳區"
"224009","273-VK","2018/03/10 17:29:40","新北市瑞芳區汽車路34號","121.845771666667","25.1103133333333","6501200","瑞芳區"
"224005","271-BY","2018/03/10 17:29:38","新北市瑞芳區海濱路8-6號","121.83166","25.1261966666667","6501200","瑞芳區"
"227010","642-TC","2018/03/10 17:29:23","新北市雙溪區三貂里政光路13-8號","121.85043","25.0690883333333","6502500","雙溪區"
"227002","400-TW","2018/03/10 17:29:31","新北市雙溪區平林里外平林8-4號","121.85926","25.038075","6502500","雙溪區"
"251009","008-UM","2018/03/10 17:29:32","新北市淡水區新生街88號","121.439525","25.1747783333333","6501000","淡水區"
"251004","009-UM","2018/03/10 17:29:34","新北市淡水區中正東路二段88巷15號","121.458978333333","25.1504733333333","6501000","淡水區"
"251001","011-UM","2018/03/10 17:29:31","新北市淡水區民權路92巷35-1號","121.462225","25.1266516666667","6501000","淡水區"
"251002","012-UM","2018/03/10 17:29:38","新北市淡水區中正路437號","121.432016666667","25.1747766666667","6501000","淡水區"
"251013","179-VK","2018/03/10 17:29:32","新北市淡水區水尾子5-2號","121.462896666667","25.1958366666667","6501000","淡水區"
"251014","180-VK","2018/03/10 17:29:38","新北市淡水區公埔子20-2號","121.469733333333","25.2289866666667","6501000","淡水區"
"251008","181-VK","2018/03/10 17:29:26","新北市淡水區大同路100巷9號","121.462725","25.1396883333333","6501000","淡水區"
"251015","182-VK","2018/03/10 17:29:37","新北市淡水區三空泉21號","121.468971666667","25.16606","6501000","淡水區"
"251010","413-VK","2018/03/10 17:29:29","新北市淡水區中正路二段211號","121.426205","25.1891166666667","6501000","淡水區"
"251012","441-VK","2018/03/10 17:29:35","新北市淡水區北新路124號","121.448046666667","25.1783216666667","6501000","淡水區"
"251016","442-VK","2018/03/10 17:29:37","新北市淡水區社厝坑13號","121.464713333333","25.1916983333333","6501000","淡水區"
"251005","443-VK","2018/03/10 17:29:40","新北市淡水區鄧公路31巷3號","121.451416666667","25.1708533333333","6501000","淡水區"
"251006","561-UM","2018/03/10 17:29:43","新北市淡水區大仁街29號","121.442651666667","25.1754116666667","6501000","淡水區"
"251007","577-R6","2018/03/10 17:29:38","新北市淡水區民生路47-4號","121.462056666667","25.1380116666667","6501000","淡水區"
"251011","650-BX","2018/03/10 17:29:37","新北市淡水區坪頂路712號","121.482426666667","25.15855","6501000","淡水區"
"251003","766-UM","2018/03/10 17:29:41","新北市淡水區中正路20巷1號","121.437018333333","25.17315","6501000","淡水區"
"207003","550-UM","2018/03/10 17:29:45","新北市萬里區龜吼里翡翠路17號","121.6834","25.1870283333333","6502800","萬里區"
"207004","225-TW","2018/03/10 17:29:24","新北市萬里區萬里里景美路11-2號","121.68526","25.1731983333333","6502800","萬里區"
"252002","178-VK","2018/03/10 17:29:44","新北市三芝區忠孝街1-14號","121.505535","25.2539416666667","6502100","三芝區"
"252001","292-VK","2018/03/10 17:29:35","新北市三芝區長安街119號","121.497991666667","25.2596766666667","6502100","三芝區"
"242034","AAC-296","2018/03/10 17:29:32","新北市新莊區新莊路457號","121.449593333333","25.033415","6500500","新莊區"
"242058","986-R7","2018/03/10 17:29:29","新北市新莊區中正路498號","121.436006666667","25.032925","6500500","新莊區"
"242053","751-BX","2018/03/10 17:29:27","新北市新莊區環河路636-7號","121.4368","25.01112","6500500","新莊區"
"242027","615-BX","2018/03/10 17:29:26","新北市新莊區思源路38號","121.460183333333","25.0422766666667","6500500","新莊區"
"242025","613-BX","2018/03/10 17:29:35","新北市新莊區中港路268號","121.453235","25.0439033333333","6500500","新莊區"
"242029","612-BX","2018/03/10 17:27:59","新北市新莊區復興路二段169號","121.45859","25.044435","6500500","新莊區"
"242042","566-BX","2018/03/10 17:29:41","新北市新莊區新樹路115號","121.43739","25.02666","6500500","新莊區"
"242046","497-BY","2018/03/10 17:29:40","新北市新莊區福營路50號","121.43892","25.0326366666667","6500500","新莊區"
"242019","442-UM","2018/03/10 17:29:42","新北市新莊區中港路72號","121.455483333333","25.0389","6500500","新莊區"
"242051","441-UM","2018/03/10 17:29:30","新北市新莊區新樹路449巷5號","121.43308","25.0136483333333","6500500","新莊區"
"242036","415-TV","2018/03/10 17:29:35","新北市新莊區建國二路5號","121.434678333333","25.02374","6500500","新莊區"
"242007","413-TV","2018/03/10 17:29:25","新北市新莊區自立街75號","121.454165","25.0454283333333","6500500","新莊區"
"242044","400-BY","2018/03/10 17:29:39","新北市新莊區裕民街1號","121.419466666667","25.0260883333333","6500500","新莊區"
"242023","362-BY","2018/03/10 17:29:28","新北市新莊區公園路152號","121.453193333333","25.0401316666667","6500500","新莊區"
"242061","353-BY","2018/03/10 17:29:31","新北市新莊區瓊林南路12-2號","121.436275","25.01899","6500500","新莊區"
"242009","132-UY","2018/03/10 17:29:31","新北市新莊區中原路189-1號","121.452398333333","25.0542683333333","6500500","新莊區"
"242039","133-UY","2018/03/10 17:29:24","新北市新莊區民安東路35號","121.42879","25.0209583333333","6500500","新莊區"
"242031","135-UY","2018/03/10 17:29:27","新北市新莊區新泰路413巷22號","121.44239","25.04452","6500500","新莊區"
"242048","172-VK","2018/03/10 17:29:40","新北市新莊區龍安路287號","121.420671666667","25.0198316666667","6500500","新莊區"
"242017","175-VK","2018/03/10 17:29:31","新北市新莊區復興路一段187號","121.451663333333","25.0436716666667","6500500","新莊區"
"242004","176-VK","2018/03/10 17:29:36","新北市新莊區中港路280號","121.45308","25.0441216666667","6500500","新莊區"
"242015","346-TH","2018/03/10 17:29:32","新北市新莊區新泰路195號","121.447201666667","25.03794","6500500","新莊區"
"242011","347-TH","2018/03/10 17:29:26","新北市新莊區中港路471號","121.452293333333","25.0491933333333","6500500","新莊區"
"242021","348-TH","2018/03/10 17:29:40","新北市新莊區中正路110號","121.453693333333","25.0365533333333","6500500","新莊區"
"242002","349-TH","2018/03/10 17:29:26","新北市新莊區新莊路211號","121.455281666667","25.035455","6500500","新莊區"
"242013","351-TH","2018/03/10 17:29:27","新北市新莊區中誠街7號","121.452041666667","25.047955","6500500","新莊區"
"238023","601-UM","2018/03/10 17:29:32","新北市樹林區中正路350號","121.414108333333","25.0107833333333","6500700","樹林區"
"238019","599-UM","2018/03/10 17:29:37","新北市樹林區太平路101號","121.4191","24.9811166666667","6500700","樹林區"
"238018","571-TV","2018/03/10 17:29:37","新北市樹林區博愛街226巷7號","121.424231666667","24.9887933333333","6500700","樹林區"
"238024","5061-A6","2018/03/10 17:29:41","新北市樹林區水源街213號","121.423923333333","24.9870866666667","6500700","樹林區"
"238021","KEA-2539","2018/03/10 17:29:44","新北市樹林區民權街5巷21號","121.395706666667","24.9583266666667","6500700","樹林區"
"238025","303-VK","2018/03/10 17:29:23","新北市樹林區保安二街84巷1號","121.423281666667","24.9954866666667","6500700","樹林區"
"238017","283-BY","2018/03/10 17:29:37","新北市樹林區光武街28號","121.41584","25.0055516666667","6500700","樹林區"
"238014","282-BY","2018/03/10 17:29:38","新北市樹林區保安街一段247號","121.419698333333","24.99655","6500700","樹林區"
"238020","268-VK","2018/03/10 17:29:22","新北市樹林區俊英街150號","121.426966666667","25.006225","6500700","樹林區"
"238026","172-UY","2018/03/10 17:29:26","新北市樹林區新興街2-1號","121.400311666667","24.9744016666667","6500700","樹林區"
"238016","169-UY","2018/03/10 17:27:53","新北市樹林區長壽街18-2號","121.42316","24.9935833333333","6500700","樹林區"
"239007","AAC-297","2018/03/10 17:29:31","新北市鶯歌區中山路300號","121.342865","24.9576133333333","6500800","鶯歌區"
"239006","891-R6","2018/03/10 17:29:33","新北市鶯歌區鶯桃路472巷21號","121.33313","24.965915","6500800","鶯歌區"
"239008","527-UM","2018/03/10 17:29:29","新北市鶯歌區大湖路391號","121.330935","24.97893","6500800","鶯歌區"
"239005","526-UM","2018/03/10 17:29:38","新北市鶯歌區福隆一街70號","121.324521666667","24.971005","6500800","鶯歌區"
"239001","417-VK","2018/03/10 17:29:33","新北市鶯歌區高職西街111號","121.336181666667","24.9402583333333","6500800","鶯歌區"
"239003","360-BY","2018/03/10 17:29:32","新北市鶯歌區鶯桃路202巷9弄13號","121.337405","24.9588633333333","6500800","鶯歌區"
"239002","359-BY","2018/03/10 17:29:35","新北市鶯歌區育才街27巷1號","121.34914","24.9549183333333","6500800","鶯歌區"
"221033","297-VK","2018/03/10 17:29:22","新北市汐止區康寧街901號","121.65114","25.07506","6501100","汐止區"
"221008","129-UY","2018/03/10 17:29:43","新北市汐止區康寧街901號","121.651586666667","25.0748566666667","6501100","汐止區"
"242056","280-VK","2018/03/10 17:29:31","新北市新莊區新泰路2-4號","121.449698333333","25.0327366666667","6500500","新莊區"
