"lineid","car","time","location","longitude","latitude","cityid","cityname"
"234026","9371-KE","2018/03/10 17:39:37","新北市永和區永和路二段28號","121.514758333333","25.0103566666667","6500400","永和區"
"249005","172-UM","2018/03/10 17:39:37","新北市八里區荖阡坑路28-5號","121.402796666667","25.12982","6502300","八里區"
"249001","173-UM","2018/03/10 17:39:23","新北市八里區龍米路二段152-1號","121.435636666667","25.15696","6502300","八里區"
"249004","303-UY","2018/03/10 17:39:36","新北市八里區大崁一街6號","121.420481666667","25.1579983333333","6502300","八里區"
"249002","305-UY","2018/03/10 17:39:30","新北市八里區石壁腳19號","121.441725","25.1353366666667","6502300","八里區"
"249003","593-UM","2018/03/10 17:39:26","新北市八里區中山路二段177號","121.404848333333","25.1504","6502300","八里區"
"232011","375-UM","2018/03/10 17:39:38","新北市坪林區水柳腳35號","121.71006","24.9353033333333","6502000","坪林區"
"244013","069-UM","2018/03/10 17:39:39","新北市林口區中正路555號","121.381135","25.07685","6501700","林口區"
"244007","080-UY","2018/03/10 17:39:30","新北市林口區林口路272巷15號","121.386591666667","25.0847166666667","6501700","林口區"
"244019","402-UM","2018/03/10 17:39:40","新北市林口區文化一路一段135巷18號","121.373305","25.0722816666667","6501700","林口區"
"244025","742-UY","2018/03/10 17:39:40","新北市林口區忠孝一路33-99號","121.363193333333","25.07313","6501700","林口區"
"244023","483-VK","2018/03/10 17:39:43","新北市林口區東明一街142巷6號","121.389963333333","25.0709683333333","6501700","林口區"
"244017","485-VK","2018/03/10 17:39:32","新北市林口區忠孝路381號","121.369455","25.0714016666667","6501700","林口區"
"244009","656-BX","2018/03/10 17:39:27","新北市林口區文化一路二段197巷10號","121.383223333333","25.082845","6501700","林口區"
"244011","701-TV","2018/03/10 17:39:29","新北市林口區佳林路154號","121.384161666667","25.0770733333333","6501700","林口區"
"244021","838-TS","2018/03/10 17:39:23","新北市林口區仁愛路一段215號","121.398181666667","25.0746816666667","6501700","林口區"
"222002","659-BX","2018/03/10 17:39:31","新北市深坑區深南路1號","121.621956666667","25.004855","6501800","深坑區"
"231046","278-BY","2018/03/10 17:39:27","新北市新店區直潭路92號","121.5309","24.937635","6500600","新店區"
"241017","063-VK","2018/03/10 17:39:41","新北市三重區大同北路18號","121.495388333333","25.0622783333333","6500200","三重區"
"241024","065-VK","2018/03/10 17:39:41","新北市三重區大勇街1號","121.483766666667","25.0714066666667","6500200","三重區"
"241016","265-UM","2018/03/10 17:39:28","新北市三重區重新路二段19號","121.498083333333","25.0623316666667","6500200","三重區"
"241007","398-BY","2018/03/10 17:39:24","新北市三重區三和路四段163巷79號","121.486096666667","25.07926","6500200","三重區"
"241030","480-VK","2018/03/10 17:39:38","新北市三重區新北大道一段117號","121.483473333333","25.0611783333333","6500200","三重區"
"241014","543-UM","2018/03/10 17:39:35","新北市三重區龍濱路118號","121.502095","25.0704066666667","6500200","三重區"
"241023","545-UM","2018/03/10 17:39:44","新北市三重區中華路103號","121.483651666667","25.06329","6500200","三重區"
"241012","941-UM","2018/03/10 17:39:35","新北市三重區龍濱路285號","121.501096666667","25.0733466666667","6500200","三重區"
"241033","AAC-255","2018/03/10 17:39:40","新北市三重區光復路一段47號","121.472253333333","25.04864","6500200","三重區"
"235061","378-QA","2018/03/10 17:19:38","新北市中和區員山路36巷16-2號","121.485318333333","24.9916183333333","6500300","中和區"
"247024","893-R6","2018/03/10 17:39:33","新北市蘆洲區長樂路159號","121.462013333333","25.0881916666667","6501400","蘆洲區"
"247014","546-UM","2018/03/10 17:39:40","新北市蘆洲區中正路33號","121.471213333333","25.0822866666667","6501400","蘆洲區"
"247022","500-BY","2018/03/10 17:39:24","新北市蘆洲區三民路238-2號","121.468221666667","25.0897433333333","6501400","蘆洲區"
"247010","341-TH","2018/03/10 17:39:34","新北市蘆洲區集賢路412號","121.479743333333","25.0814116666667","6501400","蘆洲區"
"247012","339-TH","2018/03/10 17:39:39","新北市蘆洲區民權路3巷14弄11號","121.475448333333","25.0857316666667","6501400","蘆洲區"
"247004","337-TH","2018/03/10 17:39:37","新北市蘆洲區長安街172巷10號","121.459585","25.0834883333333","6501400","蘆洲區"
"247006","336-TH","2018/03/10 17:39:41","新北市蘆洲區長安街23巷17號","121.463618333333","25.0785116666667","6501400","蘆洲區"
"247018","057-VK","2018/03/10 17:39:40","新北市蘆洲區民權路61巷4弄2號","121.47353","25.0880016666667","6501400","蘆洲區"
"247008","056-VK","2018/03/10 17:39:25","新北市蘆洲區民生街123號","121.472753333333","25.078875","6501400","蘆洲區"
"247020","053-VK","2018/03/10 17:39:41","新北市蘆洲區民族路355號","121.47193","25.0917216666667","6501400","蘆洲區"
"247016","007-UY","2018/03/10 17:39:24","新北市蘆洲區光華路70巷9號","121.467691666667","25.08322","6501400","蘆洲區"
"247002","002-UY","2018/03/10 17:39:28","新北市蘆洲區永平街60號","121.457568333333","25.0916183333333","6501400","蘆洲區"
"228003","097-TW","2018/03/10 17:39:32","新北市貢寮區仁理村仁和路67號","121.924175","25.054485","6502600","貢寮區"
"228001","212-TW","2018/03/10 17:39:36","新北市貢寮區真理里美艷山街6-2號","121.928926666667","25.0611583333333","6502600","貢寮區"
"228002","585-TW","2018/03/10 17:39:35","新北市貢寮區福隆里外隆林街15-2號","121.958501666667","25.0038966666667","6502600","貢寮區"
"224010","AGQ-8101","2018/03/10 17:36:35","新北市瑞芳區岳王路18號","121.807941666667","25.111005","6501200","瑞芳區"
"224006","676-BX","2018/03/10 17:39:33","新北市瑞芳區傑魚坑路64-1號","121.793246666667","25.1105566666667","6501200","瑞芳區"
"224008","285-BY","2018/03/10 17:39:29","新北市瑞芳區瑞柑新村33號","121.829471666667","25.106955","6501200","瑞芳區"
"224007","275-VK","2018/03/10 17:23:16","新北市瑞芳區大寮路356-1號","121.78504","25.1033533333333","6501200","瑞芳區"
"224009","273-VK","2018/03/10 17:39:40","新北市瑞芳區崙頂路1-5號","121.84691","25.1062833333333","6501200","瑞芳區"
"224005","271-BY","2018/03/10 17:39:38","新北市瑞芳區海濱路23號","121.830888333333","25.1250783333333","6501200","瑞芳區"
"227002","400-TW","2018/03/10 17:39:31","新北市雙溪區三貂里政光路3-1號","121.851206666667","25.0632466666667","6502500","雙溪區"
"251009","008-UM","2018/03/10 17:39:32","新北市淡水區中正路42-1號","121.443575","25.169395","6501000","淡水區"
"251004","009-UM","2018/03/10 17:39:34","新北市淡水區中正東路二段88巷37號","121.459265","25.1458066666667","6501000","淡水區"
"251001","011-UM","2018/03/10 17:39:31","新北市淡水區民權路92巷35-1號","121.462186666667","25.126635","6501000","淡水區"
"251002","012-UM","2018/03/10 17:39:38","新北市淡水區真理街1號","121.438183333333","25.1729316666667","6501000","淡水區"
"251013","179-VK","2018/03/10 17:39:32","新北市淡水區演戲埔腳6-1號","121.472466666667","25.1933866666667","6501000","淡水區"
"251014","180-VK","2018/03/10 17:39:38","新北市淡水區水碓21號","121.478931666667","25.2242383333333","6501000","淡水區"
"251008","181-VK","2018/03/10 17:39:26","新北市淡水區八勢路73巷12號","121.463365","25.1539333333333","6501000","淡水區"
"251015","182-VK","2018/03/10 17:37:17","新北市淡水區樹林口7-1號","121.479486666667","25.1671333333333","6501000","淡水區"
"251010","413-VK","2018/03/10 17:39:29","新北市淡水區淡海路280巷16號","121.41991","25.1893133333333","6501000","淡水區"
"251012","441-VK","2018/03/10 17:39:35","新北市淡水區北新路218號","121.451823333333","25.18009","6501000","淡水區"
"251016","442-VK","2018/03/10 17:39:37","新北市淡水區埤島39-15號","121.452748333333","25.19588","6501000","淡水區"
"251005","443-VK","2018/03/10 17:39:40","新北市淡水區鄧公路35巷2號","121.45146","25.1712466666667","6501000","淡水區"
"251006","561-UM","2018/03/10 17:39:43","新北市淡水區大信街11-1號","121.441756666667","25.1764533333333","6501000","淡水區"
"251007","577-R6","2018/03/10 17:39:38","新北市淡水區民生路124巷4弄2號","121.463715","25.1380383333333","6501000","淡水區"
"251011","650-BX","2018/03/10 17:39:37","新北市淡水區小坪頂13-3號","121.486596666667","25.156165","6501000","淡水區"
"251003","766-UM","2018/03/10 17:39:41","新北市淡水區中山北路一段33號","121.441541666667","25.1752183333333","6501000","淡水區"
"207003","550-UM","2018/03/10 17:39:25","新北市萬里區龜吼里漁澳路13號","121.686738333333","25.1946333333333","6502800","萬里區"
"207004","225-TW","2018/03/10 17:39:44","新北市萬里區中幅里中福路8-1號","121.685653333333","25.164565","6502800","萬里區"
"252002","178-VK","2018/03/10 17:39:24","新北市三芝區中正路二段17號","121.504341666667","25.2553633333333","6502100","三芝區"
"252001","292-VK","2018/03/10 17:39:35","新北市三芝區淡金路一段83號","121.502061666667","25.258835","6502100","三芝區"
"237013","252-BX","2018/03/10 17:39:28","新北市三峽區民生街1號","121.37482","24.93496","6500900","三峽區"
"237008","302-VK","2018/03/10 17:39:30","新北市三峽區中山路365號","121.358803333333","24.9372033333333","6500900","三峽區"
"237006","5529-G3","2018/03/10 17:39:28","新北市三峽區介壽路一段552巷16號","121.387661666667","24.93239","6500900","三峽區"
"237010","706-TV","2018/03/10 17:39:41","新北市三峽區中山路130號","121.365443333333","24.9361516666667","6500900","三峽區"
"236073","105-UM","2018/03/10 17:39:44","新北市土城區城林路6巷80號","121.43851","24.9795916666667","6501300","土城區"
"236043","107-UM","2018/03/10 17:39:29","新北市土城區城林路6巷80號","121.438756666667","24.9796583333333","6501300","土城區"
"236079","166-UM","2018/03/10 17:39:41","新北市土城區城林路6巷80號","121.43843","24.9795966666667","6501300","土城區"
"236026","269-VK","2018/03/10 17:39:23","新北市土城區城林路6巷80號","121.438751666667","24.9796066666667","6501300","土城區"
"236015","270-VK","2018/03/10 17:39:31","新北市土城區城林路6巷80號","121.438766666667","24.9796533333333","6501300","土城區"
"242034","AAC-296","2018/03/10 17:39:41","新北市新莊區新莊路512號","121.446","25.0332166666667","6500500","新莊區"
"242058","986-R7","2018/03/10 17:39:37","新北市新莊區中正路698號","121.41884","25.0278466666667","6500500","新莊區"
"242053","751-BX","2018/03/10 17:39:38","新北市新莊區新樹路446號","121.431511666667","25.0013316666667","6500500","新莊區"
"242027","615-BX","2018/03/10 17:39:26","新北市新莊區福壽街109號","121.457918333333","25.05089","6500500","新莊區"
"242025","613-BX","2018/03/10 17:39:36","新北市新莊區思源路98號","121.460216666667","25.0461233333333","6500500","新莊區"
"242029","612-BX","2018/03/10 17:39:27","新北市新莊區復興路一段159號","121.450848333333","25.0434383333333","6500500","新莊區"
"242042","566-BX","2018/03/10 17:39:41","新北市新莊區中正路514巷47號","121.432296666667","25.033485","6500500","新莊區"
"242046","497-BY","2018/03/10 17:39:34","新北市新莊區建國一路59號","121.434631666667","25.03018","6500500","新莊區"
"242019","442-UM","2018/03/10 17:39:42","新北市新莊區中港路205號","121.454816666667","25.0419933333333","6500500","新莊區"
"242051","441-UM","2018/03/10 17:39:30","新北市新莊區西盛街201巷13號","121.429048333333","25.0170933333333","6500500","新莊區"
"242036","415-TV","2018/03/10 17:39:33","新北市新莊區後港一路119號","121.428883333333","25.02715","6500500","新莊區"
"242007","413-TV","2018/03/10 17:39:45","新北市新莊區福樂街73號","121.456911666667","25.0477983333333","6500500","新莊區"
"242044","400-BY","2018/03/10 17:39:39","新北市新莊區中正路871巷9弄43號","121.4199","25.0267066666667","6500500","新莊區"
"242023","362-BY","2018/03/10 17:39:28","新北市新莊區中港路132巷22號","121.456316666667","25.040645","6500500","新莊區"
"242061","353-BY","2018/03/10 17:39:31","新北市新莊區瓊林南路171-5號","121.433878333333","25.010925","6500500","新莊區"
"242009","132-UY","2018/03/10 17:39:31","新北市新莊區昌明街16號","121.45728","25.052465","6500500","新莊區"
"242039","133-UY","2018/03/10 17:39:24","新北市新莊區民安路322號","121.429021666667","25.02198","6500500","新莊區"
"242031","135-UY","2018/03/10 17:39:43","新北市新莊區新泰路361巷17號","121.442898333333","25.04295","6500500","新莊區"
"242048","172-VK","2018/03/10 17:39:40","新北市新莊區萬安街153號","121.42038","25.0214783333333","6500500","新莊區"
"242017","175-VK","2018/03/10 17:39:39","新北市新莊區復興路一段149巷22弄1號","121.450161666667","25.0442116666667","6500500","新莊區"
"242004","176-VK","2018/03/10 17:39:36","新北市新莊區自立街178號","121.456003333333","25.0454316666667","6500500","新莊區"
"242015","346-TH","2018/03/10 17:39:32","新北市新莊區新泰路341號","121.444806666667","25.0419583333333","6500500","新莊區"
"242011","347-TH","2018/03/10 17:39:26","新北市新莊區中原路201-3號","121.451086666667","25.0540483333333","6500500","新莊區"
"242021","348-TH","2018/03/10 17:39:40","新北市新莊區中華路一段80號","121.452073333333","25.0392066666667","6500500","新莊區"
"242002","349-TH","2018/03/10 17:39:26","新北市新莊區新莊路254號","121.452145","25.0340416666667","6500500","新莊區"
"242013","351-TH","2018/03/10 17:39:27","新北市新莊區中誠街100號","121.449868333333","25.047745","6500500","新莊區"
"238023","601-UM","2018/03/10 17:39:32","新北市樹林區三福街114號","121.406438333333","25.0163516666667","6500700","樹林區"
"238019","599-UM","2018/03/10 17:39:37","新北市樹林區太順街5巷2號","121.42031","24.98001","6500700","樹林區"
"238018","571-TV","2018/03/10 17:39:37","新北市樹林區鎮前街8號","121.426395","24.993425","6500700","樹林區"
"238024","5061-A6","2018/03/10 17:39:41","新北市樹林區八德街368號","121.408261666667","24.969655","6500700","樹林區"
"238021","KEA-2539","2018/03/10 17:39:44","新北市樹林區柑園街一段230號","121.392556666667","24.9563366666667","6500700","樹林區"
"238025","303-VK","2018/03/10 17:39:23","新北市樹林區保安街二段48號","121.415296666667","25.0021166666667","6500700","樹林區"
"238017","283-BY","2018/03/10 17:39:32","新北市樹林區中正路421-2號","121.416383333333","25.00829","6500700","樹林區"
"238014","282-BY","2018/03/10 17:39:38","新北市樹林區保安街一段358號","121.417975","24.9984933333333","6500700","樹林區"
"238020","268-VK","2018/03/10 17:39:02","新北市樹林區俊英街166巷10號","121.427033333333","25.0071616666667","6500700","樹林區"
"238026","172-UY","2018/03/10 17:37:46","新北市樹林區新興街19巷36弄9號","121.402481666667","24.9732683333333","6500700","樹林區"
"238016","169-UY","2018/03/10 17:39:28","新北市樹林區育英街53號","121.420841666667","24.9891966666667","6500700","樹林區"
"239007","AAC-297","2018/03/10 17:39:32","新北市鶯歌區鶯桃路182巷33號","121.339401666667","24.95759","6500800","鶯歌區"
"239006","891-R6","2018/03/10 17:39:33","新北市鶯歌區永和街56巷8號","121.333691666667","24.9677266666667","6500800","鶯歌區"
"239008","527-UM","2018/03/10 17:39:45","新北市鶯歌區大湖路718號","121.333203333333","24.976665","6500800","鶯歌區"
"239005","526-UM","2018/03/10 17:39:37","新北市鶯歌區鶯桃路二段20號","121.326135","24.972365","6500800","鶯歌區"
"239001","417-VK","2018/03/10 17:39:42","新北市鶯歌區中正三路234-6號","121.330545","24.936975","6500800","鶯歌區"
"239003","360-BY","2018/03/10 17:39:32","新北市鶯歌區鶯桃路285巷8號","121.334268333333","24.9590666666667","6500800","鶯歌區"
"239002","359-BY","2018/03/10 17:39:35","新北市鶯歌區育智路86號","121.345025","24.9546316666667","6500800","鶯歌區"
"221010","269-BY","2018/03/10 17:39:33","新北市汐止區汐萬路一段418巷1弄16號","121.650106666667","25.0784316666667","6501100","汐止區"
"221023","279-VK","2018/03/10 17:39:27","新北市汐止區康寧街901號","121.651611666667","25.07493","6501100","汐止區"
"221033","297-VK","2018/03/10 17:39:43","新北市汐止區新台五路一段83號","121.646011666667","25.0607783333333","6501100","汐止區"
"221021","299-VK","2018/03/10 17:39:33","新北市汐止區汐萬路一段256巷1號","121.651875","25.074875","6501100","汐止區"
"221008","129-UY","2018/03/10 17:39:22","新北市汐止區康寧街901號","121.65159","25.0748666666667","6501100","汐止區"
"221025","623-UM","2018/03/10 17:39:34","新北市汐止區康寧街901號","121.65158","25.074925","6501100","汐止區"
"242056","280-VK","2018/03/10 17:39:31","新北市新莊區新莊路543巷9弄28號","121.448295","25.0318866666667","6500500","新莊區"
