"lineid","car","time","location","longitude","latitude","cityid","cityname"
"234007","208-UY","2018/03/10 18:19:40","新北市永和區保生路55號","121.50473","25.0106783333333","6500400","永和區"
"234005","695-BX","2018/03/10 18:04:30","新北市永和區福和路1號","121.526676666667","25.010065","6500400","永和區"
"234026","9371-KE","2018/03/10 18:19:37","新北市永和區豫溪街42巷24號","121.515301666667","25.0088816666667","6500400","永和區"
"234011","9373-KE","2018/03/10 18:19:43","新北市永和區保福路二段158巷1號","121.509083333333","25.0150566666667","6500400","永和區"
"249005","172-UM","2018/03/10 18:19:37","新北市八里區荖阡坑路15號","121.401671666667","25.1398466666667","6502300","八里區"
"249001","173-UM","2018/03/10 18:19:43","新北市八里區龍米路一段129號","121.45217","25.1266733333333","6502300","八里區"
"249004","303-UY","2018/03/10 18:19:36","新北市八里區文心街85號","121.4277","25.1610233333333","6502300","八里區"
"249002","305-UY","2018/03/10 18:19:42","新北市八里區龍形一街2-1號","121.45071","25.1307833333333","6502300","八里區"
"248016","026-BX","2018/03/10 18:19:42","新北市五股區成泰路三段493號","121.449303333333","25.0993183333333","6501500","五股區"
"248006","077-UY","2018/03/10 18:19:34","新北市五股區中興路一段158號","121.464378333333","25.0739333333333","6501500","五股區"
"248008","095-VK","2018/03/10 18:19:35","新北市五股區更洲路32巷8弄14號","121.459233333333","25.0796433333333","6501500","五股區"
"248020","225-UY","2018/03/10 18:19:43","新北市五股區孝義路19-1號","121.452508333333","25.10968","6501500","五股區"
"248012","247-BX","2018/03/10 18:19:32","新北市五股區御成路2號","121.441971666667","25.0907383333333","6501500","五股區"
"248014","261-SL","2018/03/10 18:19:34","新北市五股區自強路56號","121.433315","25.0737","6501500","五股區"
"248004","677-BX","2018/03/10 18:19:33","新北市五股區成泰路二段222-2號","121.439185","25.0854416666667","6501500","五股區"
"248002","678-BX","2018/03/10 18:19:29","新北市五股區西雲路84號","121.443786666667","25.0922466666667","6501500","五股區"
"248010","682-TV","2018/03/10 18:19:32","新北市五股區成泰路一段189巷2號","121.434635","25.0765933333333","6501500","五股區"
"232011","375-UM","2018/03/10 18:18:09","新北市坪林區坪雙路一段43號","121.711706666667","24.9424466666667","6502000","坪林區"
"244013","069-UM","2018/03/10 18:19:39","新北市林口區林口路41號","121.390018333333","25.0788566666667","6501700","林口區"
"244007","080-UY","2018/03/10 18:19:30","新北市林口區林口路226號","121.386793333333","25.08381","6501700","林口區"
"244019","402-UM","2018/03/10 18:19:40","新北市林口區忠孝路561巷10號","121.37316","25.0687233333333","6501700","林口區"
"244025","742-UY","2018/03/10 18:19:37","新北市林口區南勢四街48號","121.354778333333","25.069695","6501700","林口區"
"244023","483-VK","2018/03/10 18:19:43","新北市林口區東湖路153巷135號","121.382181666667","25.0735616666667","6501700","林口區"
"244017","485-VK","2018/03/10 18:19:32","新北市林口區公園路22號","121.366766666667","25.0671933333333","6501700","林口區"
"244009","656-BX","2018/03/10 18:19:27","新北市林口區中山路270號","121.382938333333","25.0809116666667","6501700","林口區"
"244011","701-TV","2018/03/10 18:19:29","新北市林口區中正路36號","121.395595","25.0774983333333","6501700","林口區"
"244021","838-TS","2018/03/10 18:19:43","新北市林口區自強二街8號","121.397453333333","25.0783866666667","6501700","林口區"
"243013","646-TV","2018/03/10 18:19:31","新北市泰山區錢厝坑13號","121.415615","25.0405333333333","6501600","泰山區"
"222003","436-BY","2018/03/10 18:19:35","新北市深坑區旺耽路67號","121.62622","25.0030516666667","6501800","深坑區"
"222002","659-BX","2018/03/10 18:19:31","新北市深坑區文山路一段62巷33號","121.621345","25.0004516666667","6501800","深坑區"
"231041","002-UM","2018/03/10 18:19:23","新北市新店區安華路28-1號","121.519553333333","24.960895","6500600","新店區"
"231059","046-UY","2018/03/10 18:19:37","新北市新店區安華路28-1號","121.519898333333","24.9608283333333","6500600","新店區"
"231061","047-UY","2018/03/10 18:19:29","新北市新店區安華路28-1號","121.518931666667","24.960915","6500600","新店區"
"231060","106-UY","2018/03/10 18:19:41","新北市新店區安華路28-1號","121.519688333333","24.9609283333333","6500600","新店區"
"231051","107-UY","2018/03/10 18:19:37","新北市新店區安康路一段355-3號","121.51919","24.9614916666667","6500600","新店區"
"231048","108-UY","2018/03/10 18:19:36","新北市新店區安華路28-1號","121.519418333333","24.96109","6500600","新店區"
"231052","187-VK","2018/03/10 18:19:28","新北市新店區安康路一段107-2號","121.528671666667","24.96167","6500600","新店區"
"231050","KEA-2219","2018/03/10 18:19:32","新北市新店區安華路28-1號","121.519681666667","24.9613933333333","6500600","新店區"
"221015","KEA-2785","2018/03/10 18:19:32","新北市汐止區鄉長路二段23巷11號","121.667581666667","25.0827583333333","6501100","汐止區"
"231057","256-BX","2018/03/10 18:19:39","新北市新店區安華路28-1號","121.519796666667","24.96119","6500600","新店區"
"231046","278-BY","2018/03/10 18:19:27","新北市新店區直潭七街60號","121.532235","24.939845","6500600","新店區"
"231054","AAD-862","2018/03/10 18:19:30","新北市新店區安華路28-1號","121.519713333333","24.9613216666667","6500600","新店區"
"231058","3712-VJ","2018/03/10 18:19:42","新北市新店區環河路29巷1-1號","121.535973333333","24.9610783333333","6500600","新店區"
"231056","3713-VJ","2018/03/10 18:19:40","新北市新店區中央路218號","121.529828333333","24.9730783333333","6500600","新店區"
"231055","4716-K9","2018/03/10 18:19:34","新北市新店區安康路一段3-1號","121.534248333333","24.96067","6500600","新店區"
"231065","512-UM","2018/03/10 18:19:31","新北市新店區安華路28-1號","121.519091666667","24.9610066666667","6500600","新店區"
"231064","515-UM","2018/03/10 18:19:35","新北市新店區安華路28-1號","121.519873333333","24.9611333333333","6500600","新店區"
"231045","617-UM","2018/03/10 18:19:40","新北市新店區安華路28-1號","121.519338333333","24.96093","6500600","新店區"
"231040","619-UM","2018/03/10 18:19:30","新北市新店區安華路28-1號","121.519595","24.9607666666667","6500600","新店區"
"231042","641-BX","2018/03/10 18:19:32","新北市新店區安華路28-1號","121.5196","24.960615","6500600","新店區"
"231063","645-TV","2018/03/10 18:19:38","新北市新店區安華路28-1號","121.519346666667","24.9606716666667","6500600","新店區"
"231049","719-UM","2018/03/10 18:19:40","新北市新店區安華路28-1號","121.519693333333","24.9612583333333","6500600","新店區"
"231062","720-UM","2018/03/10 18:19:31","新北市新店區安康路一段359-27號","121.518908333333","24.961205","6500600","新店區"
"231044","897-TW","2018/03/10 18:19:30","新北市新店區安華路28-1號","121.519566666667","24.96086","6500600","新店區"
"231066","AKT-0513","2018/03/10 18:19:35","新北市新店區安華路28-1號","121.519406666667","24.9607116666667","6500600","新店區"
"241033","AAC-255","2018/03/10 18:19:40","新北市三重區光復路一段61巷28號","121.473545","25.0493383333333","6500200","三重區"
"235066","003-UY","2018/03/10 18:19:40","新北市中和區連城路17號","121.499016666667","25.0019883333333","6500300","中和區"
"235064","005-UY","2018/03/10 18:19:28","新北市中和區圓通路167巷8號","121.498025","24.9950216666667","6500300","中和區"
"235063","006-UY","2018/03/10 18:19:40","新北市中和區中正路589巷9號","121.485868333333","24.9940183333333","6500300","中和區"
"235052","031-BX","2018/03/10 18:19:40","新北市中和區南山路234號","121.506603333333","24.9900866666667","6500300","中和區"
"235056","096-UM","2018/03/10 18:19:29","新北市板橋區民生路一段26-1號","121.477433333333","25.0118266666667","6500300","中和區"
"235039","097-UM","2018/03/10 18:19:40","新北市中和區景平路265號","121.508231666667","24.99288","6500300","中和區"
"235065","098-UM","2018/03/10 18:19:34","新北市中和區莊敬路49巷18號","121.501678333333","25.0061316666667","6500300","中和區"
"235058","151-BY","2018/03/10 18:19:29","新北市中和區圓通路367巷7號","121.492265","24.988045","6500300","中和區"
"235055","183-VK","2018/03/10 18:19:29","新北市中和區中正路637巷60弄61號","121.48545","24.99326","6500300","中和區"
"235038","185-VK","2018/03/10 18:19:27","新北市中和區秀朗路三段128巷3號","121.524451666667","24.99264","6500300","中和區"
"235049","186-VK","2018/03/10 18:19:33","新北市中和區員山路36巷13號","121.484358333333","24.9911133333333","6500300","中和區"
"235072","301-VK","2018/03/10 18:19:41","新北市中和區錦和路216號","121.49042","24.9942383333333","6500300","中和區"
"235043","352-BY","2018/03/10 18:19:30","新北市中和區景平路375號","121.504203333333","24.9934083333333","6500300","中和區"
"235068","377-QA","2018/03/10 18:19:41","新北市中和區員山路36巷16-3號","121.485181666667","24.99119","6500300","中和區"
"235061","378-QA","2018/03/10 18:17:55","新北市中和區國光街215巷24弄6號","121.466656666667","25.0001466666667","6500300","中和區"
"235050","4979-A6","2018/03/10 18:19:39","新北市中和區捷運路61巷3號","121.508795","24.9896066666667","6500300","中和區"
"235069","4980-A6","2018/03/10 18:19:35","新北市中和區錦和路216號","121.490373333333","24.9941616666667","6500300","中和區"
"235042","551-UM","2018/03/10 18:19:30","新北市中和區大智街55巷1號","121.520938333333","24.9921883333333","6500300","中和區"
"235045","565-BX","2018/03/10 18:19:29","新北市中和區景安路200巷6弄2號","121.503281666667","24.9917916666667","6500300","中和區"
"235054","640-BX","2018/03/10 18:19:28","新北市中和區莒光路185號","121.47258","24.9990016666667","6500300","中和區"
"235060","647-TV","2018/03/10 18:19:27","新北市中和區員山路170號","121.481303333333","24.9999083333333","6500300","中和區"
"235047","732-UM","2018/03/10 18:19:32","新北市中和區南山路176號","121.505558333333","24.99081","6500300","中和區"
"235046","733-UM","2018/03/10 18:19:35","新北市中和區員山路36巷13號","121.48411","24.99092","6500300","中和區"
"235062","800-TS","2018/03/10 18:19:36","新北市中和區中山路二段312巷33弄22號","121.494811666667","25.004275","6500300","中和區"
"235057","801-TS","2018/03/10 18:19:36","新北市中和區民享街97巷21號","121.4754","24.999515","6500300","中和區"
"235041","802-TS","2018/03/10 18:19:37","新北市中和區錦和路350-1號","121.490406666667","24.99357","6500300","中和區"
"235048","896-TW","2018/03/10 18:19:39","新北市中和區中正路589巷15號","121.485675","24.9935966666667","6500300","中和區"
"235053","900-TW","2018/03/10 18:19:31","新北市中和區中正路637巷52弄1號","121.48542","24.9934416666667","6500300","中和區"
"235070","911-UM","2018/03/10 18:19:31","新北市中和區圓通路172號","121.497231666667","24.9945766666667","6500300","中和區"
"235051","157-BY","2018/03/10 18:19:40","新北市中和區興南路二段158號","121.503763333333","24.9828533333333","6500300","中和區"
"247010","341-TH","2018/03/10 18:19:13","新北市五股區中直路17-3號","121.422213333333","25.1116083333333","6501400","蘆洲區"
"226004","205-ST","2018/03/10 18:19:40","新北市平溪區薯榔里一坑路17號","121.713756666667","25.0216466666667","6502400","平溪區"
"228003","097-TW","2018/03/10 18:19:32","新北市貢寮區真理里美艷山街64-2號","121.920101666667","25.0722983333333","6502600","貢寮區"
"228001","212-TW","2018/03/10 18:19:36","新北市貢寮區真理里新港街26巷55弄2-1號","121.927385","25.0528733333333","6502600","貢寮區"
"228002","585-TW","2018/03/10 18:19:35","新北市貢寮區福連里馬崗街2-2號","122.000951666667","25.014325","6502600","貢寮區"
"224010","AGQ-8101","2018/03/10 18:00:54","新北市瑞芳區山尖路172-1號","121.848266666667","25.111865","6501200","瑞芳區"
"224006","676-BX","2018/03/10 18:19:30","新北市瑞芳區民權街3-2號","121.80815","25.1074533333333","6501200","瑞芳區"
"224002","639-TC","2018/03/10 18:19:29","新北市瑞芳區三爪子坑路149巷22-15號","121.811625","25.1059816666667","6501200","瑞芳區"
"224008","285-BY","2018/03/10 18:19:37","新北市瑞芳區逢甲路86號","121.809541666667","25.1087733333333","6501200","瑞芳區"
"224007","275-VK","2018/03/10 18:19:24","新北市瑞芳區大埔路67巷5-1號","121.764263333333","25.1015816666667","6501200","瑞芳區"
"224009","273-VK","2018/03/10 18:19:40","新北市瑞芳區金光路162號","121.855633333333","25.106645","6501200","瑞芳區"
"224005","271-BY","2018/03/10 18:19:38","新北市瑞芳區建基新村1號","121.812808333333","25.13045","6501200","瑞芳區"
"227010","642-TC","2018/03/10 18:19:23","新北市雙溪區牡丹里牡丹73號","121.851721666667","25.0593633333333","6502500","雙溪區"
"227002","400-TW","2018/03/10 18:19:46","新北市雙溪區共和里中山路6號","121.864621666667","25.033435","6502500","雙溪區"
"253005","032-BX","2018/03/10 18:19:33","新北市石門區中央路4號","121.565306666667","25.291205","6502200","石門區"
"253006","741-TV","2018/03/10 18:19:41","新北市石門區老梅路49號","121.545431666667","25.2892966666667","6502200","石門區"
"222001","KEA-2212","2018/03/10 18:19:30","新北市深坑區北深路二段66號","121.61895","25.0041666666667","6501800","深坑區"
"208002","KEA-2872","2018/03/10 18:19:37","新北市金山區海興路84號","121.631471666667","25.23501","6502700","金山區"
"208003","665-BX","2018/03/10 18:19:40","新北市金山區中山路16號","121.641646666667","25.2179016666667","6502700","金山區"
"208001","761-BX","2018/03/10 18:19:30","新北市金山區民生路51巷1-2號","121.641873333333","25.2202866666667","6502700","金山區"
"251004","009-UM","2018/03/10 18:19:35","新北市淡水區民族路86號","121.462361666667","25.135535","6501000","淡水區"
"251001","011-UM","2018/03/10 18:19:31","新北市淡水區自強路110-8號","121.461591666667","25.1314","6501000","淡水區"
"251002","012-UM","2018/03/10 18:19:38","新北市淡水區中正東路一段61-2號","121.452973333333","25.1626116666667","6501000","淡水區"
"251013","179-VK","2018/03/10 18:19:32","新北市淡水區行忠路590號","121.468073333333","25.1991733333333","6501000","淡水區"
"251014","180-VK","2018/03/10 18:19:38","新北市淡水區崙頂13號","121.492141666667","25.2203083333333","6501000","淡水區"
"251008","181-VK","2018/03/10 18:19:27","新北市淡水區水源街二段206號","121.459008333333","25.1765616666667","6501000","淡水區"
"251015","182-VK","2018/03/10 18:19:37","新北市淡水區興福寮88巷1號","121.48563","25.165085","6501000","淡水區"
"251010","413-VK","2018/03/10 18:19:29","新北市淡水區淡海路180巷12-3號","121.420451666667","25.1847183333333","6501000","淡水區"
"251012","441-VK","2018/03/10 18:19:35","新北市淡水區北新路二段77-5號","121.480461666667","25.1855583333333","6501000","淡水區"
"251016","442-VK","2018/03/10 18:19:37","新北市淡水區淡金路三段228巷9號","121.449466666667","25.2049683333333","6501000","淡水區"
"251005","443-VK","2018/03/10 18:19:40","新北市淡水區水源街一段122巷39號","121.447121666667","25.1703666666667","6501000","淡水區"
"251006","561-UM","2018/03/10 18:19:43","新北市淡水區新生街29號","121.439445","25.17508","6501000","淡水區"
"251011","650-BX","2018/03/10 18:19:37","新北市淡水區淡金路33-18號","121.45682","25.161935","6501000","淡水區"
"251003","766-UM","2018/03/10 18:19:41","新北市淡水區北新路137號","121.449415","25.1788216666667","6501000","淡水區"
"207003","550-UM","2018/03/10 18:19:25","新北市萬里區野柳里港東路8-2號","121.686953333333","25.2034433333333","6502800","萬里區"
"207004","225-TW","2018/03/10 18:19:24","新北市萬里區中幅里中福路177號","121.674301666667","25.1653583333333","6502800","萬里區"
"252002","178-VK","2018/03/10 18:19:44","新北市三芝區中山路二段35號","121.502858333333","25.25521","6502100","三芝區"
"252003","249-BX","2018/03/10 18:19:40","新北市三芝區錫板里海尾14-32號","121.477673333333","25.2596616666667","6502100","三芝區"
"252001","292-VK","2018/03/10 18:19:35","新北市三芝區中興街二段2號","121.498371666667","25.2566583333333","6502100","三芝區"
"237007","153-BY","2018/03/10 18:19:27","新北市三峽區中正路二段608號","121.358755","24.9056633333333","6500900","三峽區"
"237009","210-TH","2018/03/10 18:19:24","新北市三峽區大仁路50巷16號","121.365371666667","24.938015","6500900","三峽區"
"237013","252-BX","2018/03/10 18:19:45","新北市三峽區永安街3號","121.37796","24.93","6500900","三峽區"
"237012","275-BY","2018/03/10 18:19:42","新北市三峽區民生街1巷6-11號","121.377075","24.9359766666667","6500900","三峽區"
"237008","302-VK","2018/03/10 18:19:30","新北市三峽區白雞68-85號","121.392545","24.9085733333333","6500900","三峽區"
"237014","433-BY","2018/03/10 18:19:37","新北市三峽區復興路57號","121.373253333333","24.9370366666667","6500900","三峽區"
"237006","5529-G3","2018/03/10 18:19:28","新北市三峽區溪東路240號","121.408356666667","24.9315516666667","6500900","三峽區"
"237011","KEA-2596","2018/03/10 18:19:29","新北市三峽區溪東路350號","121.411023333333","24.92985","6500900","三峽區"
"237016","649-BX","2018/03/10 18:11:32","新北市三峽區紫新路32巷13號","121.422808333333","24.9219666666667","6500900","三峽區"
"237010","706-TV","2018/03/10 18:19:40","新北市三峽區中山路190號","121.363678333333","24.9368733333333","6500900","三峽區"
"237005","AKY-6261","2018/03/10 18:19:42","新北市三峽區秀川街59號","121.370466666667","24.93346","6500900","三峽區"
"236073","105-UM","2018/03/10 18:19:44","新北市土城區永豐路153巷5號","121.467368333333","24.9822583333333","6501300","土城區"
"236043","107-UM","2018/03/10 18:19:31","新北市土城區樂利街3巷16號","121.448563333333","24.9863666666667","6501300","土城區"
"236079","166-UM","2018/03/10 18:19:41","新北市土城區中央路三段281巷17號","121.425888333333","24.96243","6501300","土城區"
"236031","253-BX","2018/03/10 18:19:39","新北市土城區順風路29號","121.440251666667","24.9770033333333","6501300","土城區"
"236026","269-VK","2018/03/10 18:19:43","新北市土城區承天路56號","121.440751666667","24.9625183333333","6501300","土城區"
"236015","270-VK","2018/03/10 18:19:31","新北市土城區青雲路39巷7號","121.460235","24.987425","6501300","土城區"
"236038","271-VK","2018/03/10 18:19:44","新北市土城區青雲路483巷9號","121.459401666667","24.9735783333333","6501300","土城區"
"236023","401-BY","2018/03/10 18:19:37","新北市土城區延吉街294號","121.464633333333","24.984125","6501300","土城區"
"236059","912-UM","2018/03/10 18:19:25","新北市土城區中央路四段207號","121.413955","24.95603","6501300","土城區"
"236049","913-UM","2018/03/10 18:19:41","新北市土城區明德路一段361-3號","121.456088333333","24.97782","6501300","土城區"
"236063","915-UM","2018/03/10 18:19:25","新北市土城區金城路三段243號","121.471516666667","24.9897616666667","6501300","土城區"
"236055","AAC-216","2018/03/10 18:19:36","新北市土城區中華路二段92號","121.438163333333","24.9746583333333","6501300","土城區"
"242058","986-R7","2018/03/10 18:19:29","新北市新莊區中正路732號","121.413986666667","25.02325","6500500","新莊區"
"242053","751-BX","2018/03/10 18:19:27","新北市新莊區光華街76號","121.427928333333","25.0122633333333","6500500","新莊區"
"242027","615-BX","2018/03/10 18:19:26","新北市新莊區幸福路834號","121.445215","25.0490716666667","6500500","新莊區"
"242025","613-BX","2018/03/10 18:19:36","新北市新莊區五工路68巷1號","121.45831","25.0635966666667","6500500","新莊區"
"242042","566-BX","2018/03/10 18:19:41","新北市新莊區天祥街88號","121.415383333333","25.0295733333333","6500500","新莊區"
"242046","497-BY","2018/03/10 18:19:26","新北市新莊區中正路831-1號","121.420926666667","25.0275683333333","6500500","新莊區"
"242019","442-UM","2018/03/10 18:19:42","新北市新莊區公園路116號","121.451318333333","25.0400233333333","6500500","新莊區"
"242051","441-UM","2018/03/10 18:19:30","新北市新莊區民安東路5號","121.42766","25.0210133333333","6500500","新莊區"
"242007","413-TV","2018/03/10 18:19:25","新北市新莊區自治街37號","121.454206666667","25.0479733333333","6500500","新莊區"
"242044","400-BY","2018/03/10 18:19:39","新北市新莊區雙鳳路134巷34號","121.412221666667","25.028435","6500500","新莊區"
"242061","353-BY","2018/03/10 18:19:31","新北市新莊區後港一路42號","121.425968333333","25.0261933333333","6500500","新莊區"
"242009","132-UY","2018/03/10 18:19:31","新北市新莊區昌平街71巷19號","121.45357","25.0534633333333","6500500","新莊區"
"242031","135-UY","2018/03/10 18:19:27","新北市新莊區新泰路255巷31號","121.44491","25.0396733333333","6500500","新莊區"
"242048","172-VK","2018/03/10 18:19:40","新北市新莊區民安路56號","121.423223333333","25.0274733333333","6500500","新莊區"
"242015","346-TH","2018/03/10 18:19:32","新北市新莊區中平路198巷13號","121.445768333333","25.0484866666667","6500500","新莊區"
"242011","347-TH","2018/03/10 18:19:26","新北市新莊區中港路591巷24號","121.449995","25.05238","6500500","新莊區"
"242021","348-TH","2018/03/10 18:19:40","新北市新莊區新興街46號","121.450798333333","25.0373666666667","6500500","新莊區"
"242002","349-TH","2018/03/10 18:19:26","新北市新莊區新泰路3巷1號","121.449806666667","25.0321916666667","6500500","新莊區"
"238023","601-UM","2018/03/10 18:19:32","新北市樹林區三福街67巷11號","121.407711666667","25.015725","6500700","樹林區"
"238019","599-UM","2018/03/10 18:19:37","新北市樹林區中華路190-16號","121.411778333333","24.980595","6500700","樹林區"
"238018","571-TV","2018/03/10 18:19:37","新北市樹林區保安街一段20巷2號","121.427688333333","24.9934833333333","6500700","樹林區"
"238024","5061-A6","2018/03/10 18:19:41","新北市樹林區育英街1號","121.422683333333","24.9890183333333","6500700","樹林區"
"238021","KEA-2539","2018/03/10 18:19:24","新北市樹林區柑園街二段175號","121.380436666667","24.9529033333333","6500700","樹林區"
"238025","303-VK","2018/03/10 18:19:23","新北市樹林區保安街一段328號","121.418275","24.9977616666667","6500700","樹林區"
"238017","283-BY","2018/03/10 18:19:42","新北市樹林區中正路500號","121.412161666667","25.0132683333333","6500700","樹林區"
"238014","282-BY","2018/03/10 18:19:38","新北市樹林區大安路111巷11號","121.423061666667","24.9975833333333","6500700","樹林區"
"238020","268-VK","2018/03/10 18:18:42","新北市樹林區三俊街56號","121.412813333333","25.0156633333333","6500700","樹林區"
"238026","172-UY","2018/03/10 18:19:26","新北市樹林區佳園路一段41巷28弄14號","121.394745","24.9703833333333","6500700","樹林區"
"238016","169-UY","2018/03/10 18:19:28","新北市樹林區文化街27號","121.41916","24.9876966666667","6500700","樹林區"
"239007","AAC-297","2018/03/10 18:19:31","新北市鶯歌區尖山埔路3號","121.349473333333","24.9510883333333","6500800","鶯歌區"
"239006","891-R6","2018/03/10 18:19:33","新北市鶯歌區德昌街50號","121.333146666667","24.9598133333333","6500800","鶯歌區"
"239008","527-UM","2018/03/10 18:19:44","新北市鶯歌區國際一路179號","121.336186666667","24.9764916666667","6500800","鶯歌區"
"239005","526-UM","2018/03/10 18:19:37","新北市鶯歌區鶯桃路668巷52弄21號","121.329753333333","24.9703066666667","6500800","鶯歌區"
"239001","417-VK","2018/03/10 18:19:42","新北市鶯歌區國中街195號","121.338321666667","24.9391866666667","6500800","鶯歌區"
"239003","360-BY","2018/03/10 18:19:32","新北市鶯歌區福安街13巷1號","121.335628333333","24.9652883333333","6500800","鶯歌區"
"239002","359-BY","2018/03/10 18:19:34","新北市鶯歌區中正一路4號","121.352476666667","24.9528283333333","6500800","鶯歌區"
"221036","130-UY","2018/03/10 18:19:42","新北市汐止區長安路77巷22弄12號","121.669605","25.0789416666667","6501100","汐止區"
"221010","269-BY","2018/03/10 18:19:33","新北市汐止區祥雲街49號","121.647398333333","25.0897416666667","6501100","汐止區"
"221012","278-VK","2018/03/10 18:19:34","新北市汐止區保長路35巷15弄8號","121.673071666667","25.0803766666667","6501100","汐止區"
"221023","279-VK","2018/03/10 18:19:28","新北市汐止區中興路197-1號","121.629886666667","25.0675333333333","6501100","汐止區"
"221032","280-BY","2018/03/10 18:19:31","新北市汐止區橫科路2巷9號","121.616451666667","25.0509116666667","6501100","汐止區"
"221027","281-BY","2018/03/10 18:19:37","新北市汐止區和平街13號","121.663078333333","25.0707433333333","6501100","汐止區"
"221033","297-VK","2018/03/10 18:19:43","新北市汐止區宜興街59巷7號","121.622051666667","25.042795","6501100","汐止區"
"221029","298-VK","2018/03/10 18:19:26","新北市汐止區樟樹二路322號","121.641381666667","25.0700566666667","6501100","汐止區"
"221021","299-VK","2018/03/10 18:19:33","新北市汐止區新台五路一段151號","121.653505","25.0622866666667","6501100","汐止區"
"221031","353-TW","2018/03/10 18:19:40","新北市汐止區大同路一段160-7號","121.635536666667","25.0553833333333","6501100","汐止區"
"221008","129-UY","2018/03/10 18:19:42","新北市汐止區康寧街901號","121.651436666667","25.0750116666667","6501100","汐止區"
"221035","622-UM","2018/03/10 18:19:40","新北市汐止區大同路二段169巷34號","121.650705","25.065145","6501100","汐止區"
"221025","623-UM","2018/03/10 18:19:34","新北市汐止區勤進路12巷38號","121.659193333333","25.062755","6501100","汐止區"
"221038","646-BX","2018/03/10 18:19:31","新北市汐止區忠孝東路282號","121.663803333333","25.0682566666667","6501100","汐止區"
"221002","707-TV","2018/03/10 18:19:33","新北市汐止區福德一路213巷33號","121.635618333333","25.0646866666667","6501100","汐止區"
"221018","753-BX","2018/03/10 18:19:32","新北市汐止區茄苳路118號","121.668158333333","25.0704233333333","6501100","汐止區"
"242056","280-VK","2018/03/10 18:19:31","新北市新莊區豐年街豐2巷10號","121.447071666667","25.0307716666667","6500500","新莊區"
