"lineid","car","time","location","longitude","latitude","cityid","cityname"
"234046","148-BY","2018/03/10 18:49:29","新北市永和區秀朗路二段149號","121.524823333333","25.001615","6500400","永和區"
"234007","208-UY","2018/03/10 18:49:40","新北市永和區文化路115號","121.512691666667","25.015255","6500400","永和區"
"234081","298-R6","2018/03/10 18:49:31","新北市永和區永利路106號","121.521088333333","25.0033333333333","6500400","永和區"
"234038","336-UY","2018/03/10 18:49:38","新北市永和區成功路一段133號","121.526831666667","25.0016733333333","6500400","永和區"
"234064","337-UY","2018/03/10 18:49:33","新北市永和區福和路1號","121.526583333333","25.0100416666667","6500400","永和區"
"234086","338-UY","2018/03/10 18:49:32","新北市永和區中正路77號","121.515095","24.9968266666667","6500400","永和區"
"234070","552-UM","2018/03/10 18:49:29","新北市永和區豫溪街189巷1號","121.522578333333","25.0103283333333","6500400","永和區"
"234017","745-BX","2018/03/10 18:49:32","新北市永和區永和路二段297號","121.515931666667","25.0160266666667","6500400","永和區"
"234030","746-BX","2018/03/10 18:49:32","新北市永和區得和路336號","121.523496666667","24.99946","6500400","永和區"
"234054","KEA-2590","2018/03/10 18:49:27","新北市永和區豫溪街191巷1弄1號","121.523101666667","25.0103716666667","6500400","永和區"
"234013","KEA-2591","2018/03/10 18:49:39","新北市永和區保福路二段133巷1號","121.509566666667","25.0138116666667","6500400","永和區"
"234061","AAD-866","2018/03/10 18:49:30","新北市永和區中正路509巷4號","121.516526666667","25.007065","6500400","永和區"
"234042","862-TW","2018/03/10 18:49:45","新北市永和區永貞路271號","121.51173","25.0048466666667","6500400","永和區"
"234050","863-TW","2018/03/10 18:49:40","新北市永和區環河東路二段8號","121.522218333333","25.013555","6500400","永和區"
"234011","9373-KE","2018/03/10 18:49:43","新北市永和區文化路126巷10弄4號","121.513208333333","25.0158583333333","6500400","永和區"
"249005","172-UM","2018/03/10 18:49:37","新北市八里區長道坑16-3號","121.39578","25.115445","6502300","八里區"
"249001","173-UM","2018/03/10 18:49:42","新北市八里區龍米路二段79號","121.447891666667","25.141415","6502300","八里區"
"248016","026-BX","2018/03/10 18:49:35","新北市五股區凌雲路一段149巷42號","121.448656666667","25.1009316666667","6501500","五股區"
"248006","077-UY","2018/03/10 18:49:34","新北市五股區四維路1巷1號","121.466866666667","25.070095","6501500","五股區"
"248008","095-VK","2018/03/10 18:49:35","新北市五股區中興路一段151巷1弄1號","121.465081666667","25.0732666666667","6501500","五股區"
"248020","225-UY","2018/03/10 18:49:03","新北市五股區凌雲路三段田埔巷15號","121.434276666667","25.1213583333333","6501500","五股區"
"248012","247-BX","2018/03/10 18:49:29","新北市五股區工商路18巷1號","121.439868333333","25.0834266666667","6501500","五股區"
"248004","677-BX","2018/03/10 18:49:35","新北市五股區民義路二段46-6號","121.413613333333","25.1016316666667","6501500","五股區"
"248002","678-BX","2018/03/10 18:49:29","新北市五股區成泰路三段460號","121.45146","25.1004366666667","6501500","五股區"
"248010","682-TV","2018/03/10 18:49:32","新北市五股區明德路23號","121.4346","25.07134","6501500","五股區"
"234023","9380-KE","2018/03/10 18:49:36","新北市永和區竹林路119巷47號","121.522045","25.0118883333333","6500400","永和區"
"234077","969-R7","2018/03/10 18:49:41","新北市永和區中正路42巷12號","121.513411666667","24.9940783333333","6500400","永和區"
"234067","AAC-212","2018/03/10 18:49:25","新北市永和區永和路一段22號","121.513041666667","25.00487","6500400","永和區"
"234003","AAC-295","2018/03/10 18:49:40","新北市永和區中正路736號","121.5153","25.01013","6500400","永和區"
"232011","375-UM","2018/03/10 18:49:30","新北市坪林區坪雙路一段1-1號","121.711215","24.94051","6502000","坪林區"
"244013","069-UM","2018/03/10 18:49:39","新北市林口區文化一路一段137號","121.37409","25.07197","6501700","林口區"
"244007","080-UY","2018/03/10 18:49:30","新北市林口區後湖14鄰49號","121.385971666667","25.0999633333333","6501700","林口區"
"244019","402-UM","2018/03/10 18:49:40","新北市林口區麗園二街36巷1號","121.380468333333","25.06914","6501700","林口區"
"244025","742-UY","2018/03/10 18:49:37","新北市林口區南勢二街162號","121.35919","25.0747833333333","6501700","林口區"
"244023","483-VK","2018/03/10 18:49:43","新北市林口區文化二路二段94號","121.378665","25.0815183333333","6501700","林口區"
"244017","485-VK","2018/03/10 18:49:32","新北市林口區文化二路一段20巷25弄21號","121.365716666667","25.0674433333333","6501700","林口區"
"244009","656-BX","2018/03/10 18:49:34","新北市林口區竹林路278巷1號","121.390346666667","25.081965","6501700","林口區"
"244011","701-TV","2018/03/10 18:49:29","新北市林口區新寮1-61號","121.392803333333","25.0765333333333","6501700","林口區"
"243012","AAD-798","2018/03/10 18:49:28","新北市泰山區福興三街13號","121.434411666667","25.05781","6501600","泰山區"
"243015","380-SR","2018/03/10 18:49:17","新北市泰山區美寧街54號","121.430666666667","25.0644566666667","6501600","泰山區"
"243014","421-VK","2018/03/10 18:49:31","新北市泰山區犁頭窠3-1號","121.422013333333","25.060595","6501600","泰山區"
"243010","KEA-2215","2018/03/10 18:49:39","新北市泰山區泰林路二段353號","121.42831","25.0638","6501600","泰山區"
"243013","646-TV","2018/03/10 18:33:57","新北市泰山區明志路三段206巷3號","121.423273333333","25.0379116666667","6501600","泰山區"
"243016","680-BX","2018/03/10 18:49:26","新北市泰山區明志路一段221號","121.432638333333","25.0611466666667","6501600","泰山區"
"222003","436-BY","2018/03/10 18:49:35","新北市深坑區北深路一段300號","121.623256666667","25.0053466666667","6501800","深坑區"
"222002","659-BX","2018/03/10 18:49:31","新北市深坑區文山路一段69號","121.62698","25.0018666666667","6501800","深坑區"
"231041","002-UM","2018/03/10 18:49:43","新北市新店區安華路28-1號","121.519516666667","24.960885","6500600","新店區"
"231059","046-UY","2018/03/10 18:49:38","新北市新店區安華路28-1號","121.5196","24.9608983333333","6500600","新店區"
"231061","047-UY","2018/03/10 18:49:28","新北市新店區安康路二段1-4號","121.517025","24.963185","6500600","新店區"
"231060","106-UY","2018/03/10 18:49:41","新北市新店區安華路28-1號","121.519583333333","24.960825","6500600","新店區"
"231051","107-UY","2018/03/10 18:49:37","新北市新店區中央路63號","121.532553333333","24.9770616666667","6500600","新店區"
"231048","108-UY","2018/03/10 18:49:36","新北市新店區中正路117巷3號","121.542363333333","24.970335","6500600","新店區"
"231052","187-VK","2018/03/10 18:49:28","新北市新店區新烏路一段105巷6號","121.546283333333","24.9408933333333","6500600","新店區"
"231050","KEA-2219","2018/03/10 18:49:32","新北市新店區安康路一段186號","121.524906666667","24.963295","6500600","新店區"
"221015","KEA-2785","2018/03/10 18:49:32","新北市汐止區鄉長路一段55巷22號","121.664735","25.0763766666667","6501100","汐止區"
"231057","256-BX","2018/03/10 18:49:39","新北市新店區金興路35號","121.552821666667","24.9313533333333","6500600","新店區"
"231046","278-BY","2018/03/10 18:49:27","新北市新店區直潭路75號","121.53219","24.9421266666667","6500600","新店區"
"231054","AAD-862","2018/03/10 18:49:29","新北市新店區安康路一段3-1號","121.535148333333","24.9609016666667","6500600","新店區"
"231058","3712-VJ","2018/03/10 18:49:42","新北市新店區北宜路一段76號","121.538613333333","24.95591","6500600","新店區"
"231056","3713-VJ","2018/03/10 18:49:40","新北市新店區建國路172-2號","121.538266666667","24.9796883333333","6500600","新店區"
"231055","4716-K9","2018/03/10 18:49:34","新北市新店區中華路47巷2弄1號","121.53972","24.967565","6500600","新店區"
"231067","4772-VM","2018/03/10 18:49:41","新北市新店區安康路一段261號","121.52432","24.963415","6500600","新店區"
"231065","512-UM","2018/03/10 18:49:31","新北市新店區安康路二段458號","121.494216666667","24.9539683333333","6500600","新店區"
"231064","515-UM","2018/03/10 18:49:34","新北市新店區安華路28-1號","121.5197","24.961065","6500600","新店區"
"231045","617-UM","2018/03/10 18:49:40","新北市新店區安康路一段61號","121.530531666667","24.961015","6500600","新店區"
"231040","619-UM","2018/03/10 18:49:30","新北市新店區環河路29巷1號","121.536975","24.9613933333333","6500600","新店區"
"231042","641-BX","2018/03/10 18:49:32","新北市新店區環河路29巷1號","121.536395","24.96121","6500600","新店區"
"231063","645-TV","2018/03/10 18:49:38","新北市新店區安華路28-1號","121.519376666667","24.960625","6500600","新店區"
"231049","719-UM","2018/03/10 18:49:40","新北市新店區中正路454-5號","121.53442","24.9790566666667","6500600","新店區"
"231062","720-UM","2018/03/10 18:49:31","新北市新店區安豐路22巷18-1號","121.501871666667","24.9544516666667","6500600","新店區"
"231044","897-TW","2018/03/10 18:49:33","新北市新店區寶中路73號","121.547515","24.9804933333333","6500600","新店區"
"231043","899-TW","2018/03/10 18:49:32","新北市新店區安康路一段75號","121.53016","24.9610883333333","6500600","新店區"
"231066","AKT-0513","2018/03/10 18:49:35","新北市新店區安豐路22巷3-1號","121.502578333333","24.9554816666667","6500600","新店區"
"241035","462-BY","2018/03/10 18:49:45","新北市三重區重新路四段121號","121.484371666667","25.0521533333333","6500200","三重區"
"235066","003-UY","2018/03/10 18:49:40","新北市中和區水源路31號","121.504135","25.003615","6500300","中和區"
"235064","005-UY","2018/03/10 18:49:28","新北市中和區連城路75巷7號","121.49825","24.9986866666667","6500300","中和區"
"235063","006-UY","2018/03/10 18:49:25","新北市中和區錦和路196巷6號","121.489786666667","24.9949616666667","6500300","中和區"
"235052","031-BX","2018/03/10 18:49:44","新北市中和區興南路二段399巷98弄40號","121.49894","24.9768","6500300","中和區"
"235056","096-UM","2018/03/10 18:49:29","新北市中和區員山路611巷5弄3號","121.477988333333","25.011145","6500300","中和區"
"235039","097-UM","2018/03/10 18:49:40","新北市中和區安樂路143巷19號","121.513565","24.9971016666667","6500300","中和區"
"235065","098-UM","2018/03/10 18:49:34","新北市中和區中山路二段2巷45弄2號","121.502216666667","25.0070716666667","6500300","中和區"
"235040","150-BY","2018/03/10 18:49:44","新北市中和區保健路98號","121.512373333333","24.995915","6500300","中和區"
"235058","151-BY","2018/03/10 18:49:30","新北市中和區連城路526-1號","121.475915","24.9916783333333","6500300","中和區"
"235055","183-VK","2018/03/10 18:49:29","新北市中和區民生街53號","121.469623333333","25.0051766666667","6500300","中和區"
"235038","185-VK","2018/03/10 18:49:26","新北市中和區大勇街31巷23號","121.517056666667","24.99455","6500300","中和區"
"235049","186-VK","2018/03/10 18:49:13","新北市中和區景安路120巷3號","121.505265","24.9948116666667","6500300","中和區"
"235067","255-BX","2018/03/10 18:49:28","新北市中和區新生街11號","121.483183333333","25.0043416666667","6500300","中和區"
"235044","293-VK","2018/03/10 18:49:27","新北市中和區中興街161巷1弄19號","121.500108333333","24.9913433333333","6500300","中和區"
"235072","301-VK","2018/03/10 18:49:41","新北市永和區中山路一段285號","121.50692","25.0070383333333","6500300","中和區"
"235043","352-BY","2018/03/10 18:49:29","新北市中和區成功路139號","121.526103333333","24.990535","6500300","中和區"
"235068","377-QA","2018/03/10 18:39:00","新北市中和區中正路209號","121.497091666667","24.9936183333333","6500300","中和區"
"235061","378-QA","2018/03/10 18:49:20","新北市中和區民享街44巷16號","121.473411666667","25.0026683333333","6500300","中和區"
"235050","4979-A6","2018/03/10 18:49:25","新北市中和區忠孝街62巷9弄1號","121.513116666667","24.9839466666667","6500300","中和區"
"235069","4980-A6","2018/03/10 18:49:35","新北市中和區泰和街9號","121.499545","25.0002733333333","6500300","中和區"
"235042","551-UM","2018/03/10 18:49:30","新北市中和區秀朗路三段135巷1號","121.525361666667","24.9925083333333","6500300","中和區"
"235045","565-BX","2018/03/10 18:49:29","新北市中和區復興路73-1號","121.503851666667","24.9901683333333","6500300","中和區"
"235054","640-BX","2018/03/10 18:49:28","新北市中和區莒光路129巷2弄5號","121.473088333333","25.0017366666667","6500300","中和區"
"235060","647-TV","2018/03/10 18:49:27","新北市中和區中山路三段35號","121.47893","25.0058066666667","6500300","中和區"
"235047","732-UM","2018/03/10 18:49:32","新北市中和區興南路二段34巷55弄1號","121.504901666667","24.9862433333333","6500300","中和區"
"235046","733-UM","2018/03/10 18:49:35","新北市中和區仁愛街36巷28號","121.511","24.9869633333333","6500300","中和區"
"235062","800-TS","2018/03/10 18:49:36","新北市中和區中山路二段356號","121.492941666667","25.003005","6500300","中和區"
"235057","801-TS","2018/03/10 18:49:36","新北市中和區民安街23號","121.48041","25.00054","6500300","中和區"
"235041","802-TS","2018/03/10 18:49:43","新北市中和區宜安路118巷20號","121.51085","24.9986866666667","6500300","中和區"
"235048","896-TW","2018/03/10 18:49:39","新北市中和區華新街13號","121.507545","24.9851066666667","6500300","中和區"
"235053","900-TW","2018/03/10 18:49:31","新北市中和區華福街42巷6-3號","121.466351666667","24.9962183333333","6500300","中和區"
"235070","911-UM","2018/03/10 18:49:30","新北市中和區圓通路49號","121.500813333333","24.9975433333333","6500300","中和區"
"235051","157-BY","2018/03/10 18:49:40","新北市中和區忠孝街106巷48號","121.513541666667","24.9842316666667","6500300","中和區"
"235059","AAC-215","2018/03/10 18:49:41","新北市中和區圓通路393巷16號","121.489775","24.9886583333333","6500300","中和區"
"220068","013-TV","2018/03/10 18:49:40","新北市板橋區民生路二段121號","121.470791666667","25.0185233333333","6500100","板橋區"
"220065","072-UY","2018/03/10 18:49:36","新北市板橋區漢生東路282號","121.47108","25.0089633333333","6500100","板橋區"
"220086","073-UY","2018/03/10 18:49:39","新北市板橋區大智街69號","121.453713333333","25.0155883333333","6500100","板橋區"
"220106","075-UY","2018/03/10 18:49:33","新北市板橋區民生路二段120號","121.470625","25.0199816666667","6500100","板橋區"
"220069","AAD-861","2018/03/10 18:49:47","新北市板橋區四川路一段10巷23號","121.45882","25.0063066666667","6500100","板橋區"
"247010","341-TH","2018/03/10 18:49:33","新北市五股區天乙路102-18號","121.447245","25.1069816666667","6501400","蘆洲區"
"226004","205-ST","2018/03/10 18:49:40","新北市平溪區平溪里平溪街22號","121.738811666667","25.0253483333333","6502400","平溪區"
"228003","097-TW","2018/03/10 18:49:32","新北市瑞芳區鼻頭路127號","121.917003333333","25.1214633333333","6502600","貢寮區"
"228001","212-TW","2018/03/10 18:49:36","新北市貢寮區仁理村研海街12-1號","121.923771666667","25.0516833333333","6502600","貢寮區"
"228002","585-TW","2018/03/10 18:49:35","新北市貢寮區福隆里東興街6-11號","121.950731666667","25.0210666666667","6502600","貢寮區"
"224010","AGQ-8101","2018/03/10 18:49:34","新北市瑞芳區汽車路3號","121.847293333333","25.1114433333333","6501200","瑞芳區"
"224006","676-BX","2018/03/10 18:49:41","新北市瑞芳區一坑路48號","121.803603333333","25.1089033333333","6501200","瑞芳區"
"224002","639-TC","2018/03/10 18:49:29","新北市瑞芳區傑魚坑路44-1號","121.793556666667","25.107495","6501200","瑞芳區"
"224008","285-BY","2018/03/10 18:49:27","新北市瑞芳區裕民新城1號","121.80199","25.112005","6501200","瑞芳區"
"224007","275-VK","2018/03/10 18:49:44","新北市瑞芳區大埔路東泰新村2號","121.761298333333","25.1012183333333","6501200","瑞芳區"
"224009","273-VK","2018/03/10 18:49:40","新北市瑞芳區祈堂路2號","121.859706666667","25.1117116666667","6501200","瑞芳區"
"224005","271-BY","2018/03/10 18:49:38","新北市瑞芳區海濱路155-1號","121.829683333333","25.1219766666667","6501200","瑞芳區"
"227010","642-TC","2018/03/10 18:49:23","新北市雙溪區牡丹里聖南26號","121.856398333333","25.0533566666667","6502500","雙溪區"
"227002","400-TW","2018/03/10 18:49:45","新北市雙溪區平林里梅竹蹊28號","121.861616666667","25.036025","6502500","雙溪區"
"253005","032-BX","2018/03/10 18:49:33","新北市石門區中山路9號","121.565473333333","25.2905283333333","6502200","石門區"
"253006","741-TV","2018/03/10 18:49:40","新北市石門區下員坑16號","121.510573333333","25.2836383333333","6502200","石門區"
"222001","KEA-2212","2018/03/10 18:49:30","新北市深坑區松柏街41號","121.6387","25.01163","6501800","深坑區"
"208002","KEA-2872","2018/03/10 18:49:37","新北市金山區信義路66號","121.63568","25.2189533333333","6502700","金山區"
"208003","665-BX","2018/03/10 18:49:40","新北市金山區中山路338號","121.633585","25.2252133333333","6502700","金山區"
"208001","761-BX","2018/03/10 18:49:30","新北市金山區文化三路66巷1號","121.634205","25.2256266666667","6502700","金山區"
"251009","008-UM","2018/03/10 18:49:32","新北市淡水區重建街181號","121.4408","25.1742116666667","6501000","淡水區"
"251001","011-UM","2018/03/10 18:49:31","新北市淡水區自強路271號","121.462675","25.1280633333333","6501000","淡水區"
"251002","012-UM","2018/03/10 18:49:38","新北市淡水區學府路68號","121.448828333333","25.1702933333333","6501000","淡水區"
"251013","179-VK","2018/03/10 18:49:32","新北市淡水區安子內5-2號","121.482853333333","25.214385","6501000","淡水區"
"251014","180-VK","2018/03/10 18:49:38","新北市淡水區崙頂3號","121.491","25.2239133333333","6501000","淡水區"
"251015","182-VK","2018/03/10 18:49:37","新北市淡水區興福寮88巷1-10號","121.487173333333","25.1661916666667","6501000","淡水區"
"251010","413-VK","2018/03/10 18:49:29","新北市淡水區沙崙路14號","121.421085","25.1810916666667","6501000","淡水區"
"251012","441-VK","2018/03/10 18:49:34","新北市淡水區新興街9號","121.443488333333","25.1805483333333","6501000","淡水區"
"251016","442-VK","2018/03/10 18:49:37","新北市淡水區下圭柔山71-3號","121.446991666667","25.2061616666667","6501000","淡水區"
"251011","650-BX","2018/03/10 18:49:37","新北市淡水區學府路28號","121.447673333333","25.1683416666667","6501000","淡水區"
"251003","766-UM","2018/03/10 18:49:41","新北市淡水區中山北路一段186巷27弄1-1號","121.446403333333","25.1787416666667","6501000","淡水區"
"207003","550-UM","2018/03/10 18:49:45","新北市萬里區大鵬里頂社24-5號","121.65943","25.2075866666667","6502800","萬里區"
"207004","225-TW","2018/03/10 18:49:44","新北市萬里區萬里里獅頭路23號","121.693146666667","25.1782716666667","6502800","萬里區"
"252002","178-VK","2018/03/10 18:49:24","新北市三芝區中正路一段101號","121.50477","25.256435","6502100","三芝區"
"252003","249-BX","2018/03/10 18:49:40","新北市三芝區後厝里大片頭76號","121.459231666667","25.2455683333333","6502100","三芝區"
"252001","292-VK","2018/03/10 18:49:35","新北市三芝區中正路三段9號","121.50287","25.2540133333333","6502100","三芝區"
"237004","KEA-2597","2018/03/10 18:49:24","新北市三峽區有木108-2號","121.433285","24.8618766666667","6500900","三峽區"
"237007","153-BY","2018/03/10 18:49:27","新北市三峽區中正路二段395巷23號","121.365318333333","24.9076316666667","6500900","三峽區"
"237009","210-TH","2018/03/10 18:49:44","新北市三峽區民權街153-1號","121.368446666667","24.931425","6500900","三峽區"
"237013","252-BX","2018/03/10 18:49:28","新北市三峽區光明路69巷25號","121.376626666667","24.929245","6500900","三峽區"
"237012","275-BY","2018/03/10 18:49:42","新北市三峽區三樹路340號","121.38394","24.9433233333333","6500900","三峽區"
"237008","302-VK","2018/03/10 18:49:30","新北市三峽區白雞33-60號","121.370885","24.9131133333333","6500900","三峽區"
"237014","433-BY","2018/03/10 18:49:37","新北市三峽區隆恩街170號","121.363118333333","24.942855","6500900","三峽區"
"237006","5529-G3","2018/03/10 18:49:28","新北市三峽區溪東路233巷4弄17號","121.407226666667","24.933765","6500900","三峽區"
"237011","KEA-2596","2018/03/10 18:49:29","新北市三峽區介壽路三段163-1號","121.401145","24.9433983333333","6500900","三峽區"
"237016","649-BX","2018/03/10 18:39:32","新北市三峽區竹崙路68號","121.43209","24.9191666666667","6500900","三峽區"
"237010","706-TV","2018/03/10 18:49:40","新北市三峽區復興路285號","121.366045","24.938905","6500900","三峽區"
"237005","AKY-6261","2018/03/10 18:49:42","新北市三峽區中山路299巷15弄29號","121.361706666667","24.935915","6500900","三峽區"
"236073","105-UM","2018/03/10 18:49:24","新北市土城區青雲路33號","121.460516666667","24.9883366666667","6501300","土城區"
"236043","107-UM","2018/03/10 18:49:29","新北市土城區裕民路92巷25弄4號","121.449561666667","24.9858616666667","6501300","土城區"
"236079","166-UM","2018/03/10 18:49:21","新北市土城區中央路四段67巷42號","121.417918333333","24.95706","6501300","土城區"
"236031","253-BX","2018/03/10 18:49:39","新北市土城區忠義路26巷10號","121.4399","24.969915","6501300","土城區"
"236026","269-VK","2018/03/10 18:49:43","新北市土城區光明街38號","121.442093333333","24.9736366666667","6501300","土城區"
"236015","270-VK","2018/03/10 18:49:44","新北市土城區清水路235巷5弄2號","121.46065","24.983905","6501300","土城區"
"236038","271-VK","2018/03/10 18:49:44","新北市土城區明德路一段221巷9號","121.463708333333","24.9780566666667","6501300","土城區"
"236023","401-BY","2018/03/10 18:49:37","新北市土城區金城路三段116巷13號","121.46689","24.9868516666667","6501300","土城區"
"236059","912-UM","2018/03/10 18:49:25","新北市土城區中央路三段141-6號","121.43325","24.965335","6501300","土城區"
"236049","913-UM","2018/03/10 18:49:45","新北市土城區青雲路35號","121.460045","24.9885466666667","6501300","土城區"
"236063","915-UM","2018/03/10 18:49:25","新北市土城區金城路三段207巷6弄13號","121.470736666667","24.9903133333333","6501300","土城區"
"236055","AAC-216","2018/03/10 18:49:35","新北市土城區裕民路222號","121.453548333333","24.984235","6501300","土城區"
"242002","349-TH","2018/03/10 18:49:26","新北市樹林區八德街437-1號","121.405676666667","24.9700666666667","6500500","新莊區"
"238023","601-UM","2018/03/10 18:49:32","桃園市龜山區萬壽路一段253號","121.404265","25.0174133333333","6500700","樹林區"
"238019","599-UM","2018/03/10 18:49:37","新北市樹林區東榮街147巷27弄5號","121.414746666667","24.9810166666667","6500700","樹林區"
"238018","571-TV","2018/03/10 18:49:36","新北市樹林區鎮前街165號","121.422201666667","24.9872033333333","6500700","樹林區"
"238024","5061-A6","2018/03/10 18:49:41","新北市樹林區育德街78-1號","121.387346666667","24.96814","6500700","樹林區"
"238022","KEA-2213","2018/03/10 18:49:33","新北市樹林區中華路379巷25號","121.413666666667","24.9780483333333","6500700","樹林區"
"238025","303-VK","2018/03/10 18:49:43","新北市樹林區中山路三段22號","121.395596666667","24.9729483333333","6500700","樹林區"
"238017","283-BY","2018/03/10 18:49:32","新北市樹林區光興街50號","121.409818333333","25.0027216666667","6500700","樹林區"
"238014","282-BY","2018/03/10 18:49:37","新北市樹林區大安路111巷11號","121.423091666667","24.9976483333333","6500700","樹林區"
"238020","268-VK","2018/03/10 18:48:42","新北市樹林區俊英街83巷1號","121.425855","25.00789","6500700","樹林區"
"238026","172-UY","2018/03/10 18:49:27","新北市樹林區信和街22號","121.390266666667","24.972985","6500700","樹林區"
"238016","169-UY","2018/03/10 18:49:28","新北市樹林區文化街27號","121.419206666667","24.9877016666667","6500700","樹林區"
"239007","AAC-297","2018/03/10 18:49:31","新北市鶯歌區中正一路建德巷28號","121.364598333333","24.9577783333333","6500800","鶯歌區"
"239006","891-R6","2018/03/10 18:49:33","新北市鶯歌區鶯桃路240號","121.336246666667","24.95942","6500800","鶯歌區"
"239008","527-UM","2018/03/10 18:49:24","新北市鶯歌區國際二路44號","121.335706666667","24.97548","6500800","鶯歌區"
"239005","526-UM","2018/03/10 18:49:37","新北市鶯歌區鳳吉一街86號","121.327045","24.974365","6500800","鶯歌區"
"239001","417-VK","2018/03/10 18:49:42","新北市鶯歌區永明街60巷16號","121.34057","24.955545","6500800","鶯歌區"
"239003","360-BY","2018/03/10 18:49:32","新北市鶯歌區鶯桃路658巷49-1號","121.330576666667","24.9700766666667","6500800","鶯歌區"
"239002","359-BY","2018/03/10 18:49:34","新北市鶯歌區中山路194-10號","121.34757","24.9571333333333","6500800","鶯歌區"
"221036","130-UY","2018/03/10 18:49:42","新北市汐止區南昌街35號","121.662748333333","25.0689633333333","6501100","汐止區"
"221010","269-BY","2018/03/10 18:49:33","新北市汐止區汐萬路一段312號","121.650201666667","25.0749483333333","6501100","汐止區"
"221012","278-VK","2018/03/10 18:49:34","新北市汐止區汐萬路一段256巷3號","121.65243","25.0746216666667","6501100","汐止區"
"221023","279-VK","2018/03/10 18:49:27","新北市汐止區康寧街901號","121.650961666667","25.0752383333333","6501100","汐止區"
"221032","280-BY","2018/03/10 18:49:31","新北市汐止區民權街二段79號","121.619183333333","25.04804","6501100","汐止區"
"221027","281-BY","2018/03/10 18:49:37","新北市汐止區康寧街901號","121.65141","25.0750533333333","6501100","汐止區"
"221033","297-VK","2018/03/10 18:49:43","新北市汐止區南勢街1巷1號","121.62699","25.0374633333333","6501100","汐止區"
"221029","298-VK","2018/03/10 18:49:46","新北市汐止區工建路40號","121.64144","25.0629683333333","6501100","汐止區"
"221031","353-TW","2018/03/10 18:49:40","新北市汐止區福德一路300巷15號","121.63078","25.063855","6501100","汐止區"
"221008","129-UY","2018/03/10 18:49:42","新北市汐止區康寧街901號","121.651386666667","25.074985","6501100","汐止區"
"221035","622-UM","2018/03/10 18:49:40","新北市汐止區汐萬路一段256巷3號","121.652498333333","25.0746066666667","6501100","汐止區"
"221025","623-UM","2018/03/10 18:49:34","新北市汐止區秀峰路68號","121.659855","25.0645066666667","6501100","汐止區"
"221038","646-BX","2018/03/10 18:49:31","新北市汐止區汐萬路一段312號","121.65067","25.0752783333333","6501100","汐止區"
"221002","707-TV","2018/03/10 18:49:13","新北市汐止區大同路一段142-1號","121.631306666667","25.055345","6501100","汐止區"
"221018","753-BX","2018/03/10 18:49:32","新北市汐止區茄苳路59號","121.666598333333","25.0707066666667","6501100","汐止區"
"220079","145-BY","2018/03/10 18:49:40","新北市板橋區民權路202巷7弄22號","121.459206666667","25.0150366666667","6500100","板橋區"
"220080","200-UY","2018/03/10 18:49:23","新北市板橋區大觀路二段265巷60弄45號","121.44153","24.9977933333333","6500100","板橋區"
"220082","610-BX","2018/03/10 18:49:27","新北市板橋區篤行路三段99號","121.426175","24.9845916666667","6500100","板橋區"
"220101","245-BX","2018/03/10 18:49:38","新北市板橋區民生路二段184號","121.471318333333","25.02021","6500100","板橋區"
"220098","257-TC","2018/03/10 18:49:45","新北市板橋區民生路二段120號","121.470401666667","25.0197","6500100","板橋區"
"220056","276-BY","2018/03/10 18:49:43","新北市板橋區信義路69號","121.457145","24.9954783333333","6500100","板橋區"
"220072","277-BY","2018/03/10 18:49:41","新北市板橋區大觀路三段32號","121.434005","24.9958033333333","6500100","板橋區"
"220094","280-UM","2018/03/10 18:49:44","新北市板橋區民生路二段148號","121.471268333333","25.0199766666667","6500100","板橋區"
"220071","283-VK","2018/03/10 18:49:34","新北市板橋區忠孝路176巷7號","121.4648","25.0018633333333","6500100","板橋區"
"220053","285-VK","2018/03/10 18:49:32","新北市板橋區民生路二段121號","121.470868333333","25.0182016666667","6500100","板橋區"
"220083","286-VK","2018/03/10 18:49:29","新北市板橋區僑中二街98號","121.446215","25.008415","6500100","板橋區"
"220081","287-VK","2018/03/10 18:49:41","新北市板橋區南雅西路二段98-4號","121.452321666667","25.01163","6500100","板橋區"
"220090","288-VK","2018/03/10 18:49:29","新北市板橋區民生路二段161巷9號","121.470275","25.019665","6500100","板橋區"
"220061","293-UM","2018/03/10 18:49:33","新北市板橋區太和街4巷1號","121.473985","25.0198033333333","6500100","板橋區"
"220062","295-UM","2018/03/10 18:49:39","新北市板橋區中山路二段23號","121.472356666667","25.01533","6500100","板橋區"
"220084","296-UM","2018/03/10 18:49:36","新北市板橋區大觀路二段150巷62-1號","121.441578333333","25.0007183333333","6500100","板橋區"
"220075","303-R5","2018/03/10 18:49:31","新北市板橋區館前西路257號","121.454185","25.0086783333333","6500100","板橋區"
"220092","307-R5","2018/03/10 18:49:36","新北市板橋區民生路二段120號","121.470721666667","25.0195266666667","6500100","板橋區"
"220064","486-VK","2018/03/10 18:49:39","新北市板橋區民生路二段36-1號","121.472056666667","25.0167366666667","6500100","板橋區"
"220035","560-BX","2018/03/10 18:49:28","新北市板橋區中正路325巷3弄4號","121.453748333333","25.0188683333333","6500100","板橋區"
"220103","561-BX","2018/03/10 18:49:34","新北市板橋區民生路二段120號","121.470505","25.0197766666667","6500100","板橋區"
"220063","609-BX","2018/03/10 18:49:34","新北市板橋區民生路二段107號","121.471218333333","25.0178666666667","6500100","板橋區"
"220091","637-BX","2018/03/10 18:49:36","新北市板橋區民生路二段188號","121.470065","25.020565","6500100","板橋區"
"220057","686-BX","2018/03/10 18:49:28","新北市板橋區華東街1-8號","121.447818333333","24.9948266666667","6500100","板橋區"
"220077","687-BX","2018/03/10 18:49:31","新北市板橋區龍興街103巷1號","121.444623333333","25.0033","6500100","板橋區"
"220054","741-BX","2018/03/10 18:49:45","新北市板橋區館前西路19號","121.45873","25.006945","6500100","板橋區"
"220055","827-TW","2018/03/10 18:49:32","新北市板橋區縣民大道二段66號","121.463098333333","25.0124533333333","6500100","板橋區"
"220067","830-TW","2018/03/10 18:49:33","新北市板橋區三民路二段正隆巷59號","121.476718333333","25.0134","6500100","板橋區"
"220074","895-R6","2018/03/10 18:49:35","新北市板橋區南門街39號","121.457271666667","25.0087183333333","6500100","板橋區"
"220073","985-R7","2018/03/10 18:49:23","新北市板橋區中正路99號","121.456448333333","25.0146166666667","6500100","板橋區"
"220097","AAC-210","2018/03/10 18:48:51","新北市板橋區莊敬路208巷8弄9號","121.470653333333","25.020435","6500100","板橋區"
"220070","AAC-253","2018/03/10 18:49:37","新北市板橋區館前西路46巷2號","121.458986666667","25.0070633333333","6500100","板橋區"
