"lineid","car","time","location","longitude","latitude","cityid","cityname"
"234046","148-BY","2018/03/10 19:09:29","新北市永和區永元路18巷40弄1號","121.524248333333","25.0003733333333","6500400","永和區"
"234007","208-UY","2018/03/10 19:09:40","新北市永和區中山路一段161號","121.509756666667","25.00926","6500400","永和區"
"234081","298-R6","2018/03/10 19:09:31","新北市永和區永貞路39巷9弄6號","121.522163333333","25.0068183333333","6500400","永和區"
"234038","336-UY","2018/03/10 19:09:38","新北市永和區民樂街69巷1號","121.527401666667","24.9977366666667","6500400","永和區"
"234064","337-UY","2018/03/10 19:09:33","新北市永和區秀朗路二段33號","121.521241666667","25.00244","6500400","永和區"
"234086","338-UY","2018/03/10 19:09:32","新北市永和區永貞路96號","121.519255","25.004575","6500400","永和區"
"234070","552-UM","2018/03/10 19:09:29","新北市永和區豫溪街137巷1弄14號","121.518993333333","25.0105066666667","6500400","永和區"
"234017","745-BX","2018/03/10 19:09:32","新北市永和區文化路90巷15弄1號","121.51384","25.015875","6500400","永和區"
"234030","746-BX","2018/03/10 19:09:33","新北市永和區四維街121號","121.523081666667","24.9983883333333","6500400","永和區"
"234054","KEA-2590","2018/03/10 19:09:28","新北市永和區中興街133巷8號","121.518655","25.0127","6500400","永和區"
"234013","KEA-2591","2018/03/10 19:09:36","新北市永和區保福路二段11號","121.510933333333","25.0109666666667","6500400","永和區"
"234061","AAD-866","2018/03/10 19:09:31","新北市永和區安樂路304巷26號","121.514976666667","25.00554","6500400","永和區"
"234042","862-TW","2018/03/10 19:09:25","新北市永和區永貞路299號","121.510846666667","25.0057833333333","6500400","永和區"
"234050","863-TW","2018/03/10 19:09:40","新北市永和區文化路135巷28號","121.510695","25.0142816666667","6500400","永和區"
"234026","9371-KE","2018/03/10 19:09:37","新北市永和區安樂路198巷安和二弄2號","121.515515","25.001895","6500400","永和區"
"234011","9373-KE","2018/03/10 19:09:43","新北市永和區信義路25巷53號","121.512271666667","25.0115333333333","6500400","永和區"
"249005","172-UM","2018/03/10 19:09:36","新北市八里區中華路三段101號","121.393435","25.13856","6502300","八里區"
"249001","173-UM","2018/03/10 19:09:43","新北市八里區龍米路二段246-1號","121.42999","25.158865","6502300","八里區"
"249003","593-UM","2018/03/10 19:09:40","新北市八里區博物館路15號","121.415348333333","25.16364","6502300","八里區"
"248016","026-BX","2018/03/10 19:09:36","新北市五股區成泰路三段577巷43號","121.450891666667","25.1030766666667","6501500","五股區"
"248020","225-UY","2018/03/10 19:09:43","新北市五股區凌雲路三段57號","121.425296666667","25.1250116666667","6501500","五股區"
"248012","247-BX","2018/03/10 19:09:29","新北市五股區中興路四段48巷16號","121.438685","25.08348","6501500","五股區"
"248004","677-BX","2018/03/10 19:09:32","新北市五股區六合街3號","121.43184","25.08854","6501500","五股區"
"248002","678-BX","2018/03/10 19:09:29","新北市五股區凌雲路一段158巷11號","121.447728333333","25.1034416666667","6501500","五股區"
"248010","682-TV","2018/03/10 19:09:32","新北市五股區水碓三路41號","121.430266666667","25.0713616666667","6501500","五股區"
"234023","9380-KE","2018/03/10 19:09:45","新北市永和區勵行街72巷21號","121.516403333333","25.0125566666667","6500400","永和區"
"234077","969-R7","2018/03/10 19:09:37","新北市永和區民族街6號","121.518656666667","24.99967","6500400","永和區"
"234074","AAC-211","2018/03/10 19:09:46","新北市永和區竹林路198號","121.520453333333","25.0093966666667","6500400","永和區"
"234067","AAC-212","2018/03/10 19:09:42","新北市永和區保平路33號","121.512158333333","25.0073533333333","6500400","永和區"
"234003","AAC-295","2018/03/10 19:09:39","新北市永和區保福路一段98號","121.511916666667","25.0105583333333","6500400","永和區"
"244013","069-UM","2018/03/10 19:09:39","新北市林口區麗園二街23巷15-9號","121.37935","25.0702433333333","6501700","林口區"
"244019","402-UM","2018/03/10 19:09:40","新北市林口區麗園二街1巷6-2號","121.377993333333","25.0700616666667","6501700","林口區"
"244025","742-UY","2018/03/10 19:09:37","新北市林口區文化北路一段542巷13弄65號","121.369541666667","25.07968","6501700","林口區"
"244023","483-VK","2018/03/10 19:09:43","新北市林口區文林六街62巷46號","121.371256666667","25.0821916666667","6501700","林口區"
"244017","485-VK","2018/03/10 19:09:32","新北市林口區文化北路一段472號","121.365651666667","25.0773683333333","6501700","林口區"
"244009","656-BX","2018/03/10 19:09:47","新北市林口區台電新村3號","121.388133333333","25.0864366666667","6501700","林口區"
"244011","701-TV","2018/03/10 19:09:29","新北市林口區中正路341號","121.38812","25.0776633333333","6501700","林口區"
"243012","AAD-798","2018/03/10 19:09:28","新北市泰山區吳厝窠1號","121.427918333333","25.0585716666667","6501600","泰山區"
"243011","297-R6","2018/03/10 19:09:41","新北市泰山區明志路二段358號","121.425531666667","25.0452216666667","6501600","泰山區"
"243015","380-SR","2018/03/10 19:09:37","新北市泰山區明志路一段366號","121.430686666667","25.057945","6501600","泰山區"
"243014","421-VK","2018/03/10 19:09:40","新北市泰山區泰林路二段395號","121.427218333333","25.0642666666667","6501600","泰山區"
"243010","KEA-2215","2018/03/10 19:09:39","新北市泰山區明志路一段483巷1弄1號","121.431035","25.0554816666667","6501600","泰山區"
"243009","KEA-2216","2018/03/10 19:09:40","新北市泰山區楓樹街33巷21號","121.434311666667","25.0637416666667","6501600","泰山區"
"243013","646-TV","2018/03/10 19:09:25","新北市泰山區台麗街6巷11號","121.424135","25.0376783333333","6501600","泰山區"
"243016","680-BX","2018/03/10 19:09:41","新北市泰山區明志路二段325號","121.425776666667","25.0450083333333","6501600","泰山區"
"222003","436-BY","2018/03/10 19:09:35","新北市深坑區深南路162號","121.626063333333","25.01498","6501800","深坑區"
"222002","659-BX","2018/03/10 19:09:39","新北市深坑區烏月路1號","121.633411666667","25.00835","6501800","深坑區"
"231041","002-UM","2018/03/10 19:09:23","新北市新店區溪園路389-6號","121.52386","24.97905","6500600","新店區"
"231059","046-UY","2018/03/10 19:09:38","新北市新店區安和路二段97號","121.5187","24.9695","6500600","新店區"
"231061","047-UY","2018/03/10 19:09:28","新北市新店區安康路一段20號","121.530998333333","24.9610783333333","6500600","新店區"
"231060","106-UY","2018/03/10 19:09:41","新北市新店區安康路二段156號","121.512326666667","24.9609333333333","6500600","新店區"
"231051","107-UY","2018/03/10 19:09:37","新北市新店區中正路382巷24號","121.535423333333","24.9777916666667","6500600","新店區"
"231048","108-UY","2018/03/10 19:09:36","新北市新店區德正街25巷11號","121.544695","24.9718866666667","6500600","新店區"
"231052","187-VK","2018/03/10 19:09:28","新北市新店區自強路59號","121.54631","24.9247633333333","6500600","新店區"
"231050","KEA-2219","2018/03/10 19:09:44","新北市新店區新烏路一段11巷7號","121.547313333333","24.951345","6500600","新店區"
"221015","KEA-2785","2018/03/10 19:09:31","新北市汐止區康寧街901號","121.651728333333","25.0749583333333","6501100","汐止區"
"231046","278-BY","2018/03/10 19:09:27","新北市新店區華城路77巷6號","121.5255","24.9464816666667","6500600","新店區"
"231054","AAD-862","2018/03/10 19:09:30","新北市新店區新店路54號","121.537361666667","24.95346","6500600","新店區"
"231058","3712-VJ","2018/03/10 19:09:42","新北市新店區光明街138巷13弄7號","121.54021","24.9614966666667","6500600","新店區"
"231056","3713-VJ","2018/03/10 19:09:40","新北市新店區民權路115號","121.536201666667","24.9827183333333","6500600","新店區"
"231055","4716-K9","2018/03/10 19:09:34","新北市新店區力行路14巷10號","121.53927","24.9650633333333","6500600","新店區"
"231067","4772-VM","2018/03/10 19:09:41","新北市新店區安康路一段266巷4號","121.520101666667","24.9640416666667","6500600","新店區"
"231065","512-UM","2018/03/10 19:09:33","新北市新店區安祥路135號","121.47462","24.9560683333333","6500600","新店區"
"231064","515-UM","2018/03/10 19:09:35","新北市新店區安忠路90號","121.511481666667","24.9580883333333","6500600","新店區"
"231045","617-UM","2018/03/10 19:09:40","新北市新店區北宜路一段140巷1號","121.539753333333","24.9546183333333","6500600","新店區"
"231040","619-UM","2018/03/10 19:09:30","新北市新店區三民路98-3號","121.53398","24.9734316666667","6500600","新店區"
"231042","641-BX","2018/03/10 19:09:32","新北市新店區光明街32號","121.538525","24.9588633333333","6500600","新店區"
"231063","645-TV","2018/03/10 19:09:42","新北市新店區車子路148號","121.505248333333","24.9472283333333","6500600","新店區"
"231049","719-UM","2018/03/10 19:09:40","新北市新店區二十張路25巷18弄27號","121.539256666667","24.9813383333333","6500600","新店區"
"231062","720-UM","2018/03/10 19:09:31","新北市新店區安康路一段227號","121.525568333333","24.96304","6500600","新店區"
"231044","897-TW","2018/03/10 19:09:30","新北市新店區中興路三段209號","121.54371","24.9818616666667","6500600","新店區"
"231043","899-TW","2018/03/10 19:09:32","新北市新店區寶橋路61號","121.545376666667","24.974895","6500600","新店區"
"231066","AKT-0513","2018/03/10 19:09:35","新北市新店區安康路三段466-2號","121.484075","24.950915","6500600","新店區"
"241026","066-VK","2018/03/10 19:09:41","新北市三重區泉州街63-2號","121.494668333333","25.0543733333333","6500200","三重區"
"241035","462-BY","2018/03/10 19:09:45","新北市三重區新北大道一段9號","121.489015","25.0613833333333","6500200","三重區"
"241029","942-UM","2018/03/10 19:09:30","新北市三重區重安街87巷14號","121.493123333333","25.05505","6500200","三重區"
"235066","003-UY","2018/03/10 19:09:40","新北市中和區廣福路12-5號","121.505368333333","25.0027616666667","6500300","中和區"
"235064","005-UY","2018/03/10 19:09:28","新北市中和區泰和街38巷35號","121.498425","25.0012766666667","6500300","中和區"
"235063","006-UY","2018/03/10 19:09:25","新北市中和區連城路277號","121.490551666667","24.9964133333333","6500300","中和區"
"235052","031-BX","2018/03/10 19:09:40","新北市中和區興南路二段142巷19弄38號","121.50261","24.9835933333333","6500300","中和區"
"235056","096-UM","2018/03/10 19:09:29","新北市中和區員山路524號","121.478725","25.009645","6500300","中和區"
"235039","097-UM","2018/03/10 19:09:39","新北市中和區景平路64巷13弄22號","121.521488333333","24.9914783333333","6500300","中和區"
"235065","098-UM","2018/03/10 19:09:34","新北市中和區中山路二段2巷59號","121.501646666667","25.0073566666667","6500300","中和區"
"235040","150-BY","2018/03/10 19:09:24","新北市中和區保健路123號","121.512515","24.99627","6500300","中和區"
"235058","151-BY","2018/03/10 19:09:35","新北市中和區連城路523巷11弄7號","121.48185","24.9942016666667","6500300","中和區"
"235055","183-VK","2018/03/10 19:09:29","新北市中和區德光路18號","121.471143333333","25.0045033333333","6500300","中和區"
"235038","185-VK","2018/03/10 19:09:26","新北市中和區大仁街10巷27弄3號","121.519201666667","24.9927916666667","6500300","中和區"
"235049","186-VK","2018/03/10 19:09:33","新北市中和區明禮街19號","121.504745","24.9959033333333","6500300","中和區"
"235067","255-BX","2018/03/10 19:09:27","新北市中和區新生街176巷22號","121.482608333333","24.9999266666667","6500300","中和區"
"235044","293-VK","2018/03/10 19:09:47","新北市中和區中興街222-6號","121.500661666667","24.9896633333333","6500300","中和區"
"235072","301-VK","2018/03/10 19:09:41","新北市中和區福祥路7號","121.499383333333","25.0033283333333","6500300","中和區"
"235043","352-BY","2018/03/10 19:09:30","新北市中和區景平路120號","121.519271666667","24.9917566666667","6500300","中和區"
"235068","377-QA","2018/03/10 19:09:41","新北市中和區圓通路158巷1弄9號","121.4973","24.9960716666667","6500300","中和區"
"235061","378-QA","2018/03/10 19:09:35","新北市中和區民有街67號","121.476481666667","25.0032033333333","6500300","中和區"
"235071","269-TV","2018/03/10 19:09:43","新北市中和區連城路330號","121.48323","24.9959116666667","6500300","中和區"
"235050","4979-A6","2018/03/10 19:09:25","新北市中和區復興路249巷11弄3號","121.503545","24.9896583333333","6500300","中和區"
"235069","4980-A6","2018/03/10 19:09:35","新北市中和區中和路217巷10號","121.504418333333","25.0004883333333","6500300","中和區"
"235042","551-UM","2018/03/10 19:09:30","新北市中和區自立路119號","121.522123333333","24.9943533333333","6500300","中和區"
"235045","565-BX","2018/03/10 19:09:42","新北市中和區景新街467巷33號","121.514721666667","24.988835","6500300","中和區"
"235054","640-BX","2018/03/10 19:09:47","新北市中和區國光街104號","121.470121666667","25.0005066666667","6500300","中和區"
"235060","647-TV","2018/03/10 19:09:27","新北市中和區民治街25巷2號","121.475495","25.00173","6500300","中和區"
"235047","732-UM","2018/03/10 19:09:32","新北市中和區興南路一段56巷1弄2號","121.510726666667","24.9908266666667","6500300","中和區"
"235046","733-UM","2018/03/10 19:09:35","新北市中和區忠孝街1巷45號","121.508473333333","24.9839333333333","6500300","中和區"
"235057","801-TS","2018/03/10 19:09:36","新北市中和區民利街68巷1弄1號","121.478475","24.9986666666667","6500300","中和區"
"235041","802-TS","2018/03/10 19:09:39","新北市中和區中和路228號","121.506613333333","24.9994466666667","6500300","中和區"
"235048","896-TW","2018/03/10 19:09:39","新北市中和區忠孝街1巷2號","121.509018333333","24.9832166666667","6500300","中和區"
"235053","900-TW","2018/03/10 19:09:31","新北市中和區華福街64號","121.466973333333","24.9965433333333","6500300","中和區"
"235070","911-UM","2018/03/10 19:09:31","新北市中和區中和路122號","121.503195","24.9995766666667","6500300","中和區"
"235051","157-BY","2018/03/10 19:09:40","新北市中和區興南路一段75號","121.510143333333","24.9891766666667","6500300","中和區"
"235059","AAC-215","2018/03/10 19:09:41","新北市中和區圓通路294巷17-5號","121.488576666667","24.9903983333333","6500300","中和區"
"220068","013-TV","2018/03/10 19:09:40","新北市板橋區三民路一段5巷1號","121.47901","25.0233983333333","6500100","板橋區"
"220065","072-UY","2018/03/10 19:09:38","新北市板橋區民族路219巷37號","121.469025","25.0085833333333","6500100","板橋區"
"220086","073-UY","2018/03/10 19:09:39","新北市板橋區中正路250巷107號","121.460053333333","25.0201516666667","6500100","板橋區"
"220106","075-UY","2018/03/10 19:09:33","新北市板橋區雙十路三段12號","121.47193","25.0306633333333","6500100","板橋區"
"220069","AAD-861","2018/03/10 19:09:31","新北市板橋區四川路一段102號","121.459625","25.004715","6500100","板橋區"
"247010","341-TH","2018/03/10 18:58:03","新北市五股區中興路三段163號","121.449311666667","25.080745","6501400","蘆洲區"
"226004","205-ST","2018/03/10 19:09:40","新北市平溪區靜安路三段196號","121.775598333333","25.0394566666667","6502400","平溪區"
"228003","097-TW","2018/03/10 19:09:32","新北市貢寮區和美里和美街36-1號","121.912215","25.086125","6502600","貢寮區"
"228001","212-TW","2018/03/10 19:09:36","新北市貢寮區真理里新港街10號","121.925481666667","25.0543683333333","6502600","貢寮區"
"228002","585-TW","2018/03/10 19:09:35","新北市貢寮區福隆里福隆街26號","121.944978333333","25.017215","6502600","貢寮區"
"224010","AGQ-8101","2018/03/10 19:09:34","新北市瑞芳區基山街93號","121.84476","25.1084133333333","6501200","瑞芳區"
"224006","676-BX","2018/03/10 19:09:37","新北市瑞芳區三爪子坑路106巷118號","121.8092","25.1043283333333","6501200","瑞芳區"
"224008","285-BY","2018/03/10 19:09:27","新北市瑞芳區明燈路三段283號","121.79858","25.1122016666667","6501200","瑞芳區"
"224007","275-VK","2018/03/10 19:09:44","新北市瑞芳區瑞竹路44號","121.763776666667","25.1033966666667","6501200","瑞芳區"
"224009","273-VK","2018/03/10 19:09:40","新北市瑞芳區洞頂路85號","121.86322","25.1183383333333","6501200","瑞芳區"
"224005","271-BY","2018/03/10 19:09:38","新北市瑞芳區國中新村34號","121.816543333333","25.1078966666667","6501200","瑞芳區"
"227010","642-TC","2018/03/10 19:09:43","新北市雙溪區牡丹里中正路48號","121.865068333333","25.0391433333333","6502500","雙溪區"
"227002","400-TW","2018/03/10 19:09:25","新北市雙溪區平林里梅竹蹊56-4號","121.860621666667","25.0368066666667","6502500","雙溪區"
"253005","032-BX","2018/03/10 19:09:33","新北市石門區阿里荖41號","121.60557","25.2805083333333","6502200","石門區"
"253006","741-TV","2018/03/10 19:09:40","新北市石門區崁子腳58-1號","121.529021666667","25.2856533333333","6502200","石門區"
"222001","KEA-2212","2018/03/10 19:09:30","新北市深坑區北深路一段300號","121.624253333333","25.0057333333333","6501800","深坑區"
"208002","KEA-2872","2018/03/10 19:09:37","新北市金山區仁愛路67巷20號","121.634241666667","25.2209566666667","6502700","金山區"
"208003","665-BX","2018/03/10 19:09:40","新北市金山區中正路126號","121.632393333333","25.2215833333333","6502700","金山區"
"208001","761-BX","2018/03/10 19:09:30","新北市金山區金包里街14巷23弄5號","121.640296666667","25.2216733333333","6502700","金山區"
"251009","008-UM","2018/03/10 19:09:32","新北市淡水區清水街196號","121.440441666667","25.17103","6501000","淡水區"
"251001","011-UM","2018/03/10 19:09:31","新北市淡水區自強路201巷43號","121.462033333333","25.1268316666667","6501000","淡水區"
"251002","012-UM","2018/03/10 19:09:38","新北市淡水區中山路95巷2-2號","121.44203","25.17061","6501000","淡水區"
"251013","179-VK","2018/03/10 19:09:32","新北市淡水區安子內12號","121.481563333333","25.2190616666667","6501000","淡水區"
"251014","180-VK","2018/03/10 19:09:38","新北市淡水區小中寮19-2號","121.485","25.2290283333333","6501000","淡水區"
"251015","182-VK","2018/03/10 19:09:37","新北市淡水區埔子頂1號","121.484916666667","25.17387","6501000","淡水區"
"251010","413-VK","2018/03/10 19:09:29","新北市淡水區中正路一段156巷3號","121.421131666667","25.1802966666667","6501000","淡水區"
"251016","442-VK","2018/03/10 19:09:37","新北市淡水區淡金路三段66號","121.44823","25.1999433333333","6501000","淡水區"
"251005","443-VK","2018/03/10 19:09:27","新北市淡水區中山路126號","121.441936666667","25.1710033333333","6501000","淡水區"
"251006","561-UM","2018/03/10 19:09:43","新北市淡水區中山北路一段149巷6-6號","121.442473333333","25.1775316666667","6501000","淡水區"
"251007","577-R6","2018/03/10 19:09:38","新北市淡水區民生路145巷58號","121.46817","25.1388766666667","6501000","淡水區"
"251003","766-UM","2018/03/10 19:09:41","新北市淡水區大義街3號","121.443806666667","25.1781766666667","6501000","淡水區"
"207003","550-UM","2018/03/10 19:09:45","新北市萬里區大鵬里萬里加投14號","121.649966666667","25.2087516666667","6502800","萬里區"
"207004","225-TW","2018/03/10 19:09:44","新北市萬里區萬里里瑪鋉下街52號","121.691606666667","25.179525","6502800","萬里區"
"252002","178-VK","2018/03/10 19:09:44","新北市三芝區埔坪里埔頭坑78號","121.509223333333","25.2544","6502100","三芝區"
"252003","249-BX","2018/03/10 19:09:40","新北市三芝區錫板里南勢崗6號","121.479525","25.261935","6502100","三芝區"
"252001","292-VK","2018/03/10 19:09:35","新北市三芝區長勤街45巷2號","121.500371666667","25.2551483333333","6502100","三芝區"
"237004","KEA-2597","2018/03/10 19:09:44","新北市三峽區有木206號","121.439138333333","24.85148","6500900","三峽區"
"237007","153-BY","2018/03/10 19:09:27","新北市三峽區中正路二段42巷12-1號","121.364298333333","24.9206183333333","6500900","三峽區"
"237013","252-BX","2018/03/10 19:09:28","新北市三峽區光明路69巷27號","121.376821666667","24.92926","6500900","三峽區"
"237012","275-BY","2018/03/10 19:09:22","新北市三峽區三樹路222巷254弄49號","121.392485","24.944275","6500900","三峽區"
"237008","302-VK","2018/03/10 19:09:30","新北市三峽區大同路156號","121.373008333333","24.926685","6500900","三峽區"
"237014","433-BY","2018/03/10 19:09:37","新北市三峽區中山路257巷3號","121.362353333333","24.9370316666667","6500900","三峽區"
"237006","5529-G3","2018/03/10 19:09:28","新北市三峽區橫溪路99巷18-2號","121.400658333333","24.9359983333333","6500900","三峽區"
"237011","KEA-2596","2018/03/10 19:09:29","新北市三峽區中正路一段113號","121.374088333333","24.9293583333333","6500900","三峽區"
"237016","649-BX","2018/03/10 19:00:52","新北市三峽區安坑51-2號","121.463866666667","24.9314016666667","6500900","三峽區"
"237010","706-TV","2018/03/10 19:09:40","新北市三峽區國光街35號","121.375158333333","24.9372433333333","6500900","三峽區"
"237005","AKY-6261","2018/03/10 19:09:42","新北市三峽區中山路459巷163-3號","121.348633333333","24.932915","6500900","三峽區"
"236073","105-UM","2018/03/10 19:09:24","新北市土城區裕生路84巷1號","121.447246666667","24.98537","6501300","土城區"
"236043","107-UM","2018/03/10 19:09:29","新北市土城區學府路一段268號","121.451106666667","24.9841783333333","6501300","土城區"
"236079","166-UM","2018/03/10 19:09:43","新北市土城區龍泉路23-3號","121.411931666667","24.9461333333333","6501300","土城區"
"236026","269-VK","2018/03/10 19:09:43","新北市土城區中央路二段181號","121.442233333333","24.9759283333333","6501300","土城區"
"236015","270-VK","2018/03/10 19:09:31","新北市土城區學府路一段75巷16弄1號","121.457266666667","24.9875733333333","6501300","土城區"
"236038","271-VK","2018/03/10 19:09:44","新北市土城區清水路98巷3弄1號","121.457506666667","24.9813433333333","6501300","土城區"
"236023","401-BY","2018/03/10 19:09:37","新北市土城區峰廷街3號","121.469131666667","24.9873516666667","6501300","土城區"
"236059","912-UM","2018/03/10 19:09:45","新北市土城區金城路二段237號","121.455673333333","24.98252","6501300","土城區"
"236049","913-UM","2018/03/10 19:09:25","新北市土城區明德路一段398-1號","121.453636666667","24.9790733333333","6501300","土城區"
"236055","AAC-216","2018/03/10 19:09:38","新北市土城區學府路一段215號","121.451515","24.98445","6501300","土城區"
"242002","349-TH","2018/03/10 19:09:46","新北市新莊區瓊林南路77-41號","121.437595","25.0124333333333","6500500","新莊區"
"238015","755-BX","2018/03/10 19:09:37","新北市樹林區備內街158巷10號","121.407036666667","24.989945","6500700","樹林區"
"238023","601-UM","2018/03/10 19:09:32","新北市樹林區大慶街49號","121.396368333333","25.0139383333333","6500700","樹林區"
"238019","599-UM","2018/03/10 19:09:37","新北市樹林區東榮街50號","121.417118333333","24.9832083333333","6500700","樹林區"
"238018","571-TV","2018/03/10 19:09:36","新北市樹林區中山路三段337-1號","121.390548333333","24.971145","6500700","樹林區"
"238024","5061-A6","2018/03/10 19:09:41","新北市樹林區福德街18號","121.400958333333","24.976035","6500700","樹林區"
"238022","KEA-2213","2018/03/10 19:09:33","新北市樹林區中山路二段151巷8弄41號","121.405878333333","24.9774916666667","6500700","樹林區"
"238021","KEA-2539","2018/03/10 19:09:35","新北市樹林區柑園街二段328巷2弄3號","121.372913333333","24.9520283333333","6500700","樹林區"
"238025","303-VK","2018/03/10 19:09:23","新北市樹林區中山路三段311號","121.39115","24.9716616666667","6500700","樹林區"
"238017","283-BY","2018/03/10 19:09:32","新北市樹林區光興街50號","121.40983","25.0027333333333","6500700","樹林區"
"238014","282-BY","2018/03/10 19:09:37","新北市樹林區千歲街70巷1弄21號","121.42673","24.9977666666667","6500700","樹林區"
"238020","268-VK","2018/03/10 19:07:02","新北市樹林區俊英街135號","121.424191666667","25.0114283333333","6500700","樹林區"
"238026","172-UY","2018/03/10 19:09:26","新北市樹林區佳園路一段66號","121.393118333333","24.9702566666667","6500700","樹林區"
"238016","169-UY","2018/03/10 19:09:39","新北市樹林區中山路一段310號","121.419918333333","24.9865166666667","6500700","樹林區"
"239007","AAC-297","2018/03/10 19:09:31","新北市鶯歌區中正一路211巷1弄2號","121.353621666667","24.9574516666667","6500800","鶯歌區"
"239006","891-R6","2018/03/10 19:09:33","新北市鶯歌區建國路512巷54號","121.339276666667","24.9512216666667","6500800","鶯歌區"
"239008","527-UM","2018/03/10 19:09:27","新北市鶯歌區大湖路530巷2-1號","121.337745","24.9730683333333","6500800","鶯歌區"
"239005","526-UM","2018/03/10 19:09:37","新北市鶯歌區中湖街70號","121.34787","24.97273","6500800","鶯歌區"
"239001","417-VK","2018/03/10 19:09:42","新北市鶯歌區鶯桃路95巷82號","121.336858333333","24.9527583333333","6500800","鶯歌區"
"239003","360-BY","2018/03/10 19:09:32","新北市鶯歌區八德路10號","121.332656666667","24.95481","6500800","鶯歌區"
"239002","359-BY","2018/03/10 19:09:34","新北市鶯歌區大湖路530巷37號","121.338131666667","24.9734583333333","6500800","鶯歌區"
"221036","130-UY","2018/03/10 19:09:42","新北市汐止區汐萬路一段256巷3號","121.65336","25.07471","6501100","汐止區"
"221010","269-BY","2018/03/10 19:09:33","新北市汐止區康寧街901號","121.651568333333","25.075015","6501100","汐止區"
"221012","278-VK","2018/03/10 19:09:34","新北市汐止區康寧街901號","121.650781666667","25.0752466666667","6501100","汐止區"
"221023","279-VK","2018/03/10 19:09:27","新北市汐止區康寧街901號","121.650965","25.07521","6501100","汐止區"
"221032","280-BY","2018/03/10 19:09:31","新北市汐止區橫科路241-5號","121.622473333333","25.0487133333333","6501100","汐止區"
"221027","281-BY","2018/03/10 19:09:37","新北市汐止區康寧街901號","121.651416666667","25.075025","6501100","汐止區"
"221033","297-VK","2018/03/10 19:09:43","新北市汐止區南勢街1巷1號","121.62707","25.037465","6501100","汐止區"
"221029","298-VK","2018/03/10 19:09:46","新北市汐止區康寧街861巷1號","121.645636666667","25.075905","6501100","汐止區"
"221031","353-TW","2018/03/10 19:09:40","新北市汐止區福德三路127號","121.633556666667","25.0675766666667","6501100","汐止區"
"221008","129-UY","2018/03/10 19:09:42","新北市汐止區康寧街482號","121.632433333333","25.0684016666667","6501100","汐止區"
"221025","623-UM","2018/03/10 19:09:34","新北市汐止區康寧街901號","121.65148","25.07491","6501100","汐止區"
"221038","646-BX","2018/03/10 19:09:31","新北市汐止區汐萬路一段312號","121.650646666667","25.0752683333333","6501100","汐止區"
"221002","707-TV","2018/03/10 19:09:33","台北市南港區南港路一段4-4號","121.619731666667","25.0546666666667","6501100","汐止區"
"220079","145-BY","2018/03/10 19:09:40","新北市板橋區民權路302巷2號","121.457276666667","25.0163683333333","6500100","板橋區"
"220080","200-UY","2018/03/10 19:09:43","新北市板橋區大觀路二段7巷14號","121.447541666667","25.0034066666667","6500100","板橋區"
"220082","610-BX","2018/03/10 19:09:27","新北市板橋區溪崑二街134號","121.425886666667","24.9877816666667","6500100","板橋區"
"220101","245-BX","2018/03/10 19:09:39","新北市板橋區萬板路15號","121.470583333333","25.0210366666667","6500100","板橋區"
"220098","257-TC","2018/03/10 19:09:46","新北市板橋區自由路51巷16號","121.46479","25.023485","6500100","板橋區"
"220056","276-BY","2018/03/10 19:09:43","新北市板橋區信義路110巷5號","121.458041666667","24.9921633333333","6500100","板橋區"
"220072","277-BY","2018/03/10 19:09:41","新北市板橋區溪城路91-1號","121.427095","24.9830466666667","6500100","板橋區"
"220094","280-UM","2018/03/10 19:09:44","新北市板橋區光武街171號","121.465233333333","25.030095","6500100","板橋區"
"220071","283-VK","2018/03/10 19:09:32","新北市板橋區重慶路327巷24弄11號","121.46514","24.9982633333333","6500100","板橋區"
"220053","285-VK","2018/03/10 19:09:42","新北市板橋區懷仁街25巷20號","121.477111666667","25.0200716666667","6500100","板橋區"
"220083","286-VK","2018/03/10 19:09:29","新北市板橋區大觀路二段174巷176弄3號","121.442378333333","25.0034083333333","6500100","板橋區"
"220081","287-VK","2018/03/10 19:09:39","新北市板橋區光華街39巷27號","121.452953333333","25.012895","6500100","板橋區"
"220090","288-VK","2018/03/10 19:09:29","新北市板橋區裕民街54號","121.46142","25.028695","6500100","板橋區"
"220061","293-UM","2018/03/10 19:09:33","新北市板橋區三民路二段30號","121.479215","25.0180683333333","6500100","板橋區"
"220062","295-UM","2018/03/10 19:09:39","新北市板橋區三民路二段居仁巷1弄42號","121.480761666667","25.013645","6500100","板橋區"
"220084","296-UM","2018/03/10 19:09:37","新北市板橋區溪崑二街16巷6號","121.428516666667","24.9917966666667","6500100","板橋區"
"220075","303-R5","2018/03/10 19:09:30","新北市板橋區南雅南路一段1巷1弄16號","121.456941666667","25.0062116666667","6500100","板橋區"
"220092","307-R5","2018/03/10 19:09:43","新北市板橋區文化路二段225巷60弄32號","121.46923","25.0291883333333","6500100","板橋區"
"220064","486-VK","2018/03/10 19:09:39","新北市板橋區板新路1號","121.475641666667","25.0123983333333","6500100","板橋區"
"220089","487-VK","2018/03/10 19:09:33","新北市板橋區文化路二段413號","121.474378333333","25.0322833333333","6500100","板橋區"
"220088","491-VK","2018/03/10 19:09:31","新北市板橋區文化路二段182巷1弄17號","121.471441666667","25.0279516666667","6500100","板橋區"
"220035","560-BX","2018/03/10 19:09:28","新北市板橋區瑞安街33號","121.455631666667","25.0228033333333","6500100","板橋區"
"220103","561-BX","2018/03/10 19:09:42","新北市板橋區介壽街84巷48號","121.468795","25.01852","6500100","板橋區"
"220063","609-BX","2018/03/10 19:09:34","新北市板橋區三民路二段133號","121.479296666667","25.015335","6500100","板橋區"
"220091","637-BX","2018/03/10 19:09:37","新北市板橋區縣民大道三段247巷8號","121.481743333333","25.0261883333333","6500100","板橋區"
"220057","686-BX","2018/03/10 19:09:28","新北市板橋區重慶路293號","121.46334","24.999365","6500100","板橋區"
"220077","687-BX","2018/03/10 19:09:36","新北市板橋區大觀路二段22-2號","121.44669","25.0031366666667","6500100","板橋區"
"220093","689-BX","2018/03/10 19:09:42","新北市板橋區民生路三段177號","121.465511666667","25.02722","6500100","板橋區"
"220054","741-BX","2018/03/10 19:09:45","新北市板橋區重慶路93巷11號","121.462538333333","25.0058033333333","6500100","板橋區"
"220102","KEA-2699","2018/03/10 19:09:29","新北市板橋區萬板路818巷9號","121.482941666667","25.026885","6500100","板橋區"
"220055","827-TW","2018/03/10 19:09:32","新北市板橋區新民街7巷14號","121.463641666667","25.0104433333333","6500100","板橋區"
"220067","830-TW","2018/03/10 19:09:33","新北市板橋區三民路二段正隆巷75號","121.47591","25.0129233333333","6500100","板橋區"
"220096","831-TW","2018/03/10 19:09:30","新北市板橋區雙十路二段33巷16號","121.476121666667","25.025415","6500100","板橋區"
"220074","895-R6","2018/03/10 19:09:35","新北市板橋區中正路69巷1弄7號","121.45591","25.01374","6500100","板橋區"
"220073","985-R7","2018/03/10 19:09:43","新北市板橋區新生街89巷6號","121.458058333333","25.0223033333333","6500100","板橋區"
"220097","AAC-210","2018/03/10 19:09:45","新北市板橋區漢生西路89巷5弄1號","121.46097","25.0194233333333","6500100","板橋區"
"220070","AAC-253","2018/03/10 19:09:37","新北市板橋區忠孝路39號","121.461081666667","25.0020633333333","6500100","板橋區"
