"lineid","car","time","location","longitude","latitude","cityid","cityname"
"234046","148-BY","2018/03/10 19:59:41","新北市永和區成功路一段105號","121.526925","25.002415","6500400","永和區"
"234007","208-UY","2018/03/10 19:59:40","新北市永和區永貞路387號","121.50806","25.0087016666667","6500400","永和區"
"234081","298-R6","2018/03/10 19:59:31","新北市永和區國中路12號","121.52432","25.0049266666667","6500400","永和區"
"234038","336-UY","2018/03/10 19:59:46","新北市永和區成功路二段152-1號","121.526428333333","24.9967683333333","6500400","永和區"
"234064","337-UY","2018/03/10 19:59:33","新北市永和區中正路368巷1弄50號","121.519116666667","25.0009533333333","6500400","永和區"
"234086","338-UY","2018/03/10 19:59:42","新北市永和區福和路82-1號","121.52282","25.0079816666667","6500400","永和區"
"234070","552-UM","2018/03/10 19:59:29","新北市永和區國光路6號","121.51975","25.008485","6500400","永和區"
"234017","745-BX","2018/03/10 19:59:32","新北市永和區文化路87號","121.513441666667","25.0151566666667","6500400","永和區"
"234030","746-BX","2018/03/10 19:59:44","新北市永和區民生路22巷3號","121.522178333333","24.997295","6500400","永和區"
"234054","KEA-2590","2018/03/10 19:59:27","新北市永和區環河東路一段122號","121.520593333333","25.015465","6500400","永和區"
"234013","KEA-2591","2018/03/10 19:59:36","新北市永和區保生路55號","121.504706666667","25.0105783333333","6500400","永和區"
"234061","AAD-866","2018/03/10 19:59:30","新北市永和區中正路283巷19號","121.516713333333","25.0003","6500400","永和區"
"234042","862-TW","2018/03/10 19:59:25","新北市永和區中和路305巷2弄29號","121.507473333333","25.0000516666667","6500400","永和區"
"234050","863-TW","2018/03/10 19:59:40","新北市永和區永平路247號","121.506691666667","25.0126583333333","6500400","永和區"
"234026","9371-KE","2018/03/10 19:59:37","新北市永和區水源街41號","121.509945","25.004225","6500400","永和區"
"234011","9373-KE","2018/03/10 19:59:43","新北市永和區仁愛路352巷112弄9號","121.500861666667","25.00848","6500400","永和區"
"249005","172-UM","2018/03/10 19:59:36","新北市八里區楓林路3-4號","121.38218","25.12934","6502300","八里區"
"249001","173-UM","2018/03/10 19:59:44","新北市八里區中華路二段310號","121.403805","25.14837","6502300","八里區"
"249004","303-UY","2018/03/10 19:59:43","新北市八里區中華路一段333-1號","121.412445","25.1548516666667","6502300","八里區"
"249002","305-UY","2018/03/10 19:59:30","新北市八里區頂寮一街60號","121.450336666667","25.1245966666667","6502300","八里區"
"249003","593-UM","2018/03/10 19:59:40","新北市八里區中華路二段560巷3號","121.39869","25.1450966666667","6502300","八里區"
"248016","026-BX","2018/03/10 19:59:35","新北市五股區成泰路三段577巷80弄25號","121.44956","25.1046116666667","6501500","五股區"
"248008","095-VK","2018/03/10 19:59:35","新北市五股區四維路30巷17號","121.4681","25.071555","6501500","五股區"
"248020","225-UY","2018/03/10 19:59:43","新北市五股區凌雲路三段23號","121.430243333333","25.11009","6501500","五股區"
"248012","247-BX","2018/03/10 19:59:29","新北市五股區民義路一段112-10號","121.435346666667","25.0852416666667","6501500","五股區"
"248014","261-SL","2018/03/10 19:59:28","新北市五股區五福路14巷27號","121.435341666667","25.0889466666667","6501500","五股區"
"248004","677-BX","2018/03/10 19:59:43","新北市五股區成泰路一段6號","121.43443","25.0673016666667","6501500","五股區"
"248002","678-BX","2018/03/10 19:59:38","新北市五股區凌雲路一段50號","121.451595","25.1008883333333","6501500","五股區"
"248010","682-TV","2018/03/10 19:59:31","新北市五股區成泰路一段87-1號","121.435146666667","25.0688166666667","6501500","五股區"
"234023","9380-KE","2018/03/10 19:59:45","新北市永和區豫溪街88巷6號","121.518248333333","25.0095483333333","6500400","永和區"
"234077","969-R7","2018/03/10 19:59:36","新北市永和區民有街7號","121.516145","24.997005","6500400","永和區"
"234074","AAC-211","2018/03/10 19:59:40","新北市永和區豫溪街185號","121.522505","25.0103616666667","6500400","永和區"
"234067","AAC-212","2018/03/10 19:59:46","新北市永和區中山路一段223號","121.50815","25.0078516666667","6500400","永和區"
"234003","AAC-295","2018/03/10 19:59:45","新北市永和區中正路742-1號","121.515215","25.0102983333333","6500400","永和區"
"243012","AAD-798","2018/03/10 19:59:28","新北市泰山區全興路105號","121.433618333333","25.05684","6501600","泰山區"
"243011","297-R6","2018/03/10 19:59:41","新北市泰山區明志路三段182巷24號","121.423468333333","25.0393233333333","6501600","泰山區"
"243015","380-SR","2018/03/10 19:59:37","新北市泰山區明志路二段230號","121.426826666667","25.0487033333333","6501600","泰山區"
"243014","421-VK","2018/03/10 19:59:31","新北市泰山區泰林路二段138號","121.434275","25.0597883333333","6501600","泰山區"
"243010","KEA-2215","2018/03/10 19:59:39","新北市泰山區中華街9號","121.427825","25.0524816666667","6501600","泰山區"
"243009","KEA-2216","2018/03/10 19:59:40","新北市泰山區泰林路二段164巷40號","121.434331666667","25.061325","6501600","泰山區"
"243013","646-TV","2018/03/10 19:59:30","新北市泰山區應化街13號","121.423718333333","25.04353","6501600","泰山區"
"243016","680-BX","2018/03/10 19:59:45","新北市泰山區新北大道六段375號","121.422166666667","25.032775","6501600","泰山區"
"222003","436-BY","2018/03/10 19:59:35","新北市深坑區埔新街14號","121.620721666667","25.0039083333333","6501800","深坑區"
"222002","659-BX","2018/03/10 19:59:31","新北市深坑區埔新街104-1號","121.618563333333","25.00233","6501800","深坑區"
"231041","002-UM","2018/03/10 19:59:43","新北市新店區自由街2-1號","121.535738333333","24.9755716666667","6500600","新店區"
"231059","046-UY","2018/03/10 19:59:38","新北市新店區安康路二段147號","121.51122","24.9599033333333","6500600","新店區"
"231061","047-UY","2018/03/10 19:59:28","新北市新店區安興路32號","121.51577","24.970395","6500600","新店區"
"231060","106-UY","2018/03/10 19:59:41","新北市新店區安康路二段448號","121.495451666667","24.9548183333333","6500600","新店區"
"231051","107-UY","2018/03/10 19:59:37","新北市新店區中央五街27號","121.5291","24.9746566666667","6500600","新店區"
"231048","108-UY","2018/03/10 19:59:36","新北市新店區寶宏路3號","121.549118333333","24.9767866666667","6500600","新店區"
"231052","187-VK","2018/03/10 19:59:28","新北市新店區新烏路三段寶島巷2弄3號","121.55199","24.8986266666667","6500600","新店區"
"231050","KEA-2219","2018/03/10 19:59:32","新北市新店區北宜路二段579巷1號","121.56583","24.953725","6500600","新店區"
"221015","KEA-2785","2018/03/10 19:59:31","新北市汐止區鄉長路一段21號","121.665223333333","25.0743083333333","6501100","汐止區"
"231057","256-BX","2018/03/10 19:59:31","新北市新店區花園二路一段11號","121.555531666667","24.9324883333333","6500600","新店區"
"231054","AAD-862","2018/03/10 19:59:40","新北市新店區光明街119號","121.53924","24.9616083333333","6500600","新店區"
"231058","3712-VJ","2018/03/10 19:59:42","新北市新店區安康路二段320巷15弄2號","121.50427","24.9596866666667","6500600","新店區"
"231056","3713-VJ","2018/03/10 19:59:40","新北市新店區民權路40號","121.540628333333","24.9831533333333","6500600","新店區"
"231055","4716-K9","2018/03/10 19:59:34","新北市新店區中華路83巷67號","121.538345","24.9672633333333","6500600","新店區"
"231067","4772-VM","2018/03/10 19:59:41","新北市新店區秀山路45巷17號","121.530976666667","24.9600683333333","6500600","新店區"
"231065","512-UM","2018/03/10 19:59:31","新北市新店區安祥路106巷12號","121.478386666667","24.9624766666667","6500600","新店區"
"231064","515-UM","2018/03/10 19:59:34","新北市新店區安和路二段77號","121.518301666667","24.9688183333333","6500600","新店區"
"231045","617-UM","2018/03/10 19:59:40","新北市新店區北宜路二段82-12號","121.554633333333","24.9535333333333","6500600","新店區"
"231040","619-UM","2018/03/10 19:59:30","新北市新店區中正路62號","121.54424","24.9700966666667","6500600","新店區"
"231042","641-BX","2018/03/10 19:59:32","新北市新店區中興路二段89號","121.547108333333","24.9713966666667","6500600","新店區"
"231063","645-TV","2018/03/10 19:59:38","新北市新店區黎明路66巷2號","121.502416666667","24.945605","6500600","新店區"
"231068","718-UY","2018/03/10 19:59:46","新北市新店區安康路一段355-3號","121.519723333333","24.9618516666667","6500600","新店區"
"231049","719-UM","2018/03/10 19:59:40","新北市新店區明德路73號","121.541375","24.9779283333333","6500600","新店區"
"231062","720-UM","2018/03/10 19:59:31","新北市新店區華城路10巷1-3號","121.528756666667","24.9577983333333","6500600","新店區"
"231044","897-TW","2018/03/10 19:59:30","新北市新店區復興路44-1號","121.538616666667","24.9866883333333","6500600","新店區"
"231043","899-TW","2018/03/10 19:59:32","新北市新店區中正路263-2號","121.538465","24.9737466666667","6500600","新店區"
"231066","AKT-0513","2018/03/10 19:59:35","新北市新店區柴埕路59號","121.513573333333","24.964965","6500600","新店區"
"241011","013-R5","2018/03/10 19:59:36","新北市三重區三和路二段165號","121.497886666667","25.069645","6500200","三重區"
"241028","022-UY","2018/03/10 19:59:33","新北市三重區重新路三段90號","121.49309","25.06073","6500200","三重區"
"241008","059-VK","2018/03/10 19:59:45","新北市三重區永福街179巷28號","121.477986666667","25.0747833333333","6500200","三重區"
"241009","060-VK","2018/03/10 19:59:27","新北市三重區三和路四段390巷19號","121.481066666667","25.0788083333333","6500200","三重區"
"241031","061-VK","2018/03/10 19:59:36","新北市三重區重新路四段144巷23號","121.487088333333","25.0552333333333","6500200","三重區"
"241015","062-VK","2018/03/10 19:59:41","新北市三重區三和路二段35-1號","121.500896666667","25.0671783333333","6500200","三重區"
"241017","063-VK","2018/03/10 19:59:38","新北市三重區自強路一段211號","121.491415","25.068425","6500200","三重區"
"241024","065-VK","2018/03/10 19:59:37","新北市三重區大勇街67號","121.480585","25.07158","6500200","三重區"
"241026","066-VK","2018/03/10 19:59:41","新北市三重區中央南路37號","121.501348333333","25.061955","6500200","三重區"
"241002","090-VK","2018/03/10 19:59:36","新北市三重區仁愛街265號","121.492888333333","25.078635","6500200","三重區"
"241003","091-VK","2018/03/10 19:59:30","新北市三重區仁愛街445巷17號","121.490515","25.0826533333333","6500200","三重區"
"241020","156-TC","2018/03/10 19:59:45","新北市三重區大智街161號","121.4899","25.07224","6500200","三重區"
"241005","262-UM","2018/03/10 19:59:37","新北市三重區溪尾街386號","121.488961666667","25.0857833333333","6500200","三重區"
"241016","265-UM","2018/03/10 19:59:28","新北市三重區正義北路36巷13號","121.496798333333","25.063425","6500200","三重區"
"241022","267-UM","2018/03/10 19:59:35","新北市三重區過圳街31巷2號","121.488886666667","25.060545","6500200","三重區"
"241018","268-UM","2018/03/10 19:59:39","新北市三重區正義北路244巷84號","121.493695","25.0676116666667","6500200","三重區"
"241013","270-UM","2018/03/10 19:59:31","新北市三重區三和路三段125巷33號","121.493868333333","25.0736766666667","6500200","三重區"
"241007","398-BY","2018/03/10 19:59:44","新北市三重區溪尾街142號","121.489145","25.0797783333333","6500200","三重區"
"241035","462-BY","2018/03/10 19:59:45","新北市三重區大榮街7號","121.498215","25.063095","6500200","三重區"
"241001","478-VK","2018/03/10 19:59:29","新北市三重區仁愛街283巷39號","121.4944","25.07993","6500200","三重區"
"241030","480-VK","2018/03/10 19:59:38","新北市三重區重新路四段248-1號","121.48628","25.0534166666667","6500200","三重區"
"241014","543-UM","2018/03/10 19:59:34","新北市三重區三和路二段103號","121.499425","25.06854","6500200","三重區"
"241023","545-UM","2018/03/10 19:59:24","新北市三重區頂崁街168號","121.477603333333","25.06591","6500200","三重區"
"241019","KEA-2593","2018/03/10 19:59:45","新北市三重區重陽路四段40號","121.491435","25.069945","6500200","三重區"
"241006","AAD-863","2018/03/10 19:59:29","新北市三重區力行路二段91巷2號","121.482985","25.0758683333333","6500200","三重區"
"241032","887-TS","2018/03/10 19:59:31","新北市三重區捷運路53號","121.483786666667","25.0558216666667","6500200","三重區"
"241012","941-UM","2018/03/10 19:59:34","新北市三重區仁厚街41號","121.5002","25.0764933333333","6500200","三重區"
"241029","942-UM","2018/03/10 19:59:30","新北市三重區重新路三段204號","121.490111666667","25.0584583333333","6500200","三重區"
"241033","AAC-255","2018/03/10 19:59:40","新北市三重區中興北街61號","121.469486666667","25.04742","6500200","三重區"
"235066","003-UY","2018/03/10 19:59:40","新北市中和區中山路二段16號","121.504925","25.0055016666667","6500300","中和區"
"235052","031-BX","2018/03/10 19:59:40","新北市中和區華新街50巷5弄20號","121.507413333333","24.98352","6500300","中和區"
"235056","096-UM","2018/03/10 19:59:29","新北市中和區中山路三段170巷4弄1號","121.472748333333","25.007025","6500300","中和區"
"235039","097-UM","2018/03/10 19:59:39","新北市中和區景平路278巷14弄4號","121.5143","24.9928716666667","6500300","中和區"
"235065","098-UM","2018/03/10 19:59:34","新北市中和區福美路252號","121.49841","25.0051866666667","6500300","中和區"
"235040","150-BY","2018/03/10 19:59:44","新北市中和區保健路10巷21弄1號","121.507711666667","24.9969333333333","6500300","中和區"
"235055","183-VK","2018/03/10 19:59:29","新北市中和區民生街35巷1弄1號","121.470351666667","25.0052183333333","6500300","中和區"
"235049","186-VK","2018/03/10 19:59:33","新北市中和區中正路2號","121.503338333333","24.9938516666667","6500300","中和區"
"235067","255-BX","2018/03/10 19:59:27","新北市中和區員山路148巷23弄9號","121.482211666667","24.9977","6500300","中和區"
"235044","293-VK","2018/03/10 19:59:35","新北市中和區中正路67號","121.50116","24.9934683333333","6500300","中和區"
"235043","352-BY","2018/03/10 19:59:29","新北市中和區興南路二段159巷1號","121.505195","24.9833283333333","6500300","中和區"
"235068","377-QA","2018/03/10 19:59:41","新北市中和區中山路二段248號","121.497693333333","25.00262","6500300","中和區"
"235050","4979-A6","2018/03/10 19:59:45","新北市中和區景平路237號","121.51004","24.9926966666667","6500300","中和區"
"235069","4980-A6","2018/03/10 19:59:35","新北市中和區圓通路172號","121.497256666667","24.9945516666667","6500300","中和區"
"235054","640-BX","2018/03/10 19:59:47","新北市中和區莒光路90號","121.472341666667","25.0025483333333","6500300","中和區"
"235060","647-TV","2018/03/10 19:59:27","新北市中和區新生街30巷26號","121.482328333333","25.00384","6500300","中和區"
"235047","732-UM","2018/03/10 19:59:32","新北市中和區和平街78號","121.507838333333","24.9912166666667","6500300","中和區"
"235046","733-UM","2018/03/10 19:59:37","新北市中和區興南路一段93巷58弄7號","121.510493333333","24.9858683333333","6500300","中和區"
"235041","802-TS","2018/03/10 19:59:37","新北市中和區中安街166號","121.510845","25.00011","6500300","中和區"
"235048","896-TW","2018/03/10 19:59:39","新北市中和區景新街397號","121.512511666667","24.9899616666667","6500300","中和區"
"235053","900-TW","2018/03/10 19:59:31","新北市中和區華安街99號","121.46819","24.9963233333333","6500300","中和區"
"235070","911-UM","2018/03/10 19:59:30","新北市中和區圓通路118號","121.499233333333","24.9962283333333","6500300","中和區"
"235051","157-BY","2018/03/10 19:59:40","新北市中和區景安路198號","121.504263333333","24.9913666666667","6500300","中和區"
"235059","AAC-215","2018/03/10 19:59:41","新北市中和區圓通路349號","121.491513333333","24.9902516666667","6500300","中和區"
"220068","013-TV","2018/03/10 19:59:40","新北市板橋區光復街172巷2弄2號","121.485216666667","25.0195083333333","6500100","板橋區"
"220065","072-UY","2018/03/10 19:59:36","新北市板橋區中山路一段154巷3弄2號","121.465376666667","25.0104366666667","6500100","板橋區"
"220106","075-UY","2018/03/10 19:59:33","新北市板橋區仁化街150巷3號","121.477985","25.0331216666667","6500100","板橋區"
"220069","AAD-861","2018/03/10 19:59:46","新北市板橋區大明街17號","121.458831666667","25.00243","6500100","板橋區"
"247024","893-R6","2018/03/10 19:59:28","新北市蘆洲區光榮路120巷19號","121.46563","25.088385","6501400","蘆洲區"
"247014","546-UM","2018/03/10 19:59:25","新北市蘆洲區成功路104號","121.472521666667","25.082225","6501400","蘆洲區"
"247010","341-TH","2018/03/10 19:59:40","新北市蘆洲區集賢路200號","121.483746666667","25.0878566666667","6501400","蘆洲區"
"247012","339-TH","2018/03/10 19:59:37","新北市蘆洲區民族路234號","121.479365","25.0882966666667","6501400","蘆洲區"
"247004","337-TH","2018/03/10 19:59:37","新北市蘆洲區永康街39號","121.457288333333","25.08528","6501400","蘆洲區"
"247006","336-TH","2018/03/10 19:59:32","新北市蘆洲區九芎街82號","121.466198333333","25.0795333333333","6501400","蘆洲區"
"247018","057-VK","2018/03/10 19:59:26","新北市蘆洲區民族路217號","121.47789","25.0896016666667","6501400","蘆洲區"
"247008","056-VK","2018/03/10 19:59:40","新北市蘆洲區中山一路95巷20弄36號","121.47691","25.080665","6501400","蘆洲區"
"247020","053-VK","2018/03/10 19:59:43","新北市蘆洲區民義街88號","121.473605","25.090355","6501400","蘆洲區"
"247016","007-UY","2018/03/10 19:59:41","新北市蘆洲區光華路28號","121.469485","25.08333","6501400","蘆洲區"
"247002","002-UY","2018/03/10 19:59:38","新北市蘆洲區長安街345號","121.457171666667","25.0869483333333","6501400","蘆洲區"
"226004","205-ST","2018/03/10 19:59:40","新北市平溪區靜安路二段561號","121.748058333333","25.0249333333333","6502400","平溪區"
"228003","097-TW","2018/03/10 19:59:31","新北市貢寮區仁理村仁和路160號","121.923253333333","25.0519633333333","6502600","貢寮區"
"224010","AGQ-8101","2018/03/10 19:59:34","新北市瑞芳區烏勢巷145號","121.847585","25.1085433333333","6501200","瑞芳區"
"227010","642-TC","2018/03/10 19:59:43","新北市雙溪區新基里朝陽街3號","121.866195","25.0383","6502500","雙溪區"
"227002","400-TW","2018/03/10 19:59:45","新北市雙溪區共和里東榮街1號","121.865293333333","25.03436","6502500","雙溪區"
"222001","KEA-2212","2018/03/10 19:59:30","新北市深坑區北深路三段166號","121.602285","25.0033983333333","6501800","深坑區"
"208002","KEA-2872","2018/03/10 19:59:38","新北市金山區環金路87號","121.63694","25.2172766666667","6502700","金山區"
"208003","665-BX","2018/03/10 19:59:39","新北市金山區香園6號","121.634505","25.248475","6502700","金山區"
"208001","761-BX","2018/03/10 19:59:40","新北市金山區重和里六股林口4號","121.607931666667","25.22304","6502700","金山區"
"251009","008-UM","2018/03/10 19:59:32","新北市淡水區英專路28巷18號","121.445898333333","25.1698816666667","6501000","淡水區"
"251004","009-UM","2018/03/10 19:59:30","新北市淡水區民族路110巷38弄11號","121.461203333333","25.1357216666667","6501000","淡水區"
"251001","011-UM","2018/03/10 19:59:31","新北市淡水區北新路一段69-5號","121.453053333333","25.1808366666667","6501000","淡水區"
"251002","012-UM","2018/03/10 19:59:38","新北市淡水區沙崙路97-1號","121.421941666667","25.1818883333333","6501000","淡水區"
"251013","179-VK","2018/03/10 19:59:32","新北市淡水區奎柔山路63號","121.451688333333","25.2061466666667","6501000","淡水區"
"251014","180-VK","2018/03/10 19:59:38","新北市淡水區石頭厝13-2號","121.462531666667","25.2364833333333","6501000","淡水區"
"251015","182-VK","2018/03/10 19:59:37","新北市淡水區北新路一段3-2號","121.474883333333","25.1849","6501000","淡水區"
"251010","413-VK","2018/03/10 19:59:29","新北市淡水區崁頂111-1號","121.433138333333","25.2042966666667","6501000","淡水區"
"251012","441-VK","2018/03/10 19:59:34","新北市淡水區下圭柔山114-11號","121.445465","25.20994","6501000","淡水區"
"251016","442-VK","2018/03/10 19:59:37","新北市淡水區番子田16-13號","121.45371","25.2316533333333","6501000","淡水區"
"251005","443-VK","2018/03/10 19:59:47","新北市淡水區學府路136巷26號","121.451496666667","25.1727033333333","6501000","淡水區"
"251006","561-UM","2018/03/10 19:59:43","新北市淡水區水碓街75號","121.444883333333","25.17744","6501000","淡水區"
"251011","650-BX","2018/03/10 19:59:34","新北市淡水區崁頂57-6號","121.442215","25.1973916666667","6501000","淡水區"
"207003","550-UM","2018/03/10 19:59:45","新北市萬里區磺潭里公館崙5號","121.641875","25.2142283333333","6502800","萬里區"
"207004","225-TW","2018/03/10 19:59:44","新北市萬里區北基里忠二街35號","121.685658333333","25.1757983333333","6502800","萬里區"
"252002","178-VK","2018/03/10 19:59:44","新北市三芝區三民街39巷5號","121.505435","25.2576633333333","6502100","三芝區"
"252001","292-VK","2018/03/10 19:59:35","新北市三芝區公正街9號","121.499685","25.2575433333333","6502100","三芝區"
"237004","KEA-2597","2018/03/10 19:59:43","新北市三峽區添福2號","121.371828333333","24.9063216666667","6500900","三峽區"
"237007","153-BY","2018/03/10 19:59:27","新北市三峽區麻園46號","121.363821666667","24.9212733333333","6500900","三峽區"
"237009","210-TH","2018/03/10 19:59:44","新北市三峽區民權街185號","121.368011666667","24.9295966666667","6500900","三峽區"
"237012","275-BY","2018/03/10 19:59:42","新北市三峽區光明路15號","121.373116666667","24.9314983333333","6500900","三峽區"
"237008","302-VK","2018/03/10 19:59:30","新北市三峽區中正路一段108巷7弄1號","121.373778333333","24.9299383333333","6500900","三峽區"
"237006","5529-G3","2018/03/10 19:59:48","新北市三峽區中園街237-1號","121.367078333333","24.9194183333333","6500900","三峽區"
"237005","AKY-6261","2018/03/10 19:59:42","新北市三峽區民生街1巷27-1號","121.379551666667","24.9340516666667","6500900","三峽區"
"236073","105-UM","2018/03/10 19:59:24","新北市土城區忠義路77號","121.44307","24.9650016666667","6501300","土城區"
"236043","107-UM","2018/03/10 19:59:29","新北市土城區學府路一段141號","121.453771666667","24.9861116666667","6501300","土城區"
"236079","166-UM","2018/03/10 19:59:41","新北市土城區福安街106號","121.417288333333","24.9639333333333","6501300","土城區"
"236031","253-BX","2018/03/10 19:59:39","新北市土城區中央路一段248-3號","121.444343333333","24.9846683333333","6501300","土城區"
"236026","269-VK","2018/03/10 19:59:43","新北市土城區中央路二段94號","121.442286666667","24.9785866666667","6501300","土城區"
"236015","270-VK","2018/03/10 19:59:31","新北市土城區廣福街123號","121.456258333333","24.99295","6501300","土城區"
"236038","271-VK","2018/03/10 19:59:44","新北市土城區國際路60號","121.466556666667","24.9775516666667","6501300","土城區"
"236023","401-BY","2018/03/10 19:59:37","新北市土城區延吉街139號","121.47065","24.9862333333333","6501300","土城區"
"236059","912-UM","2018/03/10 19:59:45","新北市土城區中央路一段160號","121.44596","24.9870883333333","6501300","土城區"
"236049","913-UM","2018/03/10 19:59:45","新北市土城區金城路三段186號","121.468143333333","24.9878783333333","6501300","土城區"
"236063","915-UM","2018/03/10 19:59:45","新北市土城區金城路三段73巷4弄5號","121.466266666667","24.98799","6501300","土城區"
"236055","AAC-216","2018/03/10 19:59:35","新北市土城區學府路一段12號","121.459321666667","24.988475","6501300","土城區"
"242034","AAC-296","2018/03/10 19:59:40","新北市新莊區新泰路157號","121.447663333333","25.036825","6500500","新莊區"
"242058","986-R7","2018/03/10 19:59:30","新北市新莊區八德街101號","121.424345","25.0212216666667","6500500","新莊區"
"242053","751-BX","2018/03/10 19:59:47","新北市新莊區西盛街418號","121.427221666667","25.0121866666667","6500500","新莊區"
"242027","615-BX","2018/03/10 19:59:36","新北市新莊區幸福路902號","121.44314","25.0493683333333","6500500","新莊區"
"242025","613-BX","2018/03/10 19:59:41","新北市新莊區五工三路86巷4號","121.4588","25.06543","6500500","新莊區"
"242042","566-BX","2018/03/10 19:59:33","新北市新莊區青山路一段162號","121.40251","25.029635","6500500","新莊區"
"242046","497-BY","2018/03/10 19:59:46","新北市新莊區裕民街19巷4號","121.41967","25.0252","6500500","新莊區"
"242019","442-UM","2018/03/10 19:59:29","新北市新莊區長青街35巷9號","121.456835","25.04181","6500500","新莊區"
"242036","415-TV","2018/03/10 19:59:33","新北市新莊區建安街37號","121.428996666667","25.0255766666667","6500500","新莊區"
"242044","400-BY","2018/03/10 19:59:34","新北市新莊區中正路746巷43-3號","121.411971666667","25.0242816666667","6500500","新莊區"
"242023","362-BY","2018/03/10 19:59:40","新北市新莊區化成路193號","121.465815","25.0503666666667","6500500","新莊區"
"242061","353-BY","2018/03/10 19:59:40","新北市新莊區瓊泰路3號","121.444873333333","25.0286283333333","6500500","新莊區"
"242039","133-UY","2018/03/10 19:59:44","新北市新莊區民安路299巷19號","121.428861666667","25.0230666666667","6500500","新莊區"
"242031","135-UY","2018/03/10 19:59:42","新北市新莊區公園一路41號","121.443208333333","25.035675","6500500","新莊區"
"242048","172-VK","2018/03/10 19:59:30","新北市新莊區富國路109巷2號","121.423746666667","25.0251283333333","6500500","新莊區"
"242017","175-VK","2018/03/10 19:59:48","新北市新莊區中華路二段3巷23號","121.453165","25.0462","6500500","新莊區"
"242004","176-VK","2018/03/10 19:59:36","新北市新莊區化成路231號","121.465913333333","25.0525333333333","6500500","新莊區"
"242015","346-TH","2018/03/10 19:59:35","新北市新莊區中平路6巷38號","121.445651666667","25.0426633333333","6500500","新莊區"
"242011","347-TH","2018/03/10 19:59:46","新北市新莊區中港路531巷122號","121.449845","25.0515966666667","6500500","新莊區"
"242021","348-TH","2018/03/10 19:59:40","新北市新莊區建中街32巷14號","121.448803333333","25.0381183333333","6500500","新莊區"
"242013","351-TH","2018/03/10 19:59:45","新北市新莊區幸福路670巷2弄1號","121.450975","25.04956","6500500","新莊區"
"238015","755-BX","2018/03/10 19:59:33","新北市樹林區中山路三段210-2號","121.380703333333","24.9666933333333","6500700","樹林區"
"238023","601-UM","2018/03/10 19:59:43","新北市樹林區中正路118號","121.424135","25.0021716666667","6500700","樹林區"
"238021","KEA-2539","2018/03/10 19:59:35","新北市樹林區佳園路三段181巷97號","121.391981666667","24.9483716666667","6500700","樹林區"
"238014","282-BY","2018/03/10 19:59:37","新北市樹林區環河路10號","121.427571666667","24.9785733333333","6500700","樹林區"
"221036","130-UY","2018/03/10 19:59:42","新北市汐止區忠孝東路258巷11弄5號","121.663896666667","25.0673833333333","6501100","汐止區"
"221010","269-BY","2018/03/10 19:59:33","新北市汐止區八連路一段86巷10號","121.644621666667","25.080375","6501100","汐止區"
"221012","278-VK","2018/03/10 19:59:34","新北市汐止區大同路三段279號","121.674056666667","25.0751666666667","6501100","汐止區"
"221023","279-VK","2018/03/10 19:59:27","新北市汐止區中興路278號","121.6286","25.0692616666667","6501100","汐止區"
"221032","280-BY","2018/03/10 19:59:31","新北市汐止區橫科路4巷1弄10號","121.61788","25.0507833333333","6501100","汐止區"
"221027","281-BY","2018/03/10 19:59:37","新北市汐止區中正路91號","121.661138333333","25.0694416666667","6501100","汐止區"
"221033","297-VK","2018/03/10 19:59:42","新北市汐止區東勢街201巷133號","121.633391666667","25.043005","6501100","汐止區"
"221029","298-VK","2018/03/10 19:59:06","新北市汐止區樟樹一路137巷26號","121.640815","25.0658616666667","6501100","汐止區"
"221021","299-VK","2018/03/10 19:59:33","新北市汐止區水源路一段172號","121.655215","25.0619","6501100","汐止區"
"221031","353-TW","2018/03/10 19:59:40","新北市汐止區福德一路260號","121.633156666667","25.0643933333333","6501100","汐止區"
"221008","129-UY","2018/03/10 19:59:42","台北市內湖區康樂街125巷16號","121.620316666667","25.0733033333333","6501100","汐止區"
"221035","622-UM","2018/03/10 19:59:45","新北市汐止區長江街49號","121.655975","25.07142","6501100","汐止區"
"221025","623-UM","2018/03/10 19:59:33","新北市汐止區秀峰路104號","121.659956666667","25.0638316666667","6501100","汐止區"
"221038","646-BX","2018/03/10 19:59:31","新北市汐止區忠孝東路513號","121.666801666667","25.0754933333333","6501100","汐止區"
"221018","753-BX","2018/03/10 19:59:46","新北市汐止區茄苳路279號","121.67244","25.0678983333333","6501100","汐止區"
"220079","145-BY","2018/03/10 19:59:40","新北市板橋區南雅西路二段145巷10號","121.451673333333","25.0119166666667","6500100","板橋區"
"220080","200-UY","2018/03/10 19:59:43","新北市板橋區大觀路二段169巷5號","121.445698333333","25.0001616666667","6500100","板橋區"
"220101","245-BX","2018/03/10 19:59:39","新北市板橋區莒光路200巷25號","121.473076666667","25.0221566666667","6500100","板橋區"
"220098","257-TC","2018/03/10 19:59:45","新北市板橋區新海路72巷60號","121.462041666667","25.023455","6500100","板橋區"
"220072","277-BY","2018/03/10 19:59:41","新北市板橋區篤行路二段1巷11號","121.43227","24.99261","6500100","板橋區"
"220094","280-UM","2018/03/10 19:59:43","新北市板橋區陽明街243號","121.462908333333","25.0245566666667","6500100","板橋區"
"220071","283-VK","2018/03/10 19:59:44","新北市板橋區和平路174巷11號","121.464333333333","24.9949133333333","6500100","板橋區"
"220053","285-VK","2018/03/10 19:59:47","新北市板橋區永豐街155號","121.475308333333","25.0202266666667","6500100","板橋區"
"220083","286-VK","2018/03/10 19:59:29","新北市板橋區僑中二街48巷26號","121.445275","25.0104533333333","6500100","板橋區"
"220081","287-VK","2018/03/10 19:59:39","新北市板橋區大觀路一段28巷88號","121.44991","25.011025","6500100","板橋區"
"220090","288-VK","2018/03/10 19:59:29","新北市板橋區新海路109巷2弄1號","121.460673333333","25.0224233333333","6500100","板橋區"
"220061","293-UM","2018/03/10 19:59:33","新北市板橋區縣民大道二段200巷1號","121.469723333333","25.0171416666667","6500100","板橋區"
"220062","295-UM","2018/03/10 19:59:40","新北市板橋區中山路二段613號","121.48544","25.0225366666667","6500100","板橋區"
"220084","296-UM","2018/03/10 19:59:36","新北市樹林區水源街213號","121.424236666667","24.987065","6500100","板橋區"
"220075","303-R5","2018/03/10 19:59:30","新北市板橋區金華街10巷48弄24-3號","121.45779","25.0199383333333","6500100","板橋區"
"220092","307-R5","2018/03/10 19:59:36","新北市板橋區漢生西路89巷4弄12號","121.461248333333","25.0187516666667","6500100","板橋區"
"220064","486-VK","2018/03/10 19:59:39","新北市板橋區區運路3號","121.465138333333","25.009375","6500100","板橋區"
"220089","487-VK","2018/03/10 19:59:33","新北市板橋區新海路385巷34弄2號","121.457378333333","25.025505","6500100","板橋區"
"242056","280-VK","2018/03/10 19:59:43","新北市新莊區中正路347巷20號","121.447128333333","25.03427","6500500","新莊區"
"220088","491-VK","2018/03/10 19:59:47","新北市板橋區懷德街121號","121.478705","25.0311266666667","6500100","板橋區"
"220035","560-BX","2018/03/10 19:59:43","新北市板橋區新生街87巷8號","121.457741666667","25.021925","6500100","板橋區"
"220103","561-BX","2018/03/10 19:59:34","新北市板橋區自由路41號","121.465565","25.0232416666667","6500100","板橋區"
"220091","637-BX","2018/03/10 19:59:25","新北市板橋區文聖街89巷27號","121.478463333333","25.0307066666667","6500100","板橋區"
"220057","686-BX","2018/03/10 19:59:27","新北市土城區四川路25號","121.455103333333","24.9958716666667","6500100","板橋區"
"220093","689-BX","2018/03/10 19:59:42","新北市板橋區長江路三段120號","121.475148333333","25.0343966666667","6500100","板橋區"
"220054","741-BX","2018/03/10 19:59:36","新北市板橋區實踐路93巷68號","121.466486666667","25.00488","6500100","板橋區"
"220102","KEA-2699","2018/03/10 19:59:29","新北市板橋區文聖街42號","121.47645","25.0313216666667","6500100","板橋區"
"220055","827-TW","2018/03/10 19:59:32","新北市板橋區仁愛路47巷2號","121.459846666667","24.9994483333333","6500100","板橋區"
"220067","830-TW","2018/03/10 19:59:33","新北市板橋區中山路一段184-1號","121.46919","25.0126033333333","6500100","板橋區"
"220096","831-TW","2018/03/10 19:59:30","新北市板橋區莒光路133巷5號","121.472756666667","25.02439","6500100","板橋區"
"220074","895-R6","2018/03/10 19:59:35","新北市板橋區文化路一段32巷21弄14號","121.460335","25.011425","6500100","板橋區"
"220073","985-R7","2018/03/10 19:59:42","新北市板橋區南雅西路二段121號","121.452466666667","25.01094","6500100","板橋區"
"220097","AAC-210","2018/03/10 19:59:31","新北市板橋區漢生西路58巷8號","121.4635","25.01884","6500100","板橋區"
"220070","AAC-253","2018/03/10 19:59:17","新北市板橋區成都街3號","121.460133333333","25.0048533333333","6500100","板橋區"
