"lineid","car","time","location","longitude","latitude","cityid","cityname"
"235010","733-UM","2018/03/10 21:44:17","新北市中和區員山路36巷13號","121.484155","24.9908033333333","6500300","中和區"
"247010","341-TH","2018/03/10 22:09:20","新北市八里區中山路三段409號","121.368735","25.1344316666667","6501400","蘆洲區"
"251004","009-UM","2018/03/10 22:05:30","新北市淡水區民族路35號","121.462565","25.135685","6501000","淡水區"
"251008","181-VK","2018/03/10 22:09:26","新北市淡水區學府路104號","121.449828333333","25.1718433333333","6501000","淡水區"
"251010","413-VK","2018/03/10 22:09:29","新北市淡水區沙崙路200號","121.424615","25.1839","6501000","淡水區"
"251007","577-R6","2018/03/10 22:09:23","新北市淡水區北新路186-3號","121.449553333333","25.17872","6501000","淡水區"
"251011","650-BX","2018/03/10 22:09:34","新北市淡水區水碓街7號","121.443146666667","25.177155","6501000","淡水區"
