"lineid","car","time","location","longitude","latitude","cityid","cityname"
"247010","341-TH","2018/03/10 22:29:20","新北市八里區中華路三段7巷1號","121.397145","25.14366","6501400","蘆洲區"
"247018","057-VK","2018/03/10 22:29:26","新北市五股區更洲路47-1號","121.456721666667","25.07943","6501400","蘆洲區"
"251004","009-UM","2018/03/10 22:05:30","新北市淡水區民族路35號","121.462565","25.135685","6501000","淡水區"
"251008","181-VK","2018/03/10 22:29:26","新北市淡水區學府路104號","121.449846666667","25.1717833333333","6501000","淡水區"
"251010","413-VK","2018/03/10 22:29:29","新北市淡水區沙崙路200號","121.42468","25.1839866666667","6501000","淡水區"
"251007","577-R6","2018/03/10 22:29:23","新北市淡水區北新路180號","121.449256666667","25.1787583333333","6501000","淡水區"
"251011","650-BX","2018/03/10 22:29:34","新北市淡水區水碓街7號","121.443151666667","25.1771066666667","6501000","淡水區"
