"lineid","car","time","location","longitude","latitude","cityid","cityname"
"248005","653-BX","2018/07/21 09:59:46","新北市五股區成泰路二段102號","121.437668333333","25.0829116666667","6501500","五股區"
"231007","189-VK","2018/07/21 09:59:51","新北市新店區新潭路三段215巷25號","121.508166666667","24.9040516666667","6500600","新店區"
"231008","192-VK","2018/07/21 09:35:29","新北市新店區平廣路一段250號","121.50832","24.888465","6500600","新店區"
"227006","030-BX","2018/07/21 09:59:31","新北市雙溪區長源里柑腳21號","121.804625","25.01435","6502500","雙溪區"
"252004","249-BX","2018/07/21 09:59:48","新北市三芝區圓山里石曹子坑44號","121.518853333333","25.2159916666667","6502100","三芝區"
"252007","AAC-283","2018/07/21 09:59:35","新北市三芝區新庄里新庄子57-16號","121.507911666667","25.278725","6502100","三芝區"
