"lineid","car","time","location","longitude","latitude","cityid","cityname"
"248005","653-BX","2018/07/21 10:29:46","新北市五股區中興路二段83巷26-6號","121.45989","25.075255","6501500","五股區"
"231007","189-VK","2018/07/21 10:29:45","新北市新店區小坑三路51-2號","121.517288333333","24.9083166666667","6500600","新店區"
"231008","192-VK","2018/07/21 10:29:46","新北市新店區小坑一路21-1號","121.53065","24.9112433333333","6500600","新店區"
"227006","030-BX","2018/07/21 10:29:31","新北市雙溪區外柑里外柑腳17號","121.812518333333","25.0195183333333","6502500","雙溪區"
"252004","249-BX","2018/07/21 10:29:48","新北市三芝區福德里埔尾4號","121.503261666667","25.2471533333333","6502100","三芝區"
"252007","AAC-283","2018/07/21 10:29:35","新北市三芝區新庄里番社后3號","121.501831666667","25.266665","6502100","三芝區"
