"lineid","car","time","location","longitude","latitude","cityid","cityname"
"234044","148-BY","2018/07/21 12:59:36","新北市永和區得和路373巷31弄4號","121.525013333333","25.00056","6500400","永和區"
"234070","149-BY","2018/07/21 12:59:46","新北市永和區四維街103巷4號","121.523846666667","24.9977266666667","6500400","永和區"
"234005","207-UY","2018/07/21 12:59:51","新北市永和區中山路一段9號","121.514103333333","25.0103366666667","6500400","永和區"
"234078","298-R6","2018/07/21 12:59:52","新北市永和區永亨路71號","121.521476666667","25.00588","6500400","永和區"
"234036","336-UY","2018/07/21 12:59:40","新北市永和區成功路二段207號","121.52656","24.9959616666667","6500400","永和區"
"234062","337-UY","2018/07/21 12:59:51","新北市永和區秀朗路一段168號","121.518563333333","25.0033483333333","6500400","永和區"
"234084","338-UY","2018/07/21 12:59:50","新北市永和區永寧街66-2號","121.51794","25.0051983333333","6500400","永和區"
"234068","552-UM","2018/07/21 12:59:50","新北市永和區中興街84巷8號","121.518505","25.0117116666667","6500400","永和區"
"234066","553-UM","2018/07/21 12:59:40","新北市永和區自由街47號","121.514016666667","25.00597","6500400","永和區"
"234015","745-BX","2018/07/21 12:59:50","新北市永和區永和路二段297號","121.516066666667","25.016045","6500400","永和區"
"234028","746-BX","2018/07/21 12:59:49","新北市永和區厚德街14號","121.525785","24.9979883333333","6500400","永和區"
"234052","KEA-2590","2018/07/21 12:59:51","新北市永和區竹林路66巷15-7號","121.518398333333","25.0132966666667","6500400","永和區"
"234012","KEA-2591","2018/07/21 12:59:35","新北市永和區信義路17巷15號","121.513608333333","25.0113116666667","6500400","永和區"
"234060","AAD-866","2018/07/21 12:59:40","新北市永和區中正路509巷4號","121.516553333333","25.0071066666667","6500400","永和區"
"234040","862-TW","2018/07/21 12:59:37","新北市永和區永貞路271號","121.511631666667","25.00489","6500400","永和區"
"234048","863-TW","2018/07/21 12:59:46","新北市永和區文化路194號","121.510865","25.016275","6500400","永和區"
"234025","9371-KE","2018/07/21 12:59:33","新北市永和區水源街2巷18號","121.512223333333","25.0055716666667","6500400","永和區"
"234010","9373-KE","2018/07/21 12:59:38","新北市永和區文化路113巷19號","121.513223333333","25.013985","6500400","永和區"
"248017","225-UY","2018/07/21 12:59:40","新北市五股區中興路四段17-4號","121.43952","25.0824783333333","6501500","五股區"
"234022","9380-KE","2018/07/21 12:59:48","新北市永和區竹林路75巷17號","121.519956666667","25.013995","6500400","永和區"
"234076","969-R7","2018/07/21 12:59:35","新北市永和區智光街126號","121.515066666667","24.9956716666667","6500400","永和區"
"234072","AAC-211","2018/07/21 12:59:49","新北市永和區環河東路二段100號","121.52412","25.0103283333333","6500400","永和區"
"234001","AAC-295","2018/07/21 12:59:46","新北市永和區永平路29號","121.513145","25.0086916666667","6500400","永和區"
"231027","0293-UT","2018/07/21 12:59:50","新北市新店區安華路28-1號","121.519533333333","24.9605383333333","6500600","新店區"
"231028","046-UY","2018/07/21 12:59:43","新北市新店區安華路28-1號","121.519741666667","24.9607266666667","6500600","新店區"
"231001","047-UY","2018/07/21 12:59:42","新北市新店區安華路28-1號","121.519228333333","24.960875","6500600","新店區"
"231005","106-UY","2018/07/21 12:59:47","新北市新店區安華路28-1號","121.519735","24.9608583333333","6500600","新店區"
"231010","107-UY","2018/07/21 12:59:44","新北市新店區安一路一段1-1號","121.519525","24.9613366666667","6500600","新店區"
"231020","108-UY","2018/07/21 12:59:48","新北市新店區安一路一段1-1號","121.519368333333","24.961085","6500600","新店區"
"231012","110-UY","2018/07/21 12:59:49","新北市新店區安一路一段1-1號","121.519523333333","24.9612016666667","6500600","新店區"
"231017","189-VK","2018/07/21 12:59:34","新北市新店區安華路28-1號","121.519766666667","24.9610266666667","6500600","新店區"
"231023","KEA-2219","2018/07/21 12:59:37","新北市新店區安一路一段1-1號","121.519765","24.9611716666667","6500600","新店區"
"231003","268-BY","2018/07/21 12:59:44","新北市新店區安華路28-1號","121.519348333333","24.96064","6500600","新店區"
"231037","4716-K9","2018/07/21 12:59:43","新北市新店區安華路28-1號","121.519865","24.960905","6500600","新店區"
"231025","4715-K9","2018/07/21 12:59:42","新北市新店區安華路1-1號","121.519278333333","24.9605283333333","6500600","新店區"
"231036","512-UM","2018/07/21 12:59:37","新北市新店區安一路一段1-1號","121.51944","24.9613416666667","6500600","新店區"
"231034","616-UM","2018/07/21 12:59:38","新北市新店區安華路1-1號","121.519588333333","24.960505","6500600","新店區"
"231006","617-UM","2018/07/21 12:59:49","新北市新店區安華路28-1號","121.519483333333","24.9609216666667","6500600","新店區"
"231030","619-UM","2018/07/21 12:59:49","新北市新店區安華路28-1號","121.51954","24.96091","6500600","新店區"
"231035","719-UM","2018/07/21 12:59:48","新北市新店區安一路一段1-1號","121.519606666667","24.96139","6500600","新店區"
"231033","720-UM","2018/07/21 12:59:53","新北市新店區安一路一段1-1號","121.519295","24.9612333333333","6500600","新店區"
"231029","897-TW","2018/07/21 12:59:34","新北市新店區安華路28-1號","121.51963","24.9607416666667","6500600","新店區"
"231004","899-TW","2018/07/21 12:59:41","新北市新店區安華路28-1號","121.519115","24.9609016666667","6500600","新店區"
"231024","AKT-0513","2018/07/21 12:59:49","新北市新店區安華路3號","121.519283333333","24.9597616666667","6500600","新店區"
"235028","005-UY","2018/07/21 12:59:46","新北市中和區員山路36巷16-3號","121.484928333333","24.99122","6500300","中和區"
"235029","098-UM","2018/07/21 12:59:53","新北市中和區橋和路328號","121.498158333333","25.0075066666667","6500300","中和區"
"235022","151-BY","2018/07/21 12:59:53","新北市中和區圓通路367巷17號","121.492438333333","24.9867633333333","6500300","中和區"
"235002","185-VK","2018/07/21 12:59:46","新北市永和區民生路67巷58號","121.525703333333","24.997465","6500300","中和區"
"235031","255-BX","2018/07/21 12:59:42","新北市中和區新生街13巷16號","121.48351","25.0041933333333","6500300","中和區"
"235018","640-BX","2018/07/21 12:59:49","新北市中和區連城路607號","121.47831","24.9930616666667","6500300","中和區"
"235035","783-BX","2018/07/21 12:59:37","新北市中和區民樂路80巷12號","121.48391","25.00097","6500300","中和區"
"235017","900-TW","2018/07/21 12:59:47","新北市中和區員山路36巷16-3號","121.484988333333","24.9917816666667","6500300","中和區"
"235015","157-BY","2018/07/21 12:59:40","新北市中和區員山路36巷13號","121.4842","24.990845","6500300","中和區"
"235001","AAC-213","2018/07/21 12:59:41","新北市中和區錦和路350-1號","121.490551666667","24.9936016666667","6500300","中和區"
"228005","097-TW","2018/07/21 12:59:46","新北市貢寮區福隆里桂安街11號","121.960676666667","25.0205316666667","6502600","貢寮區"
"228004","212-TW","2018/07/21 12:59:54","新北市貢寮區吉林里內寮街57號","121.886505","24.98676","6502600","貢寮區"
"253004","8270-PC","2018/07/21 12:59:54","新北市石門區中山路64-1號","121.567556666667","25.2904183333333","6502200","石門區"
"207002","749-BX","2018/07/21 12:59:42","新北市萬里區雙興里大坪路39號","121.625391666667","25.1713833333333","6502800","萬里區"
"252005","073-UM","2018/07/21 12:59:49","新北市三芝區埔坪里埔頭坑41號","121.504585","25.2646583333333","6502100","三芝區"
"207001","662-BX","2018/07/21 12:59:22","新北市萬里區萬里里獅頭路22-1號","121.693053333333","25.1781533333333","6502800","萬里區"
"236006","498-BY","2018/07/21 12:59:44","新北市土城區亞洲路32巷6號","121.435806666667","24.97443","6501300","土城區"
"221032","280-BY","2018/07/21 12:59:41","新北市汐止區建成路57巷1號","121.662418333333","25.0725533333333","6501100","汐止區"
"235032","KEA-2873","2018/07/21 12:59:32","新北市中和區員山路36巷16-3號","121.485066666667","24.99131","6500300","中和區"
"235025","KEA-2875","2018/07/21 12:59:48","新北市中和區和城路一段271巷1號","121.485543333333","24.9916416666667","6500300","中和區"
