"lineid","car","time","location","longitude","latitude","cityid","cityname"
"234044","148-BY","2018/07/21 13:07:16","新北市永和區永元路18巷12弄2號","121.522883333333","25.00029","6500400","永和區"
"234070","149-BY","2018/07/21 13:08:46","新北市永和區四維街95號","121.524281666667","24.99812","6500400","永和區"
"234005","207-UY","2018/07/21 13:08:09","新北市永和區中山路一段147號","121.51019","25.00947","6500400","永和區"
"234078","298-R6","2018/07/21 13:07:45","新北市永和區福和路57巷14弄1號","121.522746666667","25.0068566666667","6500400","永和區"
"234036","336-UY","2018/07/21 13:08:40","新北市永和區民樂街71巷1號","121.527355","24.9975083333333","6500400","永和區"
"234062","337-UY","2018/07/21 13:08:35","新北市永和區秀朗路二段33號","121.52141","25.0024583333333","6500400","永和區"
"234084","338-UY","2018/07/21 13:09:30","新北市永和區永貞路75號","121.518701666667","25.004405","6500400","永和區"
"234068","552-UM","2018/07/21 13:06:10","新北市永和區豫溪街57巷10弄4號","121.517456666667","25.010595","6500400","永和區"
"234066","553-UM","2018/07/21 13:06:40","新北市永和區保平路41號","121.512015","25.0071316666667","6500400","永和區"
"234015","745-BX","2018/07/21 13:09:01","新北市永和區文化路90巷3弄2號","121.513878333333","25.0156083333333","6500400","永和區"
"234028","746-BX","2018/07/21 13:08:28","新北市永和區四維街91號","121.524483333333","24.99806","6500400","永和區"
"234052","KEA-2590","2018/07/21 13:07:53","新北市永和區中興街133巷20號","121.518116666667","25.0126316666667","6500400","永和區"
"234012","KEA-2591","2018/07/21 13:07:55","新北市永和區保福路二段45號","121.510913333333","25.0117466666667","6500400","永和區"
"234060","AAD-866","2018/07/21 13:07:20","新北市永和區安樂路304巷28號","121.515063333333","25.00558","6500400","永和區"
"234040","862-TW","2018/07/21 13:06:37","新北市永和區保平路59號","121.511631666667","25.00678","6500400","永和區"
"234048","863-TW","2018/07/21 13:07:51","新北市永和區文化路135巷22弄1號","121.510425","25.0147166666667","6500400","永和區"
"234025","9371-KE","2018/07/21 13:09:02","新北市永和區秀朗路一段10巷19號","121.513446666667","25.0061266666667","6500400","永和區"
"234010","9373-KE","2018/07/21 13:07:58","新北市永和區仁愛路32號","121.514473333333","25.0134583333333","6500400","永和區"
"248017","225-UY","2018/07/21 13:09:00","新北市五股區御史路126號","121.436298333333","25.097385","6501500","五股區"
"234022","9380-KE","2018/07/21 13:08:48","新北市永和區中興街10巷15號","121.515793333333","25.01131","6500400","永和區"
"234076","969-R7","2018/07/21 13:08:55","新北市永和區智光街115號","121.5156","24.9961666666667","6500400","永和區"
"234072","AAC-211","2018/07/21 13:09:09","新北市永和區福和路125巷2號","121.52147","25.0075216666667","6500400","永和區"
"234001","AAC-295","2018/07/21 13:09:06","新北市永和區中山路一段10號","121.514136666667","25.0104716666667","6500400","永和區"
"231027","0293-UT","2018/07/21 13:09:10","新北市新店區安華路28-1號","121.519555","24.9605233333333","6500600","新店區"
"231028","046-UY","2018/07/21 13:09:03","新北市新店區安華路28-1號","121.519625","24.9608","6500600","新店區"
"231001","047-UY","2018/07/21 13:09:22","新北市新店區安華路28-1號","121.51923","24.9608966666667","6500600","新店區"
"231005","106-UY","2018/07/21 13:08:46","新北市新店區安華路28-1號","121.519638333333","24.9609583333333","6500600","新店區"
"231010","107-UY","2018/07/21 13:08:23","新北市新店區安一路一段1-1號","121.519445","24.9612933333333","6500600","新店區"
"231020","108-UY","2018/07/21 13:08:48","新北市新店區安華路28-1號","121.519365","24.96087","6500600","新店區"
"231012","110-UY","2018/07/21 13:09:09","新北市新店區安一路一段1-1號","121.51952","24.9612483333333","6500600","新店區"
"231017","189-VK","2018/07/21 13:09:15","新北市新店區安華路28-1號","121.519643333333","24.960965","6500600","新店區"
"231023","KEA-2219","2018/07/21 13:07:57","新北市新店區安一路一段1-1號","121.5197","24.9613","6500600","新店區"
"231026","256-BX","2018/07/21 13:08:01","新北市新店區安一路一段1-1號","121.519491666667","24.961165","6500600","新店區"
"231003","268-BY","2018/07/21 13:09:24","新北市新店區安華路28-1號","121.519368333333","24.960605","6500600","新店區"
"231018","278-BY","2018/07/21 13:09:14","新北市新店區安一路一段1-1號","121.519538333333","24.961285","6500600","新店區"
"231037","4716-K9","2018/07/21 13:09:23","新北市新店區安華路28-1號","121.519971666667","24.961015","6500600","新店區"
"231025","4715-K9","2018/07/21 13:09:22","新北市新店區安康路一段299-3號","121.520961666667","24.9638566666667","6500600","新店區"
"231036","512-UM","2018/07/21 13:08:37","新北市新店區安一路一段1-1號","121.519451666667","24.961315","6500600","新店區"
"231013","513-UM","2018/07/21 13:09:21","新北市新店區安一路一段1-1號","121.519705","24.961145","6500600","新店區"
"231034","616-UM","2018/07/21 13:08:58","新北市新店區安華路28-1號","121.519461666667","24.96058","6500600","新店區"
"231006","617-UM","2018/07/21 13:08:49","新北市新店區安華路28-1號","121.519418333333","24.9609066666667","6500600","新店區"
"231030","619-UM","2018/07/21 13:08:49","新北市新店區安華路28-1號","121.519496666667","24.9607066666667","6500600","新店區"
"231035","719-UM","2018/07/21 13:08:28","新北市新店區安一路一段1-1號","121.519515","24.9612833333333","6500600","新店區"
"231033","720-UM","2018/07/21 13:08:13","新北市新店區安一路一段1-1號","121.5192","24.9612166666667","6500600","新店區"
"231029","897-TW","2018/07/21 13:08:54","新北市新店區安華路28-1號","121.519463333333","24.960855","6500600","新店區"
"231004","899-TW","2018/07/21 13:09:01","新北市新店區安華路28-1號","121.519255","24.9608816666667","6500600","新店區"
"231024","AKT-0513","2018/07/21 13:07:29","新北市新店區安華路1-1號","121.5197","24.9603933333333","6500600","新店區"
"235028","005-UY","2018/07/21 13:07:26","新北市中和區中正路275號","121.4954","24.9937866666667","6500300","中和區"
"235027","006-UY","2018/07/21 13:08:05","新北市中和區員山路36巷16-3號","121.485001666667","24.9913566666667","6500300","中和區"
"235003","097-UM","2018/07/21 13:09:18","新北市中和區中正路637巷52弄1號","121.485443333333","24.9933316666667","6500300","中和區"
"235029","098-UM","2018/07/21 13:09:13","新北市中和區莊敬路49巷20弄20號","121.502653333333","25.0058","6500300","中和區"
"235022","151-BY","2018/07/21 13:09:13","新北市中和區圓通路367巷62-8號","121.492886666667","24.9830116666667","6500300","中和區"
"235002","185-VK","2018/07/21 13:07:46","新北市中和區景平路154號","121.517755","24.992035","6500300","中和區"
"235031","255-BX","2018/07/21 13:08:03","新北市中和區新生街136號","121.483513333333","25.000935","6500300","中和區"
"235008","293-VK","2018/07/21 13:06:49","新北市中和區員山路36巷16-3號","121.48505","24.9913966666667","6500300","中和區"
"235006","KEA-2878","2018/07/21 13:09:30","新北市中和區中正路305號","121.492705","24.9936933333333","6500300","中和區"
"235014","4979-A6","2018/07/21 13:08:16","新北市中和區員山路36巷16-3號","121.484845","24.9912883333333","6500300","中和區"
"235034","558-UM","2018/07/21 13:09:22","新北市中和區中正路291號","121.493456666667","24.9937833333333","6500300","中和區"
"235018","640-BX","2018/07/21 13:08:10","新北市中和區國光街85巷10號","121.470395","24.99995","6500300","中和區"
"235011","732-UM","2018/07/21 13:09:25","新北市中和區中正路503號","121.488665","24.993625","6500300","中和區"
"235035","783-BX","2018/07/21 13:06:37","新北市中和區板南路448-1號","121.48961","25.00534","6500300","中和區"
"235026","800-TS","2018/07/21 13:08:15","新北市中和區錦和路65號","121.489438333333","24.9983","6500300","中和區"
"235005","802-TS","2018/07/21 13:08:44","新北市中和區錦和路350-1號","121.49032","24.9935683333333","6500300","中和區"
"235017","900-TW","2018/07/21 13:08:08","新北市中和區員山路36巷16-2號","121.485088333333","24.9917366666667","6500300","中和區"
"235015","157-BY","2018/07/21 13:09:19","新北市中和區板南路132號","121.502436666667","24.9925166666667","6500300","中和區"
"235001","AAC-213","2018/07/21 13:09:01","新北市中和區景平路151巷4號","121.51389","24.991665","6500300","中和區"
"235016","251-BX","2018/07/21 13:08:47","新北市中和區中正路358號","121.493531666667","24.99395","6500300","中和區"
"228005","097-TW","2018/07/21 13:09:06","新北市貢寮區仁理村研海街62號","121.929528333333","25.03406","6502600","貢寮區"
"228004","212-TW","2018/07/21 13:08:14","新北市貢寮區吉林里內寮街71號","121.891948333333","24.9732383333333","6502600","貢寮區"
"253003","6232-TK","2018/07/21 13:06:33","新北市石門區石崩山7號","121.565873333333","25.28275","6502200","石門區"
"253001","6251-TK","2018/07/21 13:09:03","新北市石門區老梅路43號","121.54532","25.2895683333333","6502200","石門區"
"253002","637-UY","2018/07/21 13:07:58","新北市石門區老崩山35號","121.556618333333","25.27677","6502200","石門區"
"253004","8270-PC","2018/07/21 13:09:14","新北市石門區阿里荖5號","121.610831666667","25.2796083333333","6502200","石門區"
"207002","749-BX","2018/07/21 13:06:01","新北市萬里區溪底里香員林路6號","121.632181666667","25.1642766666667","6502800","萬里區"
"252005","073-UM","2018/07/21 13:07:09","新北市三芝區埔頭里埔頭2-1號","121.505715","25.2509","6502100","三芝區"
"207001","662-BX","2018/07/21 13:09:03","新北市萬里區萬里里瑪鋉路70號","121.689876666667","25.178125","6502800","萬里區"
"236006","498-BY","2018/07/21 13:09:23","新北市土城區亞洲路58巷3弄24號","121.43434","24.9732466666667","6501300","土城區"
"221032","280-BY","2018/07/21 13:07:01","新北市汐止區大同路二段318號","121.655785","25.066915","6501100","汐止區"
"235032","KEA-2873","2018/07/21 13:08:32","新北市中和區員山路36巷16-3號","121.48511","24.991335","6500300","中和區"
"235025","KEA-2875","2018/07/21 13:08:48","新北市中和區連城路599號","121.478641666667","24.99325","6500300","中和區"
