"lineid","car","time","location","longitude","latitude","cityid","cityname"
"234070","149-BY","2018/07/21 14:29:46","新北市板橋區萬安街140-3號","121.484071666667","25.02624","6500400","永和區"
"234005","207-UY","2018/07/21 14:29:49","新北市永和區中正路486號","121.51737","25.00378","6500400","永和區"
"234078","298-R6","2018/07/21 14:29:45","新北市永和區永貞路54號","121.520721666667","25.0058783333333","6500400","永和區"
"234036","336-UY","2018/07/21 14:29:40","新北市永和區民樂街39巷23號","121.52889","25.0007333333333","6500400","永和區"
"234062","337-UY","2018/07/21 14:29:51","新北市永和區中正路417號","121.5172","25.0048883333333","6500400","永和區"
"234084","338-UY","2018/07/21 14:29:50","新北市永和區光復街26-1號","121.516526666667","25.0173633333333","6500400","永和區"
"234068","552-UM","2018/07/21 14:29:50","新北市永和區中正路575號","121.516733333333","25.0088233333333","6500400","永和區"
"234028","746-BX","2018/07/21 14:29:48","新北市永和區民權路55號","121.520003333333","24.9968866666667","6500400","永和區"
"234052","KEA-2590","2018/07/21 14:29:51","新北市永和區環河東路一段82號","121.519716666667","25.0165333333333","6500400","永和區"
"234060","AAD-866","2018/07/21 14:29:40","新北市永和區秀朗路一段175號","121.51702","25.0037183333333","6500400","永和區"
"234040","862-TW","2018/07/21 14:29:57","新北市永和區安樂路479號","121.51433","25.00589","6500400","永和區"
"234048","863-TW","2018/07/21 14:29:46","新北市永和區環河西路二段41號","121.507348333333","25.01555","6500400","永和區"
"234025","9371-KE","2018/07/21 14:29:53","新北市中和區安平路220號","121.513803333333","25.0001116666667","6500400","永和區"
"248017","225-UY","2018/07/21 14:13:40","新北市五股區壟路19號","121.41314","25.0850333333333","6501500","五股區"
"234072","AAC-211","2018/07/21 14:29:49","新北市永和區環河東路一段124號","121.520685","25.01538","6500400","永和區"
"234001","AAC-295","2018/07/21 14:29:46","新北市永和區大新街50號","121.515941666667","25.008265","6500400","永和區"
"231002","002-UM","2018/07/21 14:29:55","新北市新店區中正路347號","121.535383333333","24.975855","6500600","新店區"
"231027","0293-UT","2018/07/21 14:29:50","新北市新店區寶橋路85巷35號","121.54527","24.976275","6500600","新店區"
"231028","046-UY","2018/07/21 14:29:43","新北市新店區安康路二段46號","121.515425","24.96371","6500600","新店區"
"231001","047-UY","2018/07/21 14:29:42","新北市新店區中正路75巷71號","121.543176666667","24.9689266666667","6500600","新店區"
"231005","106-UY","2018/07/21 14:29:47","新北市新店區北新路三段83號","121.541515","24.9815933333333","6500600","新店區"
"231020","108-UY","2018/07/21 14:29:48","新北市新店區桂山路35號","121.55983","24.9027133333333","6500600","新店區"
"231012","110-UY","2018/07/21 14:29:49","新北市新店區中興路二段200-1號","121.548416666667","24.9742066666667","6500600","新店區"
"231017","189-VK","2018/07/21 14:29:54","新北市新店區北宜路三段221號","121.592396666667","24.9532916666667","6500600","新店區"
"231023","KEA-2219","2018/07/21 14:29:57","新北市新店區光明街169號","121.539758333333","24.9625933333333","6500600","新店區"
"231003","268-BY","2018/07/21 14:28:24","新北市新店區中興路一段266-6號","121.54499","24.96765","6500600","新店區"
"231018","278-BY","2018/07/21 14:29:34","新北市新店區中央三街27號","121.528571666667","24.97415","6500600","新店區"
"231038","3712-VJ","2018/07/21 14:29:48","新北市新店區溪洲路30號","121.533391666667","24.961055","6500600","新店區"
"231037","4716-K9","2018/07/21 14:29:43","新北市新店區安康路二段318-1號","121.504678333333","24.9583333333333","6500600","新店區"
"231036","512-UM","2018/07/21 14:29:56","新北市新店區安祥路109巷8號","121.47539","24.958815","6500600","新店區"
"231013","513-UM","2018/07/21 14:29:41","新北市新店區民權路88號","121.536895","24.9830283333333","6500600","新店區"
"231034","616-UM","2018/07/21 14:29:51","新北市新店區黎明路55巷1號","121.502368333333","24.9483916666667","6500600","新店區"
"231006","617-UM","2018/07/21 14:29:49","新北市新店區北宜路二段174-1號","121.558495","24.9540883333333","6500600","新店區"
"231030","619-UM","2018/07/21 14:29:49","新北市新店區安民街65巷21號","121.515955","24.9673383333333","6500600","新店區"
"231035","719-UM","2018/07/21 14:29:48","新北市新店區安民街11號","121.515311666667","24.964475","6500600","新店區"
"231033","720-UM","2018/07/21 14:29:53","新北市新店區安業街33號","121.517446666667","24.97718","6500600","新店區"
"231029","897-TW","2018/07/21 14:29:54","新北市新店區安康路三段136號","121.490795","24.9517716666667","6500600","新店區"
"231004","899-TW","2018/07/21 14:29:41","新北市新店區中正路263-3號","121.538356666667","24.97377","6500600","新店區"
"231024","AKT-0513","2018/07/21 14:29:49","新北市新店區溪園路381號","121.52309","24.9795933333333","6500600","新店區"
"235030","003-UY","2018/07/21 14:29:36","新北市中和區景新街43號","121.503978333333","24.9992183333333","6500300","中和區"
"235028","005-UY","2018/07/21 14:29:46","新北市中和區南山路127巷18弄1號","121.503648333333","24.9975","6500300","中和區"
"235027","006-UY","2018/07/21 14:29:45","新北市中和區安邦街3號","121.495845","24.9983133333333","6500300","中和區"
"235020","096-UM","2018/07/21 14:29:44","新北市中和區員山路514巷16號","121.47956","25.009575","6500300","中和區"
"235003","097-UM","2018/07/21 14:29:38","新北市中和區景平路274-1號","121.514228333333","24.992525","6500300","中和區"
"235029","098-UM","2018/07/21 14:29:53","新北市中和區中山路二段187號","121.500398333333","25.002725","6500300","中和區"
"235022","151-BY","2018/07/21 14:29:53","新北市中和區連城路376號","121.481386666667","24.9952466666667","6500300","中和區"
"235019","183-VK","2018/07/21 14:29:47","新北市中和區德光路27巷26號","121.470885","25.0035466666667","6500300","中和區"
"235002","185-VK","2018/07/21 14:29:46","新北市中和區自立路107號","121.522031666667","24.99467","6500300","中和區"
"235013","186-VK","2018/07/21 14:29:41","新北市中和區景新街273巷9號","121.50971","24.993835","6500300","中和區"
"235031","255-BX","2018/07/21 14:29:42","新北市中和區員山路148巷39-4號","121.482496666667","24.9971716666667","6500300","中和區"
"235008","293-VK","2018/07/21 14:29:49","新北市中和區捷運路122號","121.505436666667","24.9914933333333","6500300","中和區"
"235036","301-VK","2018/07/21 14:29:41","新北市中和區中山路二段3巷22弄19號","121.50613","25.0044316666667","6500300","中和區"
"235007","352-BY","2018/07/21 14:29:40","新北市中和區景平路372號","121.510743333333","24.99284","6500300","中和區"
"235006","KEA-2878","2018/07/21 14:29:50","新北市中和區中和路262巷43弄3號","121.50957","24.9995266666667","6500300","中和區"
"247009","KEA-2869","2018/07/21 14:29:55","新北市蘆洲區鷺江街23號","121.478916666667","25.0824833333333","6501400","蘆洲區"
"235014","4979-A6","2018/07/21 14:29:36","新北市中和區中正路637巷52弄1號","121.485395","24.9935133333333","6500300","中和區"
"235033","4980-A6","2018/07/21 14:29:50","新北市中和區連城路134巷7號","121.495341666667","24.999785","6500300","中和區"
"235034","558-UM","2018/07/21 14:29:41","新北市中和區景平路634-13號","121.498276666667","24.9998633333333","6500300","中和區"
"235009","565-BX","2018/07/21 14:29:34","新北市中和區景新街516號","121.514185","24.9867433333333","6500300","中和區"
"235018","640-BX","2018/07/21 14:29:49","新北市中和區民德路57號","121.46887","25.0017366666667","6500300","中和區"
"235024","647-TV","2018/07/21 14:29:46","新北市中和區新生街114巷1號","121.483486666667","25.0022616666667","6500300","中和區"
"235011","732-UM","2018/07/21 14:29:25","新北市中和區景平路259巷11號","121.50792","24.9925033333333","6500300","中和區"
"235010","733-UM","2018/07/21 14:29:48","新北市中和區忠孝街37巷40號","121.511045","24.984845","6500300","中和區"
"235035","783-BX","2018/07/21 14:29:37","新北市中和區中正路637巷52弄1號","121.485411666667","24.99372","6500300","中和區"
"235026","800-TS","2018/07/21 14:29:55","新北市中和區中山路二段488-1號","121.487416666667","25.0049166666667","6500300","中和區"
"235021","801-TS","2018/07/21 14:29:53","新北市中和區中山路三段37巷35號","121.479608333333","25.0047716666667","6500300","中和區"
"235005","802-TS","2018/07/21 14:29:44","新北市中和區中和路232號","121.506665","24.9994333333333","6500300","中和區"
"235012","896-TW","2018/07/21 14:29:44","新北市中和區忠孝街39-1號","121.511436666667","24.98375","6500300","中和區"
"235017","900-TW","2018/07/21 14:29:48","新北市中和區民德路197號","121.468825","24.998565","6500300","中和區"
"235015","157-BY","2018/07/21 14:29:47","新北市中和區中興街132巷1號","121.499648333333","24.9921533333333","6500300","中和區"
"235001","AAC-213","2018/07/21 14:29:41","新北市中和區秀朗路三段10巷14弄30號","121.524751666667","24.9965833333333","6500300","中和區"
"235023","AAC-215","2018/07/21 14:29:48","新北市中和區圓通路315-5號","121.493013333333","24.99079","6500300","中和區"
"220013","072-UY","2018/07/21 14:29:41","新北市板橋區實踐路93巷80號","121.466916666667","25.00475","6500100","板橋區"
"220034","073-UY","2018/07/21 14:29:48","新北市板橋區國光路184號","121.460928333333","25.01841","6500100","板橋區"
"220017","AAD-861","2018/07/21 14:29:51","新北市板橋區稚暉街39號","121.45716","25.0041416666667","6500100","板橋區"
"220105","120-SR","2018/07/21 14:29:51","新北市板橋區江寧路三段109號","121.472945","25.0328","6500100","板橋區"
"247023","893-R6","2018/07/21 14:29:39","新北市蘆洲區中正路263巷2號","121.467323333333","25.0874033333333","6501400","蘆洲區"
"247013","546-UM","2018/07/21 14:29:56","新北市蘆洲區成功路187號","121.471291666667","25.0837033333333","6501400","蘆洲區"
"247011","339-TH","2018/07/21 14:29:54","新北市蘆洲區中興街125號","121.482008333333","25.0894466666667","6501400","蘆洲區"
"247003","337-TH","2018/07/21 14:29:56","新北市蘆洲區長安街267巷8弄269-1號","121.458458333333","25.0837916666667","6501400","蘆洲區"
"247005","336-TH","2018/07/21 14:29:39","新北市蘆洲區長安街46巷10號","121.463833333333","25.0801116666667","6501400","蘆洲區"
"247017","057-VK","2018/07/21 14:29:40","新北市蘆洲區民族路314巷3弄5號","121.477141666667","25.0903016666667","6501400","蘆洲區"
"247007","056-VK","2018/07/21 14:29:53","新北市蘆洲區民生街109號","121.473258333333","25.0785933333333","6501400","蘆洲區"
"247015","007-UY","2018/07/21 14:29:55","新北市蘆洲區中正路185巷78弄16號","121.465901666667","25.084675","6501400","蘆洲區"
"247001","002-UY","2018/07/21 14:29:46","新北市蘆洲區永樂街38巷33弄6-1號","121.4578","25.0895883333333","6501400","蘆洲區"
"247019","001-UY","2018/07/21 14:29:58","新北市蘆洲區水湳街397號","121.470156666667","25.093815","6501400","蘆洲區"
"235016","251-BX","2018/07/21 14:29:47","新北市中和區華新街143巷69弄4號","121.50741","24.9787816666667","6500300","中和區"
"228005","097-TW","2018/07/21 14:29:46","新北市貢寮區和美里和美街69號","121.909673333333","25.07294","6502600","貢寮區"
"228004","212-TW","2018/07/21 14:29:53","新北市貢寮區雙玉里田寮洋街33-1號","121.932168333333","25.0138716666667","6502600","貢寮區"
"253003","6232-TK","2018/07/21 14:29:53","新北市石門區尖子鹿33號","121.582938333333","25.26329","6502200","石門區"
"253001","6251-TK","2018/07/21 14:29:43","新北市石門區八甲3-2號","121.521361666667","25.2835683333333","6502200","石門區"
"253002","637-UY","2018/07/21 14:29:38","新北市三芝區橫山里橫山26號","121.544933333333","25.2635","6502200","石門區"
"253004","8270-PC","2018/07/21 14:29:54","新北市石門區內阿里磅46號","121.580405","25.2416783333333","6502200","石門區"
"207002","749-BX","2018/07/21 14:29:41","新北市萬里區溪底里富士坪路15號","121.622453333333","25.1546016666667","6502800","萬里區"
"252005","073-UM","2018/07/21 14:29:49","新北市三芝區橫山里橫山21號","121.540081666667","25.26252","6502100","三芝區"
"207001","662-BX","2018/07/21 14:29:42","新北市萬里區磺潭里清水18-5號","121.63937","25.1991816666667","6502800","萬里區"
"236068","105-UM","2018/07/21 14:29:47","新北市土城區永豐路255巷23弄2號","121.475215","24.973275","6501300","土城區"
"236040","107-UM","2018/07/21 14:29:50","新北市土城區學成路91巷2號","121.450851666667","24.9883033333333","6501300","土城區"
"236074","166-UM","2018/07/21 14:29:38","新北市土城區大暖路6-3號","121.423283333333","24.9605","6501300","土城區"
"236029","253-BX","2018/07/21 14:29:53","新北市土城區水源街81巷1弄1號","121.439518333333","24.9762233333333","6501300","土城區"
"236024","269-VK","2018/07/21 14:29:49","新北市土城區忠承路121號","121.438663333333","24.9645633333333","6501300","土城區"
"236013","270-VK","2018/07/21 14:29:41","新北市土城區青雲路39巷7號","121.460341666667","24.9875533333333","6501300","土城區"
"236032","271-VK","2018/07/21 14:29:43","新北市土城區青雲路409號","121.45881","24.9756783333333","6501300","土城區"
"236017","401-BY","2018/07/21 14:29:52","新北市土城區永豐路202巷7號","121.466271666667","24.9833066666667","6501300","土城區"
"236057","912-UM","2018/07/21 14:29:40","新北市土城區中央路四段84號","121.418888333333","24.9593483333333","6501300","土城區"
"236045","913-UM","2018/07/21 14:29:38","新北市土城區明德路一段182號","121.462326666667","24.9781133333333","6501300","土城區"
"236060","915-UM","2018/07/21 14:29:48","新北市土城區延壽路77巷6弄13號","121.468316666667","24.99308","6501300","土城區"
"236054","AAC-216","2018/07/21 14:29:41","新北市土城區中華路一段245號","121.440998333333","24.9817916666667","6501300","土城區"
"220028","200-UY","2018/07/21 14:29:20","新北市板橋區大觀路二段37巷270號","121.449701666667","25.0014166666667","6500100","板橋區"
"220030","610-BX","2018/07/21 14:29:58","新北市板橋區金門街259號","121.431695","24.98887","6500100","板橋區"
"220050","245-BX","2018/07/21 14:29:29","新北市板橋區莊敬路220巷62號","121.471728333333","25.0208616666667","6500100","板橋區"
"220027","256-TC","2018/07/21 14:29:53","新北市板橋區復興街57號","121.458761666667","25.017595","6500100","板橋區"
"220040","267-BY","2018/07/21 14:29:46","新北市板橋區文聖街135巷25號","121.478998333333","25.0289333333333","6500100","板橋區"
"220004","276-BY","2018/07/21 14:29:45","新北市板橋區信義路1巷26弄12號","121.45806","24.9967666666667","6500100","板橋區"
"220020","277-BY","2018/07/21 14:29:43","新北市板橋區金門街253巷17弄27號","121.433501666667","24.9891","6500100","板橋區"
"220019","283-VK","2018/07/21 14:29:49","新北市板橋區信義路184號","121.45954","24.9913033333333","6500100","板橋區"
"220043","285-UM","2018/07/21 14:29:41","新北市板橋區吳鳳路50巷42弄1號","121.470465","25.0303916666667","6500100","板橋區"
"220001","285-VK","2018/07/21 14:29:44","新北市板橋區永豐街108號","121.476095","25.020615","6500100","板橋區"
"220031","286-VK","2018/07/21 14:29:49","新北市板橋區龍興街65巷40號","121.442785","25.0017666666667","6500100","板橋區"
"220029","287-VK","2018/07/21 14:29:51","新北市板橋區大觀路一段75巷37號","121.448863333333","25.004045","6500100","板橋區"
"220039","288-VK","2018/07/21 14:29:52","新北市板橋區裕民街87-4號","121.460466666667","25.0281283333333","6500100","板橋區"
"220009","293-UM","2018/07/21 14:29:37","新北市板橋區中山路二段211巷4號","121.476411666667","25.0173583333333","6500100","板橋區"
"220041","295-UM","2018/07/21 14:29:46","新北市板橋區自由路6號","121.465456666667","25.02246","6500100","板橋區"
"220032","296-UM","2018/07/21 14:29:52","新北市板橋區滿平二街1-3號","121.425458333333","24.98634","6500100","板橋區"
"220023","303-R5","2018/07/21 14:29:48","新北市板橋區中正路253巷16號","121.454991666667","25.0180666666667","6500100","板橋區"
"220010","305-R5","2018/07/21 14:29:49","新北市板橋區三民路二段181巷1號","121.479663333333","25.0143583333333","6500100","板橋區"
"220047","317-R6","2018/07/21 14:29:55","新北市板橋區長江路一段230號","121.46319","25.030635","6500100","板橋區"
"220012","486-VK","2018/07/21 14:29:45","新北市板橋區館前東路49-3號","121.461126666667","25.00741","6500100","板橋區"
"220037","491-VK","2018/07/21 14:29:54","新北市板橋區雙十路二段72號","121.47534","25.027915","6500100","板橋區"
"220104","560-BX","2018/07/21 14:29:53","新北市板橋區新生街89巷6號","121.457998333333","25.022205","6500100","板橋區"
"220052","561-BX","2018/07/21 14:29:43","新北市板橋區文化路一段270巷3弄2號","121.467466666667","25.0208166666667","6500100","板橋區"
"220011","609-BX","2018/07/21 14:26:03","新北市板橋區三民路二段257號","121.479111666667","25.0116183333333","6500100","板橋區"
"220005","686-BX","2018/07/21 14:29:56","新北市板橋區和平路45號","121.460058333333","24.9945616666667","6500100","板橋區"
"220025","687-BX","2018/07/21 14:29:40","新北市板橋區僑中二街92巷1號","121.44623","25.0087733333333","6500100","板橋區"
"220042","689-BX","2018/07/21 14:29:38","新北市板橋區雨農路32號","121.461125","25.024445","6500100","板橋區"
"220002","741-BX","2018/07/21 14:29:46","新北市板橋區光明街3號","121.460225","25.0025633333333","6500100","板橋區"
"220051","KEA-2699","2018/07/21 14:29:44","新北市板橋區松柏街22巷18-3號","121.47471","25.0293633333333","6500100","板橋區"
"220003","827-TW","2018/07/21 14:29:46","新北市板橋區重慶路278巷9號","121.46252","24.9996433333333","6500100","板橋區"
"220014","829-TW","2018/07/21 14:29:44","新北市板橋區漢生東路279巷10弄11號","121.472151666667","25.0086983333333","6500100","板橋區"
"220016","830-TW","2018/07/21 14:29:57","新北市板橋區中山路二段422-1號","121.483173333333","25.0211533333333","6500100","板橋區"
"220045","831-TW","2018/07/21 14:29:52","新北市板橋區民生路二段226巷19號","121.470588333333","25.0219716666667","6500100","板橋區"
"220038","833-TW","2018/07/21 14:29:55","新北市板橋區文化路一段55號","121.460673333333","25.0135583333333","6500100","板橋區"
"220022","895-R6","2018/07/21 14:29:36","新北市板橋區府中路29-2號","121.458491666667","25.0080566666667","6500100","板橋區"
"220021","985-R7","2018/07/21 14:29:54","新北市板橋區瑞安街26號","121.455173333333","25.022865","6500100","板橋區"
"220046","AAC-210","2018/07/21 14:29:43","新北市板橋區新海路6號","121.46275","25.0209283333333","6500100","板橋區"
"220018","AAC-253","2018/07/21 14:29:46","新北市板橋區四川路一段40號","121.459478333333","25.0060333333333","6500100","板橋區"
"235032","KEA-2873","2018/07/21 14:29:32","新北市中和區永和路8巷23弄3號","121.500815","25.003775","6500300","中和區"
"235025","KEA-2875","2018/07/21 14:29:48","新北市中和區員山路173號","121.481146666667","24.996955","6500300","中和區"
