"lineid","car","time","location","longitude","latitude","cityid","cityname"
"234070","149-BY","2018/07/21 15:19:46","新北市板橋區萬安街85巷18-1號","121.484188333333","25.0257116666667","6500400","永和區"
"231002","002-UM","2018/07/21 15:19:35","新北市新店區溪園路365-8號","121.522718333333","24.9806416666667","6500600","新店區"
"231028","046-UY","2018/07/21 15:19:43","新北市新店區僑信路108巷41號","121.499108333333","24.9463133333333","6500600","新店區"
"231001","047-UY","2018/07/21 15:19:42","新北市新店區光明街306號","121.540506666667","24.965015","6500600","新店區"
"231005","106-UY","2018/07/21 15:19:46","新北市新店區建國路221號","121.537611666667","24.9814266666667","6500600","新店區"
"231020","108-UY","2018/07/21 15:19:48","新北市新店區湖興路128-18號","121.562576666667","24.9307383333333","6500600","新店區"
"231012","110-UY","2018/07/21 15:19:49","新北市新店區中興路三段309號","121.542048333333","24.985795","6500600","新店區"
"231017","189-VK","2018/07/21 15:19:54","新北市新店區明山路45號","121.56385","24.95583","6500600","新店區"
"231023","KEA-2219","2018/07/21 15:19:37","新北市新店區北新路一段64巷39弄2號","121.542433333333","24.9658083333333","6500600","新店區"
"231026","256-BX","2018/07/21 15:19:52","新北市新店區中正路247巷6弄2號","121.538685","24.9727683333333","6500600","新店區"
"231003","268-BY","2018/07/21 15:19:43","新北市新店區寶橋路214號","121.550985","24.9786883333333","6500600","新店區"
"231018","278-BY","2018/07/21 15:19:54","新北市新店區中央七街61巷3號","121.528163333333","24.976645","6500600","新店區"
"231038","3712-VJ","2018/07/21 15:19:48","新北市新店區安華路28-1號","121.519741666667","24.9608866666667","6500600","新店區"
"231037","4716-K9","2018/07/21 15:19:43","新北市新店區安民街365巷7弄2號","121.515966666667","24.9754266666667","6500600","新店區"
"231025","4715-K9","2018/07/21 15:19:42","新北市新店區環河路103-6號","121.531325","24.970915","6500600","新店區"
"231036","512-UM","2018/07/21 15:19:56","新北市新店區安祥路69巷17號","121.48192","24.9613316666667","6500600","新店區"
"231034","616-UM","2018/07/21 15:19:37","新北市新店區如意街4巷2號","121.495613333333","24.94934","6500600","新店區"
"231006","617-UM","2018/07/21 15:19:49","新北市新店區溪洲路55號","121.533323333333","24.96053","6500600","新店區"
"231030","619-UM","2018/07/21 15:19:49","新北市新店區安民街341號","121.516961666667","24.974975","6500600","新店區"
"231039","718-UY","2018/07/21 15:19:57","新北市新店區寶元路一段65號","121.542221666667","24.9857683333333","6500600","新店區"
"231035","719-UM","2018/07/21 15:19:48","新北市新店區安和路三段47-1號","121.518011666667","24.9821783333333","6500600","新店區"
"231033","720-UM","2018/07/21 15:19:53","新北市新店區和成街19巷47號","121.488535","24.945935","6500600","新店區"
"231029","897-TW","2018/07/21 15:19:54","新北市新店區安康路三段744號","121.473723333333","24.94189","6500600","新店區"
"231004","899-TW","2018/07/21 15:19:41","新北市新店區建國路25號","121.540175","24.9740316666667","6500600","新店區"
"231024","AKT-0513","2018/07/21 15:19:49","新北市新店區環河路29巷1號","121.536673333333","24.96134","6500600","新店區"
"241014","543-UM","2018/07/21 15:19:39","新北市三重區重新路四段121號","121.484933333333","25.052435","6500200","三重區"
"235030","003-UY","2018/07/21 15:19:36","新北市中和區保平路328號","121.506993333333","25.0042133333333","6500300","中和區"
"235014","4979-A6","2018/07/21 15:19:36","新北市中和區景平路426號","121.507443333333","24.993425","6500300","中和區"
"235033","4980-A6","2018/07/21 15:19:40","新北市中和區圓通路229號","121.496335","24.9942716666667","6500300","中和區"
"235026","800-TS","2018/07/21 15:19:54","新北市中和區建八路158號","121.490005","24.9985933333333","6500300","中和區"
"235012","896-TW","2018/07/21 15:19:44","新北市中和區興南路一段20-1號","121.511393333333","24.9911266666667","6500300","中和區"
"235001","AAC-213","2018/07/21 15:19:41","新北市三重區後埔街80-1號","121.478691666667","25.0447466666667","6500300","中和區"
"235023","AAC-215","2018/07/21 15:19:47","新北市中和區圓通路332號","121.484538333333","24.9862383333333","6500300","中和區"
"253003","6232-TK","2018/07/21 15:19:53","新北市石門區小坑9號","121.59448","25.2891866666667","6502200","石門區"
"253001","6251-TK","2018/07/21 15:19:23","新北市石門區小坑9號","121.594388333333","25.2884116666667","6502200","石門區"
"253002","637-UY","2018/07/21 15:19:38","新北市石門區小坑9號","121.594513333333","25.2891683333333","6502200","石門區"
"253004","8270-PC","2018/07/21 15:19:49","新北市石門區小坑9號","121.59436","25.288625","6502200","石門區"
"207002","749-BX","2018/07/21 15:19:41","新北市萬里區崁腳里內中福路2-1號","121.669393333333","25.1654333333333","6502800","萬里區"
"207001","662-BX","2018/07/21 15:19:42","新北市萬里區大鵬里萬里加投14號","121.651033333333","25.2088383333333","6502800","萬里區"
"236068","105-UM","2018/07/21 15:19:47","新北市土城區裕民路185巷36弄10號","121.45437","24.9845266666667","6501300","土城區"
"236040","107-UM","2018/07/21 15:19:52","新北市土城區學府路一段98巷8號","121.456015","24.98834","6501300","土城區"
"236074","166-UM","2018/07/21 15:19:38","新北市土城區中州路52巷2弄22號","121.41256","24.957975","6501300","土城區"
"236029","253-BX","2018/07/21 15:19:53","新北市土城區中華路一段203號","121.442916666667","24.98493","6501300","土城區"
"236024","269-VK","2018/07/21 15:19:49","新北市土城區中央路二段61巷46號","121.444106666667","24.9785683333333","6501300","土城區"
"236013","270-VK","2018/07/21 15:19:41","新北市土城區廣福街68巷5號","121.457535","24.9902833333333","6501300","土城區"
"236032","271-VK","2018/07/21 15:19:48","新北市土城區國際路12號","121.465393333333","24.9798483333333","6501300","土城區"
"236017","401-BY","2018/07/21 15:19:52","新北市土城區峰廷街18號","121.468971666667","24.9872833333333","6501300","土城區"
"236057","912-UM","2018/07/21 15:19:40","新北市土城區光明街1號","121.442125","24.97492","6501300","土城區"
"236045","913-UM","2018/07/21 15:19:46","新北市土城區明德路一段58號","121.465421666667","24.983615","6501300","土城區"
"236060","915-UM","2018/07/21 15:19:46","新北市土城區延和路105巷2弄3號","121.467735","24.9905133333333","6501300","土城區"
"236054","AAC-216","2018/07/21 15:19:54","新北市土城區延和路30號","121.46484","24.9884816666667","6501300","土城區"
"220030","610-BX","2018/07/21 15:19:43","新北市樹林區中山路三段214號","121.37996","24.9675716666667","6500100","板橋區"
"220050","245-BX","2018/07/21 15:19:49","新北市板橋區漢生東路83巷2-1號","121.467018333333","25.0158516666667","6500100","板橋區"
"220019","283-VK","2018/07/21 15:04:47","新北市板橋區華東街1-9號","121.448068333333","24.9948966666667","6500100","板橋區"
"220031","286-VK","2018/07/21 15:19:49","新北市板橋區僑中二街108巷2號","121.445881666667","25.0072816666667","6500100","板橋區"
"220029","287-VK","2018/07/21 15:19:51","新北市板橋區大觀路一段28巷73號","121.449643333333","25.0111116666667","6500100","板橋區"
"220009","293-UM","2018/07/21 15:19:56","新北市板橋區四川路一段274巷8號","121.45818","25.0014583333333","6500100","板橋區"
"220052","561-BX","2018/07/21 15:19:43","新北市板橋區漢生東路45號","121.465641666667","25.01672","6500100","板橋區"
"220042","689-BX","2018/07/21 15:19:38","新北市板橋區長江路一段9號","121.457931666667","25.0287716666667","6500100","板橋區"
"220051","KEA-2699","2018/07/21 15:19:56","新北市板橋區漢生東路83巷2號","121.466896666667","25.0156866666667","6500100","板橋區"
"220038","833-TW","2018/07/21 15:19:36","新北市板橋區四維路162號","121.464838333333","25.0259516666667","6500100","板橋區"
"220018","AAC-253","2018/07/21 15:19:42","新北市板橋區四川路二段245巷34號","121.451463333333","24.9927066666667","6500100","板橋區"
