"lineid","car","time","location","longitude","latitude","cityid","cityname"
"231028","046-UY","2018/07/21 15:39:23","新北市新店區僑信路2巷2號","121.499803333333","24.9535566666667","6500600","新店區"
"231005","106-UY","2018/07/21 15:39:27","新北市新店區中正路381號","121.53473","24.9769033333333","6500600","新店區"
"231020","108-UY","2018/07/21 15:39:28","新北市新店區金興路40號","121.552708333333","24.93226","6500600","新店區"
"231012","110-UY","2018/07/21 15:39:09","新北市新店區寶元路一段109號","121.545753333333","24.98311","6500600","新店區"
"231017","189-VK","2018/07/21 15:39:14","新北市新店區北宜路二段8號","121.547723333333","24.95169","6500600","新店區"
"231023","KEA-2219","2018/07/21 15:39:17","新北市新店區中興路一段283號","121.545293333333","24.9684333333333","6500600","新店區"
"231026","256-BX","2018/07/21 15:39:12","新北市新店區三民路75巷1弄2號","121.535781666667","24.971185","6500600","新店區"
"231003","268-BY","2018/07/21 15:39:23","新北市新店區寶橋路97號","121.547203333333","24.976195","6500600","新店區"
"231018","278-BY","2018/07/21 15:39:14","新北市新店區溪園路77巷2號","121.529206666667","24.9870683333333","6500600","新店區"
"231038","3712-VJ","2018/07/21 15:39:27","新北市新店區吉安街4號","121.517078333333","24.9657083333333","6500600","新店區"
"231037","4716-K9","2018/07/21 15:39:23","新北市新店區安民街365巷1弄8號","121.516343333333","24.9752266666667","6500600","新店區"
"231036","512-UM","2018/07/21 15:39:17","新北市新店區安祥路78號","121.488621666667","24.95798","6500600","新店區"
"231013","513-UM","2018/07/21 15:39:23","新北市新店區永業路81巷5弄31號","121.530946666667","24.94983","6500600","新店區"
"231034","616-UM","2018/07/21 15:39:18","新北市新店區如意街97號","121.495295","24.9468833333333","6500600","新店區"
"231030","619-UM","2018/07/21 15:39:09","新北市新店區新和街116巷7號","121.521331666667","24.9861883333333","6500600","新店區"
"231039","718-UY","2018/07/21 15:39:17","新北市新店區寶元路二段11-1號","121.546155","24.9823533333333","6500600","新店區"
"231035","719-UM","2018/07/21 15:39:08","新北市新店區安興路81號","121.515448333333","24.975265","6500600","新店區"
"231033","720-UM","2018/07/21 15:39:13","新北市新店區雙城路133號","121.497903333333","24.9387966666667","6500600","新店區"
"231029","897-TW","2018/07/21 15:39:14","新北市新店區安康路二段393號","121.494436666667","24.9542266666667","6500600","新店區"
"241011","013-R5","2018/07/21 15:39:19","新北市三重區仁愛街19號","121.497175","25.0707516666667","6500200","三重區"
"241028","022-UY","2018/07/21 15:39:09","新北市三重區環河南路257-1號","121.490825","25.0500733333333","6500200","三重區"
"241008","059-VK","2018/07/21 15:39:19","新北市三重區重新路四段121號","121.485196666667","25.052085","6500200","三重區"
"241015","062-VK","2018/07/21 15:39:21","新北市三重區重新路四段121號","121.484913333333","25.05241","6500200","三重區"
"241017","063-VK","2018/07/21 15:39:10","新北市三重區大仁街1號","121.491651666667","25.06362","6500200","三重區"
"241009","265-UM","2018/07/21 15:39:15","新北市三重區重新路四段121號","121.485138333333","25.0523466666667","6500200","三重區"
"241016","266-UM","2018/07/21 15:39:14","新北市三重區重新路四段121號","121.485055","25.05238","6500200","三重區"
"241018","268-UM","2018/07/21 15:39:14","新北市三重區重新路四段121號","121.484848333333","25.05277","6500200","三重區"
"241013","270-UM","2018/07/21 15:39:27","新北市三重區正義北路291號","121.494965","25.07048","6500200","三重區"
"241025","271-UM","2018/07/21 15:39:18","新北市三重區重新路四段121號","121.484806666667","25.0526483333333","6500200","三重區"
"241007","413-TH","2018/07/21 15:39:21","新北市三重區重新路四段121號","121.485123333333","25.05224","6500200","三重區"
"241026","462-BY","2018/07/21 15:39:18","新北市三重區重新路四段121號","121.484891666667","25.05196","6500200","三重區"
"241004","475-VK","2018/07/21 15:39:13","新北市三重區重新路四段121號","121.484956666667","25.0524533333333","6500200","三重區"
"241020","478-VK","2018/07/21 15:39:19","新北市三重區忠孝路二段66號","121.484733333333","25.0702583333333","6500200","三重區"
"241014","543-UM","2018/07/21 15:39:19","新北市三重區重新路四段121號","121.484985","25.0524466666667","6500200","三重區"
"241019","KEA-2593","2018/07/21 15:39:14","新北市三重區自強路三段79號","121.487283333333","25.0742833333333","6500200","三重區"
"241012","941-UM","2018/07/21 15:39:08","新北市三重區自強路一段66號","121.497113333333","25.0666083333333","6500200","三重區"
"241029","942-UM","2018/07/21 15:39:18","新北市三重區大同南路204號","121.496795","25.0566633333333","6500200","三重區"
"241033","AAC-255","2018/07/21 15:39:23","新北市三重區中興南街76號","121.470916666667","25.0434916666667","6500200","三重區"
"235033","4980-A6","2018/07/21 15:39:22","新北市中和區員山路359巷1弄3號","121.480981666667","25.0015533333333","6500300","中和區"
"235001","AAC-213","2018/07/21 15:39:20","新北市林口區太平里180號","121.367536666667","25.1350783333333","6500300","中和區"
"235023","AAC-215","2018/07/21 15:39:07","新北市中和區員山路36巷8-1號","121.483295","24.9909983333333","6500300","中和區"
"227002","400-TW","2018/07/21 15:39:16","新北市雙溪區牡丹里頂坪5-1號","121.862763333333","25.0386733333333","6502500","雙溪區"
"236068","105-UM","2018/07/21 15:39:07","新北市土城區中央路三段96-1號","121.4357","24.9665366666667","6501300","土城區"
"236040","107-UM","2018/07/21 15:39:22","新北市土城區中華路一段301號","121.439736666667","24.979635","6501300","土城區"
"236074","166-UM","2018/07/21 15:39:18","新北市土城區中央路四段323號","121.410495","24.9510733333333","6501300","土城區"
"236029","253-BX","2018/07/21 15:39:13","新北市土城區中央路一段45巷2弄24號","121.448088333333","24.9897716666667","6501300","土城區"
"236024","269-VK","2018/07/21 15:39:09","新北市土城區裕生路83巷28號","121.447803333333","24.9838","6501300","土城區"
"236013","270-VK","2018/07/21 15:39:21","新北市土城區廣福街181號","121.456131666667","24.9955433333333","6501300","土城區"
"236017","401-BY","2018/07/21 15:39:12","新北市土城區延吉街111巷10號","121.471735","24.9860016666667","6501300","土城區"
"236057","912-UM","2018/07/21 15:39:20","新北市土城區中央路一段244號","121.444595","24.9848183333333","6501300","土城區"
"236045","913-UM","2018/07/21 15:39:18","新北市土城區金城路三段205-1號","121.470341666667","24.9892783333333","6501300","土城區"
"236054","AAC-216","2018/07/21 15:39:20","新北市土城區中央路一段47號","121.448255","24.9903766666667","6501300","土城區"
