"lineid","car","time","location","longitude","latitude","cityid","cityname"
"234013","KEA-2591","2018/07/21 16:09:21","新北市永和區福和路1號","121.52627","25.0094033333333","6500400","永和區"
"234042","862-TW","2018/07/21 16:09:17","新北市永和區福和路1號","121.526461666667","25.009675","6500400","永和區"
"231046","107-UY","2018/07/21 16:09:09","新北市新店區灣潭路4-1號","121.536291666667","24.9472733333333","6500600","新店區"
"231012","110-UY","2018/07/21 16:09:28","新北市新店區安民街121巷19號","121.515133333333","24.9684266666667","6500600","新店區"
"231018","278-BY","2018/07/21 16:09:14","新北市新店區中正路694巷15號","121.535446666667","24.9909016666667","6500600","新店區"
"231034","616-UM","2018/07/21 16:09:18","新北市新店區安康路二段341巷3號","121.497531666667","24.955525","6500600","新店區"
"241011","013-R5","2018/07/21 16:09:18","新北市三重區正義北路388號","121.493225","25.0716683333333","6500200","三重區"
"241028","022-UY","2018/07/21 16:09:09","新北市三重區正義南路111號","121.498275","25.0585933333333","6500200","三重區"
"241008","059-VK","2018/07/21 16:09:19","新北市三重區車路頭街4巷23號","121.483093333333","25.0702383333333","6500200","三重區"
"241022","060-VK","2018/07/21 16:09:19","新北市三重區新北大道一段7號","121.489695","25.061325","6500200","三重區"
"241031","061-VK","2018/07/21 16:09:14","新北市三重區重新路四段121號","121.4844","25.0520116666667","6500200","三重區"
"241015","062-VK","2018/07/21 16:09:21","新北市三重區環河南路112號","121.498646666667","25.0559366666667","6500200","三重區"
"241017","063-VK","2018/07/21 16:09:13","新北市三重區民生街76號","121.49031","25.0648233333333","6500200","三重區"
"241024","065-VK","2018/07/21 16:09:13","新北市三重區中正北路145巷9弄15號","121.485503333333","25.067675","6500200","三重區"
"241002","090-VK","2018/07/21 16:09:19","新北市三重區仁義街91號","121.499746666667","25.0794983333333","6500200","三重區"
"241003","091-VK","2018/07/21 16:09:15","新北市三重區仁義街218-2號","121.49557","25.0837","6500200","三重區"
"241005","262-UM","2018/07/21 16:09:24","新北市三重區溪尾街303號","121.487603333333","25.0835983333333","6500200","三重區"
"241009","265-UM","2018/07/21 16:09:15","新北市三重區三和路四段324號","121.483866666667","25.0780683333333","6500200","三重區"
"241016","266-UM","2018/07/21 16:09:13","新北市三重區新北大道一段7號","121.489746666667","25.0613566666667","6500200","三重區"
"241018","268-UM","2018/07/21 16:09:14","新北市三重區明志街28號","121.491731666667","25.063935","6500200","三重區"
"241013","270-UM","2018/07/21 16:09:08","新北市三重區安樂街21號","121.496566666667","25.0697366666667","6500200","三重區"
"241025","271-UM","2018/07/21 16:09:18","新北市三重區忠孝路三段40巷6弄1號","121.481908333333","25.0663716666667","6500200","三重區"
"241007","413-TH","2018/07/21 16:09:21","新北市三重區慈愛街8號","121.484511666667","25.0783666666667","6500200","三重區"
"241026","462-BY","2018/07/21 16:09:18","新北市三重區正義南路40號","121.49827","25.060875","6500200","三重區"
"241004","475-VK","2018/07/21 16:09:13","新北市三重區五華街74號","121.493443333333","25.0819616666667","6500200","三重區"
"241020","478-VK","2018/07/21 16:09:23","新北市三重區後竹圍街247號","121.483905","25.07128","6500200","三重區"
"241030","480-VK","2018/07/21 16:09:16","新北市三重區重新路四段121號","121.484503333333","25.0524333333333","6500200","三重區"
"241014","543-UM","2018/07/21 16:09:19","新北市三重區環河南路112號","121.498701666667","25.05601","6500200","三重區"
"241023","545-UM","2018/07/21 16:09:10","新北市三重區力行路一段80號","121.48385","25.06956","6500200","三重區"
"241019","KEA-2593","2018/07/21 16:09:14","新北市三重區自強路二段36號","121.489291666667","25.0694116666667","6500200","三重區"
"241006","AAD-863","2018/07/21 16:09:20","新北市三重區永福街58巷3弄20號","121.480705","25.0773483333333","6500200","三重區"
"241001","887-TS","2018/07/21 16:09:25","新北市三重區自強路四段82號","121.49075","25.0790266666667","6500200","三重區"
"241012","941-UM","2018/07/21 16:09:08","新北市三重區正義北路113號","121.49686","25.0658283333333","6500200","三重區"
"241029","942-UM","2018/07/21 16:09:18","新北市三重區同安街66號","121.495473333333","25.0565716666667","6500200","三重區"
"241033","AAC-255","2018/07/21 16:09:23","新北市三重區重新路五段326巷25-1號","121.477363333333","25.0460916666667","6500200","三重區"
"247002","002-UY","2018/07/21 15:44:12","新北市五股區中興路三段2巷10號","121.449186666667","25.0808616666667","6501400","蘆洲區"
"224007","275-VK","2018/07/21 16:09:16","新北市瑞芳區粗坑口路66號","121.761303333333","25.09894","6501200","瑞芳區"
"227010","642-TC","2018/07/21 16:09:15","新北市雙溪區三港里雙澳路70-1號","121.881441666667","25.054355","6502500","雙溪區"
"227002","400-TW","2018/07/21 16:09:16","新北市雙溪區上林里內平林47號","121.833306666667","25.0304033333333","6502500","雙溪區"
"251008","442-VK","2018/07/21 16:09:10","新北市淡水區中正路二段31號","121.419588333333","25.1814983333333","6501000","淡水區"
