"lineid","car","time","location","longitude","latitude","cityid","cityname"
"234067","553-UM","2018/07/21 16:25:12","新北市永和區福和路1號","121.526388333333","25.0096583333333","6500400","永和區"
"234013","KEA-2591","2018/07/21 16:24:36","新北市永和區福和路1號","121.526335","25.0096","6500400","永和區"
"234042","862-TW","2018/07/21 16:17:09","新北市永和區福和路1號","121.526503333333","25.0096616666667","6500400","永和區"
"231046","107-UY","2018/07/21 16:29:29","新北市新店區灣潭路3-2號","121.538276666667","24.9507833333333","6500600","新店區"
"241011","013-R5","2018/07/21 16:29:18","新北市三重區龍濱路190號","121.50104","25.0732283333333","6500200","三重區"
"241028","022-UY","2018/07/21 16:29:09","新北市三重區大同南路161巷68號","121.495075","25.055115","6500200","三重區"
"241008","059-VK","2018/07/21 16:29:19","新北市三重區力行路二段136巷45弄10號","121.479223333333","25.0753383333333","6500200","三重區"
"241022","060-VK","2018/07/21 16:29:19","新北市三重區三民街59號","121.48607","25.0623516666667","6500200","三重區"
"241031","061-VK","2018/07/21 16:29:25","新北市三重區重陽路一段51號","121.486676666667","25.058375","6500200","三重區"
"241015","062-VK","2018/07/21 16:29:21","新北市三重區福德北路34號","121.502103333333","25.0652016666667","6500200","三重區"
"241017","063-VK","2018/07/21 16:29:10","新北市三重區大同北路91號","121.494708333333","25.063685","6500200","三重區"
"241024","065-VK","2018/07/21 16:29:12","新北市三重區中正北路225號","121.476188333333","25.0705416666667","6500200","三重區"
"241002","090-VK","2018/07/21 16:29:19","新北市三重區五華街9-2號","121.495141666667","25.080045","6500200","三重區"
"241003","091-VK","2018/07/21 16:29:15","新北市三重區五華街71巷109號","121.494865","25.08422","6500200","三重區"
"241005","262-UM","2018/07/21 16:29:24","新北市三重區溪尾街305號","121.48759","25.0837533333333","6500200","三重區"
"241009","265-UM","2018/07/21 16:29:14","新北市三重區三和路四段191巷50號","121.483495","25.079555","6500200","三重區"
"241016","266-UM","2018/07/21 16:29:13","新北市三重區大智街21號","121.494241666667","25.0657983333333","6500200","三重區"
"241018","268-UM","2018/07/21 16:29:14","新北市三重區重陽路三段190號","121.49028","25.06832","6500200","三重區"
"241032","269-UM","2018/07/21 16:29:09","新北市三重區三陽路100巷3弄13號","121.48299","25.0581416666667","6500200","三重區"
"241013","270-UM","2018/07/21 16:29:27","新北市三重區龍門路136號","121.498216666667","25.073015","6500200","三重區"
"241025","271-UM","2018/07/21 16:29:18","新北市三重區中正北路560巷100弄17-1號","121.472683333333","25.0683083333333","6500200","三重區"
"241007","413-TH","2018/07/21 16:29:21","新北市三重區溪尾街174號","121.488461666667","25.080495","6500200","三重區"
"241026","462-BY","2018/07/21 16:29:18","新北市三重區光興街1號","121.500235","25.06044","6500200","三重區"
"241004","475-VK","2018/07/21 16:29:13","新北市三重區仁愛街377巷44號","121.492318333333","25.0808316666667","6500200","三重區"
"241020","478-VK","2018/07/21 16:29:19","新北市三重區車路頭街37巷2號","121.483916666667","25.07174","6500200","三重區"
"241030","480-VK","2018/07/21 16:29:16","新北市三重區成功路96號","121.487631666667","25.0514766666667","6500200","三重區"
"241014","543-UM","2018/07/21 16:29:19","新北市三重區河邊北街72-6號","121.504351666667","25.0684283333333","6500200","三重區"
"241023","545-UM","2018/07/21 16:29:10","新北市三重區洛陽街45巷33號","121.482776666667","25.064195","6500200","三重區"
"241019","KEA-2593","2018/07/21 16:29:14","新北市三重區重陽路三段140號","121.489163333333","25.0672483333333","6500200","三重區"
"241006","AAD-863","2018/07/21 16:29:20","新北市三重區力行路二段131號","121.483318333333","25.07693","6500200","三重區"
"241001","887-TS","2018/07/21 16:29:25","新北市三重區福隆路18號","121.491483333333","25.0779266666667","6500200","三重區"
"241012","941-UM","2018/07/21 16:29:28","新北市三重區河邊北街254號","121.501748333333","25.0762566666667","6500200","三重區"
"241029","942-UM","2018/07/21 16:29:18","新北市三重區集美街126巷2號","121.489063333333","25.0536033333333","6500200","三重區"
"241033","AAC-255","2018/07/21 16:29:23","新北市三重區五谷王北街20巷15弄2號","121.474913333333","25.048365","6500200","三重區"
"235046","733-UM","2018/07/21 16:29:00","新北市中和區員山路36巷13號","121.484135","24.9908233333333","6500300","中和區"
"247006","336-TH","2018/07/21 16:29:29","新北市五股區中興路三段2巷10號","121.449311666667","25.080995","6501400","蘆洲區"
"224007","275-VK","2018/07/21 16:29:16","新北市瑞芳區瑞竹路36巷41號","121.76416","25.1043783333333","6501200","瑞芳區"
"224005","271-BY","2018/07/21 16:29:15","新北市瑞芳區阿美家園31號","121.821076666667","25.1166583333333","6501200","瑞芳區"
"227010","642-TC","2018/07/21 16:29:16","新北市雙溪區三港里雙澳路22號","121.869571666667","25.049895","6502500","雙溪區"
"227002","400-TW","2018/07/21 16:29:16","新北市雙溪區上林里內平林120-2號","121.824461666667","25.0262516666667","6502500","雙溪區"
"251014","180-VK","2018/07/21 16:29:11","新北市淡水區中正路二段31號","121.419393333333","25.1816733333333","6501000","淡水區"
"251008","442-VK","2018/07/21 16:29:10","新北市淡水區民權路85號","121.459961666667","25.1383816666667","6501000","淡水區"
"252002","178-VK","2018/07/21 16:29:04","新北市三芝區忠孝街15號","121.50624","25.2550933333333","6502100","三芝區"
