"lineid","car","time","location","longitude","latitude","cityid","cityname"
"234013","KEA-2591","2018/07/21 17:49:26","新北市永和區福和路1號","121.526103333333","25.0095916666667","6500400","永和區"
"234026","9371-KE","2018/07/21 17:49:12","新北市永和區中山路一段89號","121.511873333333","25.0107166666667","6500400","永和區"
"249005","172-UM","2018/07/21 17:49:27","新北市八里區荖阡坑路34-1號","121.40274","25.1303316666667","6502300","八里區"
"249001","173-UM","2018/07/21 17:49:27","新北市八里區龍米路二段96號","121.4458","25.1469566666667","6502300","八里區"
"249004","303-UY","2018/07/21 17:49:23","新北市八里區中華路一段309巷51-3號","121.417555","25.15317","6502300","八里區"
"249002","305-UY","2018/07/21 17:49:28","新北市八里區龍形五街37巷3-1號","121.44872","25.1326116666667","6502300","八里區"
"249003","593-UM","2018/07/21 17:49:25","新北市八里區中山路二段123號","121.405456666667","25.1518783333333","6502300","八里區"
"248008","095-VK","2018/07/21 17:49:15","新北市五股區中興路二段37巷28號","121.460186666667","25.0750166666667","6501500","五股區"
"248020","225-UY","2018/07/21 17:49:24","新北市五股區中興路二段83巷26-6號","121.46003","25.0753066666667","6501500","五股區"
"232011","375-UM","2018/07/21 17:49:25","新北市坪林區北宜路八段130號","121.706401666667","24.9345966666667","6502000","坪林區"
"244007","080-UY","2018/07/21 17:49:26","新北市林口區佳林路1號","121.387301666667","25.0824966666667","6501700","林口區"
"244019","403-UM","2018/07/21 17:49:22","新北市林口區麗園路96號","121.372026666667","25.068035","6501700","林口區"
"244013","742-UY","2018/07/21 17:49:28","新北市林口區中正路398號","121.38484","25.0778716666667","6501700","林口區"
"244009","410-SL","2018/07/21 17:49:12","新北市林口區佳林路22號","121.386685","25.0823016666667","6501700","林口區"
"244023","483-VK","2018/07/21 17:49:24","新北市林口區東湖一街3號","121.387221666667","25.0730083333333","6501700","林口區"
"244017","485-VK","2018/07/21 17:49:13","新北市林口區文化二路一段260巷18號","121.37085","25.0725166666667","6501700","林口區"
"244011","657-BX","2018/07/21 17:49:25","新北市林口區竹林路48號","121.386976666667","25.0776266666667","6501700","林口區"
"244025","837-TS","2018/07/21 17:49:24","新北市林口區忠孝三路42號","121.360158333333","25.0702583333333","6501700","林口區"
"244021","838-TS","2018/07/21 17:49:12","新北市林口區仁愛路一段26號","121.39733","25.07541","6501700","林口區"
"222003","436-BY","2018/07/21 17:48:59","新北市深坑區阿柔洋60-1號","121.6086","24.9985216666667","6501800","深坑區"
"222002","659-BX","2018/07/21 17:49:27","新北市深坑區平埔街22巷17弄1號","121.614883333333","25.0008683333333","6501800","深坑區"
"231046","107-UY","2018/07/21 17:49:29","新北市新店區康雅崙路24號","121.535205","24.9266933333333","6500600","新店區"
"231055","AKT-0513","2018/07/21 17:49:16","新北市新店區安華路28-1號","121.519423333333","24.960615","6500600","新店區"
"241024","065-VK","2018/07/21 17:49:12","新北市三重區國道路一段50號","121.482383333333","25.0728583333333","6500200","三重區"
"241005","262-UM","2018/07/21 17:49:24","新北市三重區五華街141巷60號","121.493491666667","25.0867916666667","6500200","三重區"
"241016","266-UM","2018/07/21 17:49:13","新北市三重區新北大道一段2號","121.49113","25.0613566666667","6500200","三重區"
"241020","478-VK","2018/07/21 17:49:19","新北市五股區天乙路102-22號","121.44818","25.1070583333333","6500200","三重區"
"241006","AAD-863","2018/07/21 17:49:20","新北市八里區下罟子6-4號","121.385901666667","25.1417816666667","6500200","三重區"
"241033","AAC-255","2018/07/21 17:49:23","新北市三重區光復路一段35號","121.472038333333","25.0480216666667","6500200","三重區"
"235064","005-UY","2018/07/21 17:49:15","新北市中和區員山路36巷16-3號","121.484996666667","24.9913266666667","6500300","中和區"
"235063","006-UY","2018/07/21 17:49:16","新北市中和區員山路36巷16-3號","121.485088333333","24.9912533333333","6500300","中和區"
"235065","098-UM","2018/07/21 17:49:13","新北市中和區員山路36巷16-3號","121.485076666667","24.9911683333333","6500300","中和區"
"235058","151-BY","2018/07/21 17:49:18","新北市中和區員山路36巷16-2號","121.485178333333","24.9915116666667","6500300","中和區"
"247010","KEA-2869","2018/07/21 17:49:14","新北市蘆洲區信義路216號","121.4791","25.08511","6501400","蘆洲區"
"247024","893-R6","2018/07/21 17:49:15","新北市蘆洲區長樂路120巷13號","121.46236","25.0899116666667","6501400","蘆洲區"
"247014","546-UM","2018/07/21 17:49:14","新北市蘆洲區保和街69巷33號","121.469705","25.0852083333333","6501400","蘆洲區"
"247022","500-BY","2018/07/21 17:49:25","新北市蘆洲區中正路323號","121.466153333333","25.0887966666667","6501400","蘆洲區"
"247012","339-TH","2018/07/21 17:49:27","新北市蘆洲區復興路127號","121.477595","25.0883616666667","6501400","蘆洲區"
"247004","337-TH","2018/07/21 17:49:20","新北市蘆洲區中原路12巷2號","121.461141666667","25.0836566666667","6501400","蘆洲區"
"247006","336-TH","2018/07/21 17:49:29","新北市蘆洲區九芎街90巷8號","121.465715","25.0802633333333","6501400","蘆洲區"
"247018","057-VK","2018/07/21 17:49:27","新北市蘆洲區復興路231號","121.480008333333","25.0899","6501400","蘆洲區"
"247008","056-VK","2018/07/21 17:49:13","新北市蘆洲區信義路37巷13號","121.474118333333","25.08016","6501400","蘆洲區"
"247016","007-UY","2018/07/21 17:49:15","新北市蘆洲區中正路185巷25弄10號","121.46699","25.08407","6501400","蘆洲區"
"247002","002-UY","2018/07/21 17:49:26","新北市蘆洲區永平街32巷45弄1號","121.459546666667","25.0921333333333","6501400","蘆洲區"
"247020","001-UY","2018/07/21 17:49:28","新北市蘆洲區民義街71巷13號","121.472811666667","25.0904283333333","6501400","蘆洲區"
"228003","097-TW","2018/07/21 17:49:18","新北市貢寮區真理里美艷山街6-2號","121.928851666667","25.0607983333333","6502600","貢寮區"
"228001","212-TW","2018/07/21 17:49:24","新北市貢寮區仁理村仁愛路95-1號","121.927655","25.055455","6502600","貢寮區"
"228002","663-BX","2018/07/21 17:49:18","新北市貢寮區福隆里龜壽谷街26號","121.952511666667","25.0093533333333","6502600","貢寮區"
"224010","AGQ-8101","2018/07/21 17:49:15","新北市瑞芳區明燈路一段253號","121.817448333333","25.1082983333333","6501200","瑞芳區"
"224006","676-BX","2018/07/21 17:49:27","新北市瑞芳區瑞興新村22巷2號","121.788381666667","25.1082516666667","6501200","瑞芳區"
"224008","285-BY","2018/07/21 17:49:24","新北市瑞芳區明燈路一段165號","121.819361666667","25.1075233333333","6501200","瑞芳區"
"224009","273-VK","2018/07/21 17:49:12","新北市瑞芳區山尖路2號","121.854385","25.1166016666667","6501200","瑞芳區"
"224005","271-BY","2018/07/21 17:49:15","新北市瑞芳區豎崎路32-5號","121.824163333333","25.1208966666667","6501200","瑞芳區"
"227010","642-TC","2018/07/21 17:37:27","新北市雙溪區三貂里定福路1-2號","121.85076","25.0633816666667","6502500","雙溪區"
"253006","295-VK","2018/07/21 17:49:26","新北市石門區中央路16-19號","121.567716666667","25.2903466666667","6502200","石門區"
"222001","KEA-2212","2018/07/21 17:49:13","新北市深坑區北深路三段25巷15-2號","121.608791666667","24.9998083333333","6501800","深坑區"
"208002","KEA-2872","2018/07/21 17:49:21","新北市金山區磺清路135號","121.639365","25.2277283333333","6502700","金山區"
"208003","665-BX","2018/07/21 17:49:17","新北市金山區磺清路135號","121.639321666667","25.2276466666667","6502700","金山區"
"208001","761-BX","2018/07/21 17:49:15","新北市金山區磺清路129號","121.639461666667","25.2278983333333","6502700","金山區"
"251009","008-UM","2018/07/21 17:49:24","新北市淡水區長興街55號","121.444275","25.171935","6501000","淡水區"
"251004","009-UM","2018/07/21 17:49:26","新北市淡水區民權一街19號","121.45877","25.1362766666667","6501000","淡水區"
"251005","010-UM","2018/07/21 17:49:28","新北市淡水區學府路102巷2號","121.450361666667","25.1718883333333","6501000","淡水區"
"251001","011-UM","2018/07/21 17:49:18","新北市淡水區民權路92巷35-1號","121.462215","25.1266766666667","6501000","淡水區"
"251002","012-UM","2018/07/21 17:49:10","新北市淡水區清水街56巷2號","121.4442","25.1703766666667","6501000","淡水區"
"251013","KEA-2871","2018/07/21 17:49:16","新北市淡水區泉洲厝31號","121.479585","25.19103","6501000","淡水區"
"251016","179-VK","2018/07/21 17:49:20","新北市淡水區埤島39-15號","121.45276","25.1959","6501000","淡水區"
"251014","180-VK","2018/07/21 17:49:30","新北市淡水區公埔子16-6號","121.481011666667","25.2245766666667","6501000","淡水區"
"251015","181-VK","2018/07/21 17:49:19","新北市淡水區興福寮15號","121.492841666667","25.165225","6501000","淡水區"
"251010","413-VK","2018/07/21 17:49:23","新北市淡水區淡海路280巷33弄34-2號","121.418725","25.188585","6501000","淡水區"
"251012","441-VK","2018/07/21 17:49:28","新北市淡水區北新路一段606號","121.472645","25.18496","6501000","淡水區"
"251008","442-VK","2018/07/21 17:49:30","新北市淡水區八勢路一段126號","121.467538333333","25.1570016666667","6501000","淡水區"
"251006","561-UM","2018/07/21 17:49:19","新北市淡水區大信街1巷25號","121.440176666667","25.1766683333333","6501000","淡水區"
"251007","577-R6","2018/07/21 17:49:16","新北市淡水區民生路16巷1號","121.461025","25.1376016666667","6501000","淡水區"
"251011","650-BX","2018/07/21 17:49:15","新北市淡水區吳(仔)厝38號","121.479548333333","25.1496283333333","6501000","淡水區"
"251003","673-BX","2018/07/21 17:49:31","新北市淡水區大忠街8號","121.443101666667","25.1762866666667","6501000","淡水區"
"207003","550-UM","2018/07/21 17:49:25","新北市萬里區野柳里東澳路55號","121.692023333333","25.203275","6502800","萬里區"
"207004","225-TW","2018/07/21 17:49:28","新北市萬里區萬里里瑪鋉頂街61號","121.688161666667","25.1805383333333","6502800","萬里區"
"252002","178-VK","2018/07/21 17:49:24","新北市三芝區民生街30號","121.503653333333","25.2565766666667","6502100","三芝區"
"252001","292-VK","2018/07/21 17:49:26","新北市三芝區中興街一段12號","121.49746","25.2592533333333","6502100","三芝區"
"237004","KEA-2597","2018/07/21 17:49:08","新北市三峽區仁愛街18號","121.368293333333","24.93225","6500900","三峽區"
"237009","210-TH","2018/07/21 17:49:20","新北市三峽區大勇路3巷35號","121.367593333333","24.9367533333333","6500900","三峽區"
"237012","275-BY","2018/07/21 17:49:19","新北市三峽區文化路117號","121.37013","24.9360166666667","6500900","三峽區"
"237008","302-VK","2018/07/21 17:49:26","新北市三峽區中正路一段524號","121.369446666667","24.92003","6500900","三峽區"
"237014","433-BY","2018/07/21 17:49:27","新北市三峽區文化路120巷2號","121.371125","24.9364216666667","6500900","三峽區"
"237006","5529-G3","2018/07/21 17:49:23","新北市三峽區介壽路二段38巷104號","121.392058333333","24.9335516666667","6500900","三峽區"
"237011","KEA-2596","2018/07/21 17:49:22","新北市三峽區大同路190號","121.371576666667","24.92712","6500900","三峽區"
"237016","649-BX","2018/07/21 17:49:12","新北市三峽區白雞149-2號","121.399913333333","24.9051516666667","6500900","三峽區"
"237010","706-TV","2018/07/21 17:49:10","新北市三峽區文化路147號","121.368506666667","24.9359133333333","6500900","三峽區"
"237005","AKY-6261","2018/07/21 17:49:26","新北市三峽區中山路459巷52-1號","121.35724","24.9362966666667","6500900","三峽區"
"236070","105-UM","2018/07/21 17:49:28","新北市土城區青雲路322巷28號","121.457495","24.97473","6501300","土城區"
"236042","107-UM","2018/07/21 17:49:26","新北市土城區城林路6巷80號","121.438565","24.9797016666667","6501300","土城區"
"236079","166-UM","2018/07/21 17:49:22","新北市土城區中華路二段114號","121.437936666667","24.974","6501300","土城區"
"236030","253-BX","2018/07/21 17:49:12","新北市土城區城林路6巷80號","121.438718333333","24.979515","6501300","土城區"
"236026","269-VK","2018/07/21 17:49:30","新北市土城區城林路6巷80號","121.43852","24.979615","6501300","土城區"
"236014","270-VK","2018/07/21 17:49:22","新北市土城區城林路6巷80號","121.43857","24.9795666666667","6501300","土城區"
"236038","271-VK","2018/07/21 17:49:17","新北市土城區城林路6巷80號","121.438493333333","24.9797316666667","6501300","土城區"
"236021","401-BY","2018/07/21 17:49:22","新北市土城區城林路6巷80號","121.438566666667","24.9797666666667","6501300","土城區"
"236059","912-UM","2018/07/21 17:49:16","新北市土城區中華路二段114號","121.43797","24.9740483333333","6501300","土城區"
"236049","913-UM","2018/07/21 17:49:25","新北市土城區城林路6巷80號","121.438388333333","24.979715","6501300","土城區"
"236055","AAC-216","2018/07/21 17:48:58","新北市土城區城林路6巷80號","121.438523333333","24.9795533333333","6501300","土城區"
"242034","AAC-296","2018/07/21 17:49:17","新北市新莊區新莊路761號","121.442461666667","25.03264","6500500","新莊區"
"242058","986-R7","2018/07/21 17:49:28","新北市新莊區中正路730-12號","121.414525","25.0234633333333","6500500","新莊區"
"242053","751-BX","2018/07/21 17:49:17","新北市新莊區民安西路470-1號","121.43168","25.007675","6500500","新莊區"
"242027","615-BX","2018/07/21 17:49:24","新北市新莊區福壽街167號","121.457961666667","25.05365","6500500","新莊區"
"242025","613-BX","2018/07/21 17:49:20","新北市三重區新北大道二段45號","121.470021666667","25.061385","6500500","新莊區"
"242029","612-BX","2018/07/21 17:49:26","新北市新莊區復興路一段29號","121.446321666667","25.0417466666667","6500500","新莊區"
"242042","566-BX","2018/07/21 17:49:26","新北市泰山區貴陽街29號","121.422308333333","25.0330383333333","6500500","新莊區"
"242046","497-BY","2018/07/21 17:49:25","新北市新莊區福營路125巷17號","121.433551666667","25.0310483333333","6500500","新莊區"
"242051","441-UM","2018/07/21 17:49:26","新北市新莊區西盛街231巷20號","121.428826666667","25.0163","6500500","新莊區"
"242056","440-UM","2018/07/21 17:49:25","新北市新莊區瓊林路40巷29號","121.446583333333","25.0301233333333","6500500","新莊區"
"242036","415-TV","2018/07/21 17:49:13","新北市新莊區建福路57號","121.426816666667","25.027335","6500500","新莊區"
"242007","413-TV","2018/07/21 17:49:26","新北市新莊區福樂街124號","121.456918333333","25.047855","6500500","新莊區"
"242044","400-BY","2018/07/21 17:49:27","新北市新莊區雙鳳路5號","121.417241666667","25.02671","6500500","新莊區"
"242023","362-BY","2018/07/21 17:49:22","新北市新莊區福樂街76號","121.457728333333","25.0466766666667","6500500","新莊區"
"242061","353-BY","2018/07/21 17:49:25","新北市新莊區新樹路507號","121.432681666667","25.0108666666667","6500500","新莊區"
"242009","132-UY","2018/07/21 17:49:14","新北市新莊區昌明街38-1號","121.456423333333","25.05229","6500500","新莊區"
"242039","133-UY","2018/07/21 17:49:26","新北市新莊區民安路162號","121.42479","25.024575","6500500","新莊區"
"242048","172-VK","2018/07/21 17:49:13","新北市新莊區萬安街58號","121.421083333333","25.02356","6500500","新莊區"
"242017","175-VK","2018/07/21 17:49:17","新北市新莊區永安街105號","121.450281666667","25.0445233333333","6500500","新莊區"
"242004","176-VK","2018/07/21 17:49:23","新北市新莊區自立街256號","121.459081666667","25.0454783333333","6500500","新莊區"
"242015","346-TH","2018/07/21 17:48:56","新北市新莊區新泰路385號","121.443651666667","25.04381","6500500","新莊區"
"242011","347-TH","2018/07/21 17:49:15","新北市新莊區中港路730號","121.45039","25.0579616666667","6500500","新莊區"
"242021","348-TH","2018/07/21 17:49:24","新北市新莊區中華路一段182號","121.452668333333","25.0424416666667","6500500","新莊區"
"242002","349-TH","2018/07/21 17:49:30","新北市新莊區景德路119號","121.451333333333","25.03431","6500500","新莊區"
"242019","350-TH","2018/07/21 17:49:23","新北市新莊區民樂街48號","121.457985","25.041525","6500500","新莊區"
"242013","351-TH","2018/07/21 17:49:20","新北市新莊區中誠街167號","121.448211666667","25.04735","6500500","新莊區"
"238015","755-BX","2018/07/21 17:49:23","新北市樹林區復興路112-1號","121.421165","24.992655","6500700","樹林區"
"238023","601-UM","2018/07/21 17:49:27","新北市樹林區龍興街32巷7號","121.402588333333","25.0157516666667","6500700","樹林區"
"238019","599-UM","2018/07/21 17:49:13","新北市樹林區國凱街120-3號","121.422766666667","24.9800416666667","6500700","樹林區"
"238018","571-TV","2018/07/21 17:49:24","新北市樹林區鎮前街124號","121.424891666667","24.9908733333333","6500700","樹林區"
"238022","KEA-2213","2018/07/21 17:49:26","新北市樹林區太順街62巷3弄30號","121.416598333333","24.9793266666667","6500700","樹林區"
"238021","KEA-2539","2018/07/21 17:49:18","新北市樹林區田尾街70號","121.409338333333","24.9587266666667","6500700","樹林區"
"238025","303-VK","2018/07/21 17:49:08","新北市樹林區三俊街50號","121.412286666667","25.0155833333333","6500700","樹林區"
"238017","283-BY","2018/07/21 17:49:13","新北市樹林區俊德街19號","121.415191666667","25.0143433333333","6500700","樹林區"
"238014","282-BY","2018/07/21 17:49:12","新北市樹林區大安路125巷29號","121.42334","24.9967716666667","6500700","樹林區"
"238020","268-VK","2018/07/21 17:49:10","新北市樹林區三俊街201號","121.420163333333","25.01549","6500700","樹林區"
"238026","172-UY","2018/07/21 17:49:30","新北市樹林區中洲街30巷13弄35號","121.398096666667","24.9723716666667","6500700","樹林區"
"238016","169-UY","2018/07/21 17:49:28","新北市樹林區復興路373巷3弄3號","121.41709","24.9868466666667","6500700","樹林區"
"239007","AAC-297","2018/07/21 17:49:23","新北市鶯歌區鶯桃路40號","121.341668333333","24.9528133333333","6500800","鶯歌區"
"239006","891-R6","2018/07/21 17:49:18","新北市鶯歌區鶯桃路413巷40號","121.330786666667","24.9634816666667","6500800","鶯歌區"
"239008","527-UM","2018/07/21 17:49:10","新北市鶯歌區國際一路60號","121.335303333333","24.978095","6500800","鶯歌區"
"239005","526-UM","2018/07/21 17:49:19","新北市鶯歌區鳳吉四街43號","121.327285","24.9731983333333","6500800","鶯歌區"
"239001","417-VK","2018/07/21 17:49:25","新北市鶯歌區中正三路489號","121.321005","24.9338916666667","6500800","鶯歌區"
"239003","360-BY","2018/07/21 17:49:13","新北市鶯歌區永吉街61號","121.335323333333","24.95684","6500800","鶯歌區"
"239002","359-BY","2018/07/21 17:49:27","新北市鶯歌區永明街135號","121.342785","24.9556366666667","6500800","鶯歌區"
"239004","193-VK","2018/07/21 17:49:23","新北市鶯歌區文化路136巷17號","121.351448333333","24.9508616666667","6500800","鶯歌區"
"221036","130-UY","2018/07/21 17:49:18","新北市汐止區大同路二段510號","121.660783333333","25.0682633333333","6501100","汐止區"
"221015","131-UY","2018/07/21 17:49:13","新北市汐止區長江街255巷6號","121.663921666667","25.0797316666667","6501100","汐止區"
"221010","269-BY","2018/07/21 17:49:30","新北市汐止區汐萬路二段216巷11號","121.647923333333","25.08727","6501100","汐止區"
"221012","278-VK","2018/07/21 17:49:11","新北市汐止區長江街255巷2號","121.663496666667","25.07958","6501100","汐止區"
"221023","279-VK","2018/07/21 17:49:24","新北市汐止區民族二街36號","121.634845","25.07059","6501100","汐止區"
"221032","280-BY","2018/07/21 17:49:11","新北市汐止區工建路216號","121.63664","25.062475","6501100","汐止區"
"221027","281-BY","2018/07/21 17:49:11","新北市汐止區康寧街901號","121.650775","25.075295","6501100","汐止區"
"221033","297-VK","2018/07/21 17:49:16","新北市汐止區橫科路73巷20弄26號","121.619836666667","25.0517416666667","6501100","汐止區"
"221029","298-VK","2018/07/21 17:49:08","新北市汐止區康寧街901號","121.651596666667","25.0748766666667","6501100","汐止區"
"221021","299-VK","2018/07/21 17:49:23","新北市汐止區水源路一段56號","121.657321666667","25.0656733333333","6501100","汐止區"
"221031","353-TW","2018/07/21 17:49:09","新北市汐止區中興路98號","121.63461","25.06236","6501100","汐止區"
"221035","622-UM","2018/07/21 17:49:17","新北市汐止區汐萬路一段138號","121.653271666667","25.0711883333333","6501100","汐止區"
"221025","623-UM","2018/07/21 17:49:16","新北市汐止區新台五路一段260-1號","121.657791666667","25.0639466666667","6501100","汐止區"
"221038","646-BX","2018/07/21 17:49:25","新北市汐止區大同路二段171號","121.651688333333","25.064885","6501100","汐止區"
"221002","707-TV","2018/07/21 17:49:17","新北市汐止區康寧街901號","121.651525","25.07506","6501100","汐止區"
"221018","753-BX","2018/07/21 17:49:21","新北市汐止區大同路二段509號","121.661341666667","25.0686983333333","6501100","汐止區"
"242031","281-VK","2018/07/21 17:49:29","新北市新莊區新泰路357巷3弄21號","121.442296666667","25.0407166666667","6500500","新莊區"
