"lineid","car","time","location","longitude","latitude","cityid","cityname"
"234013","KEA-2591","2018/07/21 17:52:06","新北市永和區福和路1號","121.526103333333","25.0095933333333","6500400","永和區"
"234042","862-TW","2018/07/21 17:59:18","新北市永和區福和路1號","121.526328333333","25.0096766666667","6500400","永和區"
"234026","9371-KE","2018/07/21 17:59:12","新北市永和區中和路625號","121.512973333333","25.0050183333333","6500400","永和區"
"249005","172-UM","2018/07/21 17:59:27","新北市八里區荖阡坑路20-3號","121.397823333333","25.1365816666667","6502300","八里區"
"249001","173-UM","2018/07/21 17:59:27","新北市八里區龍米路二段37號","121.448343333333","25.1400283333333","6502300","八里區"
"249004","303-UY","2018/07/21 17:59:26","新北市八里區龍米路三段46號","121.427875","25.159175","6502300","八里區"
"249002","305-UY","2018/07/21 17:59:28","新北市八里區龍米路一段430號","121.450825","25.1338066666667","6502300","八里區"
"249003","593-UM","2018/07/21 17:59:25","新北市八里區中華路二段252號","121.405311666667","25.1495666666667","6502300","八里區"
"248008","095-VK","2018/07/21 17:59:15","新北市五股區更洲路18號","121.45816","25.07893","6501500","五股區"
"248020","225-UY","2018/07/21 17:59:24","新北市五股區中興路二段83巷26-6號","121.459861666667","25.0754","6501500","五股區"
"232011","375-UM","2018/07/21 17:59:25","新北市坪林區北宜路八段301號","121.710936666667","24.9344066666667","6502000","坪林區"
"244007","080-UY","2018/07/21 17:59:26","新北市林口區林口路147號","121.388325","25.08155","6501700","林口區"
"244019","403-UM","2018/07/21 17:59:22","新北市林口區文化一路一段126號","121.375348333333","25.0725783333333","6501700","林口區"
"244013","742-UY","2018/07/21 17:59:11","新北市林口區中山路37號","121.395043333333","25.0784033333333","6501700","林口區"
"244009","410-SL","2018/07/21 17:59:12","新北市林口區竹林路586號","121.386106666667","25.08262","6501700","林口區"
"244023","483-VK","2018/07/21 17:59:24","新北市林口區東湖路105巷84號","121.384786666667","25.07159","6501700","林口區"
"244017","485-VK","2018/07/21 17:59:13","新北市林口區文化一路一段41號","121.37077","25.0693766666667","6501700","林口區"
"244011","657-BX","2018/07/21 17:59:25","新北市林口區中正路150號","121.39259","25.0773983333333","6501700","林口區"
"244025","837-TS","2018/07/21 17:59:24","新北市林口區三民路65-6號","121.358538333333","25.0668433333333","6501700","林口區"
"244021","838-TS","2018/07/21 17:59:12","新北市林口區仁愛路一段83巷38號","121.397731666667","25.07063","6501700","林口區"
"222003","436-BY","2018/07/21 17:59:19","新北市深坑區炮子崙23號","121.60716","24.99094","6501800","深坑區"
"222002","659-BX","2018/07/21 17:59:27","新北市深坑區文化街96號","121.617208333333","25.0019083333333","6501800","深坑區"
"231046","107-UY","2018/07/21 17:59:09","新北市新店區下石厝路31號","121.533068333333","24.93265","6500600","新店區"
"231055","AKT-0513","2018/07/21 17:59:17","新北市新店區安華路28-1號","121.519596666667","24.9605666666667","6500600","新店區"
"241024","065-VK","2018/07/21 17:59:12","新北市三重區中正北路193巷35弄73號","121.478791666667","25.0714583333333","6500200","三重區"
"241016","266-UM","2018/07/21 17:59:13","新北市三重區忠孝路三段125號","121.479115","25.0616083333333","6500200","三重區"
"241020","478-VK","2018/07/21 17:59:19","新北市八里區中山路三段386號","121.368486666667","25.1358766666667","6500200","三重區"
"241006","AAD-863","2018/07/21 17:59:20","新北市五股區新五路二段372巷20號","121.447631666667","25.0859833333333","6500200","三重區"
"241033","AAC-255","2018/07/21 17:59:23","新北市三重區重新路五段625號","121.467808333333","25.04418","6500200","三重區"
"235066","003-UY","2018/07/21 17:59:20","新北市中和區錦和路350-1號","121.4902","24.9935583333333","6500300","中和區"
"235064","005-UY","2018/07/21 17:59:15","新北市中和區員山路36巷16-3號","121.484955","24.9913283333333","6500300","中和區"
"235063","006-UY","2018/07/21 17:59:16","新北市中和區員山路36巷16-3號","121.485063333333","24.9912383333333","6500300","中和區"
"235065","098-UM","2018/07/21 17:59:13","新北市中和區中山路二段365號","121.487696666667","25.0047466666667","6500300","中和區"
"235058","151-BY","2018/07/21 17:59:18","新北市中和區圓通路367巷8號","121.491508333333","24.98912","6500300","中和區"
"235038","185-VK","2018/07/21 17:59:27","新北市中和區中正路406號","121.492326666667","24.9939433333333","6500300","中和區"
"235042","KEA-2878","2018/07/21 17:59:26","新北市中和區和城路一段271巷1號","121.485505","24.9918416666667","6500300","中和區"
"235054","640-BX","2018/07/21 17:59:28","新北市中和區連城路569巷9弄24號","121.479586666667","24.9934233333333","6500300","中和區"
"235047","732-UM","2018/07/21 17:59:13","新北市中和區中正路637巷52弄1號","121.485546666667","24.9935133333333","6500300","中和區"
"235051","157-BY","2018/07/21 17:59:21","新北市中和區員山路36巷16-2號","121.485243333333","24.9916283333333","6500300","中和區"
"235037","AAC-213","2018/07/21 17:59:16","新北市中和區錦和路350-1號","121.490493333333","24.9935916666667","6500300","中和區"
"247014","546-UM","2018/07/21 17:59:14","新北市蘆洲區忠孝路108號","121.471378333333","25.0863466666667","6501400","蘆洲區"
"247022","500-BY","2018/07/21 17:59:29","新北市蘆洲區中正路424-1號","121.462841666667","25.0940133333333","6501400","蘆洲區"
"247012","339-TH","2018/07/21 17:59:27","新北市蘆洲區民族路101號","121.479708333333","25.086515","6501400","蘆洲區"
"247006","336-TH","2018/07/21 17:59:29","新北市蘆洲區中華街6號","121.463385","25.0816316666667","6501400","蘆洲區"
"247018","057-VK","2018/07/21 17:59:18","新北市蘆洲區復興路282號","121.480696666667","25.08987","6501400","蘆洲區"
"247008","056-VK","2018/07/21 17:59:12","新北市五股區四維路185巷6-7號","121.466881666667","25.076905","6501400","蘆洲區"
"247016","007-UY","2018/07/21 17:59:15","新北市蘆洲區中正路185巷78弄2號","121.466061666667","25.0844916666667","6501400","蘆洲區"
"247002","002-UY","2018/07/21 17:59:17","新北市蘆洲區永平街32巷64弄2號","121.460148333333","25.0931683333333","6501400","蘆洲區"
"247020","001-UY","2018/07/21 17:59:26","新北市蘆洲區水湳街36-10號","121.47143","25.0896266666667","6501400","蘆洲區"
"226004","312-R5","2018/07/21 17:59:18","新北市平溪區石底里石筍尖16號","121.732256666667","25.026085","6502400","平溪區"
"235052","251-BX","2018/07/21 17:59:20","新北市中和區員山路36巷16號","121.484523333333","24.9913183333333","6500300","中和區"
"228003","097-TW","2018/07/21 17:59:18","新北市貢寮區真理里美艷山街6-2號","121.928871666667","25.06079","6502600","貢寮區"
"228001","212-TW","2018/07/21 17:59:25","新北市貢寮區真理里新港街26巷52號","121.927873333333","25.053335","6502600","貢寮區"
"228002","663-BX","2018/07/21 17:59:18","新北市貢寮區福連里香蘭街3-3號","121.971901666667","25.024525","6502600","貢寮區"
"224010","AGQ-8101","2018/07/21 17:59:15","新北市瑞芳區山尖路172-1號","121.848088333333","25.1119516666667","6501200","瑞芳區"
"224006","676-BX","2018/07/21 17:59:27","新北市瑞芳區大寮路356-1號","121.784995","25.1031866666667","6501200","瑞芳區"
"224002","639-TC","2018/07/21 17:59:27","新北市瑞芳區三爪子坑路34號","121.810535","25.106145","6501200","瑞芳區"
"224008","285-BY","2018/07/21 17:59:24","新北市瑞芳區明燈路一段45巷107號","121.822198333333","25.10397","6501200","瑞芳區"
"224009","273-VK","2018/07/21 17:59:12","新北市瑞芳區金光路255號","121.850073333333","25.1076916666667","6501200","瑞芳區"
"224005","271-BY","2018/07/21 17:59:15","新北市瑞芳區深澳路12號","121.818916666667","25.1304433333333","6501200","瑞芳區"
"227010","642-TC","2018/07/21 17:37:27","新北市雙溪區三貂里定福路1-2號","121.85076","25.0633816666667","6502500","雙溪區"
"253005","032-BX","2018/07/21 17:59:32","新北市石門區中山路62-11號","121.567628333333","25.2897383333333","6502200","石門區"
"253006","295-VK","2018/07/21 17:59:26","新北市石門區大丘田45-2號","121.549823333333","25.27487","6502200","石門區"
"222001","KEA-2212","2018/07/21 17:59:13","新北市深坑區北深路三段34號","121.60909","25.000945","6501800","深坑區"
"208002","KEA-2872","2018/07/21 17:59:21","新北市金山區三界壇路61-3號","121.626743333333","25.2281316666667","6502700","金山區"
"208003","665-BX","2018/07/21 17:59:17","新北市金山區磺港里磺港路302-2號","121.643701666667","25.2267583333333","6502700","金山區"
"208001","761-BX","2018/07/21 17:59:15","新北市金山區磺港里磺港路165號","121.64387","25.2250216666667","6502700","金山區"
"251009","008-UM","2018/07/21 17:59:24","新北市淡水區大仁街6巷1號","121.44244","25.1746083333333","6501000","淡水區"
"251004","009-UM","2018/07/21 17:59:26","新北市淡水區民權路187號","121.459485","25.1335766666667","6501000","淡水區"
"251005","010-UM","2018/07/21 17:59:28","新北市淡水區英專路135號","121.446553333333","25.172725","6501000","淡水區"
"251001","011-UM","2018/07/21 17:59:18","新北市淡水區民權路94巷1號","121.463131666667","25.1248233333333","6501000","淡水區"
"251002","012-UM","2018/07/21 17:59:30","新北市淡水區中正東路8-8號","121.447856666667","25.1666816666667","6501000","淡水區"
"251013","KEA-2871","2018/07/21 17:59:16","新北市淡水區泉洲厝31號","121.479578333333","25.19104","6501000","淡水區"
"251016","179-VK","2018/07/21 17:59:20","新北市淡水區埤島30-14號","121.448228333333","25.19802","6501000","淡水區"
"251014","180-VK","2018/07/21 17:59:10","新北市淡水區公埔子16-6號","121.4808","25.2242616666667","6501000","淡水區"
"251015","181-VK","2018/07/21 17:59:19","新北市淡水區興福寮1-8號","121.489503333333","25.1639366666667","6501000","淡水區"
"251010","413-VK","2018/07/21 17:59:23","新北市淡水區中正路一段87巷1號","121.421615","25.179055","6501000","淡水區"
"251012","441-VK","2018/07/21 17:59:07","新北市淡水區北新路三段38巷7號","121.484506666667","25.1869916666667","6501000","淡水區"
"251008","442-VK","2018/07/21 17:59:10","新北市淡水區八勢一街33號","121.461775","25.1564266666667","6501000","淡水區"
"251006","561-UM","2018/07/21 17:59:19","新北市淡水區新生街19號","121.438871666667","25.17354","6501000","淡水區"
"251007","577-R6","2018/07/21 17:59:16","新北市淡水區中正東路二段161巷11弄10號","121.461488333333","25.14607","6501000","淡水區"
"251011","650-BX","2018/07/21 17:59:15","新北市淡水區三空泉7-1號","121.476226666667","25.162515","6501000","淡水區"
"251003","673-BX","2018/07/21 17:59:31","新北市淡水區大忠街84號","121.444883333333","25.1762516666667","6501000","淡水區"
"207003","550-UM","2018/07/21 17:59:25","新北市萬里區港東路野柳風景區攤販68號","121.691251666667","25.2057983333333","6502800","萬里區"
"207004","225-TW","2018/07/21 17:59:08","新北市萬里區中幅里中福路48號","121.683358333333","25.174095","6502800","萬里區"
"252002","178-VK","2018/07/21 17:59:24","新北市三芝區中山路二段43號","121.502976666667","25.255045","6502100","三芝區"
"252001","292-VK","2018/07/21 17:59:26","新北市三芝區中興街二段2號","121.498328333333","25.256555","6502100","三芝區"
"237004","KEA-2597","2018/07/21 17:59:09","新北市三峽區大埔路299-1號","121.368593333333","24.9029033333333","6500900","三峽區"
"237007","153-BY","2018/07/21 17:59:26","新北市三峽區中正路二段66號","121.366618333333","24.9184816666667","6500900","三峽區"
"237009","210-TH","2018/07/21 17:59:20","新北市三峽區中山路106巷11號","121.365973333333","24.9361583333333","6500900","三峽區"
"237013","252-BX","2018/07/21 17:59:28","新北市三峽區介壽路一段224號","121.37819","24.9305566666667","6500900","三峽區"
"237012","275-BY","2018/07/21 17:59:19","新北市三峽區民生街27巷2號","121.375943333333","24.9363033333333","6500900","三峽區"
"237008","302-VK","2018/07/21 17:59:26","新北市三峽區白雞38-21號","121.3736","24.9116583333333","6500900","三峽區"
"237014","433-BY","2018/07/21 17:59:19","新北市三峽區復興路101巷1弄79號","121.371056666667","24.9375866666667","6500900","三峽區"
"237006","5529-G3","2018/07/21 17:59:23","新北市三峽區介壽路二段138巷1弄92-6號","121.397663333333","24.9316483333333","6500900","三峽區"
"237011","KEA-2596","2018/07/21 17:59:22","新北市三峽區光明路39-1號","121.37467","24.9298633333333","6500900","三峽區"
"237016","649-BX","2018/07/21 17:59:12","新北市三峽區紫微路84號","121.40989","24.913645","6500900","三峽區"
"237010","706-TV","2018/07/21 17:59:10","新北市三峽區民權街162號","121.36798","24.9304666666667","6500900","三峽區"
"237005","AKY-6261","2018/07/21 17:59:26","新北市三峽區復興路235號","121.368226666667","24.93886","6500900","三峽區"
"236070","105-UM","2018/07/21 17:59:28","新北市土城區青雲路641號","121.460793333333","24.9677683333333","6501300","土城區"
"236042","107-UM","2018/07/21 17:59:26","新北市土城區城林路6巷80號","121.438595","24.979665","6501300","土城區"
"236079","166-UM","2018/07/21 17:59:24","新北市土城區永寧路32巷10弄1號","121.428983333333","24.9609833333333","6501300","土城區"
"236030","253-BX","2018/07/21 17:59:12","新北市土城區城林路6巷80號","121.43872","24.9795616666667","6501300","土城區"
"236026","269-VK","2018/07/21 17:59:30","新北市土城區城林路6巷80號","121.438513333333","24.9796016666667","6501300","土城區"
"236014","270-VK","2018/07/21 17:59:22","新北市土城區城林路6巷80號","121.438515","24.979535","6501300","土城區"
"236038","271-VK","2018/07/21 17:59:17","新北市土城區城林路6巷80號","121.438486666667","24.979715","6501300","土城區"
"236021","401-BY","2018/07/21 17:59:22","新北市土城區城林路6巷80號","121.438578333333","24.9797583333333","6501300","土城區"
"236059","912-UM","2018/07/21 17:59:25","新北市土城區中央路三段248-1號","121.427703333333","24.9642116666667","6501300","土城區"
"236049","913-UM","2018/07/21 17:59:25","新北市土城區城林路6巷80號","121.438445","24.9797416666667","6501300","土城區"
"236063","915-UM","2018/07/21 17:59:25","新北市土城區城林路6巷80號","121.438548333333","24.9796583333333","6501300","土城區"
"236055","AAC-216","2018/07/21 17:59:18","新北市土城區城林路6巷80號","121.438535","24.9795533333333","6501300","土城區"
"242034","AAC-296","2018/07/21 17:59:17","新北市新莊區中正路421巷19號","121.444698333333","25.03344","6500500","新莊區"
"242058","986-R7","2018/07/21 17:59:12","新北市新莊區新北大道七段241號","121.412995","25.029605","6500500","新莊區"
"242053","751-BX","2018/07/21 17:59:17","新北市新莊區民安西路327巷4弄19號","121.428741666667","25.0112416666667","6500500","新莊區"
"242027","615-BX","2018/07/21 17:59:17","新北市新莊區思源路451號","121.459816666667","25.0533316666667","6500500","新莊區"
"242025","613-BX","2018/07/21 17:59:26","新北市新莊區五工路80號","121.457511666667","25.06383","6500500","新莊區"
"242029","612-BX","2018/07/21 17:59:26","新北市新莊區中平路77號","121.444746666667","25.04508","6500500","新莊區"
"242042","566-BX","2018/07/21 17:59:27","新北市新莊區丹鳳街40號","121.421638333333","25.0296683333333","6500500","新莊區"
"242046","497-BY","2018/07/21 17:59:25","新北市新莊區福營路197號","121.431041666667","25.030415","6500500","新莊區"
"242051","441-UM","2018/07/21 17:59:25","新北市新莊區西盛街153巷6號","121.428668333333","25.0180066666667","6500500","新莊區"
"242056","440-UM","2018/07/21 17:59:25","新北市新莊區豐年街124巷18號","121.445555","25.029805","6500500","新莊區"
"242036","415-TV","2018/07/21 17:59:13","新北市新莊區建福路27號","121.426371666667","25.0289183333333","6500500","新莊區"
"242007","413-TV","2018/07/21 17:59:26","新北市新莊區自信街47號","121.454633333333","25.048315","6500500","新莊區"
"242044","400-BY","2018/07/21 17:59:27","新北市新莊區雙鳳路137號","121.412861666667","25.0272166666667","6500500","新莊區"
"242023","362-BY","2018/07/21 17:59:22","新北市新莊區福壽街65號","121.458218333333","25.0493066666667","6500500","新莊區"
"242061","353-BY","2018/07/21 17:59:15","新北市新莊區新樹路170號","121.434858333333","25.0221333333333","6500500","新莊區"
"242009","132-UY","2018/07/21 17:59:14","新北市新莊區中原路191號","121.452348333333","25.05391","6500500","新莊區"
"242039","133-UY","2018/07/21 17:59:26","新北市新莊區民安西路88巷12弄19號","121.425941666667","25.0205","6500500","新莊區"
"242048","172-VK","2018/07/21 17:59:13","新北市新莊區萬安街26號","121.421421666667","25.0244683333333","6500500","新莊區"
"242017","175-VK","2018/07/21 17:59:17","新北市新莊區中港路339巷34號","121.450736666667","25.0451216666667","6500500","新莊區"
"242004","176-VK","2018/07/21 17:59:26","新北市新莊區福樂街72巷5號","121.458358333333","25.04663","6500500","新莊區"
"242015","346-TH","2018/07/21 17:59:16","新北市新莊區中平路119巷5號","121.444365","25.0465866666667","6500500","新莊區"
"242011","347-TH","2018/07/21 17:59:13","新北市新莊區中港路中慶巷25號","121.450115","25.05369","6500500","新莊區"
"242021","348-TH","2018/07/21 17:59:24","新北市新莊區永寧街6鄰28巷1號","121.452841666667","25.038835","6500500","新莊區"
"242002","349-TH","2018/07/21 17:59:24","新北市新莊區中正路92號","121.455445","25.0367716666667","6500500","新莊區"
"242019","350-TH","2018/07/21 17:59:16","新北市新莊區明中街45-2號","121.457515","25.039275","6500500","新莊區"
"242013","351-TH","2018/07/21 17:59:20","新北市新莊區中和街125巷2號","121.447243333333","25.0486233333333","6500500","新莊區"
"238015","755-BX","2018/07/21 17:59:23","新北市樹林區大安路307巷1弄1號","121.41817","24.9920816666667","6500700","樹林區"
"238023","601-UM","2018/07/21 17:59:21","新北市樹林區龍興街44號","121.403011666667","25.0155383333333","6500700","樹林區"
"238019","599-UM","2018/07/21 17:59:13","新北市樹林區水源街32巷36號","121.425155","24.98093","6500700","樹林區"
"238018","571-TV","2018/07/21 17:59:24","新北市樹林區樹新路227號","121.431148333333","25.00062","6500700","樹林區"
"238022","KEA-2213","2018/07/21 17:59:23","新北市樹林區國凱街32-7號","121.41919","24.9783366666667","6500700","樹林區"
"238021","KEA-2539","2018/07/21 17:59:18","新北市樹林區柑園街一段341號","121.391111666667","24.9564383333333","6500700","樹林區"
"238025","303-VK","2018/07/21 17:59:29","新北市樹林區三俊街113號","121.417295","25.015505","6500700","樹林區"
"238017","283-BY","2018/07/21 17:59:15","新北市樹林區中正路791號","121.409856666667","25.0161866666667","6500700","樹林區"
"238014","282-BY","2018/07/21 17:59:12","新北市樹林區中正路45巷10號","121.426513333333","24.999315","6500700","樹林區"
"238020","268-VK","2018/07/21 17:59:30","新北市樹林區三俊街133號","121.418248333333","25.0155533333333","6500700","樹林區"
"238026","172-UY","2018/07/21 17:59:19","新北市樹林區佳園路一段50號","121.392856666667","24.9705983333333","6500700","樹林區"
"238016","169-UY","2018/07/21 17:59:30","新北市樹林區育英街135巷5弄8號","121.419501666667","24.9884466666667","6500700","樹林區"
"239007","AAC-297","2018/07/21 17:59:23","新北市鶯歌區育英街55號","121.347096666667","24.952605","6500800","鶯歌區"
"239006","891-R6","2018/07/21 17:59:18","新北市鶯歌區鶯桃路455巷6弄2號","121.33191","24.9648366666667","6500800","鶯歌區"
"239008","527-UM","2018/07/21 17:59:30","新北市鶯歌區明圓街1號","121.336195","24.9778666666667","6500800","鶯歌區"
"239005","526-UM","2018/07/21 17:59:19","新北市鶯歌區鳳吉五街11號","121.326703333333","24.9724166666667","6500800","鶯歌區"
"239001","417-VK","2018/07/21 17:59:25","新北市鶯歌區中正三路96號","121.338091666667","24.941095","6500800","鶯歌區"
"239003","360-BY","2018/07/21 17:59:31","新北市鶯歌區鶯桃路377號","121.33377","24.963295","6500800","鶯歌區"
"239002","359-BY","2018/07/21 17:59:27","新北市鶯歌區光明街17號","121.348836666667","24.9557383333333","6500800","鶯歌區"
"239004","193-VK","2018/07/21 17:59:16","新北市鶯歌區尖山路101巷12號","121.346811666667","24.942625","6500800","鶯歌區"
"221008","489-VK","2018/07/21 17:59:27","新北市汐止區明峰街15-1號","121.634748333333","25.0713816666667","6501100","汐止區"
"221036","130-UY","2018/07/21 17:59:18","新北市汐止區大同路三段56號","121.66759","25.077005","6501100","汐止區"
"221015","131-UY","2018/07/21 17:59:11","新北市汐止區長江街349號","121.667408333333","25.0821216666667","6501100","汐止區"
"221010","269-BY","2018/07/21 17:59:30","新北市汐止區汐萬路二段245巷46號","121.644613333333","25.0878733333333","6501100","汐止區"
"221012","278-VK","2018/07/21 17:59:11","新北市汐止區長興街二段50巷3號","121.674141666667","25.081665","6501100","汐止區"
"221023","279-VK","2018/07/21 17:59:24","新北市汐止區民族六街2巷2號","121.629031666667","25.0708333333333","6501100","汐止區"
"221032","280-BY","2018/07/21 17:59:31","新北市汐止區橫科路73巷2-2號","121.619558333333","25.0505333333333","6501100","汐止區"
"221027","281-BY","2018/07/21 17:59:11","新北市汐止區大同路二段378號","121.657978333333","25.0671633333333","6501100","汐止區"
"221033","297-VK","2018/07/21 17:59:16","新北市汐止區合順街48號","121.620525","25.04314","6501100","汐止區"
"221029","298-VK","2018/07/21 17:59:29","新北市汐止區樟樹二路251巷46號","121.640505","25.0671366666667","6501100","汐止區"
"221021","299-VK","2018/07/21 17:59:25","新北市汐止區復興路18號","121.655741666667","25.0640666666667","6501100","汐止區"
"221031","353-TW","2018/07/21 17:59:29","新北市汐止區中興路167號","121.63091","25.0662633333333","6501100","汐止區"
"221035","622-UM","2018/07/21 17:59:17","新北市汐止區汐萬路一段124號","121.653666666667","25.071235","6501100","汐止區"
"221025","623-UM","2018/07/21 17:59:16","新北市汐止區仁愛路10號","121.659243333333","25.0636066666667","6501100","汐止區"
"221038","646-BX","2018/07/21 17:59:25","新北市汐止區水源路一段235號","121.65426","25.06038","6501100","汐止區"
"221002","707-TV","2018/07/21 17:59:17","新北市汐止區中興路29號","121.634885","25.0616833333333","6501100","汐止區"
"221018","753-BX","2018/07/21 17:59:21","新北市汐止區忠孝東路382巷1弄1號","121.665683333333","25.0698416666667","6501100","汐止區"
"242031","281-VK","2018/07/21 17:59:29","新北市新莊區新泰路289巷14號","121.444798333333","25.040595","6500500","新莊區"
"220054","741-BX","2018/07/21 17:59:17","新北市板橋區華東街1-9號","121.448095","24.9948983333333","6500100","板橋區"
"235061","KEA-2875","2018/07/21 17:59:18","新北市中和區員山路36巷16-2號","121.48532","24.99165","6500300","中和區"
