"lineid","car","time","location","longitude","latitude","cityid","cityname"
"234007","207-UY","2018/07/21 21:09:20","新北市林口區太平里180號","121.368315","25.13428","6500400","永和區"
"234077","969-R7","2018/07/21 21:09:27","新北市八里區中山路三段409號","121.368673333333","25.134655","6500400","永和區"
"243006","680-BX","2018/07/21 21:09:26","新北市泰山區黎明路25號","121.422085","25.0606416666667","6501600","泰山區"
"231059","046-UY","2018/07/21 21:09:27","新北市新店區僑義路37號","121.500563333333","24.95026","6500600","新店區"
"231040","047-UY","2018/07/21 21:09:27","新北市新店區北新路一段351號","121.541953333333","24.96948","6500600","新店區"
"231048","110-UY","2018/07/21 21:09:31","新北市新店區文化路54號","121.544698333333","24.9809616666667","6500600","新店區"
"231050","189-VK","2018/07/21 21:09:27","新北市新店區中華路117巷6弄2號","121.537783333333","24.968765","6500600","新店區"
"231054","KEA-2219","2018/07/21 21:09:18","新北市新店區大新街7巷38號","121.544333333333","24.967685","6500600","新店區"
"231042","268-BY","2018/07/21 21:09:31","新北市新店區寶興路60巷3號","121.549878333333","24.9718083333333","6500600","新店區"
"231051","278-BY","2018/07/21 21:09:27","新北市新店區中正路700巷26號","121.535395","24.99102","6500600","新店區"
"231066","4716-K9","2018/07/21 21:09:32","新北市新店區薏仁坑路自強巷6號","121.496483333333","24.958335","6500600","新店區"
"231067","4772-VM","2018/07/21 21:09:20","新北市新店區柴埕路116號","121.504568333333","24.959585","6500600","新店區"
"231065","512-UM","2018/07/21 21:09:35","新北市新店區安祥路69巷41弄25號","121.482223333333","24.9612916666667","6500600","新店區"
"231063","616-UM","2018/07/21 21:09:14","新北市新店區玫瑰路61巷2號","121.495993333333","24.9452166666667","6500600","新店區"
"231061","619-UM","2018/07/21 21:09:33","新北市新店區永安街10號","121.516916666667","24.9860883333333","6500600","新店區"
"231060","897-TW","2018/07/21 21:09:22","新北市新店區薏仁坑路自強巷6號","121.496518333333","24.9583116666667","6500600","新店區"
"241011","013-R5","2018/07/21 21:09:18","新北市三重區龍濱路251號","121.501496666667","25.07266","6500200","三重區"
"241028","022-UY","2018/07/21 21:09:24","新北市三重區正義南路60-1號","121.498306666667","25.0605766666667","6500200","三重區"
"241008","059-VK","2018/07/21 21:09:32","新北市三重區自強路一段59號","121.497835","25.067275","6500200","三重區"
"241022","060-VK","2018/07/21 21:09:23","新北市三重區中正北路64巷24號","121.486093333333","25.06376","6500200","三重區"
"241031","061-VK","2018/07/21 21:09:34","新北市三重區重新路五段422-1號","121.475315","25.0475483333333","6500200","三重區"
"241015","062-VK","2018/07/21 21:09:29","新北市三重區三和路一段101號","121.50228","25.0664683333333","6500200","三重區"
"241017","063-VK","2018/07/21 21:09:30","新北市三重區國隆路31號","121.492321666667","25.0645516666667","6500200","三重區"
"241024","065-VK","2018/07/21 21:09:25","新北市三重區國道路一段58巷12號","121.480846666667","25.07224","6500200","三重區"
"241002","090-VK","2018/07/21 21:09:18","新北市三重區五華街19號","121.494901666667","25.0803733333333","6500200","三重區"
"241003","091-VK","2018/07/21 21:09:32","新北市三重區仁義街335號","121.495141666667","25.0847683333333","6500200","三重區"
"241005","262-UM","2018/07/21 21:09:24","新北市三重區三信路186號","121.487968333333","25.085905","6500200","三重區"
"241009","265-UM","2018/07/21 21:09:34","新北市三重區忠孝路二段122號","121.483018333333","25.0687783333333","6500200","三重區"
"241016","266-UM","2018/07/21 21:09:13","新北市三重區信義西街138號","121.495591666667","25.0642683333333","6500200","三重區"
"241018","268-UM","2018/07/21 21:09:18","新北市三重區正義北路332-1號","121.494368333333","25.0705433333333","6500200","三重區"
"241032","269-UM","2018/07/21 21:09:17","新北市三重區忠孝路三段125號","121.479045","25.061595","6500200","三重區"
"241013","270-UM","2018/07/21 21:09:27","新北市三重區仁賢街12-1號","121.495683333333","25.074825","6500200","三重區"
"241025","271-UM","2018/07/21 21:09:16","新北市三重區忠孝路三段40巷16弄10號","121.48232","25.06689","6500200","三重區"
"241007","413-TH","2018/07/21 21:09:16","新北市三重區三和路四段145巷85號","121.486463333333","25.078695","6500200","三重區"
"241026","462-BY","2018/07/21 21:09:18","新北市三重區文化南路36號","121.500326666667","25.061405","6500200","三重區"
"241004","475-VK","2018/07/21 21:09:17","新北市三重區仁愛街423-1號","121.490418333333","25.0814383333333","6500200","三重區"
"241020","478-VK","2018/07/21 21:09:21","新北市三重區忠孝路二段34號","121.485898333333","25.0710366666667","6500200","三重區"
"241030","480-VK","2018/07/21 21:09:16","新北市三重區五谷王北街20巷15弄1號","121.47506","25.0484566666667","6500200","三重區"
"241014","543-UM","2018/07/21 21:09:19","新北市三重區長安街82號","121.501408333333","25.0675933333333","6500200","三重區"
"241023","545-UM","2018/07/21 21:09:30","新北市三重區忠孝路三段84巷63號","121.482321666667","25.0637416666667","6500200","三重區"
"241019","KEA-2593","2018/07/21 21:09:34","新北市三重區自強路二段74巷19號","121.48805","25.06989","6500200","三重區"
"241006","AAD-863","2018/07/21 21:09:20","新北市三重區明志街135號","121.489291666667","25.0632466666667","6500200","三重區"
"241001","887-TS","2018/07/21 21:09:22","新北市三重區福隆路44號","121.492393333333","25.0783733333333","6500200","三重區"
"241029","942-UM","2018/07/21 21:09:17","新北市三重區正義南路111號","121.498233333333","25.0585433333333","6500200","三重區"
"241033","AAC-255","2018/07/21 21:09:25","新北市三重區新北大道二段65號","121.469125","25.061395","6500200","三重區"
"247010","KEA-2869","2018/07/21 21:09:24","新北市蘆洲區鷺江街40號","121.477356666667","25.083085","6501400","蘆洲區"
"247014","546-UM","2018/07/21 21:09:30","新北市蘆洲區中央路155號","121.472671666667","25.084685","6501400","蘆洲區"
"247022","500-BY","2018/07/21 21:09:32","新北市蘆洲區民族路463號","121.467013333333","25.0885133333333","6501400","蘆洲區"
"247012","339-TH","2018/07/21 21:09:16","新北市蘆洲區民族路30號","121.476348333333","25.0842166666667","6501400","蘆洲區"
"247004","337-TH","2018/07/21 21:09:31","新北市蘆洲區永安南路二段322號","121.456993333333","25.0827116666667","6501400","蘆洲區"
"247006","336-TH","2018/07/21 21:09:14","新北市蘆洲區永安南路二段16巷18號","121.467991666667","25.077805","6501400","蘆洲區"
"247018","057-VK","2018/07/21 21:09:18","新北市蘆洲區民族路408巷10號","121.474823333333","25.0918016666667","6501400","蘆洲區"
"247008","056-VK","2018/07/21 21:09:26","新北市蘆洲區民生街24號","121.474956666667","25.0790066666667","6501400","蘆洲區"
"247016","007-UY","2018/07/21 21:09:14","新北市蘆洲區中正路185巷47號","121.46566","25.0839416666667","6501400","蘆洲區"
"247002","002-UY","2018/07/21 21:09:13","新北市蘆洲區長榮路387號","121.459403333333","25.0896566666667","6501400","蘆洲區"
"247020","001-UY","2018/07/21 21:09:18","新北市蘆洲區民族路488號","121.47111","25.09134","6501400","蘆洲區"
"251009","008-UM","2018/07/21 21:09:28","新北市淡水區民族路112巷57號","121.462093333333","25.1343533333333","6501000","淡水區"
"251005","010-UM","2018/07/21 21:09:28","新北市淡水區學府路51巷1弄27-4號","121.447256666667","25.1685983333333","6501000","淡水區"
"251001","011-UM","2018/07/21 21:09:18","新北市淡水區新市一路三段101巷16弄3號","121.446418333333","25.1838383333333","6501000","淡水區"
"251013","KEA-2871","2018/07/21 21:09:16","新北市淡水區中洲(子)6號","121.469975","25.2003566666667","6501000","淡水區"
"251016","179-VK","2018/07/21 21:09:19","新北市淡水區牛埔子7-18號","121.446955","25.2184066666667","6501000","淡水區"
"251014","180-VK","2018/07/21 21:09:30","新北市淡水區六塊厝1-3號","121.451253333333","25.242565","6501000","淡水區"
"251015","181-VK","2018/07/21 21:09:18","新北市淡水區淡金路四段542巷50號","121.45434","25.2268516666667","6501000","淡水區"
"251010","413-VK","2018/07/21 21:09:23","新北市淡水區中正路一段63巷7弄2號","121.422958333333","25.1772783333333","6501000","淡水區"
"251012","441-VK","2018/07/21 21:09:27","新北市淡水區淡金路五段172號","121.457045","25.240045","6501000","淡水區"
"251007","577-R6","2018/07/21 21:09:16","新北市淡水區學府路96號","121.449716666667","25.171525","6501000","淡水區"
"251011","650-BX","2018/07/21 21:09:09","新北市淡水區新民街180巷33號","121.438011666667","25.179685","6501000","淡水區"
"251003","673-BX","2018/07/21 21:09:31","新北市淡水區新春街94號","121.439051666667","25.1823533333333","6501000","淡水區"
"220070","AAC-253","2018/07/21 21:09:17","新北市八里區中山路三段409號","121.368448333333","25.13492","6500100","板橋區"
