"lineid","car","time","location","longitude","latitude","cityid","cityname"
"234007","207-UY","2018/07/21 21:39:20","新北市板橋區民治街57巷32-1號","121.481433333333","25.0352783333333","6500400","永和區"
"234077","969-R7","2018/07/21 21:39:27","新北市三重區後埔街80-1號","121.478153333333","25.0456433333333","6500400","永和區"
"243001","297-R6","2018/07/21 21:14:14","新北市泰山區黎明路25號","121.421875","25.0607916666667","6501600","泰山區"
"243006","680-BX","2018/07/21 21:14:35","新北市泰山區黎明路25號","121.42187","25.0607683333333","6501600","泰山區"
"231063","616-UM","2018/07/21 21:39:14","新北市新店區安康路三段31巷2弄24號","121.492723333333","24.952115","6500600","新店區"
"241028","022-UY","2018/07/21 21:39:24","新北市八里區荖阡坑路28-2號","121.40284","25.1283733333333","6500200","三重區"
"241005","262-UM","2018/07/21 21:39:24","新北市三重區碧華街1號","121.483471666667","25.081205","6500200","三重區"
"241006","AAD-863","2018/07/21 21:39:20","新北市八里區中山路三段387號","121.371526666667","25.13755","6500200","三重區"
"247010","KEA-2869","2018/07/21 21:39:24","新北市五股區凌雲路二段18巷62-5號","121.440461666667","25.1062233333333","6501400","蘆洲區"
"251009","008-UM","2018/07/21 21:39:28","新北市淡水區民生路52巷22弄10號","121.462538333333","25.1371616666667","6501000","淡水區"
"251004","009-UM","2018/07/21 21:39:15","新北市淡水區民生路12號","121.460906666667","25.1378933333333","6501000","淡水區"
"251005","010-UM","2018/07/21 21:39:28","新北市淡水區長興街48號","121.44426","25.1716283333333","6501000","淡水區"
"251001","011-UM","2018/07/21 21:39:17","新北市淡水區新市二路三段152號","121.43539","25.1942133333333","6501000","淡水區"
"251002","012-UM","2018/07/21 21:39:30","新北市淡水區學府路179號","121.4465","25.1745483333333","6501000","淡水區"
"251016","179-VK","2018/07/21 21:39:20","新北市淡水區淡金路三段347號","121.448855","25.2067666666667","6501000","淡水區"
"251014","180-VK","2018/07/21 21:39:30","新北市淡水區牛埔子10-1號","121.450053333333","25.2188566666667","6501000","淡水區"
"251010","413-VK","2018/07/21 21:39:23","新北市淡水區沙崙路232號","121.425551666667","25.1845866666667","6501000","淡水區"
"251012","441-VK","2018/07/21 21:39:27","新北市淡水區淡金路四段205號","121.451658333333","25.2219966666667","6501000","淡水區"
"251008","442-VK","2018/07/21 21:39:27","新北市淡水區學府路96號","121.449725","25.171565","6501000","淡水區"
"251006","561-UM","2018/07/21 21:39:18","新北市淡水區中正路119號","121.439281666667","25.169865","6501000","淡水區"
"251007","577-R6","2018/07/21 21:39:16","新北市淡水區水源街二段194號","121.456846666667","25.17603","6501000","淡水區"
"251011","650-BX","2018/07/21 21:39:31","新北市淡水區新民街322巷1號","121.435616666667","25.183795","6501000","淡水區"
"251003","673-BX","2018/07/21 21:39:31","新北市淡水區新春街34號","121.437011666667","25.1814783333333","6501000","淡水區"
"220070","AAC-253","2018/07/21 21:39:17","新北市五股區新五路二段578號","121.442983333333","25.0860933333333","6500100","板橋區"
