"lineid","car","time","location","longitude","latitude","cityid","cityname"
"241006","AAD-863","2018/07/21 22:19:19","新北市五股區中興路三段2巷10號","121.449271666667","25.0811016666667","6500200","三重區"
"247010","KEA-2869","2018/07/21 22:19:24","新北市五股區更洲路70號","121.456618333333","25.0801033333333","6501400","蘆洲區"
"251004","009-UM","2018/07/21 22:19:15","新北市淡水區民族路33號","121.462318333333","25.1358433333333","6501000","淡水區"
"251005","010-UM","2018/07/21 22:19:27","新北市淡水區淡金路一段158號","121.454775","25.1791366666667","6501000","淡水區"
"251010","413-VK","2018/07/21 22:19:23","新北市淡水區沙崙路200號","121.424741666667","25.1838716666667","6501000","淡水區"
"251008","442-VK","2018/07/21 22:19:27","新北市淡水區學府路104號","121.449853333333","25.1718633333333","6501000","淡水區"
"251007","577-R6","2018/07/21 22:19:16","新北市淡水區北新路137號","121.449421666667","25.17889","6501000","淡水區"
"251011","650-BX","2018/07/21 22:19:20","新北市淡水區水碓街7號","121.443155","25.17718","6501000","淡水區"
