"lineid","car","time","location","longitude","latitude","cityid","cityname"
"234070","149-BY","2018/07/31 09:21:46","新北市永和區福和路1號","121.526381666667","25.0098166666667","6500400","永和區"
"248005","653-BX","2018/07/31 09:29:23","新北市五股區登林路貿商巷3弄15號","121.429668333333","25.069915","6501500","五股區"
"244002","248-BX","2018/07/31 09:16:53","新北市八里區中華路三段184號","121.392275","25.1297466666667","6501700","林口區"
"222004","289-BY","2018/07/31 09:29:20","新北市深坑區大崙腳2-3號","121.615355","24.9945883333333","6501800","深坑區"
"231007","189-VK","2018/07/31 09:29:25","新北市新店區新潭路三段215巷25號","121.508103333333","24.9040333333333","6500600","新店區"
"231009","192-VK","2018/07/31 09:29:14","新北市新店區平廣路一段201巷1號","121.514938333333","24.8891933333333","6500600","新店區"
"235043","352-BY","2018/07/31 09:29:26","新北市中和區中正路585號","121.486046666667","24.9946116666667","6500300","中和區"
"235001","611-BX","2018/07/31 09:29:23","新北市中和區連城路376-1號","121.481095","24.99514","6500300","中和區"
"223006","022-BY","2018/07/31 09:01:08","新北市石碇區小粗坑(潭邊里)9-2號","121.678516666667","24.9855983333333","6501900","石碇區"
"223008","406-TH","2018/07/31 09:27:23","新北市石碇區小粗坑(潭邊里)9-2號","121.67928","24.9859066666667","6501900","石碇區"
"227006","282-VK","2018/07/31 09:29:09","新北市雙溪區長源里土地公山1-1號","121.799608333333","25.013515","6502500","雙溪區"
"227012","030-BX","2018/07/31 09:29:25","新北市坪林區鷺鶿岫3-1號","121.782618333333","24.9577366666667","6502500","雙溪區"
"252004","249-BX","2018/07/31 09:29:15","新北市三芝區福德里大水堀30號","121.50823","25.214715","6502100","三芝區"
"252007","AAC-283","2018/07/31 09:29:14","新北市三芝區古庄里山豬堀7號","121.494721666667","25.25548","6502100","三芝區"
"237001","159-UY","2018/07/31 09:29:28","新北市樹林區中山路三段214號","121.380523333333","24.9669416666667","6500900","三峽區"
"236002","339-SR","2018/07/31 09:29:10","新北市土城區明德路二段195號","121.447126666667","24.98342","6501300","土城區"
"236006","498-BY","2018/07/31 09:29:29","新北市土城區承天路66-6號","121.441673333333","24.9621283333333","6501300","土城區"
