"lineid","car","time","location","longitude","latitude","cityid","cityname"
"248005","653-BX","2018/07/31 10:09:23","新北市五股區蓬萊路6巷10號","121.435801666667","25.0800766666667","6501500","五股區"
"231007","189-VK","2018/07/31 10:09:25","新北市新店區新潭路三段215巷25號","121.508148333333","24.904035","6500600","新店區"
"231009","192-VK","2018/07/31 10:09:14","新北市新店區廣興路122號","121.535801666667","24.9113383333333","6500600","新店區"
"227006","282-VK","2018/07/31 10:09:29","新北市雙溪區長源里柑腳19號","121.804673333333","25.0141116666667","6502500","雙溪區"
"227012","030-BX","2018/07/31 10:09:25","新北市雙溪區泰平里料角坑37號","121.793095","24.957275","6502500","雙溪區"
"252004","249-BX","2018/07/31 10:09:15","新北市三芝區長勤街67號","121.49903","25.2555183333333","6502100","三芝區"
"252007","AAC-283","2018/07/31 10:09:14","新北市三芝區古庄里茂興店77號","121.493201666667","25.267115","6502100","三芝區"
"237001","159-UY","2018/07/31 10:09:28","新北市三峽區隆恩街245號","121.357841666667","24.9407633333333","6500900","三峽區"
