"lineid","car","time","location","longitude","latitude","cityid","cityname"
"234044","148-BY","2018/07/31 13:09:28","新北市永和區得和路373巷31弄12號","121.524401666667","25.0004366666667","6500400","永和區"
"234070","149-BY","2018/07/31 13:09:15","新北市永和區民生路63號","121.522661666667","24.997395","6500400","永和區"
"234005","207-UY","2018/07/31 13:09:26","新北市永和區中山路一段207號","121.50885","25.008485","6500400","永和區"
"234078","298-R6","2018/07/31 13:09:22","新北市永和區國中路150號","121.522733333333","25.0067416666667","6500400","永和區"
"234062","337-UY","2018/07/31 13:09:19","新北市永和區永利路94巷5弄6號","121.520561666667","25.0030466666667","6500400","永和區"
"234084","338-UY","2018/07/31 13:09:31","新北市永和區永貞路71號","121.518841666667","25.0044266666667","6500400","永和區"
"234068","552-UM","2018/07/31 13:09:22","新北市永和區豫溪街137巷1弄8號","121.519301666667","25.0105016666667","6500400","永和區"
"234015","553-UM","2018/07/31 13:09:25","新北市永和區文化路90巷26號","121.513726666667","25.016255","6500400","永和區"
"234028","746-BX","2018/07/31 13:09:19","新北市永和區民生路21號","121.522855","24.9988716666667","6500400","永和區"
"234052","KEA-2590","2018/07/31 13:09:30","新北市永和區中興街133巷12號","121.51857","25.0126333333333","6500400","永和區"
"234012","KEA-2591","2018/07/31 13:09:23","新北市永和區保福路二段69號","121.510698333333","25.0125166666667","6500400","永和區"
"234060","AAD-866","2018/07/31 13:09:28","新北市永和區安樂路332巷1號","121.514555","25.00599","6500400","永和區"
"234036","847-RS","2018/07/31 13:09:18","新北市永和區民樂街69巷1號","121.527385","24.9977983333333","6500400","永和區"
"234040","862-TW","2018/07/31 13:09:28","新北市永和區保平路111巷2弄12號","121.51054","25.0061033333333","6500400","永和區"
"234048","863-TW","2018/07/31 13:09:23","新北市永和區文化路135巷22弄1號","121.510461666667","25.01479","6500400","永和區"
"234025","9371-KE","2018/07/31 13:09:34","新北市永和區秀朗路一段10巷19號","121.513451666667","25.006185","6500400","永和區"
"234010","9373-KE","2018/07/31 13:09:33","新北市永和區仁愛路26巷4號","121.514783333333","25.01381","6500400","永和區"
"248017","225-UY","2018/07/31 13:09:25","新北市五股區西雲路2號","121.442581666667","25.0898083333333","6501500","五股區"
"234022","9380-KE","2018/07/31 13:09:26","新北市永和區中興街10巷17號","121.515828333333","25.0112233333333","6500400","永和區"
"234076","969-R7","2018/07/31 13:09:25","新北市永和區民光街6號","121.515343333333","24.9962483333333","6500400","永和區"
"234072","AAC-211","2018/07/31 13:09:13","新北市永和區竹林路206號","121.520726666667","25.0083766666667","6500400","永和區"
"234066","AAC-212","2018/07/31 13:09:22","新北市永和區永和路一段112-1號","121.513565","25.0072866666667","6500400","永和區"
"234001","AAC-295","2018/07/31 13:09:33","新北市永和區中山路一段9號","121.514176666667","25.010395","6500400","永和區"
"244002","248-BX","2018/07/31 13:09:33","新北市林口區頭湖74-52號","121.368578333333","25.0876183333333","6501700","林口區"
"231002","002-UM","2018/07/31 13:09:20","新北市新店區安華路30巷1號","121.519761666667","24.95979","6500600","新店區"
"231027","0293-UT","2018/07/31 13:09:22","新北市新店區安華路28-1號","121.519573333333","24.96057","6500600","新店區"
"231028","046-UY","2018/07/31 13:09:16","新北市新店區安華路28-1號","121.519588333333","24.9608766666667","6500600","新店區"
"231001","047-UY","2018/07/31 13:09:30","新北市新店區安華路28-1號","121.51921","24.9608566666667","6500600","新店區"
"231005","106-UY","2018/07/31 13:09:24","新北市新店區安華路28-1號","121.519613333333","24.96084","6500600","新店區"
"231010","107-UY","2018/07/31 13:09:18","新北市新店區安一路一段1-1號","121.519555","24.9612466666667","6500600","新店區"
"231020","108-UY","2018/07/31 13:09:22","新北市新店區安一路一段1-1號","121.519495","24.96121","6500600","新店區"
"231012","187-VK","2018/07/31 13:09:32","新北市新店區安一路一段1-1號","121.519576666667","24.9611066666667","6500600","新店區"
"231026","256-BX","2018/07/31 13:09:27","新北市新店區安一路一段1-1號","121.519936666667","24.961085","6500600","新店區"
"231003","268-BY","2018/07/31 13:09:19","新北市新店區安華路1-1號","121.519355","24.9605433333333","6500600","新店區"
"231018","278-BY","2018/07/31 13:09:27","新北市新店區安一路一段1-1號","121.51936","24.9611816666667","6500600","新店區"
"231037","4716-K9","2018/07/31 13:09:20","新北市新店區安華路28-1號","121.519665","24.9609883333333","6500600","新店區"
"231025","4715-K9","2018/07/31 13:09:18","新北市新店區安一路一段1-1號","121.519748333333","24.96126","6500600","新店區"
"231036","512-UM","2018/07/31 13:07:13","新北市新店區安一路一段1-1號","121.519201666667","24.96126","6500600","新店區"
"231013","513-UM","2018/07/31 13:09:31","新北市新店區安一路一段1-1號","121.51958","24.961125","6500600","新店區"
"231034","616-UM","2018/07/31 13:09:27","新北市新店區安華路28-1號","121.51954","24.9605566666667","6500600","新店區"
"231006","617-UM","2018/07/31 13:09:29","新北市新店區安華路28-1號","121.51945","24.96084","6500600","新店區"
"231030","619-UM","2018/07/31 13:09:24","新北市新店區安華路28-1號","121.519746666667","24.9608766666667","6500600","新店區"
"231035","719-UM","2018/07/31 13:09:23","新北市新店區安一路一段1-1號","121.519518333333","24.96119","6500600","新店區"
"231032","720-UM","2018/07/31 13:09:35","新北市新店區安一路一段1-1號","121.519388333333","24.961125","6500600","新店區"
"231029","897-TW","2018/07/31 13:09:25","新北市新店區安華路28-1號","121.519575","24.9608333333333","6500600","新店區"
"231004","899-TW","2018/07/31 13:09:25","新北市新店區安華路28-1號","121.519333333333","24.960795","6500600","新店區"
"231024","AKT-0513","2018/07/31 13:09:32","新北市新店區安華路1-1號","121.519533333333","24.9605083333333","6500600","新店區"
"235030","003-UY","2018/07/31 13:09:27","新北市中和區中和路38號","121.499891666667","25.0014216666667","6500300","中和區"
"235028","005-UY","2018/07/31 13:09:16","新北市中和區中正路277-6號","121.495136666667","24.99376","6500300","中和區"
"235027","006-UY","2018/07/31 13:09:32","新北市中和區員山路36巷16-3號","121.48505","24.9912833333333","6500300","中和區"
"235003","097-UM","2018/07/31 13:09:26","新北市中和區中正路395號","121.48935","24.9935866666667","6500300","中和區"
"235029","098-UM","2018/07/31 13:09:22","新北市中和區莊敬路49巷20弄20號","121.502681666667","25.0058483333333","6500300","中和區"
"235004","150-BY","2018/07/31 13:09:20","新北市中和區中正路545巷1號","121.487616666667","24.9936183333333","6500300","中和區"
"235022","151-BY","2018/07/31 13:09:20","新北市中和區圓通路367巷59弄2號","121.492483333333","24.9834983333333","6500300","中和區"
"235002","185-VK","2018/07/31 13:09:29","新北市中和區景平路116號","121.519566666667","24.9917416666667","6500300","中和區"
"235031","255-BX","2018/07/31 13:09:20","新北市中和區中正路797-2號","121.48452","25.00052","6500300","中和區"
"235006","KEA-2878","2018/07/31 13:09:33","新北市中和區中正路250號","121.495748333333","24.99399","6500300","中和區"
"235034","558-UM","2018/07/31 13:09:20","新北市中和區圓通路172號","121.497221666667","24.9945383333333","6500300","中和區"
"235009","565-BX","2018/07/31 13:09:15","新北市中和區錦和路350-1號","121.490521666667","24.993645","6500300","中和區"
"235001","611-BX","2018/07/31 13:09:17","新北市中和區中山路三段136巷10弄21號","121.473878333333","25.0076983333333","6500300","中和區"
"235018","640-BX","2018/07/31 13:09:30","新北市中和區國光街6巷1號","121.471936666667","25.0002083333333","6500300","中和區"
"235011","732-UM","2018/07/31 13:09:31","新北市中和區中正路273號","121.495635","24.9937416666667","6500300","中和區"
"235035","783-BX","2018/07/31 13:09:23","新北市中和區板南路520巷15號","121.483735","25.0089683333333","6500300","中和區"
"235026","800-TS","2018/07/31 13:06:32","新北市中和區建八路1號","121.485401666667","24.9985483333333","6500300","中和區"
"235021","801-TS","2018/07/31 13:09:32","新北市中和區員山路36巷16-3號","121.484926666667","24.9917433333333","6500300","中和區"
"235005","802-TS","2018/07/31 13:09:20","新北市中和區錦和路350-1號","121.490373333333","24.9936083333333","6500300","中和區"
"235017","900-TW","2018/07/31 13:09:21","新北市中和區員山路36巷16-2號","121.485018333333","24.99193","6500300","中和區"
"235015","157-BY","2018/07/31 13:09:28","新北市中和區南山路146巷9號","121.503426666667","24.992415","6500300","中和區"
"235001","AAC-213","2018/07/31 13:09:31","新北市中和區景平路149號","121.513785","24.992265","6500300","中和區"
"228004","212-TW","2018/07/31 13:09:31","新北市貢寮區吉林里內寮街71號","121.891726666667","24.9733633333333","6502600","貢寮區"
"228005","828-UM","2018/07/31 13:09:21","新北市貢寮區仁理村研海街45號","121.926026666667","25.04199","6502600","貢寮區"
"207001","662-BX","2018/07/31 13:09:23","新北市萬里區萬里里瑪鋉路141號","121.68939","25.1776583333333","6502800","萬里區"
"252005","AAC-283","2018/07/31 13:09:22","新北市三芝區埔坪里埔頭坑166號","121.506888333333","25.249485","6502100","三芝區"
"236006","498-BY","2018/07/31 13:09:15","新北市土城區亞洲路60號","121.435288333333","24.9735183333333","6501300","土城區"
"221010","269-BY","2018/07/31 13:09:26","新北市汐止區忠三街8號","121.624818333333","25.0784516666667","6501100","汐止區"
"221032","280-BY","2018/07/31 13:09:15","新北市汐止區大同路二段196號","121.653041666667","25.0642966666667","6501100","汐止區"
"235025","KEA-2875","2018/07/31 13:09:15","新北市土城區金城路三段259-1號","121.472065","24.990155","6500300","中和區"
