"lineid","car","time","location","longitude","latitude","cityid","cityname"
"234070","149-BY","2018/07/31 15:39:35","新北市永和區福和路1號","121.526306666667","25.0097116666667","6500400","永和區"
"231028","046-UY","2018/07/31 15:39:36","新北市新店區僑信路2巷1號","121.499741666667","24.9532433333333","6500600","新店區"
"231005","106-UY","2018/07/31 15:39:24","新北市新店區中正路366號","121.535155","24.9761216666667","6500600","新店區"
"231046","107-UY","2018/07/31 15:39:33","新北市新店區安一路一段1-1號","121.519753333333","24.9611566666667","6500600","新店區"
"231020","108-UY","2018/07/31 15:39:22","新北市新店區花園一路一段2號","121.553103333333","24.9324483333333","6500600","新店區"
"231012","187-VK","2018/07/31 15:39:32","新北市新店區寶元路一段109號","121.545695","24.9831316666667","6500600","新店區"
"231023","KEA-2219","2018/07/31 15:39:31","新北市新店區中興路一段278號","121.545433333333","24.96832","6500600","新店區"
"231026","256-BX","2018/07/31 15:39:23","新北市新店區三民路51巷1弄1號","121.536775","24.97072","6500600","新店區"
"231003","268-BY","2018/07/31 15:39:18","新北市新店區寶橋路97號","121.547383333333","24.97636","6500600","新店區"
"231018","278-BY","2018/07/31 15:39:26","新北市新店區中正路663巷1弄8號","121.533096666667","24.9901916666667","6500600","新店區"
"231015","AAD-862","2018/07/31 15:39:37","新北市新店區北宜路一段177號","121.5448","24.9531283333333","6500600","新店區"
"231038","3712-VJ","2018/07/31 15:39:26","新北市新店區安一路一段1-1號","121.519791666667","24.961105","6500600","新店區"
"231036","512-UM","2018/07/31 15:39:37","新北市新店區安康路二段385號","121.49487","24.9544616666667","6500600","新店區"
"231013","513-UM","2018/07/31 15:39:31","新北市新店區永業路81巷1弄2號","121.529701666667","24.949485","6500600","新店區"
"231034","616-UM","2018/07/31 15:39:36","新北市新店區玫瑰路59巷2號","121.49589","24.9456566666667","6500600","新店區"
"231030","619-UM","2018/07/31 15:39:24","新北市新店區新和街116巷13號","121.521515","24.986","6500600","新店區"
"231039","718-UY","2018/07/31 15:39:28","新北市新店區寶元路二段64巷1號","121.547268333333","24.9810216666667","6500600","新店區"
"231035","719-UM","2018/07/31 15:39:23","新北市新店區安興路83號","121.515238333333","24.9753683333333","6500600","新店區"
"231032","720-UM","2018/07/31 15:39:35","新北市新店區雙城路133號","121.497903333333","24.93881","6500600","新店區"
"231029","897-TW","2018/07/31 15:39:25","新北市新店區安豐路54-1號","121.499715","24.95423","6500600","新店區"
"241011","013-R5","2018/07/31 15:39:22","新北市三重區龍濱路285號","121.500998333333","25.0734133333333","6500200","三重區"
"241028","022-UY","2018/07/31 15:39:23","新北市三重區成功路12號","121.489978333333","25.0502233333333","6500200","三重區"
"241008","059-VK","2018/07/31 15:39:34","新北市三重區重新路四段121號","121.485103333333","25.0524633333333","6500200","三重區"
"241015","062-VK","2018/07/31 15:39:25","新北市三重區重新路四段121號","121.485065","25.0525183333333","6500200","三重區"
"241017","063-VK","2018/07/31 15:39:21","新北市三重區大仁街1號","121.491643333333","25.0636083333333","6500200","三重區"
"241024","065-VK","2018/07/31 15:39:19","新北市三重區重新路四段121號","121.484453333333","25.05243","6500200","三重區"
"241026","066-VK","2018/07/31 15:39:13","新北市三重區重新路四段121號","121.484823333333","25.052345","6500200","三重區"
"241003","091-VK","2018/07/31 15:39:24","新北市三重區重新路四段121號","121.48515","25.0521083333333","6500200","三重區"
"241022","742-BX","2018/07/31 15:39:24","新北市三重區重新路四段121號","121.485041666667","25.052195","6500200","三重區"
"241005","262-UM","2018/07/31 15:39:29","新北市三重區重新路四段121號","121.485123333333","25.0521983333333","6500200","三重區"
"241016","266-UM","2018/07/31 15:39:18","新北市三重區重新路四段121號","121.484773333333","25.0520383333333","6500200","三重區"
"241009","267-UM","2018/07/31 15:39:31","新北市三重區重新路四段121號","121.485033333333","25.052205","6500200","三重區"
"241018","268-UM","2018/07/31 15:39:20","新北市三重區重新路四段121號","121.484845","25.0526333333333","6500200","三重區"
"241013","270-UM","2018/07/31 15:39:26","新北市三重區正義北路291號","121.494845","25.0705366666667","6500200","三重區"
"241025","271-UM","2018/07/31 15:39:20","新北市三重區重新路四段121號","121.484863333333","25.052595","6500200","三重區"
"241007","398-BY","2018/07/31 15:39:18","新北市三重區重新路四段121號","121.48509","25.05231","6500200","三重區"
"241020","478-VK","2018/07/31 15:39:25","新北市三重區忠孝路二段99-1號","121.484105","25.06985","6500200","三重區"
"241030","480-VK","2018/07/31 15:39:32","新北市三重區重新路四段121號","121.484613333333","25.05244","6500200","三重區"
"241014","543-UM","2018/07/31 15:39:21","新北市三重區重新路四段121號","121.48493","25.05232","6500200","三重區"
"241019","KEA-2593","2018/07/31 15:39:27","新北市三重區重新路四段121號","121.484636666667","25.0522516666667","6500200","三重區"
"241006","AAD-863","2018/07/31 15:39:30","新北市三重區重新路四段121號","121.484638333333","25.0521283333333","6500200","三重區"
"241012","941-UM","2018/07/31 15:39:17","新北市三重區正義南路6號","121.497973333333","25.061795","6500200","三重區"
"241033","AAC-255","2018/07/31 15:39:34","新北市三重區重新路五段447號","121.474426666667","25.0473566666667","6500200","三重區"
"235064","005-UY","2018/07/31 15:39:22","新北市中和區員山路36巷16-3號","121.484996666667","24.9911783333333","6500300","中和區"
"235033","4980-A6","2018/07/31 15:39:35","新北市中和區員山路381巷1弄18號","121.480898333333","25.0022816666667","6500300","中和區"
"235046","733-UM","2018/07/31 15:27:58","新北市中和區員山路36巷13號","121.484081666667","24.9909283333333","6500300","中和區"
"235023","AAC-215","2018/07/31 15:39:29","新北市中和區員山路45巷18號","121.481196666667","24.9916033333333","6500300","中和區"
"227003","400-TW","2018/07/31 15:39:24","新北市雙溪區牡丹里中正路56號","121.865735","25.0407083333333","6502500","雙溪區"
"236065","105-UM","2018/07/31 15:39:26","新北市土城區中央路三段96-1號","121.435576666667","24.9664533333333","6501300","土城區"
"236074","166-UM","2018/07/31 15:39:36","新北市土城區中央路四段181號","121.415003333333","24.9567533333333","6501300","土城區"
"236029","253-BX","2018/07/31 15:39:33","新北市土城區學成路108巷13弄11號","121.449578333333","24.9900833333333","6501300","土城區"
"236024","269-VK","2018/07/31 15:39:23","新北市土城區裕生路67巷2弄2號","121.447373333333","24.9846316666667","6501300","土城區"
"236013","270-VK","2018/07/31 15:39:18","新北市土城區廣明街90巷20號","121.455523333333","24.994525","6501300","土城區"
"236017","401-BY","2018/07/31 15:39:31","新北市土城區延吉街35號","121.47242","24.988055","6501300","土城區"
"236057","912-UM","2018/07/31 15:39:26","新北市土城區中央路一段237號","121.445455","24.9861466666667","6501300","土城區"
"236045","913-UM","2018/07/31 15:39:34","新北市土城區金城路三段271號","121.472755","24.9904366666667","6501300","土城區"
"236054","AAC-216","2018/07/31 15:39:28","新北市土城區學成路114號","121.449606666667","24.9893433333333","6501300","土城區"
"220020","277-BY","2018/07/31 15:19:33","新北市板橋區溪城路90-2號","121.429308333333","24.9803633333333","6500100","板橋區"
