"lineid","car","time","location","longitude","latitude","cityid","cityname"
"231046","107-UY","2018/07/31 16:29:33","新北市新店區灣潭路3-3號","121.538258333333","24.950805","6500600","新店區"
"241011","013-R5","2018/07/31 16:29:22","新北市三重區龍濱路269號","121.50138","25.0728683333333","6500200","三重區"
"241028","022-UY","2018/07/31 16:29:23","新北市三重區中正南路210號","121.493866666667","25.0556733333333","6500200","三重區"
"241008","059-VK","2018/07/31 16:29:34","新北市三重區力行路二段136巷45弄12號","121.479075","25.0753483333333","6500200","三重區"
"241031","061-VK","2018/07/31 16:29:31","新北市三重區重陽路一段45號","121.486748333333","25.0581816666667","6500200","三重區"
"241015","062-VK","2018/07/31 16:29:25","新北市三重區福德北路36號","121.501888333333","25.0652083333333","6500200","三重區"
"241017","063-VK","2018/07/31 16:29:36","新北市三重區大同北路29號","121.495326666667","25.0627166666667","6500200","三重區"
"241024","065-VK","2018/07/31 16:29:19","新北市三重區中正北路193巷27號","121.476171666667","25.0705783333333","6500200","三重區"
"241026","066-VK","2018/07/31 16:29:33","新北市三重區文化南路42號","121.500358333333","25.060355","6500200","三重區"
"241002","090-VK","2018/07/31 16:29:26","新北市三重區五華街9-2號","121.495241666667","25.0800733333333","6500200","三重區"
"241003","091-VK","2018/07/31 16:29:23","新北市三重區五華街71巷100號","121.49442","25.0840083333333","6500200","三重區"
"241022","742-BX","2018/07/31 16:29:24","新北市三重區新北大道一段88號","121.486033333333","25.06164","6500200","三重區"
"241005","262-UM","2018/07/31 16:29:29","新北市三重區溪尾街305號","121.487531666667","25.0837433333333","6500200","三重區"
"241016","266-UM","2018/07/31 16:29:18","新北市三重區大智街21號","121.49427","25.0657766666667","6500200","三重區"
"241009","267-UM","2018/07/31 16:29:31","新北市三重區仁美街96巷8號","121.48534","25.079975","6500200","三重區"
"241018","268-UM","2018/07/31 16:29:24","新北市三重區重陽路四段87號","121.49282","25.0710733333333","6500200","三重區"
"241032","269-UM","2018/07/31 16:29:27","新北市三重區三陽路100巷3弄13號","121.483006666667","25.0581633333333","6500200","三重區"
"241013","270-UM","2018/07/31 16:29:27","新北市三重區三和路三段103號","121.494476666667","25.0725416666667","6500200","三重區"
"241025","271-UM","2018/07/31 16:29:40","新北市三重區中正北路560巷100弄17-2號","121.472665","25.0684983333333","6500200","三重區"
"241007","398-BY","2018/07/31 16:29:38","新北市三重區三和路四段167巷182號","121.487986666667","25.080395","6500200","三重區"
"241004","413-TH","2018/07/31 16:29:34","新北市三重區仁愛街377巷90號","121.493006666667","25.0812383333333","6500200","三重區"
"241020","478-VK","2018/07/31 16:29:25","新北市三重區車路頭街37巷34號","121.484875","25.0718533333333","6500200","三重區"
"241030","480-VK","2018/07/31 16:29:32","新北市三重區成功路115號","121.487623333333","25.0517533333333","6500200","三重區"
"241014","543-UM","2018/07/31 16:29:21","新北市三重區河邊北街80號","121.504273333333","25.06873","6500200","三重區"
"241001","547-UM","2018/07/31 16:29:28","新北市三重區福隆路50號","121.492448333333","25.0784616666667","6500200","三重區"
"241019","KEA-2593","2018/07/31 16:29:27","新北市三重區重陽路三段97號","121.490271666667","25.0679483333333","6500200","三重區"
"241006","AAD-863","2018/07/31 16:29:30","新北市三重區力行路二段131號","121.483195","25.0768566666667","6500200","三重區"
"241023","887-TS","2018/07/31 16:29:25","新北市三重區忠孝路三段50巷82號","121.483015","25.0645233333333","6500200","三重區"
"241012","941-UM","2018/07/31 16:29:17","新北市三重區河邊北街385號","121.501573333333","25.076765","6500200","三重區"
"241029","942-UM","2018/07/31 16:29:35","新北市三重區集美街126巷2號","121.489095","25.0536316666667","6500200","三重區"
"241033","AAC-255","2018/07/31 16:29:34","新北市三重區五谷王北街20巷15弄2號","121.474938333333","25.0483933333333","6500200","三重區"
"235026","800-TS","2018/07/31 16:29:35","新北市中和區建八路134號","121.489251666667","24.99854","6500300","中和區"
"224007","275-VK","2018/07/31 16:29:27","新北市瑞芳區大埔路183號","121.763388333333","25.1020666666667","6501200","瑞芳區"
"224005","271-BY","2018/07/31 16:29:31","新北市瑞芳區連福新城30號","121.820635","25.118895","6501200","瑞芳區"
"227009","642-TC","2018/07/31 16:29:18","新北市雙溪區三港里雙澳路22號","121.869473333333","25.04994","6502500","雙溪區"
"227003","400-TW","2018/07/31 16:29:24","新北市雙溪區上林里內平林120-2號","121.824445","25.02626","6502500","雙溪區"
"251013","KEA-2871","2018/07/31 16:29:29","新北市淡水區北新路三段162號","121.492385","25.1915333333333","6501000","淡水區"
"251014","180-VK","2018/07/31 16:29:33","新北市淡水區沙崙路331號","121.427613333333","25.1876183333333","6501000","淡水區"
"251008","181-VK","2018/07/31 16:29:22","新北市淡水區樹梅坑1號","121.467473333333","25.1451383333333","6501000","淡水區"
