"lineid","car","time","location","longitude","latitude","cityid","cityname"
"249005","172-UM","2018/07/31 16:49:22","新北市八里區大堀湖1-5號","121.423026666667","25.1543883333333","6502300","八里區"
"249004","303-UY","2018/07/31 16:49:21","新北市八里區中山路二段210巷158號","121.404228333333","25.1568766666667","6502300","八里區"
"249003","593-UM","2018/07/31 16:49:34","新北市八里區中山路二段283號","121.401581666667","25.1486433333333","6502300","八里區"
"231046","107-UY","2018/07/31 16:49:33","新北市新店區灣潭路15-8號","121.541691666667","24.9396683333333","6500600","新店區"
"241011","013-R5","2018/07/31 16:49:29","新北市三重區龍濱路192號","121.50083","25.0730966666667","6500200","三重區"
"241028","022-UY","2018/07/31 16:49:23","新北市三重區光興街89號","121.497436666667","25.0600466666667","6500200","三重區"
"241008","059-VK","2018/07/31 16:49:34","新北市三重區永安北路一段11巷26號","121.477728333333","25.0748433333333","6500200","三重區"
"241031","061-VK","2018/07/31 16:49:31","新北市三重區過圳街13號","121.48891","25.0590366666667","6500200","三重區"
"241015","062-VK","2018/07/31 16:49:25","新北市三重區文化北路45號","121.498955","25.0655316666667","6500200","三重區"
"241017","063-VK","2018/07/31 16:49:21","新北市三重區大同北路56-3號","121.494095","25.0638283333333","6500200","三重區"
"241024","065-VK","2018/07/31 16:49:19","新北市三重區中正北路317巷16號","121.475031666667","25.072885","6500200","三重區"
"241026","066-VK","2018/07/31 16:49:33","新北市三重區中央南路57號","121.501406666667","25.0616","6500200","三重區"
"241002","090-VK","2018/07/31 16:49:38","新北市三重區仁義街209號","121.496763333333","25.0817766666667","6500200","三重區"
"241003","091-VK","2018/07/31 16:49:23","新北市三重區碧華街396號","121.491618333333","25.084765","6500200","三重區"
"241022","742-BX","2018/07/31 16:49:24","新北市三重區中華路81號","121.483543333333","25.06282","6500200","三重區"
"241005","262-UM","2018/07/31 16:49:29","新北市三重區仁華街80巷7號","121.484765","25.0832966666667","6500200","三重區"
"241016","266-UM","2018/07/31 16:49:18","新北市三重區大同北路135巷38號","121.493756666667","25.0648416666667","6500200","三重區"
"241009","267-UM","2018/07/31 16:49:31","新北市三重區三和路四段203巷203號","121.486445","25.0806433333333","6500200","三重區"
"241018","268-UM","2018/07/31 16:49:20","新北市三重區民生東街19號","121.493345","25.0691516666667","6500200","三重區"
"241032","269-UM","2018/07/31 16:49:29","新北市三重區重陽路一段120巷39號","121.484911666667","25.0603183333333","6500200","三重區"
"241013","270-UM","2018/07/31 16:49:26","新北市三重區仁壽街10號","121.496481666667","25.0733616666667","6500200","三重區"
"241025","271-UM","2018/07/31 16:49:20","新北市三重區中正北路530巷29號","121.471975","25.070035","6500200","三重區"
"241007","398-BY","2018/07/31 16:49:38","新北市三重區三和路四段181巷80號","121.484356666667","25.0795333333333","6500200","三重區"
"241004","413-TH","2018/07/31 16:49:33","新北市三重區仁愛街397巷60號","121.492155","25.08163","6500200","三重區"
"241020","478-VK","2018/07/31 16:49:25","新北市三重區忠孝路二段34號","121.48585","25.0710066666667","6500200","三重區"
"241030","480-VK","2018/07/31 16:49:32","新北市三重區中正南路283號","121.492565","25.0523866666667","6500200","三重區"
"241014","543-UM","2018/07/31 16:49:21","新北市三重區長榮路75號","121.502553333333","25.0690933333333","6500200","三重區"
"241001","547-UM","2018/07/31 16:49:27","新北市三重區仁政街48號","121.492976666667","25.0768766666667","6500200","三重區"
"241019","KEA-2593","2018/07/31 16:49:27","新北市三重區忠孝路二段32巷27號","121.486296666667","25.0700433333333","6500200","三重區"
"241006","AAD-863","2018/07/31 16:49:30","新北市三重區力行路二段182-3號","121.483411666667","25.0775233333333","6500200","三重區"
"241023","887-TS","2018/07/31 16:49:33","新北市三重區新北大道一段206巷32號","121.482556666667","25.0624416666667","6500200","三重區"
"241012","941-UM","2018/07/31 16:49:37","新北市三重區龍門路274巷17號","121.501578333333","25.07467","6500200","三重區"
"241029","942-UM","2018/07/31 16:49:35","新北市三重區中正南路201巷12號","121.492461666667","25.0541233333333","6500200","三重區"
"241033","AAC-255","2018/07/31 16:49:34","新北市三重區光華路67號","121.466763333333","25.0597933333333","6500200","三重區"
"247004","337-TH","2018/07/31 16:49:30","新北市蘆洲區長榮路98號","121.461913333333","25.083915","6501400","蘆洲區"
"247006","336-TH","2018/07/31 16:49:31","新北市蘆洲區永安南路二段132-1號","121.462683333333","25.0784883333333","6501400","蘆洲區"
"247018","057-VK","2018/07/31 16:49:16","新北市蘆洲區民族路306號","121.477445","25.0900416666667","6501400","蘆洲區"
"247008","056-VK","2018/07/31 16:49:35","新北市蘆洲區中山一路178號","121.474095","25.0811716666667","6501400","蘆洲區"
"247016","007-UY","2018/07/31 16:49:39","新北市蘆洲區中正路71號","121.470496666667","25.0827883333333","6501400","蘆洲區"
"228002","663-BX","2018/07/31 16:49:30","新北市貢寮區貢寮里長潭街25號","121.899066666667","25.0239283333333","6502600","貢寮區"
"228003","828-UM","2018/07/31 16:49:36","新北市貢寮區貢寮里朝陽街1-2號","121.91233","25.0212416666667","6502600","貢寮區"
"224006","676-BX","2018/07/31 16:49:27","新北市瑞芳區大寮路356-1號","121.784785","25.10318","6501200","瑞芳區"
"224008","285-BY","2018/07/31 16:49:22","新北市瑞芳區三爪子坑路32巷126號","121.809218333333","25.1063233333333","6501200","瑞芳區"
"224007","275-VK","2018/07/31 16:49:27","新北市瑞芳區中央路48巷174號","121.759051666667","25.1033383333333","6501200","瑞芳區"
"224009","273-VK","2018/07/31 16:49:36","新北市瑞芳區明燈路二段66號","121.809416666667","25.1071516666667","6501200","瑞芳區"
"224005","271-BY","2018/07/31 16:49:31","新北市瑞芳區洞頂路8-1號","121.862098333333","25.1216883333333","6501200","瑞芳區"
"227009","642-TC","2018/07/31 16:49:31","新北市雙溪區牡丹里五分10-1號","121.866336666667","25.0470766666667","6502500","雙溪區"
"227003","400-TW","2018/07/31 16:49:24","新北市雙溪區外柑里外柑腳71號","121.80713","25.0176233333333","6502500","雙溪區"
"251013","KEA-2871","2018/07/31 16:49:29","新北市淡水區泉洲厝32號","121.489261666667","25.19255","6501000","淡水區"
"251016","179-VK","2018/07/31 16:49:32","新北市淡水區商工路398號","121.473236666667","25.1847333333333","6501000","淡水區"
"251014","180-VK","2018/07/31 16:49:33","新北市淡水區淡金路四段476號","121.452431666667","25.2239033333333","6501000","淡水區"
"251008","181-VK","2018/07/31 16:49:22","新北市淡水區樹梅坑45號","121.474618333333","25.14447","6501000","淡水區"
"251015","182-VK","2018/07/31 16:49:22","新北市淡水區忠愛街5-1號","121.460741666667","25.171615","6501000","淡水區"
"251012","441-VK","2018/07/31 16:49:27","新北市淡水區中正路二段31號","121.419655","25.18148","6501000","淡水區"
"251007","442-VK","2018/07/31 16:49:32","新北市淡水區中正路一段27號","121.42615","25.1764166666667","6501000","淡水區"
"251006","561-UM","2018/07/31 16:49:25","新北市淡水區中正路一段85號","121.42237","25.1788983333333","6501000","淡水區"
"251011","650-BX","2018/07/31 16:49:24","新北市淡水區中正路二段31號","121.419381666667","25.18169","6501000","淡水區"
"252002","178-VK","2018/07/31 16:49:34","新北市三芝區忠孝街116號","121.50594","25.257405","6502100","三芝區"
"252001","292-VK","2018/07/31 16:49:30","新北市三芝區淡金路二段89號","121.503941666667","25.2608133333333","6502100","三芝區"
"242034","AAC-296","2018/07/31 16:49:21","新北市新莊區新泰路357巷3弄57號","121.442195","25.0394533333333","6500500","新莊區"
"242023","362-BY","2018/07/31 16:49:25","新北市新莊區三和路12-21號","121.442108333333","25.0384883333333","6500500","新莊區"
"242039","133-UY","2018/07/31 16:49:25","新北市新莊區三和路12-21號","121.442013333333","25.0388033333333","6500500","新莊區"
"242021","348-TH","2018/07/31 16:49:19","新北市新莊區新泰路357巷3弄57號","121.441915","25.0397216666667","6500500","新莊區"
"238024","5061-A6","2018/07/31 16:49:32","新北市樹林區育德街78-1號","121.387945","24.9681783333333","6500700","樹林區"
"239007","AAC-297","2018/07/31 16:49:26","新北市鶯歌區二甲路13-16號","121.345065","24.9351916666667","6500800","鶯歌區"
"239001","417-VK","2018/07/31 16:49:37","新北市鶯歌區二甲路13-16號","121.345496666667","24.9353466666667","6500800","鶯歌區"
"239003","360-BY","2018/07/31 16:49:28","新北市鶯歌區二甲路13-16號","121.345436666667","24.935375","6500800","鶯歌區"
