"lineid","car","time","location","longitude","latitude","cityid","cityname"
"234026","9371-KE","2018/07/31 17:49:36","新北市永和區中山路一段17巷2號","121.513691666667","25.0101833333333","6500400","永和區"
"249005","172-UM","2018/07/31 17:49:22","新北市八里區荖阡坑路34-3號","121.402198333333","25.1313433333333","6502300","八里區"
"249001","173-UM","2018/07/31 17:49:26","新北市八里區龍米路二段133-1號","121.444966666667","25.1477833333333","6502300","八里區"
"249004","303-UY","2018/07/31 17:49:21","新北市八里區中華路一段309巷53-6號","121.415756666667","25.1550766666667","6502300","八里區"
"249002","305-UY","2018/07/31 17:49:35","新北市八里區龍形五街35巷3號","121.449335","25.133245","6502300","八里區"
"249003","593-UM","2018/07/31 17:49:33","新北市八里區中山路二段196號","121.405661666667","25.1524383333333","6502300","八里區"
"248004","677-BX","2018/07/31 17:49:24","新北市五股區中興路二段83巷26-6號","121.459575","25.0751066666667","6501500","五股區"
"248002","678-BX","2018/07/31 17:49:38","新北市五股區中興路二段37巷28號","121.460178333333","25.074955","6501500","五股區"
"232011","375-UM","2018/07/31 17:49:21","新北市坪林區北宜路八段168號","121.707496666667","24.9345083333333","6502000","坪林區"
"244013","069-UM","2018/07/31 17:49:40","新北市林口區中正路555號","121.381178333333","25.076865","6501700","林口區"
"244007","080-UY","2018/07/31 17:49:30","新北市林口區佳林路39號","121.386433333333","25.0818883333333","6501700","林口區"
"244019","403-UM","2018/07/31 17:49:34","新北市林口區麗園路92號","121.372175","25.0682666666667","6501700","林口區"
"244009","410-SL","2018/07/31 17:49:22","新北市林口區林口路245號","121.386476666667","25.0838233333333","6501700","林口區"
"244023","483-VK","2018/07/31 17:47:20","新北市林口區興林路338巷37號","121.387983333333","25.0699283333333","6501700","林口區"
"244017","485-VK","2018/07/31 17:49:31","新北市林口區文化二路一段260巷4號","121.37121","25.0733033333333","6501700","林口區"
"244011","657-BX","2018/07/31 17:49:23","新北市林口區中正路334號","121.386936666667","25.0777166666667","6501700","林口區"
"244025","837-TS","2018/07/31 17:49:36","新北市林口區文化三路一段165號","121.361521666667","25.0691066666667","6501700","林口區"
"244021","838-TS","2018/07/31 17:49:29","新北市林口區仁愛路123巷3號","121.398485","25.0711666666667","6501700","林口區"
"222003","436-BY","2018/07/31 17:49:30","新北市深坑區阿柔洋60-1號","121.608596666667","24.998505","6501800","深坑區"
"222002","659-BX","2018/07/31 17:49:24","新北市深坑區平埔街22巷17弄1號","121.614868333333","25.00088","6501800","深坑區"
"231046","107-UY","2018/07/31 17:49:33","新北市新店區康雅崙路20號","121.534851666667","24.9267","6500600","新店區"
"241024","065-VK","2018/07/31 17:49:39","新北市三重區力行路二段9巷2號","121.482351666667","25.0722716666667","6500200","三重區"
"241016","266-UM","2018/07/31 17:49:38","新北市三重區新北大道一段7號","121.489698333333","25.0615616666667","6500200","三重區"
"241033","AAC-255","2018/07/31 17:49:34","新北市三重區重新路五段552號","121.470343333333","25.0459233333333","6500200","三重區"
"235064","005-UY","2018/07/31 17:49:30","新北市中和區員山路36巷16-3號","121.485106666667","24.9912983333333","6500300","中和區"
"235063","006-UY","2018/07/31 17:49:26","新北市中和區員山路36巷16-3號","121.485046666667","24.991355","6500300","中和區"
"235065","098-UM","2018/07/31 17:49:32","新北市中和區中正路637巷52弄1號","121.485473333333","24.9935533333333","6500300","中和區"
"247010","KEA-2869","2018/07/31 17:49:34","新北市蘆洲區民族路43號","121.478346666667","25.085305","6501400","蘆洲區"
"235053","900-TW","2018/07/31 17:33:49","新北市中和區員山路36巷16-2號","121.485131666667","24.9917116666667","6500300","中和區"
"247024","893-R6","2018/07/31 17:49:26","新北市蘆洲區光榮路61巷11號","121.461025","25.08887","6501400","蘆洲區"
"247014","546-UM","2018/07/31 17:49:22","新北市蘆洲區保和街69巷18號","121.469695","25.0852266666667","6501400","蘆洲區"
"247022","500-BY","2018/07/31 17:49:23","新北市蘆洲區中正路367號","121.464918333333","25.090285","6501400","蘆洲區"
"247012","339-TH","2018/07/31 17:49:35","新北市蘆洲區復興路139號","121.477858333333","25.0886533333333","6501400","蘆洲區"
"247006","336-TH","2018/07/31 17:49:31","新北市蘆洲區九芎街115號","121.465496666667","25.079535","6501400","蘆洲區"
"247018","057-VK","2018/07/31 17:49:36","新北市蘆洲區復興路227巷2弄22號","121.481221666667","25.0904483333333","6501400","蘆洲區"
"247008","056-VK","2018/07/31 17:49:35","新北市蘆洲區中山一路197巷6弄21號","121.4741","25.0802216666667","6501400","蘆洲區"
"247016","007-UY","2018/07/31 17:49:39","新北市蘆洲區中正路185巷25弄8號","121.46689","25.0841516666667","6501400","蘆洲區"
"247002","002-UY","2018/07/31 17:49:28","新北市蘆洲區永平街32巷21弄34號","121.45794","25.09238","6501400","蘆洲區"
"247020","001-UY","2018/07/31 17:49:19","新北市蘆洲區民義街71巷31號","121.47207","25.0911716666667","6501400","蘆洲區"
"228001","212-TW","2018/07/31 17:49:38","新北市貢寮區仁理村仁愛路95-1號","121.927651666667","25.05544","6502600","貢寮區"
"228002","663-BX","2018/07/31 17:49:30","新北市貢寮區福隆里龜壽谷街26號","121.952963333333","25.0078983333333","6502600","貢寮區"
"228003","828-UM","2018/07/31 17:49:35","新北市貢寮區真理里美艷山街6-2號","121.928835","25.06073","6502600","貢寮區"
"224006","676-BX","2018/07/31 17:49:27","新北市瑞芳區瑞興新村12巷1號","121.788403333333","25.1083","6501200","瑞芳區"
"224008","285-BY","2018/07/31 17:49:23","新北市瑞芳區明燈路一段6號","121.823101666667","25.1073633333333","6501200","瑞芳區"
"224009","273-VK","2018/07/31 17:49:36","新北市瑞芳區山尖路49號","121.852426666667","25.1145416666667","6501200","瑞芳區"
"224005","271-BY","2018/07/31 17:49:31","新北市瑞芳區海濱路154-1號","121.829871666667","25.1220483333333","6501200","瑞芳區"
"227009","642-TC","2018/07/31 17:49:38","新北市雙溪區三貂里定福路1-2號","121.850778333333","25.06343","6502500","雙溪區"
"253006","295-VK","2018/07/31 17:49:37","新北市石門區中山路64-1號","121.56729","25.290615","6502200","石門區"
"222001","KEA-2212","2018/07/31 17:49:34","新北市深坑區北深路三段25巷15-2號","121.608661666667","24.9995233333333","6501800","深坑區"
"208003","665-BX","2018/07/31 17:49:28","新北市金山區磺清路135號","121.639368333333","25.227745","6502700","金山區"
"251004","009-UM","2018/07/31 17:49:23","新北市淡水區民權一街33號","121.459295","25.136275","6501000","淡水區"
"251005","010-UM","2018/07/31 17:49:31","新北市淡水區學府路102巷5-3號","121.45064","25.1719533333333","6501000","淡水區"
"251001","011-UM","2018/07/31 17:49:23","新北市淡水區民權路92巷35-1號","121.462201666667","25.1266633333333","6501000","淡水區"
"251002","012-UM","2018/07/31 17:49:29","新北市淡水區中山路46號","121.44421","25.1700983333333","6501000","淡水區"
"251013","KEA-2871","2018/07/31 17:49:29","新北市淡水區泉洲厝30號","121.479696666667","25.1910016666667","6501000","淡水區"
"251016","179-VK","2018/07/31 17:49:32","新北市淡水區埤島39-15號","121.45274","25.1958566666667","6501000","淡水區"
"251014","180-VK","2018/07/31 17:49:33","新北市淡水區公埔子16-6號","121.481015","25.224585","6501000","淡水區"
"251008","181-VK","2018/07/31 17:49:26","新北市淡水區八勢路一段118號","121.466938333333","25.1566616666667","6501000","淡水區"
"251015","182-VK","2018/07/31 17:49:22","新北市淡水區興福寮22-3號","121.494193333333","25.1643566666667","6501000","淡水區"
"251010","413-VK","2018/07/31 17:49:28","新北市淡水區淡海路280巷33弄34-2號","121.418758333333","25.1886466666667","6501000","淡水區"
"251012","441-VK","2018/07/31 17:49:41","新北市淡水區北新路一段607號","121.471646666667","25.1845666666667","6501000","淡水區"
"251007","442-VK","2018/07/31 17:49:32","新北市淡水區民生路12號","121.460905","25.13763","6501000","淡水區"
"251006","561-UM","2018/07/31 17:49:25","新北市淡水區中山北路一段53號","121.44121","25.175915","6501000","淡水區"
"251009","575-R6","2018/07/31 17:49:31","新北市淡水區長興街65號","121.444311666667","25.1722716666667","6501000","淡水區"
"251011","650-BX","2018/07/31 17:48:34","新北市淡水區吳(仔)厝70號","121.47957","25.1496316666667","6501000","淡水區"
"251003","673-BX","2018/07/31 17:49:23","新北市淡水區大仁街69號","121.44294","25.176355","6501000","淡水區"
"207003","550-UM","2018/07/31 17:49:38","新北市萬里區野柳里東澳路66號","121.692675","25.2009066666667","6502800","萬里區"
"207004","291-VK","2018/07/31 17:49:33","新北市萬里區萬里里瑪鋉頂街61號","121.688333333333","25.1804366666667","6502800","萬里區"
"252002","178-VK","2018/07/31 17:49:34","新北市三芝區智成街16號","121.503296666667","25.25673","6502100","三芝區"
"252001","292-VK","2018/07/31 17:49:30","新北市三芝區中興街一段37號","121.497633333333","25.2578216666667","6502100","三芝區"
"237009","210-TH","2018/07/31 17:49:32","新北市三峽區大勇路3巷23號","121.367945","24.9368166666667","6500900","三峽區"
"237013","252-BX","2018/07/31 17:49:37","新北市三峽區介壽路一段52-6號","121.375886666667","24.931915","6500900","三峽區"
"237012","275-BY","2018/07/31 17:49:30","新北市三峽區民生街92號","121.374113333333","24.9356866666667","6500900","三峽區"
"237014","433-BY","2018/07/31 17:49:25","新北市三峽區和平街36巷17號","121.371273333333","24.9370566666667","6500900","三峽區"
"237006","5529-G3","2018/07/31 17:49:24","新北市三峽區介壽路二段136巷106弄16號","121.39185","24.933325","6500900","三峽區"
"237011","KEA-2596","2018/07/31 17:49:23","新北市三峽區中園街3號","121.368661666667","24.9275533333333","6500900","三峽區"
"237016","649-BX","2018/07/31 17:49:37","新北市三峽區白雞149-2號","121.399895","24.9050733333333","6500900","三峽區"
"237010","706-TV","2018/07/31 17:49:25","新北市三峽區大勇路29巷6弄12號","121.367708333333","24.9358416666667","6500900","三峽區"
"237005","AKY-6261","2018/07/31 17:49:37","新北市三峽區中山路459巷163-3號","121.348598333333","24.933005","6500900","三峽區"
"236070","105-UM","2018/07/31 17:49:38","新北市土城區明德路一段361-3號","121.45638","24.97769","6501300","土城區"
"236042","107-UM","2018/07/31 17:49:32","新北市土城區城林路6巷80號","121.43853","24.9797133333333","6501300","土城區"
"236079","166-UM","2018/07/31 17:49:27","新北市土城區中央路三段180號","121.430811666667","24.9650766666667","6501300","土城區"
"236030","253-BX","2018/07/31 17:49:27","新北市土城區城林路6巷80號","121.438696666667","24.9796583333333","6501300","土城區"
"236026","269-VK","2018/07/31 17:49:26","新北市土城區順風路6號","121.439946666667","24.9763983333333","6501300","土城區"
"236014","270-VK","2018/07/31 17:49:23","新北市土城區城林路6巷80號","121.438508333333","24.9796033333333","6501300","土城區"
"236038","271-VK","2018/07/31 17:49:21","新北市土城區城林路6巷80號","121.438548333333","24.97956","6501300","土城區"
"236021","401-BY","2018/07/31 17:49:28","新北市土城區城林路6巷80號","121.438778333333","24.97966","6501300","土城區"
"236059","912-UM","2018/07/31 17:49:27","新北市土城區中華路二段88號","121.438573333333","24.9755483333333","6501300","土城區"
"236063","915-UM","2018/07/31 17:49:28","新北市土城區城林路6巷80號","121.438553333333","24.9795833333333","6501300","土城區"
"236055","AAC-216","2018/07/31 17:49:32","新北市土城區城林路6巷80號","121.438486666667","24.9795916666667","6501300","土城區"
"242034","AAC-296","2018/07/31 17:49:30","新北市新莊區新莊路666號","121.441598333333","25.0327083333333","6500500","新莊區"
"242058","986-R7","2018/07/31 17:49:22","新北市新莊區中正路730-5號","121.414808333333","25.02361","6500500","新莊區"
"242054","751-BX","2018/07/31 17:49:32","新北市新莊區民安西路492號","121.432721666667","25.00707","6500500","新莊區"
"242027","705-TV","2018/07/31 17:49:26","新北市新莊區福壽街165號","121.457995","25.0535516666667","6500500","新莊區"
"242029","612-BX","2018/07/31 17:47:23","新北市新莊區復興路一段37號","121.44662","25.0420583333333","6500500","新莊區"
"242042","566-BX","2018/07/31 17:49:28","新北市泰山區壽山路54號","121.420141666667","25.02919","6500500","新莊區"
"242046","497-BY","2018/07/31 17:49:25","新北市新莊區福營路143號","121.432498333333","25.031645","6500500","新莊區"
"242051","441-UM","2018/07/31 17:49:32","新北市新莊區西盛街311巷21號","121.428903333333","25.015275","6500500","新莊區"
"242056","440-UM","2018/07/31 17:49:37","新北市新莊區瓊林路40巷25號","121.44675","25.0301266666667","6500500","新莊區"
"242037","415-TV","2018/07/31 17:49:21","新北市新莊區後港一路87號","121.427538333333","25.026755","6500500","新莊區"
"242007","413-TV","2018/07/31 17:49:32","新北市新莊區福樂街156巷12弄9號","121.456703333333","25.0488266666667","6500500","新莊區"
"242044","400-BY","2018/07/31 17:49:26","新北市新莊區雙鳳路8號","121.417308333333","25.0267816666667","6500500","新莊區"
"242023","362-BY","2018/07/31 17:49:25","新北市新莊區福樂街78號","121.457653333333","25.046755","6500500","新莊區"
"242061","353-BY","2018/07/31 17:49:32","新北市新莊區新樹路605號","121.433426666667","25.0055983333333","6500500","新莊區"
"242009","132-UY","2018/07/31 17:49:28","新北市新莊區昌明街32號","121.45671","25.0523716666667","6500500","新莊區"
"242039","133-UY","2018/07/31 17:49:25","新北市新莊區民安路208號","121.425678333333","25.0229466666667","6500500","新莊區"
"242032","135-UY","2018/07/31 17:49:19","新北市新莊區新泰路357巷1弄51號","121.442743333333","25.03978","6500500","新莊區"
"242017","175-VK","2018/07/31 17:49:36","新北市新莊區永安街57號","121.45127","25.044695","6500500","新莊區"
"242005","176-VK","2018/07/31 17:49:34","新北市新莊區自立街237號","121.458146666667","25.0455083333333","6500500","新莊區"
"242048","347-TH","2018/07/31 17:49:32","新北市新莊區萬安街60巷11號","121.42056","25.0233283333333","6500500","新莊區"
"242021","348-TH","2018/07/31 17:49:39","新北市新莊區永寧街37巷1號","121.452845","25.039515","6500500","新莊區"
"242002","349-TH","2018/07/31 17:49:25","新北市新莊區景德路174號","121.45022","25.034105","6500500","新莊區"
"242019","350-TH","2018/07/31 17:49:25","新北市新莊區明中街48號","121.456716666667","25.04009","6500500","新莊區"
"242013","351-TH","2018/07/31 17:49:28","新北市新莊區中和街108巷11號","121.448205","25.047025","6500500","新莊區"
"238015","755-BX","2018/07/31 17:49:22","新北市樹林區長壽街25巷20號","121.420148333333","24.994605","6500700","樹林區"
"238023","601-UM","2018/07/31 17:49:40","新北市樹林區龍興街32巷26號","121.401956666667","25.0155466666667","6500700","樹林區"
"238019","599-UM","2018/07/31 17:49:22","新北市樹林區太平路162號","121.418618333333","24.9775616666667","6500700","樹林區"
"238018","571-TV","2018/07/31 17:49:41","新北市樹林區樹新路98號","121.429438333333","24.9976366666667","6500700","樹林區"
"238024","5061-A6","2018/07/31 17:49:38","新北市樹林區中山路三段125-1號","121.397096666667","24.9734616666667","6500700","樹林區"
"238022","KEA-2213","2018/07/31 17:49:33","新北市樹林區太順街86巷28號","121.416551666667","24.9787283333333","6500700","樹林區"
"238021","KEA-2539","2018/07/31 17:49:30","新北市樹林區柑園街一段21巷2號","121.40467","24.960485","6500700","樹林區"
"238025","303-VK","2018/07/31 17:49:39","新北市樹林區三俊街101號","121.416793333333","25.0153766666667","6500700","樹林區"
"238017","283-BY","2018/07/31 17:49:37","新北市樹林區三德街60號","121.416155","25.01398","6500700","樹林區"
"238014","282-BY","2018/07/31 17:49:25","新北市樹林區大安路125巷19號","121.42304","24.9969116666667","6500700","樹林區"
"238020","268-VK","2018/07/31 17:49:20","新北市樹林區三俊街243號","121.42207","25.014625","6500700","樹林區"
"238026","172-UY","2018/07/31 17:49:26","新北市樹林區新興街41號","121.399925","24.9716733333333","6500700","樹林區"
"238016","169-UY","2018/07/31 17:49:31","新北市樹林區復興路383號","121.416705","24.9867616666667","6500700","樹林區"
"239007","AAC-297","2018/07/31 17:49:25","新北市鶯歌區永安街28號","121.337638333333","24.955745","6500800","鶯歌區"
"239006","891-R6","2018/07/31 17:49:29","新北市鶯歌區鶯桃路438號","121.333111666667","24.9647366666667","6500800","鶯歌區"
"239008","527-UM","2018/07/31 17:49:24","新北市鶯歌區大湖路700巷28號","121.333635","24.9771616666667","6500800","鶯歌區"
"239005","526-UM","2018/07/31 17:49:21","新北市鶯歌區鳳吉五街33號","121.327408333333","24.9727733333333","6500800","鶯歌區"
"239001","417-VK","2018/07/31 17:49:37","新北市鶯歌區中正三路442號","121.323713333333","24.93456","6500800","鶯歌區"
"239003","360-BY","2018/07/31 17:49:35","新北市鶯歌區永吉街66號","121.335198333333","24.9567583333333","6500800","鶯歌區"
"239002","359-BY","2018/07/31 17:49:30","新北市鶯歌區光明街105號","121.344505","24.9557983333333","6500800","鶯歌區"
"239004","193-VK","2018/07/31 17:49:39","新北市鶯歌區文化路531號","121.35293","24.94806","6500800","鶯歌區"
"221008","489-VK","2018/07/31 17:49:39","新北市汐止區康寧街901號","121.651353333333","25.07501","6501100","汐止區"
"221036","130-UY","2018/07/31 17:49:02","新北市汐止區汐萬路一段266號","121.651001666667","25.073905","6501100","汐止區"
"221015","131-UY","2018/07/31 17:49:24","新北市汐止區長江街213號","121.661885","25.077925","6501100","汐止區"
"221010","269-BY","2018/07/31 17:49:33","新北市汐止區汐萬路二段216巷1號","121.647118333333","25.087465","6501100","汐止區"
"221012","278-VK","2018/07/31 17:49:27","新北市汐止區長江街69號","121.656895","25.071975","6501100","汐止區"
"221032","280-BY","2018/07/31 17:49:24","新北市汐止區大同路一段215號","121.633743333333","25.0576116666667","6501100","汐止區"
"221027","281-BY","2018/07/31 17:49:29","新北市汐止區汐萬路一段312號","121.650586666667","25.07538","6501100","汐止區"
"221029","298-VK","2018/07/31 17:49:39","新北市汐止區汐萬路一段256巷1號","121.651736666667","25.0748616666667","6501100","汐止區"
"221021","299-VK","2018/07/31 17:49:31","新北市汐止區水源路一段13號","121.657178333333","25.06685","6501100","汐止區"
"221031","353-TW","2018/07/31 17:49:26","新北市汐止區中興路96巷1-3號","121.63538","25.06253","6501100","汐止區"
"221002","129-UY","2018/07/31 17:49:33","新北市汐止區康寧街901號","121.65168","25.0749483333333","6501100","汐止區"
"221035","622-UM","2018/07/31 17:49:37","新北市汐止區汐萬路一段146號","121.65303","25.0710733333333","6501100","汐止區"
"221025","623-UM","2018/07/31 17:49:33","新北市汐止區大同路二段169巷22弄32號","121.651701666667","25.0652633333333","6501100","汐止區"
"221038","646-BX","2018/07/31 17:49:37","新北市汐止區汐萬路一段158號","121.652668333333","25.071435","6501100","汐止區"
"221033","647-BX","2018/07/31 17:49:32","新北市汐止區民權街二段93號","121.6189","25.047485","6501100","汐止區"
"221018","753-BX","2018/07/31 17:49:27","新北市汐止區汐萬路一段24號","121.655675","25.0680816666667","6501100","汐止區"
"242015","281-VK","2018/07/31 17:49:36","新北市新莊區新泰路502巷40號","121.443663333333","25.04634","6500500","新莊區"
"235061","KEA-2875","2018/07/31 17:49:17","新北市中和區員山路36巷16-2號","121.48537","24.99172","6500300","中和區"
