"lineid","car","time","location","longitude","latitude","cityid","cityname"
"234026","9371-KE","2018/07/31 17:59:36","新北市永和區永和路一段45-1號","121.51277","25.006245","6500400","永和區"
"249005","172-UM","2018/07/31 17:59:42","新北市八里區荖阡坑路16號","121.397798333333","25.13835","6502300","八里區"
"249001","173-UM","2018/07/31 17:59:26","新北市八里區龍米路二段35號","121.448376666667","25.1400066666667","6502300","八里區"
"249004","303-UY","2018/07/31 17:59:40","新北市八里區龍米路二段159-2號","121.439208333333","25.1539066666667","6502300","八里區"
"249002","305-UY","2018/07/31 17:59:35","新北市八里區龍米路一段426號","121.45126","25.1338","6502300","八里區"
"249003","593-UM","2018/07/31 17:59:34","新北市八里區中華路二段201-20號","121.405693333333","25.1491766666667","6502300","八里區"
"248006","077-UY","2018/07/31 17:59:30","新北市五股區中興路二段83巷26-6號","121.459663333333","25.07517","6501500","五股區"
"248008","095-VK","2018/07/31 17:59:26","新北市五股區中興路二段147號","121.458385","25.0780133333333","6501500","五股區"
"248020","225-UY","2018/07/31 17:59:33","新北市五股區中興路二段83巷26-6號","121.459298333333","25.0754783333333","6501500","五股區"
"248004","677-BX","2018/07/31 17:59:24","新北市五股區中興路二段63巷17號","121.460226666667","25.07533","6501500","五股區"
"248002","678-BX","2018/07/31 17:59:38","新北市五股區中興路二段37巷26號","121.46059","25.0749966666667","6501500","五股區"
"232011","375-UM","2018/07/31 17:59:40","新北市坪林區北宜路八段167號","121.707575","24.9346","6502000","坪林區"
"244013","069-UM","2018/07/31 17:59:36","新北市林口區中山路133號","121.388596666667","25.0789033333333","6501700","林口區"
"244007","080-UY","2018/07/31 17:59:30","新北市林口區竹林路269號","121.38949","25.0810266666667","6501700","林口區"
"244019","403-UM","2018/07/31 17:59:34","新北市林口區文化一路一段120號","121.37415","25.07195","6501700","林口區"
"244009","410-SL","2018/07/31 17:59:21","新北市林口區佳林路56巷6弄12號","121.385678333333","25.0822016666667","6501700","林口區"
"244023","483-VK","2018/07/31 17:59:20","新北市林口區東湖路75巷48號","121.385415","25.0719566666667","6501700","林口區"
"244017","485-VK","2018/07/31 17:59:31","新北市林口區文化二路一段232號","121.369606666667","25.0726933333333","6501700","林口區"
"244011","657-BX","2018/07/31 17:59:23","新北市林口區中正路144號","121.392748333333","25.0773316666667","6501700","林口區"
"244025","837-TS","2018/07/31 17:59:36","新北市林口區惠民街47號","121.356688333333","25.0670516666667","6501700","林口區"
"244021","838-TS","2018/07/31 17:59:29","新北市林口區新寮27號","121.396971666667","25.0674183333333","6501700","林口區"
"222003","436-BY","2018/07/31 17:59:30","新北市深坑區炮子崙23號","121.607075","24.9908566666667","6501800","深坑區"
"222002","659-BX","2018/07/31 17:59:24","新北市深坑區深坑街35號","121.61599","25.0018383333333","6501800","深坑區"
"231046","107-UY","2018/07/31 17:59:33","新北市新店區下石厝路31號","121.533656666667","24.9307116666667","6500600","新店區"
"231055","AKT-0513","2018/07/31 17:59:35","新北市新店區安華路28-1號","121.519668333333","24.9606516666667","6500600","新店區"
"241024","065-VK","2018/07/31 17:59:39","新北市三重區車路頭街70號","121.48421","25.0730216666667","6500200","三重區"
"241016","266-UM","2018/07/31 17:59:37","新北市新莊區五工一路80巷1號","121.462131666667","25.0674616666667","6500200","三重區"
"241033","AAC-255","2018/07/31 17:59:34","新北市三重區光復路一段68巷13號","121.471011666667","25.0493233333333","6500200","三重區"
"235064","005-UY","2018/07/31 17:59:30","新北市中和區員山路36巷16-3號","121.484931666667","24.9914616666667","6500300","中和區"
"235063","006-UY","2018/07/31 17:59:26","新北市中和區員山路36巷16-3號","121.485026666667","24.9912983333333","6500300","中和區"
"235065","098-UM","2018/07/31 17:59:32","新北市中和區橋和路2-1號","121.488333333333","25.0049283333333","6500300","中和區"
"235058","151-BY","2018/07/31 17:59:24","新北市中和區圓通路367巷6號","121.491455","24.98917","6500300","中和區"
"235038","185-VK","2018/07/31 17:59:28","新北市中和區中正路250號","121.495746666667","24.9940433333333","6500300","中和區"
"247010","KEA-2869","2018/07/31 17:59:34","新北市蘆洲區三民路26巷24號","121.477588333333","25.0829883333333","6501400","蘆洲區"
"235054","640-BX","2018/07/31 17:59:37","新北市中和區員山路36巷16-2號","121.485306666667","24.9918433333333","6500300","中和區"
"235052","805-TS","2018/07/31 17:59:25","新北市中和區員山路36巷13號","121.484131666667","24.9910733333333","6500300","中和區"
"235053","900-TW","2018/07/31 17:59:28","新北市中和區員山路36巷16-2號","121.485058333333","24.99177","6500300","中和區"
"235051","157-BY","2018/07/31 17:59:36","新北市中和區員山路36巷13號","121.484198333333","24.990895","6500300","中和區"
"235037","AAC-213","2018/07/31 17:59:23","新北市中和區錦和路350-1號","121.490525","24.993565","6500300","中和區"
"247014","546-UM","2018/07/31 17:59:22","新北市蘆洲區忠孝路51號","121.47126","25.086545","6501400","蘆洲區"
"247006","336-TH","2018/07/31 17:59:37","新北市蘆洲區中華街3號","121.463936666667","25.08179","6501400","蘆洲區"
"247016","007-UY","2018/07/31 17:59:39","新北市蘆洲區中正路185巷78弄21號","121.46552","25.0850316666667","6501400","蘆洲區"
"247002","002-UY","2018/07/31 17:59:28","新北市蘆洲區永平街32巷57弄15號","121.459221666667","25.0930383333333","6501400","蘆洲區"
"247020","001-UY","2018/07/31 17:59:19","新北市蘆洲區三民路128巷5號","121.470705","25.088235","6501400","蘆洲區"
"228001","212-TW","2018/07/31 17:59:38","新北市貢寮區真理里新港街26巷49號","121.927778333333","25.0532183333333","6502600","貢寮區"
"228002","663-BX","2018/07/31 17:59:29","新北市貢寮區福連里香蘭街2-1號","121.970926666667","25.0241933333333","6502600","貢寮區"
"228003","828-UM","2018/07/31 17:59:35","新北市貢寮區真理里美艷山街6-2號","121.92883","25.060735","6502600","貢寮區"
"224006","676-BX","2018/07/31 17:59:27","新北市瑞芳區大寮路356-1號","121.784855","25.1031783333333","6501200","瑞芳區"
"224002","639-TC","2018/07/31 17:59:21","新北市瑞芳區三爪子坑路14號","121.810313333333","25.1066333333333","6501200","瑞芳區"
"224008","285-BY","2018/07/31 17:59:22","新北市瑞芳區明燈路一段45巷71號","121.821875","25.1048666666667","6501200","瑞芳區"
"224009","273-VK","2018/07/31 17:59:36","新北市瑞芳區金光路245號","121.85113","25.10794","6501200","瑞芳區"
"224005","271-BY","2018/07/31 17:59:31","新北市瑞芳區弘祥新村36號","121.817826666667","25.1284916666667","6501200","瑞芳區"
"227009","642-TC","2018/07/31 17:59:38","新北市雙溪區三貂里定福路1-2號","121.850785","25.0634566666667","6502500","雙溪區"
"253005","032-BX","2018/07/31 17:59:34","新北市石門區中山路62-7號","121.56734","25.290045","6502200","石門區"
"253006","295-VK","2018/07/31 17:59:28","新北市石門區大丘田45-1號","121.549815","25.2750066666667","6502200","石門區"
"222001","KEA-2212","2018/07/31 17:59:34","新北市深坑區北深路三段30號","121.609183333333","25.00113","6501800","深坑區"
"208002","KEA-2872","2018/07/31 17:59:36","新北市金山區三界壇路28號","121.625426666667","25.2284916666667","6502700","金山區"
"208003","665-BX","2018/07/31 17:59:28","新北市金山區磺港里磺港路309號","121.644055","25.2276116666667","6502700","金山區"
"208001","761-BX","2018/07/31 17:59:35","新北市金山區磺港里磺港路247號","121.643615","25.22495","6502700","金山區"
"251004","009-UM","2018/07/31 17:59:23","新北市淡水區民權路187號","121.459526666667","25.1335633333333","6501000","淡水區"
"251005","010-UM","2018/07/31 17:59:31","新北市淡水區英專路135號","121.446521666667","25.1726833333333","6501000","淡水區"
"251001","011-UM","2018/07/31 17:59:23","新北市淡水區民權路94巷1號","121.463075","25.1248183333333","6501000","淡水區"
"251002","012-UM","2018/07/31 17:59:28","新北市淡水區中正東路1號","121.447505","25.16722","6501000","淡水區"
"251013","KEA-2871","2018/07/31 17:59:29","新北市淡水區泉洲厝30號","121.47969","25.1909933333333","6501000","淡水區"
"251016","179-VK","2018/07/31 17:59:32","新北市淡水區埤島28號","121.447631666667","25.1983283333333","6501000","淡水區"
"251014","180-VK","2018/07/31 17:59:32","新北市淡水區公埔子16-6號","121.480378333333","25.2240516666667","6501000","淡水區"
"251008","181-VK","2018/07/31 17:59:26","新北市淡水區紅樹林路209號","121.46111","25.1561366666667","6501000","淡水區"
"251015","182-VK","2018/07/31 17:59:21","新北市淡水區興福寮66巷539號","121.484608333333","25.1651433333333","6501000","淡水區"
"251010","413-VK","2018/07/31 17:59:28","新北市淡水區中正路一段87巷1號","121.421716666667","25.17913","6501000","淡水區"
"251012","441-VK","2018/07/31 17:59:27","新北市淡水區北新路三段38巷7號","121.484493333333","25.1869833333333","6501000","淡水區"
"251007","442-VK","2018/07/31 17:59:32","新北市淡水區中正東路二段153號","121.459825","25.1465283333333","6501000","淡水區"
"251006","561-UM","2018/07/31 17:59:25","新北市淡水區真理街2號","121.438781666667","25.1730883333333","6501000","淡水區"
"251009","575-R6","2018/07/31 17:59:31","新北市淡水區大智街35號","121.442508333333","25.1745166666667","6501000","淡水區"
"251011","650-BX","2018/07/31 17:59:24","新北市淡水區三空泉8-1號","121.476041666667","25.1625666666667","6501000","淡水區"
"251003","673-BX","2018/07/31 17:59:23","新北市淡水區大忠街51號","121.444858333333","25.1764783333333","6501000","淡水區"
"207003","550-UM","2018/07/31 17:59:38","新北市萬里區港東路野柳風景區攤販55號","121.691493333333","25.2058383333333","6502800","萬里區"
"207004","291-VK","2018/07/31 17:59:33","新北市萬里區中幅里中福路48號","121.683051666667","25.1740566666667","6502800","萬里區"
"252002","178-VK","2018/07/31 17:59:34","新北市三芝區中山路二段49號","121.502963333333","25.2546733333333","6502100","三芝區"
"252001","292-VK","2018/07/31 17:59:30","新北市三芝區中興街二段2號","121.498401666667","25.256605","6502100","三芝區"
"237004","KEA-2597","2018/07/31 17:59:26","新北市三峽區中正路二段154號","121.366113333333","24.9159833333333","6500900","三峽區"
"237007","153-BY","2018/07/31 17:59:20","新北市三峽區中正路二段46-2號","121.3667","24.9190083333333","6500900","三峽區"
"237009","210-TH","2018/07/31 17:59:32","新北市三峽區中山路106巷29號","121.366056666667","24.9365266666667","6500900","三峽區"
"237013","252-BX","2018/07/31 17:59:37","新北市三峽區長泰街78巷16號","121.376766666667","24.933635","6500900","三峽區"
"237012","275-BY","2018/07/31 17:59:30","新北市三峽區民生街17號","121.376248333333","24.9364816666667","6500900","三峽區"
"237008","302-VK","2018/07/31 17:59:39","新北市三峽區白雞30-3號","121.369905","24.912255","6500900","三峽區"
"237014","433-BY","2018/07/31 17:59:25","新北市三峽區和平街36巷5號","121.370646666667","24.9371816666667","6500900","三峽區"
"237006","5529-G3","2018/07/31 17:59:24","新北市三峽區介壽路二段138巷1弄106-1號","121.397756666667","24.93104","6500900","三峽區"
"237011","KEA-2596","2018/07/31 17:59:23","新北市三峽區光明路48號","121.37457","24.9296933333333","6500900","三峽區"
"237016","649-BX","2018/07/31 17:59:37","新北市三峽區紫微路109號","121.408831666667","24.9111783333333","6500900","三峽區"
"237010","706-TV","2018/07/31 17:59:25","新北市三峽區民權街168號","121.367865","24.93018","6500900","三峽區"
"237005","AKY-6261","2018/07/31 17:59:37","新北市三峽區復興路237巷38號","121.369036666667","24.9378616666667","6500900","三峽區"
"236070","105-UM","2018/07/31 17:59:38","新北市土城區青雲路663號","121.464701666667","24.9656566666667","6501300","土城區"
"236042","107-UM","2018/07/31 17:59:32","新北市土城區城林路6巷80號","121.438511666667","24.97971","6501300","土城區"
"236079","166-UM","2018/07/31 17:59:27","新北市土城區永寧路32巷10弄3號","121.428878333333","24.9610216666667","6501300","土城區"
"236030","253-BX","2018/07/31 17:59:27","新北市土城區城林路6巷80號","121.438696666667","24.9796583333333","6501300","土城區"
"236026","269-VK","2018/07/31 17:59:26","新北市土城區千歲路7號","121.440768333333","24.9698266666667","6501300","土城區"
"236014","270-VK","2018/07/31 17:59:23","新北市土城區城林路6巷80號","121.43851","24.97958","6501300","土城區"
"236038","271-VK","2018/07/31 17:59:21","新北市土城區城林路6巷80號","121.438528333333","24.9795666666667","6501300","土城區"
"236021","401-BY","2018/07/31 17:59:28","新北市土城區城林路6巷80號","121.438761666667","24.9796633333333","6501300","土城區"
"236059","912-UM","2018/07/31 17:59:27","新北市土城區中央路三段250號","121.427553333333","24.9642033333333","6501300","土城區"
"236049","913-UM","2018/07/31 17:59:29","新北市土城區城林路6巷80號","121.438601666667","24.9796766666667","6501300","土城區"
"236063","915-UM","2018/07/31 17:59:28","新北市土城區城林路6巷80號","121.438538333333","24.979585","6501300","土城區"
"236055","AAC-216","2018/07/31 17:59:32","新北市土城區城林路6巷80號","121.438485","24.979585","6501300","土城區"
"242034","AAC-296","2018/07/31 17:59:41","新北市新莊區福海街31巷3號","121.444821666667","25.0338216666667","6500500","新莊區"
"242058","986-R7","2018/07/31 17:59:22","新北市新莊區雙鳳路134巷7號","121.412645","25.0281566666667","6500500","新莊區"
"242054","751-BX","2018/07/31 17:59:32","新北市新莊區民安西路403巷5號","121.429735","25.010115","6500500","新莊區"
"242027","705-TV","2018/07/31 17:59:26","新北市新莊區思源路377號","121.459823333333","25.0511416666667","6500500","新莊區"
"242029","612-BX","2018/07/31 17:50:34","新北市新莊區中平路24號","121.444763333333","25.0430616666667","6500500","新莊區"
"242042","566-BX","2018/07/31 17:59:33","新北市新莊區中正路857號","121.419686666667","25.028155","6500500","新莊區"
"242046","497-BY","2018/07/31 17:59:25","新北市新莊區福營路195巷24號","121.431845","25.0297566666667","6500500","新莊區"
"242051","441-UM","2018/07/31 17:59:40","新北市新莊區西盛街153巷1號","121.428385","25.01818","6500500","新莊區"
"242056","440-UM","2018/07/31 17:59:33","新北市新莊區豐年街124巷18號","121.44551","25.029885","6500500","新莊區"
"242037","415-TV","2018/07/31 17:59:21","新北市新莊區建福路13號","121.426113333333","25.0293466666667","6500500","新莊區"
"242007","413-TV","2018/07/31 17:59:31","新北市新莊區自治街2號","121.453248333333","25.0478233333333","6500500","新莊區"
"242044","400-BY","2018/07/31 17:59:26","新北市新莊區雙鳳路139號","121.412888333333","25.0271333333333","6500500","新莊區"
"242023","362-BY","2018/07/31 17:59:25","新北市新莊區福壽街72號","121.458261666667","25.0493133333333","6500500","新莊區"
"242061","353-BY","2018/07/31 17:59:32","新北市新莊區新樹路479號","121.432661666667","25.01269","6500500","新莊區"
"242009","132-UY","2018/07/31 17:59:26","新北市新莊區中華路二段306號","121.453036666667","25.054055","6500500","新莊區"
"242039","133-UY","2018/07/31 17:59:25","新北市新莊區民安路176號","121.425183333333","25.02397","6500500","新莊區"
"242032","135-UY","2018/07/31 17:59:39","新北市新莊區新泰路289巷38號","121.44378","25.04048","6500500","新莊區"
"242011","173-VK","2018/07/31 17:59:34","新北市新莊區中港路699號","121.450536666667","25.0568816666667","6500500","新莊區"
"242017","175-VK","2018/07/31 17:59:36","新北市新莊區中和街60巷47號","121.449998333333","25.0450266666667","6500500","新莊區"
"242005","176-VK","2018/07/31 17:59:34","新北市新莊區福樂街146號","121.456341666667","25.0480533333333","6500500","新莊區"
"242048","347-TH","2018/07/31 17:59:28","新北市新莊區萬安街47巷3號","121.422143333333","25.0245333333333","6500500","新莊區"
"242021","348-TH","2018/07/31 17:59:39","新北市新莊區建興街5號","121.450191666667","25.03591","6500500","新莊區"
"242002","349-TH","2018/07/31 17:59:25","新北市新莊區大觀街42巷31號","121.454555","25.0364533333333","6500500","新莊區"
"242019","350-TH","2018/07/31 17:59:34","新北市新莊區明中街20號","121.457445","25.0394683333333","6500500","新莊區"
"242013","351-TH","2018/07/31 17:59:28","新北市新莊區中和街125巷6號","121.447133333333","25.04862","6500500","新莊區"
"238015","755-BX","2018/07/31 17:59:20","新北市樹林區文德街2巷17號","121.419728333333","24.9918066666667","6500700","樹林區"
"238023","601-UM","2018/07/31 17:59:33","新北市樹林區福興街36號","121.403895","25.0153066666667","6500700","樹林區"
"238019","599-UM","2018/07/31 17:59:22","新北市樹林區忠孝街4號","121.4232","24.98289","6500700","樹林區"
"238018","571-TV","2018/07/31 17:59:21","新北市樹林區樹新路227號","121.43114","25.0006","6500700","樹林區"
"238024","5061-A6","2018/07/31 17:59:38","新北市樹林區保安街一段294巷40號","121.420945","24.99777","6500700","樹林區"
"238022","KEA-2213","2018/07/31 17:59:33","新北市樹林區太平路150巷7號","121.418053333333","24.977765","6500700","樹林區"
"238021","KEA-2539","2018/07/31 17:59:30","新北市樹林區柑園街一段132巷17號","121.399168333333","24.9584433333333","6500700","樹林區"
"238025","303-VK","2018/07/31 17:59:39","新北市樹林區三俊街74巷11號","121.413613333333","25.0156583333333","6500700","樹林區"
"238017","283-BY","2018/07/31 17:59:37","新北市樹林區三俊街2號","121.410771666667","25.01517","6500700","樹林區"
"238014","282-BY","2018/07/31 17:59:25","新北市樹林區中正路55巷9號","121.426388333333","24.999335","6500700","樹林區"
"238020","268-VK","2018/07/31 17:59:40","新北市樹林區三俊街199巷25號","121.420311666667","25.0171733333333","6500700","樹林區"
"238026","172-UY","2018/07/31 17:59:26","新北市樹林區中山路三段125-10號","121.397325","24.97348","6500700","樹林區"
"238016","169-UY","2018/07/31 17:59:31","新北市樹林區育英街137號","121.419573333333","24.9891166666667","6500700","樹林區"
"239007","AAC-297","2018/07/31 17:59:25","新北市鶯歌區鶯桃路94巷59弄13號","121.341503333333","24.95521","6500800","鶯歌區"
"239006","891-R6","2018/07/31 17:59:29","新北市鶯歌區鶯桃路455巷10弄10號","121.33117","24.9641133333333","6500800","鶯歌區"
"239008","527-UM","2018/07/31 17:59:24","新北市鶯歌區香賓街13巷11號","121.336616666667","24.9798766666667","6500800","鶯歌區"
"239005","526-UM","2018/07/31 17:59:21","新北市鶯歌區鶯桃路668巷73號","121.329985","24.9718583333333","6500800","鶯歌區"
"239001","417-VK","2018/07/31 17:59:37","新北市鶯歌區中正三路106-1號","121.33813","24.9409333333333","6500800","鶯歌區"
"239003","360-BY","2018/07/31 17:59:28","新北市鶯歌區福安街1號","121.333986666667","24.963885","6500800","鶯歌區"
"239002","359-BY","2018/07/31 17:59:30","新北市鶯歌區育英街17巷1弄3號","121.347573333333","24.9552216666667","6500800","鶯歌區"
"239004","193-VK","2018/07/31 17:59:19","新北市鶯歌區文化路146號","121.351905","24.9505516666667","6500800","鶯歌區"
"221008","489-VK","2018/07/31 17:59:39","新北市汐止區明峰街29號","121.634091666667","25.0713683333333","6501100","汐止區"
"221036","130-UY","2018/07/31 17:59:23","新北市汐止區大同路三段56號","121.667571666667","25.07698","6501100","汐止區"
"221015","131-UY","2018/07/31 17:59:23","新北市汐止區長江街321號","121.666461666667","25.081665","6501100","汐止區"
"221010","269-BY","2018/07/31 17:59:40","新北市汐止區汐萬路二段247號","121.646455","25.088245","6501100","汐止區"
"221012","278-VK","2018/07/31 17:59:32","新北市汐止區長興街二段50巷1號","121.674101666667","25.0817083333333","6501100","汐止區"
"221032","280-BY","2018/07/31 17:59:24","新北市汐止區橫科路73巷2-2號","121.619535","25.0505816666667","6501100","汐止區"
"221027","281-BY","2018/07/31 17:59:29","新北市汐止區大同路二段374號","121.657843333333","25.0671416666667","6501100","汐止區"
"221029","298-VK","2018/07/31 17:59:39","新北市汐止區樟樹二路331號","121.641436666667","25.070515","6501100","汐止區"
"221021","299-VK","2018/07/31 17:59:31","新北市汐止區新興路10號","121.656261666667","25.0647733333333","6501100","汐止區"
"221031","353-TW","2018/07/31 17:59:26","新北市汐止區中興路181巷24弄14號","121.6292","25.0666633333333","6501100","汐止區"
"221002","129-UY","2018/07/31 17:59:33","新北市汐止區中興路62號","121.635421666667","25.0614866666667","6501100","汐止區"
"221035","622-UM","2018/07/31 17:59:34","新北市汐止區汐萬路一段143號","121.653498333333","25.071145","6501100","汐止區"
"221025","623-UM","2018/07/31 17:59:33","新北市汐止區仁愛路17號","121.659265","25.0640066666667","6501100","汐止區"
"221038","646-BX","2018/07/31 17:59:37","新北市汐止區連興街128巷7弄10號","121.653438333333","25.0612983333333","6501100","汐止區"
"221033","647-BX","2018/07/31 17:59:32","新北市汐止區合順街39巷1號","121.620566666667","25.0433066666667","6501100","汐止區"
"221018","753-BX","2018/07/31 17:59:27","新北市汐止區招商街3號","121.666436666667","25.0689916666667","6501100","汐止區"
"242015","281-VK","2018/07/31 17:59:37","新北市新莊區中平路87巷3號","121.444543333333","25.0457833333333","6500500","新莊區"
"235061","KEA-2875","2018/07/31 17:59:17","新北市中和區員山路36巷16-2號","121.485283333333","24.9917283333333","6500300","中和區"
