"lineid","car","time","location","longitude","latitude","cityid","cityname"
"234046","148-BY","2018/07/31 18:49:34","新北市永和區秀朗路二段170號","121.526068333333","25.0013916666667","6500400","永和區"
"234007","207-UY","2018/07/31 18:49:31","新北市永和區文化路123號","121.512261666667","25.015325","6500400","永和區"
"234081","298-R6","2018/07/31 18:49:44","新北市永和區永亨路98號","121.522993333333","25.004685","6500400","永和區"
"234064","337-UY","2018/07/31 18:49:38","新北市永和區福和路1號","121.526531666667","25.0100566666667","6500400","永和區"
"234086","338-UY","2018/07/31 18:49:46","新北市永和區中正路17號","121.514076666667","24.9957283333333","6500400","永和區"
"234070","552-UM","2018/07/31 18:49:35","新北市永和區豫溪街207巷22號","121.523396666667","25.0103816666667","6500400","永和區"
"234017","553-UM","2018/07/31 18:49:41","新北市永和區忠孝街26巷27弄1號","121.515203333333","25.0169016666667","6500400","永和區"
"234030","746-BX","2018/07/31 18:49:48","新北市永和區得和路331號","121.523628333333","24.9996483333333","6500400","永和區"
"234054","KEA-2590","2018/07/31 18:49:48","新北市永和區豫溪街193號","121.522686666667","25.010275","6500400","永和區"
"234013","KEA-2591","2018/07/31 18:49:34","新北市永和區仁愛路202巷28號","121.508858333333","25.0130116666667","6500400","永和區"
"234061","AAD-866","2018/07/31 18:49:36","新北市永和區福和路277號","121.517505","25.0073533333333","6500400","永和區"
"234038","847-RS","2018/07/31 18:49:36","新北市永和區成功路一段89號","121.52692","25.0029133333333","6500400","永和區"
"234050","863-TW","2018/07/31 18:49:44","新北市永和區環河東路二段90號","121.524395","25.0106816666667","6500400","永和區"
"234026","9371-KE","2018/07/31 18:49:36","新北市永和區自由街58號","121.513858333333","25.0058933333333","6500400","永和區"
"234011","9373-KE","2018/07/31 18:49:46","新北市永和區永和路二段231巷1號","121.51514","25.0140966666667","6500400","永和區"
"249005","172-UM","2018/07/31 18:49:41","新北市八里區長道坑16-2號","121.394718333333","25.117145","6502300","八里區"
"249001","173-UM","2018/07/31 18:49:46","新北市八里區龍米路二段56號","121.448201666667","25.1408","6502300","八里區"
"248014","025-BX","2018/07/31 18:49:34","新北市五股區民義路一段107巷32號","121.432335","25.08474","6501500","五股區"
"248016","026-BX","2018/07/31 18:49:38","新北市五股區凌雲路一段149巷42號","121.44857","25.1009116666667","6501500","五股區"
"248006","077-UY","2018/07/31 18:49:50","新北市五股區中興路一段171巷63號","121.465453333333","25.0706333333333","6501500","五股區"
"248008","095-VK","2018/07/31 18:49:46","新北市五股區中興路一段151巷7弄1號","121.465226666667","25.0727516666667","6501500","五股區"
"248020","225-UY","2018/07/31 18:49:33","新北市五股區凌雲路三段82-1號","121.431753333333","25.11733","6501500","五股區"
"248012","247-BX","2018/07/31 18:49:40","新北市五股區成泰路二段147巷34-1號","121.43707","25.0884233333333","6501500","五股區"
"248010","272-BY","2018/07/31 18:49:42","新北市五股區水碓一路61號","121.431568333333","25.0724666666667","6501500","五股區"
"248004","677-BX","2018/07/31 18:49:44","新北市五股區民義路二段41號","121.413958333333","25.1013916666667","6501500","五股區"
"248002","678-BX","2018/07/31 18:49:38","新北市五股區西雲路243號","121.449128333333","25.0977816666667","6501500","五股區"
"234023","9380-KE","2018/07/31 18:49:44","新北市永和區竹林路119巷28-3號","121.52188","25.011795","6500400","永和區"
"234077","969-R7","2018/07/31 18:49:42","新北市永和區中正路2巷29弄7號","121.513768333333","24.993875","6500400","永和區"
"234074","AAC-211","2018/07/31 18:49:39","新北市永和區福和路1號","121.52662","25.0096366666667","6500400","永和區"
"234067","AAC-212","2018/07/31 18:49:45","新北市永和區中和路625號","121.512911666667","25.0049066666667","6500400","永和區"
"234003","AAC-295","2018/07/31 18:49:34","新北市永和區中正路688號","121.516681666667","25.009545","6500400","永和區"
"232011","375-UM","2018/07/31 18:49:29","新北市坪林區坪林街81號","121.711678333333","24.93697","6502000","坪林區"
"244013","069-UM","2018/07/31 18:49:40","新北市林口區文化一路一段133號","121.37382","25.0717666666667","6501700","林口區"
"244007","080-UY","2018/07/31 18:49:30","新北市林口區太平里2鄰10號","121.37897","25.1145","6501700","林口區"
"244019","403-UM","2018/07/31 18:49:34","新北市林口區麗園二街1巷4-2號","121.377533333333","25.0700583333333","6501700","林口區"
"244009","410-SL","2018/07/31 18:49:41","新北市林口區竹林路430巷1弄11號","121.388415","25.0855616666667","6501700","林口區"
"244023","483-VK","2018/07/31 18:49:40","新北市林口區文化三路二段211巷85號","121.375055","25.0840816666667","6501700","林口區"
"244017","485-VK","2018/07/31 18:49:31","新北市林口區文化二路一段68巷10-3號","121.36627","25.0687516666667","6501700","林口區"
"244011","657-BX","2018/07/31 18:49:43","新北市林口區仁愛路一段285巷116號","121.395121666667","25.0756983333333","6501700","林口區"
"244025","837-TS","2018/07/31 18:49:36","新北市林口區忠孝一路148號","121.360286666667","25.07407","6501700","林口區"
"244021","838-TS","2018/07/31 18:49:29","新北市林口區工四路45號","121.400625","25.0836133333333","6501700","林口區"
"243013","AAD-798","2018/07/31 18:30:12","新北市泰山區明志路三段206巷3號","121.423295","25.0379333333333","6501600","泰山區"
"243016","380-SR","2018/07/31 18:49:43","新北市泰山區明志路一段510號","121.43031","25.054145","6501600","泰山區"
"243015","421-VK","2018/07/31 18:49:46","新北市泰山區美寧街55號","121.430351666667","25.0647483333333","6501600","泰山區"
"243012","646-TV","2018/07/31 18:49:32","新北市泰山區福興三街13號","121.434443333333","25.0577983333333","6501600","泰山區"
"243014","680-BX","2018/07/31 18:49:06","新北市泰山區犁頭窠3-1號","121.422333333333","25.0605416666667","6501600","泰山區"
"222003","436-BY","2018/07/31 18:49:50","新北市深坑區深南路31號","121.620011666667","25.0096766666667","6501800","深坑區"
"222002","659-BX","2018/07/31 18:49:44","新北市深坑區文山路一段69號","121.626976666667","25.0019183333333","6501800","深坑區"
"231041","002-UM","2018/07/31 18:49:40","新北市新店區安華路28-1號","121.519778333333","24.96078","6500600","新店區"
"231059","046-UY","2018/07/31 18:49:39","新北市新店區安華路28-1號","121.519741666667","24.96075","6500600","新店區"
"231040","047-UY","2018/07/31 18:49:47","新北市新店區中央路175-3號","121.534915","24.96974","6500600","新店區"
"231044","106-UY","2018/07/31 18:49:34","新北市新店區寶中路72號","121.547913333333","24.9806316666667","6500600","新店區"
"231046","107-UY","2018/07/31 18:49:46","新北市新店區直潭路43號","121.533461666667","24.9425333333333","6500600","新店區"
"231053","108-UY","2018/07/31 18:49:41","新北市新店區新烏路二段2號","121.543195","24.929735","6500600","新店區"
"231048","187-VK","2018/07/31 18:49:38","新北市新店區北新路一段285號","121.541268333333","24.966865","6500600","新店區"
"231054","KEA-2219","2018/07/31 18:49:33","新北市新店區安康路一段89號","121.529226666667","24.9614883333333","6500600","新店區"
"231042","268-BY","2018/07/31 18:49:40","新北市新店區光明街159號","121.539491666667","24.9624666666667","6500600","新店區"
"231051","278-BY","2018/07/31 18:49:45","新北市新店區中央路63號","121.532516666667","24.9770366666667","6500600","新店區"
"231050","AAD-862","2018/07/31 18:49:42","新北市新店區秀山路66號","121.530853333333","24.9609583333333","6500600","新店區"
"231058","3713-VJ","2018/07/31 18:49:34","新北市新店區中興路一段222號","121.544271666667","24.9663533333333","6500600","新店區"
"231066","4716-K9","2018/07/31 18:49:35","新北市新店區安一路一段1-1號","121.5192","24.9613866666667","6500600","新店區"
"231056","4715-K9","2018/07/31 18:49:31","新北市新店區大同街25號","121.538728333333","24.98068","6500600","新店區"
"231067","4772-VM","2018/07/31 18:49:35","新北市新店區安華路3號","121.51899","24.9603116666667","6500600","新店區"
"231065","512-UM","2018/07/31 18:49:35","新北市新店區車子路20號","121.505443333333","24.9546033333333","6500600","新店區"
"231049","513-UM","2018/07/31 18:49:35","新北市新店區秀山路68-1號","121.531025","24.9609766666667","6500600","新店區"
"231063","616-UM","2018/07/31 18:49:50","新北市新店區安華路28-1號","121.519548333333","24.9605833333333","6500600","新店區"
"231045","617-UM","2018/07/31 18:49:46","新北市新店區安康路一段75號","121.530175","24.96111","6500600","新店區"
"231061","619-UM","2018/07/31 18:49:48","新北市新店區安華路28-1號","121.519385","24.9609483333333","6500600","新店區"
"231039","718-UY","2018/07/31 18:49:48","新北市新店區建國路94號","121.540103333333","24.977655","6500600","新店區"
"231064","719-UM","2018/07/31 18:49:38","新北市新店區安一路一段1-1號","121.51938","24.9611483333333","6500600","新店區"
"231062","720-UM","2018/07/31 18:49:47","新北市新店區安一路一段1-1號","121.519131666667","24.9616116666667","6500600","新店區"
"231060","897-TW","2018/07/31 18:49:42","新北市新店區安華路28-1號","121.51965","24.9608083333333","6500600","新店區"
"231043","899-TW","2018/07/31 18:49:28","新北市新店區安康路一段226號","121.523526666667","24.9635483333333","6500600","新店區"
"231055","AKT-0513","2018/07/31 18:49:35","新北市新店區新生街13巷19號","121.539105","24.9657483333333","6500600","新店區"
"241035","KEA-2210","2018/07/31 18:49:42","新北市三重區重新路四段121號","121.484961666667","25.0521933333333","6500200","三重區"
"235066","003-UY","2018/07/31 18:49:34","新北市中和區水源路18巷1弄1號","121.504126666667","25.003425","6500300","中和區"
"235064","005-UY","2018/07/31 18:49:30","新北市中和區連城路75巷2-12號","121.497743333333","24.9994433333333","6500300","中和區"
"235063","006-UY","2018/07/31 18:49:46","新北市中和區連城路319巷5弄1號","121.489233333333","24.9953733333333","6500300","中和區"
"235056","096-UM","2018/07/31 18:49:38","新北市中和區員山路514號","121.47905","25.0092133333333","6500300","中和區"
"235039","097-UM","2018/07/31 18:49:35","新北市中和區安樂路217巷67弄12號","121.513335","24.996885","6500300","中和區"
"235065","098-UM","2018/07/31 18:49:32","新北市中和區中山路二段2巷43號","121.502496666667","25.0070316666667","6500300","中和區"
"235040","150-BY","2018/07/31 18:49:36","新北市中和區保健路93號","121.511225","24.9966066666667","6500300","中和區"
"235058","151-BY","2018/07/31 18:49:44","新北市中和區連城路506號","121.477365","24.9924216666667","6500300","中和區"
"235055","183-VK","2018/07/31 18:49:28","新北市中和區民生街4號","121.47114","25.006355","6500300","中和區"
"235038","185-VK","2018/07/31 18:49:48","新北市中和區大勇街43巷2號","121.517788333333","24.9947333333333","6500300","中和區"
"235049","186-VK","2018/07/31 18:49:42","新北市中和區景安路177巷15號","121.505983333333","24.9943116666667","6500300","中和區"
"235067","255-BX","2018/07/31 18:49:38","新北市中和區中山路二段449巷1弄6號","121.483813333333","25.0041433333333","6500300","中和區"
"235044","293-VK","2018/07/31 18:49:43","新北市中和區中興街127號","121.50005","24.991705","6500300","中和區"
"235072","301-VK","2018/07/31 18:49:51","新北市中和區中山路二段4號","121.505253333333","25.0057666666667","6500300","中和區"
"235043","352-BY","2018/07/31 18:49:45","新北市中和區景平路25號","121.522438333333","24.9904216666667","6500300","中和區"
"247010","KEA-2869","2018/07/31 18:49:34","新北市五股區中興路三段2巷10號","121.447663333333","25.0832416666667","6501400","蘆洲區"
"235050","4979-A6","2018/07/31 18:49:43","新北市中和區忠孝街62巷40號","121.512956666667","24.9836883333333","6500300","中和區"
"235069","4980-A6","2018/07/31 18:49:46","新北市中和區圓通路50號","121.500726666667","24.9975583333333","6500300","中和區"
"235070","558-UM","2018/07/31 18:49:50","新北市中和區中和路203號","121.50372","24.99987","6500300","中和區"
"235054","640-BX","2018/07/31 18:49:37","新北市中和區民享街50號","121.47404","25.0025733333333","6500300","中和區"
"235060","647-TV","2018/07/31 18:49:39","新北市中和區中山路三段160號","121.473125","25.0064083333333","6500300","中和區"
"235047","732-UM","2018/07/31 18:49:48","新北市中和區興南路二段34巷71號","121.504941666667","24.98501","6500300","中和區"
"235046","733-UM","2018/07/31 18:49:39","新北市中和區仁愛街36巷42號","121.511368333333","24.9863666666667","6500300","中和區"
"235062","800-TS","2018/07/31 18:49:43","新北市中和區中山路二段312巷35號","121.49507","25.0038216666667","6500300","中和區"
"235057","801-TS","2018/07/31 18:49:49","新北市中和區民安街25巷15號","121.480583333333","25.0001566666667","6500300","中和區"
"235041","802-TS","2018/07/31 18:49:45","新北市中和區中安街226號","121.512341666667","24.9987566666667","6500300","中和區"
"235052","805-TS","2018/07/31 18:49:45","新北市中和區興南路二段399巷98弄48號","121.498726666667","24.9767966666667","6500300","中和區"
"235048","896-TW","2018/07/31 18:49:35","新北市中和區華新街13號","121.507535","24.985125","6500300","中和區"
"235053","900-TW","2018/07/31 18:49:45","新北市中和區華福街36號","121.466218333333","24.9965666666667","6500300","中和區"
"235051","157-BY","2018/07/31 18:49:36","新北市中和區忠孝街28號","121.510581666667","24.98316","6500300","中和區"
"235037","AAC-213","2018/07/31 18:49:43","新北市中和區秀朗路三段128巷1弄2號","121.524623333333","24.992435","6500300","中和區"
"235059","AAC-215","2018/07/31 18:49:43","新北市中和區圓通路393巷22號","121.48992","24.988485","6500300","中和區"
"220065","072-UY","2018/07/31 18:49:38","新北市板橋區民族路219巷100號","121.469971666667","25.0087","6500100","板橋區"
"220086","073-UY","2018/07/31 18:49:36","新北市板橋區大智街53-1號","121.454115","25.0153966666667","6500100","板橋區"
"220106","075-UY","2018/07/31 18:49:42","新北市板橋區民生路二段161巷5號","121.470013333333","25.0196333333333","6500100","板橋區"
"220069","AAD-861","2018/07/31 18:49:43","新北市板橋區南雅南路一段1巷42號","121.457651666667","25.0062983333333","6500100","板橋區"
"226004","205-ST","2018/07/31 18:49:34","新北市平溪區平溪里平溪街22號","121.738838333333","25.0253833333333","6502400","平溪區"
"235045","251-BX","2018/07/31 18:49:33","新北市中和區景安路209號","121.504548333333","24.9918033333333","6500300","中和區"
"228001","212-TW","2018/07/31 18:49:38","新北市貢寮區仁理村研海街12-1號","121.923773333333","25.0516633333333","6502600","貢寮區"
"228002","663-BX","2018/07/31 18:49:50","新北市貢寮區福隆里東興街6-11號","121.95078","25.0210816666667","6502600","貢寮區"
"228003","828-UM","2018/07/31 18:49:36","新北市貢寮區和美里龍洞街63-7號","121.917596666667","25.1186416666667","6502600","貢寮區"
"224006","676-BX","2018/07/31 18:49:48","新北市瑞芳區中正路80-2號","121.8055","25.1076066666667","6501200","瑞芳區"
"224002","639-TC","2018/07/31 18:49:41","新北市瑞芳區傑魚坑路311-1號","121.794413333333","25.1074883333333","6501200","瑞芳區"
"224008","285-BY","2018/07/31 18:49:42","新北市瑞芳區逢甲路223號","121.803088333333","25.11169","6501200","瑞芳區"
"224007","275-VK","2018/07/31 18:49:46","新北市瑞芳區大埔路慶安新村5號","121.762251666667","25.100505","6501200","瑞芳區"
"224009","273-VK","2018/07/31 18:49:36","新北市瑞芳區五號路306-4號","121.857041666667","25.1116666666667","6501200","瑞芳區"
"224005","271-BY","2018/07/31 18:49:31","新北市瑞芳區海濱路157-2號","121.82855","25.1213516666667","6501200","瑞芳區"
"227009","642-TC","2018/07/31 18:49:46","新北市雙溪區牡丹里聖南31-1號","121.855936666667","25.0539616666667","6502500","雙溪區"
"227003","400-TW","2018/07/31 18:49:40","新北市雙溪區平林里梅竹蹊28號","121.861636666667","25.0360183333333","6502500","雙溪區"
"253005","032-BX","2018/07/31 18:49:34","新北市石門區中山路28-3號","121.565783333333","25.2897783333333","6502200","石門區"
"253006","295-VK","2018/07/31 18:49:48","新北市石門區下員坑33-2號","121.519358333333","25.28268","6502200","石門區"
"222001","KEA-2212","2018/07/31 18:49:34","新北市深坑區松柏街33號","121.638583333333","25.0113333333333","6501800","深坑區"
"208002","KEA-2872","2018/07/31 18:49:36","新北市金山區信義路62號","121.635715","25.2189183333333","6502700","金山區"
"208003","665-BX","2018/07/31 18:49:28","新北市金山區中山路393號","121.633376666667","25.225235","6502700","金山區"
"208001","761-BX","2018/07/31 18:49:35","新北市金山區文化三路66巷1號","121.634125","25.22568","6502700","金山區"
"251001","011-UM","2018/07/31 18:49:42","新北市淡水區自強路269號","121.462716666667","25.1280166666667","6501000","淡水區"
"251002","012-UM","2018/07/31 18:49:43","新北市淡水區學府路67號","121.448288333333","25.1696766666667","6501000","淡水區"
"251013","KEA-2871","2018/07/31 18:49:48","新北市淡水區小坑子頭2-1號","121.482346666667","25.2128266666667","6501000","淡水區"
"251016","179-VK","2018/07/31 18:49:32","新北市淡水區下圭柔山71-3號","121.447015","25.2062083333333","6501000","淡水區"
"251014","180-VK","2018/07/31 18:49:32","新北市淡水區崙頂2-3號","121.49191","25.2240516666667","6501000","淡水區"
"251008","181-VK","2018/07/31 18:49:46","新北市淡水區崁頂57-12號","121.443885","25.197035","6501000","淡水區"
"251015","182-VK","2018/07/31 18:49:41","新北市淡水區興福寮100號","121.487491666667","25.16457","6501000","淡水區"
"251010","413-VK","2018/07/31 18:49:47","新北市淡水區沙崙路11號","121.421085","25.1813066666667","6501000","淡水區"
"251012","441-VK","2018/07/31 18:49:48","新北市淡水區新興街23號","121.442758333333","25.1802383333333","6501000","淡水區"
"251007","442-VK","2018/07/31 18:49:32","新北市淡水區中正東路二段143巷2弄1號","121.460601666667","25.1473933333333","6501000","淡水區"
"251009","575-R6","2018/07/31 18:49:31","新北市淡水區重建街122號","121.440348333333","25.173065","6501000","淡水區"
"251011","650-BX","2018/07/31 18:49:44","新北市淡水區學府路4號","121.447501666667","25.16775","6501000","淡水區"
"251003","673-BX","2018/07/31 18:49:43","新北市淡水區中山北路一段186巷24號","121.44621","25.1786633333333","6501000","淡水區"
"207003","550-UM","2018/07/31 18:49:38","新北市萬里區大鵬里頂社1號","121.657003333333","25.20973","6502800","萬里區"
"207004","291-VK","2018/07/31 18:49:33","新北市萬里區萬里里獅頭路23號","121.693225","25.1782966666667","6502800","萬里區"
"252002","178-VK","2018/07/31 18:49:34","新北市三芝區中正路一段112號","121.504846666667","25.25638","6502100","三芝區"
"252003","249-BX","2018/07/31 18:49:50","新北市三芝區後厝里大片頭81-1號","121.459175","25.2446616666667","6502100","三芝區"
"252001","292-VK","2018/07/31 18:49:30","新北市三芝區中正路三段7號","121.502925","25.2540633333333","6502100","三芝區"
"237004","KEA-2597","2018/07/31 18:49:45","新北市三峽區有木111-1號","121.434991666667","24.85907","6500900","三峽區"
"237007","153-BY","2018/07/31 18:49:40","新北市三峽區中正路二段399號","121.364928333333","24.90744","6500900","三峽區"
"237013","252-BX","2018/07/31 18:49:37","新北市三峽區光明路69巷25號","121.376728333333","24.9292283333333","6500900","三峽區"
"237012","275-BY","2018/07/31 18:49:30","新北市三峽區三樹路342-1號","121.383205","24.9437733333333","6500900","三峽區"
"237008","302-VK","2018/07/31 18:49:39","新北市三峽區白雞33-60號","121.370896666667","24.9131183333333","6500900","三峽區"
"237014","433-BY","2018/07/31 18:49:45","新北市三峽區隆恩街158巷68號","121.364753333333","24.9447816666667","6500900","三峽區"
"237006","5529-G3","2018/07/31 18:49:44","新北市三峽區溪東路233巷47弄2號","121.410596666667","24.9346883333333","6500900","三峽區"
"237011","KEA-2596","2018/07/31 18:49:43","新北市三峽區介壽路三段245號","121.407835","24.9496033333333","6500900","三峽區"
"237016","649-BX","2018/07/31 18:49:37","新北市三峽區竹崙路89號","121.432336666667","24.9187516666667","6500900","三峽區"
"237010","706-TV","2018/07/31 18:49:45","新北市三峽區國光街322號","121.371956666667","24.9394133333333","6500900","三峽區"
"237005","AKY-6261","2018/07/31 18:49:37","新北市三峽區中山路169巷12-19號","121.363538333333","24.9355783333333","6500900","三峽區"
"236070","105-UM","2018/07/31 18:49:38","新北市土城區延和路20號","121.464435","24.9882516666667","6501300","土城區"
"236042","107-UM","2018/07/31 18:49:32","新北市土城區裕民路111號","121.451095","24.986695","6501300","土城區"
"236079","166-UM","2018/07/31 18:49:47","新北市土城區中央路四段67巷6號","121.417805","24.9574616666667","6501300","土城區"
"236030","253-BX","2018/07/31 18:49:47","新北市土城區忠義路26巷10號","121.43983","24.9699266666667","6501300","土城區"
"236026","269-VK","2018/07/31 18:49:47","新北市土城區興城路60號","121.441175","24.9724066666667","6501300","土城區"
"236014","270-VK","2018/07/31 18:49:43","新北市土城區金城路二段354巷20號","121.460715","24.98413","6501300","土城區"
"236038","271-VK","2018/07/31 18:49:41","新北市土城區明德路一段237號","121.462818333333","24.9782366666667","6501300","土城區"
"236021","401-BY","2018/07/31 18:49:28","新北市土城區延吉街194號","121.467673333333","24.9851","6501300","土城區"
"236059","912-UM","2018/07/31 18:49:47","新北市土城區金城路一段32號","121.441513333333","24.9697783333333","6501300","土城區"
"236049","913-UM","2018/07/31 18:49:49","新北市土城區青雲路38號","121.459963333333","24.9885933333333","6501300","土城區"
"236063","915-UM","2018/07/31 18:49:48","新北市土城區金城路三段161號","121.468961666667","24.988435","6501300","土城區"
"236055","AAC-216","2018/07/31 18:49:32","新北市土城區裕民路191號","121.453586666667","24.9842816666667","6501300","土城區"
"242058","986-R7","2018/07/31 18:49:42","新北市泰山區中山路二段435-6號","121.432845","25.044355","6500500","新莊區"
"242039","133-UY","2018/07/31 18:49:45","新北市樹林區八德街278號","121.410913333333","24.97007","6500500","新莊區"
"238023","601-UM","2018/07/31 18:49:43","桃園市龜山區萬壽路一段424號","121.399526666667","25.0164133333333","6500700","樹林區"
"238019","599-UM","2018/07/31 18:49:42","新北市樹林區東榮街147巷27弄1號","121.414696666667","24.9806866666667","6500700","樹林區"
"238022","KEA-2213","2018/07/31 18:49:33","新北市樹林區東順街34號","121.411531666667","24.97834","6500700","樹林區"
"238025","303-VK","2018/07/31 18:49:39","新北市樹林區中山路三段22號","121.395621666667","24.9729683333333","6500700","樹林區"
"238017","283-BY","2018/07/31 18:49:37","新北市樹林區光興街50號","121.409835","25.002765","6500700","樹林區"
"238014","282-BY","2018/07/31 18:49:45","新北市樹林區潭興街143巷20號","121.425133333333","24.9999233333333","6500700","樹林區"
"238020","268-VK","2018/07/31 18:49:40","新北市樹林區俊英街79號","121.42609","25.00756","6500700","樹林區"
"238026","172-UY","2018/07/31 18:49:46","新北市樹林區中和街20號","121.39061","24.97346","6500700","樹林區"
"238016","169-UY","2018/07/31 18:49:11","新北市樹林區文化街18號","121.419635","24.9876616666667","6500700","樹林區"
"239007","AAC-297","2018/07/31 18:49:45","新北市鶯歌區中正一路建德巷38號","121.364501666667","24.9578066666667","6500800","鶯歌區"
"239006","891-R6","2018/07/31 18:49:48","新北市鶯歌區鶯桃路296巷68號","121.336458333333","24.9615","6500800","鶯歌區"
"239008","527-UM","2018/07/31 18:49:38","新北市鶯歌區國際一路179號","121.336156666667","24.9763316666667","6500800","鶯歌區"
"239005","526-UM","2018/07/31 18:49:41","新北市鶯歌區大湖路361巷28號","121.330565","24.977905","6500800","鶯歌區"
"239001","417-VK","2018/07/31 18:49:37","新北市鶯歌區永明街58號","121.33999","24.95619","6500800","鶯歌區"
"239003","360-BY","2018/07/31 18:49:27","新北市鶯歌區鶯桃路658巷4號","121.329413333333","24.9694316666667","6500800","鶯歌區"
"239002","359-BY","2018/07/31 18:49:30","新北市鶯歌區中山路202號","121.345906666667","24.9569933333333","6500800","鶯歌區"
"239004","193-VK","2018/07/31 18:49:46","新北市鶯歌區中正三路192號","121.332795","24.9383466666667","6500800","鶯歌區"
"221008","489-VK","2018/07/31 18:49:38","新北市汐止區康寧街901號","121.651431666667","25.0750533333333","6501100","汐止區"
"221036","130-UY","2018/07/31 18:49:43","新北市汐止區忠孝東路314巷13號","121.664471666667","25.0687066666667","6501100","汐止區"
"221015","131-UY","2018/07/31 18:49:43","新北市汐止區鄉長路一段43號","121.665441666667","25.0753083333333","6501100","汐止區"
"221010","269-BY","2018/07/31 18:49:40","新北市汐止區康寧街901號","121.651613333333","25.0749633333333","6501100","汐止區"
"221012","278-VK","2018/07/31 18:49:47","新北市汐止區康寧街901號","121.65078","25.07528","6501100","汐止區"
"221023","279-VK","2018/07/31 18:49:45","新北市汐止區康寧街901號","121.651001666667","25.075255","6501100","汐止區"
"221032","280-BY","2018/07/31 18:49:44","新北市汐止區橫科路121巷52弄3號","121.62265","25.0509333333333","6501100","汐止區"
"221027","281-BY","2018/07/31 18:49:48","新北市汐止區康寧街901號","121.651368333333","25.0749983333333","6501100","汐止區"
"221029","298-VK","2018/07/31 18:49:39","新北市汐止區樟樹一路89號","121.641928333333","25.0631483333333","6501100","汐止區"
"221021","299-VK","2018/07/31 18:49:31","新北市汐止區康寧街901號","121.651545","25.0750083333333","6501100","汐止區"
"221031","353-TW","2018/07/31 18:49:45","新北市汐止區福德一路300巷51號","121.630256666667","25.0646716666667","6501100","汐止區"
"221002","129-UY","2018/07/31 18:49:33","新北市汐止區大同路一段203號","121.633508333333","25.0572783333333","6501100","汐止區"
"221035","622-UM","2018/07/31 18:49:36","新北市汐止區禮門街17號","121.656611666667","25.0675916666667","6501100","汐止區"
"221025","623-UM","2018/07/31 18:49:33","新北市汐止區仁愛路55號","121.660356666667","25.0629433333333","6501100","汐止區"
"221038","646-BX","2018/07/31 18:49:37","新北市汐止區汐萬路一段312號","121.650665","25.075255","6501100","汐止區"
"221033","647-BX","2018/07/31 18:49:32","新北市汐止區南勢街1巷1號","121.627055","25.0374033333333","6501100","汐止區"
"221018","753-BX","2018/07/31 18:49:48","新北市汐止區水源路一段3號","121.657213333333","25.0671366666667","6501100","汐止區"
"220080","200-UY","2018/07/31 18:49:43","新北市板橋區大觀路二段265巷60弄23號","121.44209","24.99789","6500100","板橋區"
"220082","610-BX","2018/07/31 18:49:49","新北市板橋區篤行路三段玉平巷51號","121.42854","24.9867033333333","6500100","板橋區"
"220079","256-TC","2018/07/31 18:49:40","新北市板橋區民權路202巷7弄15號","121.459471666667","25.0149116666667","6500100","板橋區"
"220103","257-TC","2018/07/31 18:49:39","新北市板橋區民生路二段89-6號","121.47054","25.0188233333333","6500100","板橋區"
"220056","276-BY","2018/07/31 18:49:34","新北市土城區四川路16號","121.45548","24.9960116666667","6500100","板橋區"
"220072","277-BY","2018/07/31 18:49:45","新北市板橋區大觀路三段36巷30弄3號","121.434156666667","24.9965033333333","6500100","板橋區"
"220071","283-VK","2018/07/31 18:49:46","新北市板橋區忠孝路101號","121.462431666667","25.0022866666667","6500100","板橋區"
"220083","286-VK","2018/07/31 18:49:44","新北市板橋區僑中一街128號","121.445705","25.01175","6500100","板橋區"
"220081","287-VK","2018/07/31 18:49:34","新北市板橋區光華街13巷2-3號","121.454086666667","25.01161","6500100","板橋區"
"220090","288-VK","2018/07/31 18:49:48","新北市板橋區民生路二段120號","121.470615","25.0195816666667","6500100","板橋區"
"220061","293-UM","2018/07/31 18:49:44","新北市板橋區民生路二段123號","121.470681666667","25.0185716666667","6500100","板橋區"
"220062","295-UM","2018/07/31 18:49:48","新北市板橋區中山路二段27號","121.472601666667","25.0153783333333","6500100","板橋區"
"220084","296-UM","2018/07/31 18:49:32","新北市板橋區大觀路二段148巷1-1號","121.44167","24.9991216666667","6500100","板橋區"
"220075","303-R5","2018/07/31 18:49:39","新北市板橋區館前西路221號","121.454286666667","25.0087766666667","6500100","板橋區"
"220064","486-VK","2018/07/31 18:49:40","新北市板橋區中山路二段37號","121.473063333333","25.0154983333333","6500100","板橋區"
"220035","560-BX","2018/07/31 18:49:32","新北市板橋區中正路275巷59-4號","121.452966666667","25.0179666666667","6500100","板橋區"
"220063","609-BX","2018/07/31 18:49:45","新北市板橋區民生路二段89號","121.471595","25.0174033333333","6500100","板橋區"
"220091","637-BX","2018/07/31 18:49:48","新北市板橋區民生路二段161巷1號","121.469916666667","25.0200916666667","6500100","板橋區"
"220057","686-BX","2018/07/31 18:49:51","新北市板橋區南雅南路一段1巷1弄5號","121.457336666667","25.006155","6500100","板橋區"
"220077","687-BX","2018/07/31 18:49:45","新北市板橋區龍興街99巷1號","121.444236666667","25.0028366666667","6500100","板橋區"
"220093","689-BX","2018/07/31 18:49:44","新北市板橋區民生路二段188號","121.470155","25.0203716666667","6500100","板橋區"
"220054","741-BX","2018/07/31 18:49:33","新北市板橋區館前東路13號","121.459936666667","25.007285","6500100","板橋區"
"220102","KEA-2699","2018/07/31 18:49:46","新北市板橋區民生路二段120號","121.470495","25.0197083333333","6500100","板橋區"
"220055","827-TW","2018/07/31 18:49:47","新北市板橋區縣民大道一段286號","121.461335","25.0100033333333","6500100","板橋區"
"220067","829-TW","2018/07/31 18:49:41","新北市板橋區三民路二段正隆巷60號","121.476665","25.0142883333333","6500100","板橋區"
"220068","830-TW","2018/07/31 18:49:30","新北市板橋區三民路一段120號","121.479228333333","25.0208133333333","6500100","板橋區"
"220074","895-R6","2018/07/31 18:49:45","新北市板橋區林園街56號","121.453826666667","25.0107866666667","6500100","板橋區"
"220073","985-R7","2018/07/31 18:49:32","新北市板橋區光華街1號","121.454156666667","25.0111833333333","6500100","板橋區"
"220070","AAC-253","2018/07/31 18:49:30","新北市板橋區縣民大道一段110號","121.457048333333","25.0057716666667","6500100","板橋區"
"235068","KEA-2873","2018/07/31 18:49:24","新北市中和區中正路211巷13弄38號","121.497921666667","24.9933166666667","6500300","中和區"
"235061","KEA-2875","2018/07/31 18:49:47","新北市中和區民享街54巷17號","121.473231666667","25.0022983333333","6500300","中和區"
