"lineid","car","time","location","longitude","latitude","cityid","cityname"
"234007","207-UY","2018/07/31 20:19:52","新北市永和區環河西路二段225號","121.501005","25.01014","6500400","永和區"
"234081","298-R6","2018/07/31 20:19:44","新北市永和區國中路104巷2弄1號","121.524468333333","25.0067516666667","6500400","永和區"
"234064","337-UY","2018/07/31 20:19:38","新北市永和區得和路119號","121.518678333333","25.0002316666667","6500400","永和區"
"234086","338-UY","2018/07/31 20:19:47","新北市永和區永和路二段147號","121.515023333333","25.0127133333333","6500400","永和區"
"234070","552-UM","2018/07/31 20:19:35","新北市永和區福和路263巷7弄1號","121.517901666667","25.0069433333333","6500400","永和區"
"234017","553-UM","2018/07/31 20:19:41","新北市永和區仁愛路44號","121.51418","25.013405","6500400","永和區"
"234030","746-BX","2018/07/31 20:19:48","新北市永和區民有街71號","121.51801","24.9957683333333","6500400","永和區"
"234054","KEA-2590","2018/07/31 20:19:48","新北市永和區光復街2巷26弄1號","121.517621666667","25.016555","6500400","永和區"
"234013","KEA-2591","2018/07/31 20:19:34","新北市永和區仁愛路282巷12號","121.503323333333","25.0086816666667","6500400","永和區"
"234061","AAD-866","2018/07/31 20:19:48","新北市永和區得和路29號","121.51576","25.000415","6500400","永和區"
"234038","847-RS","2018/07/31 20:19:36","新北市永和區成功路一段93巷16號","121.52775","25.0026866666667","6500400","永和區"
"234042","862-TW","2018/07/31 20:19:45","新北市中和區中安街166號","121.510833333333","25.0000966666667","6500400","永和區"
"234050","863-TW","2018/07/31 20:19:44","新北市永和區文化路230號","121.509773333333","25.0169483333333","6500400","永和區"
"234011","9373-KE","2018/07/31 20:19:46","新北市永和區仁愛路352巷122弄13號","121.500758333333","25.0088266666667","6500400","永和區"
"249005","172-UM","2018/07/31 20:19:41","新北市八里區中山路三段131號","121.38865","25.1423666666667","6502300","八里區"
"249001","173-UM","2018/07/31 20:19:38","新北市八里區中華路二段538號","121.399073333333","25.1450433333333","6502300","八里區"
"249004","303-UY","2018/07/31 20:19:33","新北市八里區中山路一段129巷27號","121.413998333333","25.1585583333333","6502300","八里區"
"249002","305-UY","2018/07/31 20:19:35","新北市八里區龍米路一段100巷3號","121.453538333333","25.12504","6502300","八里區"
"249003","593-UM","2018/07/31 20:19:41","新北市八里區中山路二段447巷22號","121.397235","25.14506","6502300","八里區"
"248016","026-BX","2018/07/31 20:19:37","新北市五股區凌雲路一段158巷18號","121.448416666667","25.1034533333333","6501500","五股區"
"248012","247-BX","2018/07/31 20:19:40","新北市五股區六合街103號","121.43004","25.089855","6501500","五股區"
"248010","272-BY","2018/07/31 20:19:38","新北市五股區新五路二段2巷26-1號","121.439878333333","25.0679083333333","6501500","五股區"
"248002","678-BX","2018/07/31 20:19:38","新北市五股區成泰路三段165號","121.44527","25.091825","6501500","五股區"
"234023","9380-KE","2018/07/31 20:19:44","新北市永和區復興街1巷4號","121.51582","25.0129383333333","6500400","永和區"
"234077","969-R7","2018/07/31 20:19:42","新北市永和區民享街18號","121.515421666667","24.9951116666667","6500400","永和區"
"234074","AAC-211","2018/07/31 20:19:39","新北市永和區豫溪街160巷4號","121.523258333333","25.0095366666667","6500400","永和區"
"234067","AAC-212","2018/07/31 20:19:45","新北市永和區保平路266號","121.508718333333","25.0052066666667","6500400","永和區"
"234003","AAC-295","2018/07/31 20:19:34","新北市永和區自強街35號","121.515811666667","25.00803","6500400","永和區"
"244023","483-VK","2018/07/31 20:19:40","新北市林口區粉寮路二段20號","121.40249","25.0860383333333","6501700","林口區"
"243013","AAD-798","2018/07/31 20:19:33","新北市泰山區新民路14巷1號","121.426531666667","25.0447566666667","6501600","泰山區"
"243009","297-R6","2018/07/31 20:19:39","新北市泰山區福泰街2號","121.432585","25.0602983333333","6501600","泰山區"
"243016","380-SR","2018/07/31 20:19:43","新北市泰山區明志路三段98號","121.425053333333","25.0410716666667","6501600","泰山區"
"243015","421-VK","2018/07/31 20:19:46","新北市泰山區仁愛路61號","121.432915","25.05536","6501600","泰山區"
"243011","KEA-2215","2018/07/31 20:19:37","新北市泰山區壽山路56號","121.419988333333","25.0293516666667","6501600","泰山區"
"243010","KEA-2216","2018/07/31 20:19:38","新北市泰山區明志路二段254巷14號","121.426208333333","25.0479783333333","6501600","泰山區"
"243012","646-TV","2018/07/31 20:19:32","新北市泰山區楓江路169號","121.440318333333","25.0664916666667","6501600","泰山區"
"243014","680-BX","2018/07/31 20:19:46","新北市泰山區泰林路二段262號","121.431645","25.0623083333333","6501600","泰山區"
"222003","436-BY","2018/07/31 20:19:50","新北市深坑區文化街43號","121.617578333333","25.0017783333333","6501800","深坑區"
"222002","659-BX","2018/07/31 20:19:44","新北市深坑區萬福路83號","121.60156","25.0094233333333","6501800","深坑區"
"231041","002-UM","2018/07/31 20:19:40","新北市新店區民權路42號","121.540376666667","24.9829166666667","6500600","新店區"
"231059","046-UY","2018/07/31 20:19:40","新北市新店區安德街81號","121.50967","24.961115","6500600","新店區"
"231040","047-UY","2018/07/31 20:19:47","新北市新店區中正路228號","121.539958333333","24.97281","6500600","新店區"
"231044","106-UY","2018/07/31 20:19:34","新北市新店區北新路三段118號","121.541648333333","24.9817033333333","6500600","新店區"
"231053","108-UY","2018/07/31 20:19:41","新北市新店區松林路6-6號","121.546823333333","24.911085","6500600","新店區"
"231048","187-VK","2018/07/31 20:19:38","新北市新店區寶橋路98號","121.546873333333","24.9758983333333","6500600","新店區"
"231054","KEA-2219","2018/07/31 20:19:33","新北市新店區檳榔路109號","121.544468333333","24.961685","6500600","新店區"
"231057","256-BX","2018/07/31 20:19:43","新北市新店區花園七路一段17號","121.553831666667","24.9348266666667","6500600","新店區"
"231042","268-BY","2018/07/31 20:19:40","新北市新店區中興路二段192號","121.548293333333","24.973365","6500600","新店區"
"231051","278-BY","2018/07/31 20:19:45","新北市新店區溪園路459號","121.525166666667","24.97732","6500600","新店區"
"231050","AAD-862","2018/07/31 20:19:42","新北市新店區博愛街6巷1號","121.541101666667","24.973245","6500600","新店區"
"231058","3713-VJ","2018/07/31 20:19:34","新北市新店區中正路347號","121.535461666667","24.97577","6500600","新店區"
"231066","4716-K9","2018/07/31 20:19:34","新北市新店區安民街121巷12號","121.515265","24.9692616666667","6500600","新店區"
"231056","4715-K9","2018/07/31 20:19:31","新北市新店區建安街33巷28號","121.538255","24.9753883333333","6500600","新店區"
"231067","4772-VM","2018/07/31 20:19:35","新北市新店區溪洲路54號","121.53276","24.9613616666667","6500600","新店區"
"231065","512-UM","2018/07/31 20:19:34","新北市新店區安祥路104-2號","121.480351666667","24.9624216666667","6500600","新店區"
"231049","513-UM","2018/07/31 20:19:35","新北市新店區北新路一段311-1號","121.541565","24.968035","6500600","新店區"
"231063","616-UM","2018/07/31 20:19:30","新北市新店區薏仁坑路自強巷6號","121.49721","24.9588183333333","6500600","新店區"
"231045","617-UM","2018/07/31 20:19:46","新北市新店區新坡一街80-3號","121.547788333333","24.9643","6500600","新店區"
"231061","619-UM","2018/07/31 20:19:48","新北市新店區安興路33-1號","121.515845","24.9704633333333","6500600","新店區"
"231068","718-UY","2018/07/31 20:19:33","新北市新店區寶安街30號","121.54212","24.98239","6500600","新店區"
"231064","719-UM","2018/07/31 20:19:38","新北市新店區安利街32號","121.519065","24.9747916666667","6500600","新店區"
"231062","720-UM","2018/07/31 20:19:48","新北市新店區安泰路7巷16號","121.48568","24.9509783333333","6500600","新店區"
"231060","897-TW","2018/07/31 20:19:41","新北市新店區錦秀路11巷94弄2號","121.48017","24.9423283333333","6500600","新店區"
"231043","899-TW","2018/07/31 20:19:48","新北市新店區建國路133號","121.539308333333","24.9783216666667","6500600","新店區"
"231055","AKT-0513","2018/07/31 20:19:35","新北市新店區北新路一段91號","121.538721666667","24.9617966666667","6500600","新店區"
"241011","013-R5","2018/07/31 20:19:42","新北市三重區龍門路195號","121.499693333333","25.07329","6500200","三重區"
"241028","022-UY","2018/07/31 20:19:43","新北市三重區大同南路119號","121.496323333333","25.0582616666667","6500200","三重區"
"241008","059-VK","2018/07/31 20:19:34","新北市三重區永福街211巷6號","121.479641666667","25.07407","6500200","三重區"
"241031","061-VK","2018/07/31 20:19:31","新北市三重區三寧街18號","121.489328333333","25.0597966666667","6500200","三重區"
"241015","062-VK","2018/07/31 20:19:45","新北市三重區重新路一段126號","121.500366666667","25.0628466666667","6500200","三重區"
"241017","063-VK","2018/07/31 20:19:41","新北市三重區自強路一段236號","121.493266666667","25.067075","6500200","三重區"
"241024","065-VK","2018/07/31 20:19:39","新北市三重區中正北路238號","121.48185","25.0678933333333","6500200","三重區"
"241026","066-VK","2018/07/31 20:19:44","新北市三重區福德南路15號","121.502586666667","25.0632666666667","6500200","三重區"
"241002","090-VK","2018/07/31 20:19:37","新北市三重區仁義街101巷44號","121.499211666667","25.080795","6500200","三重區"
"241003","091-VK","2018/07/31 20:19:38","新北市三重區富華街82號","121.490788333333","25.083355","6500200","三重區"
"241022","742-BX","2018/07/31 20:19:34","新北市三重區民生街61巷1號","121.489205","25.06254","6500200","三重區"
"241005","262-UM","2018/07/31 20:19:49","新北市三重區分子尾街85號","121.488875","25.08255","6500200","三重區"
"241016","266-UM","2018/07/31 20:19:37","新北市三重區大同北路97-3號","121.494396666667","25.0635883333333","6500200","三重區"
"241009","267-UM","2018/07/31 20:19:51","新北市三重區三和路四段382巷44號","121.481265","25.0784466666667","6500200","三重區"
"241018","268-UM","2018/07/31 20:19:40","新北市三重區自強路一段236號","121.493388333333","25.0670916666667","6500200","三重區"
"241032","269-UM","2018/07/31 20:19:39","新北市三重區重陽路一段26巷39號","121.484898333333","25.0573916666667","6500200","三重區"
"241013","270-UM","2018/07/31 20:19:42","新北市三重區三和路三段167巷13號","121.492428333333","25.0741916666667","6500200","三重區"
"241025","271-UM","2018/07/31 20:19:45","新北市三重區三民街281號","121.478953333333","25.068215","6500200","三重區"
"241007","398-BY","2018/07/31 20:19:37","新北市三重區溪尾街108巷32號","121.488131666667","25.0783566666667","6500200","三重區"
"241035","KEA-2210","2018/07/31 20:19:42","新北市三重區正義北路33巷35號","121.498575","25.0638116666667","6500200","三重區"
"241004","413-TH","2018/07/31 20:19:45","新北市三重區仁愛街387號","121.491275","25.080685","6500200","三重區"
"241020","478-VK","2018/07/31 20:19:41","新北市三重區三和路三段109-6號","121.493468333333","25.0728533333333","6500200","三重區"
"241030","480-VK","2018/07/31 20:19:32","新北市三重區環河南路254巷53號","121.488085","25.0523083333333","6500200","三重區"
"241014","543-UM","2018/07/31 20:19:41","新北市三重區龍門路240號","121.500736666667","25.0737183333333","6500200","三重區"
"241001","547-UM","2018/07/31 20:19:40","新北市三重區溪尾街46-1號","121.490718333333","25.0771766666667","6500200","三重區"
"241019","KEA-2593","2018/07/31 20:19:49","新北市三重區忠孝路一段71號","121.490678333333","25.0721316666667","6500200","三重區"
"241006","AAD-863","2018/07/31 20:19:50","新北市三重區車路頭街139巷14號","121.484278333333","25.0762033333333","6500200","三重區"
"241023","887-TS","2018/07/31 20:19:44","新北市三重區忠孝路三段99巷25號","121.479393333333","25.0642933333333","6500200","三重區"
"241012","941-UM","2018/07/31 20:19:37","新北市三重區河邊北街266號","121.501643333333","25.076475","6500200","三重區"
"241029","942-UM","2018/07/31 20:19:43","新北市三重區光明路114號","121.492701666667","25.0561033333333","6500200","三重區"
"241033","AAC-255","2018/07/31 20:19:44","新北市三重區五谷王北街50巷15號","121.47562","25.0514583333333","6500200","三重區"
"235066","003-UY","2018/07/31 20:19:34","新北市中和區保平路326巷13號","121.506685","25.0044733333333","6500300","中和區"
"235039","097-UM","2018/07/31 20:19:35","新北市中和區大勇街27巷10號","121.516995","24.993895","6500300","中和區"
"235065","098-UM","2018/07/31 20:19:52","新北市中和區永和路128巷28號","121.497648333333","25.00682","6500300","中和區"
"235040","150-BY","2018/07/31 20:19:36","新北市中和區中正路166號","121.498343333333","24.9938416666667","6500300","中和區"
"235042","KEA-2878","2018/07/31 20:19:46","新北市樹林區中山路三段214號","121.379883333333","24.96754","6500300","中和區"
"247010","KEA-2869","2018/07/31 20:19:45","新北市蘆洲區信義路188巷11號","121.479675","25.0844616666667","6501400","蘆洲區"
"235050","4979-A6","2018/07/31 20:19:43","新北市中和區景安路177巷10號","121.505826666667","24.99402","6500300","中和區"
"235069","4980-A6","2018/07/31 20:19:46","新北市中和區圓通路229號","121.496276666667","24.9942733333333","6500300","中和區"
"235059","AAC-215","2018/07/31 20:19:43","新北市中和區圓通路447號","121.484971666667","24.9865216666667","6500300","中和區"
"247024","893-R6","2018/07/31 20:19:40","新北市蘆洲區光榮路120巷8弄20號","121.464301666667","25.08771","6501400","蘆洲區"
"247022","500-BY","2018/07/31 20:19:35","新北市蘆洲區民族路451號","121.467483333333","25.0885383333333","6501400","蘆洲區"
"247012","339-TH","2018/07/31 20:19:35","新北市蘆洲區中興街47號","121.481213333333","25.0871483333333","6501400","蘆洲區"
"247004","337-TH","2018/07/31 20:19:33","新北市蘆洲區永康街116號","121.458275","25.0854066666667","6501400","蘆洲區"
"247006","336-TH","2018/07/31 20:19:42","新北市蘆洲區九芎街136號","121.465163333333","25.07903","6501400","蘆洲區"
"247018","057-VK","2018/07/31 20:19:37","新北市蘆洲區民族路380號","121.475421666667","25.091185","6501400","蘆洲區"
"247008","056-VK","2018/07/31 20:19:41","新北市蘆洲區集賢路209號","121.483566666667","25.0870783333333","6501400","蘆洲區"
"247016","007-UY","2018/07/31 20:19:39","新北市蘆洲區中正路185巷47號","121.465665","25.0839266666667","6501400","蘆洲區"
"247002","002-UY","2018/07/31 20:19:51","新北市蘆洲區長安街331巷20號","121.456441666667","25.086615","6501400","蘆洲區"
"247020","001-UY","2018/07/31 20:19:49","新北市蘆洲區仁愛街20號","121.47224","25.0928683333333","6501400","蘆洲區"
"222001","KEA-2212","2018/07/31 20:19:34","新北市深坑區北深路三段227號","121.600101666667","25.0042083333333","6501800","深坑區"
"251004","009-UM","2018/07/31 20:19:03","新北市淡水區大同路113巷6號","121.463558333333","25.1412833333333","6501000","淡水區"
"251001","011-UM","2018/07/31 20:19:42","新北市淡水區新市二路四段265號","121.44572","25.1924833333333","6501000","淡水區"
"251002","012-UM","2018/07/31 20:19:42","新北市淡水區中正路198號","121.439863333333","25.1700933333333","6501000","淡水區"
"251013","KEA-2871","2018/07/31 20:19:48","新北市淡水區相公山1-1號","121.47437","25.2066633333333","6501000","淡水區"
"251016","179-VK","2018/07/31 20:19:52","新北市淡水區淡金路四段589號","121.451765","25.2311483333333","6501000","淡水區"
"251014","180-VK","2018/07/31 20:19:32","新北市淡水區石頭厝1號","121.458731666667","25.2355333333333","6501000","淡水區"
"251008","181-VK","2018/07/31 20:19:46","新北市淡水區淡海路180巷17號","121.421431666667","25.1846083333333","6501000","淡水區"
"251015","182-VK","2018/07/31 20:19:41","新北市淡水區淡金路四段207號","121.451775","25.2220916666667","6501000","淡水區"
"251010","413-VK","2018/07/31 20:19:47","新北市淡水區新民街一段134號","121.427518333333","25.1889016666667","6501000","淡水區"
"251012","441-VK","2018/07/31 20:19:47","新北市淡水區下圭柔山431-1號","121.450408333333","25.21135","6501000","淡水區"
"251007","442-VK","2018/07/31 20:19:32","新北市淡水區淡金路一段69號","121.458105","25.1734333333333","6501000","淡水區"
"251006","561-UM","2018/07/31 20:19:45","新北市淡水區北新路173號","121.450576666667","25.17942","6501000","淡水區"
"251009","575-R6","2018/07/31 20:19:51","新北市淡水區中正路28號","121.444191666667","25.169255","6501000","淡水區"
"251003","673-BX","2018/07/31 20:19:43","新北市淡水區中山北路一段229號","121.444465","25.1794916666667","6501000","淡水區"
"207004","291-VK","2018/07/31 20:19:33","新北市萬里區北基里仁三街1號","121.682265","25.175455","6502800","萬里區"
"252002","178-VK","2018/07/31 20:19:34","新北市三芝區中正路一段35號","121.503138333333","25.2584016666667","6502100","三芝區"
"252001","292-VK","2018/07/31 20:19:50","新北市三芝區中山路一段14號","121.500666666667","25.25801","6502100","三芝區"
"237006","5529-G3","2018/07/31 20:19:43","新北市三峽區中正路二段54號","121.366683333333","24.9186783333333","6500900","三峽區"
"237016","649-BX","2018/07/31 20:19:37","新北市三峽區介壽路二段138巷1弄148-2號","121.399423333333","24.9304266666667","6500900","三峽區"
"236070","105-UM","2018/07/31 20:19:38","新北市土城區三民路25號","121.420116666667","24.9636366666667","6501300","土城區"
"236042","107-UM","2018/07/31 20:19:32","新北市土城區中華路一段277號","121.440053333333","24.980195","6501300","土城區"
"236030","253-BX","2018/07/31 20:19:47","新北市土城區學成路128巷8弄2號","121.449431666667","24.98985","6501300","土城區"
"236026","269-VK","2018/07/31 20:19:46","新北市土城區裕生路100巷5號","121.446383333333","24.98504","6501300","土城區"
"236014","270-VK","2018/07/31 20:19:43","新北市土城區廣明街90巷18號","121.455435","24.9945116666667","6501300","土城區"
"236059","912-UM","2018/07/31 20:19:47","新北市土城區大安路101-5號","121.433435","24.9684533333333","6501300","土城區"
"242034","AAC-296","2018/07/31 20:19:44","新北市新莊區建中街133號","121.445226666667","25.0364983333333","6500500","新莊區"
"242058","986-R7","2018/07/31 20:19:49","新北市新莊區龍安路284號","121.422423333333","25.01906","6500500","新莊區"
"242054","751-BX","2018/07/31 20:19:52","新北市新莊區西盛街397號","121.427951666667","25.0128716666667","6500500","新莊區"
"242027","705-TV","2018/07/31 20:19:53","新北市新莊區幸福路554號","121.454816666667","25.0493416666667","6500500","新莊區"
"242025","613-BX","2018/07/31 20:17:06","新北市新莊區五工二路78巷12號","121.460363333333","25.0664283333333","6500500","新莊區"
"242029","612-BX","2018/07/31 20:19:33","新北市新莊區中華路二段181號","121.452505","25.0521866666667","6500500","新莊區"
"242042","566-BX","2018/07/31 20:19:48","新北市新莊區壽山路79號","121.408906666667","25.0329583333333","6500500","新莊區"
"242046","497-BY","2018/07/31 20:19:45","新北市新莊區中正路新生巷12號","121.416795","25.0238666666667","6500500","新莊區"
"242051","441-UM","2018/07/31 20:19:32","新北市新莊區民安西路212巷5弄26號","121.424993333333","25.0139933333333","6500500","新莊區"
"242056","440-UM","2018/07/31 20:19:33","新北市新莊區新莊路649巷7號","121.445143333333","25.032325","6500500","新莊區"
"242037","415-TV","2018/07/31 20:19:41","新北市新莊區後港一路56巷24弄7號","121.426355","25.0252316666667","6500500","新莊區"
"242007","413-TV","2018/07/31 20:19:38","新北市新莊區福壽街124巷41弄2號","121.459316666667","25.0513633333333","6500500","新莊區"
"242044","400-BY","2018/07/31 20:19:42","新北市新莊區中正路新建巷30號","121.414395","25.0217583333333","6500500","新莊區"
"242023","362-BY","2018/07/31 20:19:51","新北市新莊區化成路762號","121.465286666667","25.05854","6500500","新莊區"
"242061","353-BY","2018/07/31 20:19:52","新北市新莊區新樹路192號","121.434245","25.0209466666667","6500500","新莊區"
"242009","132-UY","2018/07/31 20:19:50","新北市新莊區昌平街1號","121.455025","25.051245","6500500","新莊區"
"242039","133-UY","2018/07/31 20:19:45","新北市新莊區龍安路437號","121.424208333333","25.0188233333333","6500500","新莊區"
"242032","135-UY","2018/07/31 20:19:16","新北市新莊區三和路13-30號","121.439701666667","25.0367933333333","6500500","新莊區"
"242011","173-VK","2018/07/31 20:19:42","新北市新莊區中信街14號","121.451121666667","25.0509316666667","6500500","新莊區"
"242017","175-VK","2018/07/31 20:19:52","新北市新莊區中港二街151號","121.447958333333","25.0455566666667","6500500","新莊區"
"242005","176-VK","2018/07/31 20:19:48","新北市新莊區頭前路14號","121.468158333333","25.0524866666667","6500500","新莊區"
"242048","347-TH","2018/07/31 20:19:47","新北市新莊區龍安路277號","121.420426666667","25.0199183333333","6500500","新莊區"
"242021","348-TH","2018/07/31 20:19:41","新北市新莊區和興街45號","121.446606666667","25.040515","6500500","新莊區"
"242002","349-TH","2018/07/31 20:19:45","新北市三重區重新路五段652號","121.46784","25.0439733333333","6500500","新莊區"
"242019","350-TH","2018/07/31 20:19:46","新北市新莊區復興路二段190號","121.459126666667","25.0444533333333","6500500","新莊區"
"242013","351-TH","2018/07/31 20:19:48","新北市新莊區中平路270巷7弄35號","121.446235","25.05095","6500500","新莊區"
"221008","489-VK","2018/07/31 20:19:38","新北市汐止區康寧街338號","121.627773333333","25.0674833333333","6501100","汐止區"
"221036","130-UY","2018/07/31 20:19:42","新北市汐止區福安街37巷11號","121.663215","25.0651833333333","6501100","汐止區"
"221015","131-UY","2018/07/31 20:19:43","新北市汐止區建成路142巷19弄6號","121.662165","25.07393","6501100","汐止區"
"221010","269-BY","2018/07/31 20:19:40","新北市汐止區八連路二段376-1號","121.629298333333","25.1019616666667","6501100","汐止區"
"221012","278-VK","2018/07/31 20:19:47","新北市汐止區保新街67號","121.685935","25.072375","6501100","汐止區"
"221023","279-VK","2018/07/31 20:19:44","新北市汐止區湖東街5巷45號","121.635303333333","25.0738666666667","6501100","汐止區"
"221032","280-BY","2018/07/31 20:19:44","新北市汐止區弘道街53巷2號","121.618646666667","25.0484016666667","6501100","汐止區"
"221027","281-BY","2018/07/31 20:19:48","新北市汐止區大同路二段357號","121.657091666667","25.067215","6501100","汐止區"
"221029","298-VK","2018/07/31 20:19:38","新北市汐止區樟樹一路99巷7弄5號","121.641203333333","25.0634233333333","6501100","汐止區"
"221021","299-VK","2018/07/31 20:19:31","新北市汐止區水源路一段284號","121.654158333333","25.058285","6501100","汐止區"
"221031","353-TW","2018/07/31 20:19:45","新北市汐止區中興路150巷13號","121.632933333333","25.064975","6501100","汐止區"
"221002","129-UY","2018/07/31 20:19:33","新北市汐止區福德三路95號","121.63616","25.069025","6501100","汐止區"
"221035","622-UM","2018/07/31 20:19:34","新北市汐止區長江街101-5號","121.65872","25.0732366666667","6501100","汐止區"
"221025","623-UM","2018/07/31 20:19:33","新北市汐止區水源路二段34號","121.654985","25.057185","6501100","汐止區"
"221038","646-BX","2018/07/31 20:19:37","新北市汐止區忠孝東路324號","121.664776666667","25.06927","6501100","汐止區"
"221033","647-BX","2018/07/31 20:19:32","新北市汐止區東勢街201巷86號","121.634105","25.0432583333333","6501100","汐止區"
"221018","753-BX","2018/07/31 20:19:47","新北市汐止區茄安路25號","121.673171666667","25.0680033333333","6501100","汐止區"
"220101","245-BX","2018/07/31 20:19:47","新北市板橋區文聖街200號","121.480151666667","25.0258833333333","6500100","板橋區"
"220103","257-TC","2018/07/31 20:19:39","新北市板橋區陽明街279巷1弄1號","121.461855","25.0260333333333","6500100","板橋區"
"220083","286-VK","2018/07/31 20:19:44","新北市板橋區僑中二街98號","121.446153333333","25.0084183333333","6500100","板橋區"
"220081","287-VK","2018/07/31 20:19:34","新北市板橋區僑中一街80巷1弄17號","121.446748333333","25.0119883333333","6500100","板橋區"
"220061","293-UM","2018/07/31 20:19:44","新北市板橋區文華街3巷3號","121.457195","25.0007533333333","6500100","板橋區"
"242015","281-VK","2018/07/31 20:19:39","新北市新莊區永樂街239巷1號","121.446203333333","25.0443266666667","6500500","新莊區"
"220088","491-VK","2018/07/31 20:19:42","新北市五股區新城三路45號","121.448995","25.0934383333333","6500100","板橋區"
"220102","KEA-2699","2018/07/31 20:19:46","新北市板橋區文化路一段188巷15號","121.466581666667","25.0192066666667","6500100","板橋區"
"220068","830-TW","2018/07/31 20:19:46","新北市三重區頂崁街23號","121.476888333333","25.056085","6500100","板橋區"
"220096","831-TW","2018/07/31 20:19:23","新北市五股區中直路21號","121.421135","25.1119733333333","6500100","板橋區"
"220089","833-TW","2018/07/31 20:19:41","新北市板橋區四維路137巷17號","121.46431","25.02484","6500100","板橋區"
"220097","AAC-210","2018/07/31 20:19:40","新北市板橋區公館街25號","121.460925","25.0149983333333","6500100","板橋區"
"220070","AAC-253","2018/07/31 20:19:49","新北市板橋區南雅南路二段1-1號","121.454691666667","25.00372","6500100","板橋區"
"235068","KEA-2873","2018/07/31 20:19:53","新北市中和區勝利路35巷1弄22號","121.499796666667","25.0076633333333","6500300","中和區"
