"lineid","car","time","location","longitude","latitude","cityid","cityname"
"241006","AAD-863","2018/07/31 22:19:50","新北市五股區中興路二段83巷26-6號","121.459238333333","25.0754366666667","6500200","三重區"
"247010","KEA-2869","2018/07/31 22:19:45","新北市五股區中興路三段2巷10號","121.449011666667","25.081045","6501400","蘆洲區"
"251004","009-UM","2018/07/31 22:19:43","新北市淡水區民族路33巷16-19號","121.462325","25.1359016666667","6501000","淡水區"
"251010","413-VK","2018/07/31 22:19:47","新北市淡水區沙崙路200號","121.424746666667","25.183905","6501000","淡水區"
"251007","442-VK","2018/07/31 22:19:52","新北市淡水區北新路143號","121.449558333333","25.1788583333333","6501000","淡水區"
"251011","650-BX","2018/07/31 22:19:53","新北市淡水區水碓街7號","121.443158333333","25.1771183333333","6501000","淡水區"
