"lineid","car","time","location","longitude","latitude","cityid","cityname"
"247010","KEA-2869","2018/07/31 22:29:37","新北市五股區中興路三段2巷10號","121.449236666667","25.0808466666667","6501400","蘆洲區"
"251004","009-UM","2018/07/31 22:29:43","新北市淡水區民族路35號","121.462483333333","25.1357333333333","6501000","淡水區"
"251010","413-VK","2018/07/31 22:29:47","新北市淡水區沙崙路200號","121.424696666667","25.1839116666667","6501000","淡水區"
"251007","442-VK","2018/07/31 22:29:52","新北市淡水區北新路143號","121.449518333333","25.1788916666667","6501000","淡水區"
"251011","650-BX","2018/07/31 22:29:33","新北市淡水區水碓街7號","121.443163333333","25.177095","6501000","淡水區"
