"lineid","car","time","location","longitude","latitude","cityid","cityname"
"248005","653-BX","2018/02/03 09:39:51","新北市五股區成泰路一段9號","121.433626666667","25.0665833333333","6501500","五股區"
"244010","656-BX","2018/02/03 09:39:54","新北市林口區公園路52號","121.368765","25.0695666666667","6501700","林口區"
"222004","289-BY","2018/02/03 09:39:53","新北市深坑區文山路二段3號","121.623073333333","25.000435","6501800","深坑區"
"231007","189-VK","2018/02/03 09:39:49","新北市新店區新潭路三段215巷25號","121.508173333333","24.90407","6500600","新店區"
"231008","192-VK","2018/02/03 09:39:51","新北市新店區平廣路一段202巷5弄7號","121.514563333333","24.8903516666667","6500600","新店區"
"235001","611-BX","2018/02/03 09:39:52","新北市中和區連城路378號","121.48099","24.995145","6500300","中和區"
"235010","733-UM","2018/02/03 09:39:56","新北市中和區中正路277-6號","121.495105","24.9937916666667","6500300","中和區"
"235063","911-UM","2018/02/03 09:39:40","新北市三重區重新路五段326巷25-1號","121.479428333333","25.0430516666667","6500300","中和區"
"223001","205-TH","2018/02/03 09:39:48","新北市石碇區內楒仔腳1號","121.632551666667","24.9701233333333","6501900","石碇區"
"223005","677-TV","2018/02/03 09:29:10","新北市石碇區小粗坑(潭邊里)6號","121.675026666667","24.9841566666667","6501900","石碇區"
"227006","282-VK","2018/02/03 09:26:02","新北市雙溪區長源里柑腳58-1號","121.793911666667","25.0067166666667","6502500","雙溪區"
"239001","050-UM","2018/02/03 09:39:52","新北市鶯歌區大湖路601號","121.335131666667","24.97438","6500800","鶯歌區"
"252004","702-TV","2018/02/03 09:39:49","新北市三芝區圓山里石曹子坑44號","121.51944","25.2155983333333","6502100","三芝區"
"252007","AAC-283","2018/02/03 09:39:54","新北市三芝區新庄里新庄子92-1號","121.511003333333","25.2693333333333","6502100","三芝區"
"236006","498-BY","2018/02/03 09:39:48","新北市土城區慶祥街20號","121.437593333333","24.97555","6501300","土城區"
"238012","303-VK","2018/02/03 09:39:46","新北市樹林區八德街225號","121.421488333333","24.9796916666667","6500700","樹林區"
"220011","609-BX","2018/02/03 09:39:46","新北市板橋區大同街53號","121.47852","25.0275683333333","6500100","板橋區"
