"lineid","car","time","location","longitude","latitude","cityid","cityname"
"248005","653-BX","2018/02/03 09:59:51","新北市五股區更洲路68號","121.45665","25.0797966666667","6501500","五股區"
"244010","656-BX","2018/02/03 09:59:54","新北市林口區文化一路一段15巷8-1號","121.368785","25.069305","6501700","林口區"
"231007","189-VK","2018/02/03 09:59:49","新北市新店區新潭路三段215巷25號","121.508115","24.904105","6500600","新店區"
"231008","192-VK","2018/02/03 09:45:33","新北市新店區平廣路一段256號","121.507865","24.8883466666667","6500600","新店區"
"235010","733-UM","2018/02/03 09:59:56","新北市中和區景新街522號","121.514351666667","24.9866733333333","6500300","中和區"
"235063","911-UM","2018/02/03 09:59:40","新北市八里區中山路三段386號","121.368503333333","25.1356333333333","6500300","中和區"
"227006","282-VK","2018/02/03 09:59:42","新北市雙溪區外柑里外柑腳99號","121.80642","25.0178933333333","6502500","雙溪區"
"239001","050-UM","2018/02/03 09:59:32","新北市鶯歌區大湖路601號","121.33519","24.9744166666667","6500800","鶯歌區"
"252004","702-TV","2018/02/03 09:59:49","新北市三芝區福德里土地公埔47號","121.515851666667","25.225565","6502100","三芝區"
"252007","AAC-283","2018/02/03 09:59:54","新北市三芝區新庄里新庄子87號","121.510355","25.26946","6502100","三芝區"
"238012","303-VK","2018/02/03 09:59:46","新北市樹林區保安街二段24-1號","121.41548","25.001855","6500700","樹林區"
"220011","609-BX","2018/02/03 09:59:46","新北市板橋區民治街51巷1號","121.479171666667","25.0337916666667","6500100","板橋區"
