"lineid","car","time","location","longitude","latitude","cityid","cityname"
"244010","656-BX","2018/02/03 10:59:14","新北市林口區文化一路一段15巷8-1號","121.368681666667","25.069215","6501700","林口區"
"231007","189-VK","2018/02/03 10:59:09","新北市新店區新潭路一段35號","121.523515","24.9418966666667","6500600","新店區"
"231008","192-VK","2018/02/03 10:59:11","新北市新店區松林路9號","121.547295","24.91086","6500600","新店區"
"227006","282-VK","2018/02/03 10:59:22","新北市雙溪區新基里中華路10號","121.866153333333","25.0366166666667","6502500","雙溪區"
"239001","050-UM","2018/02/03 10:59:12","新北市鶯歌區大湖路601號","121.335193333333","24.97442","6500800","鶯歌區"
"236001","138-TH","2018/02/03 10:54:22","新北市土城區永平街51號","121.427933333333","24.9592183333333","6501300","土城區"
"238012","303-VK","2018/02/03 10:59:26","新北市樹林區東興街3號","121.409856666667","24.9805566666667","6500700","樹林區"
"220011","609-BX","2018/02/03 10:59:26","新北市板橋區僑中一街124巷3弄24號","121.443018333333","25.01278","6500100","板橋區"
