"lineid","car","time","location","longitude","latitude","cityid","cityname"
"244010","656-BX","2018/02/03 11:09:14","新北市林口區中正路451號","121.384661666667","25.0777333333333","6501700","林口區"
"231008","192-VK","2018/02/03 11:09:11","新北市新店區成功路43號","121.54276","24.9009466666667","6500600","新店區"
"227006","282-VK","2018/02/03 11:09:22","新北市雙溪區魚行里坤溪8號","121.866333333333","25.02129","6502500","雙溪區"
"239001","050-UM","2018/02/03 11:09:12","新北市鶯歌區中正一路303-1號","121.356155","24.9571083333333","6500800","鶯歌區"
"236001","138-TH","2018/02/03 10:54:22","新北市土城區永平街51號","121.427933333333","24.9592183333333","6501300","土城區"
"238012","303-VK","2018/02/03 11:09:06","新北市樹林區育德街78號","121.387473333333","24.9684633333333","6500700","樹林區"
