"lineid","car","time","location","longitude","latitude","cityid","cityname"
"244009","656-BX","2018/02/03 11:32:34","新北市林口區粉寮69號","121.405045","25.0908766666667","6501700","林口區"
"231008","192-VK","2018/02/03 11:39:11","新北市新店區成功路91-1號","121.537695","24.895285","6500600","新店區"
"235031","255-BX","2018/02/03 11:33:44","新北市中和區和城路一段271巷1號","121.48554","24.9918233333333","6500300","中和區"
"223001","205-TH","2018/02/03 11:36:29","新北市石碇區小粗坑(潭邊里)9-2號","121.67894","24.9863533333333","6501900","石碇區"
"227006","282-VK","2018/02/03 11:39:22","新北市雙溪區魚行里魚杭12-1號","121.879061666667","25.026615","6502500","雙溪區"
