"lineid","car","time","location","longitude","latitude","cityid","cityname"
"234010","9373-KE","2018/02/03 11:46:32","新北市永和區福和路1號","121.525946666667","25.0091066666667","6500400","永和區"
"244009","656-BX","2018/02/03 11:32:34","新北市林口區粉寮69號","121.405045","25.0908766666667","6501700","林口區"
"231008","192-VK","2018/02/03 11:48:51","新北市新店區成功路50巷1號","121.544241666667","24.903205","6500600","新店區"
"235031","255-BX","2018/02/03 11:33:44","新北市中和區和城路一段271巷1號","121.48554","24.9918233333333","6500300","中和區"
"223001","205-TH","2018/02/03 11:36:29","新北市石碇區小粗坑(潭邊里)9-2號","121.67894","24.9863533333333","6501900","石碇區"
"227006","282-VK","2018/02/03 11:49:22","新北市雙溪區魚行里魚杭1號","121.883808333333","25.026645","6502500","雙溪區"
