"lineid","car","time","location","longitude","latitude","cityid","cityname"
"234048","863-TW","2018/02/03 12:19:19","新北市永和區福和路1號","121.526556666667","25.009935","6500400","永和區"
"231008","192-VK","2018/02/03 12:19:11","新北市新店區新烏路161號","121.545195","24.9332566666667","6500600","新店區"
"223001","205-TH","2018/02/03 12:02:21","新北市石碇區小粗坑(潭邊里)9-2號","121.678655","24.9856633333333","6501900","石碇區"
"228005","097-TW","2018/02/03 12:19:09","新北市貢寮區福連里福連街1號","121.98825","25.017045","6502600","貢寮區"
"228004","212-TW","2018/02/03 12:19:28","新北市貢寮區貢寮里長泰路17-2號","121.893358333333","25.0207233333333","6502600","貢寮區"
