"lineid","car","time","location","longitude","latitude","cityid","cityname"
"234044","148-BY","2018/02/03 13:09:11","新北市永和區永元路18巷9號","121.523126666667","25.0002866666667","6500400","永和區"
"234068","149-BY","2018/02/03 13:09:15","新北市永和區豫溪街137巷1弄24號","121.51844","25.0104733333333","6500400","永和區"
"234005","207-UY","2018/02/03 13:09:11","新北市永和區中山路一段131號","121.510606666667","25.0098516666667","6500400","永和區"
"234078","298-R6","2018/02/03 13:09:10","新北市永和區福和路57巷14弄1號","121.522743333333","25.0069316666667","6500400","永和區"
"234036","336-UY","2018/02/03 13:09:18","新北市永和區民樂街90巷1號","121.527298333333","24.9973733333333","6500400","永和區"
"234084","338-UY","2018/02/03 13:09:23","新北市永和區永貞路142號","121.518168333333","25.0044066666667","6500400","永和區"
"234015","745-BX","2018/02/03 13:09:28","新北市永和區文化路90巷3弄2號","121.51392","25.0155983333333","6500400","永和區"
"234028","746-BX","2018/02/03 13:09:23","新北市永和區四維街93號","121.524373333333","24.9981016666667","6500400","永和區"
"234052","KEA-2590","2018/02/03 13:09:24","新北市永和區中興街133巷15號","121.517691666667","25.0123566666667","6500400","永和區"
"234012","KEA-2591","2018/02/03 13:09:28","新北市永和區保福路二段48號","121.511025","25.012165","6500400","永和區"
"234060","AAD-866","2018/02/03 13:08:57","新北市永和區安樂路306-6號","121.514711666667","25.0054583333333","6500400","永和區"
"234062","847-RS","2018/02/03 13:09:23","新北市永和區秀朗路二段31號","121.521243333333","25.0024833333333","6500400","永和區"
"234040","862-TW","2018/02/03 13:09:17","新北市永和區永貞路332巷28號","121.511656666667","25.0057983333333","6500400","永和區"
"234048","863-TW","2018/02/03 13:09:19","新北市永和區文化路135巷26弄2號","121.510615","25.0145416666667","6500400","永和區"
"234025","9371-KE","2018/02/03 13:09:14","新北市永和區秀朗路一段10巷19號","121.513445","25.0061866666667","6500400","永和區"
"234010","9373-KE","2018/02/03 13:09:12","新北市永和區文化路124號","121.513046666667","25.0153583333333","6500400","永和區"
"248017","225-UY","2018/02/03 13:09:16","新北市五股區中興路三段198號","121.441708333333","25.0819716666667","6501500","五股區"
"234022","9380-KE","2018/02/03 13:09:17","新北市永和區竹林路75巷33弄1號","121.52055","25.01426","6500400","永和區"
"234076","969-R7","2018/02/03 13:09:23","新北市永和區民光街9號","121.51548","24.9962116666667","6500400","永和區"
"234072","AAC-211","2018/02/03 13:09:17","新北市永和區竹林路207號","121.520598333333","25.008935","6500400","永和區"
"234066","AAC-212","2018/02/03 13:09:26","新北市永和區保平路28號","121.512173333333","25.0074816666667","6500400","永和區"
"234001","AAC-295","2018/02/03 13:09:20","新北市永和區中山路一段147號","121.510181666667","25.0095383333333","6500400","永和區"
"231002","002-UM","2018/02/03 13:09:24","新北市新店區安華路28-1號","121.5197","24.960905","6500600","新店區"
"231027","0291-UT","2018/02/03 13:09:21","新北市新店區安康路二段318-1號","121.505153333333","24.958045","6500600","新店區"
"231025","0293-UT","2018/02/03 13:09:14","新北市新店區安康路一段167號","121.527241666667","24.96249","6500600","新店區"
"231028","046-UY","2018/02/03 13:09:20","新北市新店區安華路28-1號","121.519676666667","24.961165","6500600","新店區"
"231030","047-UY","2018/02/03 13:09:29","新北市新店區安華路28-1號","121.519088333333","24.9610216666667","6500600","新店區"
"231029","106-UY","2018/02/03 13:09:18","新北市新店區安華路28-1號","121.519758333333","24.9608466666667","6500600","新店區"
"231018","107-UY","2018/02/03 13:09:14","新北市新店區安華路28-1號","121.5193","24.9613366666667","6500600","新店區"
"231012","108-UY","2018/02/03 13:09:22","新北市新店區安華路28-1號","121.519615","24.96113","6500600","新店區"
"231035","110-UY","2018/02/03 13:05:13","新北市新店區安華路28-1號","121.51925","24.96109","6500600","新店區"
"231020","187-VK","2018/02/03 13:09:16","新北市新店區安華路28-1號","121.5196","24.9612033333333","6500600","新店區"
"231017","KEA-2219","2018/02/03 13:09:21","新北市新店區安華路28-1號","121.520051666667","24.96121","6500600","新店區"
"231026","256-BX","2018/02/03 13:09:28","新北市新店區安華路28-1號","121.51987","24.9611633333333","6500600","新店區"
"231010","278-BY","2018/02/03 13:00:45","新北市新店區安華路28-1號","121.519715","24.9613833333333","6500600","新店區"
"231023","AAD-862","2018/02/03 13:09:14","新北市新店區安華路28-1號","121.519688333333","24.9612816666667","6500600","新店區"
"231024","4716-K9","2018/02/03 13:09:27","新北市新店區安華路28-1號","121.519388333333","24.961175","6500600","新店區"
"231038","4715-K9","2018/02/03 13:09:25","新北市新店區安華路28-1號","121.519385","24.9606","6500600","新店區"
"231036","512-UM","2018/02/03 13:09:18","新北市新店區安華路1-1號","121.519455","24.9605133333333","6500600","新店區"
"231003","616-UM","2018/02/03 13:09:17","新北市新店區安華路28-1號","121.519521666667","24.9606083333333","6500600","新店區"
"231006","617-UM","2018/02/03 12:58:51","新北市新店區安華路28-1號","121.519445","24.9608883333333","6500600","新店區"
"231001","619-UM","2018/02/03 13:09:17","新北市新店區安華路28-1號","121.519643333333","24.9608383333333","6500600","新店區"
"231034","645-TV","2018/02/03 13:09:32","新北市新店區安華路28-1號","121.519153333333","24.9607533333333","6500600","新店區"
"231033","720-UM","2018/02/03 13:09:20","新北市新店區安華路28-1號","121.519058333333","24.9612083333333","6500600","新店區"
"231005","897-TW","2018/02/03 13:09:15","新北市新店區安華路28-1號","121.51946","24.96064","6500600","新店區"
"231004","899-TW","2018/02/03 13:09:24","新北市新店區安康路二段5號","121.515331666667","24.963075","6500600","新店區"
"231037","AKT-0513","2018/02/03 13:09:20","新北市新店區安華路1-1號","121.519471666667","24.9605233333333","6500600","新店區"
"235028","005-UY","2018/02/03 13:09:28","新北市中和區中正路275號","121.495435","24.9936666666667","6500300","中和區"
"235029","098-UM","2018/02/03 13:09:22","新北市中和區福祥路135號","121.498191666667","25.0075283333333","6500300","中和區"
"235004","150-BY","2018/02/03 12:51:27","新北市中和區和城路一段271巷1號","121.485598333333","24.9915483333333","6500300","中和區"
"235022","151-BY","2018/02/03 13:09:20","新北市中和區圓通路367巷21-1號","121.492868333333","24.9857566666667","6500300","中和區"
"235002","185-VK","2018/02/03 13:09:18","新北市中和區景平路120號","121.519338333333","24.991855","6500300","中和區"
"235031","255-BX","2018/02/03 13:09:31","新北市中和區新生街150號","121.483613333333","25.0006066666667","6500300","中和區"
"235036","301-VK","2018/02/03 13:09:13","新北市中和區建八路1號","121.485576666667","24.9986083333333","6500300","中和區"
"235025","378-QA","2018/02/03 13:09:10","新北市中和區中正路803號","121.48458","25.0010033333333","6500300","中和區"
"235035","269-TV","2018/02/03 13:09:15","新北市中和區立德街213號","121.483575","25.0098983333333","6500300","中和區"
"235014","4979-A6","2018/02/03 13:09:23","新北市中和區員山路36巷16-2號","121.485251666667","24.9916783333333","6500300","中和區"
"235006","551-UM","2018/02/03 13:09:21","新北市中和區和城路一段271巷1號","121.485356666667","24.9918883333333","6500300","中和區"
"235018","640-BX","2018/02/03 13:09:27","新北市土城區金城路三段269號","121.472458333333","24.9903316666667","6500300","中和區"
"235011","732-UM","2018/02/03 13:09:26","新北市中和區員山路36巷16-3號","121.484825","24.991325","6500300","中和區"
"235026","800-TS","2018/02/03 13:09:19","新北市中和區建一路91號","121.48812","25.0021483333333","6500300","中和區"
"235005","802-TS","2018/02/03 13:09:20","新北市中和區中正路254號","121.495563333333","24.9939683333333","6500300","中和區"
"235016","805-TS","2018/02/03 13:09:11","新北市中和區員山路36巷16-3號","121.484825","24.9912966666667","6500300","中和區"
"235012","896-TW","2018/02/03 13:09:19","新北市中和區員山路36巷16-3號","121.484923333333","24.9919066666667","6500300","中和區"
"235017","900-TW","2018/02/03 13:09:29","新北市中和區員山路36巷16-5號","121.48477","24.991965","6500300","中和區"
"235015","157-BY","2018/02/03 13:09:21","新北市中和區捷運路57號","121.509236666667","24.9897016666667","6500300","中和區"
"235001","AAC-213","2018/02/03 13:09:13","新北市中和區景平路171號","121.512201666667","24.9924216666667","6500300","中和區"
"228005","097-TW","2018/02/03 13:09:29","新北市貢寮區仁理村研海街62-2號","121.92571","25.04405","6502600","貢寮區"
"228004","212-TW","2018/02/03 13:08:48","新北市貢寮區吉林里內寮街73號","121.89247","24.9731533333333","6502600","貢寮區"
"253003","6232-TK","2018/02/03 13:09:23","新北市石門區石崩山27-2號","121.565548333333","25.2807866666667","6502200","石門區"
"253001","6251-TK","2018/02/03 13:09:18","新北市石門區大溪墘2-4號","121.549638333333","25.2898183333333","6502200","石門區"
"253002","637-UY","2018/02/03 13:09:14","新北市石門區老崩山35號","121.557648333333","25.276805","6502200","石門區"
"253004","8270-PC","2018/02/03 13:09:10","新北市石門區小坑20-1號","121.59624","25.2809683333333","6502200","石門區"
"208004","AAC-292","2018/02/03 13:09:18","新北市金山區環金路297巷23號","121.630291666667","25.2232583333333","6502700","金山區"
"207002","749-BX","2018/02/03 13:09:29","新北市萬里區崁腳里內崁路7號","121.640941666667","25.1596566666667","6502800","萬里區"
"252005","073-UM","2018/02/03 13:09:18","新北市三芝區八賢里八連溪16-2號","121.51066","25.2430583333333","6502100","三芝區"
"207001","662-BX","2018/02/03 13:09:18","新北市萬里區萬里里瑪鋉頂街48-1號","121.689235","25.1797683333333","6502800","萬里區"
"236006","498-BY","2018/02/03 13:09:32","新北市土城區亞洲路112號","121.434128333333","24.9721716666667","6501300","土城區"
