"lineid","car","time","location","longitude","latitude","cityid","cityname"
"234044","148-BY","2018/02/03 13:19:11","新北市永和區得和路373巷6弄1號","121.524826666667","24.9998666666667","6500400","永和區"
"234068","149-BY","2018/02/03 13:19:15","新北市永和區豫溪街55號","121.517215","25.0099266666667","6500400","永和區"
"234005","207-UY","2018/02/03 13:19:11","新北市永和區保生路1號","121.506671666667","25.0072116666667","6500400","永和區"
"234078","298-R6","2018/02/03 13:19:10","新北市永和區福和路26號","121.523966666667","25.0083783333333","6500400","永和區"
"234036","336-UY","2018/02/03 13:19:18","新北市永和區民樂街59巷2號","121.527431666667","24.9982833333333","6500400","永和區"
"234084","338-UY","2018/02/03 13:19:23","新北市永和區永利路42號","121.518645","25.0053816666667","6500400","永和區"
"234015","745-BX","2018/02/03 13:19:22","新北市永和區文化路144巷19弄12號","121.512358333333","25.0167333333333","6500400","永和區"
"234028","746-BX","2018/02/03 13:19:24","新北市永和區厚德街91號","121.523885","24.998855","6500400","永和區"
"234052","KEA-2590","2018/02/03 13:19:27","新北市永和區中興街63號","121.516765","25.0116616666667","6500400","永和區"
"234012","KEA-2591","2018/02/03 13:19:28","新北市永和區信義路34號","121.513671666667","25.0122833333333","6500400","永和區"
"234060","AAD-866","2018/02/03 13:19:17","新北市永和區秀朗路一段175號","121.517006666667","25.003695","6500400","永和區"
"234062","847-RS","2018/02/03 13:19:23","新北市永和區永元路17巷15號","121.521323333333","25.00075","6500400","永和區"
"234040","862-TW","2018/02/03 13:19:17","新北市永和區保平路151巷6弄12號","121.509693333333","25.0050916666667","6500400","永和區"
"234048","863-TW","2018/02/03 13:19:28","新北市永和區保福路二段88巷17號","121.511508333333","25.013715","6500400","永和區"
"234025","9371-KE","2018/02/03 13:19:14","新北市永和區豫溪街42巷15號","121.515381666667","25.009075","6500400","永和區"
"234010","9373-KE","2018/02/03 13:19:29","新北市永和區文化路90巷38號","121.513318333333","25.016465","6500400","永和區"
"248017","225-UY","2018/02/03 13:19:16","新北市五股區御史路199-5號","121.4328","25.0990816666667","6501500","五股區"
"234022","9380-KE","2018/02/03 13:19:17","新北市永和區中興街10巷4號","121.515561666667","25.01168","6500400","永和區"
"234076","969-R7","2018/02/03 13:19:23","新北市永和區民有街25巷2號","121.517223333333","24.9960033333333","6500400","永和區"
"234072","AAC-211","2018/02/03 13:19:14","新北市永和區竹林路46號","121.517681666667","25.0142483333333","6500400","永和區"
"234066","AAC-212","2018/02/03 13:19:26","新北市永和區保平路30巷7號","121.511625","25.0075933333333","6500400","永和區"
"234001","AAC-295","2018/02/03 13:19:27","新北市永和區保福路一段100號","121.511805","25.010635","6500400","永和區"
"231002","002-UM","2018/02/03 13:19:24","新北市新店區安華路28-1號","121.519943333333","24.9610033333333","6500600","新店區"
"231027","0291-UT","2018/02/03 13:19:22","新北市新店區安康路一段3-1號","121.535175","24.960895","6500600","新店區"
"231025","0293-UT","2018/02/03 13:19:14","新北市新店區中央五街22-1號","121.529223333333","24.9745216666667","6500600","新店區"
"231028","046-UY","2018/02/03 13:19:20","新北市新店區安華路28-1號","121.519711666667","24.961","6500600","新店區"
"231030","047-UY","2018/02/03 13:19:09","新北市新店區安華路28-1號","121.519271666667","24.9609516666667","6500600","新店區"
"231029","106-UY","2018/02/03 13:19:18","新北市新店區安華路28-1號","121.519751666667","24.9609116666667","6500600","新店區"
"231018","107-UY","2018/02/03 13:19:14","新北市新店區秀山路66號","121.530825","24.96099","6500600","新店區"
"231012","108-UY","2018/02/03 13:19:22","新北市新店區安康路一段107-2號","121.52867","24.9617","6500600","新店區"
"231035","110-UY","2018/02/03 13:19:14","新北市新店區安華路28-1號","121.519366666667","24.9607483333333","6500600","新店區"
"231020","187-VK","2018/02/03 13:19:16","新北市新店區安康路一段104號","121.52733","24.9624116666667","6500600","新店區"
"231017","KEA-2219","2018/02/03 13:19:21","新北市新店區安康路一段119號","121.52837","24.9617533333333","6500600","新店區"
"231026","256-BX","2018/02/03 13:19:28","新北市新店區安華路28-1號","121.519778333333","24.96117","6500600","新店區"
"231010","278-BY","2018/02/03 13:19:26","新北市新店區秀山路68號","121.530898333333","24.9609883333333","6500600","新店區"
"231023","AAD-862","2018/02/03 13:19:14","新北市新店區安康路一段105號","121.529045","24.9615483333333","6500600","新店區"
"231024","4716-K9","2018/02/03 13:19:27","新北市新店區安康路一段33-1號","121.532351666667","24.9604666666667","6500600","新店區"
"231038","4715-K9","2018/02/03 13:19:25","新北市新店區安華路1-1號","121.51958","24.9604266666667","6500600","新店區"
"231036","512-UM","2018/02/03 13:19:06","新北市新店區安康路二段362-5號","121.50161","24.9573416666667","6500600","新店區"
"231003","616-UM","2018/02/03 13:19:17","新北市新店區安華路28-1號","121.519356666667","24.960565","6500600","新店區"
"231006","617-UM","2018/02/03 13:19:26","新北市新店區安華路28-1號","121.519508333333","24.960915","6500600","新店區"
"231001","619-UM","2018/02/03 13:19:17","新北市新店區安華路28-1號","121.519785","24.9609183333333","6500600","新店區"
"231034","645-TV","2018/02/03 13:19:12","新北市新店區安華路28-1號","121.519135","24.9607316666667","6500600","新店區"
"231013","719-UM","2018/02/03 13:19:13","新北市新店區安康路一段117號","121.5284","24.9617516666667","6500600","新店區"
"231033","720-UM","2018/02/03 13:19:20","新北市新店區安忠路205巷8號","121.510128333333","24.955485","6500600","新店區"
"231005","897-TW","2018/02/03 13:19:15","新北市新店區安康路一段355-3號","121.519798333333","24.9621083333333","6500600","新店區"
"231004","899-TW","2018/02/03 13:19:23","新北市新店區安康路二段1-4號","121.516238333333","24.9628633333333","6500600","新店區"
"231037","AKT-0513","2018/02/03 13:19:20","新北市新店區安忠路205巷8號","121.510118333333","24.95547","6500600","新店區"
"235030","003-UY","2018/02/03 13:19:17","新北市中和區中山路二段64巷14弄2號","121.5034","25.0054883333333","6500300","中和區"
"235028","005-UY","2018/02/03 13:19:28","新北市中和區圓通路141巷48弄15號","121.498236666667","24.993875","6500300","中和區"
"235003","097-UM","2018/02/03 13:19:15","新北市中和區中正路358號","121.493651666667","24.9938783333333","6500300","中和區"
"235029","098-UM","2018/02/03 13:19:22","新北市中和區莊敬路49巷20弄24號","121.502858333333","25.005825","6500300","中和區"
"235004","150-BY","2018/02/03 13:18:47","新北市中和區中正路171號","121.497865","24.9936916666667","6500300","中和區"
"235022","151-BY","2018/02/03 13:19:20","新北市中和區圓通路290-3號","121.490426666667","24.9893666666667","6500300","中和區"
"235019","183-VK","2018/02/03 13:19:28","新北市中和區員山路36巷16-3號","121.484956666667","24.991415","6500300","中和區"
"235002","185-VK","2018/02/03 13:19:18","新北市中和區大智街106巷2號","121.523985","24.9925383333333","6500300","中和區"
"235031","255-BX","2018/02/03 13:19:31","新北市中和區中正路803號","121.484833333333","25.0012133333333","6500300","中和區"
"235036","301-VK","2018/02/03 13:19:13","新北市中和區錦和路168號","121.489895","24.9957816666667","6500300","中和區"
"235007","352-BY","2018/02/03 13:19:13","新北市中和區中正路190-1號","121.497966666667","24.9937616666667","6500300","中和區"
"235025","378-QA","2018/02/03 13:18:50","新北市中和區國光街215巷24弄6號","121.466591666667","25.0001616666667","6500300","中和區"
"235035","269-TV","2018/02/03 13:19:15","新北市中和區永和路458巷3弄1號","121.484011666667","25.0127216666667","6500300","中和區"
"235014","4979-A6","2018/02/03 13:19:23","新北市中和區捷運路61巷9號","121.509031666667","24.98934","6500300","中和區"
"235033","4980-A6","2018/02/03 13:19:15","新北市中和區中正路271-5號","121.495785","24.9932633333333","6500300","中和區"
"235006","551-UM","2018/02/03 13:19:21","新北市中和區景平路159巷3號","121.512681666667","24.99206","6500300","中和區"
"235009","565-BX","2018/02/03 13:19:22","新北市中和區中興街118巷4號","121.500065","24.9932933333333","6500300","中和區"
"235018","640-BX","2018/02/03 13:19:27","新北市中和區民德路166號","121.468521666667","24.9997933333333","6500300","中和區"
"235024","647-TV","2018/02/03 13:18:58","新北市中和區員山路36巷16-3號","121.484946666667","24.991265","6500300","中和區"
"235011","732-UM","2018/02/03 13:17:26","新北市中和區建八路1號","121.485453333333","24.99868","6500300","中和區"
"235026","800-TS","2018/02/03 13:19:19","新北市中和區景平路999巷1號","121.495498333333","25.0060416666667","6500300","中和區"
"235021","801-TS","2018/02/03 13:19:19","新北市中和區員山路36巷16-3號","121.484895","24.991665","6500300","中和區"
"235005","802-TS","2018/02/03 13:19:20","新北市永和區中和路381號","121.508523333333","24.9998533333333","6500300","中和區"
"235016","805-TS","2018/02/03 13:19:31","新北市中和區中正路19號","121.502855","24.9933633333333","6500300","中和區"
"235012","896-TW","2018/02/03 13:19:19","新北市中和區錦和路350-1號","121.490505","24.9935516666667","6500300","中和區"
"235017","900-TW","2018/02/03 13:19:29","新北市中和區員山路36巷16-3號","121.484931666667","24.9919283333333","6500300","中和區"
"235027","911-UM","2018/02/03 13:19:21","新北市中和區員山路36巷16-3號","121.48498","24.9912816666667","6500300","中和區"
"235015","157-BY","2018/02/03 13:19:21","新北市中和區仁愛街93號","121.51194","24.9869216666667","6500300","中和區"
"235001","AAC-213","2018/02/03 13:19:13","新北市中和區景平路73號","121.518926666667","24.9915183333333","6500300","中和區"
"228005","097-TW","2018/02/03 13:19:29","新北市貢寮區美豐里丹裡街59-2號","121.911778333333","25.0588316666667","6502600","貢寮區"
"228004","212-TW","2018/02/03 13:19:28","新北市貢寮區吉林里內寮街35-2號","121.900433333333","24.9819533333333","6502600","貢寮區"
"253003","6232-TK","2018/02/03 13:19:23","新北市石門區石崩山19-2號","121.566506666667","25.2661866666667","6502200","石門區"
"253001","6251-TK","2018/02/03 13:19:18","新北市石門區楓林6-1號","121.537735","25.2959383333333","6502200","石門區"
"253002","637-UY","2018/02/03 13:19:14","新北市石門區大溪墘9-2號","121.55171","25.27559","6502200","石門區"
"253004","8270-PC","2018/02/03 13:19:30","新北市石門區阿里荖4-7號","121.611458333333","25.2782716666667","6502200","石門區"
"208004","AAC-292","2018/02/03 13:19:25","新北市金山區南勢湖74號","121.611296666667","25.21107","6502700","金山區"
"207002","749-BX","2018/02/03 13:19:09","新北市萬里區崁腳里崁腳路166號","121.645063333333","25.1558533333333","6502800","萬里區"
"252005","073-UM","2018/02/03 13:19:18","新北市三芝區八賢里八連溪76號","121.519183333333","25.22984","6502100","三芝區"
"207001","662-BX","2018/02/03 13:19:18","新北市萬里區龜吼里光宇大道2號","121.679801666667","25.191235","6502800","萬里區"
"236006","498-BY","2018/02/03 13:19:27","新北市土城區亞洲路150號","121.433263333333","24.971455","6501300","土城區"
"242001","233-RS","2018/02/03 13:19:24","新北市新莊區環河路462號","121.440123333333","25.0198683333333","6500500","新莊區"
