"lineid","car","time","location","longitude","latitude","cityid","cityname"
"234044","148-BY","2018/02/03 14:19:10","新北市永和區永元路2號","121.522045","24.9997833333333","6500400","永和區"
"234068","149-BY","2018/02/03 14:19:15","新北市永和區福和路263巷15號","121.51803","25.0064666666667","6500400","永和區"
"234005","207-UY","2018/02/03 14:19:11","新北市永和區永貞路376號","121.509765","25.0069616666667","6500400","永和區"
"234078","298-R6","2018/02/03 14:19:30","新北市永和區國中路132巷11號","121.52383","25.0074483333333","6500400","永和區"
"234036","336-UY","2018/02/03 14:19:18","新北市永和區成功路一段93巷11號","121.527525","25.0027333333333","6500400","永和區"
"234084","338-UY","2018/02/03 14:19:23","新北市永和區福和路282號","121.51774","25.0074533333333","6500400","永和區"
"234015","745-BX","2018/02/03 14:19:22","新北市永和區仁愛路85號","121.513155","25.0131233333333","6500400","永和區"
"234028","746-BX","2018/02/03 14:19:23","新北市永和區民權路49巷37號","121.522011666667","24.9975966666667","6500400","永和區"
"234052","KEA-2590","2018/02/03 14:19:24","新北市永和區光復街2巷16弄1號","121.517105","25.01634","6500400","永和區"
"234012","KEA-2591","2018/02/03 14:19:28","新北市永和區新生路273巷1-1號","121.504853333333","25.01269","6500400","永和區"
"234060","AAD-866","2018/02/03 14:19:17","新北市永和區安樂路170號","121.514768333333","25.000855","6500400","永和區"
"234062","847-RS","2018/02/03 14:19:23","新北市永和區得和路247號","121.52055","24.9999366666667","6500400","永和區"
"234040","862-TW","2018/02/03 14:19:17","新北市永和區安樂路218號","121.514991666667","25.0022133333333","6500400","永和區"
"234048","863-TW","2018/02/03 14:19:19","新北市永和區新生路51號","121.508951666667","25.0163383333333","6500400","永和區"
"234025","9371-KE","2018/02/03 14:19:14","新北市永和區安樂路144巷31號","121.515345","24.9997583333333","6500400","永和區"
"248017","225-UY","2018/02/03 14:16:56","新北市五股區壟路20-1號","121.413568333333","25.0850383333333","6501500","五股區"
"234022","9380-KE","2018/02/03 14:19:17","新北市永和區竹林路41號","121.518086666667","25.0142183333333","6500400","永和區"
"234076","969-R7","2018/02/03 14:19:23","新北市永和區民族街81巷46號","121.519728333333","24.996495","6500400","永和區"
"234072","AAC-211","2018/02/03 14:19:14","新北市永和區福和路24號","121.524053333333","25.0084166666667","6500400","永和區"
"234066","AAC-212","2018/02/03 14:19:26","新北市永和區保平路268巷51弄2號","121.507003333333","25.0063216666667","6500400","永和區"
"234001","AAC-295","2018/02/03 14:19:20","新北市永和區中正路605號","121.516516666667","25.0095983333333","6500400","永和區"
"231002","002-UM","2018/02/03 14:19:24","新北市新店區中央路2號","121.533933333333","24.9788833333333","6500600","新店區"
"231027","0291-UT","2018/02/03 14:19:21","新北市新店區北新路一段90號","121.541835","24.9683333333333","6500600","新店區"
"231025","0293-UT","2018/02/03 14:19:14","新北市新店區二十張路105巷16號","121.536911666667","24.97906","6500600","新店區"
"231028","046-UY","2018/02/03 14:19:28","新北市新店區安和路二段109號","121.518733333333","24.9699033333333","6500600","新店區"
"231030","047-UY","2018/02/03 14:19:29","新北市新店區安民街12號","121.515385","24.9643833333333","6500600","新店區"
"231029","106-UY","2018/02/03 14:19:18","新北市新店區安康路二段161號","121.510093333333","24.9593283333333","6500600","新店區"
"231018","107-UY","2018/02/03 14:19:14","新北市新店區中央四街79號","121.526485","24.9758383333333","6500600","新店區"
"231012","108-UY","2018/02/03 14:19:22","新北市新店區五峰路61巷6號","121.548235","24.969785","6500600","新店區"
"231035","110-UY","2018/02/03 14:19:13","新北市新店區碧安街3號","121.516931666667","24.9677283333333","6500600","新店區"
"231020","187-VK","2018/02/03 14:19:16","新北市新店區桂山路51巷6-1號","121.562048333333","24.9015633333333","6500600","新店區"
"231017","KEA-2219","2018/02/03 14:19:21","新北市新店區北宜路二段458號","121.57037","24.9565733333333","6500600","新店區"
"231023","AAD-862","2018/02/03 14:19:28","新北市新店區光明街103號","121.539153333333","24.961185","6500600","新店區"
"231038","4715-K9","2018/02/03 14:19:25","新北市新店區溪洲路6巷80號","121.53356","24.963085","6500600","新店區"
"231036","512-UM","2018/02/03 14:19:18","新北市新店區安祥路109巷85弄39號","121.478658333333","24.9597733333333","6500600","新店區"
"231003","616-UM","2018/02/03 14:19:17","新北市新店區中興路一段216號","121.543893333333","24.965725","6500600","新店區"
"231006","617-UM","2018/02/03 14:19:26","新北市新店區北宜路二段599號","121.568205","24.9556116666667","6500600","新店區"
"231001","619-UM","2018/02/03 14:19:17","新北市新店區北新路一段329號","121.541721666667","24.9684766666667","6500600","新店區"
"231034","645-TV","2018/02/03 14:19:12","新北市新店區黎明路3號","121.503465","24.952425","6500600","新店區"
"231013","719-UM","2018/02/03 14:19:12","新北市新店區建國路128巷1號","121.539043333333","24.9793933333333","6500600","新店區"
"231033","720-UM","2018/02/03 14:19:20","新北市新店區溪洲路187-2號","121.529173333333","24.9646366666667","6500600","新店區"
"231005","897-TW","2018/02/03 14:19:15","新北市新店區中興路三段136號","121.544565","24.9801283333333","6500600","新店區"
"231004","899-TW","2018/02/03 14:19:23","新北市新店區中正路143號","121.541596666667","24.9715766666667","6500600","新店區"
"231037","AKT-0513","2018/02/03 14:19:19","新北市新店區車子路66號","121.503736666667","24.951335","6500600","新店區"
"235030","003-UY","2018/02/03 14:19:17","新北市中和區廣福路112號","121.50213","25.0011316666667","6500300","中和區"
"235028","005-UY","2018/02/03 14:19:28","新北市中和區連城路23巷1號","121.498985","25.0018666666667","6500300","中和區"
"235020","096-UM","2018/02/03 14:19:29","新北市中和區中山路三段102號","121.47691","25.0058916666667","6500300","中和區"
"235003","097-UM","2018/02/03 14:19:15","新北市中和區秀峰街119巷6弄12號","121.51901","24.9901533333333","6500300","中和區"
"235029","098-UM","2018/02/03 14:19:30","新北市中和區中山路二段64巷11號","121.503241666667","25.0056983333333","6500300","中和區"
"235004","150-BY","2018/02/03 14:19:27","新北市中和區保健路106巷44號","121.511201666667","24.9945733333333","6500300","中和區"
"235022","151-BY","2018/02/03 14:19:20","新北市中和區員山路36巷16-2號","121.485346666667","24.9913566666667","6500300","中和區"
"235019","183-VK","2018/02/03 14:19:28","新北市中和區中山路三段179巷19號","121.473443333333","25.0058916666667","6500300","中和區"
"235002","185-VK","2018/02/03 14:19:18","新北市中和區景平路126巷2弄15號","121.519761666667","24.99236","6500300","中和區"
"235013","186-VK","2018/02/03 14:19:20","新北市中和區景新街229號","121.507945","24.994695","6500300","中和區"
"235031","255-BX","2018/02/03 14:19:31","新北市中和區新生街168號","121.483716666667","25.0001583333333","6500300","中和區"
"235008","293-VK","2018/02/03 14:19:25","新北市中和區復興路306號","121.50125","24.9903183333333","6500300","中和區"
"235036","301-VK","2018/02/03 14:19:13","新北市中和區中山路二段64巷6號","121.50373","25.0049283333333","6500300","中和區"
"235007","352-BY","2018/02/03 14:19:32","新北市中和區景平路296號","121.513041666667","24.9926333333333","6500300","中和區"
"235032","377-QA","2018/02/03 14:19:19","新北市中和區圓通路158巷24號","121.49833","24.996935","6500300","中和區"
"235025","378-QA","2018/02/03 14:19:10","新北市中和區員山路238號","121.48128","25.001335","6500300","中和區"
"235035","269-TV","2018/02/03 14:19:15","新北市中和區中正路911號","121.483411666667","25.0066733333333","6500300","中和區"
"235014","4979-A6","2018/02/03 14:19:23","新北市中和區景安路216號","121.503898333333","24.9905916666667","6500300","中和區"
"235033","4980-A6","2018/02/03 14:19:15","新北市中和區廟美街6巷4號","121.501276666667","25.0012","6500300","中和區"
"235006","551-UM","2018/02/03 14:19:21","新北市中和區大勇街60巷8號","121.518681666667","24.99464","6500300","中和區"
"235009","565-BX","2018/02/03 14:19:31","新北市中和區景新街423巷35弄5號","121.514008333333","24.98992","6500300","中和區"
"235018","640-BX","2018/02/03 14:19:27","新北市中和區國光街109巷2弄8號","121.469385","25.0006483333333","6500300","中和區"
"235024","647-TV","2018/02/03 14:19:18","新北市中和區民有街66號","121.476083333333","25.0042816666667","6500300","中和區"
"235011","732-UM","2018/02/03 14:19:26","新北市中和區和平街54巷8弄1號","121.508971666667","24.9913916666667","6500300","中和區"
"235010","733-UM","2018/02/03 14:19:27","新北市中和區忠孝街2巷13弄2號","121.510458333333","24.9819266666667","6500300","中和區"
"235026","800-TS","2018/02/03 14:19:19","新北市中和區中山路二段365號","121.487683333333","25.0047366666667","6500300","中和區"
"235021","801-TS","2018/02/03 14:19:19","新北市中和區員山路176號","121.481301666667","25.0000783333333","6500300","中和區"
"235005","802-TS","2018/02/03 14:19:20","新北市中和區中安街192號","121.5114","24.9992416666667","6500300","中和區"
"235016","805-TS","2018/02/03 14:19:31","新北市中和區興南路二段142巷13號","121.503438333333","24.9833266666667","6500300","中和區"
"235012","896-TW","2018/02/03 14:19:19","新北市中和區華新街109巷1-3號","121.509061666667","24.98229","6500300","中和區"
"235017","900-TW","2018/02/03 14:19:28","新北市中和區民德路228號","121.468048333333","24.9976583333333","6500300","中和區"
"235027","911-UM","2018/02/03 14:19:21","新北市中和區圓通路198巷5號","121.49574","24.9943433333333","6500300","中和區"
"235015","157-BY","2018/02/03 14:19:21","新北市中和區興南路一段36號","121.511128333333","24.9908966666667","6500300","中和區"
"235001","AAC-213","2018/02/03 14:19:12","新北市中和區秀朗路三段50巷21號","121.524575","24.9951333333333","6500300","中和區"
"235023","AAC-215","2018/02/03 14:19:25","新北市中和區圓通路286巷2號","121.491448333333","24.990995","6500300","中和區"
"220016","013-TV","2018/02/03 14:19:17","新北市板橋區林森街1巷3號","121.482178333333","25.0241783333333","6500100","板橋區"
"220013","072-UY","2018/02/03 14:19:16","新北市板橋區民族路131號","121.467448333333","25.0080733333333","6500100","板橋區"
"220034","073-UY","2018/02/03 14:19:28","新北市板橋區中正路216巷88號","121.458366666667","25.0190633333333","6500100","板橋區"
"220105","075-UY","2018/02/03 14:19:16","新北市板橋區雙十路三段66巷1號","121.470528333333","25.031965","6500100","板橋區"
"220017","AAD-861","2018/02/03 14:19:27","新北市板橋區華興街33號","121.458345","25.0044866666667","6500100","板橋區"
"247021","893-R6","2018/02/03 14:19:30","新北市蘆洲區仁愛街212巷38號","121.4642","25.0944733333333","6501400","蘆洲區"
"247011","546-UM","2018/02/03 14:19:28","新北市蘆洲區民權路28號","121.476553333333","25.0860533333333","6501400","蘆洲區"
"247019","500-BY","2018/02/03 14:19:22","新北市蘆洲區仁愛街35巷12號","121.471553333333","25.0927166666667","6501400","蘆洲區"
"247007","341-TH","2018/02/03 14:19:30","新北市蘆洲區民生街30號","121.474865","25.0788283333333","6501400","蘆洲區"
"247009","339-TH","2018/02/03 14:19:11","新北市蘆洲區三民路26巷2弄1號","121.476238333333","25.0826766666667","6501400","蘆洲區"
"247001","337-TH","2018/02/03 14:19:26","新北市蘆洲區永樂街90號","121.456713333333","25.0886333333333","6501400","蘆洲區"
"247003","336-TH","2018/02/03 14:19:25","新北市蘆洲區長安街225號","121.45942","25.08238","6501400","蘆洲區"
"247017","335-TH","2018/02/03 14:19:18","新北市蘆洲區民權路116號","121.47352","25.0884383333333","6501400","蘆洲區"
"247005","056-VK","2018/02/03 14:19:21","新北市蘆洲區長安街16號","121.464096666667","25.079195","6501400","蘆洲區"
"247015","053-VK","2018/02/03 14:19:27","新北市蘆洲區光華路86號","121.467446666667","25.082945","6501400","蘆洲區"
"247013","007-UY","2018/02/03 14:19:28","新北市蘆洲區中山一路196號","121.473736666667","25.0808583333333","6501400","蘆洲區"
"247023","002-UY","2018/02/03 14:19:27","新北市蘆洲區長榮路675號","121.460375","25.0917933333333","6501400","蘆洲區"
"228005","097-TW","2018/02/03 14:19:29","新北市貢寮區美豐里土地公嶺54號","121.8945","25.06498","6502600","貢寮區"
"228004","212-TW","2018/02/03 14:19:28","新北市貢寮區雙玉里田寮洋街26號","121.926251666667","25.0131666666667","6502600","貢寮區"
"253003","6232-TK","2018/02/03 14:19:22","新北市石門區內石門67-2號","121.575768333333","25.2552733333333","6502200","石門區"
"253001","6251-TK","2018/02/03 14:19:18","新北市石門區八甲27-2號","121.528178333333","25.2776516666667","6502200","石門區"
"253002","637-UY","2018/02/03 14:19:14","新北市石門區大溪墘8號","121.550985","25.2751533333333","6502200","石門區"
"253004","8270-PC","2018/02/03 14:19:13","新北市石門區內阿里磅1號","121.592248333333","25.2545416666667","6502200","石門區"
"208004","AAC-292","2018/02/03 14:19:14","新北市金山區六股里下六股65號","121.614446666667","25.22363","6502700","金山區"
"207002","749-BX","2018/02/03 14:19:29","新北市萬里區溪底里瑞泉路4-1號","121.608821666667","25.1465083333333","6502800","萬里區"
"252005","073-UM","2018/02/03 14:19:18","新北市三芝區橫山里大坑98-1號","121.526158333333","25.2614366666667","6502100","三芝區"
"207001","662-BX","2018/02/03 14:19:18","新北市萬里區磺潭里清水18號","121.637863333333","25.1977316666667","6502800","萬里區"
"236068","105-UM","2018/02/03 14:19:19","新北市土城區明德路一段169號","121.464261666667","24.97931","6501300","土城區"
"236041","107-UM","2018/02/03 14:19:33","新北市土城區樂利街3巷15號","121.44854","24.986495","6501300","土城區"
"236001","138-TH","2018/02/03 14:19:30","新北市土城區金城路二段249號","121.45786","24.9842466666667","6501300","土城區"
"236075","166-UM","2018/02/03 14:19:20","新北市土城區永安街115巷36號","121.428843333333","24.963","6501300","土城區"
"236029","253-BX","2018/02/03 14:19:19","新北市土城區順風路30號","121.440101666667","24.9771516666667","6501300","土城區"
"236024","269-VK","2018/02/03 14:19:21","新北市土城區承天路26號","121.439498333333","24.9630816666667","6501300","土城區"
"236013","270-VK","2018/02/03 14:19:27","新北市土城區青雲路39巷7號","121.460333333333","24.9875666666667","6501300","土城區"
"236035","271-VK","2018/02/03 14:19:22","新北市土城區青雲路451巷8弄9號","121.459608333333","24.9743933333333","6501300","土城區"
"236017","401-BY","2018/02/03 14:19:11","新北市土城區明峰街50號","121.467755","24.9865233333333","6501300","土城區"
"236006","498-BY","2018/02/03 14:19:12","新北市土城區城林路6巷80號","121.438648333333","24.9797633333333","6501300","土城區"
"236057","912-UM","2018/02/03 14:19:31","新北市土城區中央路四段300號","121.414035","24.9561816666667","6501300","土城區"
"236045","913-UM","2018/02/03 14:19:15","新北市土城區明德路一段375-2號","121.454566666667","24.9782716666667","6501300","土城區"
"236061","915-UM","2018/02/03 14:19:30","新北市土城區延壽路31號","121.471006666667","24.99108","6501300","土城區"
"236054","AAC-216","2018/02/03 14:19:25","新北市土城區中華路二段198號","121.437561666667","24.9701766666667","6501300","土城區"
"242001","233-RS","2018/02/03 14:19:24","新北市新莊區環河路48-7號","121.436981666667","25.0100516666667","6500500","新莊區"
"220027","145-BY","2018/02/03 14:19:23","新北市板橋區民權路308號","121.457226666667","25.01623","6500100","板橋區"
"220028","200-UY","2018/02/03 14:19:18","新北市板橋區大觀路二段3巷83號","121.45002","25.003285","6500100","板橋區"
"220030","610-BX","2018/02/03 14:19:15","新北市板橋區篤行路三段玉平巷76弄14號","121.427491666667","24.9859","6500100","板橋區"
"220052","257-TC","2018/02/03 14:19:28","新北市板橋區文化路一段188巷5弄13號","121.467431666667","25.0198116666667","6500100","板橋區"
"220040","267-BY","2018/02/03 14:19:26","新北市板橋區文聖街206號","121.480275","25.0257683333333","6500100","板橋區"
"220004","276-BY","2018/02/03 14:19:28","新北市板橋區信義路54巷1號","121.457151666667","24.9938566666667","6500100","板橋區"
"220020","277-BY","2018/02/03 14:19:23","新北市板橋區金門街372巷33號","121.427411666667","24.9848966666667","6500100","板橋區"
"220050","280-UM","2018/02/03 14:19:18","新北市板橋區莊敬路21號","121.473705","25.0280666666667","6500100","板橋區"
"220019","283-VK","2018/02/03 14:19:24","新北市板橋區忠孝路48巷7弄1-3號","121.461083333333","25.00041","6500100","板橋區"
"220043","285-UM","2018/02/03 14:19:13","新北市板橋區吳鳳路21巷2號","121.466946666667","25.0312383333333","6500100","板橋區"
"220001","285-VK","2018/02/03 14:19:30","新北市板橋區永豐街158號","121.478433333333","25.0211833333333","6500100","板橋區"
"220031","286-VK","2018/02/03 14:19:29","新北市板橋區大觀路二段174巷166弄3號","121.442261666667","25.0031566666667","6500100","板橋區"
"220029","287-VK","2018/02/03 14:19:26","新北市板橋區南雅西路一段126號","121.452623333333","25.0068433333333","6500100","板橋區"
"220039","288-VK","2018/02/03 14:19:17","新北市板橋區長江路一段106巷13弄33號","121.46128","25.02982","6500100","板橋區"
"220009","293-UM","2018/02/03 14:19:18","新北市板橋區中山路二段320號","121.48103","25.0194733333333","6500100","板橋區"
"220010","295-UM","2018/02/03 14:19:23","新北市板橋區三民路二段居仁巷2弄21號","121.479835","25.0129916666667","6500100","板橋區"
"220032","296-UM","2018/02/03 14:19:28","新北市板橋區溪崑二街16號","121.42866","24.9917366666667","6500100","板橋區"
"220041","299-UM","2018/02/03 14:19:25","新北市板橋區光武街36巷12號","121.467938333333","25.0261616666667","6500100","板橋區"
"220023","303-R5","2018/02/03 14:19:11","新北市板橋區南雅南路一段1巷38號","121.457216666667","25.00648","6500100","板橋區"
"220047","317-R6","2018/02/03 14:19:20","新北市板橋區民有街63號","121.465186666667","25.02666","6500100","板橋區"
"220012","486-VK","2018/02/03 14:19:15","新北市板橋區中山路二段18號","121.472218333333","25.0148866666667","6500100","板橋區"
"220038","487-VK","2018/02/03 14:19:22","新北市板橋區文化路一段357號","121.466798333333","25.0211083333333","6500100","板橋區"
"220104","560-BX","2018/02/03 14:19:20","新北市板橋區中正路433巷25號","121.453275","25.0236516666667","6500100","板橋區"
"220011","609-BX","2018/02/03 14:19:26","新北市板橋區三民路二段203-4號","121.479078333333","25.013525","6500100","板橋區"
"220005","686-BX","2018/02/03 14:19:16","新北市板橋區重慶路344號","121.464215","24.997235","6500100","板橋區"
"220025","687-BX","2018/02/03 14:19:25","新北市板橋區大觀路二段183號","121.44479","24.9999616666667","6500100","板橋區"
"220042","689-BX","2018/02/03 14:19:30","新北市板橋區文化路一段241號","121.464255","25.0177716666667","6500100","板橋區"
"220002","741-BX","2018/02/03 14:19:28","新北市板橋區實踐路124號","121.464091666667","25.0031583333333","6500100","板橋區"
"220003","827-TW","2018/02/03 14:19:28","新北市板橋區館前東路156巷44號","121.46453","25.00658","6500100","板橋區"
"220014","829-TW","2018/02/03 14:19:14","新北市板橋區長安街176號","121.473903333333","25.0112883333333","6500100","板橋區"
"220037","833-TW","2018/02/03 14:19:17","新北市板橋區文化路二段182巷3弄60號","121.47281","25.0287966666667","6500100","板橋區"
"220022","895-R6","2018/02/03 14:19:31","新北市板橋區民權路182號","121.45938","25.013385","6500100","板橋區"
"220021","985-R7","2018/02/03 14:19:15","新北市板橋區中正路387號","121.454323333333","25.021675","6500100","板橋區"
"220046","AAC-210","2018/02/03 14:19:31","新北市板橋區漢生西路89巷39號","121.461395","25.0191116666667","6500100","板橋區"
"220018","AAC-253","2018/02/03 14:19:31","新北市板橋區忠孝路91號","121.462248333333","25.0022016666667","6500100","板橋區"
