"lineid","car","time","location","longitude","latitude","cityid","cityname"
"234068","149-BY","2018/02/03 14:29:15","新北市永和區永亨路7號","121.519358333333","25.0057133333333","6500400","永和區"
"234005","207-UY","2018/02/03 14:29:32","新北市永和區中正路512號","121.517398333333","25.0046833333333","6500400","永和區"
"234078","298-R6","2018/02/03 14:29:30","新北市永和區永亨路66號","121.520856666667","25.005845","6500400","永和區"
"234084","338-UY","2018/02/03 14:29:23","新北市永和區永和路二段159號","121.515288333333","25.0130416666667","6500400","永和區"
"234028","746-BX","2018/02/03 14:29:23","新北市永和區民權路47號","121.519998333333","24.99717","6500400","永和區"
"234052","KEA-2590","2018/02/03 14:29:24","新北市永和區光復街60巷29號","121.518191666667","25.0173883333333","6500400","永和區"
"234060","AAD-866","2018/02/03 14:29:17","新北市永和區秀安街19號","121.516236666667","25.0037566666667","6500400","永和區"
"234062","847-RS","2018/02/03 14:29:23","新北市永和區中正路399號","121.517145","25.0041833333333","6500400","永和區"
"234040","862-TW","2018/02/03 14:29:17","新北市永和區安樂路336號","121.51444","25.0059383333333","6500400","永和區"
"234048","863-TW","2018/02/03 14:29:18","新北市永和區環河西路二段109號","121.506293333333","25.0146316666667","6500400","永和區"
"234025","9371-KE","2018/02/03 14:29:14","新北市中和區安平路222號","121.51401","25.0000183333333","6500400","永和區"
"248017","225-UY","2018/02/03 14:16:56","新北市五股區壟路20-1號","121.413568333333","25.0850383333333","6501500","五股區"
"234072","AAC-211","2018/02/03 14:29:14","新北市永和區竹林路119巷3號","121.520273333333","25.0115116666667","6500400","永和區"
"234001","AAC-295","2018/02/03 14:29:20","新北市永和區自強街6巷1弄1號","121.514373333333","25.0079666666667","6500400","永和區"
"231002","002-UM","2018/02/03 14:29:24","新北市新店區中央路109號","121.530996666667","24.9747216666667","6500600","新店區"
"231027","0291-UT","2018/02/03 14:29:21","新北市新店區寶橋路85巷35號","121.545268333333","24.9762866666667","6500600","新店區"
"231025","0293-UT","2018/02/03 14:29:14","新北市新店區自立街38號","121.538355","24.9786283333333","6500600","新店區"
"231028","046-UY","2018/02/03 14:29:20","新北市新店區安康路二段190號","121.511186666667","24.96016","6500600","新店區"
"231030","047-UY","2018/02/03 14:29:29","新北市新店區安民街67-3號","121.516236666667","24.9667283333333","6500600","新店區"
"231029","106-UY","2018/02/03 14:29:18","新北市新店區安康路二段408號","121.496765","24.9552516666667","6500600","新店區"
"231018","107-UY","2018/02/03 14:29:14","新北市新店區中央二街79號","121.525898333333","24.97507","6500600","新店區"
"231012","108-UY","2018/02/03 14:29:22","新北市新店區寶興路50號","121.549665","24.9724166666667","6500600","新店區"
"231035","110-UY","2018/02/03 14:29:13","新北市新店區安康路二段58巷3號","121.51475","24.9642533333333","6500600","新店區"
"231020","187-VK","2018/02/03 14:29:16","新北市新店區桂山路2-1號","121.55689","24.90434","6500600","新店區"
"231017","KEA-2219","2018/02/03 14:29:21","新北市新店區北宜路三段229號","121.593118333333","24.9531866666667","6500600","新店區"
"231023","AAD-862","2018/02/03 14:29:14","新北市新店區光明街96巷1號","121.539148333333","24.9600683333333","6500600","新店區"
"231038","4715-K9","2018/02/03 14:29:25","新北市新店區溪洲路174號","121.529043333333","24.9655166666667","6500600","新店區"
"231036","512-UM","2018/02/03 14:29:18","新北市新店區安祥路109巷151弄16號","121.477745","24.9588016666667","6500600","新店區"
"231003","616-UM","2018/02/03 14:28:37","新北市新店區中興路一段267-1號","121.544883333333","24.9678083333333","6500600","新店區"
"231006","617-UM","2018/02/03 14:29:26","新北市新店區北宜路二段332號","121.562288333333","24.9538266666667","6500600","新店區"
"231001","619-UM","2018/02/03 14:29:17","新北市新店區中正路75巷71號","121.543083333333","24.968785","6500600","新店區"
"231034","645-TV","2018/02/03 14:29:32","新北市新店區黎明路52巷3號","121.502198333333","24.948645","6500600","新店區"
"231013","719-UM","2018/02/03 14:29:13","新北市新店區民權路100-1號","121.536216666667","24.9833583333333","6500600","新店區"
"231005","897-TW","2018/02/03 14:29:15","新北市新店區北新路三段179號","121.540921666667","24.9842383333333","6500600","新店區"
"231004","899-TW","2018/02/03 14:29:23","新北市新店區中正路263-2號","121.53834","24.9736666666667","6500600","新店區"
"231037","AKT-0513","2018/02/03 14:29:19","新北市新店區安康路二段320巷3弄2號","121.504316666667","24.959","6500600","新店區"
"235030","003-UY","2018/02/03 14:29:17","新北市中和區景新街51號","121.504373333333","24.9990233333333","6500300","中和區"
"235028","005-UY","2018/02/03 14:29:28","新北市中和區連城路12號","121.498911666667","25.0023183333333","6500300","中和區"
"235020","096-UM","2018/02/03 14:29:09","新北市中和區員山路514巷16號","121.479631666667","25.0096333333333","6500300","中和區"
"235003","097-UM","2018/02/03 14:29:15","新北市中和區秀峰街129號","121.51828","24.9901083333333","6500300","中和區"
"235029","098-UM","2018/02/03 14:29:22","新北市中和區永和路39巷2號","121.498031666667","25.00492","6500300","中和區"
"235004","150-BY","2018/02/03 14:29:27","新北市中和區保健路106巷37號","121.511945","24.99528","6500300","中和區"
"235022","151-BY","2018/02/03 14:29:20","新北市中和區連城路346-1號","121.482466666667","24.9955183333333","6500300","中和區"
"235019","183-VK","2018/02/03 14:29:28","新北市中和區中山路三段181巷18弄37號","121.472645","25.004945","6500300","中和區"
"235002","185-VK","2018/02/03 14:29:22","新北市中和區立人街9號","121.521708333333","24.994065","6500300","中和區"
"235013","186-VK","2018/02/03 14:29:19","新北市中和區景新街230巷3號","121.508168333333","24.994075","6500300","中和區"
"235031","255-BX","2018/02/03 14:29:31","新北市中和區連城路318號","121.483468333333","24.9960033333333","6500300","中和區"
"235008","293-VK","2018/02/03 14:29:25","新北市中和區捷運路155號","121.506525","24.9911833333333","6500300","中和區"
"235036","301-VK","2018/02/03 14:29:13","新北市中和區中山路二段3巷22弄29號","121.505903333333","25.004245","6500300","中和區"
"235007","352-BY","2018/02/03 14:29:13","新北市中和區景平路352號","121.511388333333","24.992795","6500300","中和區"
"235032","377-QA","2018/02/03 14:29:26","新北市中和區枋寮街63號","121.501136666667","25.0011316666667","6500300","中和區"
"235025","378-QA","2018/02/03 14:29:10","新北市中和區民利街2號","121.48101","24.9992383333333","6500300","中和區"
"235035","269-TV","2018/02/03 14:29:15","新北市中和區中山路二段454號","121.489075","25.00519","6500300","中和區"
"235014","4979-A6","2018/02/03 14:29:23","新北市中和區中正路571巷2弄11號","121.486123333333","24.9937533333333","6500300","中和區"
"235033","4980-A6","2018/02/03 14:29:15","新北市中和區景平路736巷3弄6號","121.497365","25.0036683333333","6500300","中和區"
"235006","551-UM","2018/02/03 14:29:21","新北市中和區中和路378巷14弄2-8號","121.5112","25.0017466666667","6500300","中和區"
"235009","565-BX","2018/02/03 14:29:22","新北市中和區景新街399巷8號","121.512993333333","24.989845","6500300","中和區"
"235018","640-BX","2018/02/03 14:29:27","新北市中和區國光街112巷2弄1號","121.469955","25.0008016666667","6500300","中和區"
"235024","647-TV","2018/02/03 14:29:18","新北市中和區新生街114巷14號","121.482865","25.0023733333333","6500300","中和區"
"235011","732-UM","2018/02/03 14:29:26","新北市中和區景平路241巷64弄8號","121.507786666667","24.9926216666667","6500300","中和區"
"235010","733-UM","2018/02/03 14:29:27","新北市中和區忠孝街37巷52號","121.511111666667","24.9849133333333","6500300","中和區"
"235026","800-TS","2018/02/03 14:29:19","新北市中和區建三路24號","121.486083333333","25.00229","6500300","中和區"
"235021","801-TS","2018/02/03 14:28:59","新北市中和區台新街35號","121.479505","25.005285","6500300","中和區"
"235005","802-TS","2018/02/03 14:29:20","新北市中和區宜安路112號","121.510365","24.9979016666667","6500300","中和區"
"235016","805-TS","2018/02/03 14:29:31","新北市中和區華新街143巷67弄2號","121.506943333333","24.978835","6500300","中和區"
"235012","896-TW","2018/02/03 14:29:19","新北市中和區忠孝街60巷7號","121.511761666667","24.9837766666667","6500300","中和區"
"235017","900-TW","2018/02/03 14:29:29","新北市中和區華順街7號","121.467781666667","24.9986766666667","6500300","中和區"
"235027","911-UM","2018/02/03 14:29:21","新北市中和區連城路203巷10弄27號","121.49511","24.9965216666667","6500300","中和區"
"235015","157-BY","2018/02/03 14:29:21","新北市中和區和平街54巷16弄10號","121.509515","24.9917183333333","6500300","中和區"
"235001","AAC-213","2018/02/03 14:29:32","新北市中和區秀朗路三段10巷14弄50號","121.524233333333","24.9965","6500300","中和區"
"235023","AAC-215","2018/02/03 14:29:25","新北市中和區圓通路252巷5弄1號","121.493496666667","24.9913683333333","6500300","中和區"
"220016","013-TV","2018/02/03 14:29:22","新北市板橋區萬安街2號","121.484823333333","25.0224016666667","6500100","板橋區"
"220013","072-UY","2018/02/03 14:29:16","新北市板橋區國泰街75巷43號","121.468203333333","25.0049116666667","6500100","板橋區"
"220034","073-UY","2018/02/03 14:29:28","新北市板橋區中正路250巷17號","121.456406666667","25.0194283333333","6500100","板橋區"
"220105","075-UY","2018/02/03 14:29:16","新北市板橋區文化路二段441巷6號","121.4744","25.0338","6500100","板橋區"
"220017","AAD-861","2018/02/03 14:29:25","新北市板橋區稚暉街35號","121.457105","25.0041483333333","6500100","板橋區"
"247011","546-UM","2018/02/03 14:29:28","新北市蘆洲區復興路252號","121.479846666667","25.0896266666667","6501400","蘆洲區"
"247019","500-BY","2018/02/03 14:29:22","新北市蘆洲區仁愛街101巷10號","121.470636666667","25.0940633333333","6501400","蘆洲區"
"247007","341-TH","2018/02/03 14:29:30","新北市蘆洲區民生街43號","121.47513","25.0788716666667","6501400","蘆洲區"
"247009","339-TH","2018/02/03 14:29:31","新北市蘆洲區信義路148號","121.479436666667","25.0832033333333","6501400","蘆洲區"
"247001","337-TH","2018/02/03 14:29:26","新北市蘆洲區永樂街38巷33弄38號","121.457065","25.0898733333333","6501400","蘆洲區"
"247003","336-TH","2018/02/03 14:29:25","新北市蘆洲區長安街194巷17號","121.459823333333","25.084515","6501400","蘆洲區"
"247017","335-TH","2018/02/03 14:29:18","新北市蘆洲區復興路216號","121.47891","25.0892366666667","6501400","蘆洲區"
"247005","056-VK","2018/02/03 14:29:24","新北市蘆洲區長安街48號","121.463303333333","25.079655","6501400","蘆洲區"
"247015","053-VK","2018/02/03 14:29:27","新北市蘆洲區中正路185巷23弄18號","121.467386666667","25.084175","6501400","蘆洲區"
"247013","007-UY","2018/02/03 14:29:28","新北市蘆洲區中山二路237號","121.470191666667","25.0800166666667","6501400","蘆洲區"
"247023","002-UY","2018/02/03 14:29:27","新北市蘆洲區中正路263巷2號","121.467298333333","25.0874533333333","6501400","蘆洲區"
"228005","097-TW","2018/02/03 14:29:29","新北市貢寮區美豐里巫里岸9-1號","121.901943333333","25.0700983333333","6502600","貢寮區"
"228004","212-TW","2018/02/03 14:29:28","新北市貢寮區雙玉里田寮洋街33-1號","121.932186666667","25.0136","6502600","貢寮區"
"253003","6232-TK","2018/02/03 14:29:22","新北市石門區尖子鹿29號","121.583341666667","25.2615066666667","6502200","石門區"
"253001","6251-TK","2018/02/03 14:29:18","新北市石門區八甲12-4號","121.5226","25.28174","6502200","石門區"
"253002","637-UY","2018/02/03 14:29:14","新北市石門區七股9號","121.547948333333","25.2655216666667","6502200","石門區"
"253004","8270-PC","2018/02/03 14:29:13","新北市石門區內阿里磅50號","121.580511666667","25.2454783333333","6502200","石門區"
"208004","AAC-292","2018/02/03 14:29:14","新北市金山區重和里竹子山腳1號","121.59803","25.2207066666667","6502700","金山區"
"207002","749-BX","2018/02/03 14:25:29","新北市萬里區溪底里富士坪路26-1號","121.621216666667","25.1522316666667","6502800","萬里區"
"252005","073-UM","2018/02/03 14:29:18","新北市三芝區茂長里陳厝坑12-1號","121.51453","25.2553633333333","6502100","三芝區"
"207001","662-BX","2018/02/03 14:29:18","新北市萬里區磺潭里員潭路2號","121.643815","25.2011666666667","6502800","萬里區"
"236068","105-UM","2018/02/03 14:29:19","新北市土城區永豐路173號","121.469663333333","24.9788516666667","6501300","土城區"
"236041","107-UM","2018/02/03 14:29:13","新北市土城區裕民路67巷13號","121.449901666667","24.988325","6501300","土城區"
"236001","138-TH","2018/02/03 14:29:17","新北市土城區延吉街23巷61-1號","121.473065","24.98813","6501300","土城區"
"236075","166-UM","2018/02/03 14:29:20","新北市土城區中央路四段45-1號","121.422346666667","24.9618366666667","6501300","土城區"
"236029","253-BX","2018/02/03 14:29:19","新北市土城區順風路9號","121.44024","24.9762833333333","6501300","土城區"
"236024","269-VK","2018/02/03 14:29:21","新北市土城區承天路18號","121.439491666667","24.9635383333333","6501300","土城區"
"236013","270-VK","2018/02/03 14:29:27","新北市土城區青雲路39巷7號","121.460326666667","24.987565","6501300","土城區"
"236035","271-VK","2018/02/03 14:29:22","新北市土城區青雲路451巷2弄1號","121.45917","24.97464","6501300","土城區"
"236017","401-BY","2018/02/03 14:29:11","新北市土城區永豐路202巷7-1號","121.466235","24.9832283333333","6501300","土城區"
"236057","912-UM","2018/02/03 14:29:11","新北市土城區中央路四段464號","121.409891666667","24.9505416666667","6501300","土城區"
"236045","913-UM","2018/02/03 14:29:15","新北市土城區青雲路370號","121.458653333333","24.9736816666667","6501300","土城區"
"236061","915-UM","2018/02/03 14:29:11","新北市土城區延壽路115巷2號","121.469071666667","24.994235","6501300","土城區"
"236054","AAC-216","2018/02/03 14:29:25","新北市土城區中華路一段207號","121.442878333333","24.98482","6501300","土城區"
"242001","233-RS","2018/02/03 14:21:25","新北市新莊區環河路48-7號","121.436881666667","25.0098666666667","6500500","新莊區"
"220027","145-BY","2018/02/03 14:29:23","新北市板橋區民權路202巷26號","121.46069","25.0171983333333","6500100","板橋區"
"220028","200-UY","2018/02/03 14:29:18","新北市板橋區大觀路二段3巷72號","121.449566666667","25.0033","6500100","板橋區"
"220030","610-BX","2018/02/03 14:29:15","新北市板橋區金門街355-1號","121.428633333333","24.985035","6500100","板橋區"
"220052","257-TC","2018/02/03 14:29:28","新北市板橋區文化路一段210號","121.466381666667","25.0202566666667","6500100","板橋區"
"220040","267-BY","2018/02/03 14:29:26","新北市板橋區文聖街149巷18號","121.479268333333","25.0284016666667","6500100","板橋區"
"220004","276-BY","2018/02/03 14:29:28","新北市板橋區國慶路49巷19弄14號","121.458916666667","24.9961866666667","6500100","板橋區"
"220020","277-BY","2018/02/03 14:29:23","新北市板橋區金門街337巷12弄2號","121.43016","24.98485","6500100","板橋區"
"220050","280-UM","2018/02/03 14:29:23","新北市板橋區縣民大道三段133巷2號","121.477645","25.02339","6500100","板橋區"
"220019","283-VK","2018/02/03 14:29:24","新北市板橋區忠孝路20號","121.46001","25.0016816666667","6500100","板橋區"
"220043","285-UM","2018/02/03 14:29:13","新北市板橋區吳鳳路38號","121.468556666667","25.03038","6500100","板橋區"
"220001","285-VK","2018/02/03 14:29:22","新北市板橋區富山街62巷18號","121.477263333333","25.0225683333333","6500100","板橋區"
"220031","286-VK","2018/02/03 14:29:29","新北市板橋區大觀路一段38巷182號","121.441513333333","25.0047466666667","6500100","板橋區"
"220029","287-VK","2018/02/03 14:29:31","新北市板橋區大觀路一段29巷131弄136號","121.451263333333","25.0039833333333","6500100","板橋區"
"220039","288-VK","2018/02/03 14:29:21","新北市板橋區裕民街92號","121.460235","25.0280633333333","6500100","板橋區"
"220009","293-UM","2018/02/03 14:29:18","新北市板橋區中山路二段145號","121.475376666667","25.0165483333333","6500100","板橋區"
"220010","295-UM","2018/02/03 14:29:23","新北市板橋區三民路二段153巷4號","121.479688333333","25.0149983333333","6500100","板橋區"
"220032","296-UM","2018/02/03 14:29:26","新北市板橋區滿平街136巷6弄2號","121.428116666667","24.9874883333333","6500100","板橋區"
"220041","299-UM","2018/02/03 14:29:25","新北市板橋區松江街9號","121.468983333333","25.0262916666667","6500100","板橋區"
"220023","303-R5","2018/02/03 14:29:31","新北市板橋區僑中一街124巷70-5號","121.449453333333","25.01736","6500100","板橋區"
"220047","317-R6","2018/02/03 14:29:20","新北市板橋區四維路266巷5弄18號","121.463556666667","25.0291516666667","6500100","板橋區"
"220012","486-VK","2018/02/03 14:29:15","新北市板橋區中山路一段131號","121.462388333333","25.0104216666667","6500100","板橋區"
"220038","487-VK","2018/02/03 14:29:22","新北市板橋區文化路一段51號","121.460678333333","25.0134816666667","6500100","板橋區"
"220104","560-BX","2018/02/03 14:29:20","新北市板橋區中正路330號","121.454411666667","25.0216166666667","6500100","板橋區"
"220011","609-BX","2018/02/03 14:29:26","新北市板橋區三民路二段241號","121.479028333333","25.01258","6500100","板橋區"
"220005","686-BX","2018/02/03 14:29:16","新北市板橋區五權街8-3號","121.464246666667","24.994145","6500100","板橋區"
"220025","687-BX","2018/02/03 14:29:25","新北市板橋區大觀路一段28巷64號","121.449751666667","25.0104516666667","6500100","板橋區"
"220042","689-BX","2018/02/03 14:29:30","新北市板橋區雨農路27巷2號","121.461236666667","25.0241433333333","6500100","板橋區"
"220002","741-BX","2018/02/03 14:29:27","新北市板橋區忠孝路33-1號","121.460795","25.0020333333333","6500100","板橋區"
"220003","827-TW","2018/02/03 14:29:28","新北市板橋區重慶路290巷22弄4號","121.462308333333","24.9991083333333","6500100","板橋區"
"220014","829-TW","2018/02/03 14:29:21","新北市板橋區漢生東路313巷2弄26號","121.472408333333","25.0077316666667","6500100","板橋區"
"220037","833-TW","2018/02/03 14:29:32","新北市板橋區雙十路二段59號","121.476493333333","25.0265216666667","6500100","板橋區"
"220022","895-R6","2018/02/03 14:29:31","新北市板橋區館前西路179號","121.45562","25.0082483333333","6500100","板橋區"
"220021","985-R7","2018/02/03 14:29:16","新北市板橋區新生街32號","121.45639","25.0211516666667","6500100","板橋區"
"220046","AAC-210","2018/02/03 14:29:18","新北市板橋區漢生西路163號","121.46318","25.0231166666667","6500100","板橋區"
"220018","AAC-253","2018/02/03 14:29:11","新北市板橋區四川路一段28號","121.45956","25.006255","6500100","板橋區"
