"lineid","car","time","location","longitude","latitude","cityid","cityname"
"234026","9371-KE","2018/02/03 17:39:35","新北市永和區中正路730號","121.515446666667","25.0101333333333","6500400","永和區"
"249005","172-UM","2018/02/03 17:39:20","新北市八里區荖阡坑路34號","121.402676666667","25.12979","6502300","八里區"
"249001","173-UM","2018/02/03 17:39:32","新北市八里區龍米路二段157-1號","121.440011666667","25.153565","6502300","八里區"
"249004","303-UY","2018/02/03 17:39:32","新北市八里區賢二街29號","121.41893","25.1582366666667","6502300","八里區"
"249002","305-UY","2018/02/03 17:39:17","新北市八里區石壁腳19號","121.441698333333","25.1353116666667","6502300","八里區"
"249003","593-UM","2018/02/03 17:39:19","新北市八里區中山路二段177號","121.404911666667","25.15038","6502300","八里區"
"248006","077-UY","2018/02/03 17:39:20","新北市五股區中興路二段37巷28號","121.460193333333","25.0748883333333","6501500","五股區"
"232011","375-UM","2018/02/03 17:39:31","新北市坪林區水柳腳37號","121.709866666667","24.9351966666667","6502000","坪林區"
"244013","069-UM","2018/02/03 17:39:20","新北市林口區中正路555號","121.381113333333","25.076855","6501700","林口區"
"244007","080-UY","2018/02/03 17:39:27","新北市林口區中華路283號","121.383663333333","25.0909683333333","6501700","林口區"
"244019","402-UM","2018/02/03 17:39:21","新北市林口區文化一路一段83巷14弄52號","121.372351666667","25.0719133333333","6501700","林口區"
"244023","483-VK","2018/02/03 17:39:33","新北市林口區東明一街142巷8號","121.389951666667","25.0710533333333","6501700","林口區"
"244009","656-BX","2018/02/03 17:39:32","新北市林口區中北三街262號","121.382035","25.08232","6501700","林口區"
"244017","658-BX","2018/02/03 17:39:17","新北市林口區忠孝路407號","121.370406666667","25.0706183333333","6501700","林口區"
"244011","701-TV","2018/02/03 17:39:33","新北市林口區佳林路154號","121.384146666667","25.0771133333333","6501700","林口區"
"244025","837-TS","2018/02/03 17:39:34","新北市林口區文化三路一段394巷10號","121.366398333333","25.07271","6501700","林口區"
"244021","838-TS","2018/02/03 17:39:19","新北市林口區東林街14號","121.396218333333","25.0789366666667","6501700","林口區"
"222002","659-BX","2018/02/03 17:39:12","新北市深坑區深南路32號","121.620983333333","25.0082216666667","6501800","深坑區"
"221015","KEA-2785","2018/02/03 17:39:31","新北市汐止區康寧街901號","121.651773333333","25.074955","6501100","汐止區"
"231046","278-BY","2018/02/03 17:39:18","新北市新店區直潭路92號","121.530941666667","24.9375866666667","6500600","新店區"
"241011","013-R5","2018/02/03 17:39:21","新北市三重區河邊北街124巷5號","121.503428333333","25.0714316666667","6500200","三重區"
"241017","063-VK","2018/02/03 17:39:08","新北市三重區大同北路34巷2號","121.495125","25.062405","6500200","三重區"
"241024","065-VK","2018/02/03 17:39:29","新北市三重區車路頭街62巷24號","121.483231666667","25.072225","6500200","三重區"
"241005","262-UM","2018/02/03 17:39:24","新北市三重區碧華街105號","121.485701666667","25.0816633333333","6500200","三重區"
"241016","266-UM","2018/02/03 17:39:15","新北市三重區信義西街138號","121.495523333333","25.0643316666667","6500200","三重區"
"241032","269-UM","2018/02/03 17:39:24","新北市新莊區化成路579巷2號","121.464138333333","25.06649","6500200","三重區"
"241007","398-BY","2018/02/03 17:39:25","新北市三重區永福街256號","121.484338333333","25.07487","6500200","三重區"
"241020","413-TH","2018/02/03 17:39:34","新北市三重區忠孝路二段51號","121.48564","25.07104","6500200","三重區"
"241019","478-VK","2018/02/03 17:39:32","新北市三重區六張街185號","121.489091666667","25.06878","6500200","三重區"
"241030","480-VK","2018/02/03 17:39:31","新北市三重區成功路75號","121.488746666667","25.0511083333333","6500200","三重區"
"241014","543-UM","2018/02/03 17:39:23","新北市三重區龍濱路17巷28號","121.503491666667","25.0679466666667","6500200","三重區"
"241023","545-UM","2018/02/03 17:39:19","新北市三重區中華路132號","121.483545","25.064075","6500200","三重區"
"241012","941-UM","2018/02/03 17:39:28","新北市三重區仁興街33巷2號","121.499141666667","25.0755233333333","6500200","三重區"
"241033","AAC-255","2018/02/03 17:39:30","新北市三重區光復路一段60號","121.472016666667","25.0488633333333","6500200","三重區"
"235064","005-UY","2018/02/03 17:39:35","新北市中和區員山路36巷16-3號","121.485053333333","24.991325","6500300","中和區"
"247022","893-R6","2018/02/03 17:39:28","新北市蘆洲區三民路285號","121.46704","25.0899183333333","6501400","蘆洲區"
"247012","546-UM","2018/02/03 17:39:20","新北市蘆洲區民權路15號","121.476261666667","25.0861266666667","6501400","蘆洲區"
"247020","500-BY","2018/02/03 17:39:31","新北市蘆洲區民族路339號","121.47288","25.0918783333333","6501400","蘆洲區"
"247008","341-TH","2018/02/03 17:39:35","新北市蘆洲區成功路11號","121.473565","25.0784016666667","6501400","蘆洲區"
"247010","339-TH","2018/02/03 17:39:20","新北市蘆洲區集賢路409號","121.480013333333","25.0813083333333","6501400","蘆洲區"
"247002","337-TH","2018/02/03 17:39:35","新北市蘆洲區永平街27號","121.458753333333","25.090825","6501400","蘆洲區"
"247004","336-TH","2018/02/03 17:39:19","新北市蘆洲區長安街249巷42號","121.457771666667","25.0825333333333","6501400","蘆洲區"
"247006","056-VK","2018/02/03 17:39:30","新北市蘆洲區長安街22巷39弄19號","121.464351666667","25.080955","6501400","蘆洲區"
"247016","053-VK","2018/02/03 17:39:18","新北市蘆洲區光華路53號","121.468518333333","25.0829066666667","6501400","蘆洲區"
"247014","007-UY","2018/02/03 17:39:16","新北市蘆洲區中正路3號","121.471531666667","25.0818316666667","6501400","蘆洲區"
"247024","002-UY","2018/02/03 17:39:19","新北市蘆洲區長樂路125-1號","121.462145","25.0880383333333","6501400","蘆洲區"
"247018","001-UY","2018/02/03 17:39:19","新北市蘆洲區三民路110巷40號","121.472821666667","25.08791","6501400","蘆洲區"
"228003","097-TW","2018/02/03 17:39:31","新北市貢寮區仁理村仁和路45號","121.924021666667","25.0540666666667","6502600","貢寮區"
"228001","212-TW","2018/02/03 17:39:31","新北市貢寮區仁理村仁愛路95-1號","121.927655","25.055415","6502600","貢寮區"
"228002","663-BX","2018/02/03 17:39:36","新北市貢寮區福隆里外隆林街16-4號","121.95823","25.0047216666667","6502600","貢寮區"
"224006","676-BX","2018/02/03 17:39:31","新北市瑞芳區中山路371號","121.796156666667","25.1101333333333","6501200","瑞芳區"
"224009","285-BY","2018/02/03 17:39:30","新北市瑞芳區金光路372號","121.848655","25.1102816666667","6501200","瑞芳區"
"224008","275-VK","2018/02/03 17:39:18","新北市瑞芳區瑞柑新村11號","121.829375","25.1065083333333","6501200","瑞芳區"
"224005","271-BY","2018/02/03 17:39:34","新北市瑞芳區籠山路21號","121.832176666667","25.12343","6501200","瑞芳區"
"251004","009-UM","2018/02/03 17:39:26","新北市淡水區中正東路二段88巷37-21號","121.459286666667","25.1445633333333","6501000","淡水區"
"251001","011-UM","2018/02/03 17:39:37","新北市淡水區民權路92巷35-1號","121.462165","25.1266216666667","6501000","淡水區"
"251013","179-VK","2018/02/03 17:39:20","新北市淡水區演戲埔腳5號","121.47206","25.193645","6501000","淡水區"
"251014","180-VK","2018/02/03 17:39:34","新北市淡水區水碓30-1號","121.47768","25.2242216666667","6501000","淡水區"
"251008","181-VK","2018/02/03 17:39:25","新北市淡水區八勢路50巷8弄46號","121.463003333333","25.1528083333333","6501000","淡水區"
"251015","182-VK","2018/02/03 17:39:29","新北市淡水區糞箕湖20號","121.485745","25.1708683333333","6501000","淡水區"
"251010","413-VK","2018/02/03 17:39:27","新北市淡水區淡海路280巷97號","121.419685","25.1885583333333","6501000","淡水區"
"251012","441-VK","2018/02/03 17:39:35","新北市淡水區北新路200巷8號","121.451755","25.1796766666667","6501000","淡水區"
"251016","442-VK","2018/02/03 17:39:28","新北市淡水區埤島39-15號","121.452745","25.1958716666667","6501000","淡水區"
"251005","443-VK","2018/02/03 17:39:21","新北市淡水區鄧公路33巷9號","121.45185","25.1709833333333","6501000","淡水區"
"251006","561-UM","2018/02/03 17:39:18","新北市淡水區中山北路一段117號","121.442488333333","25.1769316666667","6501000","淡水區"
"251009","575-R6","2018/02/03 17:39:36","新北市淡水區中正路36號","121.443795","25.1692616666667","6501000","淡水區"
"251007","577-R6","2018/02/03 17:39:34","新北市淡水區民生路124巷30號","121.46419","25.1375883333333","6501000","淡水區"
"251011","650-BX","2018/02/03 17:39:31","新北市淡水區小坪頂13-3號","121.486605","25.1561633333333","6501000","淡水區"
"251002","672-BX","2018/02/03 17:39:28","新北市淡水區清水街250號","121.440458333333","25.172275","6501000","淡水區"
"251003","673-BX","2018/02/03 17:39:16","新北市淡水區中山北路一段33號","121.441541666667","25.1751833333333","6501000","淡水區"
"207003","550-UM","2018/02/03 17:39:23","新北市萬里區龜吼里漁澳路26號","121.686071666667","25.194875","6502800","萬里區"
"207004","225-TW","2018/02/03 17:39:28","新北市萬里區中幅里中福路8-1號","121.685901666667","25.1648466666667","6502800","萬里區"
"252001","292-VK","2018/02/03 17:39:18","新北市三芝區淡金路一段83號","121.502111666667","25.25884","6502100","三芝區"
"252002","AAC-283","2018/02/03 17:39:28","新北市三芝區中正路二段21號","121.504366666667","25.2552616666667","6502100","三芝區"
"237004","KEA-2597","2018/02/03 17:39:36","新北市三峽區中山路459巷137號","121.34998","24.9339216666667","6500900","三峽區"
"237007","153-BY","2018/02/03 17:39:24","新北市三峽區仁愛街2號","121.36842","24.93406","6500900","三峽區"
"237008","302-VK","2018/02/03 17:39:27","新北市三峽區中山路365-2號","121.358526666667","24.93696","6500900","三峽區"
"237014","433-BY","2018/02/03 17:39:35","新北市三峽區中山路459巷163-3號","121.34881","24.9326966666667","6500900","三峽區"
"237006","5529-G3","2018/02/03 17:39:34","新北市三峽區介壽路一段550號","121.387338333333","24.9333533333333","6500900","三峽區"
"237015","649-BX","2018/02/03 17:25:14","新北市三峽區中山路459巷121號","121.351883333333","24.9352916666667","6500900","三峽區"
"237010","706-TV","2018/02/03 17:39:19","新北市三峽區中山路167-1號","121.364316666667","24.9365966666667","6500900","三峽區"
"236079","166-UM","2018/02/03 17:39:23","新北市土城區城林路6巷80號","121.438351666667","24.9795866666667","6501300","土城區"
"236031","253-BX","2018/02/03 17:39:16","新北市土城區城林路6巷80號","121.43862","24.9796516666667","6501300","土城區"
"236026","269-VK","2018/02/03 17:39:28","新北市土城區城林路6巷80號","121.438456666667","24.9795283333333","6501300","土城區"
"236015","270-VK","2018/02/03 17:39:29","新北市土城區城林路6巷80號","121.438515","24.979545","6501300","土城區"
"236055","AAC-216","2018/02/03 17:39:16","新北市土城區城林路6巷80號","121.438451666667","24.97973","6501300","土城區"
"242031","AAC-296","2018/02/03 17:39:20","新北市新莊區新泰路369巷27號","121.4425","25.0431966666667","6500500","新莊區"
"242029","986-R7","2018/02/03 17:39:24","新北市新莊區復興路二段164號","121.457858333333","25.0443666666667","6500500","新莊區"
"242025","615-BX","2018/02/03 17:39:36","新北市新莊區思源路157號","121.459821666667","25.0445033333333","6500500","新莊區"
"242023","613-BX","2018/02/03 17:39:21","新北市新莊區中港路132巷24號","121.456341666667","25.04064","6500500","新莊區"
"242027","612-BX","2018/02/03 17:39:32","新北市新莊區福壽街90號","121.458195","25.0499166666667","6500500","新莊區"
"242039","566-BX","2018/02/03 17:39:35","新北市新莊區民全街16號","121.429053333333","25.02197","6500500","新莊區"
"242044","442-UM","2018/02/03 17:39:32","新北市新莊區富國路65巷10號","121.419931666667","25.0265016666667","6500500","新莊區"
"242053","440-UM","2018/02/03 17:39:36","新北市新莊區新樹路699巷1-1號","121.432395","25.0021516666667","6500500","新莊區"
"242034","415-TV","2018/02/03 17:39:28","新北市新莊區新莊路601號","121.445978333333","25.0330966666667","6500500","新莊區"
"242004","413-TV","2018/02/03 17:39:32","新北市新莊區自立街166號","121.455555","25.0453566666667","6500500","新莊區"
"242042","400-BY","2018/02/03 17:39:28","新北市泰山區中山路二段841號","121.425855","25.0354216666667","6500500","新莊區"
"242061","362-BY","2018/02/03 17:39:20","新北市新莊區瓊林南路79-5號","121.434473333333","25.0126233333333","6500500","新莊區"
"242058","353-BY","2018/02/03 17:39:30","新北市新莊區中正路600號","121.426615","25.030245","6500500","新莊區"
"242007","132-UY","2018/02/03 17:39:22","新北市新莊區自信街52號","121.45508","25.0481766666667","6500500","新莊區"
"242036","133-UY","2018/02/03 17:39:24","新北市新莊區後港一路160號","121.43064","25.027615","6500500","新莊區"
"242021","135-UY","2018/02/03 17:39:16","新北市新莊區中華路一段82號","121.452126666667","25.0392833333333","6500500","新莊區"
"242046","172-VK","2018/02/03 17:39:27","新北市新莊區福營路43號","121.436235","25.03253","6500500","新莊區"
"242009","173-VK","2018/02/03 17:39:22","新北市新莊區昌明街14巷2弄1號","121.457405","25.0527483333333","6500500","新莊區"
"242015","175-VK","2018/02/03 17:39:24","新北市新莊區新泰路300號","121.445463333333","25.0409833333333","6500500","新莊區"
"242002","176-VK","2018/02/03 17:39:31","新北市新莊區新莊路262號","121.451898333333","25.0339466666667","6500500","新莊區"
"242013","346-TH","2018/02/03 17:39:33","新北市新莊區中誠街61號","121.450886666667","25.0478833333333","6500500","新莊區"
"242051","347-TH","2018/02/03 17:39:27","新北市新莊區西盛街193號","121.42815","25.017295","6500500","新莊區"
"242019","348-TH","2018/02/03 17:39:17","新北市新莊區中港路162號","121.45499","25.0415","6500500","新莊區"
"242056","349-TH","2018/02/03 17:39:35","新北市新莊區泰豐街3號","121.44851","25.0312783333333","6500500","新莊區"
"242017","350-TH","2018/02/03 17:39:33","新北市新莊區復興路一段149巷21弄21號","121.449168333333","25.0439233333333","6500500","新莊區"
"242011","351-TH","2018/02/03 17:39:33","新北市新莊區中港路623號","121.451123333333","25.053835","6500500","新莊區"
"238015","755-BX","2018/02/03 17:39:25","新北市樹林區長壽街58號","121.422218333333","24.9940933333333","6500700","樹林區"
"238023","601-UM","2018/02/03 17:39:19","新北市樹林區三福街114號","121.406405","25.016365","6500700","樹林區"
"238019","599-UM","2018/02/03 17:39:27","新北市樹林區太順街36號","121.419018333333","24.979905","6500700","樹林區"
"238018","571-TV","2018/02/03 17:39:36","新北市樹林區鎮前街63號","121.424981666667","24.9909966666667","6500700","樹林區"
"238024","5061-A6","2018/02/03 17:39:34","新北市樹林區環河路2-2號","121.425615","24.9769733333333","6500700","樹林區"
"238021","KEA-2217","2018/02/03 17:39:20","新北市樹林區佳園路二段175號","121.389636666667","24.9563533333333","6500700","樹林區"
"238022","KEA-2213","2018/02/03 17:39:28","新北市樹林區和平街2巷4號","121.420931666667","24.9814366666667","6500700","樹林區"
"238025","303-VK","2018/02/03 17:39:35","新北市樹林區保安街二段155號","121.415315","25.0024283333333","6500700","樹林區"
"238017","283-BY","2018/02/03 17:39:22","新北市樹林區中正路288-48號","121.414915","25.009755","6500700","樹林區"
"238014","282-BY","2018/02/03 17:39:27","新北市樹林區保安街一段296號","121.419108333333","24.9972966666667","6500700","樹林區"
"238020","268-VK","2018/02/03 17:39:36","新北市樹林區俊英街166巷3號","121.426868333333","25.0070933333333","6500700","樹林區"
"238026","172-UY","2018/02/03 17:39:36","新北市樹林區新興街19巷36弄33號","121.402651666667","24.9728233333333","6500700","樹林區"
"238016","169-UY","2018/02/03 17:39:29","新北市樹林區育英街64號","121.42107","24.989335","6500700","樹林區"
"239007","AAC-297","2018/02/03 17:39:34","新北市鶯歌區鶯桃路182巷96弄13號","121.340285","24.9576583333333","6500800","鶯歌區"
"239006","891-R6","2018/02/03 17:39:30","新北市鶯歌區永和街34巷12號","121.333438333333","24.9672133333333","6500800","鶯歌區"
"239008","527-UM","2018/02/03 17:39:17","新北市鶯歌區大湖路373號","121.331011666667","24.9783983333333","6500800","鶯歌區"
"239005","526-UM","2018/02/03 17:39:28","新北市鶯歌區福隆一街3號","121.325611666667","24.9719233333333","6500800","鶯歌區"
"239001","417-VK","2018/02/03 17:39:22","新北市鶯歌區中正三路248號","121.329878333333","24.9364883333333","6500800","鶯歌區"
"239003","360-BY","2018/02/03 17:39:32","新北市鶯歌區鶯桃路206巷55號","121.338073333333","24.96027","6500800","鶯歌區"
"239004","193-VK","2018/02/03 17:39:25","新北市鶯歌區三鶯路73號","121.357966666667","24.94291","6500800","鶯歌區"
"221036","130-UY","2018/02/03 17:39:26","新北市汐止區汐萬路一段256巷1號","121.651831666667","25.0748833333333","6501100","汐止區"
"221010","269-BY","2018/02/03 17:39:34","新北市汐止區汐萬路一段418巷1弄2號","121.650768333333","25.0783","6501100","汐止區"
"221023","279-VK","2018/02/03 17:39:25","新北市汐止區康寧街901號","121.651668333333","25.0749616666667","6501100","汐止區"
"221032","280-BY","2018/02/03 17:39:27","新北市汐止區樟樹二路262號","121.640828333333","25.0680733333333","6501100","汐止區"
"221033","647-BX","2018/02/03 17:39:25","新北市汐止區國興街30巷26號","121.625921666667","25.044905","6501100","汐止區"
"221018","753-BX","2018/02/03 17:39:21","新北市汐止區康寧街901號","121.651406666667","25.0749883333333","6501100","汐止區"
"242048","281-VK","2018/02/03 17:39:19","新北市新莊區萬安街153號","121.420341666667","25.0215066666667","6500500","新莊區"
