"lineid","car","time","location","longitude","latitude","cityid","cityname"
"234026","9371-KE","2018/02/03 17:49:15","新北市永和區中山路一段119號","121.510791666667","25.0101233333333","6500400","永和區"
"249005","172-UM","2018/02/03 17:49:20","新北市八里區荖阡坑路34-2號","121.402545","25.1305483333333","6502300","八里區"
"249001","173-UM","2018/02/03 17:49:12","新北市八里區龍米路二段135號","121.444808333333","25.14799","6502300","八里區"
"249004","303-UY","2018/02/03 17:49:32","新北市八里區中華路一段81巷24號","121.4196","25.1537666666667","6502300","八里區"
"249002","305-UY","2018/02/03 17:49:17","新北市八里區龍形五街37巷3-1號","121.448736666667","25.132565","6502300","八里區"
"249003","593-UM","2018/02/03 17:49:19","新北市八里區中山路二段123號","121.405493333333","25.15187","6502300","八里區"
"248006","077-UY","2018/02/03 17:49:20","新北市五股區中興路二段37巷28號","121.460128333333","25.0748883333333","6501500","五股區"
"248008","095-VK","2018/02/03 17:49:18","新北市五股區中興路二段37巷28號","121.460241666667","25.074995","6501500","五股區"
"232011","375-UM","2018/02/03 17:49:31","新北市坪林區北宜路八段120號","121.70622","24.9347016666667","6502000","坪林區"
"244013","069-UM","2018/02/03 17:49:20","新北市林口區中正路478-1號","121.383155","25.0776483333333","6501700","林口區"
"244007","080-UY","2018/02/03 17:49:27","新北市林口區林口路217號","121.387205","25.083135","6501700","林口區"
"244019","402-UM","2018/02/03 17:49:21","新北市林口區忠孝路512巷47號","121.371655","25.0682966666667","6501700","林口區"
"244023","483-VK","2018/02/03 17:49:33","新北市林口區東湖路20號","121.388196666667","25.0741183333333","6501700","林口區"
"244009","656-BX","2018/02/03 17:49:32","新北市林口區文化一路二段285-1號","121.384943333333","25.0844733333333","6501700","林口區"
"244017","658-BX","2018/02/03 17:49:17","新北市林口區文化二路一段260巷4號","121.371166666667","25.073195","6501700","林口區"
"244011","701-TV","2018/02/03 17:49:33","新北市林口區佳林路168號","121.3834","25.0765333333333","6501700","林口區"
"244025","837-TS","2018/02/03 17:49:14","新北市林口區忠孝三路42號","121.359998333333","25.0698033333333","6501700","林口區"
"244021","838-TS","2018/02/03 17:49:19","新北市林口區仁愛路一段139巷21號","121.397711666667","25.0716616666667","6501700","林口區"
"222003","436-BY","2018/02/03 17:49:22","新北市深坑區阿柔洋60-1號","121.608601666667","24.9985166666667","6501800","深坑區"
"222002","659-BX","2018/02/03 17:49:32","新北市深坑區平埔街22巷17弄1號","121.614885","25.0008766666667","6501800","深坑區"
"221015","KEA-2785","2018/02/03 17:49:31","新北市汐止區長江街213號","121.661295","25.0776166666667","6501100","汐止區"
"231046","278-BY","2018/02/03 17:49:30","新北市新店區下石厝路11-5號","121.531178333333","24.9295416666667","6500600","新店區"
"241024","065-VK","2018/02/03 17:49:29","新北市三重區國道路一段39巷19號","121.483373333333","25.0729083333333","6500200","三重區"
"241005","262-UM","2018/02/03 17:49:23","新北市三重區碧華街378號","121.490945","25.08433","6500200","三重區"
"241016","266-UM","2018/02/03 17:49:15","新北市三重區重新路二段112號","121.496715","25.0616483333333","6500200","三重區"
"241033","AAC-255","2018/02/03 17:49:30","新北市三重區重新路五段523號","121.471238333333","25.046295","6500200","三重區"
"235064","005-UY","2018/02/03 17:49:15","新北市中和區員山路36巷16-3號","121.485108333333","24.9913033333333","6500300","中和區"
"235038","185-VK","2018/02/03 17:49:23","新北市中和區員山路36巷16-2號","121.485233333333","24.991525","6500300","中和區"
"235062","800-TS","2018/02/03 17:40:06","新北市中和區員山路36巷16-3號","121.484903333333","24.9915566666667","6500300","中和區"
"247022","893-R6","2018/02/03 17:49:28","新北市蘆洲區中正路284-1號","121.46503","25.0902066666667","6501400","蘆洲區"
"247012","546-UM","2018/02/03 17:49:20","新北市蘆洲區復興路103-1號","121.47684","25.08777","6501400","蘆洲區"
"247020","500-BY","2018/02/03 17:49:31","新北市蘆洲區民義街71巷13號","121.472783333333","25.0905083333333","6501400","蘆洲區"
"247008","341-TH","2018/02/03 17:49:35","新北市蘆洲區和平路29巷11號","121.471996666667","25.0786183333333","6501400","蘆洲區"
"247010","339-TH","2018/02/03 17:49:20","新北市蘆洲區民族路31號","121.47748","25.08485","6501400","蘆洲區"
"247002","337-TH","2018/02/03 17:49:15","新北市蘆洲區永平街32巷21弄35號","121.45787","25.0922783333333","6501400","蘆洲區"
"247004","336-TH","2018/02/03 17:49:19","新北市蘆洲區長安街172巷35弄15號","121.460118333333","25.084605","6501400","蘆洲區"
"247006","056-VK","2018/02/03 17:49:30","新北市蘆洲區長安街4號","121.464586666667","25.0788816666667","6501400","蘆洲區"
"247016","053-VK","2018/02/03 17:49:18","新北市蘆洲區中正路185巷25弄23號","121.467336666667","25.0838933333333","6501400","蘆洲區"
"247014","007-UY","2018/02/03 17:49:15","新北市蘆洲區保和街69巷31號","121.469801666667","25.0852466666667","6501400","蘆洲區"
"247024","002-UY","2018/02/03 17:49:19","新北市蘆洲區光榮路95號","121.462878333333","25.0886216666667","6501400","蘆洲區"
"247018","001-UY","2018/02/03 17:49:19","新北市蘆洲區復興路63號","121.475918333333","25.0872066666667","6501400","蘆洲區"
"228003","097-TW","2018/02/03 17:49:31","新北市貢寮區真理里美艷山街6-2號","121.928815","25.0607666666667","6502600","貢寮區"
"228001","212-TW","2018/02/03 17:49:31","新北市貢寮區仁理村仁愛路95-1號","121.927666666667","25.05541","6502600","貢寮區"
"228002","663-BX","2018/02/03 17:49:35","新北市貢寮區福隆里龜壽谷街11-1號","121.954595","25.0068666666667","6502600","貢寮區"
"224006","676-BX","2018/02/03 17:49:28","新北市瑞芳區傑魚坑路183號","121.78845","25.1082866666667","6501200","瑞芳區"
"224009","285-BY","2018/02/03 17:49:30","新北市瑞芳區新山路179-1號","121.851656666667","25.1090683333333","6501200","瑞芳區"
"224008","275-VK","2018/02/03 17:49:32","新北市瑞芳區明燈路一段206號","121.818348333333","25.1087816666667","6501200","瑞芳區"
"224005","271-BY","2018/02/03 17:49:05","新北市瑞芳區建基路一段62巷4-2號","121.81694","25.1276183333333","6501200","瑞芳區"
"253006","295-VK","2018/02/03 17:49:19","新北市石門區中山路64-1號","121.567293333333","25.2906266666667","6502200","石門區"
"208002","742-BX","2018/02/03 17:49:29","新北市金山區磺清路135號","121.63956","25.22758","6502700","金山區"
"208003","665-BX","2018/02/03 17:49:29","新北市金山區磺清路135號","121.639451666667","25.2277333333333","6502700","金山區"
"208001","761-BX","2018/02/03 17:49:32","新北市金山區磺清路135號","121.63941","25.227835","6502700","金山區"
"251004","009-UM","2018/02/03 17:49:26","新北市淡水區民權一街46號","121.459056666667","25.136175","6501000","淡水區"
"251001","011-UM","2018/02/03 17:49:18","新北市淡水區民權路92巷35-1號","121.462153333333","25.1266183333333","6501000","淡水區"
"251013","179-VK","2018/02/03 17:49:20","新北市淡水區泉洲厝31號","121.479561666667","25.1910616666667","6501000","淡水區"
"251014","180-VK","2018/02/03 17:49:34","新北市淡水區公埔子15-1號","121.479511666667","25.2258833333333","6501000","淡水區"
"251008","181-VK","2018/02/03 17:49:25","新北市淡水區八勢路一段153號","121.467643333333","25.1567183333333","6501000","淡水區"
"251015","182-VK","2018/02/03 17:49:30","新北市淡水區興福寮18-2號","121.494966666667","25.1646","6501000","淡水區"
"251010","413-VK","2018/02/03 17:49:27","新北市淡水區中正路二段96號","121.41797","25.1851633333333","6501000","淡水區"
"251012","441-VK","2018/02/03 17:49:35","新北市淡水區北新路二段38號","121.477265","25.1857316666667","6501000","淡水區"
"251016","442-VK","2018/02/03 17:49:28","新北市淡水區埤島39-15號","121.452745","25.1958616666667","6501000","淡水區"
"251005","443-VK","2018/02/03 17:49:21","新北市淡水區學府路102巷13號","121.450901666667","25.1718183333333","6501000","淡水區"
"251006","561-UM","2018/02/03 17:49:18","新北市淡水區大信街1巷25號","121.440181666667","25.176745","6501000","淡水區"
"251009","575-R6","2018/02/03 17:49:36","新北市淡水區長興街32號","121.444086666667","25.1712766666667","6501000","淡水區"
"251007","577-R6","2018/02/03 17:49:34","新北市淡水區民生路16巷1號","121.46096","25.1375783333333","6501000","淡水區"
"251011","650-BX","2018/02/03 17:49:31","新北市淡水區吳(仔)厝35號","121.479496666667","25.1493533333333","6501000","淡水區"
"251002","672-BX","2018/02/03 17:49:28","新北市淡水區中山路42號","121.444266666667","25.17004","6501000","淡水區"
"251003","673-BX","2018/02/03 17:49:36","新北市淡水區大忠街5巷2號","121.443113333333","25.1763466666667","6501000","淡水區"
"207003","550-UM","2018/02/03 17:49:23","新北市萬里區野柳里東澳路66號","121.692805","25.2009466666667","6502800","萬里區"
"207004","225-TW","2018/02/03 17:49:28","新北市萬里區萬里里瑪鋉頂街61號","121.688381666667","25.180535","6502800","萬里區"
"252001","292-VK","2018/02/03 17:49:18","新北市三芝區淡金路一段7號","121.498571666667","25.2596466666667","6502100","三芝區"
"252002","AAC-283","2018/02/03 17:49:28","新北市三芝區智成街47號","121.50417","25.25631","6502100","三芝區"
"237004","KEA-2597","2018/02/03 17:49:16","新北市三峽區中山路119號","121.36552","24.93591","6500900","三峽區"
"237007","153-BY","2018/02/03 17:49:24","新北市三峽區中園街227號","121.366925","24.9197516666667","6500900","三峽區"
"237009","210-TH","2018/02/03 17:49:34","新北市三峽區大勇路3巷37號","121.367505","24.93678","6500900","三峽區"
"237013","252-BX","2018/02/03 17:49:16","新北市三峽區安溪路309巷3號","121.373368333333","24.9335616666667","6500900","三峽區"
"237012","275-BY","2018/02/03 17:49:32","新北市三峽區文化路78號","121.372015","24.9361583333333","6500900","三峽區"
"237008","302-VK","2018/02/03 17:49:27","新北市三峽區中正路二段12號","121.36762","24.9198283333333","6500900","三峽區"
"237014","433-BY","2018/02/03 17:49:35","新北市三峽區文化路120巷21弄2號","121.371005","24.9368333333333","6500900","三峽區"
"237006","5529-G3","2018/02/03 17:49:31","新北市三峽區介壽路二段136巷106弄2號","121.391963333333","24.9333833333333","6500900","三峽區"
"237015","649-BX","2018/02/03 17:25:14","新北市三峽區中山路459巷121號","121.351883333333","24.9352916666667","6500900","三峽區"
"237010","706-TV","2018/02/03 17:49:19","新北市三峽區和平街26號","121.370178333333","24.9367083333333","6500900","三峽區"
"237005","AKY-6261","2018/02/03 17:49:25","新北市三峽區中山路459巷137號","121.349685","24.93337","6500900","三峽區"
"236073","105-UM","2018/02/03 17:49:18","新北市土城區明德路二段8巷1號","121.452063333333","24.9805166666667","6501300","土城區"
"236043","107-UM","2018/02/03 17:49:29","新北市土城區城林路6巷80號","121.438518333333","24.9795533333333","6501300","土城區"
"236079","166-UM","2018/02/03 17:49:23","新北市土城區永寧路35號","121.430071666667","24.96208","6501300","土城區"
"236031","253-BX","2018/02/03 17:49:16","新北市土城區城林路6巷80號","121.438641666667","24.9796483333333","6501300","土城區"
"236026","269-VK","2018/02/03 17:49:28","新北市土城區中央路三段96-1號","121.43568","24.9664383333333","6501300","土城區"
"236015","270-VK","2018/02/03 17:49:29","新北市土城區城林路6巷80號","121.438523333333","24.9795466666667","6501300","土城區"
"236038","271-VK","2018/02/03 17:49:22","新北市土城區城林路6巷80號","121.438458333333","24.9797333333333","6501300","土城區"
"236023","401-BY","2018/02/03 17:49:23","新北市土城區城林路6巷80號","121.43876","24.9796983333333","6501300","土城區"
"236059","912-UM","2018/02/03 17:49:33","新北市土城區中華路二段2號","121.439476666667","24.9795566666667","6501300","土城區"
"236049","913-UM","2018/02/03 17:49:26","新北市土城區城林路6巷80號","121.438585","24.9797566666667","6501300","土城區"
"236055","AAC-216","2018/02/03 17:49:36","新北市土城區城林路6巷80號","121.438443333333","24.97976","6501300","土城區"
"242031","AAC-296","2018/02/03 17:49:25","新北市新莊區新泰路321巷17號","121.443808333333","25.0412266666667","6500500","新莊區"
"242029","986-R7","2018/02/03 17:49:26","新北市新莊區復興路一段139號","121.450138333333","25.0431683333333","6500500","新莊區"
"242025","615-BX","2018/02/03 17:49:16","新北市新莊區新北大道二段147號","121.465531666667","25.0611633333333","6500500","新莊區"
"242023","613-BX","2018/02/03 17:49:22","新北市新莊區福樂街36號","121.457875","25.0455633333333","6500500","新莊區"
"242027","612-BX","2018/02/03 17:49:32","新北市新莊區福壽街146號","121.457895","25.05215","6500500","新莊區"
"242039","566-BX","2018/02/03 17:49:35","新北市新莊區民安路174號","121.425178333333","25.0239966666667","6500500","新莊區"
"242044","442-UM","2018/02/03 17:49:32","新北市新莊區中正路855巷12號","121.419791666667","25.0273183333333","6500500","新莊區"
"242053","440-UM","2018/02/03 17:49:16","新北市新莊區新樹路567號","121.432883333333","25.0071133333333","6500500","新莊區"
"242034","415-TV","2018/02/03 17:49:25","新北市新莊區新莊路775號","121.441598333333","25.0326916666667","6500500","新莊區"
"242004","413-TV","2018/02/03 17:49:32","新北市新莊區思源路177巷5弄10號","121.458913333333","25.0450583333333","6500500","新莊區"
"242042","400-BY","2018/02/03 17:49:31","新北市新莊區中正路692-8號","121.419933333333","25.02867","6500500","新莊區"
"242061","362-BY","2018/02/03 17:49:31","新北市新莊區瓊林南路599-1號","121.433215","25.00604","6500500","新莊區"
"242058","353-BY","2018/02/03 17:49:34","新北市新莊區中正路708號","121.416206666667","25.0247116666667","6500500","新莊區"
"242007","132-UY","2018/02/03 17:49:22","新北市新莊區福樂街118巷28號","121.457578333333","25.048725","6500500","新莊區"
"242036","133-UY","2018/02/03 17:49:16","新北市新莊區後港一路105號","121.42834","25.0270516666667","6500500","新莊區"
"242021","135-UY","2018/02/03 17:49:16","新北市新莊區復興路一段212號","121.452886666667","25.043705","6500500","新莊區"
"242046","172-VK","2018/02/03 17:49:27","新北市新莊區建國一路72號","121.434353333333","25.030505","6500500","新莊區"
"242009","173-VK","2018/02/03 17:49:30","新北市新莊區昌明街30巷10號","121.456773333333","25.0528283333333","6500500","新莊區"
"242015","175-VK","2018/02/03 17:49:24","新北市新莊區新泰路442號","121.443358333333","25.0447866666667","6500500","新莊區"
"242002","176-VK","2018/02/03 17:49:34","新北市新莊區景德路103號","121.451726666667","25.0346016666667","6500500","新莊區"
"242013","346-TH","2018/02/03 17:49:33","新北市新莊區幸福路715巷21號","121.44867","25.0485516666667","6500500","新莊區"
"242051","347-TH","2018/02/03 17:49:31","新北市新莊區西盛街311巷4號","121.428325","25.0152316666667","6500500","新莊區"
"242019","348-TH","2018/02/03 17:49:37","新北市新莊區復興路二段20-2號","121.454245","25.044005","6500500","新莊區"
"242056","349-TH","2018/02/03 17:49:25","新北市新莊區瓊林路38巷22號","121.4469","25.0305783333333","6500500","新莊區"
"242017","350-TH","2018/02/03 17:49:26","新北市新莊區永安街89號","121.450638333333","25.0445883333333","6500500","新莊區"
"242011","351-TH","2018/02/03 17:49:33","新北市新莊區中港路746號","121.450283333333","25.0584316666667","6500500","新莊區"
"238015","755-BX","2018/02/03 17:49:25","新北市樹林區樹德街122號","121.419435","24.9929133333333","6500700","樹林區"
"238023","601-UM","2018/02/03 17:49:20","新北市樹林區龍興街13巷5號","121.40339","25.0164683333333","6500700","樹林區"
"238019","599-UM","2018/02/03 17:49:27","新北市樹林區太平路148號","121.418581666667","24.9782233333333","6500700","樹林區"
"238018","571-TV","2018/02/03 17:49:36","新北市樹林區博愛街73號","121.427151666667","24.9921716666667","6500700","樹林區"
"238024","5061-A6","2018/02/03 17:49:15","新北市樹林區中山路三段210-2號","121.381416666667","24.9656183333333","6500700","樹林區"
"238021","KEA-2217","2018/02/03 17:49:20","新北市樹林區柑園街一段193-2號","121.39871","24.9566916666667","6500700","樹林區"
"238022","KEA-2213","2018/02/03 17:49:28","新北市樹林區太元街54號","121.418291666667","24.9794266666667","6500700","樹林區"
"238025","303-VK","2018/02/03 17:49:35","新北市樹林區保安街三段69號","121.412651666667","25.0120916666667","6500700","樹林區"
"238017","283-BY","2018/02/03 17:49:31","新北市樹林區三俊街74巷45號","121.414368333333","25.013175","6500700","樹林區"
"238014","282-BY","2018/02/03 17:49:27","新北市樹林區保安街一段293號","121.41794","24.9972766666667","6500700","樹林區"
"238020","268-VK","2018/02/03 17:49:36","新北市樹林區三俊街279號","121.423115","25.014085","6500700","樹林區"
"238026","172-UY","2018/02/03 17:49:15","新北市樹林區中洲街51巷1號","121.396725","24.970915","6500700","樹林區"
"238016","169-UY","2018/02/03 17:49:35","新北市樹林區啟智街129-5號","121.417921666667","24.989105","6500700","樹林區"
"239007","AAC-297","2018/02/03 17:49:34","新北市鶯歌區永利街22號","121.339175","24.9548766666667","6500800","鶯歌區"
"239006","891-R6","2018/02/03 17:49:20","新北市鶯歌區鳳鳴路3號","121.33323","24.9648766666667","6500800","鶯歌區"
"239008","527-UM","2018/02/03 17:49:37","新北市鶯歌區大湖路718號","121.333091666667","24.9761516666667","6500800","鶯歌區"
"239005","526-UM","2018/02/03 17:49:28","新北市鶯歌區鳳吉五街7號","121.326576666667","24.9722116666667","6500800","鶯歌區"
"239001","417-VK","2018/02/03 17:49:22","新北市鶯歌區中正三路424號","121.324313333333","24.9346216666667","6500800","鶯歌區"
"239003","360-BY","2018/02/03 17:49:32","新北市鶯歌區鶯桃路285巷43號","121.333993333333","24.957795","6500800","鶯歌區"
"239004","193-VK","2018/02/03 17:49:25","新北市鶯歌區文化路136巷58號","121.35048","24.949925","6500800","鶯歌區"
"221036","130-UY","2018/02/03 17:49:26","新北市汐止區長江街85號","121.657543333333","25.072355","6501100","汐止區"
"221010","269-BY","2018/02/03 17:49:13","新北市汐止區汐萬路二段37巷2號","121.649515","25.0815116666667","6501100","汐止區"
"221012","278-VK","2018/02/03 17:49:32","新北市汐止區長江街71號","121.657013333333","25.0720216666667","6501100","汐止區"
"221023","279-VK","2018/02/03 17:49:25","新北市汐止區康寧街591巷4號","121.634915","25.0705416666667","6501100","汐止區"
"221032","280-BY","2018/02/03 17:49:27","新北市汐止區大同路一段32號","121.622036666667","25.0549366666667","6501100","汐止區"
"221027","281-BY","2018/02/03 17:49:22","新北市汐止區汐萬路一段312號","121.650421666667","25.0752066666667","6501100","汐止區"
"221002","297-VK","2018/02/03 17:49:27","新北市汐止區汐萬路一段256巷3號","121.652278333333","25.074665","6501100","汐止區"
"221029","298-VK","2018/02/03 17:49:31","新北市汐止區康寧街901號","121.651528333333","25.0748733333333","6501100","汐止區"
"221021","299-VK","2018/02/03 17:49:30","新北市汐止區大同路二段324號","121.656251666667","25.06702","6501100","汐止區"
"221031","353-TW","2018/02/03 17:49:28","新北市汐止區樟樹二路251巷35號","121.640525","25.0676266666667","6501100","汐止區"
"221035","622-UM","2018/02/03 17:49:22","新北市汐止區汐萬路一段204號","121.652091666667","25.0721266666667","6501100","汐止區"
"221025","623-UM","2018/02/03 17:49:24","新北市汐止區大同路二段175號","121.65163","25.0642683333333","6501100","汐止區"
"221038","646-BX","2018/02/03 17:49:26","新北市汐止區新江北路30巷15號","121.652621666667","25.0683733333333","6501100","汐止區"
"221033","647-BX","2018/02/03 17:49:25","新北市汐止區林森街78號","121.62396","25.0406366666667","6501100","汐止區"
"221018","753-BX","2018/02/03 17:49:21","新北市汐止區信義路1號","121.662186666667","25.0692683333333","6501100","汐止區"
"242048","281-VK","2018/02/03 17:49:19","新北市新莊區萬安街103號","121.42089","25.02305","6500500","新莊區"
