"lineid","car","time","location","longitude","latitude","cityid","cityname"
"234046","148-BY","2018/02/03 18:49:21","新北市永和區秀朗路二段126巷16號","121.524771666667","25.0012366666667","6500400","永和區"
"234070","149-BY","2018/02/03 18:49:27","新北市永和區竹林路96巷7號","121.519185","25.01206","6500400","永和區"
"234007","207-UY","2018/02/03 18:49:32","新北市永和區文化路154號","121.512421666667","25.0152583333333","6500400","永和區"
"234081","298-R6","2018/02/03 18:49:33","新北市永和區永利路87-1號","121.521496666667","25.0033166666667","6500400","永和區"
"234038","336-UY","2018/02/03 18:49:28","新北市永和區福和路8巷3號","121.524926666667","25.0092033333333","6500400","永和區"
"234086","338-UY","2018/02/03 18:49:36","新北市永和區中正路63號","121.514778333333","24.996585","6500400","永和區"
"234017","745-BX","2018/02/03 18:49:19","新北市永和區忠孝街26巷27弄1號","121.515251666667","25.01696","6500400","永和區"
"234030","746-BX","2018/02/03 18:49:21","新北市永和區得和路321號","121.523405","24.9996383333333","6500400","永和區"
"234054","KEA-2590","2018/02/03 18:49:34","新北市永和區豫溪街191巷1弄1號","121.523121666667","25.0104033333333","6500400","永和區"
"234013","KEA-2591","2018/02/03 18:49:21","新北市永和區仁愛路202巷24號","121.508925","25.01295","6500400","永和區"
"234061","AAD-866","2018/02/03 18:49:21","新北市永和區福和路305號","121.51631","25.0071833333333","6500400","永和區"
"234042","862-TW","2018/02/03 18:49:28","新北市永和區永貞路310號","121.511803333333","25.004925","6500400","永和區"
"234050","863-TW","2018/02/03 18:49:15","新北市永和區保安路2號","121.510723333333","25.017535","6500400","永和區"
"249005","172-UM","2018/02/03 18:49:20","新北市八里區長道坑16-2號","121.395273333333","25.1170166666667","6502300","八里區"
"249001","173-UM","2018/02/03 18:49:32","新北市八里區龍米路二段58-1號","121.448131666667","25.140835","6502300","八里區"
"248016","026-BX","2018/02/03 18:49:19","新北市五股區凌雲路一段149巷13-1號","121.448608333333","25.1008666666667","6501500","五股區"
"248006","077-UY","2018/02/03 18:49:20","新北市五股區中興路二段37巷11弄16號","121.461033333333","25.07374","6501500","五股區"
"248008","095-VK","2018/02/03 18:49:18","新北市五股區中興路一段151巷13號","121.465238333333","25.0726183333333","6501500","五股區"
"248020","225-UY","2018/02/03 18:42:08","新北市五股區凌雲路三段田埔巷16號","121.438213333333","25.12131","6501500","五股區"
"248012","247-BX","2018/02/03 18:49:21","新北市五股區成泰路二段147巷34-22號","121.436725","25.0895133333333","6501500","五股區"
"248014","261-SL","2018/02/03 18:49:27","新北市五股區蓬萊路24號","121.434175","25.0798083333333","6501500","五股區"
"248010","272-BY","2018/02/03 18:49:28","新北市五股區水碓五路81號","121.430008333333","25.0719","6501500","五股區"
"248004","677-BX","2018/02/03 18:49:25","新北市五股區民義路二段12-1號","121.42098","25.0963583333333","6501500","五股區"
"248002","678-BX","2018/02/03 18:49:27","新北市五股區西雲路247號","121.44921","25.0979666666667","6501500","五股區"
"234023","9380-KE","2018/02/03 18:49:38","新北市永和區竹林路119巷22弄11號","121.521815","25.0114766666667","6500400","永和區"
"234077","969-R7","2018/02/03 18:49:23","新北市永和區中正路42巷5號","121.513391666667","24.9941916666667","6500400","永和區"
"234074","AAC-211","2018/02/03 18:49:17","新北市永和區福和路1號","121.526196666667","25.0097116666667","6500400","永和區"
"234067","AAC-212","2018/02/03 18:49:27","新北市永和區中和路625號","121.512948333333","25.0048866666667","6500400","永和區"
"234003","AAC-295","2018/02/03 18:49:19","新北市永和區中正路676號","121.516788333333","25.009245","6500400","永和區"
"232011","375-UM","2018/02/03 18:49:27","新北市坪林區坪雙路一段1-1號","121.711328333333","24.9408866666667","6502000","坪林區"
"244013","069-UM","2018/02/03 18:49:20","新北市林口區中正路514巷31號","121.382195","25.07808","6501700","林口區"
"244007","080-UY","2018/02/03 18:49:27","新北市林口區太平里8-1號","121.380451666667","25.1140016666667","6501700","林口區"
"244019","402-UM","2018/02/03 18:49:21","新北市林口區麗園二街39巷18號","121.381341666667","25.069875","6501700","林口區"
"244023","483-VK","2018/02/03 18:49:33","新北市林口區吉祥路176號","121.376456666667","25.080545","6501700","林口區"
"244009","656-BX","2018/02/03 18:49:32","新北市林口區竹林路278巷2號","121.390388333333","25.0817516666667","6501700","林口區"
"244017","658-BX","2018/02/03 18:49:17","新北市林口區文化二路一段20巷57號","121.36535","25.0663916666667","6501700","林口區"
"244011","701-TV","2018/02/03 18:49:33","新北市林口區仁愛路一段270號","121.393786666667","25.0759516666667","6501700","林口區"
"244025","837-TS","2018/02/03 18:49:14","新北市林口區南勢里57-3號","121.360201666667","25.0779766666667","6501700","林口區"
"244021","838-TS","2018/02/03 18:49:19","新北市林口區工六路76號","121.400231666667","25.077285","6501700","林口區"
"243011","297-R6","2018/02/03 18:49:20","新北市泰山區明志路二段41號","121.429655","25.053","6501600","泰山區"
"243015","380-SR","2018/02/03 18:49:29","新北市泰山區美寧街60號","121.430808333333","25.0643816666667","6501600","泰山區"
"243012","539-UM","2018/02/03 18:49:30","新北市泰山區福興三街13號","121.434443333333","25.057765","6501600","泰山區"
"243009","KEA-2216","2018/02/03 18:49:20","新北市泰山區黎明路23-1號","121.421153333333","25.0611183333333","6501600","泰山區"
"243013","646-TV","2018/02/03 18:49:32","新北市泰山區明志路三段206巷3號","121.423238333333","25.0379366666667","6501600","泰山區"
"243016","680-BX","2018/02/03 18:49:34","新北市泰山區民權街2號","121.427571666667","25.0509633333333","6501600","泰山區"
"222003","436-BY","2018/02/03 18:49:22","新北市深坑區北深路一段300號","121.625023333333","25.00649","6501800","深坑區"
"222002","659-BX","2018/02/03 18:49:32","新北市深坑區文山路一段79號","121.62687","25.0018266666667","6501800","深坑區"
"231041","002-UM","2018/02/03 18:49:16","新北市新店區安華路28-1號","121.519691666667","24.9608566666667","6500600","新店區"
"231058","0291-UT","2018/02/03 18:49:28","新北市新店區北宜路一段58號","121.538436666667","24.956215","6500600","新店區"
"231059","046-UY","2018/02/03 18:49:20","新北市新店區安華路28-1號","121.519476666667","24.960725","6500600","新店區"
"231061","047-UY","2018/02/03 18:49:22","新北市新店區安華路28-1號","121.519153333333","24.96091","6500600","新店區"
"231060","106-UY","2018/02/03 18:49:32","新北市新店區安華路28-1號","121.519638333333","24.96078","6500600","新店區"
"231051","107-UY","2018/02/03 18:49:29","新北市新店區中央路67號","121.532491666667","24.9769966666667","6500600","新店區"
"231048","108-UY","2018/02/03 18:49:33","新北市新店區北新路二段92巷2弄5號","121.543618333333","24.9728466666667","6500600","新店區"
"231064","110-UY","2018/02/03 18:49:19","新北市新店區安華路28-1號","121.519133333333","24.9611166666667","6500600","新店區"
"231052","187-VK","2018/02/03 18:49:35","新北市新店區永興路12號","121.545128333333","24.9397983333333","6500600","新店區"
"231050","KEA-2219","2018/02/03 18:49:30","新北市新店區安康路一段113號","121.52849","24.9617383333333","6500600","新店區"
"221015","KEA-2785","2018/02/03 18:49:31","新北市汐止區吉祥街3號","121.668016666667","25.079905","6501100","汐止區"
"231046","278-BY","2018/02/03 18:49:18","新北市新店區直潭路71號","121.532398333333","24.942205","6500600","新店區"
"231054","AAD-862","2018/02/03 18:49:26","新北市新店區北新路一段71號","121.538323333333","24.9602466666667","6500600","新店區"
"231056","3713-VJ","2018/02/03 18:49:24","新北市新店區大豐路68巷14號","121.53888","24.97999","6500600","新店區"
"231055","4716-K9","2018/02/03 18:49:31","新北市新店區新生街18巷30號","121.539696666667","24.9669466666667","6500600","新店區"
"231067","4772-VM","2018/02/03 18:49:30","新北市新店區安康路一段104號","121.527408333333","24.962605","6500600","新店區"
"231065","512-UM","2018/02/03 18:49:23","新北市新店區安忠路205巷8號","121.508253333333","24.95471","6500600","新店區"
"231042","616-UM","2018/02/03 18:49:17","新北市新店區中正路69號","121.543813333333","24.9701383333333","6500600","新店區"
"231045","617-UM","2018/02/03 18:49:23","新北市新店區安康路一段89號","121.529181666667","24.9614583333333","6500600","新店區"
"231040","619-UM","2018/02/03 18:49:27","新北市新店區環河路116號","121.536948333333","24.9673283333333","6500600","新店區"
"231063","645-TV","2018/02/03 18:49:32","新北市新店區安華路1-1號","121.519335","24.960515","6500600","新店區"
"231049","719-UM","2018/02/03 18:49:28","新北市新店區中正路454-5號","121.534455","24.9790066666667","6500600","新店區"
"231062","720-UM","2018/02/03 18:49:17","新北市新店區安忠路97號","121.511208333333","24.95638","6500600","新店區"
"231044","897-TW","2018/02/03 18:49:34","新北市新店區寶中路72號","121.547918333333","24.980555","6500600","新店區"
"231043","899-TW","2018/02/03 18:49:26","新北市新店區安康路一段83-1號","121.52965","24.9613016666667","6500600","新店區"
"231066","AKT-0513","2018/02/03 18:49:26","新北市新店區安豐路22巷5-4號","121.501776666667","24.9560066666667","6500600","新店區"
"235066","003-UY","2018/02/03 18:49:16","新北市中和區水源路7巷29號","121.504048333333","25.0039283333333","6500300","中和區"
"235064","005-UY","2018/02/03 18:49:35","新北市中和區連城路87號","121.49672","25.0002866666667","6500300","中和區"
"235056","096-UM","2018/02/03 18:49:31","新北市中和區員山路611巷5弄5號","121.478088333333","25.0112516666667","6500300","中和區"
"235039","097-UM","2018/02/03 18:49:16","新北市永和區中正路1號","121.513808333333","24.9954233333333","6500300","中和區"
"235065","098-UM","2018/02/03 18:49:29","新北市中和區莊敬路33巷19號","121.50042","25.0070933333333","6500300","中和區"
"235004","150-BY","2018/02/03 18:49:25","新北市中和區保健路74號","121.511488333333","24.9964016666667","6500300","中和區"
"235058","151-BY","2018/02/03 18:49:33","新北市中和區員山路72號","121.480865","24.9937183333333","6500300","中和區"
"235055","183-VK","2018/02/03 18:49:29","新北市中和區民生街23號","121.470631666667","25.0055","6500300","中和區"
"235038","185-VK","2018/02/03 18:49:23","新北市中和區大勇街43巷4號","121.517678333333","24.994725","6500300","中和區"
"235049","186-VK","2018/02/03 18:49:30","新北市中和區景安路120巷3號","121.505248333333","24.99469","6500300","中和區"
"235067","255-BX","2018/02/03 18:49:31","新北市中和區新生街10號","121.483116666667","25.0045016666667","6500300","中和區"
"235044","293-VK","2018/02/03 18:49:28","新北市中和區中興街119號","121.499905","24.9918933333333","6500300","中和區"
"235072","301-VK","2018/02/03 18:49:22","新北市中和區中山路二段80號","121.503526666667","25.00447","6500300","中和區"
"235043","352-BY","2018/02/03 18:49:22","新北市中和區景平路1號","121.525778333333","24.990005","6500300","中和區"
"235068","377-QA","2018/02/03 18:49:30","新北市中和區中正路216-2號","121.49659","24.993775","6500300","中和區"
"235061","378-QA","2018/02/03 18:49:33","新北市中和區民享街59巷2號","121.474311666667","25.0023716666667","6500300","中和區"
"235050","4979-A6","2018/02/03 18:49:19","新北市中和區忠孝街62巷9弄12號","121.513111666667","24.983985","6500300","中和區"
"235069","4980-A6","2018/02/03 18:49:25","新北市中和區連城路65巷9號","121.497908333333","25.0008866666667","6500300","中和區"
"235042","551-UM","2018/02/03 18:49:25","新北市中和區秀朗路三段121巷2號","121.525666666667","24.9931966666667","6500300","中和區"
"235045","565-BX","2018/02/03 18:49:30","新北市中和區復興路65-1號","121.503998333333","24.9900716666667","6500300","中和區"
"235054","640-BX","2018/02/03 18:49:33","新北市中和區民享街54巷10號","121.473491666667","25.0024016666667","6500300","中和區"
"235060","647-TV","2018/02/03 18:49:32","新北市中和區中山路三段35-1號","121.47882","25.005785","6500300","中和區"
"235047","732-UM","2018/02/03 18:49:25","新北市中和區興南路二段34巷57弄1號","121.504855","24.98596","6500300","中和區"
"235046","733-UM","2018/02/03 18:49:17","新北市中和區仁愛街36巷45號","121.511385","24.9865433333333","6500300","中和區"
"235062","800-TS","2018/02/03 18:49:37","新北市中和區中山路二段328-2號","121.495196666667","25.0022266666667","6500300","中和區"
"235057","801-TS","2018/02/03 18:49:30","新北市中和區民安街22巷25號","121.479465","25.0014583333333","6500300","中和區"
"235041","802-TS","2018/02/03 18:49:36","新北市中和區中安街178巷13弄11號","121.510595","24.9986883333333","6500300","中和區"
"235052","805-TS","2018/02/03 18:49:33","新北市中和區興南路二段399巷86號","121.500203333333","24.9782933333333","6500300","中和區"
"235048","896-TW","2018/02/03 18:49:19","新北市中和區南山路533號","121.50795","24.986975","6500300","中和區"
"235053","900-TW","2018/02/03 18:49:38","新北市中和區華福街40號","121.466401666667","24.996595","6500300","中和區"
"235063","911-UM","2018/02/03 18:49:38","新北市中和區錦和路196巷6號","121.48976","24.9950216666667","6500300","中和區"
"235051","157-BY","2018/02/03 18:49:36","新北市中和區忠孝街18號","121.510336666667","24.9828233333333","6500300","中和區"
"235037","AAC-213","2018/02/03 18:49:21","新北市中和區秀朗路三段175巷10號","121.525075","24.9913583333333","6500300","中和區"
"235059","AAC-215","2018/02/03 18:49:24","新北市中和區圓通路393巷28號","121.490151666667","24.9884766666667","6500300","中和區"
"220068","013-TV","2018/02/03 18:49:26","新北市板橋區民生路二段120號","121.470531666667","25.0194216666667","6500100","板橋區"
"220065","072-UY","2018/02/03 18:49:27","新北市板橋區漢生東路282號","121.471233333333","25.0089533333333","6500100","板橋區"
"220086","073-UY","2018/02/03 18:49:24","新北市板橋區大智街71巷38號","121.452928333333","25.0144083333333","6500100","板橋區"
"220106","075-UY","2018/02/03 18:49:25","新北市板橋區民生路二段120號","121.470325","25.0196566666667","6500100","板橋區"
"220069","AAD-861","2018/02/03 18:49:30","新北市板橋區南雅南路一段1巷42號","121.457443333333","25.0063033333333","6500100","板橋區"
"226004","312-R5","2018/02/03 18:49:35","新北市平溪區平溪里三坑路35號","121.735933333333","25.0310466666667","6502400","平溪區"
"228003","097-TW","2018/02/03 18:48:31","新北市瑞芳區鼻頭路127號","121.916943333333","25.1214316666667","6502600","貢寮區"
"228001","212-TW","2018/02/03 18:49:31","新北市貢寮區仁理村保健街69號","121.923756666667","25.0516","6502600","貢寮區"
"228002","663-BX","2018/02/03 18:49:35","新北市貢寮區福隆里東興街6-11號","121.95072","25.0210583333333","6502600","貢寮區"
"224010","AGQ-8101","2018/02/03 18:47:05","新北市瑞芳區基山街4號","121.845111666667","25.10973","6501200","瑞芳區"
"224006","676-BX","2018/02/03 18:49:32","新北市瑞芳區明燈路三段130號","121.804545","25.1085283333333","6501200","瑞芳區"
"224002","639-TC","2018/02/03 18:49:16","新北市瑞芳區靜安路四段36號","121.793133333333","25.1006016666667","6501200","瑞芳區"
"224009","285-BY","2018/02/03 18:49:30","新北市瑞芳區祈堂路2號","121.859803333333","25.11167","6501200","瑞芳區"
"224008","275-VK","2018/02/03 18:49:31","新北市瑞芳區裕民新城1號","121.801973333333","25.11198","6501200","瑞芳區"
"224007","273-VK","2018/02/03 18:49:37","新北市瑞芳區大埔路249號","121.762513333333","25.1009816666667","6501200","瑞芳區"
"224005","271-BY","2018/02/03 18:49:25","新北市瑞芳區瑞濱路9號","121.82703","25.12159","6501200","瑞芳區"
"227002","642-TC","2018/02/03 18:49:25","新北市雙溪區平林里梅竹蹊23號","121.861566666667","25.035955","6502500","雙溪區"
"227010","400-TW","2018/02/03 18:49:30","新北市雙溪區牡丹里聖南16號","121.858086666667","25.052675","6502500","雙溪區"
"253005","032-BX","2018/02/03 18:49:29","新北市石門區中山路3號","121.565368333333","25.2907366666667","6502200","石門區"
"253006","295-VK","2018/02/03 18:49:19","新北市石門區下員坑15-7號","121.511528333333","25.2850383333333","6502200","石門區"
"222001","KEA-2212","2018/02/03 18:49:24","新北市深坑區松柏街39號","121.63859","25.0116416666667","6501800","深坑區"
"208002","742-BX","2018/02/03 18:49:29","新北市金山區信義路66號","121.635543333333","25.219025","6502700","金山區"
"208003","665-BX","2018/02/03 18:49:29","新北市金山區中山路301號","121.635898333333","25.2234783333333","6502700","金山區"
"208001","761-BX","2018/02/03 18:49:32","新北市金山區文化三路66巷2弄3號","121.634393333333","25.2256733333333","6502700","金山區"
"251001","011-UM","2018/02/03 18:49:25","新北市淡水區自強路88號","121.462621666667","25.1283633333333","6501000","淡水區"
"251013","179-VK","2018/02/03 18:49:20","新北市淡水區安子內5-1號","121.483558333333","25.2151733333333","6501000","淡水區"
"251014","180-VK","2018/02/03 18:49:34","新北市淡水區崙頂16-1號","121.489185","25.22332","6501000","淡水區"
"251015","182-VK","2018/02/03 18:49:29","新北市淡水區興福寮1-7號","121.487168333333","25.1657183333333","6501000","淡水區"
"251010","413-VK","2018/02/03 18:49:27","新北市淡水區沙崙路24號","121.421626666667","25.180855","6501000","淡水區"
"251012","441-VK","2018/02/03 18:49:35","新北市淡水區新興街9號","121.443458333333","25.18052","6501000","淡水區"
"251016","442-VK","2018/02/03 18:49:28","新北市淡水區下圭柔山71-3號","121.446998333333","25.2061633333333","6501000","淡水區"
"251009","575-R6","2018/02/03 18:49:15","新北市淡水區重建街166號","121.440738333333","25.1738433333333","6501000","淡水區"
"251011","650-BX","2018/02/03 18:49:31","新北市淡水區學府路20號","121.447686666667","25.1680316666667","6501000","淡水區"
"251002","672-BX","2018/02/03 18:49:28","新北市淡水區學府路65號","121.448233333333","25.1696833333333","6501000","淡水區"
"251003","673-BX","2018/02/03 18:49:36","新北市淡水區中山北路一段212巷38號","121.44613","25.17905","6501000","淡水區"
"207003","550-UM","2018/02/03 18:49:23","新北市萬里區大鵬里頂社2-1號","121.660033333333","25.2071516666667","6502800","萬里區"
"207004","225-TW","2018/02/03 18:49:28","新北市萬里區萬里里獅頭路23號","121.69322","25.1782633333333","6502800","萬里區"
"252003","249-BX","2018/02/03 18:49:23","新北市三芝區後厝里大片頭74-6號","121.459213333333","25.2450183333333","6502100","三芝區"
"252001","292-VK","2018/02/03 18:49:18","新北市三芝區中正路三段9號","121.502915","25.2540266666667","6502100","三芝區"
"252002","AAC-283","2018/02/03 18:49:28","新北市三芝區中正路一段101號","121.504745","25.2564233333333","6502100","三芝區"
"237004","KEA-2597","2018/02/03 18:49:16","新北市三峽區有木2-2號","121.418381666667","24.865835","6500900","三峽區"
"237007","153-BY","2018/02/03 18:49:24","新北市三峽區柑樹路2巷14號","121.361678333333","24.9055066666667","6500900","三峽區"
"237009","210-TH","2018/02/03 18:49:34","新北市三峽區仁愛街14號","121.36837","24.93259","6500900","三峽區"
"237013","252-BX","2018/02/03 18:49:36","新北市三峽區光明路69巷27號","121.376828333333","24.9292016666667","6500900","三峽區"
"237012","275-BY","2018/02/03 18:49:32","新北市三峽區三樹路358號","121.383961666667","24.943365","6500900","三峽區"
"237008","302-VK","2018/02/03 18:49:27","新北市三峽區白雞33-54號","121.370596666667","24.91265","6500900","三峽區"
"237014","433-BY","2018/02/03 18:49:35","新北市三峽區復興路480巷52號","121.361821666667","24.9412733333333","6500900","三峽區"
"237006","5529-G3","2018/02/03 18:49:31","新北市三峽區溪東路233巷4弄1號","121.40677","24.9333816666667","6500900","三峽區"
"237015","649-BX","2018/02/03 18:33:34","新北市三峽區竹崙路158號","121.437738333333","24.9045133333333","6500900","三峽區"
"237010","706-TV","2018/02/03 18:49:19","新北市三峽區復興路174巷4號","121.370698333333","24.9389316666667","6500900","三峽區"
"237005","AKY-6261","2018/02/03 18:49:25","新北市三峽區中山路323號","121.360643333333","24.93812","6500900","三峽區"
"236073","105-UM","2018/02/03 18:49:18","新北市土城區延和路19號","121.464308333333","24.9883233333333","6501300","土城區"
"236043","107-UM","2018/02/03 18:49:29","新北市土城區裕民路92巷23弄2號","121.4497","24.9861516666667","6501300","土城區"
"236079","166-UM","2018/02/03 18:49:30","新北市土城區中央路四段67巷60-13號","121.416966666667","24.95603","6501300","土城區"
"236031","253-BX","2018/02/03 18:49:36","新北市土城區中央路三段59號","121.438841666667","24.969585","6501300","土城區"
"236026","269-VK","2018/02/03 18:49:28","新北市土城區興城路48號","121.441436666667","24.9725333333333","6501300","土城區"
"236015","270-VK","2018/02/03 18:49:29","新北市土城區金城路二段354巷10號","121.460915","24.9844783333333","6501300","土城區"
"236038","271-VK","2018/02/03 18:49:22","新北市土城區仁愛路25-1號","121.462721666667","24.97832","6501300","土城區"
"236023","401-BY","2018/02/03 18:49:23","新北市土城區延吉街206號","121.46767","24.9850066666667","6501300","土城區"
"236059","912-UM","2018/02/03 18:49:36","新北市土城區中央路三段141-7號","121.43317","24.9653666666667","6501300","土城區"
"236049","913-UM","2018/02/03 18:49:26","新北市土城區青雲路8號","121.460231666667","24.98922","6501300","土城區"
"236063","915-UM","2018/02/03 18:49:30","新北市土城區延和路125巷30號","121.469278333333","24.9909016666667","6501300","土城區"
"236055","AAC-216","2018/02/03 18:49:33","新北市土城區裕民路127號","121.451225","24.986555","6501300","土城區"
"242061","362-BY","2018/02/03 18:49:20","新北市新莊區中正路457巷21號","121.44243","25.033235","6500500","新莊區"
"242036","133-UY","2018/02/03 18:49:36","新北市樹林區中山路三段210-2號","121.382358333333","24.9660383333333","6500500","新莊區"
"238015","755-BX","2018/02/03 18:49:25","新北市樹林區中山路三段206-1號","121.385028333333","24.9678316666667","6500700","樹林區"
"238023","601-UM","2018/02/03 18:49:19","新北市樹林區三福街114號","121.406485","25.01632","6500700","樹林區"
"238019","599-UM","2018/02/03 18:49:27","新北市樹林區中山路二段91號","121.41112","24.98161","6500700","樹林區"
"238018","571-TV","2018/02/03 18:49:36","新北市樹林區鎮前街160號","121.424438333333","24.9901333333333","6500700","樹林區"
"238024","5061-A6","2018/02/03 18:49:34","新北市樹林區八德街343號","121.418485","24.973655","6500700","樹林區"
"238025","303-VK","2018/02/03 18:49:35","新北市樹林區中山路三段22號","121.395565","24.9729333333333","6500700","樹林區"
"238017","283-BY","2018/02/03 18:49:22","新北市樹林區光興街50號","121.409825","25.0027416666667","6500700","樹林區"
"238014","282-BY","2018/02/03 18:49:27","新北市樹林區大安路111巷6號","121.42311","24.9975","6500700","樹林區"
"238020","268-VK","2018/02/03 18:49:16","新北市樹林區三俊街233號","121.421588333333","25.0147633333333","6500700","樹林區"
"238026","172-UY","2018/02/03 18:49:15","新北市樹林區信和街110號","121.388303333333","24.97333","6500700","樹林區"
"238016","169-UY","2018/02/03 18:49:29","新北市樹林區文化街49號","121.417865","24.9884583333333","6500700","樹林區"
"239007","AAC-297","2018/02/03 18:49:33","新北市鶯歌區成功街6巷28號","121.359318333333","24.95737","6500800","鶯歌區"
"239008","527-UM","2018/02/03 18:49:37","新北市鶯歌區朝陽街1號","121.336433333333","24.9765533333333","6500800","鶯歌區"
"239005","526-UM","2018/02/03 18:49:28","新北市鶯歌區鳳吉一街137號","121.32839","24.9749883333333","6500800","鶯歌區"
"239001","417-VK","2018/02/03 18:49:22","新北市鶯歌區鶯桃路98號","121.339333333333","24.9538583333333","6500800","鶯歌區"
"239003","360-BY","2018/02/03 18:49:32","新北市鶯歌區鶯桃路526號","121.331551666667","24.9669033333333","6500800","鶯歌區"
"239004","193-VK","2018/02/03 18:49:25","新北市鶯歌區中正三路247巷67弄8號","121.33416","24.9363866666667","6500800","鶯歌區"
"221036","130-UY","2018/02/03 18:49:26","新北市汐止區水碓街5號","121.664","25.0699216666667","6501100","汐止區"
"221010","269-BY","2018/02/03 18:49:34","新北市汐止區汐萬路三段14號","121.643058333333","25.0910733333333","6501100","汐止區"
"221012","278-VK","2018/02/03 18:49:32","新北市汐止區汐萬路一段306號","121.650438333333","25.0746166666667","6501100","汐止區"
"221023","279-VK","2018/02/03 18:49:25","新北市汐止區康寧街901號","121.65095","25.0751916666667","6501100","汐止區"
"221032","280-BY","2018/02/03 18:49:27","新北市汐止區橫科路322巷24弄6-1號","121.620471666667","25.0503516666667","6501100","汐止區"
"221027","281-BY","2018/02/03 18:49:22","新北市汐止區康寧街901號","121.651436666667","25.0749666666667","6501100","汐止區"
"221002","297-VK","2018/02/03 18:49:34","新北市汐止區大同路一段5號","121.62197","25.0549916666667","6501100","汐止區"
"221029","298-VK","2018/02/03 18:49:31","新北市汐止區工建路66號","121.640515","25.0629833333333","6501100","汐止區"
"221031","353-TW","2018/02/03 18:49:28","新北市汐止區福德一路300巷19號","121.63072","25.0640716666667","6501100","汐止區"
"221035","622-UM","2018/02/03 18:49:22","新北市汐止區康寧街901號","121.6508","25.0752533333333","6501100","汐止區"
"221025","623-UM","2018/02/03 18:49:24","新北市汐止區仁愛路65號","121.660773333333","25.0629016666667","6501100","汐止區"
"221038","646-BX","2018/02/03 18:49:26","新北市汐止區汐萬路一段312號","121.650651666667","25.0753033333333","6501100","汐止區"
"221033","647-BX","2018/02/03 18:49:25","新北市汐止區南勢街3號","121.627068333333","25.0373966666667","6501100","汐止區"
"221018","753-BX","2018/02/03 18:49:26","新北市汐止區茄安路9號","121.672791666667","25.0678616666667","6501100","汐止區"
"220079","145-BY","2018/02/03 18:49:30","新北市板橋區民權路209號","121.457958333333","25.0149233333333","6500100","板橋區"
"220080","200-UY","2018/02/03 18:49:27","新北市板橋區大觀路二段365巷12號","121.441161666667","24.9978883333333","6500100","板橋區"
"220082","610-BX","2018/02/03 18:49:25","新北市板橋區篤行路三段79-1號","121.427141666667","24.9852216666667","6500100","板橋區"
"220103","257-TC","2018/02/03 18:49:24","新北市板橋區民生路二段120號","121.470496666667","25.0196583333333","6500100","板橋區"
"220091","267-BY","2018/02/03 18:49:35","新北市板橋區民生路二段161巷1號","121.470283333333","25.0200866666667","6500100","板橋區"
"220056","276-BY","2018/02/03 18:49:28","新北市板橋區信義路61號","121.457316666667","24.9956516666667","6500100","板橋區"
"220072","277-BY","2018/02/03 18:49:31","新北市板橋區大觀路三段36巷89弄2號","121.434573333333","24.9979033333333","6500100","板橋區"
"220101","280-UM","2018/02/03 18:49:33","新北市板橋區民生路二段161巷3號","121.470055","25.01978","6500100","板橋區"
"220071","283-VK","2018/02/03 18:49:19","新北市板橋區忠孝路176巷5弄2號","121.464713333333","25.00197","6500100","板橋區"
"220094","285-UM","2018/02/03 18:49:33","新北市板橋區民生路二段120號","121.470321666667","25.0197366666667","6500100","板橋區"
"220053","285-VK","2018/02/03 18:49:19","新北市板橋區民生路二段89-6號","121.470581666667","25.0188333333333","6500100","板橋區"
"220083","286-VK","2018/02/03 18:49:35","新北市板橋區龍興街103巷2號","121.444535","25.0038216666667","6500100","板橋區"
"220081","287-VK","2018/02/03 18:49:21","新北市板橋區南雅西路二段171號","121.451981666667","25.0124283333333","6500100","板橋區"
"220090","288-VK","2018/02/03 18:49:35","新北市板橋區民生路二段161巷9號","121.470248333333","25.0196266666667","6500100","板橋區"
"220061","293-UM","2018/02/03 18:49:18","新北市板橋區太和街4巷3號","121.474035","25.0198683333333","6500100","板橋區"
"220084","296-UM","2018/02/03 18:49:28","新北市板橋區大觀路二段150巷52號","121.441615","25.0001383333333","6500100","板橋區"
"220075","303-R5","2018/02/03 18:49:30","新北市板橋區館前西路160巷2號","121.452978333333","25.0086216666667","6500100","板橋區"
"220098","317-R6","2018/02/03 18:49:34","新北市板橋區民生路二段120號","121.470416666667","25.0195466666667","6500100","板橋區"
"220064","486-VK","2018/02/03 18:49:29","新北市板橋區民生路二段36-1號","121.472131666667","25.0167366666667","6500100","板橋區"
"220035","560-BX","2018/02/03 18:49:26","新北市板橋區中正路325巷49號","121.452948333333","25.0185233333333","6500100","板橋區"
"220063","609-BX","2018/02/03 18:49:18","新北市板橋區介壽街119號","121.47061","25.01875","6500100","板橋區"
"220057","686-BX","2018/02/03 18:49:26","新北市板橋區大觀路二段266號","121.449696666667","24.9969016666667","6500100","板橋區"
"220077","687-BX","2018/02/03 18:49:27","新北市板橋區僑中二街152號","121.44478","25.004365","6500100","板橋區"
"220093","689-BX","2018/02/03 18:49:27","新北市板橋區民生路二段161巷1號","121.470265","25.0200183333333","6500100","板橋區"
"220054","741-BX","2018/02/03 18:49:36","新北市板橋區館前西路60號","121.458228333333","25.0071233333333","6500100","板橋區"
"220055","827-TW","2018/02/03 18:49:29","新北市板橋區縣民大道一段193號","121.459213333333","25.0082716666667","6500100","板橋區"
"220067","829-TW","2018/02/03 18:49:32","新北市板橋區三民路二段正隆巷45號","121.47681","25.0133966666667","6500100","板橋區"
"220096","830-TW","2018/02/03 18:49:29","新北市板橋區民生路二段120號","121.47047","25.0197016666667","6500100","板橋區"
"220088","833-TW","2018/02/03 18:49:28","新北市板橋區民生路二段120號","121.470563333333","25.01965","6500100","板橋區"
"220074","895-R6","2018/02/03 18:49:18","新北市板橋區南門街1號","121.457895","25.0094583333333","6500100","板橋區"
"220073","985-R7","2018/02/03 18:49:31","新北市板橋區館前西路121號","121.456683333333","25.007575","6500100","板橋區"
"220070","AAC-253","2018/02/03 18:49:22","新北市板橋區館前西路47號","121.458031666667","25.006825","6500100","板橋區"
