"lineid","car","time","location","longitude","latitude","cityid","cityname"
"234046","148-BY","2018/02/03 19:29:22","新北市永和區秀朗路二段169-1號","121.525405","25.0016466666667","6500400","永和區"
"234070","149-BY","2018/02/03 19:29:33","新北市永和區警光街16號","121.519591666667","25.0094866666667","6500400","永和區"
"234007","207-UY","2018/02/03 19:29:31","新北市永和區永和路一段186號","121.514371666667","25.00904","6500400","永和區"
"234081","298-R6","2018/02/03 19:29:33","新北市永和區林森路10巷1號","121.526395","25.0057533333333","6500400","永和區"
"234038","336-UY","2018/02/03 19:29:32","新北市永和區民樂街38號","121.527498333333","25.0007233333333","6500400","永和區"
"234064","337-UY","2018/02/03 19:29:30","新北市永和區得和路243巷28弄5號","121.520981666667","25.0013433333333","6500400","永和區"
"234086","338-UY","2018/02/03 19:29:23","新北市永和區林森路74號","121.523581666667","25.00387","6500400","永和區"
"234017","745-BX","2018/02/03 19:29:33","新北市永和區環河西路一段87-1號","121.512505","25.0179833333333","6500400","永和區"
"234030","746-BX","2018/02/03 19:29:21","新北市永和區民生路73號","121.522691666667","24.9971166666667","6500400","永和區"
"234054","KEA-2590","2018/02/03 19:29:34","新北市永和區復興街5號","121.515736666667","25.0129166666667","6500400","永和區"
"234013","KEA-2591","2018/02/03 19:29:21","新北市永和區永和路二段82號","121.515028333333","25.0113066666667","6500400","永和區"
"234061","AAD-866","2018/02/03 19:29:20","新北市永和區中正路475號","121.517063333333","25.0063233333333","6500400","永和區"
"234042","862-TW","2018/02/03 19:29:28","新北市永和區永貞路304號","121.511975","25.00475","6500400","永和區"
"234050","863-TW","2018/02/03 19:29:35","新北市永和區信義路114號","121.512326666667","25.0143466666667","6500400","永和區"
"234026","9371-KE","2018/02/03 19:29:35","新北市中和區安樂路217巷2號","121.514121666667","24.9990716666667","6500400","永和區"
"234010","9373-KE","2018/02/03 19:29:33","新北市永和區保福路二段61號","121.5109","25.0122183333333","6500400","永和區"
"249003","593-UM","2018/02/03 19:29:33","新北市八里區中山路二段500巷30號","121.397068333333","25.1479633333333","6502300","八里區"
"248008","095-VK","2018/02/03 19:29:18","新北市五股區中興路一段95巷11號","121.46673","25.0723466666667","6501500","五股區"
"248012","247-BX","2018/02/03 19:29:20","新北市五股區中興路四段48巷16號","121.438581666667","25.0834766666667","6501500","五股區"
"248014","261-SL","2018/02/03 19:29:25","新北市五股區民義路一段185-20號","121.431198333333","25.0874216666667","6501500","五股區"
"248010","272-BY","2018/02/03 19:29:23","新北市五股區自強路90巷72號","121.430978333333","25.0711316666667","6501500","五股區"
"248004","677-BX","2018/02/03 19:29:25","新北市五股區五福路78號","121.432763333333","25.0901533333333","6501500","五股區"
"248002","678-BX","2018/02/03 19:29:27","新北市五股區凌雲路一段158巷14-1號","121.447906666667","25.1034283333333","6501500","五股區"
"234023","9380-KE","2018/02/03 19:29:23","新北市永和區竹林路91巷17號","121.52051","25.0124083333333","6500400","永和區"
"234077","969-R7","2018/02/03 19:29:23","新北市永和區民權路58巷3號","121.519533333333","24.9983133333333","6500400","永和區"
"234074","AAC-211","2018/02/03 19:29:37","新北市永和區博愛街57巷1號","121.519966666667","25.0162266666667","6500400","永和區"
"234067","AAC-212","2018/02/03 19:29:33","新北市永和區保平路180號","121.510621666667","25.006725","6500400","永和區"
"234003","AAC-295","2018/02/03 19:29:19","新北市永和區福和路352號","121.514683333333","25.0074533333333","6500400","永和區"
"244013","069-UM","2018/02/03 19:29:20","新北市林口區麗園一街4巷2號","121.376393333333","25.07064","6501700","林口區"
"244023","483-VK","2018/02/03 19:29:33","新北市林口區文化三路一段482-100號","121.370093333333","25.0758383333333","6501700","林口區"
"243011","297-R6","2018/02/03 19:29:20","新北市泰山區貴子路78號","121.427155","25.041245","6501600","泰山區"
"243015","380-SR","2018/02/03 19:29:29","新北市泰山區明志路二段9號","121.430151666667","25.053615","6501600","泰山區"
"243014","421-VK","2018/02/03 19:29:17","新北市泰山區中港西路420號","121.433901666667","25.0538083333333","6501600","泰山區"
"243012","539-UM","2018/02/03 19:29:30","新北市泰山區仁義路195號","121.433118333333","25.05392","6501600","泰山區"
"243010","KEA-2215","2018/02/03 19:29:30","新北市泰山區民族街10巷3號","121.42912","25.0516833333333","6501600","泰山區"
"243009","KEA-2216","2018/02/03 19:29:20","新北市泰山區美寧街76號","121.431483333333","25.0645916666667","6501600","泰山區"
"243013","646-TV","2018/02/03 19:29:32","新北市泰山區明志路三段145巷5弄24號","121.425743333333","25.04045","6501600","泰山區"
"243016","680-BX","2018/02/03 19:29:34","新北市泰山區明志路三段277號","121.422895","25.0365616666667","6501600","泰山區"
"222003","436-BY","2018/02/03 19:29:22","新北市深坑區深南路88巷1號","121.620986666667","25.01169","6501800","深坑區"
"222002","659-BX","2018/02/03 19:29:32","新北市深坑區北深路一段177號","121.632531666667","25.0109066666667","6501800","深坑區"
"231041","002-UM","2018/02/03 19:29:32","新北市新店區中正路568號","121.53395","24.9877566666667","6500600","新店區"
"231058","0291-UT","2018/02/03 19:29:28","新北市新店區寶橋路85巷51號","121.544508333333","24.97706","6500600","新店區"
"231059","046-UY","2018/02/03 19:29:23","新北市新店區安和路三段77號","121.517926666667","24.98346","6500600","新店區"
"231061","047-UY","2018/02/03 19:29:22","新北市新店區安民街80號","121.516581666667","24.96695","6500600","新店區"
"231060","106-UY","2018/02/03 19:29:32","新北市新店區安康路二段55號","121.514251666667","24.9632916666667","6500600","新店區"
"231051","107-UY","2018/02/03 19:29:29","新北市新店區中央五街22-1號","121.529241666667","24.974515","6500600","新店區"
"231048","108-UY","2018/02/03 19:29:33","新北市新店區中興路一段252號","121.544405","24.9665433333333","6500600","新店區"
"231064","110-UY","2018/02/03 19:29:19","新北市新店區安忠路57巷7弄2號","121.513315","24.9584016666667","6500600","新店區"
"231052","187-VK","2018/02/03 19:29:35","新北市新店區新烏路二段188號","121.547908333333","24.9174983333333","6500600","新店區"
"231050","KEA-2219","2018/02/03 19:29:35","新北市新店區北宜路二段82巷3號","121.553608333333","24.953095","6500600","新店區"
"221015","KEA-2785","2018/02/03 19:29:31","新北市汐止區康寧街901號","121.651496666667","25.07493","6501100","汐止區"
"231057","256-BX","2018/02/03 19:29:10","新北市新店區花園一路二段19號","121.55081","24.933075","6500600","新店區"
"231046","278-BY","2018/02/03 19:29:18","新北市新店區北新路二段2號","121.542595","24.97074","6500600","新店區"
"231054","AAD-862","2018/02/03 19:29:26","新北市新店區文中路45號","121.539578333333","24.95674","6500600","新店區"
"231067","4772-VM","2018/02/03 19:29:30","新北市新店區安德街60巷17號","121.510238333333","24.963025","6500600","新店區"
"231065","512-UM","2018/02/03 19:29:23","新北市新店區安祥路109巷3弄18號","121.475815","24.9599216666667","6500600","新店區"
"231042","616-UM","2018/02/03 19:29:37","新北市新店區中興路一段216號","121.54389","24.9657366666667","6500600","新店區"
"231045","617-UM","2018/02/03 19:29:23","新北市新店區北宜路二段207號","121.553133333333","24.9532333333333","6500600","新店區"
"231040","619-UM","2018/02/03 19:29:37","新北市新店區北新路一段14號","121.540905","24.9656616666667","6500600","新店區"
"231063","645-TV","2018/02/03 19:29:33","新北市新店區達觀路16號","121.503058333333","24.940865","6500600","新店區"
"231049","719-UM","2018/02/03 19:29:28","新北市新店區北新路三段65巷12弄21號","121.540725","24.9817166666667","6500600","新店區"
"231062","720-UM","2018/02/03 19:29:37","新北市新店區精忠路10-1號","121.532781666667","24.9590783333333","6500600","新店區"
"231044","897-TW","2018/02/03 19:29:34","新北市新店區中興路三段160號","121.54432","24.9806566666667","6500600","新店區"
"231043","899-TW","2018/02/03 19:29:26","新北市新店區北新路二段200號","121.543003333333","24.976685","6500600","新店區"
"231066","AKT-0513","2018/02/03 19:29:26","新北市新店區安康路三段165巷2弄10號","121.489173333333","24.9513616666667","6500600","新店區"
"241028","022-UY","2018/02/03 19:29:23","新北市三重區中寮街74號","121.493135","25.058295","6500200","三重區"
"241008","059-VK","2018/02/03 19:29:35","新北市三重區永福街135巷34號","121.477483333333","25.077075","6500200","三重區"
"241009","060-VK","2018/02/03 19:29:34","新北市三重區溪尾街242巷75號","121.485896666667","25.0814483333333","6500200","三重區"
"241031","061-VK","2018/02/03 19:29:33","新北市三重區集美街100號","121.488561666667","25.0540633333333","6500200","三重區"
"241017","063-VK","2018/02/03 19:29:28","新北市三重區大同北路54巷9號","121.493836666667","25.0634916666667","6500200","三重區"
"241026","066-VK","2018/02/03 19:29:33","新北市三重區文化南路65巷29號","121.499103333333","25.060845","6500200","三重區"
"241022","267-UM","2018/02/03 19:29:28","新北市三重區三民街141-2號","121.484495","25.06409","6500200","三重區"
"241032","269-UM","2018/02/03 19:29:21","新北市三重區三陽路41號","121.485085","25.05889","6500200","三重區"
"241013","270-UM","2018/02/03 19:29:35","新北市三重區仁愛街110號","121.495275","25.0744133333333","6500200","三重區"
"241025","271-UM","2018/02/03 19:29:34","新北市三重區頂崁街210巷28弄5號","121.475783333333","25.0675316666667","6500200","三重區"
"241007","398-BY","2018/02/03 19:29:33","新北市三重區溪尾街136號","121.489391666667","25.0796233333333","6500200","三重區"
"241020","413-TH","2018/02/03 19:29:35","新北市三重區大智街197號","121.489138333333","25.0735083333333","6500200","三重區"
"241030","480-VK","2018/02/03 19:29:31","新北市三重區成功路41巷7號","121.490325","25.0513916666667","6500200","三重區"
"241006","AAD-863","2018/02/03 19:29:32","新北市三重區後竹圍街175巷33號","121.485705","25.07329","6500200","三重區"
"241035","743-BX","2018/02/03 19:29:20","新北市三重區信義西街1號","121.498201666667","25.0647666666667","6500200","三重區"
"241029","942-UM","2018/02/03 19:29:35","新北市三重區中正南路216號","121.493848333333","25.05515","6500200","三重區"
"235066","003-UY","2018/02/03 19:29:16","新北市中和區景新街74號","121.50437","24.9988666666667","6500300","中和區"
"235064","005-UY","2018/02/03 19:29:35","新北市中和區南山路75號","121.50206","24.998005","6500300","中和區"
"235056","096-UM","2018/02/03 19:29:11","新北市中和區中山路三段39-2號","121.477608333333","25.0055316666667","6500300","中和區"
"235039","097-UM","2018/02/03 19:29:16","新北市中和區秀峰街52號","121.521136666667","24.99038","6500300","中和區"
"235065","098-UM","2018/02/03 19:29:29","新北市中和區中山路二段64巷11號","121.503303333333","25.0056716666667","6500300","中和區"
"235004","150-BY","2018/02/03 19:29:25","新北市中和區景安路79巷50號","121.507903333333","24.995605","6500300","中和區"
"235058","151-BY","2018/02/03 19:29:33","新北市中和區連城路469巷79弄6號","121.483625","24.9937516666667","6500300","中和區"
"235055","183-VK","2018/02/03 19:29:29","新北市中和區莒光路120巷15弄2號","121.471725","25.0011333333333","6500300","中和區"
"235038","185-VK","2018/02/03 19:29:23","新北市中和區立人街41號","121.520758333333","24.9941","6500300","中和區"
"235049","186-VK","2018/02/03 19:29:19","新北市中和區景新街285巷14號","121.510423333333","24.9935333333333","6500300","中和區"
"235067","255-BX","2018/02/03 19:29:31","新北市中和區連城路340巷10弄2號","121.482785","24.9964866666667","6500300","中和區"
"235044","293-VK","2018/02/03 19:29:28","新北市中和區捷運路185號","121.505488333333","24.99147","6500300","中和區"
"235072","301-VK","2018/02/03 19:29:22","新北市中和區連城路263巷8弄7號","121.491808333333","24.9951383333333","6500300","中和區"
"235043","352-BY","2018/02/03 19:29:22","新北市中和區景新街149號","121.506511666667","24.996575","6500300","中和區"
"235068","377-QA","2018/02/03 19:29:30","新北市中和區連勝街31號","121.498416666667","24.9978666666667","6500300","中和區"
"235061","378-QA","2018/02/03 19:27:37","新北市中和區中山路二段523巷14號","121.481445","25.0043583333333","6500300","中和區"
"235071","269-TV","2018/02/03 19:29:22","新北市中和區連城路469巷21弄3號","121.483925","24.995105","6500300","中和區"
"235050","4979-A6","2018/02/03 19:29:19","新北市中和區中正路291號","121.493258333333","24.9938116666667","6500300","中和區"
"235069","4980-A6","2018/02/03 19:29:25","新北市中和區景平路736巷1弄8號","121.497295","25.003985","6500300","中和區"
"235042","551-UM","2018/02/03 19:29:24","新北市中和區安樂路217巷21弄16號","121.513968333333","24.9977533333333","6500300","中和區"
"235045","565-BX","2018/02/03 19:29:29","新北市中和區景新街421號","121.51298","24.98914","6500300","中和區"
"235054","640-BX","2018/02/03 19:29:33","新北市中和區國光街109巷7號","121.469888333333","25.0000166666667","6500300","中和區"
"235060","647-TV","2018/02/03 19:29:32","新北市中和區中山路三段81號","121.475775","25.0058816666667","6500300","中和區"
"235047","732-UM","2018/02/03 19:29:25","新北市中和區景平路241巷62號","121.507771666667","24.9922516666667","6500300","中和區"
"235046","733-UM","2018/02/03 19:29:17","新北市中和區忠孝街37巷44號","121.510648333333","24.9847016666667","6500300","中和區"
"235057","801-TS","2018/02/03 19:29:30","新北市中和區員山路423巷7號","121.480615","25.00318","6500300","中和區"
"235041","802-TS","2018/02/03 19:29:36","新北市中和區中和路350巷6-1號","121.510713333333","25.0005283333333","6500300","中和區"
"235052","805-TS","2018/02/03 19:29:33","新北市中和區華新街143巷57號","121.50639","24.9798716666667","6500300","中和區"
"235048","896-TW","2018/02/03 19:29:39","新北市中和區忠孝街184號","121.512843333333","24.988175","6500300","中和區"
"235053","900-TW","2018/02/03 19:29:18","新北市中和區華安街17巷3號","121.466653333333","24.998325","6500300","中和區"
"235063","911-UM","2018/02/03 19:29:38","新北市中和區連勝街171號","121.494046666667","24.9968283333333","6500300","中和區"
"235051","157-BY","2018/02/03 19:29:17","新北市中和區景新街180號","121.506235","24.9961983333333","6500300","中和區"
"235037","AAC-213","2018/02/03 19:29:21","新北市中和區秀朗路三段10巷14弄47號","121.5238","24.9964616666667","6500300","中和區"
"235059","AAC-215","2018/02/03 19:29:24","新北市中和區圓通路252巷18弄1號","121.492351666667","24.99247","6500300","中和區"
"220068","013-TV","2018/02/03 19:29:26","新北市板橋區萬安街101號","121.483515","25.0247333333333","6500100","板橋區"
"220065","072-UY","2018/02/03 19:29:35","新北市板橋區國泰街75巷28弄54號","121.467721666667","25.004745","6500100","板橋區"
"220086","073-UY","2018/02/03 19:29:24","新北市板橋區中正路216巷22號","121.456783333333","25.0187016666667","6500100","板橋區"
"220106","075-UY","2018/02/03 19:29:25","新北市板橋區文化路二段417巷11號","121.473578333333","25.0338466666667","6500100","板橋區"
"220069","AAD-861","2018/02/03 19:29:38","新北市板橋區貴興路29號","121.457731666667","25.00408","6500100","板橋區"
"247008","341-TH","2018/02/03 19:29:35","新北市蘆洲區中山一路203號","121.474278333333","25.0810166666667","6501400","蘆洲區"
"247004","336-TH","2018/02/03 19:29:32","新北市蘆洲區長安街239號","121.459218333333","25.083075","6501400","蘆洲區"
"226004","205-ST","2018/02/03 19:29:20","新北市平溪區石底里公園街18-3號","121.733251666667","25.0258783333333","6502400","平溪區"
"228003","097-TW","2018/02/03 19:29:31","新北市貢寮區和美里和美街19-2號","121.91279","25.0826083333333","6502600","貢寮區"
"228001","212-TW","2018/02/03 19:29:31","新北市貢寮區真理里延平街68-1號","121.925331666667","25.0574566666667","6502600","貢寮區"
"228002","663-BX","2018/02/03 19:29:35","新北市貢寮區龍門里龍門街69號","121.930908333333","25.026545","6502600","貢寮區"
"224006","676-BX","2018/02/03 19:29:07","新北市瑞芳區三爪子坑路118-5號","121.806638333333","25.10523","6501200","瑞芳區"
"224008","275-VK","2018/02/03 19:29:18","新北市瑞芳區一坑路285號","121.801191666667","25.1084783333333","6501200","瑞芳區"
"227002","642-TC","2018/02/03 19:29:25","新北市雙溪區雙溪里光復街20號","121.865126666667","25.0354716666667","6502500","雙溪區"
"227010","400-TW","2018/02/03 19:29:30","新北市雙溪區新基里新基北街43號","121.868148333333","25.0397233333333","6502500","雙溪區"
"253005","032-BX","2018/02/03 19:29:29","新北市石門區小坑9號","121.594401666667","25.2883533333333","6502200","石門區"
"222001","KEA-2212","2018/02/03 19:29:31","新北市深坑區北深路二段125-1號","121.616211666667","25.002965","6501800","深坑區"
"208002","742-BX","2018/02/03 19:29:29","新北市金山區仁愛路87巷1號","121.63463","25.2215133333333","6502700","金山區"
"208003","665-BX","2018/02/03 19:29:28","新北市金山區仁愛路78巷16號","121.635608333333","25.221465","6502700","金山區"
"208001","761-BX","2018/02/03 19:29:36","新北市金山區中正路9號","121.637113333333","25.2225266666667","6502700","金山區"
"251001","011-UM","2018/02/03 19:29:37","新北市淡水區民權路139-1號","121.460106666667","25.1364683333333","6501000","淡水區"
"251013","179-VK","2018/02/03 19:29:31","新北市淡水區大牛稠4號","121.469438333333","25.2199833333333","6501000","淡水區"
"251014","180-VK","2018/02/03 19:29:34","新北市淡水區小中寮15號","121.485698333333","25.2305566666667","6501000","淡水區"
"251015","182-VK","2018/02/03 19:29:29","新北市淡水區北新路三段46號","121.484513333333","25.1874266666667","6501000","淡水區"
"251010","413-VK","2018/02/03 19:29:27","新北市淡水區中正路二段150號","121.422815","25.18766","6501000","淡水區"
"251012","441-VK","2018/02/03 19:29:35","新北市淡水區中山北路三段156號","121.44556","25.1957766666667","6501000","淡水區"
"251016","442-VK","2018/02/03 19:29:27","新北市淡水區淡金路三段350巷18號","121.450795","25.208375","6501000","淡水區"
"251005","443-VK","2018/02/03 19:29:33","新北市淡水區水源街一段71巷18號","121.444406666667","25.1729416666667","6501000","淡水區"
"251006","561-UM","2018/02/03 19:29:26","新北市淡水區大義街32號","121.44239","25.1783966666667","6501000","淡水區"
"251009","575-R6","2018/02/03 19:29:35","新北市淡水區大忠街5巷8號","121.443381666667","25.1765016666667","6501000","淡水區"
"251007","577-R6","2018/02/03 19:29:34","新北市淡水區中正東路二段5巷31號","121.460205","25.158965","6501000","淡水區"
"251011","650-BX","2018/02/03 19:29:18","新北市淡水區中正東路二段161巷11弄14號","121.460523333333","25.1464983333333","6501000","淡水區"
"251003","673-BX","2018/02/03 19:29:15","新北市淡水區中山北路一段239號","121.444561666667","25.1797433333333","6501000","淡水區"
"207003","550-UM","2018/02/03 19:29:33","新北市萬里區大鵬里萬里加投197-2號","121.644013333333","25.2150533333333","6502800","萬里區"
"207004","225-TW","2018/02/03 19:29:28","新北市萬里區萬里里瑪鋉路135號","121.688945","25.1777266666667","6502800","萬里區"
"252001","292-VK","2018/02/03 19:29:38","新北市三芝區長勤街63-3號","121.500076666667","25.2557866666667","6502100","三芝區"
"252002","AAC-283","2018/02/03 19:29:28","新北市三芝區淡金路二段18-1號","121.502698333333","25.2594966666667","6502100","三芝區"
"237004","KEA-2597","2018/02/03 19:29:36","新北市三峽區有木206號","121.439103333333","24.85151","6500900","三峽區"
"237007","153-BY","2018/02/03 19:29:24","新北市三峽區二鬮路112號","121.359873333333","24.9088333333333","6500900","三峽區"
"237009","210-TH","2018/02/03 19:29:33","新北市三峽區民權街110號","121.369046666667","24.9323883333333","6500900","三峽區"
"237013","252-BX","2018/02/03 19:29:36","新北市三峽區介壽路一段318巷15號","121.381323333333","24.929425","6500900","三峽區"
"237012","275-BY","2018/02/03 19:29:32","新北市三峽區三樹路98巷171號","121.384563333333","24.9398883333333","6500900","三峽區"
"237008","302-VK","2018/02/03 19:29:27","新北市三峽區中正路一段114號","121.37399","24.92936","6500900","三峽區"
"237014","433-BY","2018/02/03 19:29:35","新北市三峽區中山路63巷12號","121.366933333333","24.9342833333333","6500900","三峽區"
"237006","5529-G3","2018/02/03 19:29:31","新北市三峽區中正路一段231號","121.37213","24.9268733333333","6500900","三峽區"
"237016","649-BX","2018/02/03 19:25:54","新北市三峽區安坑27-3號","121.446318333333","24.928075","6500900","三峽區"
"237005","AKY-6261","2018/02/03 19:29:25","新北市三峽區復興路367巷19號","121.363825","24.9375866666667","6500900","三峽區"
"236073","105-UM","2018/02/03 19:29:38","新北市土城區裕民路185巷36弄10號","121.454381666667","24.98451","6501300","土城區"
"236079","166-UM","2018/02/03 19:29:22","新北市土城區中央路四段217號","121.413828333333","24.9557533333333","6501300","土城區"
"236026","269-VK","2018/02/03 19:29:28","新北市土城區中央路二段61巷22號","121.443215","24.9788266666667","6501300","土城區"
"236023","401-BY","2018/02/03 19:29:23","新北市土城區峰廷街3號","121.469111666667","24.9873133333333","6501300","土城區"
"236059","912-UM","2018/02/03 19:29:33","新北市土城區光明街28巷34號","121.441251666667","24.9742216666667","6501300","土城區"
"236049","913-UM","2018/02/03 19:29:25","新北市土城區清水路165號","121.4589","24.9815916666667","6501300","土城區"
"236055","AAC-216","2018/02/03 19:29:21","新北市土城區學府路一段276號","121.450073333333","24.983015","6501300","土城區"
"242036","133-UY","2018/02/03 19:29:36","新北市新莊區民安西路1號","121.426578333333","25.0220916666667","6500500","新莊區"
"238015","755-BX","2018/02/03 19:29:25","新北市樹林區復興路202號","121.41971","24.9906183333333","6500700","樹林區"
"238023","601-UM","2018/02/03 19:29:19","新北市樹林區三興路41號","121.395895","25.014615","6500700","樹林區"
"238019","599-UM","2018/02/03 19:29:27","新北市樹林區鎮前街347巷2弄20號","121.416236666667","24.98355","6500700","樹林區"
"238018","571-TV","2018/02/03 19:29:15","新北市樹林區中華路174號","121.414961666667","24.9803516666667","6500700","樹林區"
"238024","5061-A6","2018/02/03 19:29:34","新北市樹林區中山路三段155巷3號","121.39572","24.9726066666667","6500700","樹林區"
"238021","KEA-2217","2018/02/03 19:29:20","新北市樹林區柑園街二段247巷18號","121.375453333333","24.950255","6500700","樹林區"
"238022","KEA-2213","2018/02/03 19:29:28","新北市樹林區名園街44號","121.419628333333","24.9787083333333","6500700","樹林區"
"238025","303-VK","2018/02/03 19:29:35","新北市樹林區中山路一段69號","121.423733333333","24.9917233333333","6500700","樹林區"
"238017","283-BY","2018/02/03 19:29:22","新北市樹林區光興街184號","121.407596666667","25.0046083333333","6500700","樹林區"
"238014","282-BY","2018/02/03 19:29:27","新北市樹林區保安二街40巷33號","121.425813333333","24.99484","6500700","樹林區"
"238020","268-VK","2018/02/03 19:29:36","新北市樹林區俊英街111巷1-7號","121.424076666667","25.00938","6500700","樹林區"
"238026","172-UY","2018/02/03 19:29:35","新北市樹林區佳園路二段171號","121.389773333333","24.9564983333333","6500700","樹林區"
"238016","169-UY","2018/02/03 19:29:29","新北市樹林區復興路397-1號","121.414635","24.9847833333333","6500700","樹林區"
"239007","AAC-297","2018/02/03 19:29:33","新北市鶯歌區大湖路85巷3號","121.341996666667","24.9623733333333","6500800","鶯歌區"
"239006","891-R6","2018/02/03 19:29:20","新北市鶯歌區永昌街188號","121.339338333333","24.950555","6500800","鶯歌區"
"239008","527-UM","2018/02/03 19:29:27","新北市鶯歌區大湖路466號","121.339668333333","24.9721833333333","6500800","鶯歌區"
"239001","417-VK","2018/02/03 19:29:22","新北市鶯歌區尖山埔路二段17號","121.342585","24.9491033333333","6500800","鶯歌區"
"239003","360-BY","2018/02/03 19:29:32","新北市鶯歌區國華路56號","121.34227","24.95494","6500800","鶯歌區"
"239004","193-VK","2018/02/03 19:29:25","新北市鶯歌區二甲路中心巷9號","121.337461666667","24.935895","6500800","鶯歌區"
"221036","130-UY","2018/02/03 19:29:26","新北市汐止區汐萬路一段256巷1號","121.651721666667","25.0748016666667","6501100","汐止區"
"221010","269-BY","2018/02/03 19:29:33","新北市汐止區連峰街7號","121.646416666667","25.0773616666667","6501100","汐止區"
"221012","278-VK","2018/02/03 19:29:32","新北市汐止區大同路三段168號","121.673808333333","25.0754083333333","6501100","汐止區"
"221023","279-VK","2018/02/03 19:29:25","新北市汐止區康寧街753巷2弄22號","121.640081666667","25.07451","6501100","汐止區"
"221032","280-BY","2018/02/03 19:29:26","新北市汐止區汐萬路一段256巷1號","121.651868333333","25.0748366666667","6501100","汐止區"
"221027","281-BY","2018/02/03 19:29:22","新北市汐止區忠孝東路9號","121.658525","25.0659266666667","6501100","汐止區"
"221002","297-VK","2018/02/03 19:29:29","新北市汐止區大同路一段335號","121.638495","25.05933","6501100","汐止區"
"221029","298-VK","2018/02/03 19:29:31","新北市汐止區康寧街901號","121.651571666667","25.074925","6501100","汐止區"
"221031","353-TW","2018/02/03 19:25:24","新北市汐止區康寧街901號","121.650833333333","25.07526","6501100","汐止區"
"221025","623-UM","2018/02/03 19:29:23","新北市汐止區新台五路二段26號","121.6607","25.0652116666667","6501100","汐止區"
"221038","646-BX","2018/02/03 19:29:26","新北市汐止區汐萬路一段16號","121.656071666667","25.0674416666667","6501100","汐止區"
"221033","647-BX","2018/02/03 19:29:25","新北市汐止區南勢街1巷1號","121.627031666667","25.0374266666667","6501100","汐止區"
"220079","145-BY","2018/02/03 19:29:37","新北市板橋區民權路202巷13弄36號","121.458538333333","25.016365","6500100","板橋區"
"220080","200-UY","2018/02/03 19:29:27","新北市板橋區大觀路二段7巷55號","121.448663333333","25.0033716666667","6500100","板橋區"
"220082","610-BX","2018/02/03 19:29:25","新北市板橋區金門街53號","121.43325","24.9931216666667","6500100","板橋區"
"220103","257-TC","2018/02/03 19:29:24","新北市板橋區文化路一段212巷2弄1號","121.466648333333","25.0199116666667","6500100","板橋區"
"220091","267-BY","2018/02/03 19:29:35","新北市板橋區文聖街149巷25號","121.479523333333","25.0285866666667","6500100","板橋區"
"220056","276-BY","2018/02/03 19:29:28","新北市板橋區國慶路49巷15號","121.459465","24.9961416666667","6500100","板橋區"
"220072","277-BY","2018/02/03 19:29:31","新北市板橋區金門街253巷16弄7號","121.432736666667","24.987965","6500100","板橋區"
"220101","280-UM","2018/02/03 19:29:33","新北市板橋區縣民大道三段127巷24號","121.47692","25.0237616666667","6500100","板橋區"
"220071","283-VK","2018/02/03 19:29:19","新北市板橋區忠孝路48巷9弄12號","121.461498333333","25.0001016666667","6500100","板橋區"
"220094","285-UM","2018/02/03 19:29:33","新北市板橋區吳鳳路42號","121.468348333333","25.030375","6500100","板橋區"
"220053","285-VK","2018/02/03 19:29:39","新北市板橋區永豐街106號","121.476106666667","25.0205116666667","6500100","板橋區"
"220083","286-VK","2018/02/03 19:29:35","新北市板橋區龍興街73巷1號","121.443708333333","25.0021983333333","6500100","板橋區"
"220081","287-VK","2018/02/03 19:29:27","新北市板橋區南雅西路一段40號","121.453876666667","25.0046466666667","6500100","板橋區"
"220090","288-VK","2018/02/03 19:29:34","新北市板橋區長江路一段106巷12弄3號","121.459955","25.0289416666667","6500100","板橋區"
"220061","293-UM","2018/02/03 19:29:18","新北市板橋區成功路6巷7號","121.475801666667","25.0170366666667","6500100","板橋區"
"220062","295-UM","2018/02/03 19:29:20","新北市板橋區三民路二段153巷5弄15號","121.480178333333","25.01511","6500100","板橋區"
"220084","296-UM","2018/02/03 19:29:28","新北市板橋區滿平街136巷1弄1號","121.428636666667","24.9879583333333","6500100","板橋區"
"220092","299-UM","2018/02/03 19:29:34","新北市板橋區松江街64號","121.46875","25.0276","6500100","板橋區"
"220075","303-R5","2018/02/03 19:29:30","新北市板橋區中正路275巷93號","121.45112","25.0182366666667","6500100","板橋區"
"220098","317-R6","2018/02/03 19:29:34","新北市板橋區民有街112號","121.464418333333","25.028425","6500100","板橋區"
"220064","486-VK","2018/02/03 19:29:29","新北市板橋區縣民大道二段1號","121.46227","25.0117983333333","6500100","板橋區"
"220089","487-VK","2018/02/03 19:29:39","新北市板橋區文化路一段296號","121.467481666667","25.0217","6500100","板橋區"
"220035","560-BX","2018/02/03 19:29:34","新北市板橋區中正路399巷26號","121.453216666667","25.0226583333333","6500100","板橋區"
"220063","609-BX","2018/02/03 19:29:18","新北市板橋區三民路一段31巷87弄1號","121.4816","25.023275","6500100","板橋區"
"220057","686-BX","2018/02/03 19:29:26","新北市板橋區和平路153號","121.463353333333","24.9956233333333","6500100","板橋區"
"220077","687-BX","2018/02/03 19:29:27","新北市板橋區僑中二街104巷1號","121.44599","25.0077033333333","6500100","板橋區"
"220093","689-BX","2018/02/03 19:29:28","新北市板橋區雨農路27巷2號","121.461273333333","25.0241883333333","6500100","板橋區"
"220054","741-BX","2018/02/03 19:29:33","新北市板橋區重慶路153號","121.462561666667","25.0039466666667","6500100","板橋區"
"220055","827-TW","2018/02/03 19:29:29","新北市板橋區重慶路278巷1號","121.462841666667","24.999655","6500100","板橋區"
"220067","829-TW","2018/02/03 19:29:32","新北市板橋區漢生東路313巷2弄38-8號","121.472433333333","25.0077866666667","6500100","板橋區"
"220096","830-TW","2018/02/03 19:29:29","新北市板橋區大同街5巷9號","121.476685","25.0271816666667","6500100","板橋區"
"220088","833-TW","2018/02/03 19:29:28","新北市板橋區雙十路二段85號","121.475665","25.0273883333333","6500100","板橋區"
"220074","895-R6","2018/02/03 19:29:18","新北市板橋區西門街14號","121.455335","25.0113616666667","6500100","板橋區"
"220073","985-R7","2018/02/03 19:29:31","新北市板橋區中正路431號","121.454171666667","25.0232","6500100","板橋區"
"220097","AAC-210","2018/02/03 19:29:29","新北市板橋區文德路3號","121.462875","25.02443","6500100","板橋區"
"220070","AAC-253","2018/02/03 19:29:22","新北市板橋區四川路一段159號","121.459965","25.004005","6500100","板橋區"
