"lineid","car","time","location","longitude","latitude","cityid","cityname"
"234046","148-BY","2018/02/03 19:39:21","新北市永和區永元路94號","121.522538333333","25.0016666666667","6500400","永和區"
"234070","149-BY","2018/02/03 19:39:27","新北市永和區永和路二段216號","121.515731666667","25.013955","6500400","永和區"
"234007","207-UY","2018/02/03 19:39:32","新北市中和區中和路464號","121.51231","25.0038733333333","6500400","永和區"
"234081","298-R6","2018/02/03 19:39:33","新北市永和區國中路104巷6號","121.524725","25.0068666666667","6500400","永和區"
"234038","336-UY","2018/02/03 19:39:28","新北市永和區民樂街20號","121.527496666667","25.0020066666667","6500400","永和區"
"234064","337-UY","2018/02/03 19:39:23","新北市永和區秀朗路一段192巷6弄18號","121.519308333333","25.00208","6500400","永和區"
"234086","338-UY","2018/02/03 19:39:23","新北市永和區永亨路165巷8號","121.526228333333","25.0041583333333","6500400","永和區"
"234017","745-BX","2018/02/03 19:39:19","新北市永和區永和路二段425巷57弄1號","121.513673333333","25.0171283333333","6500400","永和區"
"234030","746-BX","2018/02/03 19:39:31","新北市永和區民生路37巷20號","121.523668333333","24.9979966666667","6500400","永和區"
"234054","KEA-2590","2018/02/03 19:39:34","新北市永和區復興街91號","121.517816666667","25.0141133333333","6500400","永和區"
"234013","KEA-2591","2018/02/03 19:39:38","新北市永和區永平路234號","121.508696666667","25.0108966666667","6500400","永和區"
"234061","AAD-866","2018/02/03 19:39:20","新北市永和區中正路399號","121.517096666667","25.004205","6500400","永和區"
"234042","862-TW","2018/02/03 19:39:28","新北市永和區永貞路265號","121.511753333333","25.00476","6500400","永和區"
"234050","863-TW","2018/02/03 19:39:35","新北市永和區保安路35號","121.509833333333","25.0161166666667","6500400","永和區"
"234026","9371-KE","2018/02/03 19:39:35","新北市永和區中和路501巷10號","121.51055","25.0026733333333","6500400","永和區"
"249004","303-UY","2018/02/03 19:39:26","新北市八里區中山路一段276號","121.414081666667","25.1600766666667","6502300","八里區"
"249002","305-UY","2018/02/03 19:39:17","新北市八里區頂寮二街79號","121.450098333333","25.1252983333333","6502300","八里區"
"249003","593-UM","2018/02/03 19:39:33","新北市八里區中華路二段536號","121.399195","25.145485","6502300","八里區"
"248016","026-BX","2018/02/03 19:39:19","新北市五股區凌雲路一段39號","121.45188","25.1007133333333","6501500","五股區"
"248008","095-VK","2018/02/03 19:39:18","新北市五股區四維路153號","121.467691666667","25.074535","6501500","五股區"
"248012","247-BX","2018/02/03 19:39:20","新北市五股區民義路一段48號","121.436856666667","25.0848183333333","6501500","五股區"
"248014","261-SL","2018/02/03 19:39:25","新北市五股區五福路23巷8號","121.433488333333","25.0888566666667","6501500","五股區"
"248010","272-BY","2018/02/03 19:39:23","新北市五股區自強路90巷72號","121.43083","25.0711666666667","6501500","五股區"
"248004","677-BX","2018/02/03 19:39:29","新北市五股區工商路116號","121.436938333333","25.0856616666667","6501500","五股區"
"248002","678-BX","2018/02/03 19:39:27","新北市五股區成泰路三段577巷52號","121.450723333333","25.1032583333333","6501500","五股區"
"234077","969-R7","2018/02/03 19:39:33","新北市永和區民權路7號","121.520058333333","24.99813","6500400","永和區"
"234074","AAC-211","2018/02/03 19:39:37","新北市永和區福和路129號","121.521418333333","25.0078233333333","6500400","永和區"
"234067","AAC-212","2018/02/03 19:39:27","新北市永和區中山路一段207號","121.508808333333","25.00858","6500400","永和區"
"234003","AAC-295","2018/02/03 19:39:39","新北市永和區自由街77巷1號","121.513223333333","25.0051066666667","6500400","永和區"
"244013","069-UM","2018/02/03 19:39:20","新北市林口區仁愛路二段526號","121.372905","25.0780466666667","6501700","林口區"
"244023","483-VK","2018/02/03 19:39:33","新北市林口區文化三路一段636-6號","121.371953333333","25.077325","6501700","林口區"
"243011","297-R6","2018/02/03 19:39:20","新北市泰山區中山路二段668號","121.427841666667","25.0381983333333","6501600","泰山區"
"243015","380-SR","2018/02/03 19:39:29","新北市泰山區明志路二段187號","121.427543333333","25.0495016666667","6501600","泰山區"
"243014","421-VK","2018/02/03 19:39:37","新北市泰山區泰林路二段33-8號","121.435186666667","25.0564783333333","6501600","泰山區"
"243012","539-UM","2018/02/03 19:39:30","新北市泰山區仁愛路64號","121.432206666667","25.0549733333333","6501600","泰山區"
"243010","KEA-2215","2018/02/03 19:39:30","新北市泰山區明志路二段50號","121.429276666667","25.0529516666667","6501600","泰山區"
"243009","KEA-2216","2018/02/03 19:39:20","新北市泰山區美寧街76號","121.431513333333","25.0645716666667","6501600","泰山區"
"243013","646-TV","2018/02/03 19:39:32","新北市泰山區應化街13號","121.423845","25.0437016666667","6501600","泰山區"
"243016","680-BX","2018/02/03 19:39:34","新北市泰山區新北大道七段103號","121.417746666667","25.0319383333333","6501600","泰山區"
"222003","436-BY","2018/02/03 19:36:05","新北市深坑區深南路51-1號","121.621225","25.0097716666667","6501800","深坑區"
"222002","659-BX","2018/02/03 19:39:32","新北市深坑區北深路一段177號","121.632536666667","25.010905","6501800","深坑區"
"231041","002-UM","2018/02/03 19:39:16","新北市新店區中正路500-1號","121.534343333333","24.981755","6500600","新店區"
"231058","0291-UT","2018/02/03 19:39:28","新北市新店區中正路102巷8弄6號","121.54358","24.9711416666667","6500600","新店區"
"231059","046-UY","2018/02/03 19:39:20","新北市新店區安和路三段50號","121.518143333333","24.9823316666667","6500600","新店區"
"231061","047-UY","2018/02/03 19:39:22","新北市新店區安民街172號","121.516855","24.9707783333333","6500600","新店區"
"231060","106-UY","2018/02/03 19:39:32","新北市新店區安康路二段161號","121.510273333333","24.9593283333333","6500600","新店區"
"231051","107-UY","2018/02/03 19:39:29","新北市新店區中央四街41號","121.528103333333","24.97482","6500600","新店區"
"231048","108-UY","2018/02/03 19:39:34","新北市新店區五峰路61巷4號","121.547963333333","24.9698516666667","6500600","新店區"
"231064","110-UY","2018/02/03 19:39:39","新北市新店區安和路一段55號","121.51758","24.96619","6500600","新店區"
"231052","187-VK","2018/02/03 19:39:15","新北市新店區新烏路二段426號","121.551908333333","24.9089166666667","6500600","新店區"
"231050","KEA-2219","2018/02/03 19:39:30","新北市新店區郵政路1巷6號","121.557445","24.9520933333333","6500600","新店區"
"221015","KEA-2785","2018/02/03 19:39:31","新北市汐止區康寧街901號","121.650913333333","25.0751216666667","6501100","汐止區"
"231057","256-BX","2018/02/03 19:39:30","新北市新店區橘園一路11號","121.547933333333","24.9340333333333","6500600","新店區"
"231046","278-BY","2018/02/03 19:39:19","新北市新店區中正路329巷7弄1號","121.535188333333","24.97416","6500600","新店區"
"231054","AAD-862","2018/02/03 19:39:26","新北市新店區文中路45號","121.539598333333","24.95679","6500600","新店區"
"231055","4716-K9","2018/02/03 19:39:31","新北市新店區環河路121號","121.52981","24.971495","6500600","新店區"
"231067","4772-VM","2018/02/03 19:39:30","新北市新店區精忠路10-1號","121.532665","24.9590533333333","6500600","新店區"
"231065","512-UM","2018/02/03 19:39:25","新北市新店區安祥路109巷51號","121.476865","24.9596366666667","6500600","新店區"
"231042","616-UM","2018/02/03 19:39:17","新北市新店區中興路一段216號","121.543813333333","24.9658183333333","6500600","新店區"
"231045","617-UM","2018/02/03 19:39:23","新北市新店區北宜路二段208號","121.559368333333","24.9543083333333","6500600","新店區"
"231040","619-UM","2018/02/03 19:39:26","新北市新店區中正路75巷71號","121.543065","24.9689383333333","6500600","新店區"
"231063","645-TV","2018/02/03 19:39:32","新北市新店區達觀路41號","121.502748333333","24.9382383333333","6500600","新店區"
"231049","719-UM","2018/02/03 19:39:28","新北市新店區大豐路45號","121.540171666667","24.979865","6500600","新店區"
"231062","720-UM","2018/02/03 19:39:37","新北市新店區永業路3號","121.534","24.9560766666667","6500600","新店區"
"231044","897-TW","2018/02/03 19:39:34","新北市新店區北新路三段111號","121.54136","24.98231","6500600","新店區"
"231043","899-TW","2018/02/03 19:39:26","新北市新店區北新路二段4號","121.542918333333","24.9709233333333","6500600","新店區"
"231066","AKT-0513","2018/02/03 19:39:26","新北市新店區安康路二段341巷4號","121.496891666667","24.9549083333333","6500600","新店區"
"241011","013-R5","2018/02/03 19:39:21","新北市三重區秀江街202號","121.497496666667","25.0716183333333","6500200","三重區"
"241028","022-UY","2018/02/03 19:39:23","新北市三重區中正南路200號","121.494006666667","25.05592","6500200","三重區"
"241008","059-VK","2018/02/03 19:39:35","新北市三重區永福街137號","121.478605","25.0767883333333","6500200","三重區"
"241009","060-VK","2018/02/03 19:39:34","新北市三重區三和路四段410號","121.480891666667","25.0796766666667","6500200","三重區"
"241031","061-VK","2018/02/03 19:39:31","新北市三重區重新路四段248號","121.486046666667","25.0533483333333","6500200","三重區"
"241015","062-VK","2018/02/03 19:39:23","新北市三重區福德北路24號","121.502133333333","25.06475","6500200","三重區"
"241017","063-VK","2018/02/03 19:39:28","新北市三重區重陽路三段5巷30號","121.49125","25.0654183333333","6500200","三重區"
"241026","066-VK","2018/02/03 19:39:34","新北市三重區光興街55號","121.498963333333","25.0602466666667","6500200","三重區"
"241022","267-UM","2018/02/03 19:39:28","新北市三重區中正北路154號","121.48479","25.065835","6500200","三重區"
"241032","269-UM","2018/02/03 19:39:21","新北市三重區重陽路一段60巷73號","121.4843","25.0582483333333","6500200","三重區"
"241013","270-UM","2018/02/03 19:39:35","新北市三重區仁賢街4號","121.495625","25.0747516666667","6500200","三重區"
"241025","271-UM","2018/02/03 19:39:34","新北市三重區頂崁街142號","121.477646666667","25.06517","6500200","三重區"
"241007","398-BY","2018/02/03 19:39:24","新北市三重區三和路四段125巷74號","121.487261666667","25.0785316666667","6500200","三重區"
"241020","413-TH","2018/02/03 19:39:35","新北市三重區三和路四段20巷63號","121.48958","25.0736066666667","6500200","三重區"
"241019","478-VK","2018/02/03 19:39:32","新北市三重區六張街194巷2弄1號","121.488553333333","25.06829","6500200","三重區"
"241030","480-VK","2018/02/03 19:39:31","新北市三重區新興路24號","121.491975","25.0531416666667","6500200","三重區"
"241014","543-UM","2018/02/03 19:39:22","新北市三重區長壽街196號","121.504288333333","25.0691216666667","6500200","三重區"
"241023","545-UM","2018/02/03 19:39:18","新北市三重區忠孝路三段99巷20號","121.479486666667","25.06421","6500200","三重區"
"241001","547-UM","2018/02/03 19:39:24","新北市三重區仁愛街315巷1號","121.492795","25.0792916666667","6500200","三重區"
"241006","AAD-863","2018/02/03 19:39:32","新北市三重區聯華街100號","121.485416666667","25.07519","6500200","三重區"
"241035","743-BX","2018/02/03 19:39:26","新北市三重區正義北路61-2號","121.497483333333","25.064435","6500200","三重區"
"241012","941-UM","2018/02/03 19:39:29","新北市三重區仁興街33巷38-1號","121.5002","25.0758616666667","6500200","三重區"
"241029","942-UM","2018/02/03 19:39:35","新北市三重區重安街102號","121.492998333333","25.0559283333333","6500200","三重區"
"235066","003-UY","2018/02/03 19:39:36","新北市中和區中和路196巷12號","121.505023333333","24.9989383333333","6500300","中和區"
"235064","005-UY","2018/02/03 19:39:35","新北市中和區南山路123號","121.502145","24.9971733333333","6500300","中和區"
"235056","096-UM","2018/02/03 19:39:31","新北市中和區民富街94號","121.476691666667","25.00841","6500300","中和區"
"235039","097-UM","2018/02/03 19:39:36","新北市中和區秀峰街119巷8弄14號","121.518988333333","24.9899733333333","6500300","中和區"
"235065","098-UM","2018/02/03 19:39:29","新北市中和區莊敬路2號","121.499478333333","25.0042383333333","6500300","中和區"
"235004","150-BY","2018/02/03 19:39:25","新北市中和區宜安路92巷7號","121.510938333333","24.997745","6500300","中和區"
"235058","151-BY","2018/02/03 19:39:32","新北市中和區連城路525號","121.481653333333","24.995195","6500300","中和區"
"235055","183-VK","2018/02/03 19:39:29","新北市中和區中山路三段183號","121.47275","25.00616","6500300","中和區"
"235038","185-VK","2018/02/03 19:39:23","新北市中和區自立路29巷14弄30號","121.522986666667","24.9950383333333","6500300","中和區"
"235049","186-VK","2018/02/03 19:39:19","新北市中和區景新街243號","121.508231666667","24.99433","6500300","中和區"
"235067","255-BX","2018/02/03 19:39:31","新北市中和區新生街184號","121.483643333333","24.999705","6500300","中和區"
"235044","293-VK","2018/02/03 19:39:28","新北市中和區興南路一段167號","121.508485","24.986845","6500300","中和區"
"235072","301-VK","2018/02/03 19:39:22","新北市中和區錦和路91-1號","121.490138333333","24.99572","6500300","中和區"
"235043","352-BY","2018/02/03 19:39:22","新北市中和區興南路一段89號","121.509901666667","24.9888383333333","6500300","中和區"
"235068","377-QA","2018/02/03 19:39:30","新北市中和區連勝街65號","121.497536666667","24.9967766666667","6500300","中和區"
"235061","378-QA","2018/02/03 19:39:33","新北市中和區連城路456巷9號","121.478633333333","24.9951466666667","6500300","中和區"
"235071","269-TV","2018/02/03 19:39:22","新北市中和區中正路839巷29號","121.483555","25.0023683333333","6500300","中和區"
"235050","4979-A6","2018/02/03 19:39:19","新北市中和區景安路208巷21號","121.502446666667","24.99181","6500300","中和區"
"235042","551-UM","2018/02/03 19:39:24","新北市中和區中和路350巷8弄16號","121.51024","25.0001066666667","6500300","中和區"
"235045","565-BX","2018/02/03 19:39:29","新北市中和區景新街467巷20弄60號","121.51442","24.986805","6500300","中和區"
"235054","640-BX","2018/02/03 19:39:33","新北市中和區國光街112巷20弄5號","121.470613333333","25.0018216666667","6500300","中和區"
"235060","647-TV","2018/02/03 19:39:32","新北市中和區新生街118巷10號","121.483166666667","25.0017316666667","6500300","中和區"
"235047","732-UM","2018/02/03 19:39:25","新北市中和區景安路170號","121.504518333333","24.992675","6500300","中和區"
"235046","733-UM","2018/02/03 19:39:17","新北市中和區景新街496巷11號","121.513463333333","24.986705","6500300","中和區"
"235057","801-TS","2018/02/03 19:39:30","新北市中和區員山路254號","121.481376666667","25.0015933333333","6500300","中和區"
"235041","802-TS","2018/02/03 19:39:36","新北市中和區永貞路249巷10號","121.51257","25.0037583333333","6500300","中和區"
"235052","805-TS","2018/02/03 19:39:33","新北市中和區華新街143巷67弄3號","121.506888333333","24.9789116666667","6500300","中和區"
"235048","896-TW","2018/02/03 19:39:19","新北市中和區忠孝街1巷2-1號","121.509138333333","24.9830616666667","6500300","中和區"
"235053","900-TW","2018/02/03 19:39:38","新北市中和區民德路198號","121.468243333333","24.998715","6500300","中和區"
"235063","911-UM","2018/02/03 19:39:38","新北市中和區連城路169號","121.495336666667","24.9983666666667","6500300","中和區"
"235051","157-BY","2018/02/03 19:39:37","新北市中和區南山路259號","121.503821666667","24.9927166666667","6500300","中和區"
"235037","AAC-213","2018/02/03 19:39:21","新北市中和區秀朗路三段10巷29弄5號","121.52507","24.9959933333333","6500300","中和區"
"235059","AAC-215","2018/02/03 19:39:24","新北市中和區錦和路203巷3號","121.491068333333","24.99051","6500300","中和區"
"220068","013-TV","2018/02/03 19:39:28","新北市板橋區萬安街55-1號","121.483886666667","25.02384","6500100","板橋區"
"220065","072-UY","2018/02/03 19:39:27","新北市板橋區國泰街33號","121.468668333333","25.0066183333333","6500100","板橋區"
"220086","073-UY","2018/02/03 19:39:24","新北市板橋區中正路216巷77號","121.458111666667","25.0191833333333","6500100","板橋區"
"220106","075-UY","2018/02/03 19:39:25","新北市板橋區雙十路三段20-1號","121.47142","25.0305533333333","6500100","板橋區"
"220069","AAD-861","2018/02/03 19:39:30","新北市板橋區稚暉街62號","121.457088333333","25.0040533333333","6500100","板橋區"
"247008","341-TH","2018/02/03 19:39:35","新北市蘆洲區三民路1號","121.47587","25.0816933333333","6501400","蘆洲區"
"247004","336-TH","2018/02/03 19:39:32","新北市蘆洲區長安街98巷21號","121.46304","25.0819683333333","6501400","蘆洲區"
"226004","205-ST","2018/02/03 19:39:20","新北市平溪區南山里南山坪5號","121.762295","25.0330583333333","6502400","平溪區"
"228003","097-TW","2018/02/03 19:39:31","新北市貢寮區真理里美艷山街15-3號","121.92373","25.0680016666667","6502600","貢寮區"
"228001","212-TW","2018/02/03 19:39:31","新北市貢寮區真理里延平街49號","121.924605","25.0556533333333","6502600","貢寮區"
"224002","639-TC","2018/02/03 19:39:16","新北市瑞芳區三爪子坑路13巷203號","121.81556","25.106125","6501200","瑞芳區"
"227002","642-TC","2018/02/03 19:39:28","新北市雙溪區雙溪里太平路43號","121.864785","25.0356","6502500","雙溪區"
"227010","400-TW","2018/02/03 19:39:30","新北市雙溪區新基里中華路28-1號","121.866865","25.0367983333333","6502500","雙溪區"
"222001","KEA-2212","2018/02/03 19:39:24","新北市深坑區深坑街152號","121.612971666667","25.001465","6501800","深坑區"
"208002","742-BX","2018/02/03 19:39:29","新北市金山區三民街1號","121.634796666667","25.2223283333333","6502700","金山區"
"208003","665-BX","2018/02/03 19:39:28","新北市金山區仁愛路1巷1號","121.638626666667","25.21999","6502700","金山區"
"208001","761-BX","2018/02/03 19:39:32","新北市金山區六股里頂六股6號","121.611353333333","25.221865","6502700","金山區"
"251004","009-UM","2018/02/03 19:39:31","新北市淡水區民權路3號","121.45973","25.1421466666667","6501000","淡水區"
"251001","011-UM","2018/02/03 19:39:18","新北市淡水區民權路49號","121.459755","25.13924","6501000","淡水區"
"251013","179-VK","2018/02/03 19:39:19","新北市淡水區頂田寮路147號","121.462326666667","25.21646","6501000","淡水區"
"251014","180-VK","2018/02/03 19:39:34","新北市淡水區北勢子14號","121.476105","25.2307116666667","6501000","淡水區"
"251008","181-VK","2018/02/03 19:39:25","新北市淡水區中正路一段8巷1弄7號","121.428406666667","25.1768733333333","6501000","淡水區"
"251015","182-VK","2018/02/03 19:39:29","新北市三芝區興華里車埕69-5號","121.493311666667","25.19382","6501000","淡水區"
"251010","413-VK","2018/02/03 19:39:27","新北市淡水區崁頂92號","121.429346666667","25.20186","6501000","淡水區"
"251012","441-VK","2018/02/03 19:39:35","新北市淡水區中山北路三段156號","121.445586666667","25.1954516666667","6501000","淡水區"
"251016","442-VK","2018/02/03 19:39:27","新北市淡水區淡金路三段350巷18號","121.450796666667","25.208375","6501000","淡水區"
"251005","443-VK","2018/02/03 19:39:33","新北市淡水區原德路110號","121.44356","25.173715","6501000","淡水區"
"251006","561-UM","2018/02/03 19:39:38","新北市淡水區中山北路一段247巷108號","121.441935","25.1795333333333","6501000","淡水區"
"251009","575-R6","2018/02/03 19:39:35","新北市淡水區中山北路一段217號","121.444351666667","25.1791833333333","6501000","淡水區"
"251007","577-R6","2018/02/03 19:39:34","新北市淡水區中正東路一段113號","121.454313333333","25.160065","6501000","淡水區"
"251011","650-BX","2018/02/03 19:39:18","新北市淡水區八勢一街26號","121.460791666667","25.1560083333333","6501000","淡水區"
"251002","672-BX","2018/02/03 19:39:08","新北市淡水區下圭柔山90-8號","121.431406666667","25.21048","6501000","淡水區"
"207003","550-UM","2018/02/03 19:39:23","新北市萬里區大鵬里下社35號","121.649303333333","25.2166666666667","6502800","萬里區"
"207004","225-TW","2018/02/03 19:39:28","新北市萬里區萬里里瑪鋉路11號","121.687166666667","25.175345","6502800","萬里區"
"252001","292-VK","2018/02/03 19:39:18","新北市三芝區公正街9號","121.499706666667","25.2575116666667","6502100","三芝區"
"252002","AAC-283","2018/02/03 19:39:28","新北市三芝區中正路一段18巷48號","121.504041666667","25.25894","6502100","三芝區"
"237004","KEA-2597","2018/02/03 19:38:16","新北市三峽區插角134號","121.410726666667","24.8706816666667","6500900","三峽區"
"237007","153-BY","2018/02/03 19:39:24","新北市三峽區二鬮路136巷20弄19號","121.356755","24.9099683333333","6500900","三峽區"
"237009","210-TH","2018/02/03 19:39:33","新北市三峽區中園街67號","121.368165","24.9256733333333","6500900","三峽區"
"237013","252-BX","2018/02/03 19:39:36","新北市三峽區介壽路二段134號","121.393655","24.9357266666667","6500900","三峽區"
"237012","275-BY","2018/02/03 19:39:31","新北市三峽區民生街3號","121.374585","24.9354783333333","6500900","三峽區"
"237008","302-VK","2018/02/03 19:39:27","新北市三峽區永安街143號","121.373568333333","24.9280916666667","6500900","三峽區"
"237014","433-BY","2018/02/03 19:39:35","新北市三峽區嘉添1-3號","121.368008333333","24.911765","6500900","三峽區"
"237006","5529-G3","2018/02/03 19:39:31","新北市三峽區中正路一段336巷15弄2號","121.36995","24.9249583333333","6500900","三峽區"
"237016","649-BX","2018/02/03 19:25:54","新北市三峽區安坑27-3號","121.446318333333","24.928075","6500900","三峽區"
"237005","AKY-6261","2018/02/03 19:39:25","新北市三峽區中山路169巷9號","121.364373333333","24.9359333333333","6500900","三峽區"
"236073","105-UM","2018/02/03 19:39:18","新北市土城區金城路二段23-1號","121.4479","24.97647","6501300","土城區"
"236043","107-UM","2018/02/03 19:39:28","新北市土城區學士路17號","121.45344","24.9827883333333","6501300","土城區"
"236079","166-UM","2018/02/03 19:39:31","新北市土城區中州路27巷2號","121.413565","24.957615","6501300","土城區"
"236031","253-BX","2018/02/03 19:39:36","新北市土城區福祥街58號","121.441541666667","24.9814333333333","6501300","土城區"
"236026","269-VK","2018/02/03 19:39:28","新北市土城區中央路二段61巷22號","121.443268333333","24.9789066666667","6501300","土城區"
"236038","271-VK","2018/02/03 19:39:32","新北市土城區清水路98巷3弄5號","121.457761666667","24.98108","6501300","土城區"
"236023","401-BY","2018/02/03 19:39:23","新北市土城區峰廷街3號","121.469071666667","24.9873333333333","6501300","土城區"
"236049","913-UM","2018/02/03 19:39:26","新北市土城區明德路一段51號","121.465316666667","24.9849166666667","6501300","土城區"
"236063","915-UM","2018/02/03 19:39:39","新北市土城區延平街56號","121.46795","24.9924366666667","6501300","土城區"
"236055","AAC-216","2018/02/03 19:39:21","新北市土城區學府路一段121號","121.4553","24.9872233333333","6501300","土城區"
"242031","AAC-296","2018/02/03 19:39:32","新北市新莊區新泰路225巷22弄18號","121.444711666667","25.0393233333333","6500500","新莊區"
"242044","442-UM","2018/02/03 19:39:34","新北市新莊區新北大道七段381號","121.412606666667","25.0263883333333","6500500","新莊區"
"242034","415-TV","2018/02/03 19:39:33","新北市新莊區仁愛街16-5號","121.444323333333","25.0355616666667","6500500","新莊區"
"242004","413-TV","2018/02/03 19:39:32","新北市新莊區化成路11巷21號","121.46405","25.0434466666667","6500500","新莊區"
"242061","362-BY","2018/02/03 19:39:38","新北市新莊區新泰路255巷83號","121.442096666667","25.03887","6500500","新莊區"
"242036","133-UY","2018/02/03 19:39:36","新北市新莊區民安路207巷8號","121.426586666667","25.02266","6500500","新莊區"
"242009","173-VK","2018/02/03 19:39:22","新北市新莊區三和路12-21號","121.441773333333","25.038675","6500500","新莊區"
"242013","346-TH","2018/02/03 19:39:32","新北市新莊區中誠街121巷1號","121.449523333333","25.0473916666667","6500500","新莊區"
"242019","348-TH","2018/02/03 19:39:37","新北市新莊區新泰路357巷1弄45號","121.442665","25.0399233333333","6500500","新莊區"
"242017","350-TH","2018/02/03 19:39:27","新北市新莊區三和路12-21號","121.441991666667","25.0388616666667","6500500","新莊區"
"238015","755-BX","2018/02/03 19:39:25","新北市樹林區日新街97號","121.421585","24.9900533333333","6500700","樹林區"
"238023","601-UM","2018/02/03 19:39:19","新北市樹林區中正路865號","121.408846666667","25.018115","6500700","樹林區"
"238019","599-UM","2018/02/03 19:39:27","新北市樹林區東榮街91巷1弄1號","121.416113333333","24.98253","6500700","樹林區"
"238018","571-TV","2018/02/03 19:39:25","新北市樹林區中華路9號","121.42441","24.9838116666667","6500700","樹林區"
"238024","5061-A6","2018/02/03 19:39:34","新北市樹林區八德街1262號","121.390108333333","24.968925","6500700","樹林區"
"238021","KEA-2217","2018/02/03 19:39:20","新北市樹林區學勤路512號","121.382613333333","24.9476783333333","6500700","樹林區"
"238022","KEA-2213","2018/02/03 19:39:28","新北市樹林區名園街64號","121.42","24.978035","6500700","樹林區"
"238025","303-VK","2018/02/03 19:39:35","新北市樹林區中山路一段308號","121.420076666667","24.986245","6500700","樹林區"
"238017","283-BY","2018/02/03 19:39:24","新北市樹林區光興街18號","121.41236","25.0028916666667","6500700","樹林區"
"238014","282-BY","2018/02/03 19:39:27","新北市樹林區保安二街64巷5弄32號","121.424363333333","24.99678","6500700","樹林區"
"238020","268-VK","2018/02/03 19:39:36","新北市樹林區千歲街111-1號","121.429156666667","25.0015466666667","6500700","樹林區"
"238016","169-UY","2018/02/03 19:39:09","新北市樹林區東和街7號","121.404901666667","24.9795833333333","6500700","樹林區"
"239007","AAC-297","2018/02/03 19:39:33","新北市鶯歌區大湖路326巷30號","121.346251666667","24.9696716666667","6500800","鶯歌區"
"239006","891-R6","2018/02/03 19:39:20","新北市鶯歌區中正二路48號","121.350851666667","24.95177","6500800","鶯歌區"
"239003","360-BY","2018/02/03 19:39:32","新北市鶯歌區中正一路碧龍巷6號","121.36738","24.9571216666667","6500800","鶯歌區"
"221036","130-UY","2018/02/03 19:39:26","新北市汐止區康寧街901號","121.651608333333","25.0748816666667","6501100","汐止區"
"221010","269-BY","2018/02/03 19:39:33","新北市汐止區汐萬路二段23巷1號","121.649571666667","25.08086","6501100","汐止區"
"221012","278-VK","2018/02/03 19:39:32","新北市汐止區汐平路一段3號","121.680745","25.0711483333333","6501100","汐止區"
"221023","279-VK","2018/02/03 19:39:25","新北市汐止區明峰街190號","121.628196666667","25.069675","6501100","汐止區"
"221032","280-BY","2018/02/03 19:39:26","新北市汐止區橫科路407巷25弄17-5號","121.627621666667","25.0502966666667","6501100","汐止區"
"221027","281-BY","2018/02/03 19:39:22","新北市汐止區忠孝東路9號","121.658631666667","25.066","6501100","汐止區"
"221029","298-VK","2018/02/03 19:35:11","新北市汐止區康寧街901號","121.651561666667","25.07491","6501100","汐止區"
"221021","299-VK","2018/02/03 19:39:30","新北市汐止區水源路一段273號","121.654145","25.0589266666667","6501100","汐止區"
"221031","353-TW","2018/02/03 19:25:24","新北市汐止區康寧街901號","121.650833333333","25.07526","6501100","汐止區"
"221025","623-UM","2018/02/03 19:39:24","新北市汐止區秀峰路81巷48號","121.66177","25.0647966666667","6501100","汐止區"
"221038","646-BX","2018/02/03 19:39:26","新北市汐止區忠孝東路248號","121.662883333333","25.0673216666667","6501100","汐止區"
"221033","647-BX","2018/02/03 19:39:25","新北市汐止區南勢街1巷1號","121.626996666667","25.0373916666667","6501100","汐止區"
"220079","145-BY","2018/02/03 19:39:31","新北市板橋區民權路202巷15弄26號","121.459756666667","25.01618","6500100","板橋區"
"220080","200-UY","2018/02/03 19:39:27","新北市板橋區大觀路二段37巷200號","121.4494","25.001455","6500100","板橋區"
"220082","610-BX","2018/02/03 19:39:25","新北市板橋區大觀路三段160巷34弄2號","121.430073333333","24.9939666666667","6500100","板橋區"
"220103","257-TC","2018/02/03 19:39:24","新北市板橋區文化路一段286巷14號","121.468095","25.0213416666667","6500100","板橋區"
"220091","267-BY","2018/02/03 19:39:35","新北市板橋區懷德街139巷20弄6-2號","121.480053333333","25.0306416666667","6500100","板橋區"
"220056","276-BY","2018/02/03 19:39:28","新北市板橋區四川路二段47巷2弄1號","121.454045","24.99496","6500100","板橋區"
"220072","277-BY","2018/02/03 19:39:32","新北市板橋區金門街253巷5號","121.432455","24.9886183333333","6500100","板橋區"
"220101","280-UM","2018/02/03 19:39:33","新北市板橋區縣民大道三段33巷6弄1號","121.47394","25.021285","6500100","板橋區"
"220071","283-VK","2018/02/03 19:39:30","新北市板橋區四川路一段325巷3弄8號","121.459583333333","25.0004216666667","6500100","板橋區"
"220094","285-UM","2018/02/03 19:39:33","新北市板橋區銘傳街96號","121.46968","25.0315483333333","6500100","板橋區"
"220053","285-VK","2018/02/03 19:39:19","新北市板橋區中山路二段253號","121.477388333333","25.017465","6500100","板橋區"
"220083","286-VK","2018/02/03 19:39:35","新北市板橋區龍興街71巷44號","121.44201","25.0027116666667","6500100","板橋區"
"220081","287-VK","2018/02/03 19:39:21","新北市板橋區大觀路一段75巷45號","121.449183333333","25.0040883333333","6500100","板橋區"
"220090","288-VK","2018/02/03 19:39:35","新北市板橋區長江路一段46號","121.458675","25.0290433333333","6500100","板橋區"
"220061","293-UM","2018/02/03 19:39:18","新北市板橋區中山路一段265巷11號","121.468661666667","25.0146883333333","6500100","板橋區"
"220062","295-UM","2018/02/03 19:39:20","新北市板橋區三民路二段123巷31號","121.4806","25.0156733333333","6500100","板橋區"
"220084","296-UM","2018/02/03 19:39:28","新北市板橋區滿平街84巷102號","121.426538333333","24.986565","6500100","板橋區"
"220092","299-UM","2018/02/03 19:39:34","新北市板橋區光武街36巷12號","121.46795","25.0260833333333","6500100","板橋區"
"220075","303-R5","2018/02/03 19:39:30","新北市板橋區中正路253巷40號","121.454155","25.01774","6500100","板橋區"
"220098","317-R6","2018/02/03 19:39:34","新北市板橋區四維路312號","121.462453333333","25.0298733333333","6500100","板橋區"
"220064","486-VK","2018/02/03 19:39:29","新北市板橋區館前東路15號","121.46006","25.0072716666667","6500100","板橋區"
"220089","487-VK","2018/02/03 19:39:19","新北市板橋區文化路一段29號","121.460186666667","25.012875","6500100","板橋區"
"220035","560-BX","2018/02/03 19:39:37","新北市板橋區金華街85巷33號","121.458831666667","25.0213033333333","6500100","板橋區"
"220063","609-BX","2018/02/03 19:39:38","新北市板橋區萬安街581號","121.484076666667","25.0224333333333","6500100","板橋區"
"220057","686-BX","2018/02/03 19:39:25","新北市板橋區重慶路368號","121.464476666667","24.9970316666667","6500100","板橋區"
"220077","687-BX","2018/02/03 19:39:27","新北市板橋區僑中三街8號","121.446655","25.0046316666667","6500100","板橋區"
"220093","689-BX","2018/02/03 19:39:28","新北市板橋區長江路一段93-3號","121.45917","25.0294316666667","6500100","板橋區"
"220054","741-BX","2018/02/03 19:39:16","新北市板橋區四川路一段265號","121.459591666667","25.0022283333333","6500100","板橋區"
"220055","827-TW","2018/02/03 19:39:29","新北市板橋區國慶路149巷4弄2-4號","121.46127","24.9968","6500100","板橋區"
"220067","829-TW","2018/02/03 19:39:32","新北市板橋區長安街138巷1弄14號","121.473136666667","25.00958","6500100","板橋區"
"220096","830-TW","2018/02/03 19:39:29","新北市板橋區民生路二段226巷6弄2號","121.469711666667","25.0216916666667","6500100","板橋區"
"220088","833-TW","2018/02/03 19:39:28","新北市板橋區文化路二段446號","121.474743333333","25.03245","6500100","板橋區"
"220074","895-R6","2018/02/03 19:39:18","新北市板橋區府中路32號","121.45806","25.00978","6500100","板橋區"
"220073","985-R7","2018/02/03 19:39:31","新北市板橋區國光路67巷14號","121.458988333333","25.018705","6500100","板橋區"
"220097","AAC-210","2018/02/03 19:39:29","新北市板橋區幸福路32巷12號","121.461436666667","25.0207733333333","6500100","板橋區"
"220070","AAC-253","2018/02/03 19:39:38","新北市板橋區民族路87號","121.46601","25.0083783333333","6500100","板橋區"
