"lineid","car","time","location","longitude","latitude","cityid","cityname"
"234007","207-UY","2018/02/03 20:59:31","新北市永和區環河東路四段94號","121.528598333333","24.9968916666667","6500400","永和區"
"231058","0291-UT","2018/02/03 20:59:28","新北市新店區安德街148巷31號","121.506208333333","24.960625","6500600","新店區"
"231059","046-UY","2018/02/03 20:59:27","新北市新店區僑信路104號","121.500025","24.94723","6500600","新店區"
"231061","047-UY","2018/02/03 20:59:22","新北市新店區永安街81號","121.51984","24.9866716666667","6500600","新店區"
"231060","106-UY","2018/02/03 20:59:32","新北市新店區安康路三段517號","121.481855","24.9484883333333","6500600","新店區"
"231051","107-UY","2018/02/03 20:59:29","新北市新店區中正路663巷1弄31號","121.532521666667","24.9896983333333","6500600","新店區"
"231048","108-UY","2018/02/03 20:59:33","新北市新店區文化路92號","121.544905","24.9825","6500600","新店區"
"231064","110-UY","2018/02/03 20:59:39","新北市新店區安民街304號","121.517816666667","24.9738283333333","6500600","新店區"
"231052","187-VK","2018/02/03 20:59:35","新北市新店區新烏路一段65號","121.546188333333","24.94334","6500600","新店區"
"231050","KEA-2219","2018/02/03 20:59:30","新北市新店區三民路75巷3弄2號","121.535661666667","24.9709383333333","6500600","新店區"
"231054","AAD-862","2018/02/03 20:59:26","新北市新店區大新街7巷1號","121.543316666667","24.9686433333333","6500600","新店區"
"231067","4772-VM","2018/02/03 20:59:30","新北市新店區安德街148巷11弄2號","121.507751666667","24.960155","6500600","新店區"
"231065","512-UM","2018/02/03 20:59:31","新北市新店區安祥路67巷2號","121.483781666667","24.9595816666667","6500600","新店區"
"231042","616-UM","2018/02/03 20:59:37","新北市新店區寶興路60巷4號","121.549815","24.97188","6500600","新店區"
"231045","617-UM","2018/02/03 20:59:23","新北市新店區長春路34號","121.55026","24.9575416666667","6500600","新店區"
"231040","619-UM","2018/02/03 20:59:26","新北市新店區北新路一段351號","121.542015","24.9694533333333","6500600","新店區"
"231063","645-TV","2018/02/03 20:59:32","新北市新店區富貴街8巷1號","121.494286666667","24.949735","6500600","新店區"
"231068","718-UY","2018/02/03 20:59:20","新北市新店區寶元路二段31巷1號","121.546695","24.9817633333333","6500600","新店區"
"231062","720-UM","2018/02/03 20:59:17","新北市新店區雙城路113號","121.492631666667","24.9476266666667","6500600","新店區"
"231043","899-TW","2018/02/03 20:59:26","新北市新店區民族路241號","121.536565","24.9755083333333","6500600","新店區"
"231066","AKT-0513","2018/02/03 20:59:26","新北市新店區安民街5號","121.515213333333","24.9641733333333","6500600","新店區"
"241011","013-R5","2018/02/03 20:59:20","新北市三重區秀江街119號","121.499708333333","25.0721733333333","6500200","三重區"
"241028","022-UY","2018/02/03 20:59:23","新北市三重區中正北路23號","121.492111666667","25.061315","6500200","三重區"
"241008","059-VK","2018/02/03 20:59:35","新北市三重區車路頭街135-1號","121.48426","25.075995","6500200","三重區"
"241009","060-VK","2018/02/03 20:59:34","新北市三重區三和路四段386號","121.482271666667","25.0790783333333","6500200","三重區"
"241031","061-VK","2018/02/03 20:59:31","新北市三重區重陽路一段113巷3號","121.4875","25.0597933333333","6500200","三重區"
"241015","062-VK","2018/02/03 20:59:37","新北市三重區三和路一段58號","121.502225","25.0657066666667","6500200","三重區"
"241017","063-VK","2018/02/03 20:59:28","新北市三重區自強路一段171號","121.493026666667","25.0673616666667","6500200","三重區"
"241024","065-VK","2018/02/03 20:59:31","新北市三重區國道路一段58巷20號","121.481218333333","25.072055","6500200","三重區"
"241026","066-VK","2018/02/03 20:59:33","新北市三重區文化南路32號","121.500325","25.0614583333333","6500200","三重區"
"241002","090-VK","2018/02/03 20:59:22","新北市三重區五華街7巷12號","121.495616666667","25.0803233333333","6500200","三重區"
"241005","262-UM","2018/02/03 20:59:23","新北市三重區五華街172號","121.488926666667","25.0860933333333","6500200","三重區"
"241018","265-UM","2018/02/03 20:59:31","新北市三重區正義北路288號","121.49553","25.069435","6500200","三重區"
"241016","266-UM","2018/02/03 20:59:35","新北市三重區正義北路89號","121.497088333333","25.065135","6500200","三重區"
"241022","267-UM","2018/02/03 20:59:28","新北市三重區過圳街27-5號","121.487998333333","25.0624283333333","6500200","三重區"
"241032","269-UM","2018/02/03 20:59:33","新北市三重區新生街96號","121.483441666667","25.05931","6500200","三重區"
"241013","270-UM","2018/02/03 20:59:35","新北市三重區仁愛街129巷3號","121.495706666667","25.0749883333333","6500200","三重區"
"241025","271-UM","2018/02/03 20:59:34","新北市三重區貴陽街18-1號","121.484216666667","25.0618933333333","6500200","三重區"
"241007","398-BY","2018/02/03 20:59:24","新北市三重區三和路四段145巷9號","121.484596666667","25.0783583333333","6500200","三重區"
"241020","413-TH","2018/02/03 20:59:34","新北市三重區忠孝路二段34號","121.485835","25.0710416666667","6500200","三重區"
"241004","475-VK","2018/02/03 20:59:24","新北市三重區仁愛街423-1號","121.49039","25.0814566666667","6500200","三重區"
"241019","478-VK","2018/02/03 20:59:32","新北市三重區三張街104號","121.487888333333","25.0698916666667","6500200","三重區"
"241030","480-VK","2018/02/03 20:59:31","新北市三重區環河南路220-8號","121.493361666667","25.0527216666667","6500200","三重區"
"241014","543-UM","2018/02/03 20:59:41","新北市三重區長榮路75號","121.50264","25.0691016666667","6500200","三重區"
"241023","545-UM","2018/02/03 20:59:39","新北市三重區洛陽街45巷15號","121.4825","25.0637316666667","6500200","三重區"
"241001","547-UM","2018/02/03 20:59:24","新北市三重區三和路四段118巷3號","121.488856666667","25.074775","6500200","三重區"
"241006","AAD-863","2018/02/03 20:59:31","新北市三重區永福街46-4號","121.481793333333","25.078095","6500200","三重區"
"241003","887-TS","2018/02/03 20:59:26","新北市三重區集賢路87-1號","121.493648333333","25.0868333333333","6500200","三重區"
"241012","941-UM","2018/02/03 20:59:29","新北市三重區仁信街29號","121.501253333333","25.075565","6500200","三重區"
"241029","942-UM","2018/02/03 20:59:34","新北市三重區大同南路111號","121.496146666667","25.0583216666667","6500200","三重區"
"241033","AAC-255","2018/02/03 20:59:25","新北市三重區光復路二段45號","121.472116666667","25.0556083333333","6500200","三重區"
"235069","4980-A6","2018/02/03 20:59:33","新北市中和區新生街226號","121.483901666667","24.9983283333333","6500300","中和區"
"220069","AAD-861","2018/02/03 20:59:30","新北市八里區中山路三段409號","121.368701666667","25.13483","6500100","板橋區"
"247022","893-R6","2018/02/03 20:59:25","新北市蘆洲區民族路419號","121.468805","25.08962","6501400","蘆洲區"
"247012","546-UM","2018/02/03 20:59:18","新北市蘆洲區民權路6號","121.476793333333","25.0853966666667","6501400","蘆洲區"
"247020","500-BY","2018/02/03 20:59:29","新北市蘆洲區民族路375號","121.470711666667","25.0910283333333","6501400","蘆洲區"
"247008","341-TH","2018/02/03 20:59:35","新北市蘆洲區民生街127號","121.472711666667","25.0790516666667","6501400","蘆洲區"
"247010","339-TH","2018/02/03 20:59:34","新北市蘆洲區鷺江街74號","121.477151666667","25.0838516666667","6501400","蘆洲區"
"247002","337-TH","2018/02/03 20:59:34","新北市蘆洲區永樂街38巷65號","121.45854","25.0904133333333","6501400","蘆洲區"
"247004","336-TH","2018/02/03 20:59:32","新北市蘆洲區永安南路二段268號","121.458603333333","25.080725","6501400","蘆洲區"
"247006","056-VK","2018/02/03 20:59:37","新北市蘆洲區九芎街15巷12號","121.467901666667","25.0778483333333","6501400","蘆洲區"
"247016","053-VK","2018/02/03 20:59:28","新北市蘆洲區正和街53號","121.468973333333","25.0813383333333","6501400","蘆洲區"
"247014","007-UY","2018/02/03 20:59:23","新北市蘆洲區中山二路36巷23號","121.474173333333","25.0830133333333","6501400","蘆洲區"
"247024","002-UY","2018/02/03 20:59:36","新北市蘆洲區長興路255號","121.460515","25.0876366666667","6501400","蘆洲區"
"247018","001-UY","2018/02/03 20:59:32","新北市蘆洲區民權路146號","121.4727","25.0891966666667","6501400","蘆洲區"
"251001","011-UM","2018/02/03 20:59:37","新北市淡水區淡金路二段145號","121.450156666667","25.1826","6501000","淡水區"
"251013","179-VK","2018/02/03 20:59:19","新北市淡水區番子厝13號","121.461321666667","25.2009083333333","6501000","淡水區"
"251014","180-VK","2018/02/03 20:59:34","新北市淡水區淡金路五段72號","121.455","25.2335333333333","6501000","淡水區"
"251015","182-VK","2018/02/03 20:59:29","新北市淡水區淡金路四段542巷17號","121.45271","25.2271","6501000","淡水區"
"251010","413-VK","2018/02/03 20:59:27","新北市淡水區中正路一段116-3號","121.423896666667","25.17875","6501000","淡水區"
"251012","441-VK","2018/02/03 20:59:34","新北市淡水區淡金路四段660號","121.451963333333","25.2312366666667","6501000","淡水區"
"251016","442-VK","2018/02/03 20:59:27","新北市淡水區牛埔子10-1號","121.45012","25.2184183333333","6501000","淡水區"
"251005","443-VK","2018/02/03 20:59:33","新北市淡水區學府路71號","121.448431666667","25.169875","6501000","淡水區"
"251009","575-R6","2018/02/03 20:59:35","新北市淡水區民族路170號","121.462105","25.1338516666667","6501000","淡水區"
"251011","650-BX","2018/02/03 20:59:38","新北市淡水區新民街296號","121.435161666667","25.1823366666667","6501000","淡水區"
"251002","672-BX","2018/02/03 20:59:34","新北市淡水區水源街一段121號","121.446651666667","25.1721133333333","6501000","淡水區"
"251003","673-BX","2018/02/03 20:59:35","新北市淡水區新春街182號","121.44343","25.180965","6501000","淡水區"
"242031","AAC-296","2018/02/03 20:59:31","新北市新莊區中正路508巷5弄19號","121.435133333333","25.0337333333333","6500500","新莊區"
"242029","986-R7","2018/02/03 20:59:24","新北市新莊區昌隆街10號","121.453356666667","25.0509333333333","6500500","新莊區"
"242061","362-BY","2018/02/03 20:59:18","新北市樹林區八德街247巷24-3號","121.41986","24.9732816666667","6500500","新莊區"
"242036","133-UY","2018/02/03 20:59:36","新北市新莊區中正路591號","121.433171666667","25.0322116666667","6500500","新莊區"
"242046","172-VK","2018/02/03 20:59:27","新北市樹林區八德街262-1號","121.417715","24.972185","6500500","新莊區"
"242051","347-TH","2018/02/03 20:59:26","新北市新莊區民安西路90-2號","121.427006666667","25.0191816666667","6500500","新莊區"
"221036","130-UY","2018/02/03 20:59:25","新北市汐止區汐萬路一段227號","121.651875","25.0726266666667","6501100","汐止區"
"221029","298-VK","2018/02/03 20:59:30","新北市汐止區康寧街901號","121.651586666667","25.0748716666667","6501100","汐止區"
"242048","281-VK","2018/02/03 20:59:38","新北市新莊區新樹路254-1號","121.432806666667","25.016915","6500500","新莊區"
"220070","AAC-253","2018/02/03 20:59:22","新北市八里區中山路三段409號","121.368816666667","25.13415","6500100","板橋區"
