"lineid","car","time","location","longitude","latitude","cityid","cityname"
"235010","733-UM","2018/02/03 21:49:40","新北市中和區員山路36巷13號","121.484171666667","24.9908333333333","6500300","中和區"
"247008","341-TH","2018/02/03 22:08:55","新北市八里區中山路三段387號","121.371951666667","25.137465","6501400","蘆洲區"
"247003","336-TH","2018/02/03 22:09:32","新北市五股區中興路三段163號","121.449261666667","25.0809316666667","6501400","蘆洲區"
"251004","009-UM","2018/02/03 22:09:34","新北市淡水區民族路33號","121.462285","25.135845","6501000","淡水區"
"251008","181-VK","2018/02/03 22:09:25","新北市淡水區學府路104號","121.449876666667","25.1718016666667","6501000","淡水區"
"251010","413-VK","2018/02/03 22:09:27","新北市淡水區沙崙路200號","121.424718333333","25.1839166666667","6501000","淡水區"
"251007","577-R6","2018/02/03 22:09:34","新北市淡水區北新路137號","121.449416666667","25.1788383333333","6501000","淡水區"
"251011","650-BX","2018/02/03 22:09:38","新北市淡水區水碓街15-1號","121.443258333333","25.1771583333333","6501000","淡水區"
"251003","673-BX","2018/02/03 22:09:35","新北市淡水區中山北路三段116號","121.443813333333","25.1933566666667","6501000","淡水區"
