"lineid","car","time","location","longitude","latitude","cityid","cityname"
"247008","341-TH","2018/02/03 22:19:35","新北市五股區凌雲路三段24巷7號","121.438213333333","25.106275","6501400","蘆洲區"
"247003","336-TH","2018/02/03 22:12:25","新北市五股區中興路三段163號","121.449218333333","25.08099","6501400","蘆洲區"
"251004","009-UM","2018/02/03 22:19:34","新北市淡水區民族路33號","121.462348333333","25.1357766666667","6501000","淡水區"
"251008","181-VK","2018/02/03 22:19:25","新北市淡水區學府路104號","121.449876666667","25.1717966666667","6501000","淡水區"
"251010","413-VK","2018/02/03 22:19:27","新北市淡水區沙崙路200號","121.424765","25.1839166666667","6501000","淡水區"
"251007","577-R6","2018/02/03 22:19:34","新北市淡水區北新路137號","121.449371666667","25.17892","6501000","淡水區"
"251011","650-BX","2018/02/03 22:19:38","新北市淡水區水碓街7號","121.443168333333","25.1771266666667","6501000","淡水區"
