"lineid","car","time","location","longitude","latitude","cityid","cityname"
"248005","653-BX","2018/09/24 08:19:21","新北市五股區明德路10號","121.433423333333","25.071765","6501500","五股區"
"232001","290-BY","2018/09/24 08:19:18","新北市坪林區坪雙路一段102號","121.722765","24.9461216666667","6502000","坪林區"
"232012","291-BY","2018/09/24 08:19:35","新北市坪林區九芎根4-1號","121.665585","24.884295","6502000","坪林區"
"232017","705-BZ","2018/09/24 08:19:02","新北市坪林區柑腳坑18-1號","121.767211666667","24.952995","6502000","坪林區"
"232005","758-BX","2018/09/24 08:19:21","新北市坪林區鶯子瀨2-11號","121.707266666667","24.9156833333333","6502000","坪林區"
"244022","069-UM","2018/09/24 08:19:20","新北市林口區隆林街79號","121.38636","25.0751766666667","6501700","林口區"
"244006","080-UY","2018/09/24 08:19:15","新北市林口區菁埔路31號","121.377493333333","25.0970433333333","6501700","林口區"
"244012","KEA-2802","2018/09/24 08:19:32","新北市林口區中正路465號","121.384188333333","25.0777333333333","6501700","林口區"
"244016","485-VK","2018/09/24 08:19:26","新北市林口區文化一路一段207號","121.378975","25.0756166666667","6501700","林口區"
"244008","657-BX","2018/09/24 08:19:34","新北市林口區中北一街15巷86號","121.3846","25.0868583333333","6501700","林口區"
"244010","701-TV","2018/09/24 08:19:29","新北市林口區中正路443號","121.384718333333","25.0777016666667","6501700","林口區"
"244024","837-TS","2018/09/24 08:19:23","新北市林口區中山路262-1號","121.384618333333","25.0799783333333","6501700","林口區"
"244020","838-TS","2018/09/24 08:19:20","新北市林口區粉寮路一段149號","121.399225","25.0813466666667","6501700","林口區"
"222005","289-BY","2018/09/24 08:19:24","新北市深坑區萬福路69-1號","121.6018","25.008985","6501800","深坑區"
"231007","189-VK","2018/09/24 08:19:28","新北市新店區新潭路一段73號","121.524913333333","24.939985","6500600","新店區"
"231008","192-VK","2018/09/24 08:19:21","新北市新店區新烏路三段1號","121.552201666667","24.9063683333333","6500600","新店區"
"231053","719-UY","2018/09/24 08:19:32","新北市新店區北宜路三段285巷6號","121.604225","24.9559383333333","6500600","新店區"
"235001","611-BX","2018/09/24 08:19:36","新北市中和區新生街225號","121.483811666667","24.9993133333333","6500300","中和區"
"226005","5620-A6","2018/09/24 08:19:32","新北市平溪區南山里南山坪118-1號","121.783195","25.044125","6502400","平溪區"
"226001","7418-A5","2018/09/24 08:19:34","新北市平溪區東勢里芊蓁林33號","121.750228333333","25.0170366666667","6502400","平溪區"
"226003","AGD-0702","2018/09/24 08:19:17","新北市平溪區十分里十分街45號","121.774488333333","25.04078","6502400","平溪區"
"223006","022-BY","2018/09/24 08:19:29","新北市石碇區靜安路一段296號","121.691865","25.0060033333333","6501900","石碇區"
"223002","KEA-2673","2018/09/24 08:19:37","新北市石碇區北宜路五段80號","121.646553333333","24.951735","6501900","石碇區"
"223008","406-TH","2018/09/24 08:19:25","新北市石碇區靜安路一段284號","121.687855","25.0093233333333","6501900","石碇區"
"223001","592-UM","2018/09/24 08:19:23","新北市石碇區北宜路六段十三股巷1號","121.649081666667","24.9467883333333","6501900","石碇區"
"223004","660-BX","2018/09/24 08:19:27","新北市石碇區石崁1號","121.65164","25.0001183333333","6501900","石碇區"
"223007","661-BX","2018/09/24 08:19:32","新北市石碇區靜安路一段282號","121.687828333333","25.0095266666667","6501900","石碇區"
"223005","677-TV","2018/09/24 08:19:20","新北市石碇區外按16-1號","121.650663333333","24.9975716666667","6501900","石碇區"
"227005","282-VK","2018/09/24 08:19:25","新北市雙溪區上林里大瀨10號","121.822338333333","25.0220966666667","6502500","雙溪區"
"252006","073-UM","2018/09/24 08:19:21","新北市三芝區後厝里大片頭90號","121.457198333333","25.2466533333333","6502100","三芝區"
"252004","249-BX","2018/09/24 08:19:32","新北市三芝區興華里車埕59號","121.498691666667","25.1969433333333","6502100","三芝區"
"237001","159-UY","2018/09/24 08:19:27","新北市三峽區學成路286號","121.376791666667","24.9436966666667","6500900","三峽區"
"242035","AAC-296","2018/09/24 08:19:35","新北市新莊區建福路49巷16號","121.427393333333","25.0278583333333","6500500","新莊區"
"242057","986-R7","2018/09/24 08:19:24","新北市新莊區雙鳳路134巷5號","121.4127","25.028115","6500500","新莊區"
"242055","751-BX","2018/09/24 08:19:26","新北市新莊區瓊林路38巷39號","121.446493333333","25.0303816666667","6500500","新莊區"
"242028","705-TV","2018/09/24 08:19:23","新北市新莊區中平路50號","121.444816666667","25.0440066666667","6500500","新莊區"
"242026","615-BX","2018/09/24 08:19:33","新北市新莊區中原路33號","121.458721666667","25.0543766666667","6500500","新莊區"
"242024","613-BX","2018/09/24 08:19:21","新北市新莊區五工路52號","121.459326666667","25.0625816666667","6500500","新莊區"
"242043","566-BX","2018/09/24 08:19:27","新北市新莊區雙鳳路29號","121.416468333333","25.0268866666667","6500500","新莊區"
"242047","497-BY","2018/09/24 08:19:21","新北市新莊區萬安街146巷16號","121.419981666667","25.021755","6500500","新莊區"
"242052","442-UM","2018/09/24 08:19:25","新北市新莊區新樹路585號","121.432878333333","25.0067266666667","6500500","新莊區"
"242038","415-TV","2018/09/24 08:19:27","新北市新莊區民安路93號","121.424326666667","25.02545","6500500","新莊區"
"242008","413-TV","2018/09/24 08:19:23","新北市新莊區昌平街59巷11號","121.454041666667","25.0531166666667","6500500","新莊區"
"242045","400-BY","2018/09/24 08:19:34","新北市新莊區福營路125巷3號","121.433223333333","25.0315283333333","6500500","新莊區"
"242022","362-BY","2018/09/24 08:19:24","新北市新莊區福壽街45號","121.458253333333","25.0487266666667","6500500","新莊區"
"242059","353-BY","2018/09/24 08:19:21","新北市新莊區新樹路259-6號","121.434463333333","25.0212083333333","6500500","新莊區"
"242010","132-UY","2018/09/24 08:19:32","新北市新莊區中港路679號","121.450773333333","25.05629","6500500","新莊區"
"242040","133-UY","2018/09/24 08:19:26","新北市新莊區中正路668號","121.42089","25.0288983333333","6500500","新莊區"
"242030","135-UY","2018/09/24 08:19:20","新北市新莊區新泰路321巷32號","121.443145","25.0413066666667","6500500","新莊區"
"242049","172-VK","2018/09/24 08:19:30","新北市新莊區西盛街153巷4號","121.428515","25.017925","6500500","新莊區"
"242018","175-VK","2018/09/24 08:19:37","新北市新莊區明中街18號","121.457451666667","25.0393183333333","6500500","新莊區"
"242006","176-VK","2018/09/24 08:19:17","新北市新莊區福樂街73號","121.456671666667","25.047905","6500500","新莊區"
"242001","233-RS","2018/09/24 08:19:23","新北市樹林區太平路277號","121.419223333333","24.9729116666667","6500500","新莊區"
"242016","346-TH","2018/09/24 08:19:17","新北市新莊區中港一街27號","121.451173333333","25.0453966666667","6500500","新莊區"
"242003","349-TH","2018/09/24 08:19:32","新北市新莊區福樂街54號","121.45796","25.0460416666667","6500500","新莊區"
"242020","350-TH","2018/09/24 08:19:26","新北市新莊區中華路一段45巷1號","121.451983333333","25.0381116666667","6500500","新莊區"
"242014","351-TH","2018/09/24 08:19:30","新北市新莊區新泰路502巷53號","121.444355","25.0464933333333","6500500","新莊區"
"242001","281-VK","2018/09/24 08:19:35","新北市新莊區新莊路214巷9號","121.452468333333","25.0351","6500500","新莊區"
"242033","280-VK","2018/09/24 08:19:32","新北市新莊區新莊路773號","121.44186","25.0327033333333","6500500","新莊區"
