"lineid","car","time","location","longitude","latitude","cityid","cityname"
"248005","653-BX","2018/09/24 08:29:21","新北市五股區明德路12巷8號","121.433355","25.0719083333333","6501500","五股區"
"232001","290-BY","2018/09/24 08:29:18","新北市坪林區大粗坑6-1號","121.732211666667","24.9482033333333","6502000","坪林區"
"232012","291-BY","2018/09/24 08:29:35","新北市坪林區九芎根4-1號","121.665565","24.8846","6502000","坪林區"
"232017","705-BZ","2018/09/24 08:29:02","新北市坪林區柑腳坑15號","121.772488333333","24.9467533333333","6502000","坪林區"
"232005","758-BX","2018/09/24 08:29:21","新北市坪林區鶯子瀨3-1號","121.70593","24.9141066666667","6502000","坪林區"
"244022","069-UM","2018/09/24 08:29:20","新北市林口區興林一街109巷16號","121.39208","25.0727783333333","6501700","林口區"
"244006","080-UY","2018/09/24 08:29:35","新北市林口區湖子3鄰15號","121.386098333333","25.0902033333333","6501700","林口區"
"244018","403-UM","2018/09/24 08:29:18","新北市林口區公園路225-3號","121.374375","25.0749266666667","6501700","林口區"
"244012","KEA-2802","2018/09/24 08:29:32","新北市林口區中山路38號","121.395563333333","25.0783866666667","6501700","林口區"
"244016","485-VK","2018/09/24 08:29:26","新北市林口區文化二路一段260巷9-1號","121.371221666667","25.0730166666667","6501700","林口區"
"244008","657-BX","2018/09/24 08:29:34","新北市林口區寶林路103號","121.383783333333","25.0851833333333","6501700","林口區"
"244010","701-TV","2018/09/24 08:29:29","新北市林口區中正路204號","121.390906666667","25.0777133333333","6501700","林口區"
"244024","837-TS","2018/09/24 08:29:23","新北市林口區民族路12號","121.364021666667","25.0736483333333","6501700","林口區"
"244020","838-TS","2018/09/24 08:29:20","新北市林口區自強四街1號","121.398756666667","25.0769183333333","6501700","林口區"
"222005","289-BY","2018/09/24 08:29:25","新北市深坑區萬福路76號","121.608981666667","25.0164816666667","6501800","深坑區"
"231007","189-VK","2018/09/24 08:29:20","新北市新店區新潭路二段61號","121.521786666667","24.9262983333333","6500600","新店區"
"231008","192-VK","2018/09/24 08:29:21","新北市新店區新烏路三段95號","121.552566666667","24.9031466666667","6500600","新店區"
"231053","719-UY","2018/09/24 08:29:32","新北市新店區北宜路三段262號","121.600056666667","24.95386","6500600","新店區"
"235001","611-BX","2018/09/24 08:29:36","新北市中和區民安街42巷36號","121.479071666667","25.00134","6500300","中和區"
"226005","5620-A6","2018/09/24 08:29:32","新北市平溪區南山里六分10號","121.797486666667","25.0498816666667","6502400","平溪區"
"226001","7418-A5","2018/09/24 08:29:34","新北市平溪區東勢里東勢格36-1號","121.760506666667","24.9905483333333","6502400","平溪區"
"226003","AGD-0702","2018/09/24 08:29:17","新北市平溪區十分里十分街59號","121.775458333333","25.0416883333333","6502400","平溪區"
"223006","022-BY","2018/09/24 08:29:37","新北市石碇區十八重溪63號","121.67495","25.0135933333333","6501900","石碇區"
"223002","KEA-2673","2018/09/24 08:29:37","新北市石碇區大格門5號","121.667646666667","24.95615","6501900","石碇區"
"223008","406-TH","2018/09/24 08:29:25","新北市石碇區石碇子埔42-2號","121.672695","25.0075516666667","6501900","石碇區"
"223001","592-UM","2018/09/24 08:29:23","新北市石碇區北宜路六段塗潭巷15號","121.649995","24.9319966666667","6501900","石碇區"
"223004","660-BX","2018/09/24 08:29:27","新北市石碇區碇坪路一段186號","121.667695","24.98403","6501900","石碇區"
"223007","661-BX","2018/09/24 08:29:32","新北市石碇區靜安路一段208號","121.672438333333","25.007215","6501900","石碇區"
"223005","677-TV","2018/09/24 08:29:20","新北市石碇區碇坪路一段180號","121.666676666667","24.98556","6501900","石碇區"
"227005","282-VK","2018/09/24 08:29:25","新北市雙溪區外柑里三叉坑6號","121.825938333333","25.0134983333333","6502500","雙溪區"
"252006","073-UM","2018/09/24 08:29:21","新北市三芝區蘭陽街13-1號","121.473368333333","25.2424266666667","6502100","三芝區"
"252004","249-BX","2018/09/24 08:29:32","新北市三芝區興華里田心子1號","121.502018333333","25.204465","6502100","三芝區"
"237001","159-UY","2018/09/24 08:29:27","新北市三峽區大德路145號","121.375903333333","24.9449716666667","6500900","三峽區"
"242035","AAC-296","2018/09/24 08:29:35","新北市新莊區後港一路65巷3號","121.426393333333","25.0267483333333","6500500","新莊區"
"242057","986-R7","2018/09/24 08:29:24","新北市新莊區新北大道七段233號","121.413266666667","25.029775","6500500","新莊區"
"242055","751-BX","2018/09/24 08:29:26","新北市新莊區豐年街124巷18號","121.445505","25.02984","6500500","新莊區"
"242028","705-TV","2018/09/24 08:29:23","新北市新莊區中平路156號","121.444791666667","25.0473233333333","6500500","新莊區"
"242026","615-BX","2018/09/24 08:29:28","新北市新莊區幸福路73號","121.456893333333","25.0492883333333","6500500","新莊區"
"242024","613-BX","2018/09/24 08:29:32","新北市新莊區五工三路94巷30號","121.45915","25.06648","6500500","新莊區"
"242043","566-BX","2018/09/24 08:29:21","新北市新莊區雙鳳路53號","121.415653333333","25.027205","6500500","新莊區"
"242047","497-BY","2018/09/24 08:29:21","新北市新莊區後港二路16號","121.422681666667","25.0237633333333","6500500","新莊區"
"242052","442-UM","2018/09/24 08:29:25","新北市新莊區光華街46號","121.428685","25.0116066666667","6500500","新莊區"
"242038","415-TV","2018/09/24 08:29:26","新北市新莊區民安西路88巷3弄2號","121.426455","25.0199183333333","6500500","新莊區"
"242008","413-TV","2018/09/24 08:29:23","新北市新莊區昌平街59巷26號","121.453953333333","25.0533983333333","6500500","新莊區"
"242045","400-BY","2018/09/24 08:29:37","新北市新莊區福營路227巷8號","121.430191666667","25.0294416666667","6500500","新莊區"
"242022","362-BY","2018/09/24 08:29:24","新北市新莊區化成路69號","121.465501666667","25.045895","6500500","新莊區"
"242059","353-BY","2018/09/24 08:29:37","新北市新莊區建國二路11號","121.434701666667","25.0237816666667","6500500","新莊區"
"242010","132-UY","2018/09/24 08:29:31","新北市新莊區中榮街56巷8弄1號","121.449346666667","25.0535133333333","6500500","新莊區"
"242040","133-UY","2018/09/24 08:29:22","新北市新莊區雙鳳路116巷13弄1號","121.41343","25.0287966666667","6500500","新莊區"
"242030","135-UY","2018/09/24 08:29:20","新北市新莊區新泰路277巷38號","121.443991666667","25.04027","6500500","新莊區"
"242049","172-VK","2018/09/24 08:29:16","新北市新莊區民安路290巷2弄6號","121.428191666667","25.0211666666667","6500500","新莊區"
"242018","175-VK","2018/09/24 08:29:17","新北市新莊區長青街37巷22弄3號","121.456196666667","25.041095","6500500","新莊區"
"242006","176-VK","2018/09/24 08:29:37","新北市新莊區自立街62號","121.453966666667","25.045455","6500500","新莊區"
"242001","233-RS","2018/09/24 08:29:23","新北市樹林區中山路三段214號","121.379965","24.9676966666667","6500500","新莊區"
"242016","346-TH","2018/09/24 08:29:37","新北市新莊區永樂街68號","121.450966666667","25.0449983333333","6500500","新莊區"
"242003","349-TH","2018/09/24 08:29:34","新北市新莊區自由街12號","121.455865","25.047545","6500500","新莊區"
"242020","350-TH","2018/09/24 08:29:26","新北市新莊區建興街58號","121.449973333333","25.0387633333333","6500500","新莊區"
"242014","351-TH","2018/09/24 08:29:30","新北市新莊區中平路132巷16號","121.445635","25.0466716666667","6500500","新莊區"
"242001","281-VK","2018/09/24 08:29:18","新北市新莊區新莊路1號","121.459426666667","25.0379633333333","6500500","新莊區"
"242033","280-VK","2018/09/24 08:29:32","新北市新莊區新莊路773號","121.44187","25.0327183333333","6500500","新莊區"
