"lineid","car","time","location","longitude","latitude","cityid","cityname"
"248005","653-BX","2018/09/24 09:39:01","新北市五股區登林路貿商巷1弄10號","121.429171666667","25.0698083333333","6501500","五股區"
"232005","758-BX","2018/09/24 09:39:01","新北市坪林區北宜路八段558號","121.716711666667","24.908585","6502000","坪林區"
"244022","069-UM","2018/09/24 09:38:59","新北市林口區仁愛路二段62巷7號","121.384223333333","25.0759616666667","6501700","林口區"
"244018","403-UM","2018/09/24 09:38:58","新北市林口區麗園二街51號","121.38121","25.0686433333333","6501700","林口區"
"244012","KEA-2802","2018/09/24 09:38:52","新北市林口區麗園一街4巷1號","121.375975","25.0713116666667","6501700","林口區"
"244016","485-VK","2018/09/24 09:39:06","新北市林口區文化二路一段68巷18-2號","121.3662","25.0677333333333","6501700","林口區"
"244008","657-BX","2018/09/24 09:38:54","新北市林口區竹林路362巷16號","121.392616666667","25.0842666666667","6501700","林口區"
"244010","701-TV","2018/09/24 09:39:09","新北市林口區中正路343號","121.388006666667","25.0776433333333","6501700","林口區"
"244020","838-TS","2018/09/24 09:39:00","新北市林口區粉寮路二段88巷100-12號","121.409453333333","25.0902666666667","6501700","林口區"
"222005","289-BY","2018/09/24 09:39:05","新北市深坑區土庫尖路18-1號","121.64044","25.0131433333333","6501800","深坑區"
"231007","189-VK","2018/09/24 09:39:00","新北市新店區新潭路三段215巷25號","121.508168333333","24.90406","6500600","新店區"
"231008","192-VK","2018/09/24 09:32:21","新北市新店區平廣路一段256號","121.507416666667","24.887925","6500600","新店區"
"231053","719-UY","2018/09/24 09:38:52","新北市新店區翠峰路100-1號","121.580256666667","24.9342783333333","6500600","新店區"
"223006","022-BY","2018/09/24 09:38:54","新北市石碇區碇坪路一段109號","121.663761666667","24.9888","6501900","石碇區"
"223008","406-TH","2018/09/24 09:39:03","新北市石碇區光明路27號","121.694948333333","25.0237616666667","6501900","石碇區"
"223007","661-BX","2018/09/24 09:38:52","新北市石碇區光明路28號","121.69522","25.0237233333333","6501900","石碇區"
"227005","282-VK","2018/09/24 09:39:05","新北市雙溪區泰平里溪尾寮1-1號","121.817621666667","24.96906","6502500","雙溪區"
"252004","249-BX","2018/09/24 09:38:51","新北市三芝區福德里大水堀21號","121.512245","25.219975","6502100","三芝區"
"252006","AAC-283","2018/09/24 09:39:07","新北市三芝區新庄里新庄子95-9號","121.513993333333","25.2743166666667","6502100","三芝區"
"242035","AAC-296","2018/09/24 09:38:55","新北市新莊區後港一路218號","121.434085","25.0283683333333","6500500","新莊區"
"242057","986-R7","2018/09/24 09:39:04","新北市新莊區四維路196號","121.421778333333","25.0206233333333","6500500","新莊區"
"242055","751-BX","2018/09/24 09:39:06","新北市新莊區新莊路751巷50號","121.442718333333","25.0315066666667","6500500","新莊區"
"242043","566-BX","2018/09/24 09:39:01","新北市新莊區龍安路92號","121.417678333333","25.0207633333333","6500500","新莊區"
"242052","442-UM","2018/09/24 09:39:05","新北市新莊區新樹路259號","121.434561666667","25.0215016666667","6500500","新莊區"
"242022","362-BY","2018/09/24 09:39:04","新北市五股區新五路三段202號","121.446111666667","25.0898083333333","6500500","新莊區"
"242059","353-BY","2018/09/24 09:38:57","新北市新莊區新樹路258巷3號","121.43213","25.01558","6500500","新莊區"
"242030","135-UY","2018/09/24 09:39:00","新北市新莊區三泰路24-8號","121.439285","25.034605","6500500","新莊區"
"242001","233-RS","2018/09/24 09:24:33","新北市新莊區環河路636-7號","121.437375","25.01162","6500500","新莊區"
"242030","347-TH","2018/09/24 09:38:59","新北市新莊區建中街90巷3弄9號","121.446371666667","25.0371166666667","6500500","新莊區"
"242003","349-TH","2018/09/24 09:38:52","新北市新莊區新北大道二段177號","121.464138333333","25.06082","6500500","新莊區"
"242001","281-VK","2018/09/24 09:38:58","新北市新莊區瓊林路11號","121.449641666667","25.0316633333333","6500500","新莊區"
