"lineid","car","time","location","longitude","latitude","cityid","cityname"
"234044","148-BY","2018/09/24 12:49:06","新北市永和區秀朗路二段148巷12弄16號","121.524751666667","25.0010666666667","6500400","永和區"
"234001","149-BY","2018/09/24 12:49:00","新北市永和區福和路1號","121.525785","25.0094983333333","6500400","永和區"
"234005","207-UY","2018/09/24 12:49:02","新北市永和區文化路170號","121.511795","25.015575","6500400","永和區"
"234078","298-R6","2018/09/24 12:49:11","新北市永和區永元路138號","121.522835","25.0031566666667","6500400","永和區"
"234036","336-UY","2018/09/24 12:49:03","新北市永和區成功路二段112號","121.526573333333","24.9981133333333","6500400","永和區"
"234062","337-UY","2018/09/24 12:48:52","新北市永和區福和路1號","121.52643","25.0100566666667","6500400","永和區"
"234084","338-UY","2018/09/24 12:49:08","新北市永和區中正路39-1號","121.514448333333","24.9961283333333","6500400","永和區"
"234068","552-UM","2018/09/24 12:49:05","新北市永和區竹林路96巷2號","121.519278333333","25.0121266666667","6500400","永和區"
"234015","745-BX","2018/09/24 12:48:55","新北市永和區忠孝街26巷8號","121.515368333333","25.016665","6500400","永和區"
"234028","746-BX","2018/09/24 12:49:07","新北市永和區得和路325號","121.523433333333","24.9996816666667","6500400","永和區"
"234052","KEA-2590","2018/09/24 12:49:08","新北市永和區環河東路二段54號","121.52334","25.01172","6500400","永和區"
"234012","KEA-2591","2018/09/24 12:49:09","新北市永和區仁愛路202巷11號","121.508763333333","25.0131966666667","6500400","永和區"
"234060","AAD-866","2018/09/24 12:48:53","新北市永和區福和路285號","121.51734","25.0074183333333","6500400","永和區"
"234040","862-TW","2018/09/24 12:49:02","新北市永和區永貞路306號","121.511943333333","25.00486","6500400","永和區"
"234048","863-TW","2018/09/24 12:49:08","新北市永和區福和路1號","121.526468333333","25.0098083333333","6500400","永和區"
"234025","9371-KE","2018/09/24 12:49:05","新北市永和區中正路655號","121.515003333333","25.0102366666667","6500400","永和區"
"234010","9373-KE","2018/09/24 12:49:04","新北市永和區保福路二段158巷1號","121.509131666667","25.0150333333333","6500400","永和區"
"248005","077-UY","2018/09/24 12:48:53","新北市五股區中興路二段83巷26-3號","121.460066666667","25.0754416666667","6501500","五股區"
"248007","095-VK","2018/09/24 12:48:57","新北市五股區中興路二段83巷26-6號","121.460071666667","25.0752266666667","6501500","五股區"
"248019","225-UY","2018/09/24 12:49:06","新北市五股區中興路二段83巷26-3號","121.45987","25.075585","6501500","五股區"
"234022","9380-KE","2018/09/24 12:48:54","新北市永和區竹林路119巷45號","121.521868333333","25.0118116666667","6500400","永和區"
"234066","AAC-212","2018/09/24 12:48:55","新北市永和區中和路625號","121.512841666667","25.0050466666667","6500400","永和區"
"234001","AAC-295","2018/09/24 12:49:07","新北市永和區福和路289號","121.517241666667","25.0073016666667","6500400","永和區"
"232012","291-BY","2018/09/24 12:47:30","新北市坪林區水柳腳16號","121.710835","24.9349166666667","6502000","坪林區"
"244005","248-BX","2018/09/24 12:48:55","新北市林口區粉寮路二段14號","121.402008333333","25.085675","6501700","林口區"
"243005","AAD-798","2018/09/24 12:45:13","新北市泰山區黎明路25號","121.422008333333","25.0608033333333","6501600","泰山區"
"243008","KEA-2801","2018/09/24 12:19:22","新北市泰山區犁頭窠3-1號","121.422245","25.060585","6501600","泰山區"
"243004","646-TV","2018/09/24 12:30:12","新北市泰山區黎明路25號","121.422086666667","25.0607466666667","6501600","泰山區"
"231028","046-UY","2018/09/24 12:49:10","新北市新店區安華路28-1號","121.519533333333","24.9608983333333","6500600","新店區"
"231005","106-UY","2018/09/24 12:49:08","新北市新店區安華路28-1號","121.519568333333","24.9608616666667","6500600","新店區"
"231010","107-UY","2018/09/24 12:49:00","新北市新店區安一路一段1-1號","121.519368333333","24.9612466666667","6500600","新店區"
"231023","KEA-2219","2018/09/24 12:48:55","新北市新店區安一路一段1-1號","121.519831666667","24.9612016666667","6500600","新店區"
"231003","268-BY","2018/09/24 12:49:05","新北市新店區安華路28-1號","121.519551666667","24.9607233333333","6500600","新店區"
"231018","278-BY","2018/09/24 12:48:57","新北市新店區安一路一段1-1號","121.519745","24.9610883333333","6500600","新店區"
"231014","AAD-862","2018/09/24 12:49:07","新北市新店區安一路一段1-1號","121.519711666667","24.9611116666667","6500600","新店區"
"231036","512-UM","2018/09/24 12:49:01","新北市新店區安一路一段1-1號","121.519381666667","24.96108","6500600","新店區"
"231013","513-UM","2018/09/24 12:48:59","新北市新店區安一路一段1-1號","121.519598333333","24.961165","6500600","新店區"
"231035","719-UM","2018/09/24 12:48:56","新北市新店區安一路一段1-1號","121.519493333333","24.9613083333333","6500600","新店區"
"235029","098-UM","2018/09/24 12:49:10","新北市中和區員山路36巷16-3號","121.485031666667","24.9911816666667","6500300","中和區"
"235022","151-BY","2018/09/24 12:48:52","新北市中和區員山路36巷16-2號","121.48513","24.991595","6500300","中和區"
"235002","185-VK","2018/09/24 12:49:12","新北市中和區中正路567號","121.48675","24.9944416666667","6500300","中和區"
"235031","255-BX","2018/09/24 12:49:02","新北市中和區中山路二段568巷22號","121.48269","25.0062183333333","6500300","中和區"
"235010","733-UM","2018/09/24 12:48:55","新北市中和區員山路36巷13號","121.484125","24.9908433333333","6500300","中和區"
"235035","783-BX","2018/09/24 12:49:03","新北市中和區員山路36巷16-2號","121.485178333333","24.9914466666667","6500300","中和區"
"235016","805-TS","2018/09/24 12:49:08","新北市中和區員山路36巷13號","121.484256666667","24.9913916666667","6500300","中和區"
"207002","291-VK","2018/09/24 12:48:56","新北市萬里區雙興里二坪路1-1號","121.651513333333","25.1769633333333","6502800","萬里區"
"252005","073-UM","2018/09/24 12:49:09","新北市三芝區埔坪里埔頭坑41號","121.504556666667","25.264625","6502100","三芝區"
"207001","662-BX","2018/09/24 12:48:54","新北市萬里區萬里里瑪鋉路272-1號","121.688708333333","25.1808333333333","6502800","萬里區"
"221010","269-BY","2018/09/24 12:48:54","新北市汐止區忠二街1號","121.623135","25.077055","6501100","汐止區"
"221032","280-BY","2018/09/24 12:49:06","新北市汐止區建成路37巷1號","121.663766666667","25.0728166666667","6501100","汐止區"
"235032","KEA-2873","2018/09/24 12:49:11","新北市中和區員山路36巷16-3號","121.48504","24.9912816666667","6500300","中和區"
"235025","KEA-2875","2018/09/24 12:23:11","新北市中和區員山路36巷16-2號","121.485201666667","24.99164","6500300","中和區"
