"lineid","car","time","location","longitude","latitude","cityid","cityname"
"234044","148-BY","2018/09/24 13:49:06","新北市永和區秀朗路二段161巷18號","121.525483333333","25.0023566666667","6500400","永和區"
"234001","149-BY","2018/09/24 13:49:00","新北市永和區得和路57號","121.517188333333","25.0001616666667","6500400","永和區"
"234005","207-UY","2018/09/24 13:49:04","新北市永和區永和路一段38號","121.513071666667","25.00532","6500400","永和區"
"234078","298-R6","2018/09/24 13:49:11","新北市永和區永亨路98號","121.52303","25.0048733333333","6500400","永和區"
"234036","336-UY","2018/09/24 13:49:08","新北市永和區民樂街57巷19號","121.528208333333","24.9987283333333","6500400","永和區"
"234062","337-UY","2018/09/24 13:49:12","新北市永和區中正路412巷2號","121.517708333333","25.0020166666667","6500400","永和區"
"234084","338-UY","2018/09/24 13:49:07","新北市永和區中正路511號","121.516985","25.007085","6500400","永和區"
"234068","552-UM","2018/09/24 13:49:05","新北市永和區竹林路133號","121.520131666667","25.0110016666667","6500400","永和區"
"234015","745-BX","2018/09/24 13:49:15","新北市永和區文化路36號","121.514971666667","25.0150683333333","6500400","永和區"
"234028","746-BX","2018/09/24 13:48:47","新北市永和區民生路47巷7號","121.523271666667","24.9978433333333","6500400","永和區"
"234052","KEA-2590","2018/09/24 13:49:08","新北市永和區竹林路39巷28弄1號","121.519401666667","25.0149083333333","6500400","永和區"
"234012","KEA-2591","2018/09/24 13:49:04","新北市永和區仁愛路168號","121.510271666667","25.0128516666667","6500400","永和區"
"234060","AAD-866","2018/09/24 13:48:53","新北市永和區中正路41號","121.514233333333","24.996235","6500400","永和區"
"234040","862-TW","2018/09/24 13:49:02","新北市永和區中和路389巷21號","121.508078333333","25.0012466666667","6500400","永和區"
"234048","863-TW","2018/09/24 13:49:08","新北市永和區保安路13號","121.5104","25.016845","6500400","永和區"
"234025","9371-KE","2018/09/24 13:49:04","新北市永和區保生路55-1號","121.504541666667","25.0109233333333","6500400","永和區"
"234010","9373-KE","2018/09/24 13:49:04","新北市永和區保安路153號","121.506723333333","25.0129583333333","6500400","永和區"
"248015","026-BX","2018/09/24 13:48:54","新北市五股區凌雲路一段133巷36號","121.448685","25.1011466666667","6501500","五股區"
"248007","095-VK","2018/09/24 13:48:57","新北市五股區中興路一段126號","121.465653333333","25.073775","6501500","五股區"
"248019","225-UY","2018/09/24 13:49:06","新北市五股區天乙路104號","121.446138333333","25.1084633333333","6501500","五股區"
"248011","247-BX","2018/09/24 13:49:09","新北市五股區成泰路二段195巷1號","121.440368333333","25.08736","6501500","五股區"
"248003","677-BX","2018/09/24 13:48:55","新北市五股區民義路二段73號","121.409016666667","25.1055816666667","6501500","五股區"
"248001","678-BX","2018/09/24 13:48:52","新北市五股區成泰路三段439號","121.449986666667","25.0978733333333","6501500","五股區"
"248009","682-TV","2018/09/24 13:49:06","新北市五股區水碓九路56號","121.42885","25.071975","6501500","五股區"
"234022","9380-KE","2018/09/24 13:48:54","新北市永和區中正路742-1號","121.515118333333","25.010245","6500400","永和區"
"234076","969-R7","2018/09/24 13:49:10","新北市永和區民族街27巷17號","121.519825","24.9995183333333","6500400","永和區"
"234072","AAC-211","2018/09/24 13:49:02","新北市永和區豫溪街189巷1號","121.522598333333","25.0102433333333","6500400","永和區"
"234066","AAC-212","2018/09/24 13:48:55","新北市永和區保平路236巷27號","121.508021666667","25.0068666666667","6500400","永和區"
"234001","AAC-295","2018/09/24 13:49:06","新北市永和區永和路一段69號","121.51318","25.0071366666667","6500400","永和區"
"232012","291-BY","2018/09/24 13:49:02","新北市新店區薏仁坑路自強巷1號","121.496941666667","24.957765","6502000","坪林區"
"243005","AAD-798","2018/09/24 13:28:40","新北市泰山區明志路三段206巷3號","121.423305","25.0379016666667","6501600","泰山區"
"243008","KEA-2801","2018/09/24 13:49:00","新北市泰山區明志路二段152-1號","121.427525","25.0507183333333","6501600","泰山區"
"243003","KEA-2215","2018/09/24 13:49:04","新北市泰山區公園路10號","121.429818333333","25.05407","6501600","泰山區"
"243002","KEA-2216","2018/09/24 13:48:55","新北市泰山區黎明路47號","121.422476666667","25.0576666666667","6501600","泰山區"
"243004","646-TV","2018/09/24 13:48:59","新北市泰山區福興三街13號","121.434461666667","25.0577883333333","6501600","泰山區"
"231002","002-UM","2018/09/24 13:48:56","新北市新店區溪園路393號","121.524281666667","24.9790316666667","6500600","新店區"
"231027","0291-UT","2018/09/24 13:48:55","新北市新店區北宜路一段107號","121.539406666667","24.9553116666667","6500600","新店區"
"231028","046-UY","2018/09/24 13:49:10","新北市新店區安和路二段213號","121.517696666667","24.9754866666667","6500600","新店區"
"231001","047-UY","2018/09/24 13:48:58","新北市新店區三民路88號","121.53432","24.97271","6500600","新店區"
"231005","106-UY","2018/09/24 13:49:08","新北市新店區寶中路121號","121.549748333333","24.9796033333333","6500600","新店區"
"231010","107-UY","2018/09/24 13:49:00","新北市新店區平等街38號","121.536548333333","24.9734983333333","6500600","新店區"
"231019","108-UY","2018/09/24 13:49:03","新北市新店區永興路90號","121.54434","24.931545","6500600","新店區"
"231011","187-VK","2018/09/24 13:49:03","新北市新店區德正街27巷29弄46-1號","121.545775","24.9726033333333","6500600","新店區"
"231023","KEA-2219","2018/09/24 13:49:15","新北市新店區文中路6號","121.537588333333","24.9570333333333","6500600","新店區"
"231026","256-BX","2018/09/24 13:48:57","新北市新店區福園街3號","121.53365","24.9730466666667","6500600","新店區"
"231003","268-BY","2018/09/24 13:49:05","新北市新店區中興路一段203號","121.543555","24.9656333333333","6500600","新店區"
"231018","278-BY","2018/09/24 13:48:57","新北市新店區中正路382巷18號","121.535278333333","24.9776883333333","6500600","新店區"
"231014","AAD-862","2018/09/24 13:49:07","新北市新店區北宜路二段82-40號","121.553466666667","24.953225","6500600","新店區"
"231004","355-BY","2018/09/24 13:49:10","新北市新店區中興路二段252號","121.547435","24.975925","6500600","新店區"
"231038","3712-VJ","2018/09/24 13:49:03","新北市新店區安華路30巷1號","121.519555","24.9592583333333","6500600","新店區"
"231037","4716-K9","2018/09/24 13:49:07","新北市新店區安康路三段355巷2號","121.484488333333","24.950325","6500600","新店區"
"231025","4715-K9","2018/09/24 13:49:11","新北市新店區自由街2-1號","121.535613333333","24.9756166666667","6500600","新店區"
"231036","512-UM","2018/09/24 13:49:12","新北市新店區安祥路142號","121.474215","24.9556033333333","6500600","新店區"
"231013","513-UM","2018/09/24 13:49:08","新北市新店區二十張路25巷3號","121.539016666667","24.982125","6500600","新店區"
"231034","616-UM","2018/09/24 13:49:00","新北市新店區達觀路14巷3號","121.503173333333","24.9417916666667","6500600","新店區"
"231006","617-UM","2018/09/24 13:48:57","新北市新店區北宜路一段260號","121.545751666667","24.9527766666667","6500600","新店區"
"231030","619-UM","2018/09/24 13:49:03","新北市新店區安康路一段70號","121.528588333333","24.9618583333333","6500600","新店區"
"231035","719-UM","2018/09/24 13:48:56","新北市新店區安忠路57巷6號","121.51321","24.95925","6500600","新店區"
"231031","720-UM","2018/09/24 13:49:02","新北市新店區莒光路44巷21弄11-3號","121.518525","24.9521416666667","6500600","新店區"
"231029","897-TW","2018/09/24 13:49:00","新北市新店區安康路二段156號","121.512348333333","24.9608616666667","6500600","新店區"
"231024","AKT-0513","2018/09/24 13:49:02","新北市新店區北新路一段271巷32號","121.540043333333","24.9672616666667","6500600","新店區"
"235030","003-UY","2018/09/24 13:49:05","新北市中和區水源路18巷4號","121.50395","25.00318","6500300","中和區"
"235028","005-UY","2018/09/24 13:49:00","新北市中和區連城路75巷7號","121.49836","24.99852","6500300","中和區"
"235027","006-UY","2018/09/24 13:49:12","新北市中和區錦和路113號","121.490261666667","24.9949616666667","6500300","中和區"
"235020","096-UM","2018/09/24 13:49:08","新北市中和區立德街329號","121.481553333333","25.0106133333333","6500300","中和區"
"235003","097-UM","2018/09/24 13:49:08","新北市中和區立人街6號","121.519713333333","24.9942066666667","6500300","中和區"
"235029","098-UM","2018/09/24 13:49:10","新北市中和區中山路二段2巷45弄16號","121.501798333333","25.0069166666667","6500300","中和區"
"235004","150-BY","2018/09/24 13:49:13","新北市中和區保健路67巷3弄3號","121.509703333333","24.9974166666667","6500300","中和區"
"235022","151-BY","2018/09/24 13:49:11","新北市中和區連城路571號","121.479168333333","24.9943983333333","6500300","中和區"
"235019","183-VK","2018/09/24 13:49:05","新北市中和區德光路75號","121.469411666667","25.0036883333333","6500300","中和區"
"235002","185-VK","2018/09/24 13:49:12","新北市中和區大勇街50號","121.51762","24.994165","6500300","中和區"
"235013","186-VK","2018/09/24 13:48:59","新北市中和區景安路177巷19號","121.506216666667","24.9943883333333","6500300","中和區"
"235031","255-BX","2018/09/24 13:49:01","新北市中和區新生街242巷1弄2-1號","121.483298333333","24.9975666666667","6500300","中和區"
"235008","293-VK","2018/09/24 13:49:07","新北市中和區中興街115巷3號","121.500131666667","24.9921183333333","6500300","中和區"
"235036","301-VK","2018/09/24 13:48:58","新北市中和區中山路二段106號","121.503233333333","25.0040416666667","6500300","中和區"
"235007","352-BY","2018/09/24 13:49:10","新北市中和區成功路56號","121.525851666667","24.9923583333333","6500300","中和區"
"235006","KEA-2878","2018/09/24 13:49:03","新北市中和區秀朗路三段100巷1號","121.525581666667","24.99321","6500300","中和區"
"235014","4979-A6","2018/09/24 13:49:04","新北市中和區忠孝街62巷9弄10號","121.513166666667","24.983945","6500300","中和區"
"235033","4980-A6","2018/09/24 13:49:00","新北市中和區中和路102-1號","121.50217","24.9996266666667","6500300","中和區"
"235034","558-UM","2018/09/24 13:49:05","新北市中和區南山路7號","121.501951666667","24.9994833333333","6500300","中和區"
"235009","565-BX","2018/09/24 13:48:59","新北市中和區捷運路6號","121.510136666667","24.9895066666667","6500300","中和區"
"235018","640-BX","2018/09/24 13:49:04","新北市中和區莒光路129巷2弄1-3號","121.473018333333","25.0019433333333","6500300","中和區"
"235011","732-UM","2018/09/24 13:49:08","新北市中和區興南路二段92號","121.505293333333","24.9845","6500300","中和區"
"235010","733-UM","2018/09/24 13:48:55","新北市中和區仁愛街36巷38號","121.511221666667","24.9865216666667","6500300","中和區"
"235035","783-BX","2018/09/24 13:49:03","新北市中和區立言街48號","121.48814","25.0067433333333","6500300","中和區"
"235026","800-TS","2018/09/24 13:48:56","新北市中和區景平路705號","121.496473333333","25.003535","6500300","中和區"
"235021","801-TS","2018/09/24 13:49:02","新北市中和區民安街25巷2弄1號","121.48056","25.000205","6500300","中和區"
"235005","802-TS","2018/09/24 13:49:01","新北市中和區永貞路251號","121.512918333333","25.0040633333333","6500300","中和區"
"235016","805-TS","2018/09/24 13:49:08","新北市中和區興南路二段399巷56號","121.499661666667","24.9788116666667","6500300","中和區"
"235012","896-TW","2018/09/24 13:48:58","新北市中和區南山路495號","121.508013333333","24.987795","6500300","中和區"
"235017","900-TW","2018/09/24 13:49:11","新北市中和區華福街37號","121.466223333333","24.9968133333333","6500300","中和區"
"235024","911-UM","2018/09/24 13:49:02","新北市中和區中山路三段177號","121.472818333333","25.0063066666667","6500300","中和區"
"235015","157-BY","2018/09/24 13:49:01","新北市中和區華新街111號","121.508803333333","24.98171","6500300","中和區"
"235001","AAC-213","2018/09/24 13:49:02","新北市中和區秀朗路三段128巷2號","121.5247","24.9924","6500300","中和區"
"235023","AAC-215","2018/09/24 13:49:03","新北市中和區圓通路391-5號","121.489795","24.9892083333333","6500300","中和區"
"220016","013-TV","2018/09/24 13:49:11","新北市板橋區民生路二段89-4號","121.47097","25.0184133333333","6500100","板橋區"
"220013","072-UY","2018/09/24 13:48:53","新北市板橋區漢生東路280號","121.470421666667","25.009895","6500100","板橋區"
"220034","073-UY","2018/09/24 13:48:55","新北市板橋區大智街26號","121.45559","25.0150016666667","6500100","板橋區"
"220105","075-UY","2018/09/24 13:49:04","新北市板橋區民生路二段120號","121.470458333333","25.0196683333333","6500100","板橋區"
"220017","AAD-861","2018/09/24 13:48:57","新北市板橋區大華街11號","121.458946666667","25.006185","6500100","板橋區"
"247013","546-UM","2018/09/24 13:48:57","新北市蘆洲區中正路96號","121.470033333333","25.0838266666667","6501400","蘆洲區"
"247023","500-BY","2018/09/24 13:49:11","新北市蘆洲區光華路186巷85號","121.465533333333","25.0844383333333","6501400","蘆洲區"
"247013","339-TH","2018/09/24 13:49:02","新北市蘆洲區中正路103號","121.46991","25.0841366666667","6501400","蘆洲區"
"247007","336-TH","2018/09/24 13:49:04","新北市蘆洲區重陽街24號","121.480873333333","25.0818866666667","6501400","蘆洲區"
"247009","056-VK","2018/09/24 13:49:07","新北市蘆洲區中正路520巷9號","121.462446666667","25.0996016666667","6501400","蘆洲區"
"247003","002-UY","2018/09/24 13:49:13","新北市蘆洲區中原路19號","121.460601666667","25.08284","6501400","蘆洲區"
"247021","001-UY","2018/09/24 13:48:52","新北市蘆洲區中正路516巷38-5號","121.461366666667","25.0982033333333","6501400","蘆洲區"
"253002","4710-YM","2018/09/24 13:48:52","新北市石門區九芎林36-1號","121.566143333333","25.2533316666667","6502200","石門區"
"253003","6232-TK","2018/09/24 13:49:03","新北市石門區中山路62-10號","121.56876","25.2892483333333","6502200","石門區"
"253001","6251-TK","2018/09/24 13:49:15","新北市三芝區新庄里新庄子71-3號","121.511695","25.2766183333333","6502200","石門區"
"253004","8270-PC","2018/09/24 13:48:55","新北市石門區草埔尾34-6號","121.602925","25.26532","6502200","石門區"
"207002","291-VK","2018/09/24 13:48:56","新北市萬里區崁腳里崁腳路166號","121.645116666667","25.1558016666667","6502800","萬里區"
"252005","073-UM","2018/09/24 13:48:29","新北市三芝區圓山里內柑宅25號","121.53918","25.2192333333333","6502100","三芝區"
"207001","662-BX","2018/09/24 13:48:53","新北市萬里區磺潭里公館崙30號","121.634875","25.2110966666667","6502800","萬里區"
"236064","105-UM","2018/09/24 13:49:10","新北市土城區城林路6巷80號","121.43868","24.979655","6501300","土城區"
"236040","107-UM","2018/09/24 13:49:01","新北市土城區城林路6巷80號","121.438556666667","24.979715","6501300","土城區"
"236074","166-UM","2018/09/24 13:49:02","新北市土城區永寧路35號","121.430161666667","24.9622483333333","6501300","土城區"
"236032","271-VK","2018/09/24 13:49:08","新北市土城區城林路6巷80號","121.438531666667","24.9798033333333","6501300","土城區"
"236016","401-BY","2018/09/24 13:49:06","新北市土城區城林路6巷80號","121.438501666667","24.9797316666667","6501300","土城區"
"236057","912-UM","2018/09/24 13:49:00","新北市土城區中華路二段90號","121.438388333333","24.9748533333333","6501300","土城區"
"236054","AAC-216","2018/09/24 13:48:55","新北市土城區城林路6巷80號","121.438383333333","24.9798016666667","6501300","土城區"
"242049","172-VK","2018/09/24 13:48:59","新北市新莊區環漢路三段526號","121.435561666667","25.0020633333333","6500500","新莊區"
"242001","233-RS","2018/09/24 13:49:07","新北市新莊區自強街37巷14弄11號","121.454073333333","25.0468583333333","6500500","新莊區"
"221010","269-BY","2018/09/24 13:48:54","新北市汐止區伯爵街12巷22弄1號","121.642216666667","25.0771216666667","6501100","汐止區"
"221032","280-BY","2018/09/24 13:49:06","新北市汐止區復興路12巷9號","121.655118333333","25.0644083333333","6501100","汐止區"
"220027","145-BY","2018/09/24 13:49:05","新北市板橋區南雅西路二段192巷1弄48號","121.452548333333","25.0153516666667","6500100","板橋區"
"220028","200-UY","2018/09/24 13:49:04","新北市板橋區大觀路二段375巷13號","121.441028333333","24.9978016666667","6500100","板橋區"
"220030","610-BX","2018/09/24 13:49:02","新北市板橋區篤行路三段玉平巷76弄10號","121.427701666667","24.9859133333333","6500100","板橋區"
"220004","276-BY","2018/09/24 13:49:10","新北市板橋區四川路二段28號","121.454413333333","24.9960716666667","6500100","板橋區"
"220020","277-BY","2018/09/24 13:48:55","新北市板橋區大觀路三段22號","121.434366666667","24.9958983333333","6500100","板橋區"
"220043","280-UM","2018/09/24 13:49:04","新北市板橋區民生路二段120號","121.470525","25.0196483333333","6500100","板橋區"
"220019","283-VK","2018/09/24 13:49:10","新北市板橋區重慶路245巷69號","121.465696666667","25.0010416666667","6500100","板橋區"
"220031","286-VK","2018/09/24 13:49:03","新北市板橋區大觀路一段38巷156弄152號","121.443658333333","25.0086816666667","6500100","板橋區"
"220029","287-VK","2018/09/24 13:49:14","新北市板橋區光華街13巷10號","121.453696666667","25.01146","6500100","板橋區"
"220039","288-VK","2018/09/24 13:49:05","新北市板橋區民生路二段89-6號","121.470518333333","25.0192183333333","6500100","板橋區"
"220009","293-UM","2018/09/24 13:49:11","新北市板橋區民生路二段56-6號","121.470696666667","25.0187883333333","6500100","板橋區"
"220052","295-UM","2018/09/24 13:48:54","新北市板橋區民生路二段188號","121.470356666667","25.02048","6500100","板橋區"
"220023","303-R5","2018/09/24 13:49:12","新北市板橋區南雅東路89號","121.453156666667","25.0084833333333","6500100","板橋區"
"220010","305-R5","2018/09/24 13:49:01","新北市板橋區觀光街2號","121.47247","25.01535","6500100","板橋區"
"220012","486-VK","2018/09/24 13:49:07","新北市板橋區民生路二段36-1號","121.47197","25.0169633333333","6500100","板橋區"
"220104","560-BX","2018/09/24 13:49:06","新北市板橋區中正路325巷47號","121.453058333333","25.0187683333333","6500100","板橋區"
"220032","568-UM","2018/09/24 13:49:08","新北市板橋區大觀路二段150巷57號","121.441581666667","25.0001166666667","6500100","板橋區"
"220011","609-BX","2018/09/24 13:49:04","新北市板橋區民生路二段89-4號","121.471015","25.0184183333333","6500100","板橋區"
"220040","637-BX","2018/09/24 13:49:06","新北市板橋區民生路二段161巷1號","121.469883333333","25.0198583333333","6500100","板橋區"
"220005","686-BX","2018/09/24 13:49:01","新北市板橋區館前西路56號","121.458325","25.0069733333333","6500100","板橋區"
"220025","687-BX","2018/09/24 13:49:06","新北市板橋區金門街67巷2號","121.433465","24.9927966666667","6500100","板橋區"
"220042","689-BX","2018/09/24 13:48:59","新北市板橋區民生路二段161巷1號","121.470083333333","25.01993","6500100","板橋區"
"220002","741-BX","2018/09/24 13:49:01","新北市板橋區館前東路26-4號","121.460378333333","25.0072116666667","6500100","板橋區"
"220051","KEA-2699","2018/09/24 13:49:01","新北市板橋區民生路二段120號","121.470561666667","25.01945","6500100","板橋區"
"220003","827-TW","2018/09/24 13:48:54","新北市板橋區府中路1號","121.460235","25.00933","6500100","板橋區"
"220014","830-TW","2018/09/24 13:49:09","新北市板橋區中山路二段50-1號","121.473198333333","25.0155983333333","6500100","板橋區"
"220045","831-TW","2018/09/24 13:40:38","新北市板橋區莊敬路208巷6弄7號","121.471011666667","25.02113","6500100","板橋區"
"220038","833-TW","2018/09/24 13:49:12","新北市板橋區民生路二段161巷1號","121.470008333333","25.0199166666667","6500100","板橋區"
"220022","895-R6","2018/09/24 13:49:05","新北市板橋區南門街6號","121.457456666667","25.0091783333333","6500100","板橋區"
"220021","985-R7","2018/09/24 13:48:56","新北市板橋區府中路32號","121.458271666667","25.00961","6500100","板橋區"
"220018","AAC-253","2018/09/24 13:49:12","新北市板橋區四川路一段60號","121.459596666667","25.0056483333333","6500100","板橋區"
"235032","KEA-2873","2018/09/24 13:49:10","新北市中和區圓通路265巷28號","121.495591666667","24.9926066666667","6500300","中和區"
"235025","KEA-2875","2018/09/24 13:48:56","新北市中和區民享街49巷1號","121.474273333333","25.0028416666667","6500300","中和區"
