"lineid","car","time","location","longitude","latitude","cityid","cityname"
"234001","149-BY","2018/09/24 14:49:00","新北市林口區太平里180號","121.368365","25.134285","6500400","永和區"
"234048","863-TW","2018/09/24 14:49:07","新北市永和區保安路136號","121.508518333333","25.0153933333333","6500400","永和區"
"234025","9371-KE","2018/09/24 14:49:04","新北市永和區雙和街7巷9號","121.509471666667","25.00144","6500400","永和區"
"248013","025-BX","2018/09/24 14:49:06","新北市五股區五福路66號","121.433301666667","25.0900833333333","6501500","五股區"
"248015","026-BX","2018/09/24 14:49:14","新北市五股區成泰路三段577巷80弄40號","121.44975","25.1049166666667","6501500","五股區"
"248007","095-VK","2018/09/24 14:48:57","新北市五股區四維路171巷11號","121.467258333333","25.075235","6501500","五股區"
"248019","225-UY","2018/09/24 14:49:09","新北市五股區凌雲路三段33-18號","121.431581666667","25.1168233333333","6501500","五股區"
"248011","247-BX","2018/09/24 14:49:09","新北市五股區六合街118號","121.43028","25.0907883333333","6501500","五股區"
"248003","677-BX","2018/09/24 14:48:55","新北市五股區成泰路一段103號","121.435763333333","25.070915","6501500","五股區"
"248001","678-BX","2018/09/24 14:49:12","新北市五股區成泰路三段165號","121.445251666667","25.091815","6501500","五股區"
"248009","682-TV","2018/09/24 14:49:06","新北市五股區成泰路一段2號","121.433905","25.0666816666667","6501500","五股區"
"243005","AAD-798","2018/09/24 14:49:06","新北市泰山區明志路三段74巷3號","121.424675","25.04163","6501600","泰山區"
"243001","297-R6","2018/09/24 14:49:07","新北市泰山區泰林路二段142巷7弄10號","121.43461","25.0605933333333","6501600","泰山區"
"243008","KEA-2801","2018/09/24 14:49:00","新北市泰山區新北大道六段310號","121.425025","25.0351516666667","6501600","泰山區"
"243007","421-VK","2018/09/24 14:49:11","新北市泰山區明志路二段62號","121.429106666667","25.052765","6501600","泰山區"
"243003","KEA-2215","2018/09/24 14:49:04","新北市泰山區明志路三段182巷61號","121.422391666667","25.0397316666667","6501600","泰山區"
"243002","KEA-2216","2018/09/24 14:48:55","新北市泰山區明志路二段136巷11號","121.426541666667","25.0515433333333","6501600","泰山區"
"243004","646-TV","2018/09/24 14:48:59","新北市泰山區楓江路113號","121.43852","25.06409","6501600","泰山區"
"243006","680-BX","2018/09/24 14:49:07","新北市泰山區明志路一段72號","121.433508333333","25.0645666666667","6501600","泰山區"
"231002","002-UM","2018/09/24 14:49:12","新北市新店區民權路56號","121.538835","24.9830116666667","6500600","新店區"
"231027","0291-UT","2018/09/24 14:49:15","新北市新店區民族路192號","121.536016666667","24.9754533333333","6500600","新店區"
"231028","046-UY","2018/09/24 14:49:10","新北市新店區安德街64號","121.51061","24.961915","6500600","新店區"
"231001","047-UY","2018/09/24 14:49:06","新北市新店區三民路61號","121.536561666667","24.97123","6500600","新店區"
"231005","106-UY","2018/09/24 14:49:08","新北市新店區復興路2號","121.532445","24.98824","6500600","新店區"
"231019","108-UY","2018/09/24 14:49:03","新北市新店區新烏路二段304號","121.549121666667","24.9122516666667","6500600","新店區"
"231011","187-VK","2018/09/24 14:49:03","新北市新店區寶橋路162號","121.54903","24.977215","6500600","新店區"
"231023","KEA-2219","2018/09/24 14:48:56","新北市新店區檳榔路109號","121.544408333333","24.9616416666667","6500600","新店區"
"231026","256-BX","2018/09/24 14:49:00","新北市新店區安一路一段1-1號","121.519783333333","24.9617933333333","6500600","新店區"
"231003","268-BY","2018/09/24 14:49:05","新北市新店區中興路二段200-1號","121.548461666667","24.974185","6500600","新店區"
"231018","278-BY","2018/09/24 14:48:57","新北市新店區中央路151號","121.529365","24.9722333333333","6500600","新店區"
"231014","AAD-862","2018/09/24 14:49:07","新北市新店區北宜路三段140號","121.584558333333","24.9499616666667","6500600","新店區"
"231004","355-BY","2018/09/24 14:49:10","新北市新店區民族路81號","121.538968333333","24.977865","6500600","新店區"
"231038","3712-VJ","2018/09/24 14:49:03","新北市新店區安康路二段38號","121.51557","24.9637583333333","6500600","新店區"
"231037","4716-K9","2018/09/24 14:49:07","新北市新店區柴埕路60巷1-1號","121.51026","24.9634133333333","6500600","新店區"
"231013","513-UM","2018/09/24 14:49:02","新北市新店區北新路二段97巷8號","121.5422","24.9744533333333","6500600","新店區"
"231034","616-UM","2018/09/24 14:49:00","新北市新店區車子路1號","121.504575","24.9563166666667","6500600","新店區"
"231006","617-UM","2018/09/24 14:49:17","新北市新店區北宜路一段152-2號","121.54032","24.9538","6500600","新店區"
"231030","619-UM","2018/09/24 14:49:03","新北市新店區安民街206號","121.517233333333","24.971985","6500600","新店區"
"231035","719-UM","2018/09/24 14:48:36","新北市新店區安樂街1號","121.519755","24.9738216666667","6500600","新店區"
"231031","720-UM","2018/09/24 14:49:02","新北市新店區安康路三段47號","121.492698333333","24.952635","6500600","新店區"
"231029","897-TW","2018/09/24 14:49:00","新北市新店區錦秀路5號","121.47946","24.944865","6500600","新店區"
"231024","AKT-0513","2018/09/24 14:49:01","新北市新店區中華路83巷67號","121.53835","24.96728","6500600","新店區"
"235030","003-UY","2018/09/24 14:49:05","新北市中和區南工路20號","121.505495","25.000525","6500300","中和區"
"235028","005-UY","2018/09/24 14:49:00","新北市中和區圓通路39號","121.500931666667","24.99761","6500300","中和區"
"235020","096-UM","2018/09/24 14:49:08","新北市中和區中山路三段114巷2號","121.476055","25.0064316666667","6500300","中和區"
"235003","097-UM","2018/09/24 14:49:08","新北市永和區安樂路44號","121.514566666667","24.996915","6500300","中和區"
"235029","098-UM","2018/09/24 14:49:10","新北市中和區福美路253號","121.498718333333","25.0051166666667","6500300","中和區"
"235004","150-BY","2018/09/24 14:49:12","新北市中和區宜安路60號","121.511666666667","24.9970016666667","6500300","中和區"
"235022","151-BY","2018/09/24 14:49:11","新北市中和區員山路142巷24號","121.48245","24.9965316666667","6500300","中和區"
"235019","183-VK","2018/09/24 14:49:05","新北市中和區民生街81號","121.468975","25.004785","6500300","中和區"
"235002","185-VK","2018/09/24 14:49:12","新北市永和區民生路42號","121.522461666667","24.996625","6500300","中和區"
"235013","186-VK","2018/09/24 14:48:59","新北市中和區中正路58號","121.501581666667","24.9937416666667","6500300","中和區"
"235031","255-BX","2018/09/24 14:49:01","新北市中和區新生街186巷1弄29號","121.483428333333","24.99865","6500300","中和區"
"235008","293-VK","2018/09/24 14:49:07","新北市中和區南山路403號","121.506863333333","24.98991","6500300","中和區"
"235036","301-VK","2018/09/24 14:48:58","新北市中和區泰和街38巷35號","121.498456666667","25.0013016666667","6500300","中和區"
"235007","352-BY","2018/09/24 14:49:10","新北市中和區安和路9號","121.511608333333","24.99357","6500300","中和區"
"247011","KEA-2869","2018/09/24 14:49:00","新北市蘆洲區集賢路400號","121.480278333333","25.0821783333333","6501400","蘆洲區"
"235014","4979-A6","2018/09/24 14:49:03","新北市中和區景平路456號","121.505946666667","24.9934633333333","6500300","中和區"
"235034","558-UM","2018/09/24 14:49:05","新北市中和區連勝街45號","121.49818","24.99753","6500300","中和區"
"235018","640-BX","2018/09/24 14:49:04","新北市中和區莒光路63號","121.472336666667","25.0039116666667","6500300","中和區"
"235011","732-UM","2018/09/24 14:49:05","新北市中和區捷運路16-3號","121.508721666667","24.9899866666667","6500300","中和區"
"235010","733-UM","2018/09/24 14:49:15","新北市中和區景新街496巷29號","121.513378333333","24.9862866666667","6500300","中和區"
"235026","800-TS","2018/09/24 14:49:16","新北市中和區中山路二段372號","121.491678333333","25.0032116666667","6500300","中和區"
"235021","801-TS","2018/09/24 14:49:02","新北市中和區員山路106號","121.481083333333","24.9954933333333","6500300","中和區"
"235005","802-TS","2018/09/24 14:49:01","新北市中和區安平路101號","121.511348333333","24.9971833333333","6500300","中和區"
"235016","805-TS","2018/09/24 14:49:08","新北市中和區華新街144巷14號","121.507636666667","24.983085","6500300","中和區"
"235012","896-TW","2018/09/24 14:48:58","新北市中和區忠孝街112號","121.512221666667","24.9852816666667","6500300","中和區"
"235017","900-TW","2018/09/24 14:49:07","新北市中和區國光街215巷8弄6-4號","121.466588333333","25.0011283333333","6500300","中和區"
"235024","911-UM","2018/09/24 14:49:02","新北市中和區新生街16巷7號","121.482791666667","25.0041966666667","6500300","中和區"
"235015","157-BY","2018/09/24 14:49:01","新北市中和區復興路295號","121.501698333333","24.9902866666667","6500300","中和區"
"235001","AAC-213","2018/09/24 14:49:02","新北市中和區自立路187-1號","121.523936666667","24.9914933333333","6500300","中和區"
"235023","AAC-215","2018/09/24 14:49:03","新北市中和區圓通路305巷29弄2號","121.495018333333","24.98909","6500300","中和區"
"220016","013-TV","2018/09/24 14:49:11","新北市板橋區中山路二段412巷29弄22-1號","121.484625","25.0202466666667","6500100","板橋區"
"220013","072-UY","2018/09/24 14:49:13","新北市板橋區國泰街39巷9弄3號","121.468711666667","25.0053733333333","6500100","板橋區"
"220034","073-UY","2018/09/24 14:48:55","新北市板橋區國光路1號","121.456571666667","25.0172933333333","6500100","板橋區"
"220105","075-UY","2018/09/24 14:49:04","新北市板橋區民治街57巷24弄2號","121.480255","25.0337816666667","6500100","板橋區"
"220017","AAD-861","2018/09/24 14:49:10","新北市板橋區貴興路106巷12號","121.4551","25.0031033333333","6500100","板橋區"
"247001","893-R6","2018/09/24 14:49:09","新北市蘆洲區長安街264號","121.457425","25.086705","6501400","蘆洲區"
"247015","546-UM","2018/09/24 14:48:57","新北市蘆洲區和平路174巷20號","121.467145","25.08169","6501400","蘆洲區"
"247013","339-TH","2018/09/24 14:49:02","新北市蘆洲區成功路120號","121.472211666667","25.082605","6501400","蘆洲區"
"247019","057-VK","2018/09/24 14:49:05","新北市蘆洲區民義街71巷1號","121.472968333333","25.0902716666667","6501400","蘆洲區"
"247017","007-UY","2018/09/24 14:48:57","新北市五股區中興路三段3-8號","121.450145","25.080035","6501400","蘆洲區"
"247021","001-UY","2018/09/24 14:49:12","新北市蘆洲區中正路408號","121.463116666667","25.0935283333333","6501400","蘆洲區"
"253002","4710-YM","2018/09/24 14:47:12","新北市石門區七股68號","121.548443333333","25.249655","6502200","石門區"
"253003","6232-TK","2018/09/24 14:49:03","新北市石門區尖子鹿19-2號","121.576685","25.275595","6502200","石門區"
"253001","6251-TK","2018/09/24 14:48:55","新北市石門區小坑9號","121.594541666667","25.28922","6502200","石門區"
"253004","8270-PC","2018/09/24 14:49:07","新北市石門區阿里磅26號","121.589695","25.2594433333333","6502200","石門區"
"207002","291-VK","2018/09/24 14:49:15","新北市萬里區崁腳里崁腳路73號","121.647666666667","25.1595966666667","6502800","萬里區"
"252005","073-UM","2018/09/24 14:49:08","新北市三芝區埔坪里埔頭坑107-1號","121.514436666667","25.2470633333333","6502100","三芝區"
"207001","662-BX","2018/09/24 14:45:34","新北市萬里區雙興里達天路19號","121.640458333333","25.18227","6502800","萬里區"
"236064","105-UM","2018/09/24 14:49:10","新北市土城區明德路一段369號","121.455706666667","24.9779333333333","6501300","土城區"
"236040","107-UM","2018/09/24 14:49:01","新北市土城區裕民路92巷25弄4號","121.449648333333","24.9859016666667","6501300","土城區"
"236074","166-UM","2018/09/24 14:49:02","新北市土城區中央路四段125巷26號","121.416855","24.95692","6501300","土城區"
"236029","253-BX","2018/09/24 14:49:07","新北市土城區忠義路26巷10號","121.439905","24.969885","6501300","土城區"
"236024","269-VK","2018/09/24 14:49:15","新北市土城區中央路二段229號","121.440436666667","24.9724966666667","6501300","土城區"
"236012","270-VK","2018/09/24 14:49:11","新北市土城區清水路235巷26號","121.460715","24.9840083333333","6501300","土城區"
"236032","271-VK","2018/09/24 14:49:08","新北市土城區明德路一段160號","121.46301","24.9784883333333","6501300","土城區"
"236016","401-BY","2018/09/24 14:49:06","新北市土城區延安街2號","121.467073333333","24.9861966666667","6501300","土城區"
"236057","912-UM","2018/09/24 14:49:00","新北市土城區明德路一段385-1號","121.453171666667","24.9803983333333","6501300","土城區"
"236045","913-UM","2018/09/24 14:49:04","新北市土城區青雲路83號","121.459251666667","24.986025","6501300","土城區"
"236060","915-UM","2018/09/24 14:49:04","新北市土城區金城路三段207巷15號","121.469996666667","24.9901033333333","6501300","土城區"
"236054","AAC-216","2018/09/24 14:49:15","新北市土城區裕民路177號","121.453368333333","24.9847683333333","6501300","土城區"
"242001","233-RS","2018/09/24 14:49:07","新北市五股區中興路三段169號","121.446111666667","25.0807683333333","6500500","新莊區"
"221010","269-BY","2018/09/24 14:48:54","新北市汐止區八連路二段428號","121.628861666667","25.10237","6501100","汐止區"
"220027","145-BY","2018/09/24 14:49:05","新北市板橋區復興街86號","121.459488333333","25.0177033333333","6500100","板橋區"
"220028","200-UY","2018/09/24 14:49:01","新北市板橋區大觀路二段37巷58號","121.449335","25.00248","6500100","板橋區"
"220030","610-BX","2018/09/24 14:49:02","新北市板橋區大觀路三段160巷36號","121.429913333333","24.9940316666667","6500100","板橋區"
"220050","245-BX","2018/09/24 14:48:56","新北市板橋區縣民大道三段93巷28號","121.474878333333","25.0225066666667","6500100","板橋區"
"220004","276-BY","2018/09/24 14:49:10","新北市板橋區德興街39號","121.453571666667","24.9936416666667","6500100","板橋區"
"220020","277-BY","2018/09/24 14:48:55","新北市板橋區金門街151巷3弄17號","121.4332","24.9910933333333","6500100","板橋區"
"220043","280-UM","2018/09/24 14:49:04","新北市板橋區長江路一段108號","121.459685","25.029515","6500100","板橋區"
"220019","283-VK","2018/09/24 14:49:10","新北市板橋區五權街30巷24弄19號","121.463603333333","24.9934783333333","6500100","板橋區"
"220001","285-VK","2018/09/24 14:49:05","新北市板橋區民享街89號","121.476951666667","25.01597","6500100","板橋區"
"220031","286-VK","2018/09/24 14:49:03","新北市板橋區僑中二街10巷30號","121.445833333333","25.0111116666667","6500100","板橋區"
"220029","287-VK","2018/09/24 14:49:14","新北市板橋區大觀路一段29巷61號","121.450486666667","25.00677","6500100","板橋區"
"220039","288-VK","2018/09/24 14:49:05","新北市板橋區新海路431巷5號","121.457938333333","25.0272366666667","6500100","板橋區"
"220009","293-UM","2018/09/24 14:49:11","新北市板橋區觀光街2-4號","121.472183333333","25.0155016666667","6500100","板橋區"
"220052","295-UM","2018/09/24 14:48:55","新北市板橋區陽明街29巷29號","121.46403","25.022455","6500100","板橋區"
"220023","303-R5","2018/09/24 14:48:52","新北市板橋區中正路293號","121.45535","25.019385","6500100","板橋區"
"220010","305-R5","2018/09/24 14:49:08","新北市板橋區三民路二段29巷31弄13號","121.481873333333","25.0178766666667","6500100","板橋區"
"220041","307-R5","2018/09/24 14:49:11","新北市板橋區四維路259巷9號","121.462853333333","25.0278733333333","6500100","板橋區"
"220047","317-R6","2018/09/24 14:49:01","新北市板橋區裕民街147號","121.45874","25.0270366666667","6500100","板橋區"
"220012","486-VK","2018/09/24 14:49:08","新北市板橋區館前東路104號","121.462895","25.0075166666667","6500100","板橋區"
"220104","560-BX","2018/09/24 14:49:06","新北市板橋區金華街100號","121.458466666667","25.02076","6500100","板橋區"
"220032","568-UM","2018/09/24 14:49:08","新北市板橋區溪崑二街132巷1號","121.425638333333","24.9878916666667","6500100","板橋區"
"220011","609-BX","2018/09/24 14:49:16","新北市板橋區三民路一段1巷39號","121.480321666667","25.0247716666667","6500100","板橋區"
"220040","637-BX","2018/09/24 14:49:12","新北市板橋區懷德街139巷20弄2號","121.47995","25.0308216666667","6500100","板橋區"
"220005","686-BX","2018/09/24 14:49:01","新北市板橋區廣權路1號","121.460575","24.991285","6500100","板橋區"
"220025","687-BX","2018/09/24 14:49:11","新北市板橋區僑中三街1-2號","121.446883333333","25.0045116666667","6500100","板橋區"
"220042","689-BX","2018/09/24 14:48:59","新北市板橋區長江路一段109號","121.459745","25.02971","6500100","板橋區"
"220002","741-BX","2018/09/24 14:49:00","新北市板橋區忠孝路忠義巷20弄1號","121.466665","25.003855","6500100","板橋區"
"220051","KEA-2699","2018/09/24 14:49:01","新北市板橋區松柏街57-4號","121.475733333333","25.0303083333333","6500100","板橋區"
"220003","827-TW","2018/09/24 14:48:54","新北市板橋區仁愛路49巷1號","121.459868333333","24.9994783333333","6500100","板橋區"
"220014","830-TW","2018/09/24 14:49:09","新北市板橋區長安街259巷31號","121.472805","25.0111583333333","6500100","板橋區"
"220045","831-TW","2018/09/24 14:48:59","新北市板橋區莊敬路148-1號","121.470436666667","25.0226733333333","6500100","板橋區"
"220038","833-TW","2018/09/24 14:49:12","新北市板橋區龍泉街101-4號","121.457046666667","25.024345","6500100","板橋區"
"220022","895-R6","2018/09/24 14:49:05","新北市板橋區府中路11號","121.459768333333","25.009545","6500100","板橋區"
"220021","985-R7","2018/09/24 14:48:56","新北市板橋區大仁街116號","121.452683333333","25.0157516666667","6500100","板橋區"
"220046","AAC-210","2018/09/24 14:49:00","新北市板橋區文化路一段299-1號","121.464688333333","25.0191316666667","6500100","板橋區"
"220018","AAC-253","2018/09/24 14:48:51","新北市板橋區民族路229號","121.469786666667","25.0071833333333","6500100","板橋區"
"235032","KEA-2873","2018/09/24 14:49:10","新北市中和區景平路736巷5弄9號","121.497621666667","25.0034783333333","6500300","中和區"
