"lineid","car","time","location","longitude","latitude","cityid","cityname"
"234001","149-BY","2018/09/24 15:13:40","新北市中和區永和路356巷51號","121.48724","25.01456","6500400","永和區"
"231002","002-UM","2018/09/24 15:13:36","新北市新店區中正路707號","121.533858333333","24.9911483333333","6500600","新店區"
"231028","046-UY","2018/09/24 15:13:30","新北市新店區僑愛七路53號","121.501563333333","24.94476","6500600","新店區"
"231005","106-UY","2018/09/24 15:13:32","新北市新店區民族路66號","121.539456666667","24.9782716666667","6500600","新店區"
"231019","108-UY","2018/09/24 15:13:43","新北市新店區永福路54-2號","121.558195","24.9286783333333","6500600","新店區"
"231011","187-VK","2018/09/24 15:13:43","新北市新店區寶元路一段65號","121.542226666667","24.985835","6500600","新店區"
"231023","KEA-2219","2018/09/24 15:13:35","新北市新店區檳榔路50號","121.541773333333","24.963625","6500600","新店區"
"231026","256-BX","2018/09/24 15:13:40","新北市新店區建安街24號","121.53975","24.9754883333333","6500600","新店區"
"231003","268-BY","2018/09/24 15:13:45","新北市新店區寶橋路230號","121.551526666667","24.9788166666667","6500600","新店區"
"231018","278-BY","2018/09/24 15:13:37","新北市新店區中央七街79號","121.52717","24.9768166666667","6500600","新店區"
"231014","AAD-862","2018/09/24 15:13:47","新北市新店區明山路45號","121.563551666667","24.9558483333333","6500600","新店區"
"231004","355-BY","2018/09/24 15:13:30","新北市新店區博愛街13巷24號","121.54027","24.9740666666667","6500600","新店區"
"231025","4715-K9","2018/09/24 15:13:30","新北市新店區二十張路46巷37弄16號","121.536181666667","24.9818466666667","6500600","新店區"
"231036","512-UM","2018/09/24 15:13:41","新北市新店區安祥路106巷216號","121.473845","24.9602833333333","6500600","新店區"
"231034","616-UM","2018/09/24 15:13:41","新北市新店區玫瑰路4-1號","121.493583333333","24.9514066666667","6500600","新店區"
"231030","619-UM","2018/09/24 15:13:43","新北市新店區安民街341-1號","121.51679","24.9748883333333","6500600","新店區"
"231039","718-UY","2018/09/24 15:13:32","新北市新店區寶元路一段65號","121.542246666667","24.9857666666667","6500600","新店區"
"231035","719-UM","2018/09/24 15:13:36","新北市新店區安和路三段173號","121.51583","24.98615","6500600","新店區"
"231031","720-UM","2018/09/24 15:13:42","新北市新店區安泰路76號","121.485916666667","24.9458733333333","6500600","新店區"
"231029","897-TW","2018/09/24 15:13:40","新北市新店區安康路三段716號","121.473995","24.941995","6500600","新店區"
"241011","013-R5","2018/09/24 15:13:40","新北市三重區重新路四段121號","121.484838333333","25.0522816666667","6500200","三重區"
"241028","022-UY","2018/09/24 15:13:32","新北市三重區重新路四段121號","121.484831666667","25.0525","6500200","三重區"
"241017","063-VK","2018/09/24 15:13:37","新北市三重區重新路四段121號","121.484741666667","25.05225","6500200","三重區"
"241007","398-BY","2018/09/24 15:13:43","新北市三重區重新路四段121號","121.485188333333","25.052485","6500200","三重區"
"241020","478-VK","2018/09/24 15:13:37","新北市三重區重新路四段121號","121.484968333333","25.05253","6500200","三重區"
"241029","942-UM","2018/09/24 15:13:42","新北市三重區重新路四段121號","121.484875","25.052495","6500200","三重區"
"241033","AAC-255","2018/09/24 15:13:39","新北市三重區重新路四段121號","121.484603333333","25.052045","6500200","三重區"
"235030","003-UY","2018/09/24 15:13:45","新北市中和區水源路154巷2號","121.508095","25.0033333333333","6500300","中和區"
"235014","4979-A6","2018/09/24 15:13:43","新北市中和區安樂路62號","121.512185","24.99321","6500300","中和區"
"235033","4980-A6","2018/09/24 15:13:41","新北市中和區景新街96巷6號","121.504561666667","24.998285","6500300","中和區"
"235026","800-TS","2018/09/24 15:13:36","新北市中和區中山路二段327巷13號","121.493256666667","25.00069","6500300","中和區"
"235012","896-TW","2018/09/24 15:13:38","新北市中和區興南路一段124號","121.509503333333","24.9886033333333","6500300","中和區"
"235023","AAC-215","2018/09/24 15:13:43","新北市中和區圓通路335巷37弄31號","121.493921666667","24.9889933333333","6500300","中和區"
"220017","AAD-861","2018/09/24 15:13:36","新北市板橋區大明街25巷2弄17號","121.45755","25.0024583333333","6500100","板橋區"
"253002","4710-YM","2018/09/24 15:13:32","新北市石門區楓林28-2號","121.541878333333","25.2888633333333","6502200","石門區"
"253003","6232-TK","2018/09/24 15:13:43","新北市石門區小坑12-1號","121.595451666667","25.28415","6502200","石門區"
"253001","6251-TK","2018/09/24 15:12:35","新北市石門區崁子腳65-3號","121.53291","25.28486","6502200","石門區"
"207001","662-BX","2018/09/24 15:13:34","新北市萬里區雙興里麗水路8-1號","121.649915","25.1872866666667","6502800","萬里區"
"236064","105-UM","2018/09/24 15:13:30","新北市土城區學成路67-1號","121.451438333333","24.9880616666667","6501300","土城區"
"236040","107-UM","2018/09/24 15:13:41","新北市土城區學士路2號","121.453971666667","24.9833933333333","6501300","土城區"
"236074","166-UM","2018/09/24 15:13:41","新北市土城區中州路3巷43號","121.413353333333","24.9563516666667","6501300","土城區"
"236029","253-BX","2018/09/24 15:13:27","新北市土城區福祥街68號","121.441663333333","24.9818116666667","6501300","土城區"
"236024","269-VK","2018/09/24 15:13:36","新北市土城區員林街63號","121.444021666667","24.97746","6501300","土城區"
"236012","270-VK","2018/09/24 15:13:39","新北市土城區學府路一段99巷23號","121.456808333333","24.9869016666667","6501300","土城區"
"236032","271-VK","2018/09/24 15:13:28","新北市土城區國際路158巷54號","121.468018333333","24.9747633333333","6501300","土城區"
"236016","401-BY","2018/09/24 15:13:26","新北市土城區明峰街83號","121.469003333333","24.9873683333333","6501300","土城區"
"236057","912-UM","2018/09/24 15:13:41","新北市土城區中央路三段4-7號","121.438941666667","24.96975","6501300","土城區"
"236045","913-UM","2018/09/24 15:13:44","新北市土城區清水路328號","121.463905","24.9854633333333","6501300","土城區"
"236060","915-UM","2018/09/24 15:13:42","新北市土城區延和路68號","121.465876666667","24.9891866666667","6501300","土城區"
"236054","AAC-216","2018/09/24 15:13:35","新北市土城區學府路一段237號","121.450876666667","24.98385","6501300","土城區"
"242055","751-BX","2018/09/24 15:02:20","新北市新莊區新泰路357巷3弄57號","121.441945","25.0392383333333","6500500","新莊區"
"242001","233-RS","2018/09/24 15:13:27","新北市新莊區環河路636-7號","121.437538333333","25.0115783333333","6500500","新莊區"
"238002","755-BX","2018/09/24 15:13:34","新北市樹林區東佳路8號","121.401843333333","24.9767233333333","6500700","樹林區"
"238010","601-UM","2018/09/24 15:13:45","新北市樹林區保安街一段318號","121.418538333333","24.9976216666667","6500700","樹林區"
"238006","599-UM","2018/09/24 15:13:46","新北市樹林區八德街108號","121.421076666667","24.9798316666667","6500700","樹林區"
"238005","571-TV","2018/09/24 15:13:30","新北市樹林區樹新路106巷7號","121.42998","24.998205","6500700","樹林區"
"238009","KEA-2213","2018/09/24 15:13:29","新北市樹林區忠孝街31號","121.423716666667","24.9822016666667","6500700","樹林區"
"238008","KEA-2539","2018/09/24 15:13:30","新北市樹林區西圳街一段165巷20弄11號","121.395625","24.9601916666667","6500700","樹林區"
"238012","303-VK","2018/09/24 15:13:38","新北市樹林區中山路一段296號","121.420366666667","24.9864566666667","6500700","樹林區"
"238004","283-BY","2018/09/24 15:13:40","新北市樹林區保安街一段269號","121.419258333333","24.99707","6500700","樹林區"
"238001","282-BY","2018/09/24 15:13:39","新北市樹林區大安路205號","121.420473333333","24.9955216666667","6500700","樹林區"
"238007","268-VK","2018/09/24 15:13:41","新北市樹林區大安路1-50號","121.428356666667","25.00358","6500700","樹林區"
"238013","172-UY","2018/09/24 15:13:30","新北市樹林區味王街46巷30號","121.403033333333","24.9737783333333","6500700","樹林區"
"238003","169-UY","2018/09/24 15:13:40","新北市樹林區中山路二段38號","121.417138333333","24.9848883333333","6500700","樹林區"
"220027","145-BY","2018/09/24 15:13:45","新北市板橋區南雅西路二段175巷1號","121.451605","25.012425","6500100","板橋區"
"220050","245-BX","2018/09/24 15:13:36","新北市板橋區雙十路二段47巷2弄11號","121.475713333333","25.0264833333333","6500100","板橋區"
"220031","286-VK","2018/09/24 15:13:43","新北市板橋區僑中二街100巷28號","121.444868333333","25.00864","6500100","板橋區"
"220029","287-VK","2018/09/24 15:13:34","新北市板橋區僑中一街124巷20弄46號","121.448155","25.0138366666667","6500100","板橋區"
"220052","295-UM","2018/09/24 15:13:35","新北市板橋區陽明街279巷35-2號","121.461138333333","25.02563","6500100","板橋區"
"220011","609-BX","2018/09/24 15:13:44","新北市板橋區中山路二段387號","121.48024","25.0193833333333","6500100","板橋區"
"220025","687-BX","2018/09/24 15:13:27","新北市板橋區中正路600號","121.44532","25.02086","6500100","板橋區"
"220042","689-BX","2018/09/24 15:13:39","新北市板橋區長江路三段21號","121.472298333333","25.0336566666667","6500100","板橋區"
"220051","KEA-2699","2018/09/24 15:13:41","新北市板橋區民治街124號","121.477983333333","25.0310366666667","6500100","板橋區"
"220038","833-TW","2018/09/24 15:13:43","新北市板橋區新海路378號","121.45925","25.0259083333333","6500100","板橋區"
"220018","AAC-253","2018/09/24 15:13:45","新北市板橋區德興街6號","121.453361666667","24.9947066666667","6500100","板橋區"
