"lineid","car","time","location","longitude","latitude","cityid","cityname"
"234050","863-TW","2018/09/24 16:26:06","新北市永和區福和路1號","121.526428333333","25.0098716666667","6500400","永和區"
"249005","172-UM","2018/09/24 16:49:04","新北市八里區大堀湖1-5號","121.422836666667","25.15498","6502300","八里區"
"249004","303-UY","2018/09/24 16:49:07","新北市八里區博物館路202巷38號","121.405295","25.15956","6502300","八里區"
"249003","593-UM","2018/09/24 16:49:15","新北市八里區中山路二段283號","121.401588333333","25.148635","6502300","八里區"
"244013","069-UM","2018/09/24 16:49:09","新北市林口區粉寮路二段88巷100-12號","121.409698333333","25.0902033333333","6501700","林口區"
"244007","080-UY","2018/09/24 16:49:10","新北市林口區竹林路278巷2號","121.390206666667","25.0819133333333","6501700","林口區"
"231046","107-UY","2018/09/24 16:49:11","新北市新店區灣潭路29-5號","121.53959","24.9386816666667","6500600","新店區"
"241011","013-R5","2018/09/24 16:49:00","新北市三重區仁愛街53巷94號","121.498476666667","25.07241","6500200","三重區"
"241028","022-UY","2018/09/24 16:49:11","新北市三重區光興街89號","121.497488333333","25.0600033333333","6500200","三重區"
"241008","059-VK","2018/09/24 16:49:10","新北市三重區永安北路一段11巷16弄4號","121.476865","25.07509","6500200","三重區"
"241031","061-VK","2018/09/24 16:49:02","新北市三重區過圳街20號","121.488618333333","25.059185","6500200","三重區"
"241015","062-VK","2018/09/24 16:49:18","新北市三重區文化北路41-5號","121.499016666667","25.0654616666667","6500200","三重區"
"241017","063-VK","2018/09/24 16:49:11","新北市三重區國隆路8巷23號","121.492876666667","25.0635183333333","6500200","三重區"
"241024","065-VK","2018/09/24 16:48:59","新北市三重區國道路一段139號","121.475481666667","25.073595","6500200","三重區"
"241002","090-VK","2018/09/24 16:49:13","新北市三重區仁義街241巷2號","121.496355","25.08286","6500200","三重區"
"241003","091-VK","2018/09/24 16:39:38","新北市三重區五華街71巷1號","121.492718333333","25.0829583333333","6500200","三重區"
"251014","742-BX","2018/09/24 16:49:18","新北市淡水區淡金路四段476號","121.452408333333","25.2239083333333","6501000","淡水區"
"241005","262-UM","2018/09/24 16:49:14","新北市三重區仁華街80巷1號","121.48492","25.0830683333333","6500200","三重區"
"241016","266-UM","2018/09/24 16:49:07","新北市三重區大同北路91號","121.494596666667","25.0636466666667","6500200","三重區"
"241009","267-UM","2018/09/24 16:49:13","新北市三重區三和路四段203巷110號","121.484996666667","25.080285","6500200","三重區"
"241018","268-UM","2018/09/24 16:49:13","新北市三重區正義北路261號","121.495551666667","25.069745","6500200","三重區"
"241032","269-UM","2018/09/24 16:49:10","新北市三重區重陽路一段120巷23號","121.485833333333","25.0601483333333","6500200","三重區"
"241013","270-UM","2018/09/24 16:48:59","新北市三重區三和路三段101巷100號","121.49736","25.073305","6500200","三重區"
"241025","271-UM","2018/09/24 16:49:04","新北市三重區中正北路357號","121.472688333333","25.0717666666667","6500200","三重區"
"241007","398-BY","2018/09/24 16:49:14","新北市三重區三和路四段181巷21號","121.483358333333","25.0792116666667","6500200","三重區"
"241004","475-VK","2018/09/24 16:49:03","新北市三重區仁愛街423-1號","121.490366666667","25.0814733333333","6500200","三重區"
"241020","478-VK","2018/09/24 16:49:17","新北市三重區忠孝路二段34號","121.485736666667","25.0709633333333","6500200","三重區"
"241030","480-VK","2018/09/24 16:49:11","新北市三重區中正南路263號","121.492891666667","25.0529366666667","6500200","三重區"
"241014","543-UM","2018/09/24 16:49:05","新北市三重區長榮路75號","121.502633333333","25.0690633333333","6500200","三重區"
"241023","545-UM","2018/09/24 16:49:03","新北市三重區中華路76巷31號","121.482315","25.06267","6500200","三重區"
"241001","547-UM","2018/09/24 16:49:03","新北市三重區仁政街76巷17號","121.491781666667","25.07707","6500200","三重區"
"241019","KEA-2593","2018/09/24 16:49:20","新北市三重區三張街149巷11號","121.486765","25.0699716666667","6500200","三重區"
"241006","AAD-863","2018/09/24 16:48:59","新北市三重區力行路二段145號","121.48341","25.0773466666667","6500200","三重區"
"241026","743-BX","2018/09/24 16:49:14","新北市三重區文化南路10巷15號","121.50077","25.0620883333333","6500200","三重區"
"241022","887-TS","2018/09/24 16:49:06","新北市三重區中華路111巷26號","121.484516666667","25.0635216666667","6500200","三重區"
"241012","941-UM","2018/09/24 16:49:11","新北市三重區仁興街11巷56號","121.501095","25.074485","6500200","三重區"
"241029","942-UM","2018/09/24 16:49:02","新北市三重區集美街207巷25號","121.492413333333","25.0540066666667","6500200","三重區"
"241033","AAC-255","2018/09/24 16:48:59","新北市三重區光復路二段131號","121.472195","25.0589233333333","6500200","三重區"
"247002","893-R6","2018/09/24 16:49:01","新北市蘆洲區永平街24號","121.458926666667","25.0907316666667","6501400","蘆洲區"
"247024","500-BY","2018/09/24 16:49:03","新北市蘆洲區長興路202號","121.46056","25.0875183333333","6501400","蘆洲區"
"247014","339-TH","2018/09/24 16:49:12","新北市蘆洲區中正路507號","121.46102","25.0972716666667","6501400","蘆洲區"
"247006","337-TH","2018/09/24 16:49:10","新北市蘆洲區永安南路二段132-1號","121.462525","25.0785083333333","6501400","蘆洲區"
"247008","336-TH","2018/09/24 16:49:08","新北市蘆洲區中山一路176號","121.474096666667","25.0812883333333","6501400","蘆洲區"
"247020","057-VK","2018/09/24 16:48:58","新北市蘆洲區民族路422巷14號","121.47415","25.092155","6501400","蘆洲區"
"247010","056-VK","2018/09/24 16:49:05","新北市蘆洲區民族路422巷82弄36號","121.474231666667","25.0973666666667","6501400","蘆洲區"
"247022","001-UY","2018/09/24 16:49:03","新北市蘆洲區仁愛街234號","121.466505","25.0933816666667","6501400","蘆洲區"
"228003","097-TW","2018/09/24 16:49:12","新北市貢寮區貢寮里朝陽街1-2號","121.91235","25.021285","6502600","貢寮區"
"228002","663-BX","2018/09/24 16:49:17","新北市貢寮區貢寮里朝陽街142號","121.907171666667","25.0225683333333","6502600","貢寮區"
"224006","676-BX","2018/09/24 16:49:06","新北市瑞芳區大寮路356號","121.784605","25.102995","6501200","瑞芳區"
"224008","285-BY","2018/09/24 16:49:11","新北市瑞芳區中山路251號","121.798165","25.1093116666667","6501200","瑞芳區"
"224007","275-VK","2018/09/24 16:49:00","新北市瑞芳區月眉路7號","121.76027","25.1055666666667","6501200","瑞芳區"
"224009","273-VK","2018/09/24 16:49:02","新北市瑞芳區三爪子坑路64-40號","121.808806666667","25.10555","6501200","瑞芳區"
"224005","271-BY","2018/09/24 16:49:02","新北市瑞芳區洞頂路155-6號","121.861485","25.121775","6501200","瑞芳區"
"227008","642-TC","2018/09/24 16:48:57","新北市雙溪區牡丹里聖南1-1號","121.860563333333","25.04999","6502500","雙溪區"
"227001","400-TW","2018/09/24 16:49:04","新北市雙溪區外柑里外柑腳71號","121.807155","25.0175883333333","6502500","雙溪區"
"251013","KEA-2871","2018/09/24 16:49:07","新北市淡水區泉洲厝32號","121.489273333333","25.1925283333333","6501000","淡水區"
"251016","179-VK","2018/09/24 16:49:11","新北市淡水區水頭41號","121.478146666667","25.184985","6501000","淡水區"
"251015","180-VK","2018/09/24 16:49:06","新北市淡水區忠愛街5-1號","121.460716666667","25.1716766666667","6501000","淡水區"
"251008","181-VK","2018/09/24 16:46:32","新北市淡水區樹梅坑24號","121.474585","25.1430816666667","6501000","淡水區"
"251010","413-VK","2018/09/24 16:49:11","新北市淡水區中正路二段31號","121.419588333333","25.1815483333333","6501000","淡水區"
"251012","441-VK","2018/09/24 16:49:16","新北市淡水區中正路二段31號","121.419673333333","25.181505","6501000","淡水區"
"251007","442-VK","2018/09/24 16:49:01","新北市淡水區中正路一段68號","121.42522","25.1770366666667","6501000","淡水區"
"251004","443-VK","2018/09/24 16:49:06","新北市淡水區中正路二段31號","121.419135","25.1821366666667","6501000","淡水區"
"251006","561-UM","2018/09/24 16:49:11","新北市淡水區中正路二段31號","121.419246666667","25.1817883333333","6501000","淡水區"
"251011","650-BX","2018/09/24 16:49:14","新北市淡水區中正路二段30號","121.419723333333","25.1819333333333","6501000","淡水區"
"252001","292-VK","2018/09/24 16:49:03","新北市三芝區淡金路二段89號","121.503891666667","25.260805","6502100","三芝區"
"252002","AAC-283","2018/09/24 16:49:01","新北市三芝區忠孝街53號","121.505933333333","25.2563283333333","6502100","三芝區"
"242055","751-BX","2018/09/24 16:49:18","新北市新莊區新泰路255巷83號","121.442103333333","25.03907","6500500","新莊區"
"242048","497-BY","2018/09/24 16:49:11","新北市新莊區新泰路357巷3弄57號","121.44216","25.03936","6500500","新莊區"
"242039","415-TV","2018/09/24 16:49:15","新北市新莊區新泰路357巷3弄57號","121.442083333333","25.03928","6500500","新莊區"
"242023","362-BY","2018/09/24 16:49:09","新北市新莊區新泰路255巷83號","121.442423333333","25.0388383333333","6500500","新莊區"
"238004","283-BY","2018/09/24 16:49:00","新北市樹林區中正路433-2號","121.415003333333","25.008245","6500700","樹林區"
"238001","282-BY","2018/09/24 16:48:59","新北市樹林區中正路22-1號","121.427788333333","24.9996416666667","6500700","樹林區"
"239007","AAC-297","2018/09/24 16:49:03","新北市鶯歌區二甲路13-16號","121.344866666667","24.9352033333333","6500800","鶯歌區"
