"lineid","car","time","location","longitude","latitude","cityid","cityname"
"234050","863-TW","2018/09/24 17:49:09","新北市永和區福和路1號","121.526451666667","25.01002","6500400","永和區"
"234026","9371-KE","2018/09/24 17:49:03","新北市永和區和平街109巷6號","121.510753333333","25.0096766666667","6500400","永和區"
"249005","172-UM","2018/09/24 17:49:04","新北市八里區荖阡坑路34-3號","121.402268333333","25.1317583333333","6502300","八里區"
"249001","173-UM","2018/09/24 17:49:04","新北市八里區龍米路二段133-1號","121.444928333333","25.14778","6502300","八里區"
"249004","303-UY","2018/09/24 17:49:07","新北市八里區中華路一段79巷11號","121.42106","25.1564366666667","6502300","八里區"
"249002","305-UY","2018/09/24 17:49:07","新北市八里區頂寮二街121巷20-2號","121.446481666667","25.1276616666667","6502300","八里區"
"249003","593-UM","2018/09/24 17:49:15","新北市八里區中山路二段180號","121.405713333333","25.1526133333333","6502300","八里區"
"248016","026-BX","2018/09/24 17:49:03","新北市五股區中興路二段83巷26-6號","121.459935","25.0752483333333","6501500","五股區"
"248006","077-UY","2018/09/24 17:49:07","新北市五股區中興路二段83巷26-6號","121.459833333333","25.0753183333333","6501500","五股區"
"248008","095-VK","2018/09/24 17:49:03","新北市五股區中興路二段83巷26-3號","121.46009","25.0753816666667","6501500","五股區"
"248018","225-UY","2018/09/24 17:49:11","新北市五股區中興路二段83巷26-6號","121.45986","25.0754133333333","6501500","五股區"
"232011","375-UM","2018/09/24 17:49:09","新北市坪林區北宜路八段157號","121.707225","24.9344583333333","6502000","坪林區"
"244023","069-UM","2018/09/24 17:49:09","新北市林口區興林路318巷13號","121.388211666667","25.0704816666667","6501700","林口區"
"244007","080-UY","2018/09/24 17:49:10","新北市林口區林口路135號","121.38866","25.0811633333333","6501700","林口區"
"244019","403-UM","2018/09/24 17:49:03","新北市林口區忠孝路542巷8號","121.372763333333","25.0670516666667","6501700","林口區"
"244013","KEA-2802","2018/09/24 17:49:08","新北市林口區中山路151號","121.38691","25.0792033333333","6501700","林口區"
"244017","485-VK","2018/09/24 17:49:14","新北市林口區文化二路一段260巷1-1號","121.371235","25.0733716666667","6501700","林口區"
"244009","657-BX","2018/09/24 17:49:03","新北市林口區林口路297巷5號","121.385626666667","25.0846533333333","6501700","林口區"
"244011","701-TV","2018/09/24 17:49:02","新北市林口區中正路340號","121.386768333333","25.07777","6501700","林口區"
"244025","837-TS","2018/09/24 17:49:04","新北市林口區忠孝三路42號","121.360171666667","25.0699566666667","6501700","林口區"
"244021","838-TS","2018/09/24 17:49:03","新北市林口區仁愛路123巷3號","121.398493333333","25.0711583333333","6501700","林口區"
"222003","436-BY","2018/09/24 17:48:58","新北市深坑區阿柔洋60-1號","121.608601666667","24.9985133333333","6501800","深坑區"
"222002","659-BX","2018/09/24 17:49:16","新北市深坑區平埔街22巷8號","121.61493","25.000935","6501800","深坑區"
"231046","107-UY","2018/09/24 17:49:11","新北市新店區下石厝路19-2號","121.531956666667","24.92755","6500600","新店區"
"241024","065-VK","2018/09/24 17:48:59","新北市三重區車路頭街62巷26號","121.483191666667","25.0724016666667","6500200","三重區"
"251014","742-BX","2018/09/24 17:49:18","新北市淡水區公埔子16-6號","121.480996666667","25.2245716666667","6501000","淡水區"
"241005","262-UM","2018/09/24 17:49:14","新北市三重區仁愛街519號","121.487346666667","25.0822416666667","6500200","三重區"
"241016","266-UM","2018/09/24 17:49:07","新北市三重區新北大道一段7號","121.489453333333","25.0613916666667","6500200","三重區"
"241007","398-BY","2018/09/24 17:49:14","新北市蘆洲區中山一路417號","121.468673333333","25.07626","6500200","三重區"
"241012","941-UM","2018/09/24 17:49:11","新北市三重區河邊北街276號","121.50139","25.076685","6500200","三重區"
"241033","AAC-255","2018/09/24 17:48:59","新北市三重區光復路一段1號","121.472165","25.0468866666667","6500200","三重區"
"235058","151-BY","2018/09/24 17:49:17","新北市中和區員山路36巷16-2號","121.485216666667","24.9915916666667","6500300","中和區"
"247012","KEA-2869","2018/09/24 17:49:00","新北市蘆洲區復興路66號","121.474631666667","25.0864716666667","6501400","蘆洲區"
"247002","893-R6","2018/09/24 17:49:01","新北市蘆洲區永平街32巷33弄18號","121.458718333333","25.092365","6501400","蘆洲區"
"247016","546-UM","2018/09/24 17:49:06","新北市蘆洲區中正路185巷27號","121.466743333333","25.0844016666667","6501400","蘆洲區"
"247024","500-BY","2018/09/24 17:49:16","新北市蘆洲區光榮路61巷20號","121.461151666667","25.0889033333333","6501400","蘆洲區"
"247014","339-TH","2018/09/24 17:49:11","新北市蘆洲區保和街73號","121.469231666667","25.0861116666667","6501400","蘆洲區"
"247006","337-TH","2018/09/24 17:49:10","新北市蘆洲區長安街22巷40號","121.465103333333","25.0802366666667","6501400","蘆洲區"
"247008","336-TH","2018/09/24 17:49:08","新北市蘆洲區中山一路270號","121.471693333333","25.0794983333333","6501400","蘆洲區"
"247020","057-VK","2018/09/24 17:48:58","新北市蘆洲區民義街71巷31號","121.472181666667","25.0911383333333","6501400","蘆洲區"
"247010","056-VK","2018/09/24 17:49:05","新北市蘆洲區民族路34號","121.476441666667","25.0843733333333","6501400","蘆洲區"
"247018","007-UY","2018/09/24 17:49:10","新北市蘆洲區復興路227巷2弄14號","121.480601666667","25.090265","6501400","蘆洲區"
"247004","002-UY","2018/09/24 17:49:09","新北市蘆洲區中原路12巷2號","121.461111666667","25.0836216666667","6501400","蘆洲區"
"247022","001-UY","2018/09/24 17:49:03","新北市蘆洲區中正路377號","121.464498333333","25.090865","6501400","蘆洲區"
"228003","097-TW","2018/09/24 17:49:12","新北市貢寮區真理里延平街62號","121.924853333333","25.057395","6502600","貢寮區"
"228002","663-BX","2018/09/24 17:49:17","新北市貢寮區福隆里外隆林街14-1號","121.959091666667","25.0036366666667","6502600","貢寮區"
"228001","670-TC","2018/09/24 17:49:12","新北市貢寮區仁理村仁愛路95-1號","121.927658333333","25.0554266666667","6502600","貢寮區"
"224006","676-BX","2018/09/24 17:49:06","新北市瑞芳區傑魚坑路183號","121.788541666667","25.1083416666667","6501200","瑞芳區"
"224008","285-BY","2018/09/24 17:49:11","新北市瑞芳區明燈路一段13號","121.825701666667","25.1067766666667","6501200","瑞芳區"
"224009","273-VK","2018/09/24 17:49:02","新北市瑞芳區山尖路173號","121.852861666667","25.1120616666667","6501200","瑞芳區"
"224005","271-BY","2018/09/24 17:49:02","新北市瑞芳區海濱路29-9號","121.83081","25.1242516666667","6501200","瑞芳區"
"227008","642-TC","2018/09/24 17:48:57","新北市雙溪區三貂里政光路3-1號","121.850735","25.0633033333333","6502500","雙溪區"
"253006","032-BX","2018/09/24 17:49:07","新北市石門區中山路62-7號","121.567368333333","25.29022","6502200","石門區"
"208002","KEA-2872","2018/09/24 17:49:01","新北市金山區磺清路135號","121.639533333333","25.227695","6502700","金山區"
"208001","761-BX","2018/09/24 17:49:08","新北市金山區磺清路135號","121.639485","25.2278466666667","6502700","金山區"
"251005","010-UM","2018/09/24 17:49:04","新北市淡水區學府路100巷17號","121.450886666667","25.17168","6501000","淡水區"
"251002","012-UM","2018/09/24 17:49:00","新北市淡水區中山路31號","121.443876666667","25.170305","6501000","淡水區"
"251013","KEA-2871","2018/09/24 17:49:07","新北市淡水區泉洲厝31號","121.479625","25.1910333333333","6501000","淡水區"
"251016","179-VK","2018/09/24 17:49:11","新北市淡水區埤島39-15號","121.45278","25.195845","6501000","淡水區"
"251015","180-VK","2018/09/24 17:49:14","新北市淡水區興福寮22-3號","121.493808333333","25.164145","6501000","淡水區"
"251008","181-VK","2018/09/24 17:49:11","新北市淡水區八勢路一段156號","121.468121666667","25.1564383333333","6501000","淡水區"
"251010","413-VK","2018/09/24 17:49:11","新北市淡水區淡海路280巷33弄34-2號","121.418733333333","25.1886116666667","6501000","淡水區"
"251012","441-VK","2018/09/24 17:49:16","新北市淡水區北新路一段601號","121.4707","25.1840683333333","6501000","淡水區"
"251007","442-VK","2018/09/24 17:49:01","新北市淡水區民生路52巷4號","121.461915","25.1375416666667","6501000","淡水區"
"251004","443-VK","2018/09/24 17:49:04","新北市淡水區民權一街10號","121.45937","25.1370583333333","6501000","淡水區"
"251001","559-UM","2018/09/24 17:49:02","新北市淡水區民權路92巷35-1號","121.462286666667","25.1266716666667","6501000","淡水區"
"251006","561-UM","2018/09/24 17:49:11","新北市淡水區大信街1巷12號","121.440426666667","25.1768633333333","6501000","淡水區"
"251009","575-R6","2018/09/24 17:49:03","新北市淡水區長興街47號","121.44422","25.1717583333333","6501000","淡水區"
"251011","650-BX","2018/09/24 17:48:54","新北市淡水區吳(仔)厝70號","121.47961","25.14967","6501000","淡水區"
"251003","766-UM","2018/09/24 17:49:17","新北市淡水區大忠街5巷1號","121.443123333333","25.176465","6501000","淡水區"
"207003","550-UM","2018/09/24 17:49:02","新北市萬里區野柳里東澳路55號","121.691995","25.2033016666667","6502800","萬里區"
"207004","225-TW","2018/09/24 17:49:00","新北市萬里區萬里里瑪鋉路81號","121.688363333333","25.1766533333333","6502800","萬里區"
"252001","292-VK","2018/09/24 17:49:18","新北市三芝區中興街一段10號","121.497408333333","25.259445","6502100","三芝區"
"252002","AAC-283","2018/09/24 17:49:01","新北市三芝區智成街62號","121.504528333333","25.256105","6502100","三芝區"
"237009","210-TH","2018/09/24 17:49:04","新北市三峽區大勇路3巷24號","121.368011666667","24.936835","6500900","三峽區"
"237013","252-BX","2018/09/24 17:49:12","新北市三峽區愛國路33-9號","121.374855","24.9328533333333","6500900","三峽區"
"237012","275-BY","2018/09/24 17:49:13","新北市三峽區民生街106號","121.373691666667","24.93544","6500900","三峽區"
"237014","433-BY","2018/09/24 17:49:14","新北市三峽區復興路101巷1弄13號","121.372215","24.93704","6500900","三峽區"
"237006","5529-G3","2018/09/24 17:48:57","新北市三峽區介壽路二段136巷73號","121.392415","24.9323433333333","6500900","三峽區"
"237011","KEA-2596","2018/09/24 17:49:08","新北市三峽區大同路137號","121.371693333333","24.9269266666667","6500900","三峽區"
"237015","649-BX","2018/09/24 17:49:00","新北市三峽區白雞120號","121.398735","24.9053366666667","6500900","三峽區"
"237010","706-TV","2018/09/24 17:49:09","新北市三峽區大勇路29巷6弄12號","121.367661666667","24.9358183333333","6500900","三峽區"
"237005","AKY-6261","2018/09/24 17:49:11","新北市三峽區中山路276號","121.361348333333","24.9378283333333","6500900","三峽區"
"236042","107-UM","2018/09/24 17:49:04","新北市土城區城林路6巷80號","121.438573333333","24.97964","6501300","土城區"
"236078","166-UM","2018/09/24 17:49:11","新北市土城區中央路三段130-4號","121.434355","24.9657883333333","6501300","土城區"
"236030","253-BX","2018/09/24 17:49:18","新北市土城區城林路6巷80號","121.438598333333","24.9796816666667","6501300","土城區"
"236026","269-VK","2018/09/24 17:49:07","新北市土城區城林路6巷80號","121.438528333333","24.9797916666667","6501300","土城區"
"236014","270-VK","2018/09/24 17:49:12","新北市土城區城林路6巷80號","121.438491666667","24.97958","6501300","土城區"
"236039","271-VK","2018/09/24 17:49:03","新北市土城區城林路6巷80號","121.43853","24.9797466666667","6501300","土城區"
"236020","401-BY","2018/09/24 17:49:18","新北市土城區城林路6巷80號","121.43868","24.9797683333333","6501300","土城區"
"236059","912-UM","2018/09/24 17:49:10","新北市土城區中華路二段199號","121.438023333333","24.973985","6501300","土城區"
"236048","913-UM","2018/09/24 17:49:05","新北市土城區城林路6巷80號","121.438538333333","24.9795566666667","6501300","土城區"
"236063","915-UM","2018/09/24 17:49:02","新北市土城區城林路6巷80號","121.438405","24.9796566666667","6501300","土城區"
"236055","AAC-216","2018/09/24 17:49:07","新北市土城區城林路6巷80號","121.43858","24.979595","6501300","土城區"
"242036","AAC-296","2018/09/24 17:49:06","新北市新莊區建福路56號","121.426683333333","25.0273033333333","6500500","新莊區"
"242058","986-R7","2018/09/24 17:49:02","新北市新莊區中正路726-4號","121.41616","25.0243816666667","6500500","新莊區"
"242056","751-BX","2018/09/24 17:48:58","新北市新莊區豐年街55-15號","121.446586666667","25.0304933333333","6500500","新莊區"
"242029","705-TV","2018/09/24 17:49:04","新北市新莊區復興路一段63號","121.44764","25.042355","6500500","新莊區"
"242027","615-BX","2018/09/24 17:49:04","新北市新莊區福壽街175號","121.457973333333","25.0539616666667","6500500","新莊區"
"242025","613-BX","2018/09/24 17:49:11","新北市三重區新北大道二段65號","121.469361666667","25.0613483333333","6500500","新莊區"
"242044","566-BX","2018/09/24 17:49:10","新北市新莊區中正路855巷4號","121.41967","25.0276133333333","6500500","新莊區"
"242048","497-BY","2018/09/24 17:49:11","新北市新莊區萬安街102巷14號","121.420403333333","25.0228466666667","6500500","新莊區"
"242039","415-TV","2018/09/24 17:49:16","新北市新莊區民安路160號","121.424685","25.0245366666667","6500500","新莊區"
"242009","413-TV","2018/09/24 17:49:07","新北市新莊區昌平街59巷20號","121.454128333333","25.05319","6500500","新莊區"
"242046","400-BY","2018/09/24 17:49:16","新北市新莊區建國一路23號","121.433926666667","25.0314333333333","6500500","新莊區"
"242023","362-BY","2018/09/24 17:49:17","新北市新莊區福樂街52號","121.457771666667","25.0459233333333","6500500","新莊區"
"242060","353-BY","2018/09/24 17:49:14","新北市新莊區新樹路493號","121.432665","25.0123383333333","6500500","新莊區"
"242011","132-UY","2018/09/24 17:49:08","新北市新莊區中港路681巷5號","121.450505","25.0561033333333","6500500","新莊區"
"242042","133-UY","2018/09/24 17:49:14","新北市新莊區中正路614巷2弄1號","121.426016666667","25.030335","6500500","新莊區"
"242031","135-UY","2018/09/24 17:49:00","新北市新莊區新泰路321巷11號","121.44412","25.04114","6500500","新莊區"
"242050","172-VK","2018/09/24 17:40:43","新北市新莊區新樹路541號","121.433648333333","25.0083516666667","6500500","新莊區"
"242013","173-VK","2018/09/24 17:49:00","新北市新莊區中誠街166巷8號","121.448095","25.0479266666667","6500500","新莊區"
"242019","175-VK","2018/09/24 17:49:04","新北市新莊區民樂街55號","121.457778333333","25.0415033333333","6500500","新莊區"
"242007","176-VK","2018/09/24 17:49:04","新北市新莊區福樂街108巷24號","121.457875","25.0483016666667","6500500","新莊區"
"242017","346-TH","2018/09/24 17:49:00","新北市新莊區永安街69號","121.451035","25.0445783333333","6500500","新莊區"
"242034","347-TH","2018/09/24 17:49:17","新北市新莊區新樹路6號","121.44061","25.0328466666667","6500500","新莊區"
"242004","349-TH","2018/09/24 17:49:03","新北市新莊區思源路177巷9弄6號","121.458986666667","25.0458883333333","6500500","新莊區"
"242021","350-TH","2018/09/24 17:49:05","新北市新莊區中港路145號","121.455046666667","25.04072","6500500","新莊區"
"242015","351-TH","2018/09/24 17:49:17","新北市新莊區新泰路462號","121.443385","25.0448266666667","6500500","新莊區"
"238015","755-BX","2018/09/24 17:49:15","新北市樹林區復興路67號","121.421513333333","24.9929833333333","6500700","樹林區"
"238018","571-TV","2018/09/24 17:49:12","新北市新莊區新崑路57號","121.43165","24.9993816666667","6500700","樹林區"
"238022","KEA-2213","2018/09/24 17:49:09","新北市樹林區太順街86巷28號","121.416588333333","24.9786466666667","6500700","樹林區"
"238021","KEA-2539","2018/09/24 17:49:02","新北市樹林區柑園街一段36-8號","121.405651666667","24.9617316666667","6500700","樹林區"
"238025","303-VK","2018/09/24 17:49:17","新北市樹林區俊興街209-4號","121.417438333333","25.014215","6500700","樹林區"
"238017","283-BY","2018/09/24 17:49:11","新北市樹林區中正路745號","121.411033333333","25.0147183333333","6500700","樹林區"
"238014","282-BY","2018/09/24 17:48:59","新北市樹林區保安街一段289巷7號","121.414556666667","24.995725","6500700","樹林區"
"238020","268-VK","2018/09/24 17:49:00","新北市樹林區俊英街252號","121.424493333333","25.0110316666667","6500700","樹林區"
"238026","172-UY","2018/09/24 17:48:59","新北市樹林區德和街36號","121.392338333333","24.9786833333333","6500700","樹林區"
"238016","169-UY","2018/09/24 17:49:00","新北市樹林區復興路316號","121.416588333333","24.9869583333333","6500700","樹林區"
"239007","AAC-297","2018/09/24 17:49:03","新北市鶯歌區鶯桃路110-1號","121.338723333333","24.954425","6500800","鶯歌區"
"239006","891-R6","2018/09/24 17:49:03","新北市鶯歌區鶯桃路413巷50號","121.330423333333","24.96338","6500800","鶯歌區"
"239008","527-UM","2018/09/24 17:49:09","新北市鶯歌區大湖路700巷24號","121.333405","24.9766966666667","6500800","鶯歌區"
"239005","526-UM","2018/09/24 17:49:17","新北市鶯歌區鳳吉五街18號","121.326968333333","24.9723233333333","6500800","鶯歌區"
"239001","417-VK","2018/09/24 17:49:14","新北市鶯歌區中正三路438號","121.32392","24.9346033333333","6500800","鶯歌區"
"239003","360-BY","2018/09/24 17:49:09","新北市鶯歌區永吉街46巷43號","121.334486666667","24.9576116666667","6500800","鶯歌區"
"239002","359-BY","2018/09/24 17:48:59","新北市鶯歌區光明街140號","121.344728333333","24.9558016666667","6500800","鶯歌區"
"239004","193-VK","2018/09/24 17:49:02","新北市鶯歌區文化路417-5號","121.352838333333","24.9487716666667","6500800","鶯歌區"
"221008","489-VK","2018/09/24 17:49:00","新北市汐止區汐萬路一段312號","121.650581666667","25.0753833333333","6501100","汐止區"
"221036","130-UY","2018/09/24 17:49:06","新北市汐止區汐萬路一段160號","121.652576666667","25.07143","6501100","汐止區"
"221015","131-UY","2018/09/24 17:49:16","新北市汐止區長江街244號","121.66321","25.0792066666667","6501100","汐止區"
"221010","269-BY","2018/09/24 17:49:04","新北市汐止區汐萬路二段104號","121.648156666667","25.0842916666667","6501100","汐止區"
"221012","278-VK","2018/09/24 17:49:13","新北市汐止區長江街57巷1號","121.656323333333","25.07156","6501100","汐止區"
"221023","279-VK","2018/09/24 17:49:15","新北市汐止區民族二街9號","121.635048333333","25.070895","6501100","汐止區"
"221032","280-BY","2018/09/24 17:49:10","新北市汐止區大同路一段148號","121.631538333333","25.0556383333333","6501100","汐止區"
"221027","281-BY","2018/09/24 17:48:57","新北市汐止區汐萬路一段244-1號","121.651265","25.0735233333333","6501100","汐止區"
"221021","299-VK","2018/09/24 17:49:09","新北市汐止區水源路一段3號","121.657176666667","25.0670816666667","6501100","汐止區"
"221031","353-TW","2018/09/24 17:49:15","新北市汐止區中興路96巷3號","121.635633333333","25.0627016666667","6501100","汐止區"
"221035","622-UM","2018/09/24 17:49:05","新北市汐止區汐萬路一段211巷15號","121.651335","25.07178","6501100","汐止區"
"221025","623-UM","2018/09/24 17:49:12","新北市汐止區大同路二段179號","121.651886666667","25.064355","6501100","汐止區"
"221038","646-BX","2018/09/24 17:49:10","新北市汐止區汐萬路一段115巷50號","121.652913333333","25.07034","6501100","汐止區"
"221002","707-TV","2018/09/24 17:49:02","新北市汐止區康寧街901號","121.651518333333","25.0749033333333","6501100","汐止區"
"242002","281-VK","2018/09/24 17:49:20","新北市新莊區景德路156號","121.45087","25.03417","6500500","新莊區"
"242053","280-VK","2018/09/24 17:49:15","新北市新莊區新樹路709號","121.432033333333","25.0021166666667","6500500","新莊區"
"235061","KEA-2875","2018/09/24 17:24:30","新北市中和區和城路一段271巷1號","121.48541","24.9916966666667","6500300","中和區"
