"lineid","car","time","location","longitude","latitude","cityid","cityname"
"234007","207-UY","2018/09/24 18:19:00","新北市永和區保生路55-4號","121.50474","25.0120766666667","6500400","永和區"
"234070","552-UM","2018/09/24 18:19:04","新北市永和區福和路1號","121.526396666667","25.0100033333333","6500400","永和區"
"234050","863-TW","2018/09/24 18:19:09","新北市永和區福和路1號","121.526543333333","25.0100533333333","6500400","永和區"
"234026","9371-KE","2018/09/24 18:19:18","新北市永和區自強街8巷2號","121.514648333333","25.0078683333333","6500400","永和區"
"249005","172-UM","2018/09/24 18:19:04","新北市八里區荖阡坑路15-40號","121.40166","25.13981","6502300","八里區"
"249001","173-UM","2018/09/24 18:19:03","新北市八里區龍米路一段135號","121.452076666667","25.127","6502300","八里區"
"249004","303-UY","2018/09/24 18:19:07","新北市八里區龍米路二段206巷8號","121.43315","25.158965","6502300","八里區"
"249002","305-UY","2018/09/24 18:19:15","新北市八里區龍形二街36號","121.450791666667","25.1330033333333","6502300","八里區"
"248014","025-BX","2018/09/24 18:19:07","新北市五股區自強路19巷5-1號","121.434635","25.0737466666667","6501500","五股區"
"248016","026-BX","2018/09/24 18:19:03","新北市五股區成泰路三段477巷18號","121.449865","25.09896","6501500","五股區"
"248006","077-UY","2018/09/24 18:19:07","新北市五股區中興路一段132號","121.465298333333","25.0735866666667","6501500","五股區"
"248008","095-VK","2018/09/24 18:19:03","新北市五股區更洲路32巷8弄14號","121.459253333333","25.07964","6501500","五股區"
"248018","225-UY","2018/09/24 18:19:11","新北市五股區御史路160號","121.429553333333","25.1031266666667","6501500","五股區"
"248012","247-BX","2018/09/24 18:19:05","新北市五股區御史路1巷101弄2號","121.441005","25.091145","6501500","五股區"
"248004","677-BX","2018/09/24 18:19:14","新北市五股區成泰路二段222-3號","121.439165","25.0854816666667","6501500","五股區"
"248002","678-BX","2018/09/24 18:19:11","新北市五股區西雲路32號","121.443375","25.0906966666667","6501500","五股區"
"248010","682-TV","2018/09/24 18:19:16","新北市五股區成泰路一段167號","121.435226666667","25.074485","6501500","五股區"
"232011","375-UM","2018/09/24 18:19:09","新北市坪林區坪雙路一段41號","121.711711666667","24.9424833333333","6502000","坪林區"
"244023","069-UM","2018/09/24 18:19:09","新北市林口區東湖路153巷13號","121.382583333333","25.0727183333333","6501700","林口區"
"244007","080-UY","2018/09/24 18:19:10","新北市林口區湖子17-2號","121.384896666667","25.09099","6501700","林口區"
"244019","403-UM","2018/09/24 18:19:03","新北市林口區忠孝路581巷10-1號","121.374761666667","25.06905","6501700","林口區"
"244013","KEA-2802","2018/09/24 18:19:08","新北市林口區佳林路101巷15號","121.386881666667","25.080105","6501700","林口區"
"244017","485-VK","2018/09/24 18:19:18","新北市林口區公園路2號","121.366531666667","25.0659933333333","6501700","林口區"
"244009","657-BX","2018/09/24 18:19:03","新北市林口區松柏路97號","121.378876666667","25.0888866666667","6501700","林口區"
"244011","701-TV","2018/09/24 18:19:02","新北市林口區中正路74巷5弄3號","121.394538333333","25.07797","6501700","林口區"
"244025","837-TS","2018/09/24 18:19:04","新北市林口區南勢七街26號","121.355553333333","25.069065","6501700","林口區"
"244021","838-TS","2018/09/24 18:19:03","新北市林口區自強一街57號","121.3995","25.07742","6501700","林口區"
"243013","AAD-798","2018/09/24 18:19:10","新北市泰山區南泰路6巷1弄16號","121.416923333333","25.0391066666667","6501600","泰山區"
"243016","KEA-2801","2018/09/24 18:19:11","新北市泰山區黎明路33號","121.421665","25.0604633333333","6501600","泰山區"
"222003","436-BY","2018/09/24 18:19:18","新北市深坑區旺耽路67號","121.62628","25.0030166666667","6501800","深坑區"
"222002","659-BX","2018/09/24 18:19:17","新北市深坑區雲鄉路61巷2號","121.621913333333","24.9989083333333","6501800","深坑區"
"231041","002-UM","2018/09/24 18:19:15","新北市新店區安華路28-1號","121.519671666667","24.9608266666667","6500600","新店區"
"231059","046-UY","2018/09/24 18:19:01","新北市新店區安華路28-1號","121.519483333333","24.9608466666667","6500600","新店區"
"231040","047-UY","2018/09/24 18:19:14","新北市新店區安華路28-1號","121.519323333333","24.9609033333333","6500600","新店區"
"231044","106-UY","2018/09/24 18:18:57","新北市新店區安華路28-1號","121.519463333333","24.9609366666667","6500600","新店區"
"231046","107-UY","2018/09/24 18:19:11","新北市新店區直潭七街60號","121.532273333333","24.9397616666667","6500600","新店區"
"231019","108-UY","2018/09/24 18:19:08","新北市新店區安康路一段48號","121.530403333333","24.9610833333333","6500600","新店區"
"231047","187-VK","2018/09/24 18:19:16","新北市新店區安一路一段1-1號","121.519491666667","24.96112","6500600","新店區"
"231054","KEA-2219","2018/09/24 18:19:10","新北市新店區安一路一段1-1號","121.51972","24.961165","6500600","新店區"
"231057","256-BX","2018/09/24 18:19:15","新北市新店區安一路一段1-1號","121.519951666667","24.9611","6500600","新店區"
"231042","268-BY","2018/09/24 18:19:10","新北市新店區安華路1-1號","121.519175","24.96046","6500600","新店區"
"231051","278-BY","2018/09/24 18:19:08","新北市新店區安一路一段1-1號","121.5197","24.9611866666667","6500600","新店區"
"231050","AAD-862","2018/09/24 18:19:14","新北市新店區安華路28-1號","121.519881666667","24.9610083333333","6500600","新店區"
"231043","355-BY","2018/09/24 18:19:06","新北市新店區安華路28-1號","121.519313333333","24.9609066666667","6500600","新店區"
"231058","3713-VJ","2018/09/24 18:19:00","新北市新店區安康路一段35-1號","121.532158333333","24.9605316666667","6500600","新店區"
"231066","4716-K9","2018/09/24 18:19:06","新北市新店區安一路一段1-1號","121.519345","24.96133","6500600","新店區"
"231056","4715-K9","2018/09/24 18:19:12","新北市新店區中正路444號","121.534085","24.9784783333333","6500600","新店區"
"231067","4772-VM","2018/09/24 18:19:07","新北市新店區安華路28-1號","121.51929","24.9605733333333","6500600","新店區"
"231065","512-UM","2018/09/24 18:19:06","新北市新店區安一路一段1-1號","121.519238333333","24.961","6500600","新店區"
"231049","513-UM","2018/09/24 18:19:00","新北市新店區安一路一段1-1號","121.519573333333","24.9611","6500600","新店區"
"231045","617-UM","2018/09/24 18:19:05","新北市新店區安華路28-1號","121.519406666667","24.9609066666667","6500600","新店區"
"231064","719-UM","2018/09/24 18:19:17","新北市新店區安一路一段1-1號","121.519463333333","24.961135","6500600","新店區"
"231062","720-UM","2018/09/24 18:19:06","新北市新店區安一路一段1-1號","121.519141666667","24.961225","6500600","新店區"
"231060","897-TW","2018/09/24 18:19:05","新北市新店區安華路28-1號","121.519561666667","24.96079","6500600","新店區"
"231055","AKT-0513","2018/09/24 18:19:10","新北市新店區北新路二段27-3號","121.542613333333","24.971955","6500600","新店區"
"251014","742-BX","2018/09/24 18:19:18","新北市淡水區南平16-1號","121.48856","25.22156","6501000","淡水區"
"241013","270-UM","2018/09/24 18:19:19","新北市三重區仁昌街30號","121.49657","25.0741316666667","6500200","三重區"
"241033","AAC-255","2018/09/24 18:19:18","新北市三重區中興北街42巷19號","121.468811666667","25.049345","6500200","三重區"
"235066","003-UY","2018/09/24 18:19:12","新北市中和區中山路二段120號","121.502635","25.0037766666667","6500300","中和區"
"235064","005-UY","2018/09/24 18:19:01","新北市中和區圓通路179號","121.497503333333","24.9949716666667","6500300","中和區"
"235027","006-UY","2018/09/24 18:19:11","新北市中和區中正路637巷52弄1號","121.485446666667","24.993345","6500300","中和區"
"235056","096-UM","2018/09/24 18:19:01","新北市中和區中山路二段570號","121.482891666667","25.00521","6500300","中和區"
"235039","097-UM","2018/09/24 18:19:04","新北市中和區景平路412號","121.508295","24.9932266666667","6500300","中和區"
"235065","098-UM","2018/09/24 18:19:10","新北市中和區莊敬路49巷18號","121.501756666667","25.0061183333333","6500300","中和區"
"235058","151-BY","2018/09/24 18:19:17","新北市中和區圓通路369巷35號","121.488926666667","24.9870366666667","6500300","中和區"
"235055","183-VK","2018/09/24 18:19:11","新北市中和區員山路82巷6-3號","121.48127","24.9935583333333","6500300","中和區"
"235038","185-VK","2018/09/24 18:19:15","新北市中和區大智街42巷1-6號","121.521978333333","24.9921583333333","6500300","中和區"
"235049","186-VK","2018/09/24 18:19:17","新北市中和區中正路637巷52弄1號","121.48545","24.9934133333333","6500300","中和區"
"235067","255-BX","2018/09/24 18:19:16","新北市中和區和城路一段271巷1號","121.485783333333","24.99173","6500300","中和區"
"235072","301-VK","2018/09/24 18:19:15","新北市中和區連城路301號","121.489811666667","24.9961366666667","6500300","中和區"
"235043","352-BY","2018/09/24 18:19:04","新北市中和區景平路375號","121.504143333333","24.9933033333333","6500300","中和區"
"235042","KEA-2878","2018/09/24 18:19:14","新北市中和區大仁街120號","121.520898333333","24.99221","6500300","中和區"
"247012","KEA-2869","2018/09/24 18:19:00","新北市五股區中興路二段182巷15弄13號","121.457151666667","25.0812633333333","6501400","蘆洲區"
"235050","4979-A6","2018/09/24 18:19:14","新北市中和區捷運路61巷3號","121.508808333333","24.98953","6500300","中和區"
"235069","4980-A6","2018/09/24 18:18:57","新北市中和區中正路637巷60弄61號","121.485395","24.99327","6500300","中和區"
"235070","558-UM","2018/09/24 18:19:09","新北市中和區圓通路177號","121.497508333333","24.994995","6500300","中和區"
"235054","640-BX","2018/09/24 18:19:09","新北市中和區民享街86巷26號","121.47337","25.000705","6500300","中和區"
"235047","732-UM","2018/09/24 18:19:09","新北市中和區南山路250巷1號","121.507648333333","24.9890516666667","6500300","中和區"
"235046","733-UM","2018/09/24 18:19:13","新北市中和區員山路36巷16-8號","121.485671666667","24.99239","6500300","中和區"
"235062","800-TS","2018/09/24 18:19:17","新北市中和區景平路999巷1號","121.495433333333","25.00602","6500300","中和區"
"235057","801-TS","2018/09/24 18:18:58","新北市中和區民享街97巷17號","121.475381666667","24.9996483333333","6500300","中和區"
"235041","802-TS","2018/09/24 18:19:03","新北市中和區中正路507號","121.48856","24.9936133333333","6500300","中和區"
"235052","805-TS","2018/09/24 18:19:20","新北市中和區興南路二段96號","121.505175","24.9842633333333","6500300","中和區"
"235048","896-TW","2018/09/24 18:19:09","新北市中和區錦和路350-1號","121.490375","24.9935366666667","6500300","中和區"
"235053","900-TW","2018/09/24 18:19:13","新北市中和區中正路637巷60弄61號","121.485476666667","24.9928166666667","6500300","中和區"
"235060","911-UM","2018/09/24 18:19:06","新北市中和區員山路253號","121.48131","24.998905","6500300","中和區"
"235051","157-BY","2018/09/24 18:19:09","新北市中和區忠孝街2-4號","121.509035","24.982955","6500300","中和區"
"235037","AAC-213","2018/09/24 18:19:09","新北市中和區景德街91號","121.516013333333","24.9914516666667","6500300","中和區"
"235059","AAC-215","2018/09/24 18:19:08","新北市中和區員山路36巷16-3號","121.484985","24.991185","6500300","中和區"
"220065","072-UY","2018/09/24 18:19:08","新北市板橋區華東街1-9號","121.448148333333","24.9949716666667","6500100","板橋區"
"228003","097-TW","2018/09/24 18:19:12","新北市貢寮區真理里美艷山街27號","121.923386666667","25.0689533333333","6502600","貢寮區"
"228002","663-BX","2018/09/24 18:19:17","新北市貢寮區福連里馬崗街2-2號","122.000926666667","25.01432","6502600","貢寮區"
"228001","670-TC","2018/09/24 18:19:12","新北市貢寮區真理里新港街26巷55弄2-1號","121.927388333333","25.05286","6502600","貢寮區"
"224006","676-BX","2018/09/24 18:19:06","新北市瑞芳區三爪子坑路106巷112號","121.808563333333","25.1044666666667","6501200","瑞芳區"
"224002","639-TC","2018/09/24 18:19:08","新北市瑞芳區三爪子坑路97號","121.811175","25.1073283333333","6501200","瑞芳區"
"224008","285-BY","2018/09/24 18:19:11","新北市瑞芳區國中新村34號","121.816425","25.1079483333333","6501200","瑞芳區"
"224007","275-VK","2018/09/24 18:19:00","新北市瑞芳區大埔路有勝新村2號","121.76488","25.10151","6501200","瑞芳區"
"224009","273-VK","2018/09/24 18:19:02","新北市瑞芳區祈堂路184號","121.857646666667","25.1094966666667","6501200","瑞芳區"
"224005","271-BY","2018/09/24 18:19:02","新北市瑞芳區建基路二段83號","121.805866666667","25.1340166666667","6501200","瑞芳區"
"227008","642-TC","2018/09/24 18:19:17","新北市雙溪區牡丹里牡丹73號","121.851723333333","25.0593316666667","6502500","雙溪區"
"227001","400-TW","2018/09/24 18:19:06","新北市雙溪區共和里中山路2號","121.863781666667","25.033815","6502500","雙溪區"
"253006","032-BX","2018/09/24 18:19:07","新北市石門區老梅路89號","121.546518333333","25.2891966666667","6502200","石門區"
"253005","295-VK","2018/09/24 18:19:08","新北市石門區中央路37-5號","121.57039","25.2967716666667","6502200","石門區"
"222001","KEA-2212","2018/09/24 18:19:06","新北市深坑區北深路二段66號","121.618921666667","25.0041866666667","6501800","深坑區"
"208002","KEA-2872","2018/09/24 18:19:01","新北市金山區清泉里清水路60巷18號","121.633823333333","25.2341216666667","6502700","金山區"
"208003","665-BX","2018/09/24 18:19:13","新北市金山區民生路14號","121.649453333333","25.2244883333333","6502700","金山區"
"208001","761-BX","2018/09/24 18:19:08","新北市金山區磺港里磺港路73號","121.647566666667","25.2271666666667","6502700","金山區"
"251005","010-UM","2018/09/24 18:19:05","新北市淡水區水源街一段122巷40號","121.447065","25.17061","6501000","淡水區"
"251002","012-UM","2018/09/24 18:18:59","新北市淡水區中正東路一段36號","121.452605","25.162315","6501000","淡水區"
"251013","KEA-2871","2018/09/24 18:19:07","新北市淡水區行忠路750號","121.472318333333","25.1995883333333","6501000","淡水區"
"251016","179-VK","2018/09/24 18:19:14","新北市淡水區淡金路三段224號","121.44892","25.2048033333333","6501000","淡水區"
"251015","180-VK","2018/09/24 18:19:06","新北市淡水區興福寮88巷1號","121.485378333333","25.164945","6501000","淡水區"
"251008","181-VK","2018/09/24 18:19:11","新北市淡水區水源街二段225號","121.460411666667","25.17644","6501000","淡水區"
"251010","413-VK","2018/09/24 18:19:11","新北市淡水區淡海路202號","121.420235","25.1855166666667","6501000","淡水區"
"251012","441-VK","2018/09/24 18:19:16","新北市淡水區北新路二段77-5號","121.480538333333","25.1854983333333","6501000","淡水區"
"251007","442-VK","2018/09/24 18:19:01","新北市淡水區中正東路二段143巷2弄1號","121.460616666667","25.1473066666667","6501000","淡水區"
"251004","443-VK","2018/09/24 18:19:04","新北市淡水區民族路45號","121.462693333333","25.1354333333333","6501000","淡水區"
"251001","559-UM","2018/09/24 18:19:02","新北市淡水區自強路299號","121.461618333333","25.131445","6501000","淡水區"
"251006","561-UM","2018/09/24 18:19:10","新北市淡水區新民街76巷27號","121.439055","25.1774266666667","6501000","淡水區"
"251011","650-BX","2018/09/24 18:19:14","新北市淡水區坪頂路52巷18號","121.457675","25.1624633333333","6501000","淡水區"
"251003","766-UM","2018/09/24 18:19:17","新北市淡水區北新路137號","121.44942","25.1788816666667","6501000","淡水區"
"207003","550-UM","2018/09/24 18:19:02","新北市萬里區野柳里港東新村1-1號","121.686138333333","25.2030233333333","6502800","萬里區"
"207004","225-TW","2018/09/24 18:19:20","新北市萬里區中幅里中福路127號","121.675413333333","25.1657133333333","6502800","萬里區"
"252003","249-BX","2018/09/24 18:19:13","新北市三芝區錫板里海尾14-33號","121.477878333333","25.2598966666667","6502100","三芝區"
"252001","292-VK","2018/09/24 18:19:03","新北市三芝區中興街二段2號","121.498445","25.2566766666667","6502100","三芝區"
"252002","AAC-283","2018/09/24 18:19:01","新北市三芝區中山路二段38號","121.502978333333","25.2551316666667","6502100","三芝區"
"237004","KEA-2597","2018/09/24 18:19:14","新北市三峽區五寮41-6號","121.367575","24.8646933333333","6500900","三峽區"
"237007","153-BY","2018/09/24 18:19:09","新北市三峽區中正路二段474號","121.363443333333","24.9071066666667","6500900","三峽區"
"237009","210-TH","2018/09/24 18:19:04","新北市三峽區大仁路13巷2號","121.366436666667","24.9371483333333","6500900","三峽區"
"237013","252-BX","2018/09/24 18:19:07","新北市三峽區永安街9巷21號","121.37584","24.9293883333333","6500900","三峽區"
"237012","275-BY","2018/09/24 18:19:13","新北市三峽區民生街1巷3-1號","121.377181666667","24.9366616666667","6500900","三峽區"
"237008","302-VK","2018/09/24 18:19:18","新北市三峽區白雞68-29號","121.392386666667","24.9090533333333","6500900","三峽區"
"237014","433-BY","2018/09/24 18:19:14","新北市三峽區復興路80巷14弄2號","121.37354","24.9376733333333","6500900","三峽區"
"237006","5529-G3","2018/09/24 18:19:18","新北市三峽區溪東路231號","121.406345","24.9326483333333","6500900","三峽區"
"237011","KEA-2596","2018/09/24 18:19:08","新北市三峽區溪東路215號","121.405961666667","24.9328083333333","6500900","三峽區"
"237015","649-BX","2018/09/24 18:19:20","新北市三峽區紫新路25巷2號","121.42281","24.921215","6500900","三峽區"
"237010","706-TV","2018/09/24 18:19:09","新北市三峽區仁愛街9號","121.368473333333","24.9338433333333","6500900","三峽區"
"237005","AKY-6261","2018/09/24 18:19:11","新北市三峽區忠孝街19號","121.370963333333","24.9342283333333","6500900","三峽區"
"236069","105-UM","2018/09/24 18:19:10","新北市土城區永豐路236號","121.46731","24.98097","6501300","土城區"
"236042","107-UM","2018/09/24 18:19:04","新北市土城區樂利街3巷30號","121.448605","24.9864916666667","6501300","土城區"
"236078","166-UM","2018/09/24 18:19:11","新北市土城區永安街85號","121.431043333333","24.9640133333333","6501300","土城區"
"236030","253-BX","2018/09/24 18:19:18","新北市土城區順風路41號","121.440723333333","24.976755","6501300","土城區"
"236026","269-VK","2018/09/24 18:19:07","新北市土城區承天路73號","121.440073333333","24.9630533333333","6501300","土城區"
"236014","270-VK","2018/09/24 18:19:12","新北市土城區青雲路39巷7號","121.460326666667","24.987425","6501300","土城區"
"236039","271-VK","2018/09/24 18:19:07","新北市土城區青雲路483巷5號","121.459406666667","24.973975","6501300","土城區"
"236020","401-BY","2018/09/24 18:19:18","新北市土城區明德路一段95號","121.465621666667","24.9831516666667","6501300","土城區"
"236059","912-UM","2018/09/24 18:19:10","新北市土城區中央路四段466號","121.409978333333","24.950565","6501300","土城區"
"236048","913-UM","2018/09/24 18:19:05","新北市土城區明德路一段288-1號","121.456993333333","24.9775883333333","6501300","土城區"
"236063","915-UM","2018/09/24 18:19:02","新北市土城區延壽路44巷14號","121.470971666667","24.99243","6501300","土城區"
"236055","AAC-216","2018/09/24 18:19:07","新北市土城區中華路二段104號","121.438048333333","24.9742866666667","6501300","土城區"
"242058","986-R7","2018/09/24 18:19:18","新北市新莊區中山路三段619號","121.413098333333","25.02497","6500500","新莊區"
"242056","751-BX","2018/09/24 18:18:58","新北市新莊區豐年街豐2巷4號","121.446903333333","25.030735","6500500","新莊區"
"242029","705-TV","2018/09/24 18:19:04","新北市新莊區幸福路904號","121.443075","25.04899","6500500","新莊區"
"242027","615-BX","2018/09/24 18:19:04","新北市新莊區幸福路914號","121.442556666667","25.0490316666667","6500500","新莊區"
"242025","613-BX","2018/09/24 18:19:11","新北市新莊區五權一路12巷20號","121.457461666667","25.06445","6500500","新莊區"
"242044","566-BX","2018/09/24 18:19:02","新北市新莊區中山路三段533巷1號","121.413065","25.027625","6500500","新莊區"
"242009","413-TV","2018/09/24 18:19:07","新北市新莊區中華路二段13號","121.453803333333","25.0456166666667","6500500","新莊區"
"242046","400-BY","2018/09/24 18:19:16","新北市新莊區中正路855巷23弄4號","121.420718333333","25.0268733333333","6500500","新莊區"
"242060","353-BY","2018/09/24 18:19:14","新北市新莊區富國路178號","121.42423","25.0244716666667","6500500","新莊區"
"242011","132-UY","2018/09/24 18:19:14","新北市新莊區中港路583號","121.451125","25.05231","6500500","新莊區"
"242042","133-UY","2018/09/24 18:19:13","新北市新莊區天祥街81巷17號","121.415181666667","25.028505","6500500","新莊區"
"242031","135-UY","2018/09/24 18:19:00","新北市新莊區新泰路255巷39號","121.444593333333","25.039535","6500500","新莊區"
"242050","172-VK","2018/09/24 18:19:03","新北市新莊區民安西路67號","121.42735","25.0200983333333","6500500","新莊區"
"242007","176-VK","2018/09/24 18:19:04","新北市新莊區自信街2號","121.453078333333","25.0481733333333","6500500","新莊區"
"242004","349-TH","2018/09/24 18:19:03","新北市新莊區中平路82巷6號","121.445065","25.04474","6500500","新莊區"
"242021","350-TH","2018/09/24 18:19:04","新北市新莊區新興街22號","121.450775","25.03663","6500500","新莊區"
"242015","351-TH","2018/09/24 18:19:17","新北市新莊區中平路184巷10弄12號","121.445511666667","25.048175","6500500","新莊區"
"238015","755-BX","2018/09/24 18:19:15","新北市樹林區文化街79巷1號","121.416816666667","24.9890666666667","6500700","樹林區"
"238019","599-UM","2018/09/24 18:19:06","新北市樹林區八德街119號","121.421501666667","24.9799616666667","6500700","樹林區"
"238018","571-TV","2018/09/24 18:19:12","新北市樹林區保安街一段16巷26號","121.428456666667","24.9941533333333","6500700","樹林區"
"238024","5061-A6","2018/09/24 18:19:12","新北市樹林區育英街1號","121.422693333333","24.9889283333333","6500700","樹林區"
"238025","303-VK","2018/09/24 18:18:58","新北市樹林區保安街一段92號","121.424176666667","24.9947183333333","6500700","樹林區"
"238017","283-BY","2018/09/24 18:19:00","新北市樹林區光榮街3巷9弄2號","121.412461666667","25.0038366666667","6500700","樹林區"
"238014","282-BY","2018/09/24 18:19:19","新北市樹林區大安路409號","121.415416666667","24.98886","6500700","樹林區"
"238020","268-VK","2018/09/24 18:19:00","新北市樹林區三俊街63號","121.413618333333","25.015875","6500700","樹林區"
"238026","172-UY","2018/09/24 18:18:39","新北市樹林區德和街40號","121.388578333333","24.97984","6500700","樹林區"
"238016","169-UY","2018/09/24 18:19:00","新北市樹林區日新街172巷5號","121.41966","24.988085","6500700","樹林區"
"239007","AAC-297","2018/09/24 18:19:03","新北市鶯歌區尖山埔路64號","121.348478333333","24.9510583333333","6500800","鶯歌區"
"239008","527-UM","2018/09/24 18:19:09","新北市鶯歌區國際一路179號","121.336215","24.97651","6500800","鶯歌區"
"239001","417-VK","2018/09/24 18:19:14","新北市鶯歌區國中街178號","121.338228333333","24.9392083333333","6500800","鶯歌區"
"239003","360-BY","2018/09/24 18:19:09","新北市鶯歌區福安街58號","121.335603333333","24.9652366666667","6500800","鶯歌區"
"239002","359-BY","2018/09/24 18:18:59","新北市鶯歌區中正一路97號","121.35222","24.9551366666667","6500800","鶯歌區"
"221008","489-VK","2018/09/24 18:18:59","新北市汐止區汐萬路一段312號","121.650456666667","25.0754383333333","6501100","汐止區"
"221036","130-UY","2018/09/24 18:19:06","新北市汐止區長興街一段47號","121.670218333333","25.0790733333333","6501100","汐止區"
"221015","131-UY","2018/09/24 18:19:16","新北市汐止區鄉長路二段23巷2號","121.667051666667","25.0828716666667","6501100","汐止區"
"221010","269-BY","2018/09/24 18:19:04","新北市汐止區祥雲街18巷23號","121.647241666667","25.0892816666667","6501100","汐止區"
"221012","278-VK","2018/09/24 18:19:13","新北市汐止區保長路35巷23號","121.673573333333","25.0805266666667","6501100","汐止區"
"221023","279-VK","2018/09/24 18:19:15","新北市汐止區中興路244號","121.629511666667","25.06813","6501100","汐止區"
"221032","280-BY","2018/09/24 18:19:10","新北市汐止區橫科路6號","121.617513333333","25.0513433333333","6501100","汐止區"
"221027","281-BY","2018/09/24 18:19:17","新北市汐止區和平街3-1號","121.663496666667","25.070645","6501100","汐止區"
"221029","298-VK","2018/09/24 18:19:10","新北市汐止區康寧街901號","121.65114","25.0751583333333","6501100","汐止區"
"221021","299-VK","2018/09/24 18:19:09","新北市汐止區連興街120號","121.653736666667","25.0624866666667","6501100","汐止區"
"221031","353-TW","2018/09/24 18:19:15","新北市汐止區光復街8巷22號","121.638093333333","25.0572616666667","6501100","汐止區"
"221035","622-UM","2018/09/24 18:19:05","新北市汐止區大同路二段187巷6弄1號","121.652488333333","25.06536","6501100","汐止區"
"221025","623-UM","2018/09/24 18:19:12","新北市汐止區勤進路12巷29號","121.659236666667","25.0624333333333","6501100","汐止區"
"221038","646-BX","2018/09/24 18:19:10","新北市汐止區仁愛路317號","121.664503333333","25.067535","6501100","汐止區"
"221002","707-TV","2018/09/24 18:19:02","新北市汐止區福德一路201巷30號","121.635935","25.0650416666667","6501100","汐止區"
"221018","753-BX","2018/09/24 18:19:11","新北市汐止區茄苳路123號","121.667636666667","25.0705683333333","6501100","汐止區"
"242002","281-VK","2018/09/24 18:19:11","新北市新莊區環漢路二段385號","121.451305","25.03274","6500500","新莊區"
"242053","280-VK","2018/09/24 18:19:06","新北市新莊區西盛街395巷25弄13號","121.428355","25.0120283333333","6500500","新莊區"
"235068","KEA-2873","2018/09/24 18:19:02","新北市中和區員山路36巷16-3號","121.485108333333","24.99125","6500300","中和區"
"235061","KEA-2875","2018/09/24 18:19:01","新北市中和區莒光路158號","121.472416666667","25.0003533333333","6500300","中和區"
