"lineid","car","time","location","longitude","latitude","cityid","cityname"
"234046","148-BY","2018/09/24 19:39:17","新北市永和區秀朗路二段84號","121.523296666667","25.0016116666667","6500400","永和區"
"234007","207-UY","2018/09/24 19:39:00","新北市永和區中和路525號","121.511233333333","25.0028566666667","6500400","永和區"
"234081","298-R6","2018/09/24 19:39:13","新北市永和區國中路104巷6號","121.524726666667","25.0068816666667","6500400","永和區"
"234038","336-UY","2018/09/24 19:39:18","新北市永和區民樂街24號","121.527606666667","25.0017416666667","6500400","永和區"
"234064","337-UY","2018/09/24 19:39:18","新北市永和區秀朗路一段192巷6弄14號","121.519081666667","25.0022116666667","6500400","永和區"
"234086","338-UY","2018/09/24 19:39:10","新北市永和區永亨路165巷8號","121.52622","25.0041666666667","6500400","永和區"
"234070","552-UM","2018/09/24 19:39:04","新北市永和區永和路二段181號","121.515373333333","25.0133983333333","6500400","永和區"
"234017","745-BX","2018/09/24 19:39:13","新北市永和區永和路二段425巷62號","121.513683333333","25.0173166666667","6500400","永和區"
"234030","746-BX","2018/09/24 19:39:11","新北市永和區四維街119號","121.523183333333","24.9982116666667","6500400","永和區"
"234054","KEA-2590","2018/09/24 19:39:00","新北市永和區竹林路39巷3號","121.51815","25.01449","6500400","永和區"
"234013","KEA-2591","2018/09/24 19:39:00","新北市永和區仁愛路230號","121.508681666667","25.0119133333333","6500400","永和區"
"234061","AAD-866","2018/09/24 19:39:17","新北市永和區中正路456號","121.517443333333","25.0029283333333","6500400","永和區"
"234042","862-TW","2018/09/24 19:39:15","新北市永和區中和路305巷2弄1號","121.50665","25.0000433333333","6500400","永和區"
"234026","9371-KE","2018/09/24 19:39:03","新北市中和區中和路390號","121.511156666667","25.00252","6500400","永和區"
"234011","9373-KE","2018/09/24 19:39:10","新北市永和區保生路55號","121.504566666667","25.0108116666667","6500400","永和區"
"249004","303-UY","2018/09/24 19:39:15","新北市八里區中山路一段268巷5弄25號","121.414296666667","25.1608016666667","6502300","八里區"
"249002","305-UY","2018/09/24 19:39:06","新北市八里區頂寮二街35號","121.450241666667","25.12511","6502300","八里區"
"249003","593-UM","2018/09/24 19:39:17","新北市八里區中華路二段506-1號","121.399615","25.145725","6502300","八里區"
"248014","025-BX","2018/09/24 19:39:02","新北市五股區五福路52巷3弄8號","121.433403333333","25.09009","6501500","五股區"
"248016","026-BX","2018/09/24 19:39:03","新北市五股區成泰路四段22巷43號","121.45603","25.108935","6501500","五股區"
"248008","095-VK","2018/09/24 19:39:03","新北市五股區四維路118巷9號","121.46885","25.0743916666667","6501500","五股區"
"248018","225-UY","2018/09/24 19:39:11","新北市五股區外寮路6號","121.424173333333","25.0774833333333","6501500","五股區"
"248012","247-BX","2018/09/24 19:39:05","新北市五股區成泰路一段241巷5號","121.436076666667","25.080945","6501500","五股區"
"248004","677-BX","2018/09/24 19:39:14","新北市五股區成泰路二段7號","121.437021666667","25.08131","6501500","五股區"
"248002","678-BX","2018/09/24 19:39:18","新北市五股區成泰路三段577巷75號","121.449908333333","25.1036183333333","6501500","五股區"
"248010","682-TV","2018/09/24 19:39:16","新北市五股區自強路148號","121.432245","25.07056","6501500","五股區"
"234077","969-R7","2018/09/24 19:39:08","新北市永和區民族街67巷25號","121.519555","24.997215","6500400","永和區"
"234074","AAC-211","2018/09/24 19:39:18","新北市永和區竹林路223號","121.520885","25.008565","6500400","永和區"
"234067","AAC-212","2018/09/24 19:39:10","新北市永和區中山路一段191巷7弄2號","121.50955","25.0081966666667","6500400","永和區"
"234003","AAC-295","2018/09/24 19:39:17","新北市永和區自由街58號","121.513775","25.00582","6500400","永和區"
"244023","069-UM","2018/09/24 19:39:08","新北市林口區仁愛路二段700號","121.36924","25.080805","6501700","林口區"
"244019","403-UM","2018/09/24 19:38:43","新北市八里區中山路三段409號","121.368508333333","25.1343966666667","6501700","林口區"
"243013","AAD-798","2018/09/24 19:38:26","新北市泰山區應化街7號","121.423881666667","25.0437133333333","6501600","泰山區"
"243009","297-R6","2018/09/24 19:39:05","新北市泰山區美寧街68號","121.43104","25.0646716666667","6501600","泰山區"
"243016","KEA-2801","2018/09/24 19:39:12","新北市泰山區明志路三段354號","121.420878333333","25.0349916666667","6501600","泰山區"
"243015","421-VK","2018/09/24 19:39:02","新北市泰山區民權街94號","121.428213333333","25.049965","6501600","泰山區"
"243011","KEA-2215","2018/09/24 19:39:05","新北市泰山區貴子路67巷13號","121.430786666667","25.040495","6501600","泰山區"
"243010","KEA-2216","2018/09/24 19:39:01","新北市泰山區明志路二段7巷2號","121.430315","25.0534916666667","6501600","泰山區"
"243012","646-TV","2018/09/24 19:39:15","新北市泰山區仁愛路100巷30號","121.433441666667","25.0550216666667","6501600","泰山區"
"243014","680-BX","2018/09/24 19:39:09","新北市泰山區泰林路二段33-8號","121.435153333333","25.05663","6501600","泰山區"
"222003","436-BY","2018/09/24 19:39:18","新北市深坑區深南路51-1號","121.621178333333","25.0098233333333","6501800","深坑區"
"222002","659-BX","2018/09/24 19:39:15","新北市深坑區北深路一段177號","121.632491666667","25.01088","6501800","深坑區"
"231041","002-UM","2018/09/24 19:39:15","新北市新店區中正路485號","121.533946666667","24.98201","6500600","新店區"
"231059","046-UY","2018/09/24 19:39:20","新北市新店區安和路三段89號","121.517855","24.9839883333333","6500600","新店區"
"231040","047-UY","2018/09/24 19:39:14","新北市新店區中正路75巷71號","121.543136666667","24.968845","6500600","新店區"
"231044","106-UY","2018/09/24 19:39:17","新北市新店區北新路三段199號","121.540723333333","24.9849516666667","6500600","新店區"
"231046","107-UY","2018/09/24 19:39:10","新北市新店區中正路329巷1弄2號","121.535561666667","24.9748233333333","6500600","新店區"
"231052","108-UY","2018/09/24 19:39:12","新北市新店區新烏路二段333號","121.550268333333","24.9104766666667","6500600","新店區"
"231047","187-VK","2018/09/24 19:39:16","新北市新店區五峰路63巷8弄42號","121.547863333333","24.9686883333333","6500600","新店區"
"231054","KEA-2219","2018/09/24 19:39:10","新北市新店區文中路45號","121.539618333333","24.95668","6500600","新店區"
"231057","256-BX","2018/09/24 19:39:16","新北市新店區橘園一路11號","121.547943333333","24.9340283333333","6500600","新店區"
"231042","268-BY","2018/09/24 19:39:13","新北市新店區中興路一段185號","121.54305","24.96496","6500600","新店區"
"231051","278-BY","2018/09/24 19:39:08","新北市新店區中央路210-1號","121.53","24.9737033333333","6500600","新店區"
"231050","AAD-862","2018/09/24 19:39:14","新北市新店區秀水路31號","121.55491","24.9551916666667","6500600","新店區"
"231043","355-BY","2018/09/24 19:39:06","新北市新店區中正路156號","121.541495","24.9717416666667","6500600","新店區"
"231058","3713-VJ","2018/09/24 19:39:00","新北市新店區北新路一段98號","121.541996666667","24.9688716666667","6500600","新店區"
"231066","4716-K9","2018/09/24 19:39:10","新北市新店區安康路三段165巷2弄4號","121.48943","24.9513433333333","6500600","新店區"
"231056","4715-K9","2018/09/24 19:39:00","新北市新店區安興路135號","121.516066666667","24.9793983333333","6500600","新店區"
"231065","512-UM","2018/09/24 19:39:14","新北市新店區安祥路109巷85弄1號","121.47786","24.960335","6500600","新店區"
"231049","513-UM","2018/09/24 19:39:00","新北市新店區大豐路57號","121.539841666667","24.979665","6500600","新店區"
"231063","616-UM","2018/09/24 19:39:20","新北市新店區達觀路26號","121.501956666667","24.9405533333333","6500600","新店區"
"231045","617-UM","2018/09/24 19:39:05","新北市新店區北宜路二段150-2號","121.557856666667","24.9539766666667","6500600","新店區"
"231061","619-UM","2018/09/24 19:39:13","新北市新店區安民街123號","121.5163","24.9687066666667","6500600","新店區"
"231064","719-UM","2018/09/24 19:38:24","新北市新店區安和路一段52巷2號","121.517656666667","24.9662366666667","6500600","新店區"
"231062","720-UM","2018/09/24 19:39:06","新北市新店區秀山路40號","121.532125","24.9598866666667","6500600","新店區"
"231060","897-TW","2018/09/24 19:39:05","新北市新店區安康路二段161號","121.510206666667","24.9594033333333","6500600","新店區"
"231055","AKT-0513","2018/09/24 19:39:09","新北市新店區新生街1號","121.540356666667","24.965615","6500600","新店區"
"241011","013-R5","2018/09/24 19:39:00","新北市三重區秀江街110號","121.499265","25.0720366666667","6500200","三重區"
"241028","022-UY","2018/09/24 19:39:11","新北市三重區中正南路163號","121.493815","25.056045","6500200","三重區"
"241008","059-VK","2018/09/24 19:39:17","新北市三重區永福街133號","121.4788","25.0768616666667","6500200","三重區"
"241031","061-VK","2018/09/24 19:39:02","新北市三重區重新路四段250-1號","121.486025","25.0534316666667","6500200","三重區"
"241015","062-VK","2018/09/24 19:39:03","新北市三重區福德北路34號","121.502065","25.06524","6500200","三重區"
"241017","063-VK","2018/09/24 19:39:17","新北市三重區重陽路三段5巷48號","121.492116666667","25.06488","6500200","三重區"
"241003","091-VK","2018/09/24 19:39:08","新北市三重區五華街93巷64號","121.494071666667","25.085155","6500200","三重區"
"251014","742-BX","2018/09/24 19:39:18","新北市淡水區桂竹圍4-2號","121.474561666667","25.2318","6501000","淡水區"
"241009","267-UM","2018/09/24 19:39:13","新北市三重區三和路四段406巷10號","121.480533333333","25.0794883333333","6500200","三重區"
"241025","271-UM","2018/09/24 19:38:59","新北市三重區大有街1-1號","121.477686666667","25.0655133333333","6500200","三重區"
"241007","398-BY","2018/09/24 19:39:13","新北市三重區三和路四段125巷74號","121.487243333333","25.0785933333333","6500200","三重區"
"241035","462-BY","2018/09/24 19:39:02","新北市三重區正義北路65號","121.49724","25.064645","6500200","三重區"
"241004","475-VK","2018/09/24 19:39:03","新北市三重區五華街74號","121.493376666667","25.082025","6500200","三重區"
"241020","478-VK","2018/09/24 19:39:10","新北市三重區自強路三段43巷23號","121.487913333333","25.0729816666667","6500200","三重區"
"241030","480-VK","2018/09/24 19:39:10","新北市三重區新興路28巷11號","121.491708333333","25.0529316666667","6500200","三重區"
"241014","543-UM","2018/09/24 19:39:05","新北市三重區長榮路120號","121.503468333333","25.0694266666667","6500200","三重區"
"241023","545-UM","2018/09/24 19:39:08","新北市三重區忠孝路三段99巷21號","121.47942","25.064545","6500200","三重區"
"241006","AAD-863","2018/09/24 19:39:19","新北市三重區聯華街92號","121.48562","25.07524","6500200","三重區"
"241026","743-BX","2018/09/24 19:39:14","新北市三重區光興街43號","121.499358333333","25.0602533333333","6500200","三重區"
"241022","887-TS","2018/09/24 19:39:06","新北市三重區三民街157巷2號","121.483806666667","25.0646216666667","6500200","三重區"
"241012","941-UM","2018/09/24 19:39:11","新北市三重區河邊北街256巷35號","121.500513333333","25.0759766666667","6500200","三重區"
"241029","942-UM","2018/09/24 19:39:18","新北市三重區同安街143號","121.493136666667","25.0560816666667","6500200","三重區"
"235066","003-UY","2018/09/24 19:39:12","新北市中和區景新街162號","121.505808333333","24.9971366666667","6500300","中和區"
"235064","005-UY","2018/09/24 19:39:20","新北市中和區南華路41號","121.503643333333","24.9966816666667","6500300","中和區"
"235027","006-UY","2018/09/24 19:39:12","新北市中和區連城路174號","121.49331","24.9971633333333","6500300","中和區"
"235056","096-UM","2018/09/24 19:39:01","新北市中和區員山路581巷2弄30號","121.477408333333","25.0100933333333","6500300","中和區"
"235039","097-UM","2018/09/24 19:39:04","新北市中和區景平路148號","121.51831","24.991975","6500300","中和區"
"235065","098-UM","2018/09/24 19:39:12","新北市中和區福祥路38號","121.499406666667","25.00381","6500300","中和區"
"235040","150-BY","2018/09/24 19:39:13","新北市中和區宜安路92巷1號","121.51074","24.9977766666667","6500300","中和區"
"235058","151-BY","2018/09/24 19:39:17","新北市中和區員山路124巷40號","121.482531666667","24.9960166666667","6500300","中和區"
"235055","183-VK","2018/09/24 19:39:10","新北市中和區中山路三段181巷2號","121.472831666667","25.00598","6500300","中和區"
"235038","185-VK","2018/09/24 19:39:15","新北市中和區自立路18號","121.522091666667","24.99349","6500300","中和區"
"235049","186-VK","2018/09/24 19:39:16","新北市中和區安平路14號","121.509201666667","24.99412","6500300","中和區"
"235067","255-BX","2018/09/24 19:39:16","新北市中和區新生街227號","121.483825","24.9992816666667","6500300","中和區"
"235044","293-VK","2018/09/24 19:39:15","新北市中和區捷運路22-2號","121.5086","24.9901616666667","6500300","中和區"
"235072","301-VK","2018/09/24 19:39:15","新北市中和區連城路281巷2弄13號","121.490228333333","24.9957266666667","6500300","中和區"
"235043","352-BY","2018/09/24 19:39:15","新北市中和區興南路一段57號","121.510638333333","24.9899866666667","6500300","中和區"
"235042","KEA-2878","2018/09/24 19:39:14","新北市中和區景安路79巷37弄16-6號","121.508336666667","24.996115","6500300","中和區"
"247012","KEA-2869","2018/09/24 19:39:18","新北市五股區中興路三段163號","121.44935","25.0807183333333","6501400","蘆洲區"
"235050","4979-A6","2018/09/24 19:39:13","新北市中和區員山路36巷16-2號","121.485298333333","24.9916633333333","6500300","中和區"
"235070","558-UM","2018/09/24 19:39:09","新北市中和區連勝街59號","121.497585","24.9971466666667","6500300","中和區"
"235045","565-BX","2018/09/24 19:39:15","新北市中和區景新街487號","121.513591666667","24.9874483333333","6500300","中和區"
"235054","640-BX","2018/09/24 19:39:09","新北市中和區國光街107巷2弄32號","121.469296666667","24.99901","6500300","中和區"
"235047","732-UM","2018/09/24 19:39:09","新北市中和區景平路329巷2弄8號","121.505536666667","24.9929733333333","6500300","中和區"
"235046","733-UM","2018/09/24 19:39:13","新北市中和區忠孝街67號","121.511921666667","24.984795","6500300","中和區"
"235071","783-BX","2018/09/24 19:39:07","新北市中和區民樂路81號","121.484735","25.001295","6500300","中和區"
"235057","801-TS","2018/09/24 19:39:18","新北市中和區員山路182號","121.481311666667","25.0002266666667","6500300","中和區"
"235041","802-TS","2018/09/24 19:39:07","新北市中和區永貞路245號","121.513066666667","25.0039916666667","6500300","中和區"
"235052","805-TS","2018/09/24 19:39:20","新北市中和區華新街206巷23號","121.50605","24.9827966666667","6500300","中和區"
"235048","896-TW","2018/09/24 19:39:09","新北市中和區忠孝街1巷2-1號","121.50921","24.983135","6500300","中和區"
"235053","900-TW","2018/09/24 19:39:13","新北市中和區國光街211號","121.466501666667","25.0019066666667","6500300","中和區"
"235060","911-UM","2018/09/24 19:39:06","新北市中和區中山路二段523巷10弄2號","121.481558333333","25.0045833333333","6500300","中和區"
"235051","157-BY","2018/09/24 19:39:09","新北市中和區中興街148號","121.498993333333","24.991625","6500300","中和區"
"235037","AAC-213","2018/09/24 19:39:09","新北市中和區秀朗路三段50巷2-1號","121.5257","24.9955783333333","6500300","中和區"
"235059","AAC-215","2018/09/24 19:39:08","新北市中和區錦和路203巷1號","121.491025","24.9904316666667","6500300","中和區"
"220068","013-TV","2018/09/24 19:39:13","新北市板橋區萬安街3號","121.48473","25.0224016666667","6500100","板橋區"
"220065","072-UY","2018/09/24 19:39:08","新北市板橋區國泰街39巷5弄9號","121.468731666667","25.0061083333333","6500100","板橋區"
"220086","073-UY","2018/09/24 19:39:02","新北市板橋區中正路236巷25號","121.456998333333","25.019275","6500100","板橋區"
"220106","075-UY","2018/09/24 19:39:06","新北市板橋區民治街26巷16號","121.477353333333","25.0336316666667","6500100","板橋區"
"220069","AAD-861","2018/09/24 19:39:21","新北市板橋區稚暉街2巷46號","121.455186666667","25.0029166666667","6500100","板橋區"
"247008","336-TH","2018/09/24 19:39:21","新北市蘆洲區中山二路45巷30號","121.474268333333","25.0812583333333","6501400","蘆洲區"
"247004","002-UY","2018/09/24 19:39:09","新北市蘆洲區長安街108巷28號","121.462258333333","25.0825266666667","6501400","蘆洲區"
"228003","097-TW","2018/09/24 19:39:12","新北市貢寮區真理里美艷山街31號","121.923271666667","25.0690583333333","6502600","貢寮區"
"228001","670-TC","2018/09/24 19:39:12","新北市貢寮區真理里延平街49號","121.92468","25.0556266666667","6502600","貢寮區"
"224006","676-BX","2018/09/24 19:39:06","新北市瑞芳區靜安路四段5號","121.796076666667","25.0784716666667","6501200","瑞芳區"
"224002","639-TC","2018/09/24 19:39:14","新北市瑞芳區三爪子坑路13巷281-6號","121.81452","25.10641","6501200","瑞芳區"
"224008","272-VK","2018/09/24 19:39:17","新北市瑞芳區瑞芳街86號","121.80218","25.1100466666667","6501200","瑞芳區"
"227008","642-TC","2018/09/24 19:39:17","新北市雙溪區新基里新基北街22號","121.867235","25.038925","6502500","雙溪區"
"227001","400-TW","2018/09/24 19:39:06","新北市雙溪區雙溪里太平路60號","121.865015","25.0357916666667","6502500","雙溪區"
"253006","032-BX","2018/09/24 19:39:07","新北市石門區楓林23-20號","121.537896666667","25.2905366666667","6502200","石門區"
"222001","KEA-2212","2018/09/24 19:39:06","新北市深坑區深坑街148號","121.613086666667","25.001335","6501800","深坑區"
"208002","KEA-2872","2018/09/24 19:39:01","新北市金山區中山路313巷25號","121.635066666667","25.222955","6502700","金山區"
"208003","665-BX","2018/09/24 19:39:13","新北市金山區仁愛路37-12號","121.63585","25.2201766666667","6502700","金山區"
"208001","761-BX","2018/09/24 19:39:08","新北市金山區南勢72號","121.626826666667","25.2204233333333","6502700","金山區"
"251005","010-UM","2018/09/24 19:39:04","新北市淡水區原德路110號","121.443473333333","25.17383","6501000","淡水區"
"251013","KEA-2871","2018/09/24 19:39:11","新北市淡水區頂田寮路143號","121.461275","25.21639","6501000","淡水區"
"251016","179-VK","2018/09/24 19:39:11","新北市淡水區下圭柔山119-51號","121.450716666667","25.208475","6501000","淡水區"
"251015","180-VK","2018/09/24 19:39:06","新北市淡水區泉洲厝8號","121.485401666667","25.188865","6501000","淡水區"
"251008","181-VK","2018/09/24 19:39:11","新北市淡水區中正路32巷1號","121.430983333333","25.1753616666667","6501000","淡水區"
"251010","413-VK","2018/09/24 19:39:11","新北市淡水區濱海路二段202巷27號","121.435048333333","25.1927033333333","6501000","淡水區"
"251012","441-VK","2018/09/24 19:39:16","新北市淡水區中山北路三段138號","121.445766666667","25.1947433333333","6501000","淡水區"
"251007","442-VK","2018/09/24 19:39:21","新北市淡水區坪頂路40號","121.457496666667","25.1623483333333","6501000","淡水區"
"251001","559-UM","2018/09/24 19:39:01","新北市淡水區民權路49號","121.4599","25.13915","6501000","淡水區"
"251006","561-UM","2018/09/24 19:39:10","新北市淡水區中山北路一段207巷70號","121.441636666667","25.1793083333333","6501000","淡水區"
"251009","575-R6","2018/09/24 19:39:02","新北市淡水區中山北路一段198巷15號","121.44542","25.17925","6501000","淡水區"
"251011","650-BX","2018/09/24 19:39:16","新北市淡水區中正東路二段5巷17號","121.46018","25.1590433333333","6501000","淡水區"
"207003","550-UM","2018/09/24 19:39:22","新北市萬里區大鵬里萬里加投301-2號","121.645843333333","25.221005","6502800","萬里區"
"207004","225-TW","2018/09/24 19:39:00","新北市萬里區萬里里瑪鋉路53號","121.687936666667","25.1761083333333","6502800","萬里區"
"252001","292-VK","2018/09/24 19:39:03","新北市三芝區公正街66號","121.49978","25.2574733333333","6502100","三芝區"
"252002","AAC-283","2018/09/24 19:39:01","新北市三芝區中正路一段18巷50號","121.5041","25.2588833333333","6502100","三芝區"
"237004","KEA-2597","2018/09/24 19:39:14","新北市三峽區插角232號","121.413981666667","24.86903","6500900","三峽區"
"237007","153-BY","2018/09/24 19:39:09","新北市三峽區二鬮路136巷20弄35號","121.357163333333","24.9100533333333","6500900","三峽區"
"237009","210-TH","2018/09/24 19:39:03","新北市三峽區中園街20-1號","121.368221666667","24.9268233333333","6500900","三峽區"
"237013","252-BX","2018/09/24 19:39:07","新北市三峽區介壽路二段91號","121.39207","24.9354166666667","6500900","三峽區"
"237012","275-BY","2018/09/24 19:39:13","新北市三峽區中華路36號","121.373461666667","24.9320233333333","6500900","三峽區"
"237008","302-VK","2018/09/24 19:39:17","新北市三峽區永安街95巷22號","121.374523333333","24.92837","6500900","三峽區"
"237014","433-BY","2018/09/24 19:39:13","新北市三峽區大利路24號","121.367508333333","24.9117266666667","6500900","三峽區"
"237006","5529-G3","2018/09/24 19:39:17","新北市三峽區中正路一段336巷15弄2號","121.369976666667","24.9249366666667","6500900","三峽區"
"237011","KEA-2596","2018/09/24 19:39:08","新北市三峽區介壽路三段26-1號","121.395926666667","24.93657","6500900","三峽區"
"237015","649-BX","2018/09/24 19:39:20","新北市三峽區成福路261號","121.428006666667","24.9235683333333","6500900","三峽區"
"237010","706-TV","2018/09/24 19:39:09","新北市三峽區復興路49號","121.373335","24.937035","6500900","三峽區"
"237005","AKY-6261","2018/09/24 19:39:11","新北市三峽區中山路169巷11弄2號","121.364251666667","24.9359766666667","6500900","三峽區"
"236069","105-UM","2018/09/24 19:39:10","新北市土城區明德路二段65號","121.45151","24.980985","6501300","土城區"
"236042","107-UM","2018/09/24 19:39:19","新北市土城區裕民路253號","121.454718333333","24.9830783333333","6501300","土城區"
"236078","166-UM","2018/09/24 19:39:11","新北市土城區中州路12巷13號","121.415078333333","24.9574916666667","6501300","土城區"
"236030","253-BX","2018/09/24 19:39:18","新北市土城區福祥街77號","121.44122","24.9808983333333","6501300","土城區"
"236026","269-VK","2018/09/24 19:39:07","新北市土城區中央路二段61巷22號","121.443233333333","24.9787816666667","6501300","土城區"
"236039","271-VK","2018/09/24 19:39:16","新北市土城區青雲路281巷13弄4號","121.459871666667","24.98026","6501300","土城區"
"236020","401-BY","2018/09/24 19:39:18","新北市土城區峰廷街2號","121.468568333333","24.9878016666667","6501300","土城區"
"236048","913-UM","2018/09/24 19:39:12","新北市土城區明德路一段137-4號","121.465396666667","24.9808816666667","6501300","土城區"
"236063","915-UM","2018/09/24 19:39:22","新北市土城區延平街45號","121.467931666667","24.992215","6501300","土城區"
"236055","AAC-216","2018/09/24 19:39:11","新北市土城區學府路一段6號","121.459685","24.988425","6501300","土城區"
"242056","751-BX","2018/09/24 19:39:04","新北市新莊區瓊林路59-28號","121.444285","25.0265116666667","6500500","新莊區"
"242048","497-BY","2018/09/24 19:39:11","新北市新莊區後港一路17巷22-1號","121.424365","25.026705","6500500","新莊區"
"242023","362-BY","2018/09/24 19:39:04","新北市新莊區復興路三段71-1號","121.46256","25.0445683333333","6500500","新莊區"
"242031","135-UY","2018/09/24 19:39:02","新北市新莊區新泰路213巷37號","121.444531666667","25.03836","6500500","新莊區"
"242013","173-VK","2018/09/24 19:38:53","新北市新莊區中誠街147巷2號","121.448663333333","25.0472216666667","6500500","新莊區"
"242034","347-TH","2018/09/24 19:39:16","新北市新莊區仁愛街17號","121.444215","25.03559","6500500","新莊區"
"242015","351-TH","2018/09/24 19:39:16","新北市新莊區三和路12-10號","121.442298333333","25.0367283333333","6500500","新莊區"
"238015","755-BX","2018/09/24 19:39:18","新北市樹林區中興街55-4號","121.421018333333","24.991105","6500700","樹林區"
"238019","599-UM","2018/09/24 19:39:06","新北市樹林區東陽街1號","121.412705","24.9824066666667","6500700","樹林區"
"238018","571-TV","2018/09/24 19:39:07","新北市樹林區中華路7號","121.424488333333","24.983845","6500700","樹林區"
"238024","5061-A6","2018/09/24 19:39:11","新北市樹林區中山路三段22號","121.395718333333","24.9730066666667","6500700","樹林區"
"238022","KEA-2213","2018/09/24 19:39:09","新北市樹林區國凱街32-2號","121.419718333333","24.9785666666667","6500700","樹林區"
"238021","KEA-2539","2018/09/24 19:39:11","新北市樹林區佳園路三段149號","121.385718333333","24.94921","6500700","樹林區"
"238025","303-VK","2018/09/24 19:39:17","新北市樹林區中山路一段73-1號","121.423536666667","24.991655","6500700","樹林區"
"238017","283-BY","2018/09/24 19:39:00","新北市樹林區保安街二段107巷1號","121.414981666667","25.0008116666667","6500700","樹林區"
"238014","282-BY","2018/09/24 19:39:19","新北市樹林區千歲街30巷30弄2號","121.425848333333","24.9963816666667","6500700","樹林區"
"238020","268-VK","2018/09/24 19:39:17","新北市樹林區俊英街3-2號","121.429761666667","24.999895","6500700","樹林區"
"238026","172-UY","2018/09/24 19:38:59","新北市樹林區佳園路二段141號","121.390158333333","24.9578116666667","6500700","樹林區"
"238016","169-UY","2018/09/24 19:39:18","新北市樹林區東和街9號","121.404275","24.9806716666667","6500700","樹林區"
"239007","AAC-297","2018/09/24 19:39:05","新北市鶯歌區大湖路余厝巷11號","121.341943333333","24.9614516666667","6500800","鶯歌區"
"239006","891-R6","2018/09/24 19:39:02","新北市鶯歌區永昌街180號","121.339536666667","24.9504516666667","6500800","鶯歌區"
"239008","527-UM","2018/09/24 19:39:09","新北市鶯歌區大湖路333號","121.341518333333","24.9725016666667","6500800","鶯歌區"
"239005","526-UM","2018/09/24 19:39:17","新北市鶯歌區中湖街301巷1號","121.348075","24.9771766666667","6500800","鶯歌區"
"239003","360-BY","2018/09/24 19:38:48","新北市鶯歌區文化路427-5號","121.354665","24.9477866666667","6500800","鶯歌區"
"239004","193-VK","2018/09/24 19:39:02","新北市鶯歌區二甲路37號","121.340605","24.936775","6500800","鶯歌區"
"221008","489-VK","2018/09/24 19:39:19","新北市汐止區康寧街145號","121.62179","25.0666383333333","6501100","汐止區"
"221015","131-UY","2018/09/24 19:39:15","新北市汐止區康寧街901號","121.651493333333","25.0751033333333","6501100","汐止區"
"221010","269-BY","2018/09/24 19:39:04","新北市汐止區汐萬路二段9號","121.649351666667","25.08062","6501100","汐止區"
"221012","278-VK","2018/09/24 19:39:13","新北市汐止區大同路三段334號","121.679675","25.070995","6501100","汐止區"
"221023","279-VK","2018/09/24 19:39:15","新北市汐止區民族六街21-2號","121.630098333333","25.0689833333333","6501100","汐止區"
"221027","281-BY","2018/09/24 19:38:57","新北市汐止區忠孝東路9號","121.658291666667","25.0659033333333","6501100","汐止區"
"221029","298-VK","2018/09/24 19:39:10","新北市汐止區康寧街901號","121.651596666667","25.07494","6501100","汐止區"
"221021","299-VK","2018/09/24 19:39:09","新北市汐止區大同路二段175號","121.651656666667","25.0642416666667","6501100","汐止區"
"221031","353-TW","2018/09/24 19:39:15","新北市汐止區汐萬路一段329號","121.64992","25.0757066666667","6501100","汐止區"
"221025","623-UM","2018/09/24 19:39:12","新北市汐止區新台五路二段72號","121.661786666667","25.0656766666667","6501100","汐止區"
"221038","646-BX","2018/09/24 19:39:19","新北市汐止區忠孝東路237號","121.66266","25.0673216666667","6501100","汐止區"
"221002","707-TV","2018/09/24 19:39:02","新北市汐止區工建路504號","121.63323","25.0583266666667","6501100","汐止區"
"220079","145-BY","2018/09/24 19:39:13","新北市板橋區復興街114號","121.460348333333","25.0178966666667","6500100","板橋區"
"220080","200-UY","2018/09/24 19:39:13","新北市板橋區大觀路二段37巷334號","121.450063333333","25.00227","6500100","板橋區"
"220082","610-BX","2018/09/24 19:39:16","新北市板橋區溪崑一街11-3號","121.430866666667","24.992315","6500100","板橋區"
"220101","245-BX","2018/09/24 19:39:06","新北市板橋區莊敬路211號","121.471981666667","25.0221","6500100","板橋區"
"220056","276-BY","2018/09/24 19:39:00","新北市板橋區四川路二段47巷3弄2號","121.454238333333","24.994595","6500100","板橋區"
"220072","277-BY","2018/09/24 19:39:11","新北市板橋區金門街215巷41號","121.433363333333","24.9896433333333","6500100","板橋區"
"220094","280-UM","2018/09/24 19:39:12","新北市板橋區銘傳街96-3號","121.469663333333","25.0316116666667","6500100","板橋區"
"220071","283-VK","2018/09/24 19:39:12","新北市板橋區五權街30巷37弄8號","121.463465","24.9924933333333","6500100","板橋區"
"220053","285-VK","2018/09/24 19:39:19","新北市板橋區中山路二段148巷28號","121.477203333333","25.01623","6500100","板橋區"
"220083","286-VK","2018/09/24 19:39:04","新北市板橋區龍興街65巷2號","121.443603333333","25.0015266666667","6500100","板橋區"
"220081","287-VK","2018/09/24 19:39:15","新北市板橋區大觀路一段29巷179弄32號","121.449916666667","25.0042416666667","6500100","板橋區"
"220061","293-UM","2018/09/24 19:39:16","新北市板橋區中山路一段265巷13號","121.468703333333","25.0147183333333","6500100","板橋區"
"220103","295-UM","2018/09/24 19:39:01","新北市板橋區文化路一段286巷11號","121.467915","25.02148","6500100","板橋區"
"220090","299-UM","2018/09/24 19:39:14","新北市板橋區新海路431巷1號","121.457851666667","25.027325","6500100","板橋區"
"220075","303-R5","2018/09/24 19:39:04","新北市板橋區中正路229號","121.455851666667","25.0177716666667","6500100","板橋區"
"220062","305-R5","2018/09/24 19:39:19","新北市板橋區三民路二段29巷7號","121.481588333333","25.0181033333333","6500100","板橋區"
"220092","307-R5","2018/09/24 19:39:16","新北市板橋區文化路一段371號","121.46702","25.021425","6500100","板橋區"
"220098","317-R6","2018/09/24 19:39:14","新北市板橋區四維路269巷45號","121.461321666667","25.02738","6500100","板橋區"
"220064","486-VK","2018/09/24 19:39:14","新北市板橋區實踐路108號","121.46412","25.0045983333333","6500100","板橋區"
"220035","560-BX","2018/09/24 19:39:04","新北市板橋區金華街85巷42號","121.459165","25.0214033333333","6500100","板橋區"
"220084","568-UM","2018/09/24 19:39:06","新北市板橋區板林路168號","121.424713333333","24.9879183333333","6500100","板橋區"
"220063","609-BX","2018/09/24 19:39:19","新北市板橋區中山路二段379號","121.48008","25.0192233333333","6500100","板橋區"
"220091","637-BX","2018/09/24 19:39:17","新北市板橋區懷德街139巷14-3號","121.479588333333","25.030565","6500100","板橋區"
"220057","686-BX","2018/09/24 19:39:10","新北市板橋區和平路101巷27號","121.461776666667","24.9955833333333","6500100","板橋區"
"220077","687-BX","2018/09/24 19:39:08","新北市板橋區僑中三街2號","121.446985","25.0045983333333","6500100","板橋區"
"220093","689-BX","2018/09/24 19:39:16","新北市板橋區長江路一段59號","121.458846666667","25.0293416666667","6500100","板橋區"
"220054","741-BX","2018/09/24 19:39:11","新北市板橋區忠孝路忠義巷15弄92-2號","121.465368333333","25.0055933333333","6500100","板橋區"
"220102","KEA-2699","2018/09/24 19:39:14","新北市板橋區松柏街25-4號","121.474938333333","25.0299816666667","6500100","板橋區"
"220055","827-TW","2018/09/24 19:39:17","新北市板橋區國慶路149巷29弄14號","121.46041","24.99764","6500100","板橋區"
"220067","830-TW","2018/09/24 19:39:14","新北市板橋區長安街168巷10弄16-1號","121.473551666667","25.0103833333333","6500100","板橋區"
"220096","831-TW","2018/09/24 19:39:17","新北市板橋區民生路二段234巷63號","121.469963333333","25.0226566666667","6500100","板橋區"
"220089","833-TW","2018/09/24 19:39:08","新北市板橋區英士路13號","121.461965","25.025215","6500100","板橋區"
"220074","895-R6","2018/09/24 19:39:18","新北市板橋區南門街39號","121.457313333333","25.0087766666667","6500100","板橋區"
"220073","985-R7","2018/09/24 19:39:05","新北市板橋區國光路31巷16號","121.45797","25.01806","6500100","板橋區"
"220097","AAC-210","2018/09/24 19:39:19","新北市板橋區幸福路34號","121.461645","25.0202683333333","6500100","板橋區"
"220070","AAC-253","2018/09/24 19:39:18","新北市板橋區民族路205號","121.469093333333","25.0073216666667","6500100","板橋區"
"235068","KEA-2873","2018/09/24 19:39:02","新北市中和區景平路493巷2-4號","121.499848333333","24.9976733333333","6500300","中和區"
"235061","KEA-2875","2018/09/24 19:39:01","新北市中和區員山路327巷1號","121.480661666667","25.00123","6500300","中和區"
