"lineid","car","time","location","longitude","latitude","cityid","cityname"
"249004","759-BX","2018/09/24 20:49:05","新北市八里區中山路一段157巷15號","121.413088333333","25.158355","6502300","八里區"
"234074","AAC-211","2018/09/24 20:49:18","新北市永和區竹林路91巷60弄70號","121.522861666667","25.0122233333333","6500400","永和區"
"222003","436-BY","2018/09/24 20:49:22","新北市深坑區阿柔洋40號","121.610495","24.9984733333333","6501800","深坑區"
"222002","659-BX","2018/09/24 20:49:15","新北市深坑區北深路三段93巷54號","121.603465","25.00121","6501800","深坑區"
"231059","046-UY","2018/09/24 20:49:20","新北市新店區僑愛三路28號","121.499106666667","24.9447583333333","6500600","新店區"
"231040","047-UY","2018/09/24 20:49:14","新北市新店區中正路272號","121.538931666667","24.9736383333333","6500600","新店區"
"231044","106-UY","2018/09/24 20:49:17","新北市新店區中正路347號","121.535398333333","24.975825","6500600","新店區"
"231052","108-UY","2018/09/24 20:49:11","新北市新店區屈尺路2號","121.549513333333","24.9227333333333","6500600","新店區"
"231047","187-VK","2018/09/24 20:49:16","新北市新店區寶元路二段1巷2號","121.550721666667","24.984075","6500600","新店區"
"231054","KEA-2219","2018/09/24 20:49:10","新北市新店區中正路75巷71號","121.543148333333","24.9688966666667","6500600","新店區"
"231057","256-BX","2018/09/24 20:49:16","新北市新店區新烏路一段73號","121.546305","24.9429116666667","6500600","新店區"
"231042","268-BY","2018/09/24 20:49:10","新北市新店區寶高路116號","121.554551666667","24.9760683333333","6500600","新店區"
"231051","278-BY","2018/09/24 20:49:08","新北市新店區民生路156巷98號","121.527246666667","24.9822066666667","6500600","新店區"
"231050","AAD-862","2018/09/24 20:49:14","新北市新店區三民路20巷18號","121.537876666667","24.97108","6500600","新店區"
"231043","355-BY","2018/09/24 20:49:16","新北市新店區建國路86號","121.540473333333","24.97695","6500600","新店區"
"231058","3713-VJ","2018/09/24 20:49:19","新北市新店區中央路133巷15弄60號","121.532226666667","24.97451","6500600","新店區"
"231066","4716-K9","2018/09/24 20:49:06","新北市新店區安興路112號","121.514615","24.9776783333333","6500600","新店區"
"231056","4715-K9","2018/09/24 20:49:20","新北市新店區安民街133巷26號","121.51545","24.9694916666667","6500600","新店區"
"231067","4772-VM","2018/09/24 20:49:07","新北市新店區安華路28-1號","121.519758333333","24.9609783333333","6500600","新店區"
"231065","512-UM","2018/09/24 20:49:21","新北市新店區安祥路104巷10號","121.481296666667","24.9631083333333","6500600","新店區"
"231049","513-UM","2018/09/24 20:49:20","新北市新店區華潭街31號","121.52991","24.9552866666667","6500600","新店區"
"231063","616-UM","2018/09/24 20:48:59","新北市新店區富貴街11巷34號","121.494925","24.94835","6500600","新店區"
"231045","617-UM","2018/09/24 20:49:05","新北市新店區北新路一段109號","121.539141666667","24.962325","6500600","新店區"
"231061","619-UM","2018/09/24 20:49:16","新北市新店區新和街93巷8號","121.520873333333","24.986675","6500600","新店區"
"231068","718-UY","2018/09/24 20:49:19","新北市新店區寶元路一段105號","121.545428333333","24.983","6500600","新店區"
"231064","719-UM","2018/09/24 20:49:04","新北市新店區安民街382號","121.516286666667","24.9770966666667","6500600","新店區"
"231062","720-UM","2018/09/24 20:49:06","新北市新店區和成街16巷2號","121.487685","24.9469616666667","6500600","新店區"
"231060","897-TW","2018/09/24 20:49:05","新北市新店區安康路三段595-1號","121.471966666667","24.9405783333333","6500600","新店區"
"241011","013-R5","2018/09/24 20:49:20","新北市三重區龍濱路205巷20號","121.503056666667","25.0720116666667","6500200","三重區"
"241028","022-UY","2018/09/24 20:49:11","新北市三重區中正南路50號","121.493951666667","25.0598916666667","6500200","三重區"
"241008","059-VK","2018/09/24 20:49:16","新北市三重區永福街72巷11號","121.479383333333","25.0767866666667","6500200","三重區"
"241031","061-VK","2018/09/24 20:49:22","新北市三重區重陽路一段113巷2弄2號","121.48752","25.059865","6500200","三重區"
"241015","062-VK","2018/09/24 20:49:23","新北市三重區自強路一段8號","121.498906666667","25.0682616666667","6500200","三重區"
"241017","063-VK","2018/09/24 20:49:17","新北市三重區民生街1號","121.491928333333","25.0674016666667","6500200","三重區"
"241024","065-VK","2018/09/24 20:49:06","新北市三重區大勇街49號","121.48139","25.0719683333333","6500200","三重區"
"241002","090-VK","2018/09/24 20:49:13","新北市三重區仁義街159巷34號","121.498235","25.0818566666667","6500200","三重區"
"251014","742-BX","2018/09/24 20:49:18","新北市淡水區公埔子32-8號","121.461633333333","25.232365","6501000","淡水區"
"241005","262-UM","2018/09/24 20:49:14","新北市三重區仁義街286號","121.493468333333","25.086045","6500200","三重區"
"241016","266-UM","2018/09/24 20:49:07","新北市三重區正義北路206號","121.49615","25.0673383333333","6500200","三重區"
"241009","267-UM","2018/09/24 20:49:13","新北市三重區三和路四段398-2號","121.481516666667","25.079465","6500200","三重區"
"241018","268-UM","2018/09/24 20:49:13","新北市三重區自強路一段187號","121.492033333333","25.0679816666667","6500200","三重區"
"241032","269-UM","2018/09/24 20:49:16","新北市三重區興華街73號","121.484953333333","25.0601666666667","6500200","三重區"
"241013","270-UM","2018/09/24 20:49:19","新北市三重區三和路三段167巷55號","121.493903333333","25.07475","6500200","三重區"
"241025","271-UM","2018/09/24 20:48:59","新北市三重區貴陽街18-1號","121.48418","25.061915","6500200","三重區"
"241007","398-BY","2018/09/24 20:49:13","新北市三重區三和路四段145巷7號","121.484531666667","25.0783616666667","6500200","三重區"
"241035","462-BY","2018/09/24 20:49:22","新北市三重區文化北路105號","121.497863333333","25.0684466666667","6500200","三重區"
"241004","475-VK","2018/09/24 20:49:23","新北市三重區分子尾街7號","121.489576666667","25.0805166666667","6500200","三重區"
"241020","478-VK","2018/09/24 20:49:03","新北市三重區忠孝路一段101號","121.489428333333","25.0721483333333","6500200","三重區"
"241030","480-VK","2018/09/24 20:49:10","新北市三重區昌隆街26號","121.491993333333","25.052295","6500200","三重區"
"241014","543-UM","2018/09/24 20:49:05","新北市三重區安和路101號","121.500848333333","25.0698333333333","6500200","三重區"
"241023","545-UM","2018/09/24 20:49:02","新北市三重區忠孝路三段84巷1號","121.480231666667","25.0645466666667","6500200","三重區"
"241001","547-UM","2018/09/24 20:49:20","新北市三重區車路頭街109巷7號","121.484956666667","25.0746916666667","6500200","三重區"
"241019","KEA-2593","2018/09/24 20:49:20","新北市三重區忠孝路一段6-3號","121.492186666667","25.0716933333333","6500200","三重區"
"241006","AAD-863","2018/09/24 20:49:18","新北市三重區車路頭街139巷14號","121.484286666667","25.07623","6500200","三重區"
"241026","743-BX","2018/09/24 20:49:13","新北市三重區和平街5號","121.50025","25.0623633333333","6500200","三重區"
"241022","887-TS","2018/09/24 20:49:12","新北市三重區中正北路20巷12號","121.487991666667","25.0624733333333","6500200","三重區"
"241012","941-UM","2018/09/24 20:49:10","新北市三重區龍門路274巷45號","121.501216666667","25.0755566666667","6500200","三重區"
"241029","942-UM","2018/09/24 20:49:15","新北市三重區重安街18號","121.490378333333","25.0580916666667","6500200","三重區"
"241033","AAC-255","2018/09/24 20:49:09","新北市三重區光復路二段1號","121.472271666667","25.0532616666667","6500200","三重區"
"247012","KEA-2869","2018/09/24 20:49:18","新北市蘆洲區復興路340巷41號","121.48401","25.088545","6501400","蘆洲區"
"235069","4980-A6","2018/09/24 20:49:03","新北市中和區員山路381巷1弄18號","121.480873333333","25.00228","6500300","中和區"
"247002","893-R6","2018/09/24 20:49:16","新北市蘆洲區長榮路343號","121.459561666667","25.0875266666667","6501400","蘆洲區"
"247016","546-UM","2018/09/24 20:49:04","新北市蘆洲區中正路69號","121.470435","25.0827566666667","6501400","蘆洲區"
"247024","500-BY","2018/09/24 20:49:14","新北市蘆洲區長樂路136號","121.462073333333","25.09013","6501400","蘆洲區"
"247014","339-TH","2018/09/24 20:49:19","新北市蘆洲區三民路95號","121.473901666667","25.084915","6501400","蘆洲區"
"247006","337-TH","2018/09/24 20:49:13","新北市蘆洲區永安南路二段76號","121.464705","25.0780983333333","6501400","蘆洲區"
"247008","336-TH","2018/09/24 20:49:21","新北市蘆洲區集賢路269巷17號","121.482101666667","25.083385","6501400","蘆洲區"
"247020","057-VK","2018/09/24 20:49:05","新北市蘆洲區仁愛街66號","121.471511666667","25.09386","6501400","蘆洲區"
"247010","056-VK","2018/09/24 20:49:23","新北市蘆洲區三民路70號","121.475308333333","25.0836616666667","6501400","蘆洲區"
"247004","002-UY","2018/09/24 20:49:09","新北市蘆洲區長安街109號","121.46156","25.08091","6501400","蘆洲區"
"247022","001-UY","2018/09/24 20:49:22","新北市蘆洲區民義街12號","121.47126","25.0885016666667","6501400","蘆洲區"
"222001","KEA-2212","2018/09/24 20:49:06","新北市深坑區北深路三段133號","121.60402","25.0024833333333","6501800","深坑區"
"251002","012-UM","2018/09/24 20:49:19","新北市淡水區中正東路6號","121.446991666667","25.16705","6501000","淡水區"
"251013","KEA-2871","2018/09/24 20:49:07","新北市淡水區行忠路169號","121.456481666667","25.2011166666667","6501000","淡水區"
"251016","179-VK","2018/09/24 20:49:11","新北市淡水區淡金路四段476號","121.451851666667","25.2238783333333","6501000","淡水區"
"251015","180-VK","2018/09/24 20:49:06","新北市淡水區淡金路四段542巷17號","121.452686666667","25.227105","6501000","淡水區"
"251010","413-VK","2018/09/24 20:49:11","新北市淡水區沙崙路126號","121.423435","25.1829116666667","6501000","淡水區"
"251012","441-VK","2018/09/24 20:49:16","新北市淡水區淡金路四段514號","121.452056666667","25.2257733333333","6501000","淡水區"
"251007","442-VK","2018/09/24 20:49:21","新北市淡水區學府路102巷66號","121.453466666667","25.1711683333333","6501000","淡水區"
"251001","559-UM","2018/09/24 20:49:22","新北市淡水區淡金路一段69號","121.458805","25.173155","6501000","淡水區"
"251011","650-BX","2018/09/24 20:49:16","新北市淡水區新民街一段13號","121.43282","25.1846483333333","6501000","淡水區"
"251003","766-UM","2018/09/24 20:49:17","新北市淡水區中山北路一段247巷94號","121.44225","25.1793433333333","6501000","淡水區"
"242036","AAC-296","2018/09/24 20:49:18","新北市新莊區建福路50號","121.426581666667","25.02755","6500500","新莊區"
"242058","986-R7","2018/09/24 20:49:15","新北市新莊區民安路138號","121.424175","25.0254016666667","6500500","新莊區"
"242056","751-BX","2018/09/24 20:49:03","新北市新莊區瓊泰路92號","121.443291666667","25.029395","6500500","新莊區"
"242027","615-BX","2018/09/24 20:49:11","新北市三重區光復路二段170號","121.472128333333","25.0612033333333","6500500","新莊區"
"242044","566-BX","2018/09/24 20:49:22","新北市新莊區龍安路108號","121.418461666667","25.0204816666667","6500500","新莊區"
"242039","415-TV","2018/09/24 20:49:20","新北市新莊區瓊林路204號","121.438501666667","25.0208333333333","6500500","新莊區"
"242009","413-TV","2018/09/24 20:49:06","新北市新莊區思源路81號","121.459863333333","25.0411","6500500","新莊區"
"242046","400-BY","2018/09/24 20:49:16","新北市新莊區龍安路9號","121.41463","25.0225416666667","6500500","新莊區"
"242023","362-BY","2018/09/24 20:49:23","新北市五股區五工一路113號","121.45587","25.0715583333333","6500500","新莊區"
"242060","353-BY","2018/09/24 20:49:22","新北市新莊區新樹路417號","121.432648333333","25.0142066666667","6500500","新莊區"
"242011","132-UY","2018/09/24 20:49:08","新北市泰山區楓江路119號","121.438871666667","25.0645983333333","6500500","新莊區"
"242042","133-UY","2018/09/24 20:49:06","新北市新莊區天祥街12號","121.417255","25.0271933333333","6500500","新莊區"
"242031","135-UY","2018/09/24 20:49:22","新北市新莊區中正路508巷5弄2號","121.435013333333","25.0339383333333","6500500","新莊區"
"242050","172-VK","2018/09/24 20:49:18","新北市新莊區民安東路48號","121.429985","25.020725","6500500","新莊區"
"242013","173-VK","2018/09/24 20:48:59","新北市新莊區中和街175巷11號","121.447268333333","25.050615","6500500","新莊區"
"242007","176-VK","2018/09/24 20:49:04","新北市三重區中興南街80巷19號","121.472415","25.0437566666667","6500500","新莊區"
"242034","347-TH","2018/09/24 20:49:16","新北市新莊區建中街90巷3弄9號","121.446298333333","25.0371316666667","6500500","新莊區"
"242004","349-TH","2018/09/24 20:49:03","新北市新莊區化成路363巷55號","121.463136666667","25.0566766666667","6500500","新莊區"
"242015","351-TH","2018/09/24 20:49:16","新北市新莊區公園一路16號","121.443488333333","25.0348216666667","6500500","新莊區"
"221036","130-UY","2018/09/24 20:49:06","新北市汐止區大同路二段557-1號","121.66258","25.0695683333333","6501100","汐止區"
"221015","131-UY","2018/09/24 20:49:15","新北市汐止區大同路二段599號","121.663921666667","25.070555","6501100","汐止區"
"221023","279-VK","2018/09/24 20:49:14","新北市汐止區湖東街24號","121.634438333333","25.0722783333333","6501100","汐止區"
"221027","281-BY","2018/09/24 20:49:17","新北市汐止區汐萬路一段37號","121.65568","25.068005","6501100","汐止區"
"221029","298-VK","2018/09/24 20:49:10","新北市汐止區樟樹二路108號","121.639703333333","25.0644483333333","6501100","汐止區"
"221035","622-UM","2018/09/24 20:49:05","新北市汐止區汐萬路一段282號","121.650831666667","25.07415","6501100","汐止區"
"221038","646-BX","2018/09/24 20:49:10","新北市汐止區汐萬路一段256巷3號","121.652093333333","25.07484","6501100","汐止區"
"221002","707-TV","2018/09/24 20:49:02","新北市汐止區福德二路173號","121.630733333333","25.0649333333333","6501100","汐止區"
"221018","753-BX","2018/09/24 20:49:11","新北市汐止區中華街73號","121.668131666667","25.0710116666667","6501100","汐止區"
"242002","281-VK","2018/09/24 20:49:05","新北市新莊區中港路59號","121.455056666667","25.0384933333333","6500500","新莊區"
"242053","280-VK","2018/09/24 20:49:06","新北市新莊區西盛街324巷42號","121.426545","25.0149866666667","6500500","新莊區"
"220055","827-TW","2018/09/24 20:49:17","新北市八里區中山路三段409號","121.368675","25.1347933333333","6500100","板橋區"
"220070","AAC-253","2018/09/24 20:49:18","新北市八里區商港路105巷15號","121.38969","25.147885","6500100","板橋區"
