"lineid","car","time","location","longitude","latitude","cityid","cityname"
"234040","862-TW","2018/09/24 21:59:12","新北市永和區福和路1號","121.526393333333","25.0097133333333","6500400","永和區"
"251008","181-VK","2018/09/24 22:19:11","新北市淡水區學府路104號","121.449883333333","25.1717633333333","6501000","淡水區"
"251010","413-VK","2018/09/24 22:19:11","新北市淡水區沙崙路200號","121.424776666667","25.1838616666667","6501000","淡水區"
"251007","442-VK","2018/09/24 22:19:20","新北市淡水區北新路137號","121.449493333333","25.1788066666667","6501000","淡水區"
"251004","443-VK","2018/09/24 22:19:17","新北市淡水區民族路33號","121.462286666667","25.1357416666667","6501000","淡水區"
"251011","650-BX","2018/09/24 22:19:16","新北市淡水區水碓街7號","121.443178333333","25.1771183333333","6501000","淡水區"
