"lineid","car","time","location","longitude","latitude","cityid","cityname"
"248005","653-BX","2018/03/27 08:18:35","新北市五股區明德路12巷6號","121.433446666667","25.0718316666667","6501500","五股區"
"244002","248-BX","2018/03/27 08:29:13","新北市林口區下福里99-99號","121.286078333333","25.116585","6501700","林口區"
"222004","289-BY","2018/03/27 08:29:27","新北市深坑區昇高坑路12號","121.625376666667","24.9989783333333","6501800","深坑區"
"231007","189-VK","2018/03/27 08:29:14","新北市新店區小坑二路2巷7號","121.532496666667","24.91641","6500600","新店區"
"231009","192-VK","2018/03/27 08:29:24","新北市新店區環河路1-1號","121.538","24.96158","6500600","新店區"
"235001","611-BX","2018/03/27 08:29:15","新北市中和區員山路314巷7弄4號","121.482195","25.00309","6500300","中和區"
"226005","5620-A6","2018/03/27 08:29:18","新北市平溪區南山里乾坑2-5號","121.787395","25.0456266666667","6502400","平溪區"
"226002","7418-A5","2018/03/27 08:29:27","新北市平溪區東勢里東勢格2-6號","121.742271666667","25.005995","6502400","平溪區"
"226003","AGD-0702","2018/03/27 08:29:20","新北市平溪區十分里十分街238號","121.77806","25.0441633333333","6502400","平溪區"
"223001","205-TH","2018/03/27 08:29:12","新北市石碇區北宜路六段塗潭巷56號","121.653391666667","24.9350683333333","6501900","石碇區"
"223008","406-TH","2018/03/27 08:29:15","新北市石碇區十八重溪68-1號","121.672908333333","25.0169466666667","6501900","石碇區"
"223001","592-UM","2018/03/27 08:29:17","新北市石碇區北宜路六段小金瓜寮巷5號","121.656581666667","24.9354716666667","6501900","石碇區"
"223004","660-BX","2018/03/27 08:29:17","新北市石碇區碇坪路一段196號","121.671158333333","24.982435","6501900","石碇區"
"223007","661-BX","2018/03/27 08:29:23","新北市石碇區十八重溪68-2號","121.672071666667","25.0178866666667","6501900","石碇區"
"223005","677-TV","2018/03/27 08:29:16","新北市石碇區小粗坑(潭邊里)2號","121.670948333333","24.9827216666667","6501900","石碇區"
"227006","642-TC","2018/03/27 08:29:29","新北市雙溪區平林里竹寮坑5號","121.841385","25.0384483333333","6502500","雙溪區"
"227006","282-VK","2018/03/27 08:10:30","新北市雙溪區三貂里政光路3-1號","121.8508","25.0629866666667","6502500","雙溪區"
"227012","030-BX","2018/03/27 08:29:25","新北市雙溪區平林里梅竹蹊3號","121.8623","25.0386","6502500","雙溪區"
"252004","249-BX","2018/03/27 08:29:24","新北市三芝區興華里田心子2號","121.50186","25.20457","6502100","三芝區"
"252007","AAC-283","2018/03/27 08:29:13","新北市三芝區蘭陽街63號","121.477028333333","25.24137","6502100","三芝區"
"237001","159-UY","2018/03/27 08:29:31","新北市三峽區大德路85號","121.37714","24.9432766666667","6500900","三峽區"
"236008","165-UM","2018/03/27 08:29:17","新北市土城區金城路二段46巷3-10號","121.455608333333","24.9758433333333","6501300","土城區"
"236002","339-SR","2018/03/27 08:29:20","新北市土城區中央路四段27巷4號","121.425081666667","24.9626483333333","6501300","土城區"
"236006","498-BY","2018/03/27 08:29:30","新北市土城區中央路四段47號","121.422361666667","24.96155","6501300","土城區"
"220080","461-BY","2018/03/27 08:29:13","新北市八里區中山路三段382號","121.368671666667","25.1358533333333","6500100","板橋區"
