"lineid","car","time","location","longitude","latitude","cityid","cityname"
"234068","149-BY","2018/03/27 14:19:39","新北市永和區福和路263巷7弄1號","121.517871666667","25.0070433333333","6500400","永和區"
"234005","207-UY","2018/03/27 14:19:31","新北市永和區中正路506號","121.517323333333","25.004505","6500400","永和區"
"234078","298-R6","2018/03/27 14:19:39","新北市永和區國中路130號","121.523468333333","25.0068316666667","6500400","永和區"
"234036","336-UY","2018/03/27 14:19:22","新北市永和區成功路一段1號","121.52714","25.005225","6500400","永和區"
"234062","337-UY","2018/03/27 14:19:36","新北市永和區得和路160號","121.519246666667","25.000085","6500400","永和區"
"234084","338-UY","2018/03/27 14:19:37","新北市永和區永和路二段201號","121.515416666667","25.0135466666667","6500400","永和區"
"234028","746-BX","2018/03/27 14:19:31","新北市永和區民權路1巷34號","121.521946666667","24.99796","6500400","永和區"
"234052","KEA-2590","2018/03/27 14:19:29","新北市永和區光復街2巷13號","121.516975","25.0166016666667","6500400","永和區"
"234060","AAD-866","2018/03/27 14:19:32","新北市永和區安樂路194巷19號","121.515918333333","25.00108","6500400","永和區"
"234040","862-TW","2018/03/27 14:19:26","新北市永和區安樂路166號","121.514508333333","25.0007416666667","6500400","永和區"
"234048","863-TW","2018/03/27 14:19:26","新北市永和區文化路232號","121.509805","25.0170233333333","6500400","永和區"
"234025","9371-KE","2018/03/27 14:19:34","新北市永和區安樂路144巷21-3號","121.514958333333","24.9999683333333","6500400","永和區"
"248017","225-UY","2018/03/27 14:19:20","新北市五股區壟路16-1號","121.414478333333","25.0852766666667","6501500","五股區"
"234022","9380-KE","2018/03/27 14:19:34","新北市永和區竹林路24號","121.516891666667","25.0148433333333","6500400","永和區"
"234076","969-R7","2018/03/27 14:19:36","新北市永和區民權路55號","121.520191666667","24.9969416666667","6500400","永和區"
"234072","AAC-211","2018/03/27 14:19:32","新北市永和區豫溪街191巷7弄22號","121.523246666667","25.0110383333333","6500400","永和區"
"234066","AAC-212","2018/03/27 14:19:34","新北市永和區保平路292巷46弄2號","121.507445","25.00545","6500400","永和區"
"234001","AAC-295","2018/03/27 14:19:30","新北市永和區中正路682號","121.516821666667","25.0093366666667","6500400","永和區"
"244002","248-BX","2018/03/27 14:19:37","新北市林口區竹林路266號","121.389648333333","25.0807833333333","6501700","林口區"
"231002","002-UM","2018/03/27 14:19:20","新北市新店區中央路210-1號","121.530095","24.9735583333333","6500600","新店區"
"231025","0293-UT","2018/03/27 14:19:31","新北市新店區自立街17號","121.537738333333","24.9793333333333","6500600","新店區"
"231028","046-UY","2018/03/27 14:19:27","新北市新店區安和路二段79號","121.518435","24.9689","6500600","新店區"
"231030","047-UY","2018/03/27 14:19:36","新北市新店區安民街50號","121.516078333333","24.9657633333333","6500600","新店區"
"231029","106-UY","2018/03/27 14:19:33","新北市新店區安康路二段161號","121.510246666667","24.9593983333333","6500600","新店區"
"231018","107-UY","2018/03/27 14:19:32","新北市新店區中央四街36號","121.5283","24.97462","6500600","新店區"
"231012","108-UY","2018/03/27 14:19:34","新北市新店區中興路二段22-1號","121.547011666667","24.9705","6500600","新店區"
"231035","110-UY","2018/03/27 14:19:20","新北市新店區光華街5巷8號","121.517743333333","24.9687116666667","6500600","新店區"
"231020","187-VK","2018/03/27 14:19:27","新北市新店區桂山路61巷2號","121.565443333333","24.9012366666667","6500600","新店區"
"231015","KEA-2219","2018/03/27 14:19:20","新北市新店區北宜路二段456號","121.570193333333","24.9564566666667","6500600","新店區"
"231023","AAD-862","2018/03/27 14:19:36","新北市新店區光明街138巷1號","121.539481666667","24.9613116666667","6500600","新店區"
"231027","3712-VJ","2018/03/27 14:19:32","新北市新店區北新路二段162號","121.543026666667","24.975645","6500600","新店區"
"231024","4716-K9","2018/03/27 14:19:23","新北市新店區北新路一段271巷31號","121.539923333333","24.9671116666667","6500600","新店區"
"231038","4715-K9","2018/03/27 14:19:28","新北市新店區溪洲路6巷27號","121.534038333333","24.9621283333333","6500600","新店區"
"231006","617-UM","2018/03/27 14:19:20","新北市新店區北宜路二段599號","121.568175","24.9555933333333","6500600","新店區"
"231001","618-UM","2018/03/27 14:19:40","新北市新店區北新路一段341號","121.541963333333","24.968825","6500600","新店區"
"231003","641-BX","2018/03/27 14:19:17","新北市新店區中興路一段216號","121.543978333333","24.9658166666667","6500600","新店區"
"231034","645-TV","2018/03/27 14:19:18","新北市新店區黎明路3號","121.503511666667","24.9524466666667","6500600","新店區"
"231013","719-UM","2018/03/27 14:19:29","新北市新店區民權路108-2號","121.535993333333","24.98343","6500600","新店區"
"231036","719-UY","2018/03/27 14:19:24","新北市新店區安祥路109巷143號","121.47741","24.9584183333333","6500600","新店區"
"231032","720-UM","2018/03/27 14:19:31","新北市新店區溪洲路196-3號","121.530476666667","24.965675","6500600","新店區"
"231005","897-TW","2018/03/27 14:19:22","新北市新店區中興路三段200號","121.543813333333","24.9819116666667","6500600","新店區"
"231004","899-TW","2018/03/27 14:19:37","新北市新店區中正路179號","121.540818333333","24.9721416666667","6500600","新店區"
"231037","AKT-0513","2018/03/27 14:19:20","新北市新店區安興路20號","121.515058333333","24.9660066666667","6500600","新店區"
"235030","003-UY","2018/03/27 14:19:34","新北市中和區中和路102號","121.502668333333","24.9997433333333","6500300","中和區"
"235028","005-UY","2018/03/27 14:19:36","新北市中和區南華路69號","121.504636666667","24.9973983333333","6500300","中和區"
"235027","006-UY","2018/03/27 14:19:31","新北市中和區圓通路198巷5號","121.495766666667","24.9943366666667","6500300","中和區"
"235020","096-UM","2018/03/27 14:19:24","新北市中和區民富街4號","121.47707","25.0059066666667","6500300","中和區"
"235003","097-UM","2018/03/27 14:19:28","新北市中和區秀峰街103巷5弄1號","121.520416666667","24.9898566666667","6500300","中和區"
"235029","098-UM","2018/03/27 14:19:21","新北市中和區中山路二段2巷45弄28號","121.502","25.0066","6500300","中和區"
"235040","150-BY","2018/03/27 14:19:20","新北市中和區安平路36巷39號","121.51098","24.9951616666667","6500300","中和區"
"235022","151-BY","2018/03/27 14:19:34","新北市中和區員山路36巷16-2號","121.485191666667","24.9916533333333","6500300","中和區"
"235019","183-VK","2018/03/27 14:19:19","新北市中和區中山路三段179巷5號","121.472913333333","25.0058066666667","6500300","中和區"
"235002","185-VK","2018/03/27 14:19:26","新北市中和區大仁街20巷49號","121.519498333333","24.9932533333333","6500300","中和區"
"235013","186-VK","2018/03/27 14:19:22","新北市中和區景新街228-6號","121.508181666667","24.9941816666667","6500300","中和區"
"235031","255-BX","2018/03/27 14:06:14","新北市中和區新生街203號","121.483905","24.9999533333333","6500300","中和區"
"235008","293-VK","2018/03/27 14:19:38","新北市中和區中興街264號","121.49877","24.9875183333333","6500300","中和區"
"235007","352-BY","2018/03/27 14:19:26","新北市中和區景平路290號","121.513151666667","24.992845","6500300","中和區"
"235032","377-QA","2018/03/27 14:19:31","新北市中和區廣福路83號","121.502143333333","25.0008483333333","6500300","中和區"
"235025","378-QA","2018/03/27 14:19:27","新北市中和區民利街54號","121.479235","24.9987233333333","6500300","中和區"
"235035","269-TV","2018/03/27 14:19:28","新北市中和區連城路521號","121.482","24.99532","6500300","中和區"
"235014","4979-A6","2018/03/27 14:19:33","新北市中和區景安路208巷2號","121.503838333333","24.9909916666667","6500300","中和區"
"235033","4980-A6","2018/03/27 14:19:25","新北市中和區福美路256巷2弄6號","121.498498333333","25.0053866666667","6500300","中和區"
"235006","551-UM","2018/03/27 14:19:19","新北市永和區民有街7號","121.516155","24.9970016666667","6500300","中和區"
"235034","558-UM","2018/03/27 14:19:24","新北市中和區連城路72號","121.497425","25.0012766666667","6500300","中和區"
"235009","565-BX","2018/03/27 14:19:23","新北市中和區景新街423巷35弄23號","121.513923333333","24.9905183333333","6500300","中和區"
"235018","640-BX","2018/03/27 14:19:27","新北市中和區國光街109巷2弄2號","121.469633333333","25.0005616666667","6500300","中和區"
"235024","647-TV","2018/03/27 14:19:23","新北市中和區員山路294巷5號","121.481843333333","25.0024283333333","6500300","中和區"
"235011","732-UM","2018/03/27 14:19:23","新北市中和區景平路239巷53弄7號","121.508985","24.9918116666667","6500300","中和區"
"235010","733-UM","2018/03/27 14:19:23","新北市中和區忠孝街2巷11弄2號","121.510455","24.9819683333333","6500300","中和區"
"235026","800-TS","2018/03/27 14:19:34","新北市中和區橋和路102號","121.490743333333","25.0054166666667","6500300","中和區"
"235021","801-TS","2018/03/27 14:19:26","新北市中和區員山路423巷7號","121.480533333333","25.0032266666667","6500300","中和區"
"235005","802-TS","2018/03/27 14:19:22","新北市中和區宜安路159號","121.508905","24.9988583333333","6500300","中和區"
"235016","805-TS","2018/03/27 14:19:40","新北市中和區華新街143巷33號","121.506521666667","24.980605","6500300","中和區"
"235012","896-TW","2018/03/27 14:19:34","新北市中和區華新街109巷1-2號","121.509028333333","24.9823516666667","6500300","中和區"
"235017","900-TW","2018/03/27 14:19:29","新北市中和區民德路218號","121.468203333333","24.9979233333333","6500300","中和區"
"235015","157-BY","2018/03/27 14:19:32","新北市中和區景平路239巷33弄42號","121.50968","24.9913283333333","6500300","中和區"
"235001","AAC-213","2018/03/27 14:19:22","新北市中和區秀朗路三段10巷37弄4號","121.524063333333","24.9958766666667","6500300","中和區"
"235023","AAC-215","2018/03/27 14:19:35","新北市中和區圓通路286巷24號","121.49194","24.9914766666667","6500300","中和區"
"220013","072-UY","2018/03/27 14:19:27","新北市板橋區國泰街73-4號","121.467485","25.0064716666667","6500100","板橋區"
"220034","073-UY","2018/03/27 14:19:28","新北市板橋區中正路216巷8號","121.456373333333","25.018455","6500100","板橋區"
"220017","AAD-861","2018/03/27 14:19:36","新北市板橋區華興街50號","121.458196666667","25.0047333333333","6500100","板橋區"
"247023","893-R6","2018/03/27 14:19:38","新北市蘆洲區三民路499號","121.463413333333","25.0914683333333","6501400","蘆洲區"
"247013","546-UM","2018/03/27 14:19:22","新北市蘆洲區成功路58號","121.472568333333","25.080325","6501400","蘆洲區"
"247009","341-TH","2018/03/27 14:19:22","新北市蘆洲區三民路26巷35號","121.477253333333","25.082985","6501400","蘆洲區"
"247011","339-TH","2018/03/27 14:19:29","新北市蘆洲區民權路3巷20號","121.475446666667","25.0852216666667","6501400","蘆洲區"
"247003","337-TH","2018/03/27 14:19:33","新北市蘆洲區中原路22號","121.460415","25.082945","6501400","蘆洲區"
"247005","336-TH","2018/03/27 14:19:27","新北市蘆洲區長安街16號","121.464088333333","25.07916","6501400","蘆洲區"
"247017","057-VK","2018/03/27 14:19:13","新北市蘆洲區民權路110號","121.473795","25.0883716666667","6501400","蘆洲區"
"247007","056-VK","2018/03/27 14:19:30","新北市蘆洲區中山一路61巷34號","121.477378333333","25.080825","6501400","蘆洲區"
"247001","053-VK","2018/03/27 14:19:38","新北市蘆洲區永樂街50號","121.457626666667","25.088535","6501400","蘆洲區"
"247019","001-UY","2018/03/27 14:19:30","新北市蘆洲區民族路446-4號","121.472645","25.092115","6501400","蘆洲區"
"228004","212-TW","2018/03/27 14:19:36","新北市貢寮區雙玉里田寮洋街39號","121.925068333333","25.013965","6502600","貢寮區"
"228005","828-UM","2018/03/27 14:19:31","新北市貢寮區美豐里土地公嶺54號","121.89454","25.065115","6502600","貢寮區"
"207002","749-BX","2018/03/27 14:19:11","新北市萬里區溪底里富士坪路16-1號","121.621886666667","25.1541133333333","6502800","萬里區"
"207001","662-BX","2018/03/27 14:19:17","新北市萬里區磺潭里清水18號","121.63787","25.1977616666667","6502800","萬里區"
"252005","702-TV","2018/03/27 14:19:17","新北市三芝區埔坪里埔頭坑41號","121.504213333333","25.26443","6502100","三芝區"
"252005","AAC-283","2018/03/27 14:19:33","新北市三芝區橫山里大坑27號","121.526091666667","25.2551016666667","6502100","三芝區"
"236065","105-UM","2018/03/27 14:19:39","新北市土城區明德路一段215號","121.46332","24.9786516666667","6501300","土城區"
"236041","107-UM","2018/03/27 14:19:22","新北市土城區裕生路21巷6弄45號","121.448703333333","24.98661","6501300","土城區"
"236075","166-UM","2018/03/27 14:19:22","新北市土城區永安街117號","121.429398333333","24.9640816666667","6501300","土城區"
"236029","253-BX","2018/03/27 14:19:31","新北市土城區順風路30號","121.440133333333","24.977085","6501300","土城區"
"236024","269-VK","2018/03/27 14:19:31","新北市土城區承天路18號","121.439353333333","24.9634716666667","6501300","土城區"
"236013","270-VK","2018/03/27 14:19:21","新北市土城區青雲路39巷7號","121.460331666667","24.9876033333333","6501300","土城區"
"236034","271-VK","2018/03/27 14:19:36","新北市土城區青雲路483巷9號","121.45936","24.9736333333333","6501300","土城區"
"236006","339-SR","2018/03/27 14:19:19","新北市土城區中華路一段56巷28-5號","121.44485","24.9907","6501300","土城區"
"236017","401-BY","2018/03/27 14:19:22","新北市土城區明德路一段153號","121.464891666667","24.97985","6501300","土城區"
"236057","912-UM","2018/03/27 14:19:31","新北市土城區中央路四段106號","121.41833","24.95915","6501300","土城區"
"236045","913-UM","2018/03/27 14:19:25","新北市土城區明德路一段361-1號","121.456755","24.9776233333333","6501300","土城區"
"236061","915-UM","2018/03/27 14:19:27","新北市土城區延壽路44巷15號","121.4715","24.9929983333333","6501300","土城區"
"236054","AAC-216","2018/03/27 14:19:24","新北市土城區中華路二段104號","121.43808","24.974275","6501300","土城區"
"221032","280-BY","2018/03/27 14:19:31","新北市新店區薏仁坑路自強巷1號","121.497705","24.9575266666667","6501100","汐止區"
"220027","145-BY","2018/03/27 14:19:30","新北市板橋區民權路202巷21弄1號","121.460616666667","25.0172233333333","6500100","板橋區"
"220105","KEA-2550","2018/03/27 14:19:23","新北市板橋區長江路三段24巷1號","121.47238","25.033275","6500100","板橋區"
"220030","610-BX","2018/03/27 14:19:35","新北市板橋區金門街348號","121.427868333333","24.98445","6500100","板橋區"
"220050","245-BX","2018/03/27 14:19:33","新北市板橋區莊敬路25巷2號","121.47378","25.0278816666667","6500100","板橋區"
"220052","257-TC","2018/03/27 14:19:37","新北市板橋區文化路一段188巷7弄23號","121.467735","25.0197016666667","6500100","板橋區"
"220040","267-BY","2018/03/27 14:19:32","新北市板橋區文聖街156-1號","121.478808333333","25.0274416666667","6500100","板橋區"
"220004","276-BY","2018/03/27 14:19:26","新北市板橋區和平路16號","121.459708333333","24.9941533333333","6500100","板橋區"
"220020","277-BY","2018/03/27 14:19:33","新北市板橋區篤行路三段1號","121.429475","24.9877983333333","6500100","板橋區"
"220019","283-VK","2018/03/27 14:19:28","新北市板橋區忠孝路48巷5弄1號","121.461003333333","25.000745","6500100","板橋區"
"220043","285-UM","2018/03/27 14:19:31","新北市板橋區吳鳳路23號","121.467033333333","25.031055","6500100","板橋區"
"220001","285-VK","2018/03/27 14:19:23","新北市板橋區縣民大道三段270巷19號","121.478616666667","25.0226733333333","6500100","板橋區"
"220031","286-VK","2018/03/27 14:19:28","新北市板橋區龍興街73巷43號","121.44221","25.00284","6500100","板橋區"
"220029","287-VK","2018/03/27 14:19:28","新北市板橋區南雅西路一段51號","121.453731666667","25.0048783333333","6500100","板橋區"
"220039","288-VK","2018/03/27 14:19:40","新北市板橋區長江路一段106巷13弄35號","121.461393333333","25.0298116666667","6500100","板橋區"
"220009","293-UM","2018/03/27 14:19:34","新北市板橋區中山路二段255巷7號","121.476998333333","25.01796","6500100","板橋區"
"220010","295-UM","2018/03/27 14:19:38","新北市板橋區三民路二段153巷3弄17號","121.479785","25.0150566666667","6500100","板橋區"
"220032","296-UM","2018/03/27 14:19:40","新北市板橋區滿平街141號","121.429133333333","24.9880816666667","6500100","板橋區"
"220023","303-R5","2018/03/27 14:19:26","新北市板橋區南雅南路一段5巷2號","121.455941666667","25.0055233333333","6500100","板橋區"
"220041","307-R5","2018/03/27 14:19:19","新北市板橋區松江街74號","121.46854","25.0279383333333","6500100","板橋區"
"220047","317-R6","2018/03/27 14:19:37","新北市板橋區民有街84號","121.465041666667","25.0272133333333","6500100","板橋區"
"220028","461-BY","2018/03/27 14:19:35","新北市板橋區大觀路二段37巷302號","121.450325","25.0021833333333","6500100","板橋區"
"220012","486-VK","2018/03/27 14:19:36","新北市板橋區中山路一段78號","121.461763333333","25.0100666666667","6500100","板橋區"
"220037","491-VK","2018/03/27 14:19:34","新北市板橋區雙十路二段219號","121.473268333333","25.0292133333333","6500100","板橋區"
"220104","560-BX","2018/03/27 14:19:24","新北市板橋區中正路399巷10號","121.45359","25.0224883333333","6500100","板橋區"
"220003","568-UM","2018/03/27 14:19:18","新北市板橋區館前東路156巷21號","121.464285","25.0068533333333","6500100","板橋區"
"220011","609-BX","2018/03/27 14:19:26","新北市板橋區三民路二段204-4號","121.478821666667","25.012495","6500100","板橋區"
"220005","686-BX","2018/03/27 14:19:28","新北市板橋區國慶路201號","121.463335","24.99683","6500100","板橋區"
"220025","687-BX","2018/03/27 14:19:33","新北市板橋區大觀路一段28巷30號","121.449931666667","25.0095433333333","6500100","板橋區"
"220042","689-BX","2018/03/27 14:19:27","新北市板橋區漢生西路26號","121.463541666667","25.0181666666667","6500100","板橋區"
"220002","741-BX","2018/03/27 14:19:37","新北市板橋區重慶路155巷23號","121.463133333333","25.0040916666667","6500100","板橋區"
"220051","KEA-2699","2018/03/27 14:19:29","新北市板橋區文聖街101號","121.477708333333","25.0294383333333","6500100","板橋區"
"220014","829-TW","2018/03/27 14:19:27","新北市板橋區長安街178巷3號","121.474123333333","25.0111266666667","6500100","板橋區"
"220016","830-TW","2018/03/27 14:19:35","新北市板橋區萬安街123號","121.483468333333","25.02513","6500100","板橋區"
"220045","831-TW","2018/03/27 14:19:21","新北市板橋區大同街38號","121.478495","25.0273866666667","6500100","板橋區"
"220038","833-TW","2018/03/27 14:19:27","新北市板橋區民生路二段250號","121.468165","25.0234433333333","6500100","板橋區"
"220022","895-R6","2018/03/27 14:19:20","新北市板橋區府中路42號","121.457426666667","25.0095566666667","6500100","板橋區"
"220021","985-R7","2018/03/27 14:19:27","新北市板橋區中正路372巷8號","121.454955","25.02412","6500100","板橋區"
"220046","AAC-210","2018/03/27 14:19:19","新北市板橋區漢生西路89巷4弄4號","121.46102","25.0190816666667","6500100","板橋區"
"220018","AAC-253","2018/03/27 14:19:36","新北市板橋區忠孝路124號","121.46309","25.0022416666667","6500100","板橋區"
