"lineid","car","time","location","longitude","latitude","cityid","cityname"
"234062","337-UY","2018/03/27 14:39:34","新北市永和區環河西路二段199號","121.502145","25.01126","6500400","永和區"
"234052","KEA-2590","2018/03/27 14:39:43","新北市永和區博愛街57巷1號","121.52","25.0162366666667","6500400","永和區"
"234048","863-TW","2018/03/27 14:39:26","新北市中和區環河西路三段83號","121.49281","25.0080916666667","6500400","永和區"
"234025","9371-KE","2018/03/27 14:39:34","新北市永和區雙和街7巷7-1號","121.509516666667","25.00147","6500400","永和區"
"248017","225-UY","2018/03/27 14:21:20","新北市五股區壟路16號","121.415535","25.08545","6501500","五股區"
"234072","AAC-211","2018/03/27 14:39:37","新北市永和區環河東路二段20號","121.522316666667","25.0131583333333","6500400","永和區"
"244002","248-BX","2018/03/27 14:39:37","新北市林口區竹林路266號","121.389671666667","25.080755","6501700","林口區"
"231002","002-UM","2018/03/27 14:39:40","新北市新店區中正路468號","121.533981666667","24.9794133333333","6500600","新店區"
"231025","0293-UT","2018/03/27 14:39:31","新北市新店區民族路161號","121.537646666667","24.97674","6500600","新店區"
"231028","046-UY","2018/03/27 14:39:27","新北市新店區安德街60巷35號","121.511203333333","24.9635866666667","6500600","新店區"
"231030","047-UY","2018/03/27 14:39:36","新北市新店區安民街310號","121.51762","24.9740833333333","6500600","新店區"
"231029","106-UY","2018/03/27 14:39:33","新北市新店區安康路三段375號","121.483656666667","24.9504866666667","6500600","新店區"
"231018","107-UY","2018/03/27 14:39:32","新北市新店區中央四街29號","121.528745","24.974555","6500600","新店區"
"231012","108-UY","2018/03/27 14:39:34","新北市新店區寶橋路76-1號","121.546853333333","24.9749483333333","6500600","新店區"
"231035","110-UY","2018/03/27 14:39:37","新北市新店區安光路13號","121.513463333333","24.963915","6500600","新店區"
"231020","187-VK","2018/03/27 14:39:27","新北市新店區永福路30-1號","121.5486","24.9290183333333","6500600","新店區"
"231015","KEA-2219","2018/03/27 14:39:40","新北市新店區北宜路三段221號","121.592378333333","24.9533183333333","6500600","新店區"
"231023","AAD-862","2018/03/27 14:39:16","新北市新店區檳榔路27號","121.541773333333","24.9637266666667","6500600","新店區"
"231027","3712-VJ","2018/03/27 14:39:32","新北市新店區三民路191號","121.535505","24.9757233333333","6500600","新店區"
"231024","4716-K9","2018/03/27 14:39:23","新北市新店區新生街13巷26號","121.538941666667","24.96651","6500600","新店區"
"231038","4715-K9","2018/03/27 14:39:28","新北市新店區安華路28-1號","121.51982","24.9608766666667","6500600","新店區"
"231006","617-UM","2018/03/27 14:39:40","新北市新店區北宜路二段103號","121.550243333333","24.95238","6500600","新店區"
"231001","618-UM","2018/03/27 14:39:23","新北市新店區中正路2號","121.54578","24.9694333333333","6500600","新店區"
"231003","641-BX","2018/03/27 14:39:37","新北市新店區中興路二段188號","121.548261666667","24.9729316666667","6500600","新店區"
"231034","645-TV","2018/03/27 14:39:37","新北市新店區黎明路11號","121.502023333333","24.9497616666667","6500600","新店區"
"231013","719-UM","2018/03/27 14:39:29","新北市新店區北新路二段139巷9-1號","121.54214","24.9756583333333","6500600","新店區"
"231036","719-UY","2018/03/27 14:39:43","新北市新店區安祥路106巷155號","121.473565","24.9590716666667","6500600","新店區"
"231005","897-TW","2018/03/27 14:39:40","新北市新店區復興路102號","121.531718333333","24.9889033333333","6500600","新店區"
"231004","899-TW","2018/03/27 14:39:37","新北市新店區中正路304號","121.53743","24.97456","6500600","新店區"
"231037","AKT-0513","2018/03/27 14:39:40","新北市新店區安德街60巷35號","121.511005","24.9637933333333","6500600","新店區"
"235030","003-UY","2018/03/27 14:39:34","新北市中和區南華路89號","121.505671666667","24.9974283333333","6500300","中和區"
"235028","005-UY","2018/03/27 14:39:36","新北市中和區中正路448號","121.490896666667","24.994195","6500300","中和區"
"235027","006-UY","2018/03/27 14:39:31","新北市中和區連城路139巷66號","121.49679","24.9968216666667","6500300","中和區"
"235020","096-UM","2018/03/27 14:39:25","新北市中和區員山路581巷31弄20號","121.476823333333","25.010385","6500300","中和區"
"235003","097-UM","2018/03/27 14:39:42","新北市中和區宜安路60號","121.511656666667","24.9969183333333","6500300","中和區"
"235029","098-UM","2018/03/27 14:39:42","新北市中和區福美路240號","121.498805","25.0052166666667","6500300","中和區"
"235040","150-BY","2018/03/27 14:39:40","新北市中和區宜安路23巷39號","121.511955","24.9944733333333","6500300","中和區"
"235022","151-BY","2018/03/27 14:39:34","新北市中和區員山路142巷21號","121.48233","24.99655","6500300","中和區"
"235019","183-VK","2018/03/27 14:39:39","新北市中和區民生街15號","121.47132","25.0059366666667","6500300","中和區"
"235002","185-VK","2018/03/27 14:39:26","新北市中和區立人街69巷3號","121.519955","24.9938516666667","6500300","中和區"
"235013","186-VK","2018/03/27 14:39:42","新北市中和區安平路17號","121.509195","24.9942083333333","6500300","中和區"
"235031","255-BX","2018/03/27 14:31:14","新北市中和區連城路340巷10弄3號","121.482818333333","24.9965633333333","6500300","中和區"
"235008","293-VK","2018/03/27 14:39:38","新北市中和區興南路一段146號","121.508403333333","24.98702","6500300","中和區"
"235007","352-BY","2018/03/27 14:39:26","新北市中和區南華路16號","121.50261","24.9955516666667","6500300","中和區"
"235032","377-QA","2018/03/27 14:39:31","新北市中和區中山路二段250巷10號","121.497606666667","25.0030116666667","6500300","中和區"
"235035","269-TV","2018/03/27 14:39:28","新北市中和區連城路296號","121.483976666667","24.9962916666667","6500300","中和區"
"235014","4979-A6","2018/03/27 14:39:33","新北市中和區錦和路350-1號","121.490573333333","24.9935766666667","6500300","中和區"
"235006","551-UM","2018/03/27 14:39:39","新北市中和區保健路2巷28號","121.507066666667","24.9975016666667","6500300","中和區"
"235034","558-UM","2018/03/27 14:39:24","新北市中和區景平路559號","121.498325","24.9997483333333","6500300","中和區"
"235009","565-BX","2018/03/27 14:39:23","新北市中和區景平路177號","121.511938333333","24.99257","6500300","中和區"
"235018","640-BX","2018/03/27 14:39:26","新北市中和區德光路92-2號","121.468751666667","25.0035766666667","6500300","中和區"
"235024","647-TV","2018/03/27 14:39:42","新北市中和區中山路二段519號","121.481825","25.0051633333333","6500300","中和區"
"235011","732-UM","2018/03/27 14:38:43","新北市中和區南山路283巷6號","121.504503333333","24.9922633333333","6500300","中和區"
"235010","733-UM","2018/03/27 14:39:42","新北市中和區四維街26號","121.512826666667","24.9870833333333","6500300","中和區"
"235026","800-TS","2018/03/27 14:39:34","新北市中和區中山路二段427號","121.48534","25.0048016666667","6500300","中和區"
"235021","801-TS","2018/03/27 14:39:36","新北市中和區員山路270號","121.48133","25.0018116666667","6500300","中和區"
"235005","802-TS","2018/03/27 14:39:22","新北市中和區永貞路288號","121.513041666667","25.004065","6500300","中和區"
"235016","805-TS","2018/03/27 14:39:40","新北市中和區華新街206巷16號","121.50629","24.982565","6500300","中和區"
"235012","896-TW","2018/03/27 14:39:34","新北市中和區四維街19號","121.51305","24.9871083333333","6500300","中和區"
"235017","900-TW","2018/03/27 14:39:29","新北市中和區國光街215巷22-3號","121.467071666667","25.0005583333333","6500300","中和區"
"235015","157-BY","2018/03/27 14:39:31","新北市中和區中興街132巷24號","121.498776666667","24.9918433333333","6500300","中和區"
"235001","AAC-213","2018/03/27 14:39:42","新北市中和區秀朗路三段107號","121.526435","24.99461","6500300","中和區"
"235023","AAC-215","2018/03/27 14:39:42","新北市中和區圓通路305巷15弄1號","121.494285","24.989575","6500300","中和區"
"220013","072-UY","2018/03/27 14:39:27","新北市板橋區民族路268號","121.469558333333","25.0068733333333","6500100","板橋區"
"220034","073-UY","2018/03/27 14:39:28","新北市板橋區中正路170號","121.456378333333","25.0172033333333","6500100","板橋區"
"220017","AAD-861","2018/03/27 14:39:37","新北市板橋區南雅南路二段18號","121.454448333333","25.003595","6500100","板橋區"
"247023","893-R6","2018/03/27 14:39:38","新北市蘆洲區正和街63巷12號","121.46905","25.0808266666667","6501400","蘆洲區"
"247013","546-UM","2018/03/27 14:39:42","新北市蘆洲區成功路132號","121.472075","25.082745","6501400","蘆洲區"
"247009","341-TH","2018/03/27 14:39:42","新北市蘆洲區信義路222巷57號","121.481143333333","25.08548","6501400","蘆洲區"
"247011","339-TH","2018/03/27 14:39:29","新北市蘆洲區集賢路224巷46弄40-1號","121.481198333333","25.08769","6501400","蘆洲區"
"247003","337-TH","2018/03/27 14:39:25","新北市蘆洲區長安街307號","121.457733333333","25.0852916666667","6501400","蘆洲區"
"247005","336-TH","2018/03/27 14:39:23","新北市蘆洲區中華街57號","121.462506666667","25.0809483333333","6501400","蘆洲區"
"247007","056-VK","2018/03/27 14:39:30","新北市蘆洲區信義路56號","121.4753","25.0796783333333","6501400","蘆洲區"
"247001","053-VK","2018/03/27 14:39:38","新北市蘆洲區長安街274巷3號","121.45773","25.08712","6501400","蘆洲區"
"247015","007-UY","2018/03/27 14:39:29","新北市蘆洲區正和街29號","121.469685","25.081985","6501400","蘆洲區"
"247019","001-UY","2018/03/27 14:39:30","新北市蘆洲區民權路117號","121.472236666667","25.0898866666667","6501400","蘆洲區"
"228004","212-TW","2018/03/27 14:39:33","新北市貢寮區福隆里龜壽谷街30-4號","121.946888333333","25.0141716666667","6502600","貢寮區"
"228005","828-UM","2018/03/27 14:39:31","新北市貢寮區美豐里雞母嶺街6-6號","121.902098333333","25.0642466666667","6502600","貢寮區"
"207002","749-BX","2018/03/27 14:39:31","新北市萬里區崁腳里崁腳路73號","121.64758","25.1596116666667","6502800","萬里區"
"207001","662-BX","2018/03/27 14:38:57","新北市萬里區雙興里豐稟路22-2號","121.641671666667","25.18245","6502800","萬里區"
"252005","702-TV","2018/03/27 14:39:37","新北市三芝區埔坪里埔頭坑41號","121.504201666667","25.264415","6502100","三芝區"
"252005","AAC-283","2018/03/27 14:39:33","新北市三芝區埔坪里埔頭坑122-1號","121.518853333333","25.24491","6502100","三芝區"
"236065","105-UM","2018/03/27 14:39:39","新北市土城區永豐路211-2號","121.474661666667","24.9760483333333","6501300","土城區"
"236041","107-UM","2018/03/27 14:39:40","新北市土城區裕民路55巷16號","121.449643333333","24.9887116666667","6501300","土城區"
"236075","166-UM","2018/03/27 14:39:42","新北市土城區中央路四段46巷3號","121.420356666667","24.9610433333333","6501300","土城區"
"236029","253-BX","2018/03/27 14:39:31","新北市土城區中央路二段350號","121.44002","24.971855","6501300","土城區"
"236024","269-VK","2018/03/27 14:39:11","新北市土城區忠義路49號","121.440423333333","24.9690883333333","6501300","土城區"
"236013","270-VK","2018/03/27 14:39:41","新北市土城區清水路240號","121.461211666667","24.9824266666667","6501300","土城區"
"236034","271-VK","2018/03/27 14:39:36","新北市土城區明德路一段291巷11弄1號","121.460373333333","24.976595","6501300","土城區"
"236006","339-SR","2018/03/27 14:39:40","新北市土城區亞洲路32巷23號","121.434813333333","24.9750333333333","6501300","土城區"
"236017","401-BY","2018/03/27 14:39:42","新北市土城區永豐路12號","121.465761666667","24.9845766666667","6501300","土城區"
"236057","912-UM","2018/03/27 14:39:31","新北市土城區中央路四段209號","121.413948333333","24.9558566666667","6501300","土城區"
"236045","913-UM","2018/03/27 14:39:25","新北市土城區金城路二段380號","121.463233333333","24.985605","6501300","土城區"
"236061","915-UM","2018/03/27 14:39:27","新北市土城區延壽路13巷28號","121.470256666667","24.9911516666667","6501300","土城區"
"236054","AAC-216","2018/03/27 14:39:24","新北市土城區中華路一段25號","121.446526666667","24.9891016666667","6501300","土城區"
"221032","280-BY","2018/03/27 14:39:31","新北市新店區安忠路205巷8號","121.50922","24.954655","6501100","汐止區"
"220027","145-BY","2018/03/27 14:39:30","新北市板橋區建國街5號","121.457405","25.0169166666667","6500100","板橋區"
"220105","KEA-2550","2018/03/27 14:39:24","新北市板橋區民治街26巷4號","121.47765","25.0339566666667","6500100","板橋區"
"220030","610-BX","2018/03/27 14:39:38","新北市板橋區大觀路三段175號","121.431993333333","24.9937633333333","6500100","板橋區"
"220050","245-BX","2018/03/27 14:39:42","新北市板橋區萬板路46巷1號","121.4722","25.0227133333333","6500100","板橋區"
"220052","257-TC","2018/03/27 14:39:27","新北市板橋區文化路一段280-3號","121.467335","25.0214383333333","6500100","板橋區"
"220040","267-BY","2018/03/27 14:39:32","新北市板橋區懷德街139巷20弄10號","121.48019","25.0306183333333","6500100","板橋區"
"220004","276-BY","2018/03/27 14:39:26","新北市土城區四川路29巷34號","121.45453","24.994785","6500100","板橋區"
"220020","277-BY","2018/03/27 14:39:39","新北市板橋區金門街151巷23號","121.433906666667","24.9902916666667","6500100","板橋區"
"220019","283-VK","2018/03/27 14:39:39","新北市板橋區五權街32巷29號","121.463856666667","24.992555","6500100","板橋區"
"220043","285-UM","2018/03/27 14:39:31","新北市板橋區宏國路97號","121.469823333333","25.03237","6500100","板橋區"
"220001","285-VK","2018/03/27 14:39:41","新北市板橋區民享街89號","121.476965","25.0159333333333","6500100","板橋區"
"220031","286-VK","2018/03/27 14:39:28","新北市板橋區僑中二街12巷2號","121.446891666667","25.010565","6500100","板橋區"
"220029","287-VK","2018/03/27 14:39:28","新北市板橋區大觀路一段26號","121.450048333333","25.0085483333333","6500100","板橋區"
"220039","288-VK","2018/03/27 14:39:40","新北市板橋區新海路431巷3號","121.45789","25.0272783333333","6500100","板橋區"
"220009","293-UM","2018/03/27 14:39:34","新北市板橋區板新路200巷22號","121.468646666667","25.0165866666667","6500100","板橋區"
"220010","295-UM","2018/03/27 14:39:41","新北市板橋區三民路二段29巷11號","121.48181","25.0180916666667","6500100","板橋區"
"220032","296-UM","2018/03/27 14:39:42","新北市板橋區滿平街2巷5號","121.425966666667","24.9898316666667","6500100","板橋區"
"220023","303-R5","2018/03/27 14:39:26","新北市板橋區大勇街36號","121.453386666667","25.01686","6500100","板橋區"
"220041","307-R5","2018/03/27 14:39:39","新北市板橋區陽明街164巷15號","121.463963333333","25.0245166666667","6500100","板橋區"
"220047","317-R6","2018/03/27 14:39:37","新北市板橋區四維路269巷59號","121.460841666667","25.0271533333333","6500100","板橋區"
"220028","461-BY","2018/03/27 14:39:34","新北市板橋區大觀路二段153巷39弄1號","121.446963333333","25.0004866666667","6500100","板橋區"
"220012","486-VK","2018/03/27 14:39:44","新北市板橋區公園街34巷2號","121.462408333333","25.0084","6500100","板橋區"
"220037","491-VK","2018/03/27 14:39:34","新北市板橋區文化路二段472號","121.475041666667","25.032805","6500100","板橋區"
"220104","560-BX","2018/03/27 14:39:23","新北市板橋區新生街87巷34號","121.456526666667","25.0221866666667","6500100","板橋區"
"220003","568-UM","2018/03/27 14:39:38","新北市板橋區國慶路149巷8號","121.461241666667","24.997005","6500100","板橋區"
"220011","609-BX","2018/03/27 14:39:39","新北市板橋區三民路一段31巷82號","121.48109","25.0232616666667","6500100","板橋區"
"220005","686-BX","2018/03/27 14:39:41","新北市板橋區和平路31號","121.460208333333","24.9958683333333","6500100","板橋區"
"220025","687-BX","2018/03/27 14:39:32","新北市板橋區僑中二街82號","121.446575","25.0097516666667","6500100","板橋區"
"220042","689-BX","2018/03/27 14:39:27","新北市板橋區新海路399號","121.458655","25.0266266666667","6500100","板橋區"
"220002","741-BX","2018/03/27 14:39:31","新北市板橋區實踐路93巷36號","121.465486666667","25.0051166666667","6500100","板橋區"
"220051","KEA-2699","2018/03/27 14:39:29","新北市板橋區雙十路二段48-1號","121.475691666667","25.027625","6500100","板橋區"
"220014","829-TW","2018/03/27 14:39:42","新北市板橋區長安街138巷1弄13號","121.473231666667","25.009805","6500100","板橋區"
"220016","830-TW","2018/03/27 14:39:35","新北市板橋區中山路二段412巷12號","121.483211666667","25.0204183333333","6500100","板橋區"
"220045","831-TW","2018/03/27 14:39:35","新北市板橋區莒光路40巷20號","121.470255","25.0234266666667","6500100","板橋區"
"220038","833-TW","2018/03/27 14:39:27","新北市板橋區公館街252號","121.460011666667","25.0210883333333","6500100","板橋區"
"220022","895-R6","2018/03/27 14:39:40","新北市板橋區文化路一段46巷19號","121.460303333333","25.0114933333333","6500100","板橋區"
"220021","985-R7","2018/03/27 14:39:41","新北市板橋區大仁街105號","121.452725","25.0156983333333","6500100","板橋區"
"220046","AAC-210","2018/03/27 14:39:39","新北市板橋區幸福路32巷12號","121.461468333333","25.020795","6500100","板橋區"
"220018","AAC-253","2018/03/27 14:39:41","新北市板橋區民族路223號","121.469495","25.00719","6500100","板橋區"
