"lineid","car","time","location","longitude","latitude","cityid","cityname"
"231030","047-UY","2018/03/27 16:19:36","新北市新店區薏仁坑路自強巷6號","121.496631666667","24.9583133333333","6500600","新店區"
"231018","107-UY","2018/03/27 16:19:32","新北市新店區中正路700巷73號","121.535935","24.9933","6500600","新店區"
"231046","278-BY","2018/03/27 16:19:40","新北市新店區灣潭路3-3號","121.538203333333","24.9508266666667","6500600","新店區"
"241011","013-R5","2018/03/27 16:19:31","新北市三重區龍濱路285號","121.501141666667","25.0733966666667","6500200","三重區"
"241028","022-UY","2018/03/27 16:19:41","新北市三重區正義南路165-1號","121.498831666667","25.05753","6500200","三重區"
"241008","059-VK","2018/03/27 16:19:38","新北市三重區力行路二段136巷45弄12號","121.479135","25.0754183333333","6500200","三重區"
"241009","060-VK","2018/03/27 16:19:35","新北市三重區溪尾街196巷7號","121.487896666667","25.0809516666667","6500200","三重區"
"241031","061-VK","2018/03/27 16:19:30","新北市三重區重陽路一段51號","121.486645","25.0582566666667","6500200","三重區"
"241015","062-VK","2018/03/27 16:19:40","新北市三重區福德北路77號","121.50198","25.06585","6500200","三重區"
"241017","063-VK","2018/03/27 16:19:27","新北市三重區大同北路54巷1號","121.49428","25.0636183333333","6500200","三重區"
"241024","065-VK","2018/03/27 16:19:29","新北市三重區中正北路193巷27號","121.476205","25.0706366666667","6500200","三重區"
"241026","066-VK","2018/03/27 16:19:37","新北市三重區正義南路60-5號","121.49847","25.0602933333333","6500200","三重區"
"241002","090-VK","2018/03/27 16:19:33","新北市三重區仁義街91號","121.49982","25.0795116666667","6500200","三重區"
"241003","091-VK","2018/03/27 16:19:41","新北市三重區五華街57巷8號","121.493111666667","25.0828183333333","6500200","三重區"
"241005","262-UM","2018/03/27 16:19:38","新北市三重區溪尾街305號","121.487536666667","25.0836966666667","6500200","三重區"
"241016","265-UM","2018/03/27 16:19:42","新北市三重區大仁街86號","121.492845","25.0654266666667","6500200","三重區"
"241022","267-UM","2018/03/27 16:19:44","新北市三重區新北大道一段15巷2號","121.487973333333","25.0608","6500200","三重區"
"241018","268-UM","2018/03/27 16:19:35","新北市三重區重陽路三段43號","121.489426666667","25.067065","6500200","三重區"
"241013","270-UM","2018/03/27 16:19:35","新北市三重區龍門路52號","121.496451666667","25.0726766666667","6500200","三重區"
"241025","271-UM","2018/03/27 16:19:43","新北市三重區中正北路560巷100弄2號","121.472553333333","25.0682566666667","6500200","三重區"
"241007","398-BY","2018/03/27 16:19:41","新北市三重區三和路四段163巷64號","121.486611666667","25.079655","6500200","三重區"
"241004","475-VK","2018/03/27 16:19:30","新北市三重區五華街74號","121.493495","25.0820016666667","6500200","三重區"
"241020","478-VK","2018/03/27 16:19:34","新北市三重區車路頭街17巷12號","121.484223333333","25.0707216666667","6500200","三重區"
"241014","543-UM","2018/03/27 16:19:35","新北市三重區河邊北街110巷40號","121.502865","25.0704","6500200","三重區"
"241023","545-UM","2018/03/27 16:19:44","新北市三重區忠孝路二段138號","121.482605","25.0682616666667","6500200","三重區"
"241001","547-UM","2018/03/27 16:19:34","新北市三重區自強路四段81號","121.490968333333","25.0792133333333","6500200","三重區"
"241033","557-UM","2018/03/27 16:19:38","新北市三重區重新路五段432號","121.475133333333","25.0475233333333","6500200","三重區"
"241006","AAD-863","2018/03/27 16:19:39","新北市三重區永福街46巷31弄11號","121.481858333333","25.0775283333333","6500200","三重區"
"241019","887-TS","2018/03/27 16:19:30","新北市三重區重陽路三段95號","121.490123333333","25.0679","6500200","三重區"
"241012","941-UM","2018/03/27 16:19:37","新北市三重區河邊北街317號","121.502441666667","25.0749033333333","6500200","三重區"
"241029","942-UM","2018/03/27 16:19:42","新北市三重區環河南路220-8號","121.493371666667","25.0526883333333","6500200","三重區"
"235026","800-TS","2018/03/27 16:19:34","新北市中和區建八路162號","121.490111666667","24.998525","6500300","中和區"
"224007","272-VK","2018/03/27 16:19:30","新北市瑞芳區大埔路112-5號","121.762121666667","25.1013383333333","6501200","瑞芳區"
"224005","271-BY","2018/03/27 16:19:41","新北市瑞芳區中正路2號","121.809293333333","25.10695","6501200","瑞芳區"
"227009","642-TC","2018/03/27 16:19:24","新北市雙溪區三港里雙澳路78號","121.883796666667","25.0539066666667","6502500","雙溪區"
"227003","400-TW","2018/03/27 16:19:38","新北市雙溪區上林里內平林80號","121.828315","25.0279783333333","6502500","雙溪區"
"251013","179-VK","2018/03/27 16:19:34","新北市淡水區新市一路一段320號","121.43733","25.1860116666667","6501000","淡水區"
"251008","181-VK","2018/03/27 16:19:46","新北市淡水區中正東路二段48巷20號","121.457553333333","25.1583166666667","6501000","淡水區"
