"lineid","car","time","location","longitude","latitude","cityid","cityname"
"249005","172-UM","2018/03/27 16:59:32","新北市八里區渡船頭1-1號","121.434081666667","25.15193","6502300","八里區"
"249001","173-UM","2018/03/27 16:59:44","新北市八里區中山路三段106號","121.391743333333","25.1426683333333","6502300","八里區"
"249004","303-UY","2018/03/27 16:59:42","新北市八里區博物館路29號","121.413486666667","25.162465","6502300","八里區"
"249002","305-UY","2018/03/27 16:59:37","新北市八里區米倉26-1號","121.440125","25.1485783333333","6502300","八里區"
"249003","593-UM","2018/03/27 16:59:46","新北市八里區中山路二段281號","121.401773333333","25.148675","6502300","八里區"
"244013","069-UM","2018/03/27 16:59:35","新北市林口區粉寮69號","121.405046666667","25.090845","6501700","林口區"
"244007","080-UY","2018/03/27 16:59:48","新北市林口區中華路96號","121.38489","25.0904616666667","6501700","林口區"
"244023","483-VK","2018/03/27 16:59:35","新北市林口區粉寮路二段14號","121.401973333333","25.08561","6501700","林口區"
"244019","657-BX","2018/03/27 16:59:49","新北市林口區中山路158號","121.390713333333","25.078795","6501700","林口區"
"244021","838-TS","2018/03/27 16:59:48","新北市林口區粉寮69號","121.404826666667","25.090835","6501700","林口區"
"231046","278-BY","2018/03/27 16:59:40","新北市新店區直潭一街1號","121.534863333333","24.944855","6500600","新店區"
"241011","013-R5","2018/03/27 16:59:51","新北市三重區仁愛街55巷116號","121.498733333333","25.0727116666667","6500200","三重區"
"241028","022-UY","2018/03/27 16:59:40","新北市三重區中正南路40號","121.49382","25.060145","6500200","三重區"
"241008","059-VK","2018/03/27 16:59:39","新北市三重區永福街179巷32號","121.477805","25.0748333333333","6500200","三重區"
"241009","060-VK","2018/03/27 16:59:34","新北市三重區仁美街108巷38號","121.484303333333","25.0803716666667","6500200","三重區"
"241031","061-VK","2018/03/27 16:59:30","新北市三重區三寧街18號","121.48946","25.05986","6500200","三重區"
"241015","062-VK","2018/03/27 16:59:40","新北市三重區三和路二段1-4號","121.501531666667","25.06666","6500200","三重區"
"241017","063-VK","2018/03/27 16:59:47","新北市三重區明志街39號","121.491913333333","25.0640933333333","6500200","三重區"
"241024","065-VK","2018/03/27 16:59:49","新北市三重區大勇街82巷26弄41號","121.478268333333","25.0719416666667","6500200","三重區"
"241026","066-VK","2018/03/27 16:59:37","新北市三重區文化南路42號","121.500325","25.060295","6500200","三重區"
"241002","090-VK","2018/03/27 16:59:33","新北市三重區仁義街126號","121.497555","25.0802533333333","6500200","三重區"
"241003","091-VK","2018/03/27 16:59:48","新北市三重區五華街141巷58號","121.493405","25.0867283333333","6500200","三重區"
"241005","262-UM","2018/03/27 16:59:38","新北市三重區仁華街61號","121.484028333333","25.082675","6500200","三重區"
"241016","265-UM","2018/03/27 16:59:48","新北市三重區大同北路97-2號","121.494496666667","25.0635633333333","6500200","三重區"
"241022","267-UM","2018/03/27 16:59:48","新北市三重區中華路125號","121.483581666667","25.0640483333333","6500200","三重區"
"241018","268-UM","2018/03/27 16:59:35","新北市三重區六張街126巷4弄2號","121.492256666667","25.069145","6500200","三重區"
"241032","269-UM","2018/03/27 16:59:44","新北市三重區重陽路一段130巷14號","121.486096666667","25.0604283333333","6500200","三重區"
"241013","270-UM","2018/03/27 16:59:35","新北市三重區仁福街64巷1號","121.497861666667","25.074785","6500200","三重區"
"241025","271-UM","2018/03/27 16:59:48","新北市三重區中正北路510號","121.472693333333","25.07146","6500200","三重區"
"241007","398-BY","2018/03/27 16:59:41","新北市三重區溪尾街191號","121.488671666667","25.0804983333333","6500200","三重區"
"241004","475-VK","2018/03/27 16:59:50","新北市三重區五華街98巷21號","121.491705","25.081955","6500200","三重區"
"241020","478-VK","2018/03/27 16:59:34","新北市三重區自強路三段73號","121.48693","25.073615","6500200","三重區"
"241030","480-VK","2018/03/27 16:59:43","新北市三重區昌隆街64號","121.491075","25.0510466666667","6500200","三重區"
"241014","543-UM","2018/03/27 16:59:35","新北市三重區長壽街120巷99號","121.501583333333","25.0708833333333","6500200","三重區"
"241023","545-UM","2018/03/27 16:59:44","新北市三重區忠孝路三段126號","121.479823333333","25.0621483333333","6500200","三重區"
"241001","547-UM","2018/03/27 16:59:34","新北市三重區仁愛街174號","121.493933333333","25.0765983333333","6500200","三重區"
"241033","557-UM","2018/03/27 16:59:38","新北市三重區中興北街271號","121.469063333333","25.0605416666667","6500200","三重區"
"241006","AAD-863","2018/03/27 16:59:39","新北市三重區車路頭街131巷28號","121.485526666667","25.0760566666667","6500200","三重區"
"241019","887-TS","2018/03/27 16:59:30","新北市三重區自強路二段74巷21號","121.487975","25.0698916666667","6500200","三重區"
"241012","941-UM","2018/03/27 16:59:35","新北市三重區河邊北街196號","121.503006666667","25.0742466666667","6500200","三重區"
"241029","942-UM","2018/03/27 16:59:41","新北市三重區中正南路260-1號","121.493196666667","25.0529733333333","6500200","三重區"
"235062","800-TS","2018/03/27 16:42:10","新北市中和區員山路36巷16-3號","121.484965","24.9916466666667","6500300","中和區"
"247024","893-R6","2018/03/27 16:59:37","新北市蘆洲區長興路202號","121.460593333333","25.08754","6501400","蘆洲區"
"247014","546-UM","2018/03/27 16:59:46","新北市蘆洲區中山二路36巷19號","121.474141666667","25.08285","6501400","蘆洲區"
"247010","341-TH","2018/03/27 16:59:35","新北市蘆洲區三民路26巷75號","121.478886666667","25.08325","6501400","蘆洲區"
"247004","337-TH","2018/03/27 16:59:43","新北市蘆洲區長安街108巷5弄1號","121.461226666667","25.0817616666667","6501400","蘆洲區"
"247006","336-TH","2018/03/27 16:59:32","新北市蘆洲區永安南路二段236號","121.460426666667","25.07971","6501400","蘆洲區"
"247018","057-VK","2018/03/27 16:59:33","新北市蘆洲區民族路300號","121.477651666667","25.0899633333333","6501400","蘆洲區"
"247008","056-VK","2018/03/27 16:59:40","新北市蘆洲區民生街2巷7號","121.475461666667","25.0797183333333","6501400","蘆洲區"
"247016","007-UY","2018/03/27 16:59:38","新北市蘆洲區正和街18號","121.470058333333","25.082435","6501400","蘆洲區"
"247020","001-UY","2018/03/27 16:59:49","新北市蘆洲區民族路422巷82弄2號","121.473621666667","25.0936783333333","6501400","蘆洲區"
"228001","212-TW","2018/03/27 16:59:37","新北市貢寮區貢寮里朝陽街1-2號","121.912188333333","25.021295","6502600","貢寮區"
"228002","663-BX","2018/03/27 16:59:43","新北市貢寮區貢寮里朝陽街48號","121.910595","25.02131","6502600","貢寮區"
"228003","828-UM","2018/03/27 16:59:31","新北市貢寮區福隆里興隆街18號","121.94482","25.01668","6502600","貢寮區"
"224008","285-BY","2018/03/27 16:59:42","新北市瑞芳區明燈路一段12號","121.821673333333","25.1070916666667","6501200","瑞芳區"
"224009","273-VK","2018/03/27 16:59:45","新北市瑞芳區明燈路一段1號","121.831666666667","25.111685","6501200","瑞芳區"
"224007","272-VK","2018/03/27 16:59:30","新北市瑞芳區大埔路17-1號","121.766853333333","25.1038216666667","6501200","瑞芳區"
"224005","271-BY","2018/03/27 16:59:41","新北市瑞芳區南雅路9號","121.888853333333","25.1202783333333","6501200","瑞芳區"
"227009","642-TC","2018/03/27 16:59:44","新北市雙溪區牡丹里聖南14號","121.858216666667","25.052745","6502500","雙溪區"
"227003","400-TW","2018/03/27 16:59:38","新北市雙溪區長源里柑腳27號","121.804436666667","25.0141816666667","6502500","雙溪區"
"251004","009-UM","2018/03/27 16:59:50","新北市淡水區中正路一段102號","121.42403","25.1777966666667","6501000","淡水區"
"251013","179-VK","2018/03/27 16:59:33","新北市淡水區泉洲厝32號","121.489295","25.19258","6501000","淡水區"
"251014","180-VK","2018/03/27 16:59:43","新北市淡水區八里堆2號","121.453188333333","25.2240183333333","6501000","淡水區"
"251008","181-VK","2018/03/27 16:59:46","新北市淡水區樹梅坑9號","121.472768333333","25.1427216666667","6501000","淡水區"
"251015","182-VK","2018/03/27 16:59:39","新北市淡水區忠愛街9-1號","121.456771666667","25.1744333333333","6501000","淡水區"
"251010","413-VK","2018/03/27 16:59:41","新北市淡水區沙崙路331號","121.427608333333","25.1876583333333","6501000","淡水區"
"251012","441-VK","2018/03/27 16:59:34","新北市淡水區沙崙路97號","121.422248333333","25.1820283333333","6501000","淡水區"
"251016","442-VK","2018/03/27 16:59:39","新北市淡水區瓦坑6-1號","121.477618333333","25.18116","6501000","淡水區"
"251005","443-VK","2018/03/27 16:59:39","新北市淡水區中正路二段31號","121.419166666667","25.18184","6501000","淡水區"
"251006","561-UM","2018/03/27 16:59:33","新北市淡水區中正路二段31號","121.419533333333","25.1815566666667","6501000","淡水區"
"251009","575-R6","2018/03/27 16:59:46","新北市淡水區中正路28巷1號","121.433043333333","25.1745416666667","6501000","淡水區"
"251007","577-R6","2018/03/27 16:59:45","新北市淡水區中正東路一段13號","121.451363333333","25.163605","6501000","淡水區"
"251011","650-BX","2018/03/27 16:59:46","新北市淡水區中山路46號","121.444235","25.1700783333333","6501000","淡水區"
"252002","178-VK","2018/03/27 16:59:38","新北市三芝區忠孝街173號","121.505423333333","25.2614033333333","6502100","三芝區"
"252001","292-VK","2018/03/27 16:59:45","新北市三芝區淡金路二段38-1號","121.503055","25.2601833333333","6502100","三芝區"
"242054","751-BX","2018/03/27 16:59:49","新北市新莊區新泰路357巷3弄57號","121.442081666667","25.0392316666667","6500500","新莊區"
"242029","705-TV","2018/03/27 16:59:40","新北市新莊區新泰路357巷3弄57號","121.44219","25.0393216666667","6500500","新莊區"
"242027","615-BX","2018/03/27 16:59:47","新北市新莊區新泰路255巷83號","121.442196666667","25.0389266666667","6500500","新莊區"
"242042","566-BX","2018/03/27 16:59:43","新北市新莊區新泰路255巷83號","121.442106666667","25.03906","6500500","新莊區"
"242046","497-BY","2018/03/27 16:59:41","新北市新莊區新泰路357巷3弄57號","121.442196666667","25.0395416666667","6500500","新莊區"
"242056","440-UM","2018/03/27 16:59:48","新北市新莊區新泰路357巷3弄57號","121.442118333333","25.039265","6500500","新莊區"
"242037","415-TV","2018/03/27 16:59:30","新北市新莊區新泰路357巷3弄57號","121.441911666667","25.0393366666667","6500500","新莊區"
"242007","413-TV","2018/03/27 16:59:49","新北市新莊區新泰路357巷3弄57號","121.441965","25.0395066666667","6500500","新莊區"
"242044","400-BY","2018/03/27 16:59:32","新北市新莊區新泰路357巷3弄57號","121.441971666667","25.0395466666667","6500500","新莊區"
"242023","362-BY","2018/03/27 16:59:38","新北市新莊區三和路12-21號","121.442415","25.03853","6500500","新莊區"
"242061","353-BY","2018/03/27 16:59:46","新北市新莊區新泰路255巷83號","121.442436666667","25.0388833333333","6500500","新莊區"
"242021","348-TH","2018/03/27 16:59:33","新北市新莊區新泰路357巷3弄57號","121.441885","25.03964","6500500","新莊區"
"242013","351-TH","2018/03/27 16:59:36","新北市新莊區新泰路357巷3弄57號","121.441978333333","25.039545","6500500","新莊區"
"238025","303-VK","2018/03/27 16:59:51","新北市樹林區育德街78-1號","121.388098333333","24.9682883333333","6500700","樹林區"
"238017","283-BY","2018/03/27 16:59:38","新北市樹林區育德街78號","121.387855","24.968395","6500700","樹林區"
"238014","282-BY","2018/03/27 16:59:35","新北市樹林區育德街78-1號","121.387563333333","24.96816","6500700","樹林區"
"238020","268-VK","2018/03/27 16:59:50","新北市樹林區育德街78-1號","121.388213333333","24.968115","6500700","樹林區"
"238016","169-UY","2018/03/27 16:59:39","新北市樹林區育德街78-1號","121.387635","24.9681166666667","6500700","樹林區"
"239006","891-R6","2018/03/27 16:59:45","新北市鶯歌區環河路177-3號","121.346061666667","24.93521","6500800","鶯歌區"
"239002","359-BY","2018/03/27 16:59:33","新北市鶯歌區二甲路9-2號","121.346745","24.9369633333333","6500800","鶯歌區"
