"lineid","car","time","location","longitude","latitude","cityid","cityname"
"249005","172-UM","2018/03/27 17:19:12","新北市五股區民義路二段132號","121.410191666667","25.1209316666667","6502300","八里區"
"249001","173-UM","2018/03/27 17:19:04","新北市八里區中華路二段165巷3號","121.407671666667","25.1508966666667","6502300","八里區"
"249004","303-UY","2018/03/27 17:19:02","新北市八里區賢三街30號","121.418558333333","25.1587283333333","6502300","八里區"
"249002","305-UY","2018/03/27 17:19:17","新北市八里區龍米路二段115號","121.447111666667","25.1432083333333","6502300","八里區"
"249003","593-UM","2018/03/27 17:19:06","新北市八里區商港路48號","121.395953333333","25.145275","6502300","八里區"
"244013","069-UM","2018/03/27 17:19:15","新北市林口區粉寮69號","121.405048333333","25.0908383333333","6501700","林口區"
"244007","080-UY","2018/03/27 17:19:08","新北市林口區中湖43-18號","121.382475","25.0917","6501700","林口區"
"244025","742-UY","2018/03/27 17:19:20","新北市林口區文化三路一段469號","121.368713333333","25.0752766666667","6501700","林口區"
"244023","483-VK","2018/03/27 17:19:15","新北市林口區隆林街32號","121.388188333333","25.0754283333333","6501700","林口區"
"244019","657-BX","2018/03/27 17:19:12","新北市林口區文化二路一段368號","121.373623333333","25.075735","6501700","林口區"
"244021","838-TS","2018/03/27 17:19:08","新北市林口區粉寮路二段338號","121.404715","25.09696","6501700","林口區"
"231046","278-BY","2018/03/27 17:19:20","新北市新店區直潭路92號","121.530918333333","24.9376233333333","6500600","新店區"
"241011","013-R5","2018/03/27 17:19:11","新北市三重區龍濱路169-1號","121.502395","25.0701016666667","6500200","三重區"
"241028","022-UY","2018/03/27 17:19:01","新北市三重區中正南路71號","121.494015","25.0589616666667","6500200","三重區"
"241008","059-VK","2018/03/27 17:19:19","新北市三重區永福街72巷37號","121.480196666667","25.076335","6500200","三重區"
"241009","060-VK","2018/03/27 17:19:14","新北市三重區碧華街41號","121.484488333333","25.0812516666667","6500200","三重區"
"241015","062-VK","2018/03/27 17:19:20","新北市三重區長元街82-1號","121.501888333333","25.0662966666667","6500200","三重區"
"241017","063-VK","2018/03/27 17:19:09","新北市三重區大同北路44巷29號","121.49444","25.0629366666667","6500200","三重區"
"241024","065-VK","2018/03/27 17:19:09","新北市三重區中正北路191巷3弄14號","121.47821","25.0697466666667","6500200","三重區"
"241026","066-VK","2018/03/27 17:19:17","新北市三重區福裕街67號","121.49849","25.0615033333333","6500200","三重區"
"241002","090-VK","2018/03/27 17:19:13","新北市三重區自強路五段51-1號","121.494493333333","25.0817133333333","6500200","三重區"
"241003","091-VK","2018/03/27 17:19:08","新北市三重區五華街123號","121.491453333333","25.0841433333333","6500200","三重區"
"241005","262-UM","2018/03/27 17:19:18","新北市三重區永安北路二段25巷27號","121.482771666667","25.0818833333333","6500200","三重區"
"241016","265-UM","2018/03/27 17:19:02","新北市三重區大同北路54巷1號","121.494286666667","25.0636266666667","6500200","三重區"
"241022","267-UM","2018/03/27 17:19:04","新北市三重區中正北路64巷5號","121.486465","25.0641283333333","6500200","三重區"
"241018","268-UM","2018/03/27 17:19:15","新北市三重區安慶街163號","121.49407","25.06873","6500200","三重區"
"241032","269-UM","2018/03/27 17:19:04","新北市三重區興華街123號","121.483391666667","25.059915","6500200","三重區"
"241013","270-UM","2018/03/27 17:19:15","新北市三重區仁愛街82巷4號","121.495161666667","25.07352","6500200","三重區"
"241025","271-UM","2018/03/27 17:19:03","新北市三重區中正北路413號","121.470871666667","25.072175","6500200","三重區"
"241007","398-BY","2018/03/27 17:19:01","新北市三重區三和路四段155巷11號","121.484491666667","25.0786916666667","6500200","三重區"
"241004","475-VK","2018/03/27 17:19:10","新北市三重區仁愛街425巷58號","121.491568333333","25.0824866666667","6500200","三重區"
"241020","478-VK","2018/03/27 17:19:14","新北市三重區忠孝路一段121號","121.488876666667","25.0720766666667","6500200","三重區"
"241030","480-VK","2018/03/27 17:19:03","新北市三重區成功路73巷19號","121.489601666667","25.052125","6500200","三重區"
"241014","543-UM","2018/03/27 17:19:15","新北市三重區三和路二段83號","121.500073333333","25.0684316666667","6500200","三重區"
"241023","545-UM","2018/03/27 17:19:04","新北市三重區三民街188號","121.481776666667","25.0658366666667","6500200","三重區"
"241033","557-UM","2018/03/27 17:19:18","新北市三重區中興北街134-1號","121.468915","25.0559483333333","6500200","三重區"
"241006","AAD-863","2018/03/27 17:19:19","新北市三重區車路頭街135-1號","121.484213333333","25.076165","6500200","三重區"
"241019","887-TS","2018/03/27 17:19:12","新北市三重區忠孝路一段183號","121.487216666667","25.07157","6500200","三重區"
"241012","941-UM","2018/03/27 17:19:15","新北市三重區仁興街13號","121.499885","25.0741366666667","6500200","三重區"
"241029","942-UM","2018/03/27 17:19:02","新北市三重區重陽路一段111號","121.487016666667","25.0599583333333","6500200","三重區"
"235052","805-TS","2018/03/27 17:08:54","新北市中和區員山路36巷16號","121.484341666667","24.9915333333333","6500300","中和區"
"247024","893-R6","2018/03/27 17:19:17","新北市蘆洲區長榮路262號","121.460356666667","25.0860866666667","6501400","蘆洲區"
"247014","546-UM","2018/03/27 17:19:06","新北市蘆洲區中正路83號","121.470056666667","25.083535","6501400","蘆洲區"
"247022","500-BY","2018/03/27 17:19:16","新北市蘆洲區三民路128巷68號","121.470216666667","25.089255","6501400","蘆洲區"
"247010","341-TH","2018/03/27 17:19:15","新北市蘆洲區中山一路120巷7弄24號","121.477295","25.0820766666667","6501400","蘆洲區"
"247012","339-TH","2018/03/27 17:19:21","新北市蘆洲區信義路319巷10弄15號","121.477395","25.0864416666667","6501400","蘆洲區"
"247004","337-TH","2018/03/27 17:19:03","新北市蘆洲區長安街207巷42-1號","121.458488333333","25.0811816666667","6501400","蘆洲區"
"247006","336-TH","2018/03/27 17:19:12","新北市蘆洲區永安南路二段156號","121.46172","25.0788616666667","6501400","蘆洲區"
"247018","057-VK","2018/03/27 17:19:13","新北市蘆洲區民權路78號","121.474731666667","25.08753","6501400","蘆洲區"
"247008","056-VK","2018/03/27 17:19:20","新北市蘆洲區永安北路一段72巷1號","121.476836666667","25.0771166666667","6501400","蘆洲區"
"247002","053-VK","2018/03/27 17:19:04","新北市蘆洲區永樂街38巷33弄6-1號","121.457766666667","25.0895966666667","6501400","蘆洲區"
"247016","007-UY","2018/03/27 17:19:18","新北市蘆洲區正和街97號","121.46801","25.080565","6501400","蘆洲區"
"247020","001-UY","2018/03/27 17:19:09","新北市蘆洲區民族路446-1號","121.47291","25.0919466666667","6501400","蘆洲區"
"228001","212-TW","2018/03/27 17:19:17","新北市貢寮區仁理村尖山腳街18-3號","121.92552","25.0483216666667","6502600","貢寮區"
"228002","663-BX","2018/03/27 17:19:03","新北市貢寮區雙玉里下雙溪街28號","121.924933333333","25.0117466666667","6502600","貢寮區"
"228003","828-UM","2018/03/27 17:19:11","新北市貢寮區福隆里興隆街15號","121.943765","25.0166516666667","6502600","貢寮區"
"224010","AGQ-8101","2018/03/27 17:19:22","新北市瑞芳區明燈路二段2巷14號","121.814378333333","25.1087816666667","6501200","瑞芳區"
"224008","285-BY","2018/03/27 17:19:02","新北市瑞芳區九芎橋路14號","121.832076666667","25.0912433333333","6501200","瑞芳區"
"224009","273-VK","2018/03/27 17:19:16","新北市瑞芳區石碑巷101-1號","121.842071666667","25.108285","6501200","瑞芳區"
"224005","271-BY","2018/03/27 17:18:21","新北市瑞芳區鼻頭路247號","121.904646666667","25.1217466666667","6501200","瑞芳區"
"227009","642-TC","2018/03/27 17:19:04","新北市雙溪區三貂里定福路31號","121.85223","25.076235","6502500","雙溪區"
"227003","400-TW","2018/03/27 17:19:18","新北市雙溪區上林里內平林90號","121.827615","25.0275266666667","6502500","雙溪區"
"251004","009-UM","2018/03/27 17:19:10","新北市淡水區中正東路二段88巷15號","121.459091666667","25.15049","6501000","淡水區"
"251013","179-VK","2018/03/27 17:19:13","新北市淡水區大竹圍1-3號","121.47125","25.1966683333333","6501000","淡水區"
"251014","180-VK","2018/03/27 17:19:16","新北市淡水區公埔子6號","121.467793333333","25.2263566666667","6501000","淡水區"
"251008","181-VK","2018/03/27 17:19:06","新北市淡水區大同路289號","121.468251666667","25.1425616666667","6501000","淡水區"
"251015","182-VK","2018/03/27 17:19:19","新北市淡水區三空泉16-10號","121.470836666667","25.16525","6501000","淡水區"
"251010","413-VK","2018/03/27 17:19:01","新北市淡水區中正路二段211號","121.426223333333","25.1891333333333","6501000","淡水區"
"251012","441-VK","2018/03/27 17:19:14","新北市淡水區中山北路一段156號","121.444105","25.177955","6501000","淡水區"
"251016","442-VK","2018/03/27 17:19:19","新北市淡水區社厝坑6-1號","121.468538333333","25.1892016666667","6501000","淡水區"
"251005","443-VK","2018/03/27 17:19:19","新北市淡水區鄧公路19-1號","121.450266666667","25.1699083333333","6501000","淡水區"
"251006","561-UM","2018/03/27 17:19:13","新北市淡水區大智街45號","121.44274","25.17426","6501000","淡水區"
"251009","575-R6","2018/03/27 17:19:06","新北市淡水區三民街19號","121.439026666667","25.17182","6501000","淡水區"
"251007","577-R6","2018/03/27 17:19:04","新北市淡水區民生路60號","121.462146666667","25.1379333333333","6501000","淡水區"
"251011","650-BX","2018/03/27 17:19:06","新北市淡水區坪頂路146號","121.466883333333","25.1616816666667","6501000","淡水區"
"251003","673-BX","2018/03/27 17:19:15","新北市淡水區中正路二段31號","121.419225","25.1817966666667","6501000","淡水區"
"207003","550-UM","2018/03/27 17:18:57","新北市萬里區萬里里瑪鋉路314號","121.688278333333","25.181785","6502800","萬里區"
"252002","178-VK","2018/03/27 17:19:18","新北市三芝區忠孝街1-14號","121.50555","25.2539866666667","6502100","三芝區"
"252001","292-VK","2018/03/27 17:19:04","新北市三芝區長安街119號","121.498025","25.2596833333333","6502100","三芝區"
"242034","AAC-296","2018/03/27 17:19:17","新北市新莊區中正路461號","121.442458333333","25.0337516666667","6500500","新莊區"
"242058","986-R7","2018/03/27 17:19:09","新北市新莊區中正路384號","121.441946666667","25.0346633333333","6500500","新莊區"
"242054","751-BX","2018/03/27 17:19:09","新北市新莊區環河路636-1號","121.436711666667","25.010775","6500500","新莊區"
"242029","705-TV","2018/03/27 17:19:20","新北市新莊區幸福路784號","121.446818333333","25.0491616666667","6500500","新莊區"
"242027","615-BX","2018/03/27 17:19:07","新北市新莊區中港路304號","121.452681666667","25.0449233333333","6500500","新莊區"
"242042","566-BX","2018/03/27 17:19:03","新北市新莊區中正路384號","121.441985","25.0348533333333","6500500","新莊區"
"242046","497-BY","2018/03/27 17:19:01","新北市新莊區新樹路65-5號","121.439458333333","25.0308383333333","6500500","新莊區"
"242002","442-UM","2018/03/27 17:19:17","新北市新莊區三和路12-21號","121.442015","25.038505","6500500","新莊區"
"242051","441-UM","2018/03/27 17:19:14","新北市新莊區瓊林南路42巷1-1號","121.435965","25.0178716666667","6500500","新莊區"
"242056","440-UM","2018/03/27 17:19:08","新北市新莊區中正路384號","121.44203","25.0344416666667","6500500","新莊區"
"242037","415-TV","2018/03/27 17:19:10","新北市新莊區新樹路123-1號","121.437058333333","25.0261466666667","6500500","新莊區"
"242007","413-TV","2018/03/27 17:19:09","新北市新莊區新泰路488號","121.442488333333","25.045785","6500500","新莊區"
"242044","400-BY","2018/03/27 17:19:12","新北市新莊區富國路101-1號","121.421341666667","25.025535","6500500","新莊區"
"242023","362-BY","2018/03/27 17:19:19","新北市新莊區新泰路500號","121.442476666667","25.0459883333333","6500500","新莊區"
"242061","353-BY","2018/03/27 17:19:06","新北市新莊區三和路12-21號","121.441983333333","25.0387783333333","6500500","新莊區"
"242039","133-UY","2018/03/27 17:19:17","新北市新莊區民安路309號","121.429918333333","25.02265","6500500","新莊區"
"242032","135-UY","2018/03/27 17:19:11","新北市新莊區中正路384號","121.442496666667","25.0345216666667","6500500","新莊區"
"242048","172-VK","2018/03/27 17:19:09","新北市新莊區龍安路249-1號","121.419193333333","25.02138","6500500","新莊區"
"242017","175-VK","2018/03/27 17:19:14","新北市新莊區中環路二段392-1號","121.442433333333","25.0456466666667","6500500","新莊區"
"242005","176-VK","2018/03/27 17:19:17","新北市新莊區中環路二段392-1號","121.442378333333","25.0455016666667","6500500","新莊區"
"242015","346-TH","2018/03/27 17:19:07","新北市新莊區公園一路137號","121.446171666667","25.0382066666667","6500500","新莊區"
"242021","348-TH","2018/03/27 17:19:12","新北市新莊區中港路306號","121.45263","25.0451","6500500","新莊區"
"242019","350-TH","2018/03/27 17:19:16","新北市新莊區中平路111號","121.444708333333","25.046435","6500500","新莊區"
"242013","351-TH","2018/03/27 17:19:16","新北市新莊區三和路12-21號","121.442288333333","25.0378666666667","6500500","新莊區"
"238015","755-BX","2018/03/27 17:19:10","新北市樹林區大安路269號","121.419","24.9936683333333","6500700","樹林區"
"238019","599-UM","2018/03/27 17:19:14","新北市樹林區八德街225號","121.421416666667","24.9791983333333","6500700","樹林區"
"238018","571-TV","2018/03/27 17:19:07","新北市樹林區樹中街57號","121.421181666667","24.9854083333333","6500700","樹林區"
"238024","5061-A6","2018/03/27 17:19:04","新北市樹林區樹新路79巷11號","121.427123333333","24.9956166666667","6500700","樹林區"
"238021","KEA-2217","2018/03/27 17:19:17","新北市樹林區西圳街一段165巷21號","121.395641666667","24.9616833333333","6500700","樹林區"
"238022","KEA-2213","2018/03/27 17:19:00","新北市樹林區中華路37巷11號","121.424088333333","24.9830633333333","6500700","樹林區"
"238025","303-VK","2018/03/27 17:19:10","新北市樹林區中山路一段249號","121.420445","24.98645","6500700","樹林區"
"238017","283-BY","2018/03/27 17:19:18","新北市樹林區保安街一段262號","121.419741666667","24.9968916666667","6500700","樹林區"
"238014","282-BY","2018/03/27 17:19:15","新北市樹林區長壽街23-7號","121.420856666667","24.9948133333333","6500700","樹林區"
"238020","268-VK","2018/03/27 17:19:10","新北市樹林區千歲街101-2號","121.428515","25.0009066666667","6500700","樹林區"
"238026","172-UY","2018/03/27 17:19:17","新北市樹林區味王街36號","121.40456","24.9742516666667","6500700","樹林區"
"238016","169-UY","2018/03/27 17:18:59","新北市樹林區中山路二段10號","121.41753","24.9849916666667","6500700","樹林區"
"239007","AAC-297","2018/03/27 17:19:12","新北市鶯歌區行政路6號","121.351055","24.955385","6500800","鶯歌區"
"239006","891-R6","2018/03/27 17:19:05","新北市鶯歌區德昌二街33號","121.333278333333","24.958835","6500800","鶯歌區"
"239008","527-UM","2018/03/27 17:19:17","新北市鶯歌區西湖街182號","121.338365","24.9656016666667","6500800","鶯歌區"
"239005","526-UM","2018/03/27 17:19:17","新北市鶯歌區福德四街4號","121.329805","24.9679766666667","6500800","鶯歌區"
"239001","417-VK","2018/03/27 17:19:18","新北市鶯歌區尖山路234號","121.343156666667","24.9467583333333","6500800","鶯歌區"
"239003","360-BY","2018/03/27 17:19:04","新北市鶯歌區德昌二街33號","121.333341666667","24.95867","6500800","鶯歌區"
"239002","359-BY","2018/03/27 17:19:14","新北市鶯歌區南昌街17號","121.349523333333","24.9541133333333","6500800","鶯歌區"
"239004","193-VK","2018/03/27 17:19:20","新北市鶯歌區文化路324巷1-35號","121.352388333333","24.9456716666667","6500800","鶯歌區"
"242009","281-VK","2018/03/27 17:19:19","新北市新莊區新泰路480號","121.44265","25.0453316666667","6500500","新莊區"
