"lineid","car","time","location","longitude","latitude","cityid","cityname"
"234026","9371-KE","2018/03/27 18:09:07","新北市永和區秀朗路一段10巷21號","121.513308333333","25.0062633333333","6500400","永和區"
"249005","172-UM","2018/03/27 18:09:12","新北市八里區荖阡坑路15號","121.401676666667","25.1397833333333","6502300","八里區"
"249001","173-UM","2018/03/27 18:09:03","新北市八里區龍米路二段33號","121.448515","25.1399516666667","6502300","八里區"
"249004","303-UY","2018/03/27 18:09:22","新北市八里區龍米路二段200巷5號","121.433758333333","25.158805","6502300","八里區"
"249002","305-UY","2018/03/27 18:09:17","新北市八里區龍米路一段356巷46號","121.452178333333","25.130285","6502300","八里區"
"249003","593-UM","2018/03/27 18:09:06","新北市八里區中華路二段165巷2-3號","121.40721","25.1509183333333","6502300","八里區"
"248006","077-UY","2018/03/27 18:09:09","新北市五股區中興路二段82號","121.460821666667","25.0772416666667","6501500","五股區"
"248008","095-VK","2018/03/27 18:09:15","新北市蘆洲區永安南路二段322號","121.457015","25.0827883333333","6501500","五股區"
"248020","225-UY","2018/03/27 18:09:06","新北市五股區凌雲路一段21號","121.45497","25.09818","6501500","五股區"
"248014","261-SL","2018/03/27 18:09:11","新北市五股區中興路三段190號","121.444018333333","25.0814333333333","6501500","五股區"
"248004","677-BX","2018/03/27 18:09:08","新北市五股區中興路三段160號","121.44535","25.080985","6501500","五股區"
"232011","375-UM","2018/03/27 18:09:08","新北市坪林區下坑子口6-15號","121.711483333333","24.94327","6502000","坪林區"
"244013","069-UM","2018/03/27 18:09:15","新北市林口區中山路140號","121.391666666667","25.078735","6501700","林口區"
"244007","080-UY","2018/03/27 18:09:08","新北市林口區林口路124巷10弄1號","121.389086666667","25.0817983333333","6501700","林口區"
"244025","742-UY","2018/03/27 18:09:20","新北市林口區文化北路一段301-1號","121.360371666667","25.07277","6501700","林口區"
"244009","410-SL","2018/03/27 18:09:21","新北市林口區竹林路606巷24號","121.385433333333","25.0829266666667","6501700","林口區"
"244023","483-VK","2018/03/27 18:05:55","新北市林口區東湖路105巷12號","121.383816666667","25.072605","6501700","林口區"
"244017","485-VK","2018/03/27 18:09:07","新北市林口區忠孝路504巷12號","121.370176666667","25.0698883333333","6501700","林口區"
"244019","657-BX","2018/03/27 18:09:09","新北市林口區文化一路一段137號","121.374105","25.071995","6501700","林口區"
"244021","838-TS","2018/03/27 18:09:08","新北市林口區自強一街109號","121.400743333333","25.0765033333333","6501700","林口區"
"243013","646-TV","2018/03/27 18:09:08","新北市泰山區南林路99巷19號","121.417346666667","25.0494033333333","6501600","泰山區"
"222003","436-BY","2018/03/27 18:09:06","新北市深坑區腳坑2-3號","121.611258333333","24.9961716666667","6501800","深坑區"
"222002","659-BX","2018/03/27 18:09:23","新北市深坑區文化街52號","121.619021666667","25.0015866666667","6501800","深坑區"
"231041","002-UM","2018/03/27 18:09:05","新北市新店區安華路28-1號","121.51988","24.9606633333333","6500600","新店區"
"231059","046-UY","2018/03/27 18:09:18","新北市新店區安華路28-1號","121.519668333333","24.9608483333333","6500600","新店區"
"231061","047-UY","2018/03/27 18:09:06","新北市新店區安華路28-1號","121.519125","24.9608533333333","6500600","新店區"
"231060","106-UY","2018/03/27 18:09:09","新北市新店區安華路28-1號","121.519915","24.9607883333333","6500600","新店區"
"231064","110-UY","2018/03/27 18:09:06","新北市新店區安華路28-1號","121.519205","24.9610233333333","6500600","新店區"
"231053","187-VK","2018/03/27 18:09:16","新北市新店區安華路28-1號","121.51968","24.9611816666667","6500600","新店區"
"231050","KEA-2219","2018/03/27 18:09:12","新北市新店區安華路28-1號","121.519775","24.96121","6500600","新店區"
"231057","256-BX","2018/03/27 18:09:13","新北市新店區安華路28-1號","121.519795","24.9611466666667","6500600","新店區"
"231046","278-BY","2018/03/27 18:09:20","新北市新店區直潭七街60號","121.53227","24.93991","6500600","新店區"
"231054","AAD-862","2018/03/27 18:09:16","新北市新店區安華路28-1號","121.519873333333","24.96097","6500600","新店區"
"231058","3712-VJ","2018/03/27 18:09:21","新北市新店區安華路28-1號","121.519348333333","24.96071","6500600","新店區"
"231056","3713-VJ","2018/03/27 18:09:18","新北市新店區安康路一段355號","121.519796666667","24.96319","6500600","新店區"
"231055","4716-K9","2018/03/27 18:09:14","新北市新店區安華路28-1號","121.519831666667","24.9610266666667","6500600","新店區"
"231067","4772-VM","2018/03/27 18:09:09","新北市新店區安華路28-1號","121.519203333333","24.96059","6500600","新店區"
"231042","641-BX","2018/03/27 18:09:06","新北市新店區安華路28-1號","121.519473333333","24.9605466666667","6500600","新店區"
"231063","645-TV","2018/03/27 18:09:23","新北市新店區安華路28-1號","121.519301666667","24.96089","6500600","新店區"
"231049","719-UM","2018/03/27 18:09:05","新北市新店區安華路28-1號","121.519588333333","24.9610533333333","6500600","新店區"
"231065","719-UY","2018/03/27 18:09:15","新北市新店區安華路28-1號","121.519728333333","24.9611183333333","6500600","新店區"
"231062","720-UM","2018/03/27 18:09:21","新北市新店區安康路一段355-3號","121.519543333333","24.961585","6500600","新店區"
"231044","897-TW","2018/03/27 18:09:02","新北市新店區安華路28-1號","121.519818333333","24.9607683333333","6500600","新店區"
"231043","899-TW","2018/03/27 18:09:04","新北市新店區安華路28-1號","121.519355","24.9609116666667","6500600","新店區"
"231066","AKT-0513","2018/03/27 18:09:15","新北市新店區安華路1-1號","121.519611666667","24.9604916666667","6500600","新店區"
"241033","557-UM","2018/03/27 18:01:58","新北市三重區光復路一段68巷19號","121.470515","25.04938","6500200","三重區"
"241012","941-UM","2018/03/27 18:09:15","新北市三重區河邊北街305號","121.50242","25.0746283333333","6500200","三重區"
"235066","003-UY","2018/03/27 18:09:14","新北市中和區圓通路221號","121.496616666667","24.9943233333333","6500300","中和區"
"235064","005-UY","2018/03/27 18:09:03","新北市中和區中正路133號","121.499588333333","24.9936133333333","6500300","中和區"
"235063","006-UY","2018/03/27 18:09:14","新北市中和區員山路36巷16-3號","121.485005","24.991265","6500300","中和區"
"235056","096-UM","2018/03/27 18:09:14","新北市中和區新生街28號","121.483216666667","25.00389","6500300","中和區"
"235065","098-UM","2018/03/27 18:09:12","新北市中和區橋和路117-1號","121.491601666667","25.0057866666667","6500300","中和區"
"235058","151-BY","2018/03/27 18:09:11","新北市中和區圓通路367巷33弄4號","121.49391","24.9854733333333","6500300","中和區"
"235038","185-VK","2018/03/27 18:09:07","新北市中和區景平路116號","121.51948","24.9917933333333","6500300","中和區"
"235044","293-VK","2018/03/27 18:09:09","新北市中和區員山路36巷16-3號","121.485178333333","24.9912183333333","6500300","中和區"
"235061","378-QA","2018/03/27 18:09:23","新北市中和區連城路607號","121.477776666667","24.992825","6500300","中和區"
"235069","4980-A6","2018/03/27 18:09:17","新北市中和區圓通路176-1號","121.497186666667","24.9945116666667","6500300","中和區"
"235042","551-UM","2018/03/27 18:09:19","新北市中和區景平路267號","121.508156666667","24.993075","6500300","中和區"
"235070","558-UM","2018/03/27 18:09:21","新北市中和區錦和路350-1號","121.49034","24.99361","6500300","中和區"
"235045","565-BX","2018/03/27 18:09:20","新北市中和區錦和路350-1號","121.490585","24.9935666666667","6500300","中和區"
"235054","640-BX","2018/03/27 18:09:18","新北市中和區莒光路185號","121.472736666667","24.9990166666667","6500300","中和區"
"235047","732-UM","2018/03/27 18:09:11","新北市中和區中正路395號","121.489156666667","24.99353","6500300","中和區"
"235046","733-UM","2018/03/27 18:09:18","新北市中和區員山路36巷13號","121.484158333333","24.9908733333333","6500300","中和區"
"235062","800-TS","2018/03/27 18:09:17","新北市中和區橋和路12號","121.489031666667","25.00502","6500300","中和區"
"235052","805-TS","2018/03/27 18:09:04","新北市中和區中正路273號","121.49564","24.9937466666667","6500300","中和區"
"235048","896-TW","2018/03/27 18:09:19","新北市中和區員山路36巷16-2號","121.485018333333","24.9918733333333","6500300","中和區"
"235051","157-BY","2018/03/27 18:09:03","新北市中和區板南路100號","121.503781666667","24.992435","6500300","中和區"
"235037","AAC-213","2018/03/27 18:09:16","新北市中和區景平路149號","121.513845","24.9921966666667","6500300","中和區"
"226004","205-ST","2018/03/27 18:09:16","新北市平溪區菁桐里菁桐街165號","121.723036666667","25.0231233333333","6502400","平溪區"
"228001","212-TW","2018/03/27 18:09:23","新北市貢寮區真理里新港街26巷55弄2-1號","121.927375","25.05289","6502600","貢寮區"
"228002","663-BX","2018/03/27 18:09:23","新北市貢寮區福連里福興街39-3號","121.994528333333","25.014275","6502600","貢寮區"
"228003","828-UM","2018/03/27 18:09:11","新北市貢寮區真理里美艷山街6-2號","121.928805","25.0607783333333","6502600","貢寮區"
"224010","AGQ-8101","2018/03/27 17:52:42","新北市瑞芳區山尖路174號","121.847805","25.1118016666667","6501200","瑞芳區"
"224002","639-TC","2018/03/27 18:09:10","新北市瑞芳區三爪子坑路32巷92號","121.809538333333","25.1065133333333","6501200","瑞芳區"
"224008","285-BY","2018/03/27 18:09:22","新北市瑞芳區員山子路23號","121.821358333333","25.1030466666667","6501200","瑞芳區"
"224009","273-VK","2018/03/27 18:09:04","新北市瑞芳區金光路117號","121.853666666667","25.1062033333333","6501200","瑞芳區"
"224007","272-VK","2018/03/27 18:09:12","新北市瑞芳區四腳亭坑路2-3號","121.776266666667","25.10916","6501200","瑞芳區"
"224005","271-BY","2018/03/27 18:09:21","新北市瑞芳區建基路二段7號","121.807535","25.1328833333333","6501200","瑞芳區"
"227003","400-TW","2018/03/27 18:09:13","新北市雙溪區共和里東榮街29號","121.866178333333","25.0335866666667","6502500","雙溪區"
"253005","032-BX","2018/03/27 18:09:14","新北市石門區福安街17號","121.568611666667","25.29263","6502200","石門區"
"253006","295-VK","2018/03/27 18:09:11","新北市石門區老梅路52巷25弄2-1號","121.546673333333","25.2875066666667","6502200","石門區"
"222001","KEA-2212","2018/03/27 18:09:19","新北市深坑區北深路二段155號","121.614046666667","25.0020833333333","6501800","深坑區"
"208002","KEA-2872","2018/03/27 18:09:18","新北市金山區三界壇路99巷19-1號","121.619925","25.2275416666667","6502700","金山區"
"208003","665-BX","2018/03/27 18:09:16","新北市金山區民生路84號","121.648296666667","25.2238016666667","6502700","金山區"
"208001","761-BX","2018/03/27 18:09:21","新北市金山區磺港里磺港路107號","121.646531666667","25.2269833333333","6502700","金山區"
"251004","009-UM","2018/03/27 18:09:17","新北市淡水區民族路132巷2號","121.462778333333","25.1347766666667","6501000","淡水區"
"251013","179-VK","2018/03/27 18:09:13","新北市淡水區竹圍子12號","121.476436666667","25.1932783333333","6501000","淡水區"
"251014","180-VK","2018/03/27 18:09:16","新北市淡水區南平15號","121.48755","25.2198733333333","6501000","淡水區"
"251008","181-VK","2018/03/27 18:09:06","新北市淡水區淡金路16巷62弄1號","121.459931666667","25.161005","6501000","淡水區"
"251015","182-VK","2018/03/27 18:09:19","新北市淡水區興福寮88巷1號","121.485345","25.1649716666667","6501000","淡水區"
"251010","413-VK","2018/03/27 18:09:01","新北市淡水區中正路二段50巷10號","121.419978333333","25.1833866666667","6501000","淡水區"
"251012","441-VK","2018/03/27 18:09:14","新北市淡水區北新路三段167號","121.489838333333","25.190675","6501000","淡水區"
"251016","442-VK","2018/03/27 18:09:19","新北市淡水區下圭柔山18-2號","121.45344","25.202455","6501000","淡水區"
"251005","443-VK","2018/03/27 18:09:19","新北市淡水區水源街一段157號","121.447755","25.1717383333333","6501000","淡水區"
"251001","559-UM","2018/03/27 18:09:13","新北市淡水區自立路1巷27號","121.462643333333","25.1295216666667","6501000","淡水區"
"251006","561-UM","2018/03/27 18:09:13","新北市淡水區真理街3巷20號","121.437545","25.176055","6501000","淡水區"
"251009","575-R6","2018/03/27 18:09:05","新北市淡水區大忠街34巷19號","121.444078333333","25.17578","6501000","淡水區"
"251007","577-R6","2018/03/27 18:09:04","新北市淡水區中正東路二段143巷2弄1號","121.46061","25.147375","6501000","淡水區"
"251011","650-BX","2018/03/27 18:09:06","新北市淡水區三空泉9-2號","121.47417","25.1633633333333","6501000","淡水區"
"251002","672-BX","2018/03/27 18:09:08","新北市淡水區中正東路一段129號","121.455586666667","25.15922","6501000","淡水區"
"251003","673-BX","2018/03/27 18:09:15","新北市淡水區大忠街113巷29號","121.447491666667","25.1776066666667","6501000","淡水區"
"207003","550-UM","2018/03/27 18:09:17","新北市萬里區野柳里港西路70-3號","121.685306666667","25.2047166666667","6502800","萬里區"
"207004","225-TW","2018/03/27 18:09:23","新北市萬里區中幅里中福路111號","121.676521666667","25.1686833333333","6502800","萬里區"
"252002","178-VK","2018/03/27 18:09:18","新北市三芝區中山路二段35號","121.50288","25.255215","6502100","三芝區"
"252003","249-BX","2018/03/27 18:09:22","新北市三芝區埔頭里埔頭37號","121.498506666667","25.2603383333333","6502100","三芝區"
"252001","292-VK","2018/03/27 18:09:04","新北市三芝區中興街二段2號","121.498353333333","25.2567033333333","6502100","三芝區"
"252005","702-TV","2018/03/27 18:07:56","新北市三芝區埔坪里埔頭坑41號","121.50424","25.2643916666667","6502100","三芝區"
"237004","KEA-2597","2018/03/27 18:09:10","新北市三峽區大埔路355號","121.371198333333","24.8956933333333","6500900","三峽區"
"237007","153-BY","2018/03/27 18:09:15","新北市三峽區中正路二段370巷26號","121.364818333333","24.910905","6500900","三峽區"
"237009","210-TH","2018/03/27 18:09:04","新北市三峽區大仁路65號","121.365081666667","24.9373583333333","6500900","三峽區"
"237013","252-BX","2018/03/27 18:09:12","新北市三峽區長泰街41巷14號","121.377425","24.93219","6500900","三峽區"
"237012","275-BY","2018/03/27 18:09:17","新北市三峽區民生街19巷7弄37號","121.377388333333","24.935535","6500900","三峽區"
"237008","302-VK","2018/03/27 18:09:14","新北市三峽區白雞42-3號","121.379015","24.9113","6500900","三峽區"
"237014","433-BY","2018/03/27 18:09:11","新北市三峽區國光街81巷15號","121.373655","24.937855","6500900","三峽區"
"237006","5529-G3","2018/03/27 18:09:08","新北市三峽區橫溪路95-1號","121.398641666667","24.9354183333333","6500900","三峽區"
"237010","706-TV","2018/03/27 18:09:13","新北市三峽區民族街63號","121.369591666667","24.9296616666667","6500900","三峽區"
"237005","AKY-6261","2018/03/27 18:09:21","新北市三峽區忠孝街2號","121.370671666667","24.934685","6500900","三峽區"
"236070","105-UM","2018/03/27 18:09:16","新北市土城區石門路20號","121.45934","24.96774","6501300","土城區"
"236043","107-UM","2018/03/27 18:09:09","新北市土城區中華路二段2號","121.439433333333","24.9796283333333","6501300","土城區"
"236079","166-UM","2018/03/27 18:09:17","新北市土城區永寧路32巷42弄2號","121.428071666667","24.9609416666667","6501300","土城區"
"236031","253-BX","2018/03/27 18:09:06","新北市土城區中華路二段2號","121.439343333333","24.9796516666667","6501300","土城區"
"236026","269-VK","2018/03/27 18:09:17","新北市土城區承天路18號","121.43941","24.9635316666667","6501300","土城區"
"236015","270-VK","2018/03/27 18:09:02","新北市土城區學府路一段212號","121.452335","24.98529","6501300","土城區"
"236038","271-VK","2018/03/27 18:09:15","新北市土城區中正路82-1號","121.445181666667","24.9757016666667","6501300","土城區"
"236023","401-BY","2018/03/27 18:09:04","新北市土城區中央路二段280號","121.440735","24.9739666666667","6501300","土城區"
"236059","912-UM","2018/03/27 18:09:11","新北市土城區中央路四段24號","121.420896666667","24.9609316666667","6501300","土城區"
"236049","913-UM","2018/03/27 18:09:02","新北市土城區中正路80號","121.444728333333","24.9755516666667","6501300","土城區"
"236063","915-UM","2018/03/27 18:09:06","新北市土城區金城路二段207號","121.454418333333","24.9815266666667","6501300","土城區"
"236055","AAC-216","2018/03/27 18:09:17","新北市土城區中華路二段62號","121.438896666667","24.9766683333333","6501300","土城區"
"242034","AAC-296","2018/03/27 18:09:22","新北市新莊區景德路306號","121.447548333333","25.03365","6500500","新莊區"
"242058","986-R7","2018/03/27 18:09:09","新北市新莊區新北大道七段462號","121.41314","25.030055","6500500","新莊區"
"242054","751-BX","2018/03/27 18:09:09","新北市新莊區西盛街437號","121.427033333333","25.0118866666667","6500500","新莊區"
"242029","705-TV","2018/03/27 18:09:20","新北市新莊區中平路113號","121.444741666667","25.0464933333333","6500500","新莊區"
"242027","615-BX","2018/03/27 18:09:07","新北市新莊區幸福路572號","121.454166666667","25.0493216666667","6500500","新莊區"
"242025","613-BX","2018/03/27 18:09:21","新北市新莊區五權一路120號","121.459973333333","25.0680666666667","6500500","新莊區"
"242042","566-BX","2018/03/27 18:09:03","新北市新莊區壽山路41號","121.414856666667","25.030465","6500500","新莊區"
"242046","497-BY","2018/03/27 18:09:01","新北市新莊區福營路226號","121.42729","25.029415","6500500","新莊區"
"242002","442-UM","2018/03/27 18:09:17","新北市新莊區新莊路24號","121.458608333333","25.0372533333333","6500500","新莊區"
"242051","441-UM","2018/03/27 18:09:13","新北市新莊區民本街11巷33號","121.42901","25.020345","6500500","新莊區"
"242056","440-UM","2018/03/27 18:09:08","新北市新莊區豐年街豐1巷23號","121.447393333333","25.0312833333333","6500500","新莊區"
"242037","415-TV","2018/03/27 18:09:12","新北市新莊區建福路48巷3號","121.426223333333","25.0273733333333","6500500","新莊區"
"242007","413-TV","2018/03/27 18:09:24","新北市新莊區自立街79巷5號","121.454416666667","25.0456733333333","6500500","新莊區"
"242044","400-BY","2018/03/27 18:09:12","新北市新莊區天泉二街22巷2號","121.414956666667","25.0251","6500500","新莊區"
"242023","362-BY","2018/03/27 18:09:19","新北市新莊區幸福路838號","121.444898333333","25.0491666666667","6500500","新莊區"
"242061","353-BY","2018/03/27 18:09:06","新北市新莊區新樹路222號","121.433768333333","25.0201466666667","6500500","新莊區"
"242039","133-UY","2018/03/27 18:09:17","新北市新莊區民安西路38巷2號","121.427175","25.0210366666667","6500500","新莊區"
"242032","135-UY","2018/03/27 18:09:12","新北市新莊區新泰路289巷50號","121.443248333333","25.0404283333333","6500500","新莊區"
"242048","172-VK","2018/03/27 18:09:09","新北市新莊區民安路98巷5號","121.423695","25.0256033333333","6500500","新莊區"
"242011","173-VK","2018/03/27 18:09:03","新北市新莊區中信街97號","121.447731666667","25.05351","6500500","新莊區"
"242017","175-VK","2018/03/27 18:09:14","新北市新莊區永樂街10號","121.452005","25.04519","6500500","新莊區"
"242005","176-VK","2018/03/27 18:09:20","新北市新莊區自立街81號","121.45449","25.0454416666667","6500500","新莊區"
"242015","346-TH","2018/03/27 18:09:07","新北市新莊區中平路152巷48號","121.446838333333","25.0473016666667","6500500","新莊區"
"242021","348-TH","2018/03/27 18:09:12","新北市新莊區中華路一段63巷42號","121.449981666667","25.0392966666667","6500500","新莊區"
"238015","755-BX","2018/03/27 18:09:09","新北市樹林區大安路347號","121.416493333333","24.9905833333333","6500700","樹林區"
"238023","601-UM","2018/03/27 18:09:05","新北市樹林區龍興街46巷36號","121.40186","25.0151833333333","6500700","樹林區"
"238019","599-UM","2018/03/27 18:09:20","新北市樹林區忠孝街106號","121.424741666667","24.980425","6500700","樹林區"
"238018","571-TV","2018/03/27 18:09:07","新北市樹林區樹新路85號","121.427745","24.9953766666667","6500700","樹林區"
"238024","5061-A6","2018/03/27 18:09:24","新北市樹林區豐林街41-1號","121.421253333333","24.99833","6500700","樹林區"
"238021","KEA-2217","2018/03/27 18:09:17","新北市樹林區柑園街一段260號","121.390996666667","24.9564883333333","6500700","樹林區"
"238022","KEA-2213","2018/03/27 18:09:20","新北市樹林區太平路174巷26號","121.417486666667","24.9765916666667","6500700","樹林區"
"238025","303-VK","2018/03/27 18:09:10","新北市樹林區中正路677號","121.41193","25.0134","6500700","樹林區"
"238017","283-BY","2018/03/27 18:09:19","新北市樹林區中正路716號","121.409115","25.0179566666667","6500700","樹林區"
"238014","282-BY","2018/03/27 18:09:16","新北市樹林區千歲街61巷40弄17號","121.426085","24.999225","6500700","樹林區"
"238020","268-VK","2018/03/27 18:09:10","新北市樹林區俊興街288號","121.418428333333","25.01725","6500700","樹林區"
"238026","172-UY","2018/03/27 18:09:17","新北市樹林區育德街57號","121.391346666667","24.970145","6500700","樹林區"
"238016","169-UY","2018/03/27 18:09:19","新北市樹林區中山路一段242巷4號","121.4208","24.9878266666667","6500700","樹林區"
"239007","AAC-297","2018/03/27 18:09:13","新北市鶯歌區尖山埔路163號","121.346058333333","24.9506766666667","6500800","鶯歌區"
"239006","891-R6","2018/03/27 18:09:15","新北市鶯歌區鶯桃路383號","121.333538333333","24.9636083333333","6500800","鶯歌區"
"239008","527-UM","2018/03/27 18:09:17","新北市鶯歌區國際一路179號","121.33625","24.9765316666667","6500800","鶯歌區"
"239005","526-UM","2018/03/27 18:09:17","新北市鶯歌區鶯桃路668巷73號","121.329866666667","24.9717633333333","6500800","鶯歌區"
"239001","417-VK","2018/03/27 18:09:18","新北市鶯歌區中正三路5巷23號","121.34036","24.9427966666667","6500800","鶯歌區"
"239003","360-BY","2018/03/27 18:09:03","新北市鶯歌區福安街38號","121.334511666667","24.9643666666667","6500800","鶯歌區"
"239002","359-BY","2018/03/27 18:09:14","新北市鶯歌區中山路196-8號","121.347295","24.9571016666667","6500800","鶯歌區"
"239004","193-VK","2018/03/27 18:09:00","新北市鶯歌區尖山路137巷2號","121.346916666667","24.9486","6500800","鶯歌區"
"221008","489-VK","2018/03/27 18:09:20","新北市汐止區康寧街355號","121.628303333333","25.067675","6501100","汐止區"
"221036","130-UY","2018/03/27 18:09:10","新北市汐止區大同路三段141號","121.669281666667","25.0777533333333","6501100","汐止區"
"221015","131-UY","2018/03/27 18:09:19","新北市汐止區鄉長路二段29號","121.668365","25.082895","6501100","汐止區"
"221010","269-BY","2018/03/27 18:09:08","新北市汐止區汐萬路二段273號","121.646058333333","25.0889983333333","6501100","汐止區"
"221012","278-VK","2018/03/27 18:09:15","新北市汐止區保一街35巷4號","121.674833333333","25.08042","6501100","汐止區"
"221023","279-VK","2018/03/27 18:09:06","新北市汐止區中興路295號","121.627895","25.07013","6501100","汐止區"
"221032","280-BY","2018/03/27 18:09:11","新北市汐止區橫科路51號","121.618366666667","25.05098","6501100","汐止區"
"221027","281-BY","2018/03/27 18:09:07","新北市汐止區大同路二段477號","121.660571666667","25.0682466666667","6501100","汐止區"
"221029","298-VK","2018/03/27 18:09:17","新北市汐止區樟樹二路132號","121.63991","25.06559","6501100","汐止區"
"221021","299-VK","2018/03/27 18:09:12","新北市汐止區龍安路202巷28號","121.652573333333","25.06338","6501100","汐止區"
"221031","353-TW","2018/03/27 18:09:12","新北市汐止區中興路158-1號","121.632185","25.0650816666667","6501100","汐止區"
"221035","622-UM","2018/03/27 18:09:13","新北市汐止區大同路二段202號","121.653246666667","25.0648283333333","6501100","汐止區"
"221025","623-UM","2018/03/27 18:09:14","新北市汐止區勤進路1號","121.660498333333","25.0620683333333","6501100","汐止區"
"221038","646-BX","2018/03/27 18:09:24","新北市汐止區莊敬街119巷11號","121.655198333333","25.0602883333333","6501100","汐止區"
"221033","647-BX","2018/03/27 18:09:06","新北市汐止區宜興街30巷22號","121.622408333333","25.0409783333333","6501100","汐止區"
"221002","707-TV","2018/03/27 18:09:03","新北市汐止區福德一路195號","121.635518333333","25.0656666666667","6501100","汐止區"
"221018","753-BX","2018/03/27 18:08:59","新北市汐止區忠孝東路355號","121.66563","25.0705733333333","6501100","汐止區"
"242009","281-VK","2018/03/27 18:09:19","新北市新莊區中華路二段210巷22號","121.45364","25.0524233333333","6500500","新莊區"
