"lineid","car","time","location","longitude","latitude","cityid","cityname"
"234046","148-BY","2018/03/27 18:59:15","新北市永和區秀朗路二段126巷30號","121.524526666667","25.0007666666667","6500400","永和區"
"234070","149-BY","2018/03/27 18:59:09","新北市永和區中興街84巷8號","121.518516666667","25.01169","6500400","永和區"
"234007","207-UY","2018/03/27 18:59:12","新北市永和區中山路一段47號","121.513068333333","25.0105083333333","6500400","永和區"
"234081","298-R6","2018/03/27 18:59:10","新北市永和區永亨路83號","121.522033333333","25.0057133333333","6500400","永和區"
"234038","336-UY","2018/03/27 18:59:20","新北市永和區成功路二段207號","121.52657","24.99598","6500400","永和區"
"234064","337-UY","2018/03/27 18:59:09","新北市永和區秀朗路一段136號","121.517861666667","25.00341","6500400","永和區"
"234086","338-UY","2018/03/27 18:59:05","新北市永和區永寧街129巷2號","121.518025","25.0053866666667","6500400","永和區"
"234017","745-BX","2018/03/27 18:59:14","新北市永和區永和路二段299號","121.51608","25.0161133333333","6500400","永和區"
"234030","746-BX","2018/03/27 18:59:21","新北市永和區秀朗路二段276號","121.525931666667","24.9979216666667","6500400","永和區"
"234054","KEA-2590","2018/03/27 18:59:22","新北市永和區竹林路66巷15-7號","121.518348333333","25.0132766666667","6500400","永和區"
"234013","KEA-2591","2018/03/27 18:59:15","新北市永和區中山路一段60巷2號","121.513045","25.0108733333333","6500400","永和區"
"234061","AAD-866","2018/03/27 18:59:20","新北市永和區福和路307號","121.516283333333","25.0071883333333","6500400","永和區"
"234042","862-TW","2018/03/27 18:59:10","新北市永和區永貞路304號","121.511963333333","25.004785","6500400","永和區"
"234050","863-TW","2018/03/27 18:59:21","新北市永和區文化路194號","121.510781666667","25.0162266666667","6500400","永和區"
"234026","9371-KE","2018/03/27 18:59:07","新北市永和區自由街56號","121.51373","25.0059483333333","6500400","永和區"
"234011","9373-KE","2018/03/27 18:59:14","新北市永和區文化路117號","121.512683333333","25.0152583333333","6500400","永和區"
"249005","172-UM","2018/03/27 18:59:12","新北市八里區長道坑11號","121.395745","25.1229116666667","6502300","八里區"
"249001","173-UM","2018/03/27 18:59:23","新北市八里區龍米路二段226巷1號","121.432883333333","25.1584433333333","6502300","八里區"
"248016","026-BX","2018/03/27 18:59:07","新北市五股區成泰路三段543巷16號","121.450906666667","25.1022216666667","6501500","五股區"
"248006","077-UY","2018/03/27 18:59:08","新北市五股區中興路一段54號","121.467946666667","25.0725833333333","6501500","五股區"
"248008","095-VK","2018/03/27 18:59:15","新北市五股區中興路一段126號","121.465591666667","25.0736466666667","6501500","五股區"
"248020","225-UY","2018/03/27 18:59:06","新北市五股區凌雲路三段57號","121.425306666667","25.1250116666667","6501500","五股區"
"248012","247-BX","2018/03/27 18:59:23","新北市五股區工商路18巷23弄8號","121.440291666667","25.0841666666667","6501500","五股區"
"248004","677-BX","2018/03/27 18:59:08","新北市五股區民義路二段109號","121.404956666667","25.1094433333333","6501500","五股區"
"248002","678-BX","2018/03/27 18:59:24","新北市五股區凌雲路一段85號","121.450695","25.1012816666667","6501500","五股區"
"248010","682-TV","2018/03/27 18:59:20","新北市五股區水碓一路92號","121.431751666667","25.0736433333333","6501500","五股區"
"234023","9380-KE","2018/03/27 18:59:06","新北市永和區環河東路一段128號","121.520828333333","25.0154016666667","6500400","永和區"
"234077","969-R7","2018/03/27 18:59:16","新北市永和區智光街35號","121.517888333333","24.9988333333333","6500400","永和區"
"234074","AAC-211","2018/03/27 18:59:07","新北市永和區環河東路二段98號","121.524118333333","25.01034","6500400","永和區"
"234067","AAC-212","2018/03/27 18:59:10","新北市永和區永和路一段22號","121.51301","25.0048616666667","6500400","永和區"
"234003","AAC-295","2018/03/27 18:59:18","新北市永和區和平街28號","121.513501666667","25.009985","6500400","永和區"
"232011","375-UM","2018/03/27 18:59:02","新北市坪林區坪林街25號","121.711936666667","24.9366216666667","6502000","坪林區"
"244013","069-UM","2018/03/27 18:59:15","新北市林口區麗園一街6巷2-3號","121.376386666667","25.0698583333333","6501700","林口區"
"244025","742-UY","2018/03/27 18:59:20","新北市林口區文化北路一段436號","121.365123333333","25.0770933333333","6501700","林口區"
"244009","410-SL","2018/03/27 18:59:01","新北市林口區竹林路446巷2弄3號","121.388361666667","25.085505","6501700","林口區"
"244023","483-VK","2018/03/27 18:59:15","新北市林口區文林六街20號","121.371253333333","25.080785","6501700","林口區"
"244017","485-VK","2018/03/27 18:59:07","新北市林口區公園路56號","121.368905","25.0698316666667","6501700","林口區"
"244019","657-BX","2018/03/27 18:59:16","新北市林口區麗園二街87號","121.382255","25.0672466666667","6501700","林口區"
"243012","AAD-798","2018/03/27 18:59:11","新北市泰山區福興三街181號","121.432885","25.0570966666667","6501600","泰山區"
"243011","297-R6","2018/03/27 18:59:18","新北市泰山區明志路二段246-1號","121.427053333333","25.0481533333333","6501600","泰山區"
"243015","380-SR","2018/03/27 18:59:18","新北市泰山區泰林路二段322號","121.430275","25.0630483333333","6501600","泰山區"
"243014","421-VK","2018/03/27 18:59:18","新北市泰山區黎明路23號","121.42089","25.06258","6501600","泰山區"
"243010","KEA-2215","2018/03/27 18:59:07","新北市泰山區辭修路24號","121.429008333333","25.0581583333333","6501600","泰山區"
"243009","KEA-2216","2018/03/27 18:59:11","新北市泰山區泰林路二段343號","121.429111666667","25.063505","6501600","泰山區"
"243013","646-TV","2018/03/27 18:59:18","新北市泰山區明志路三段351巷21號","121.42273","25.03484","6501600","泰山區"
"243016","680-BX","2018/03/27 18:59:04","新北市泰山區明志路二段137號","121.42765","25.0506366666667","6501600","泰山區"
"222003","436-BY","2018/03/27 18:59:06","新北市深坑區深南路51-1號","121.621375","25.01017","6501800","深坑區"
"222002","659-BX","2018/03/27 18:59:23","新北市深坑區文山路一段33號","121.629556666667","25.0038216666667","6501800","深坑區"
"231041","002-UM","2018/03/27 18:59:05","新北市新店區環河路62號","121.536926666667","24.9626566666667","6500600","新店區"
"231059","046-UY","2018/03/27 18:59:18","新北市新店區安華路28-1號","121.519786666667","24.9607866666667","6500600","新店區"
"231061","047-UY","2018/03/27 18:59:06","新北市新店區安康路一段351-1號","121.519576666667","24.963895","6500600","新店區"
"231060","106-UY","2018/03/27 18:59:09","新北市新店區安豐路48號","121.500411666667","24.9541533333333","6500600","新店區"
"231051","107-UY","2018/03/27 18:59:26","新北市新店區三民路187號","121.535211666667","24.9755066666667","6500600","新店區"
"231048","108-UY","2018/03/27 18:59:13","新北市新店區德正街27巷29弄28號","121.545786666667","24.97223","6500600","新店區"
"231064","110-UY","2018/03/27 18:59:06","新北市新店區安康路一段355號","121.519875","24.963815","6500600","新店區"
"231053","187-VK","2018/03/27 18:59:16","新北市新店區屈尺路32號","121.548335","24.9226683333333","6500600","新店區"
"231050","KEA-2219","2018/03/27 18:59:12","新北市新店區北宜路二段30巷5弄7號","121.548518333333","24.950835","6500600","新店區"
"231046","278-BY","2018/03/27 18:59:20","新北市新店區直潭六街20號","121.534408333333","24.9407633333333","6500600","新店區"
"231054","AAD-862","2018/03/27 18:59:16","新北市新店區新店路13號","121.540306666667","24.9528683333333","6500600","新店區"
"231058","3712-VJ","2018/03/27 18:59:21","新北市新店區中興路一段139號","121.542096666667","24.963645","6500600","新店區"
"231056","3713-VJ","2018/03/27 18:59:18","新北市新店區大同街8巷27號","121.538865","24.98097","6500600","新店區"
"231055","4716-K9","2018/03/27 18:59:14","新北市新店區新生街10巷7號","121.5405","24.9664116666667","6500600","新店區"
"231067","4772-VM","2018/03/27 18:59:09","新北市新店區安康路一段247巷31號","121.524808333333","24.96197","6500600","新店區"
"231045","617-UM","2018/03/27 18:59:12","新北市新店區光明街7號","121.538105","24.9592716666667","6500600","新店區"
"231040","618-UM","2018/03/27 18:59:06","新北市新店區中央路7號","121.533505","24.9785416666667","6500600","新店區"
"231042","641-BX","2018/03/27 18:59:06","新北市新店區中興路一段266-6號","121.545013333333","24.96767","6500600","新店區"
"231063","645-TV","2018/03/27 18:59:03","新北市新店區車子路110號","121.505206666667","24.95209","6500600","新店區"
"231049","719-UM","2018/03/27 18:59:05","新北市新店區中正路454-5號","121.534451666667","24.979035","6500600","新店區"
"231065","719-UY","2018/03/27 18:59:15","新北市新店區安祥路147巷43號","121.476391666667","24.956415","6500600","新店區"
"231062","720-UM","2018/03/27 18:59:20","新北市新店區安和路一段43號","121.517131666667","24.9655266666667","6500600","新店區"
"231044","897-TW","2018/03/27 18:59:15","新北市新店區寶中路72號","121.547865","24.9805683333333","6500600","新店區"
"231043","899-TW","2018/03/27 18:59:24","新北市新店區北新路二段1號","121.542706666667","24.971225","6500600","新店區"
"231066","AKT-0513","2018/03/27 18:59:15","新北市新店區安康路二段456巷6號","121.493763333333","24.9542766666667","6500600","新店區"
"235066","003-UY","2018/03/27 18:59:14","新北市中和區廣福路56巷2弄2號","121.503643333333","25.0021733333333","6500300","中和區"
"235064","005-UY","2018/03/27 18:59:23","新北市中和區泰和街44巷26號","121.498445","25.0007616666667","6500300","中和區"
"235063","006-UY","2018/03/27 18:59:14","新北市中和區連城路319巷3弄3號","121.489268333333","24.9956616666667","6500300","中和區"
"235056","096-UM","2018/03/27 18:59:14","新北市中和區員山路466巷19號","121.48082","25.00654","6500300","中和區"
"235039","097-UM","2018/03/27 18:59:22","新北市中和區安樂路217巷27號","121.51366","24.998225","6500300","中和區"
"235065","098-UM","2018/03/27 18:59:12","新北市中和區勝利路35巷3弄17號","121.499713333333","25.007365","6500300","中和區"
"235040","150-BY","2018/03/27 18:59:13","新北市中和區宜安路1巷28弄16號","121.512143333333","24.9943633333333","6500300","中和區"
"235058","151-BY","2018/03/27 18:59:11","新北市中和區連城路428巷7-3號","121.479893333333","24.9953533333333","6500300","中和區"
"235055","183-VK","2018/03/27 18:59:21","新北市中和區民德路23號","121.468925","25.0027016666667","6500300","中和區"
"235038","185-VK","2018/03/27 18:59:07","新北市中和區立人街24-4號","121.51887","24.99422","6500300","中和區"
"235049","186-VK","2018/03/27 18:59:07","新北市中和區景安路177巷21號","121.506338333333","24.9945283333333","6500300","中和區"
"235067","255-BX","2018/03/27 18:58:57","新北市中和區民樂路73號","121.484218333333","25.00145","6500300","中和區"
"235044","293-VK","2018/03/27 18:59:09","新北市中和區中興街178號","121.499866666667","24.99113","6500300","中和區"
"235072","301-VK","2018/03/27 18:59:22","新北市中和區景平路727號","121.496381666667","25.0041233333333","6500300","中和區"
"235043","352-BY","2018/03/27 18:59:18","新北市中和區成功路67號","121.526111666667","24.9924516666667","6500300","中和區"
"235068","377-QA","2018/03/27 18:59:12","新北市中和區圓通路232巷10號","121.494831666667","24.993335","6500300","中和區"
"235061","378-QA","2018/03/27 18:59:23","新北市中和區民享街57號","121.47422","25.00252","6500300","中和區"
"235050","4979-A6","2018/03/27 18:59:18","新北市中和區華新街71號","121.508135","24.98392","6500300","中和區"
"235069","4980-A6","2018/03/27 18:59:17","新北市中和區景平路620號","121.500745","24.9970916666667","6500300","中和區"
"235042","551-UM","2018/03/27 18:59:19","新北市中和區秀朗路三段100巷1號","121.525545","24.99329","6500300","中和區"
"235070","558-UM","2018/03/27 18:59:20","新北市中和區安和路195號","121.506023333333","24.998335","6500300","中和區"
"235045","565-BX","2018/03/27 18:59:20","新北市中和區景新街467巷22號","121.514171666667","24.9883316666667","6500300","中和區"
"235054","640-BX","2018/03/27 18:59:18","新北市中和區民享街9號","121.473966666667","25.0056066666667","6500300","中和區"
"235060","647-TV","2018/03/27 18:59:18","新北市中和區民治街3巷1號","121.474913333333","25.0054016666667","6500300","中和區"
"235047","732-UM","2018/03/27 18:59:11","新北市中和區興南路二段54巷11弄2號","121.505706666667","24.9856183333333","6500300","中和區"
"235046","733-UM","2018/03/27 18:59:18","新北市中和區興南路二段11號","121.508218333333","24.986145","6500300","中和區"
"235062","800-TS","2018/03/27 18:59:21","新北市中和區中山路二段408號","121.489945","25.0038466666667","6500300","中和區"
"235057","801-TS","2018/03/27 18:59:18","新北市中和區民利街40巷1弄12號","121.478911666667","24.99904","6500300","中和區"
"235041","802-TS","2018/03/27 18:59:11","新北市中和區安平路102號","121.51165","24.99724","6500300","中和區"
"235052","805-TS","2018/03/27 18:59:23","新北市中和區興南路二段108號","121.504633333333","24.9840566666667","6500300","中和區"
"235048","896-TW","2018/03/27 18:59:18","新北市中和區華新街109巷16號","121.50869","24.98094","6500300","中和區"
"235053","900-TW","2018/03/27 18:59:16","新北市中和區壽德街20-1號","121.466105","24.9948783333333","6500300","中和區"
"235051","157-BY","2018/03/27 18:59:03","新北市中和區忠孝街11巷5號","121.509853333333","24.983235","6500300","中和區"
"235037","AAC-213","2018/03/27 18:59:16","新北市中和區秀朗路三段10巷14弄41-5號","121.524136666667","24.9963966666667","6500300","中和區"
"235059","AAC-215","2018/03/27 18:59:12","新北市中和區圓通路367巷20弄7號","121.491956666667","24.9885216666667","6500300","中和區"
"220065","072-UY","2018/03/27 18:59:20","新北市板橋區民族路287巷10號","121.47117","25.0071366666667","6500100","板橋區"
"220086","073-UY","2018/03/27 18:59:05","新北市板橋區中正路152號","121.456696666667","25.0166033333333","6500100","板橋區"
"220069","AAD-861","2018/03/27 18:59:17","新北市板橋區華興街77號","121.456963333333","25.00509","6500100","板橋區"
"226004","205-ST","2018/03/27 18:59:10","新北市平溪區望古里灰3號","121.760516666667","25.0312016666667","6502400","平溪區"
"228001","212-TW","2018/03/27 18:59:23","新北市貢寮區仁理村保健街73號","121.923721666667","25.0516616666667","6502600","貢寮區"
"228002","663-BX","2018/03/27 18:59:03","新北市貢寮區福隆里東興街106巷25弄1號","121.946428333333","25.0183116666667","6502600","貢寮區"
"228003","828-UM","2018/03/27 18:59:11","新北市貢寮區和美里龍洞街21-1號","121.919188333333","25.1102616666667","6502600","貢寮區"
"224010","AGQ-8101","2018/03/27 18:59:22","新北市瑞芳區汽車路7-4號","121.846661666667","25.11065","6501200","瑞芳區"
"224008","285-BY","2018/03/27 18:59:22","新北市瑞芳區瑞芳街86號","121.802358333333","25.1101966666667","6501200","瑞芳區"
"224009","273-VK","2018/03/27 18:59:04","新北市瑞芳區長仁路40號","121.864383333333","25.118385","6501200","瑞芳區"
"224007","272-VK","2018/03/27 18:59:12","新北市瑞芳區大埔路270號","121.759278333333","25.1016416666667","6501200","瑞芳區"
"224005","271-BY","2018/03/27 18:59:21","新北市瑞芳區連福新城34號","121.820553333333","25.1191833333333","6501200","瑞芳區"
"227009","642-TC","2018/03/27 18:59:04","新北市雙溪區牡丹里中正路58巷23號","121.866476666667","25.0416283333333","6502500","雙溪區"
"227003","400-TW","2018/03/27 18:59:13","新北市雙溪區平林里康福家園10號","121.858756666667","25.0372816666667","6502500","雙溪區"
"253005","032-BX","2018/03/27 18:59:14","新北市石門區中央路37-5號","121.5688","25.2958","6502200","石門區"
"253006","295-VK","2018/03/27 18:59:11","新北市石門區八甲4-8號","121.52098","25.2828483333333","6502200","石門區"
"222001","KEA-2212","2018/03/27 18:59:19","新北市深坑區北深路一段177號","121.632545","25.0108866666667","6501800","深坑區"
"208002","KEA-2872","2018/03/27 18:59:11","新北市金山區信義路72號","121.6351","25.2195333333333","6502700","金山區"
"208003","665-BX","2018/03/27 18:59:17","新北市金山區中正路85號","121.633396666667","25.2217283333333","6502700","金山區"
"208001","761-BX","2018/03/27 18:59:21","新北市金山區中山路149號","121.638898333333","25.220325","6502700","金山區"
"251013","179-VK","2018/03/27 18:59:13","新北市淡水區安子內12號","121.481588333333","25.2190683333333","6501000","淡水區"
"251014","180-VK","2018/03/27 18:59:16","新北市淡水區小中寮21號","121.488776666667","25.2289233333333","6501000","淡水區"
"251015","182-VK","2018/03/27 18:59:19","新北市淡水區糞箕湖60號","121.485191666667","25.172295","6501000","淡水區"
"251010","413-VK","2018/03/27 18:59:21","新北市淡水區沙崙路97號","121.422128333333","25.1825183333333","6501000","淡水區"
"251016","442-VK","2018/03/27 18:59:19","新北市淡水區淡金路三段333號","121.448763333333","25.2062766666667","6501000","淡水區"
"251001","559-UM","2018/03/27 18:59:13","新北市淡水區自強路60號","121.463181666667","25.1275966666667","6501000","淡水區"
"251009","575-R6","2018/03/27 18:59:05","新北市淡水區重建街36號","121.439996666667","25.171265","6501000","淡水區"
"251007","577-R6","2018/03/27 18:59:04","新北市淡水區民生路113巷1弄39號","121.463033333333","25.1386333333333","6501000","淡水區"
"251011","650-BX","2018/03/27 18:59:13","新北市淡水區中正東路二段19號","121.458825","25.1566516666667","6501000","淡水區"
"251002","672-BX","2018/03/27 18:59:08","新北市淡水區中正東路71號","121.447213333333","25.1676433333333","6501000","淡水區"
"251003","673-BX","2018/03/27 18:59:15","新北市淡水區中山北路一段149巷28號","121.443028333333","25.1780283333333","6501000","淡水區"
"207003","550-UM","2018/03/27 18:59:18","新北市萬里區大鵬里頂社23號","121.657026666667","25.2104283333333","6502800","萬里區"
"207004","225-TW","2018/03/27 18:59:03","新北市萬里區萬里里獅頭路23號","121.69323","25.178265","6502800","萬里區"
"252002","178-VK","2018/03/27 18:59:18","新北市三芝區中正路一段82號","121.504115","25.257295","6502100","三芝區"
"252003","249-BX","2018/03/27 18:59:24","新北市三芝區後厝里北勢子42-3號","121.472258333333","25.252585","6502100","三芝區"
"252001","292-VK","2018/03/27 18:59:04","新北市三芝區中興街二段260號","121.501758333333","25.2530416666667","6502100","三芝區"
"237004","KEA-2597","2018/03/27 18:59:10","新北市三峽區有木205-1號","121.439056666667","24.85151","6500900","三峽區"
"237007","153-BY","2018/03/27 18:59:15","新北市三峽區中正路二段249-1號","121.366026666667","24.9122016666667","6500900","三峽區"
"237013","252-BX","2018/03/27 18:59:11","新北市三峽區光明路69巷25號","121.376713333333","24.9292183333333","6500900","三峽區"
"237012","275-BY","2018/03/27 18:59:17","新北市三峽區三樹路222巷72號","121.383206666667","24.9422516666667","6500900","三峽區"
"237008","302-VK","2018/03/27 18:59:14","新北市三峽區中正路一段283-1號","121.371655","24.9256866666667","6500900","三峽區"
"237014","433-BY","2018/03/27 18:59:11","新北市三峽區大勇路1-3號","121.367056666667","24.938465","6500900","三峽區"
"237006","5529-G3","2018/03/27 18:59:08","新北市三峽區溪東路205巷8號","121.404826666667","24.9338116666667","6500900","三峽區"
"237010","706-TV","2018/03/27 18:59:15","新北市三峽區復興路46號","121.373506666667","24.9370633333333","6500900","三峽區"
"237005","AKY-6261","2018/03/27 18:59:21","新北市三峽區中山路459巷163-3號","121.348646666667","24.9329083333333","6500900","三峽區"
"236070","105-UM","2018/03/27 18:59:16","新北市土城區清水路85巷3弄19號","121.45681","24.98246","6501300","土城區"
"236043","107-UM","2018/03/27 18:59:09","新北市土城區學府路一段252號","121.451488333333","24.9844816666667","6501300","土城區"
"236079","166-UM","2018/03/27 18:59:18","新北市土城區中央路四段125巷2弄21號","121.416306666667","24.9567433333333","6501300","土城區"
"236031","253-BX","2018/03/27 18:59:11","新北市土城區慶利街5號","121.439786666667","24.97357","6501300","土城區"
"236026","269-VK","2018/03/27 18:59:17","新北市土城區光明街11號","121.442058333333","24.9746766666667","6501300","土城區"
"236015","270-VK","2018/03/27 18:59:22","新北市土城區延和路11號","121.46398","24.9879816666667","6501300","土城區"
"236038","271-VK","2018/03/27 18:59:15","新北市土城區明德路一段240巷26弄1號","121.460138333333","24.9780216666667","6501300","土城區"
"236023","401-BY","2018/03/27 18:59:03","新北市土城區延吉街217巷1弄2號","121.468635","24.98495","6501300","土城區"
"236059","912-UM","2018/03/27 18:59:11","新北市土城區學士路123號","121.44751","24.9759883333333","6501300","土城區"
"236049","913-UM","2018/03/27 18:59:02","新北市土城區青雲路318-1號","121.458893333333","24.9775666666667","6501300","土城區"
"236063","915-UM","2018/03/27 18:59:06","新北市土城區延和路90號","121.466475","24.9894333333333","6501300","土城區"
"236055","AAC-216","2018/03/27 18:59:17","新北市土城區學成路164號","121.44808","24.989075","6501300","土城區"
"238023","601-UM","2018/03/27 18:59:05","新北市樹林區工興街35巷1號","121.401061666667","25.0132183333333","6500700","樹林區"
"238019","599-UM","2018/03/27 18:59:14","新北市樹林區東榮街91巷2弄2號","121.41599","24.9823633333333","6500700","樹林區"
"238018","571-TV","2018/03/27 18:59:07","新北市樹林區八德街37-3號","121.419048333333","24.9829116666667","6500700","樹林區"
"238021","KEA-2217","2018/03/27 18:59:23","新北市樹林區西圳街二段123巷6弄2號","121.38442","24.9572866666667","6500700","樹林區"
"238022","KEA-2213","2018/03/27 18:59:20","新北市樹林區東興街8-2號","121.409866666667","24.9789283333333","6500700","樹林區"
"238025","303-VK","2018/03/27 18:59:10","新北市樹林區民和街77號","121.380451666667","24.9719","6500700","樹林區"
"238017","283-BY","2018/03/27 18:59:17","新北市樹林區光興街50號","121.40982","25.0027533333333","6500700","樹林區"
"238014","282-BY","2018/03/27 18:59:15","新北市樹林區潭興街143巷11號","121.42546","24.9999833333333","6500700","樹林區"
"238020","268-VK","2018/03/27 18:59:19","新北市樹林區俊英街155巷43弄5號","121.422798333333","25.0117833333333","6500700","樹林區"
"238026","172-UY","2018/03/27 18:59:17","新北市樹林區佳園路一段74號","121.3932","24.970075","6500700","樹林區"
"238016","169-UY","2018/03/27 18:59:19","新北市樹林區文化街25巷36號","121.417541666667","24.986465","6500700","樹林區"
"239007","AAC-297","2018/03/27 18:59:12","新北市鶯歌區中正一路313號","121.356901666667","24.9570983333333","6500800","鶯歌區"
"239006","891-R6","2018/03/27 18:59:05","新北市鶯歌區鶯桃路91巷19號","121.338123333333","24.95257","6500800","鶯歌區"
"239008","527-UM","2018/03/27 18:59:17","新北市鶯歌區國際二路18巷1號","121.337143333333","24.9749033333333","6500800","鶯歌區"
"239005","526-UM","2018/03/27 18:59:17","新北市鶯歌區永和街249號","121.33714","24.972345","6500800","鶯歌區"
"239001","417-VK","2018/03/27 18:59:18","新北市鶯歌區永明街71-2號","121.34106","24.9559783333333","6500800","鶯歌區"
"239003","360-BY","2018/03/27 18:59:23","新北市鶯歌區鶯桃路512號","121.331695","24.9663766666667","6500800","鶯歌區"
"239002","359-BY","2018/03/27 18:59:14","新北市鶯歌區西湖街249號","121.338791666667","24.96668","6500800","鶯歌區"
"239004","193-VK","2018/03/27 18:59:20","新北市鶯歌區中正三路390-1號","121.326676666667","24.9347766666667","6500800","鶯歌區"
"221008","489-VK","2018/03/27 18:59:20","新北市汐止區伯爵街1巷16號","121.641191666667","25.0751333333333","6501100","汐止區"
"221036","130-UY","2018/03/27 18:59:10","新北市汐止區信義路1號","121.662601666667","25.069355","6501100","汐止區"
"221015","131-UY","2018/03/27 18:59:19","新北市汐止區大同路二段509號","121.661346666667","25.06879","6501100","汐止區"
"221010","269-BY","2018/03/27 18:59:08","新北市汐止區康寧街901號","121.651598333333","25.07496","6501100","汐止區"
"221012","278-VK","2018/03/27 18:59:15","新北市汐止區康寧街901號","121.650816666667","25.0752566666667","6501100","汐止區"
"221023","279-VK","2018/03/27 18:59:06","新北市汐止區康寧街901號","121.65099","25.075225","6501100","汐止區"
"221032","280-BY","2018/03/27 18:59:10","新北市汐止區橫科路407巷30弄28號","121.627291666667","25.048315","6501100","汐止區"
"221027","281-BY","2018/03/27 18:59:07","新北市汐止區汐萬路一段256巷3號","121.652376666667","25.074645","6501100","汐止區"
"221029","298-VK","2018/03/27 18:59:17","新北市汐止區樟樹一路254號","121.642408333333","25.06724","6501100","汐止區"
"221031","353-TW","2018/03/27 18:59:08","新北市汐止區中興路181號","121.630271666667","25.0668333333333","6501100","汐止區"
"221035","622-UM","2018/03/27 18:59:12","新北市汐止區康寧街901號","121.65114","25.0751416666667","6501100","汐止區"
"221025","623-UM","2018/03/27 18:59:14","新北市汐止區汐萬路一段266號","121.650951666667","25.0738716666667","6501100","汐止區"
"221038","646-BX","2018/03/27 18:59:24","新北市汐止區汐萬路一段312號","121.650693333333","25.07527","6501100","汐止區"
"221033","647-BX","2018/03/27 18:59:05","新北市汐止區南勢街3號","121.62707","25.0373766666667","6501100","汐止區"
"221002","707-TV","2018/03/27 18:59:03","新北市汐止區大同路一段2號","121.62104","25.05505","6501100","汐止區"
"221018","753-BX","2018/03/27 18:59:19","新北市汐止區汐萬路一段256巷3號","121.652416666667","25.074595","6501100","汐止區"
"220079","145-BY","2018/03/27 18:59:25","新北市板橋區民權路202巷14弄2號","121.460618333333","25.0158","6500100","板橋區"
"220106","KEA-2550","2018/03/27 18:59:14","新北市板橋區文化路二段124巷16號","121.470898333333","25.0258566666667","6500100","板橋區"
"220082","610-BX","2018/03/27 18:59:18","新北市板橋區溪崑二街89號","121.427226666667","24.9893933333333","6500100","板橋區"
"220101","245-BX","2018/03/27 18:59:03","新北市板橋區文化路二段182巷5弄2號","121.471756666667","25.0270116666667","6500100","板橋區"
"220103","257-TC","2018/03/27 18:59:12","新北市板橋區民生路二段121號","121.470713333333","25.0184833333333","6500100","板橋區"
"220091","267-BY","2018/03/27 18:59:11","新北市板橋區莒光路165巷22號","121.474071666667","25.0245916666667","6500100","板橋區"
"220056","276-BY","2018/03/27 18:59:22","新北市板橋區信義路148號","121.458903333333","24.9917533333333","6500100","板橋區"
"220072","277-BY","2018/03/27 18:59:14","新北市板橋區溪北路154號","121.430495","24.9882366666667","6500100","板橋區"
"220071","283-VK","2018/03/27 18:59:15","新北市板橋區忠孝路136號","121.463595","25.00236","6500100","板橋區"
"220094","285-UM","2018/03/27 18:59:19","新北市板橋區文化路二段76號","121.469551666667","25.0249916666667","6500100","板橋區"
"220053","285-VK","2018/03/27 18:59:20","新北市板橋區中山路二段89巷42號","121.47377","25.016985","6500100","板橋區"
"220083","286-VK","2018/03/27 18:59:13","新北市板橋區大觀路一段38巷170弄1號","121.441933333333","25.0045733333333","6500100","板橋區"
"220081","287-VK","2018/03/27 18:59:19","新北市板橋區南雅西路二段102號","121.45235","25.0117933333333","6500100","板橋區"
"220090","288-VK","2018/03/27 18:59:14","新北市板橋區四維路179號","121.464308333333","25.0264066666667","6500100","板橋區"
"220061","293-UM","2018/03/27 18:59:12","新北市板橋區富山街87號","121.476675","25.0217316666667","6500100","板橋區"
"220062","295-UM","2018/03/27 18:59:11","新北市板橋區民享街142巷2號","121.477853333333","25.016595","6500100","板橋區"
"220084","296-UM","2018/03/27 18:59:21","新北市板橋區大觀路二段142-2號","121.442595","24.999085","6500100","板橋區"
"220075","303-R5","2018/03/27 18:59:18","新北市板橋區館前西路213巷7號","121.454465","25.0083266666667","6500100","板橋區"
"220092","307-R5","2018/03/27 18:59:25","新北市板橋區文化路一段231號","121.464126666667","25.01736","6500100","板橋區"
"220098","317-R6","2018/03/27 18:59:18","新北市板橋區民有街18號","121.466195","25.0249833333333","6500100","板橋區"
"220080","461-BY","2018/03/27 18:59:09","新北市板橋區大觀路二段265巷60弄1號","121.442755","24.9979","6500100","板橋區"
"220064","486-VK","2018/03/27 18:59:04","新北市板橋區縣民大道二段106號","121.466856666667","25.01533","6500100","板橋區"
"220088","491-VK","2018/03/27 18:59:22","新北市板橋區民生路二段216號","121.469333333333","25.0215066666667","6500100","板橋區"
"220035","560-BX","2018/03/27 18:59:07","新北市板橋區中正路379巷1弄19號","121.45307","25.0218266666667","6500100","板橋區"
"220055","568-UM","2018/03/27 18:59:14","新北市板橋區中山路一段158巷14-3號","121.466253333333","25.0114266666667","6500100","板橋區"
"220063","609-BX","2018/03/27 18:59:10","新北市板橋區中山路二段157號","121.475771666667","25.016675","6500100","板橋區"
"220057","686-BX","2018/03/27 18:59:17","新北市板橋區重慶路60巷4號","121.461241666667","25.0075166666667","6500100","板橋區"
"220077","687-BX","2018/03/27 18:59:17","新北市板橋區大觀路二段293號","121.442238333333","24.99878","6500100","板橋區"
"220093","689-BX","2018/03/27 18:59:12","新北市板橋區民生路三段64號","121.467063333333","25.0256083333333","6500100","板橋區"
"220054","741-BX","2018/03/27 18:59:18","新北市板橋區後埔街13號","121.460388333333","25.00679","6500100","板橋區"
"220102","KEA-2699","2018/03/27 18:59:17","新北市板橋區雙十路一段44巷36號","121.477261666667","25.0248333333333","6500100","板橋區"
"220067","829-TW","2018/03/27 18:59:13","新北市板橋區三民路186巷13-1號","121.478718333333","25.0148966666667","6500100","板橋區"
"220068","830-TW","2018/03/27 18:59:18","新北市板橋區中山路二段465巷74弄4號","121.481306666667","25.0221366666667","6500100","板橋區"
"220096","831-TW","2018/03/27 18:59:15","新北市板橋區莒光路97號","121.47241","25.0240483333333","6500100","板橋區"
"220074","895-R6","2018/03/27 18:59:18","新北市板橋區西門街59號","121.454436666667","25.0092","6500100","板橋區"
"220073","985-R7","2018/03/27 18:59:21","新北市板橋區民權路252號","121.458316666667","25.0146533333333","6500100","板橋區"
"220097","AAC-210","2018/03/27 18:59:17","新北市板橋區陽明街164巷8號","121.463815","25.0244033333333","6500100","板橋區"
"220070","AAC-253","2018/03/27 18:59:17","新北市板橋區四川路一段281號","121.459416666667","25.00201","6500100","板橋區"
