"lineid","car","time","location","longitude","latitude","cityid","cityname"
"234046","148-BY","2018/03/27 19:59:15","新北市永和區成功路一段99號","121.52689","25.0025516666667","6500400","永和區"
"234070","149-BY","2018/03/27 19:59:15","新北市永和區國光路14號","121.519141666667","25.0084116666667","6500400","永和區"
"234007","207-UY","2018/03/27 19:59:12","新北市永和區保生路22巷17號","121.507058333333","25.0081316666667","6500400","永和區"
"234081","298-R6","2018/03/27 19:59:10","新北市永和區永利路81巷5號","121.521585","25.0040216666667","6500400","永和區"
"234038","336-UY","2018/03/27 19:59:20","新北市永和區成功路二段187號","121.52658","24.9965416666667","6500400","永和區"
"234064","337-UY","2018/03/27 19:59:09","新北市永和區中正路412巷20弄7號","121.518546666667","25.00191","6500400","永和區"
"234086","338-UY","2018/03/27 19:59:25","新北市永和區福和路67號","121.522728333333","25.00793","6500400","永和區"
"234017","745-BX","2018/03/27 19:59:14","新北市永和區文化路62號","121.514371666667","25.015105","6500400","永和區"
"234030","746-BX","2018/03/27 19:59:21","新北市永和區民生路22巷5號","121.522108333333","24.9972266666667","6500400","永和區"
"234054","KEA-2590","2018/03/27 19:59:22","新北市永和區環河東路一段122號","121.520695","25.0154783333333","6500400","永和區"
"234013","KEA-2591","2018/03/27 19:59:15","新北市永和區保生路55號","121.504698333333","25.0106016666667","6500400","永和區"
"234061","AAD-866","2018/03/27 19:59:20","新北市永和區得和路45巷2號","121.516518333333","25.00025","6500400","永和區"
"234042","862-TW","2018/03/27 19:59:10","新北市永和區中和路421巷5弄27號","121.508316666667","25.000605","6500400","永和區"
"234050","863-TW","2018/03/27 19:59:21","新北市永和區保安路260號","121.505996666667","25.01236","6500400","永和區"
"234026","9371-KE","2018/03/27 19:59:07","新北市永和區水源街27巷11號","121.511346666667","25.00395","6500400","永和區"
"234011","9373-KE","2018/03/27 19:59:14","新北市永和區仁愛路352巷92弄16號","121.501345","25.0081866666667","6500400","永和區"
"249005","172-UM","2018/03/27 19:59:12","新北市八里區楓林路3-4號","121.381835","25.129365","6502300","八里區"
"249001","173-UM","2018/03/27 19:59:15","新北市八里區中華路二段310號","121.403805","25.1483716666667","6502300","八里區"
"249004","303-UY","2018/03/27 19:59:12","新北市八里區中山路一段418-2號","121.411031666667","25.157795","6502300","八里區"
"249002","305-UY","2018/03/27 19:59:12","新北市八里區龍米路一段87巷1號","121.454296666667","25.1234016666667","6502300","八里區"
"249003","593-UM","2018/03/27 19:59:14","新北市八里區中華路二段560巷3號","121.398556666667","25.1451166666667","6502300","八里區"
"248016","026-BX","2018/03/27 19:59:12","新北市五股區成泰路三段577巷80弄25號","121.449588333333","25.1045716666667","6501500","五股區"
"248008","095-VK","2018/03/27 19:59:15","新北市五股區四維路32號","121.467626666667","25.0714883333333","6501500","五股區"
"248020","225-UY","2018/03/27 19:59:26","新北市五股區凌雲路三段46號","121.430721666667","25.1086883333333","6501500","五股區"
"248012","247-BX","2018/03/27 19:59:18","新北市五股區民義路一段109號","121.434116666667","25.0863333333333","6501500","五股區"
"248014","261-SL","2018/03/27 19:59:08","新北市五股區五福路20號","121.43434","25.0888083333333","6501500","五股區"
"248004","677-BX","2018/03/27 19:59:08","新北市五股區成泰路一段32巷60號","121.434938333333","25.0669283333333","6501500","五股區"
"248002","678-BX","2018/03/27 19:59:18","新北市五股區成泰路三段487號","121.450761666667","25.0992483333333","6501500","五股區"
"248010","682-TV","2018/03/27 19:59:20","新北市五股區登林路75號","121.428238333333","25.0699583333333","6501500","五股區"
"234023","9380-KE","2018/03/27 19:59:06","新北市永和區中正路702巷18號","121.5165","25.0105283333333","6500400","永和區"
"234077","969-R7","2018/03/27 19:59:09","新北市永和區民有街7號","121.516156666667","24.99702","6500400","永和區"
"234074","AAC-211","2018/03/27 19:59:07","新北市永和區豫溪街156號","121.52302","25.00987","6500400","永和區"
"234067","AAC-212","2018/03/27 19:59:09","新北市永和區中山路一段285號","121.506908333333","25.0070083333333","6500400","永和區"
"234003","AAC-295","2018/03/27 19:59:18","新北市永和區中正路706號","121.516123333333","25.0098683333333","6500400","永和區"
"243012","AAD-798","2018/03/27 19:59:11","新北市泰山區全興路182號","121.4332","25.05752","6501600","泰山區"
"243011","297-R6","2018/03/27 19:59:18","新北市泰山區明志路三段182巷56號","121.422778333333","25.0398233333333","6501600","泰山區"
"243015","380-SR","2018/03/27 19:59:18","新北市泰山區明志路二段214巷9號","121.426761666667","25.048775","6501600","泰山區"
"243014","421-VK","2018/03/27 19:59:23","新北市泰山區泰林路二段117號","121.43434","25.0595","6501600","泰山區"
"243010","KEA-2215","2018/03/27 19:59:07","新北市泰山區中華街10巷2號","121.428121666667","25.052395","6501600","泰山區"
"243009","KEA-2216","2018/03/27 19:59:13","新北市泰山區泰林路二段164巷11號","121.434568333333","25.060715","6501600","泰山區"
"243013","646-TV","2018/03/27 19:59:01","新北市泰山區明志路三段6巷16號","121.423893333333","25.043645","6501600","泰山區"
"243016","680-BX","2018/03/27 19:59:04","新北市泰山區新北大道七段25號","121.420306666667","25.0320766666667","6501600","泰山區"
"222003","436-BY","2018/03/27 19:59:19","新北市深坑區埔新街14號","121.62076","25.0039383333333","6501800","深坑區"
"222002","659-BX","2018/03/27 19:59:15","新北市深坑區北深路二段55巷12弄21號","121.618511666667","25.0031816666667","6501800","深坑區"
"231041","002-UM","2018/03/27 19:59:25","新北市新店區中正路354號","121.535801666667","24.975585","6500600","新店區"
"231059","046-UY","2018/03/27 19:59:18","新北市新店區安康路二段147號","121.5112","24.95991","6500600","新店區"
"231061","047-UY","2018/03/27 19:59:26","新北市新店區安民街250號","121.517638333333","24.9731583333333","6500600","新店區"
"231060","106-UY","2018/03/27 19:59:09","新北市新店區安康路二段406號","121.496815","24.9552966666667","6500600","新店區"
"231051","107-UY","2018/03/27 19:59:06","新北市新店區中央路135號","121.530318333333","24.9738433333333","6500600","新店區"
"231048","108-UY","2018/03/27 19:59:13","新北市新店區寶橋路162號","121.549135","24.9770966666667","6500600","新店區"
"231064","110-UY","2018/03/27 19:59:06","新北市新店區碧安街15巷6號","121.517295","24.96915","6500600","新店區"
"231053","187-VK","2018/03/27 19:59:15","新北市新店區新烏路三段286號","121.549753333333","24.89835","6500600","新店區"
"231050","KEA-2219","2018/03/27 19:59:12","新北市新店區北新路一段86號","121.541505","24.96737","6500600","新店區"
"231057","256-BX","2018/03/27 19:59:16","新北市新店區花園二路一段11號","121.555525","24.93248","6500600","新店區"
"231054","AAD-862","2018/03/27 19:59:14","新北市新店區光明街131號","121.53945","24.9618816666667","6500600","新店區"
"231056","3713-VJ","2018/03/27 19:59:17","新北市新店區北新路三段137號","121.541131666667","24.98296","6500600","新店區"
"231055","4716-K9","2018/03/27 19:59:14","新北市新店區力行路96號","121.538218333333","24.9666033333333","6500600","新店區"
"231067","4772-VM","2018/03/27 19:59:08","新北市新店區秀山路11巷12弄19號","121.5312","24.9596766666667","6500600","新店區"
"231045","617-UM","2018/03/27 19:59:12","新北市新店區北宜路二段82-14號","121.554746666667","24.9534933333333","6500600","新店區"
"231040","618-UM","2018/03/27 19:59:06","新北市新店區北新路一段126巷21號","121.542853333333","24.9696716666667","6500600","新店區"
"231042","641-BX","2018/03/27 19:59:06","新北市新店區中興路二段89號","121.547046666667","24.971395","6500600","新店區"
"231063","645-TV","2018/03/27 19:59:23","新北市新店區車子路11號","121.50285","24.9513066666667","6500600","新店區"
"231068","718-UY","2018/03/27 19:59:16","新北市新店區安華路28-1號","121.519421666667","24.9609633333333","6500600","新店區"
"231049","719-UM","2018/03/27 19:59:24","新北市新店區明德路29號","121.541751666667","24.977185","6500600","新店區"
"231065","719-UY","2018/03/27 19:59:15","新北市新店區安祥路108巷3號","121.475203333333","24.95871","6500600","新店區"
"231062","720-UM","2018/03/27 19:59:20","新北市新店區華城路10巷1-3號","121.528823333333","24.9577616666667","6500600","新店區"
"231044","897-TW","2018/03/27 19:59:14","新北市新店區復興路44-1號","121.538611666667","24.986685","6500600","新店區"
"231043","899-TW","2018/03/27 19:59:04","新北市新店區中正路265巷3號","121.538211666667","24.9737133333333","6500600","新店區"
"231066","AKT-0513","2018/03/27 19:59:15","新北市新店區柴埕路52巷1-2號","121.512065","24.965135","6500600","新店區"
"241011","013-R5","2018/03/27 19:59:07","新北市三重區三和路二段165號","121.49797","25.069575","6500200","三重區"
"241028","022-UY","2018/03/27 19:59:20","新北市三重區中正南路40號","121.493756666667","25.0601016666667","6500200","三重區"
"241008","059-VK","2018/03/27 19:59:15","新北市三重區永福街179巷21號","121.4782","25.0749683333333","6500200","三重區"
"241009","060-VK","2018/03/27 19:59:14","新北市三重區三和路四段386號","121.482356666667","25.0790683333333","6500200","三重區"
"241031","061-VK","2018/03/27 19:59:20","新北市三重區重新路四段144巷16號","121.487053333333","25.05547","6500200","三重區"
"241015","062-VK","2018/03/27 19:59:08","新北市三重區三和路二段8號","121.50105","25.0668633333333","6500200","三重區"
"241017","063-VK","2018/03/27 19:59:07","新北市三重區自強路一段306號","121.491271666667","25.068405","6500200","三重區"
"241024","065-VK","2018/03/27 19:59:08","新北市三重區力行路一段178巷9號","121.481598333333","25.0714166666667","6500200","三重區"
"241026","066-VK","2018/03/27 19:59:16","新北市三重區福德南路15-1號","121.502526666667","25.0631566666667","6500200","三重區"
"241016","265-UM","2018/03/27 19:59:22","新北市三重區正義北路36巷17號","121.496686666667","25.0633833333333","6500200","三重區"
"241022","267-UM","2018/03/27 19:59:15","新北市三重區過圳街31巷2號","121.48906","25.0605666666667","6500200","三重區"
"241018","268-UM","2018/03/27 19:59:15","新北市三重區雙園街57巷9號","121.494765","25.067835","6500200","三重區"
"241032","269-UM","2018/03/27 19:59:23","新北市三重區朝陽街23號","121.483575","25.0565216666667","6500200","三重區"
"241013","270-UM","2018/03/27 19:59:08","新北市三重區三和路三段125巷25號","121.493651666667","25.0735666666667","6500200","三重區"
"241025","271-UM","2018/03/27 19:59:09","新北市三重區頂崁街210巷11號","121.476506666667","25.0677883333333","6500200","三重區"
"241007","398-BY","2018/03/27 19:59:20","新北市三重區溪尾街152號","121.48897","25.0799483333333","6500200","三重區"
"241035","KEA-2210","2018/03/27 19:59:17","新北市三重區大榮街9號","121.498178333333","25.0631733333333","6500200","三重區"
"241004","475-VK","2018/03/27 19:59:25","新北市三重區五華街74號","121.493356666667","25.0819966666667","6500200","三重區"
"241020","478-VK","2018/03/27 19:59:15","新北市三重區忠孝路一段101號","121.48963","25.0721233333333","6500200","三重區"
"241030","480-VK","2018/03/27 19:59:23","新北市三重區重新路四段248-1號","121.486275","25.0533716666667","6500200","三重區"
"241014","543-UM","2018/03/27 19:59:15","新北市三重區三和路二段164號","121.499126666667","25.0686733333333","6500200","三重區"
"241023","545-UM","2018/03/27 19:59:24","新北市三重區頂崁街172號","121.477681666667","25.06595","6500200","三重區"
"241001","547-UM","2018/03/27 19:59:16","新北市三重區五華街6號","121.495093333333","25.0798783333333","6500200","三重區"
"241033","557-UM","2018/03/27 19:58:46","新北市三重區中興北街14-1號","121.46896","25.0475683333333","6500200","三重區"
"241006","AAD-863","2018/03/27 19:59:19","新北市三重區力行路二段61號","121.482081666667","25.0747633333333","6500200","三重區"
"241019","887-TS","2018/03/27 19:59:10","新北市三重區重陽路四段4號","121.490635","25.068725","6500200","三重區"
"241012","941-UM","2018/03/27 19:56:13","新北市三重區河邊北街272號","121.50151","25.0766716666667","6500200","三重區"
"241029","942-UM","2018/03/27 19:59:21","新北市三重區重安街1號","121.489801666667","25.0580983333333","6500200","三重區"
"235066","003-UY","2018/03/27 19:59:14","新北市中和區光華街22號","121.50445","25.0042333333333","6500300","中和區"
"235039","097-UM","2018/03/27 19:59:22","新北市中和區大勇街25巷15弄21-3號","121.515106666667","24.9936083333333","6500300","中和區"
"235065","098-UM","2018/03/27 19:59:12","新北市中和區福美路267號","121.498253333333","25.0050516666667","6500300","中和區"
"235040","150-BY","2018/03/27 19:59:13","新北市中和區保健路10巷4號","121.507465","24.99731","6500300","中和區"
"235055","183-VK","2018/03/27 19:59:21","新北市中和區德光路38-1號","121.470308333333","25.004765","6500300","中和區"
"235049","186-VK","2018/03/27 19:59:07","新北市中和區景平路385巷28號","121.501838333333","24.9944983333333","6500300","中和區"
"235067","255-BX","2018/03/27 19:59:17","新北市中和區員山路148巷23弄7號","121.482228333333","24.99764","6500300","中和區"
"235044","293-VK","2018/03/27 19:59:09","新北市中和區景安路249號","121.503998333333","24.990645","6500300","中和區"
"235072","301-VK","2018/03/27 19:59:22","新北市五股區凌雲路三段15-3號","121.4294","25.1086816666667","6500300","中和區"
"235043","352-BY","2018/03/27 19:59:18","新北市中和區興南路二段159巷12號","121.505201666667","24.9831383333333","6500300","中和區"
"235068","377-QA","2018/03/27 19:59:11","新北市中和區福美路301巷13號","121.497495","25.00432","6500300","中和區"
"235050","4979-A6","2018/03/27 19:59:15","新北市中和區景平路153號","121.51353","24.9917016666667","6500300","中和區"
"235069","4980-A6","2018/03/27 19:59:17","新北市中和區南山路37巷14號","121.502826666667","24.9986666666667","6500300","中和區"
"235070","558-UM","2018/03/27 19:59:20","新北市中和區圓通路163-1號","121.497833333333","24.99554","6500300","中和區"
"235054","640-BX","2018/03/27 19:59:18","新北市中和區莒光路144號","121.472553333333","25.00098","6500300","中和區"
"235047","732-UM","2018/03/27 19:59:11","新北市中和區和平街94號","121.507276666667","24.9913666666667","6500300","中和區"
"235046","733-UM","2018/03/27 19:59:18","新北市中和區興南路一段93巷89弄1號","121.510663333333","24.98608","6500300","中和區"
"235041","802-TS","2018/03/27 19:59:11","新北市中和區中安街222號","121.51206","24.998655","6500300","中和區"
"235052","805-TS","2018/03/27 19:59:23","新北市中和區華新街47號","121.507806666667","24.98456","6500300","中和區"
"235048","896-TW","2018/03/27 19:59:18","新北市中和區景新街433號","121.51304","24.98897","6500300","中和區"
"235051","157-BY","2018/03/27 19:59:23","新北市中和區中興街180巷50弄3號","121.498703333333","24.9890333333333","6500300","中和區"
"235037","AAC-213","2018/03/27 19:59:16","新北市中和區自立路99巷1號","121.522078333333","24.99482","6500300","中和區"
"235059","AAC-215","2018/03/27 19:59:12","新北市中和區圓通路365號","121.491306666667","24.989815","6500300","中和區"
"220065","072-UY","2018/03/27 19:59:20","新北市板橋區區運路30號","121.465505","25.0096716666667","6500100","板橋區"
"220069","AAD-861","2018/03/27 19:59:17","新北市板橋區大明街34號","121.458161666667","25.0027066666667","6500100","板橋區"
"247024","893-R6","2018/03/27 19:59:08","新北市蘆洲區光榮路120巷8弄33號","121.464893333333","25.088135","6501400","蘆洲區"
"247014","546-UM","2018/03/27 19:59:20","新北市蘆洲區成功路108號","121.472381666667","25.0823483333333","6501400","蘆洲區"
"247010","341-TH","2018/03/27 19:59:07","新北市三重區集賢路188號","121.483928333333","25.0880783333333","6501400","蘆洲區"
"247012","339-TH","2018/03/27 19:59:05","新北市蘆洲區民族路151號","121.479426666667","25.087925","6501400","蘆洲區"
"247004","337-TH","2018/03/27 19:59:13","新北市蘆洲區長安街297號","121.45806","25.0848416666667","6501400","蘆洲區"
"247006","336-TH","2018/03/27 19:59:17","新北市蘆洲區九芎街111號","121.46561","25.079645","6501400","蘆洲區"
"247018","057-VK","2018/03/27 19:59:25","新北市蘆洲區民族路292號","121.477883333333","25.08969","6501400","蘆洲區"
"247008","056-VK","2018/03/27 19:59:20","新北市蘆洲區信義路107號","121.478196666667","25.08005","6501400","蘆洲區"
"247016","007-UY","2018/03/27 19:59:16","新北市蘆洲區中正路100號","121.46981","25.084275","6501400","蘆洲區"
"247020","001-UY","2018/03/27 19:59:07","新北市蘆洲區民義街53號","121.472861666667","25.0897666666667","6501400","蘆洲區"
"226004","205-ST","2018/03/27 19:59:10","新北市平溪區石底里公園街18-3號","121.73341","25.0256833333333","6502400","平溪區"
"228003","828-UM","2018/03/27 19:59:11","新北市貢寮區仁理村仁和路224號","121.923906666667","25.053575","6502600","貢寮區"
"224010","AGQ-8101","2018/03/27 19:59:04","新北市瑞芳區汽車路38號","121.846008333333","25.1112916666667","6501200","瑞芳區"
"224002","639-TC","2018/03/27 19:59:10","新北市瑞芳區三爪子坑路113號","121.81064","25.10719","6501200","瑞芳區"
"227009","642-TC","2018/03/27 19:59:04","新北市雙溪區新基里新基南街25號","121.866213333333","25.038165","6502500","雙溪區"
"227003","400-TW","2018/03/27 19:59:13","新北市雙溪區雙溪里長安街16號","121.864991666667","25.0346583333333","6502500","雙溪區"
"222001","KEA-2212","2018/03/27 19:59:19","新北市深坑區北深路三段162號","121.602413333333","25.0033766666667","6501800","深坑區"
"208002","KEA-2872","2018/03/27 19:59:16","新北市金山區環金路87號","121.63694","25.2172483333333","6502700","金山區"
"208003","665-BX","2018/03/27 19:59:16","新北市金山區永興里忠義路1號","121.633153333333","25.2588583333333","6502700","金山區"
"251004","009-UM","2018/03/27 19:59:04","新北市淡水區民權路177巷7號","121.460903333333","25.1356316666667","6501000","淡水區"
"251013","179-VK","2018/03/27 19:59:13","新北市淡水區奎柔山路63號","121.45171","25.2061966666667","6501000","淡水區"
"251014","180-VK","2018/03/27 19:59:16","新北市淡水區石頭厝3號","121.45869","25.2355816666667","6501000","淡水區"
"251008","181-VK","2018/03/27 19:59:26","新北市淡水區淡海路65號","121.422998333333","25.1809916666667","6501000","淡水區"
"251015","182-VK","2018/03/27 19:59:19","新北市淡水區埤島80-1號","121.449565","25.189685","6501000","淡水區"
"251010","413-VK","2018/03/27 19:59:21","新北市淡水區崁頂105號","121.433611666667","25.2039933333333","6501000","淡水區"
"251012","441-VK","2018/03/27 19:59:14","新北市淡水區下圭柔山100-2號","121.441685","25.2113583333333","6501000","淡水區"
"251016","442-VK","2018/03/27 19:59:02","新北市淡水區淡金路三段446號","121.450701666667","25.2144716666667","6501000","淡水區"
"251005","443-VK","2018/03/27 19:59:19","新北市淡水區學府路136巷46號","121.45215","25.1725566666667","6501000","淡水區"
"251001","559-UM","2018/03/27 19:59:13","新北市淡水區淡金路一段166-7號","121.453686666667","25.1802183333333","6501000","淡水區"
"251006","561-UM","2018/03/27 19:59:13","新北市淡水區水碓街28號","121.444121666667","25.1773266666667","6501000","淡水區"
"251009","575-R6","2018/03/27 19:59:25","新北市淡水區英專路28巷2弄5號","121.445905","25.169645","6501000","淡水區"
"251011","650-BX","2018/03/27 19:59:10","新北市淡水區崁頂57號","121.442623333333","25.1971416666667","6501000","淡水區"
"207003","550-UM","2018/03/27 19:59:17","新北市萬里區磺潭里公館崙5號","121.64188","25.2142333333333","6502800","萬里區"
"207004","225-TW","2018/03/27 19:59:23","新北市萬里區北基里忠二街35號","121.685695","25.1756933333333","6502800","萬里區"
"252002","178-VK","2018/03/27 19:59:18","新北市三芝區忠孝街116-3號","121.505533333333","25.2574616666667","6502100","三芝區"
"252001","292-VK","2018/03/27 19:59:24","新北市三芝區公正街9號","121.499786666667","25.2575033333333","6502100","三芝區"
"237004","KEA-2597","2018/03/27 19:59:10","新北市三峽區添福5號","121.370885","24.908365","6500900","三峽區"
"237007","153-BY","2018/03/27 19:59:15","新北市三峽區麻園46號","121.36378","24.9213066666667","6500900","三峽區"
"237009","210-TH","2018/03/27 19:59:24","新北市三峽區民族街30號","121.369278333333","24.930865","6500900","三峽區"
"237012","275-BY","2018/03/27 19:59:17","新北市三峽區中華路31號","121.37285","24.9313133333333","6500900","三峽區"
"237008","302-VK","2018/03/27 19:59:14","新北市三峽區中正路一段174巷4弄29號","121.372868333333","24.92933","6500900","三峽區"
"237006","5529-G3","2018/03/27 19:59:08","新北市三峽區中園街237-1號","121.367061666667","24.91943","6500900","三峽區"
"237005","AKY-6261","2018/03/27 19:59:21","新北市三峽區民生街1巷17號","121.380526666667","24.9356016666667","6500900","三峽區"
"236070","105-UM","2018/03/27 19:59:16","新北市土城區忠義路77號","121.442968333333","24.9651333333333","6501300","土城區"
"236043","107-UM","2018/03/27 19:59:09","新北市土城區學府路一段154號","121.454438333333","24.9868333333333","6501300","土城區"
"236079","166-UM","2018/03/27 19:59:17","新北市土城區福安街108號","121.417211666667","24.9639","6501300","土城區"
"236031","253-BX","2018/03/27 19:59:08","新北市土城區中央路一段252號","121.44425","24.9846283333333","6501300","土城區"
"236026","269-VK","2018/03/27 19:59:17","新北市土城區員林街1號","121.44249","24.97819","6501300","土城區"
"236015","270-VK","2018/03/27 19:59:22","新北市土城區廣福街123號","121.456251666667","24.99288","6501300","土城區"
"236038","271-VK","2018/03/27 19:59:15","新北市土城區國際路52號","121.466551666667","24.9783","6501300","土城區"
"236023","401-BY","2018/03/27 19:59:03","新北市土城區延吉街72號","121.471106666667","24.9866633333333","6501300","土城區"
"236059","912-UM","2018/03/27 19:59:11","新北市土城區中央路一段186-4號","121.445363333333","24.98611","6501300","土城區"
"236049","913-UM","2018/03/27 19:59:22","新北市土城區金城路三段137號","121.468261666667","24.9881016666667","6501300","土城區"
"236063","915-UM","2018/03/27 19:59:26","新北市土城區金城路三段73巷9弄1號","121.466265","24.9876483333333","6501300","土城區"
"236055","AAC-216","2018/03/27 19:59:16","新北市土城區延和路15號","121.464038333333","24.988135","6501300","土城區"
"242034","AAC-296","2018/03/27 19:59:07","新北市新莊區建中街90巷5弄20號","121.44561","25.0373883333333","6500500","新莊區"
"242058","986-R7","2018/03/27 19:59:09","新北市新莊區八德街94號","121.424348333333","25.021495","6500500","新莊區"
"242029","705-TV","2018/03/27 19:59:04","新北市新莊區中榮街152巷18號","121.445975","25.0534766666667","6500500","新莊區"
"242027","615-BX","2018/03/27 19:59:09","新北市新莊區立信一街10巷2號","121.444198333333","25.0494633333333","6500500","新莊區"
"242025","613-BX","2018/03/27 19:59:17","新北市新莊區五工一路91號","121.46091","25.0676216666667","6500500","新莊區"
"242046","497-BY","2018/03/27 19:59:21","新北市新莊區裕民街19巷4號","121.419681666667","25.02518","6500500","新莊區"
"242002","442-UM","2018/03/27 19:59:21","新北市新莊區中正路217號","121.451145","25.0358183333333","6500500","新莊區"
"242051","441-UM","2018/03/27 19:59:13","新北市新莊區民本街29巷1號","121.428226666667","25.0190483333333","6500500","新莊區"
"242056","440-UM","2018/03/27 19:59:15","新北市新莊區中正路347巷17-1號","121.447456666667","25.0343933333333","6500500","新莊區"
"242037","415-TV","2018/03/27 19:59:22","新北市新莊區建安街25巷2號","121.429133333333","25.0259633333333","6500500","新莊區"
"242007","413-TV","2018/03/27 19:59:09","新北市新莊區福壽街173號","121.458018333333","25.0539166666667","6500500","新莊區"
"242044","400-BY","2018/03/27 19:59:13","新北市新莊區中正路742巷3弄16號","121.412865","25.0232333333333","6500500","新莊區"
"242023","362-BY","2018/03/27 19:59:17","新北市新莊區化成路436號","121.466043333333","25.0513366666667","6500500","新莊區"
"242061","353-BY","2018/03/27 19:59:15","新北市新莊區瓊林路72-1號","121.445041666667","25.0286633333333","6500500","新莊區"
"242039","133-UY","2018/03/27 19:59:17","新北市新莊區民安路287-3號","121.428821666667","25.0229916666667","6500500","新莊區"
"242032","135-UY","2018/03/27 19:59:14","新北市新莊區忠孝街29巷39號","121.443598333333","25.037095","6500500","新莊區"
"242048","172-VK","2018/03/27 19:59:08","新北市新莊區後港二路2巷1號","121.423076666667","25.024455","6500500","新莊區"
"242011","173-VK","2018/03/27 19:59:19","新北市新莊區中港路531巷12號","121.450618333333","25.0515866666667","6500500","新莊區"
"242017","175-VK","2018/03/27 19:59:23","新北市新莊區中安街27號","121.452653333333","25.0464183333333","6500500","新莊區"
"242005","176-VK","2018/03/27 19:59:11","新北市新莊區化成路205-47號","121.46573","25.0511033333333","6500500","新莊區"
"242015","346-TH","2018/03/27 19:59:12","新北市新莊區復興路一段39號","121.446705","25.0420866666667","6500500","新莊區"
"242021","348-TH","2018/03/27 19:59:21","新北市新莊區建中街32巷23號","121.44855","25.038655","6500500","新莊區"
"242019","350-TH","2018/03/27 19:59:18","新北市新莊區民生街15巷3號","121.455518333333","25.0424166666667","6500500","新莊區"
"242013","351-TH","2018/03/27 19:59:17","新北市新莊區中信街3號","121.451408333333","25.0507133333333","6500500","新莊區"
"238015","755-BX","2018/03/27 19:58:00","新北市樹林區中山路三段214號","121.379803333333","24.9676633333333","6500700","樹林區"
"238021","KEA-2217","2018/03/27 19:59:23","新北市樹林區佳園路三段101巷80弄10號","121.394311666667","24.94963","6500700","樹林區"
"221008","489-VK","2018/03/27 19:59:20","新北市汐止區忠一街9巷7號","121.620511666667","25.0731866666667","6501100","汐止區"
"221036","130-UY","2018/03/27 19:59:10","新北市汐止區忠孝東路258巷9號","121.663726666667","25.067305","6501100","汐止區"
"221015","131-UY","2018/03/27 19:59:19","新北市汐止區大同路二段695號","121.66514","25.072625","6501100","汐止區"
"221010","269-BY","2018/03/27 19:59:08","新北市汐止區連峰街225巷27號","121.643891666667","25.08098","6501100","汐止區"
"221012","278-VK","2018/03/27 19:59:15","新北市汐止區大同路三段274號","121.677623333333","25.0713333333333","6501100","汐止區"
"221023","279-VK","2018/03/27 19:59:14","新北市汐止區明峰街206號","121.627748333333","25.0692266666667","6501100","汐止區"
"221032","280-BY","2018/03/27 19:59:10","新北市汐止區橫科路4巷1弄10號","121.617888333333","25.0508016666667","6501100","汐止區"
"221027","281-BY","2018/03/27 19:59:06","新北市汐止區中正路90號","121.661378333333","25.069505","6501100","汐止區"
"221029","298-VK","2018/03/27 19:59:17","新北市汐止區樟樹一路137巷26號","121.640948333333","25.06598","6501100","汐止區"
"221021","299-VK","2018/03/27 19:59:12","新北市汐止區水源路一段163號","121.655478333333","25.0620683333333","6501100","汐止區"
"221031","353-TW","2018/03/27 19:59:08","新北市汐止區福德一路211號","121.634958333333","25.0653733333333","6501100","汐止區"
"221035","622-UM","2018/03/27 19:59:11","新北市汐止區長江街57巷6號","121.656206666667","25.0718","6501100","汐止區"
"221025","623-UM","2018/03/27 19:59:14","新北市汐止區秀峰路109巷3號","121.660351666667","25.0634466666667","6501100","汐止區"
"221038","646-BX","2018/03/27 19:59:24","新北市汐止區忠孝東路512號","121.666898333333","25.0754116666667","6501100","汐止區"
"221033","647-BX","2018/03/27 19:59:26","新北市汐止區東勢街203號","121.633778333333","25.0418966666667","6501100","汐止區"
"221018","753-BX","2018/03/27 19:59:18","新北市汐止區忠孝東路397號","121.6657","25.0707966666667","6501100","汐止區"
"220079","145-BY","2018/03/27 19:59:25","新北市板橋區南雅西路二段136號","121.451938333333","25.0128866666667","6500100","板橋區"
"220106","KEA-2550","2018/03/27 19:59:14","新北市板橋區民治街71巷15號","121.480248333333","25.032815","6500100","板橋區"
"220101","245-BX","2018/03/27 19:59:24","新北市板橋區萬板路118號","121.474971666667","25.0233933333333","6500100","板橋區"
"220103","257-TC","2018/03/27 19:59:12","新北市板橋區陽明街29巷27號","121.464216666667","25.0223733333333","6500100","板橋區"
"220091","267-BY","2018/03/27 19:59:11","新北市板橋區懷德街158巷5號","121.478576666667","25.03059","6500100","板橋區"
"220072","277-BY","2018/03/27 19:59:20","新北市板橋區金門街109巷18號","121.433986666667","24.991695","6500100","板橋區"
"220071","283-VK","2018/03/27 19:59:15","新北市中和區和平路200巷25號","121.464866666667","24.9948166666667","6500100","板橋區"
"220094","285-UM","2018/03/27 19:59:19","新北市板橋區雨農路17巷1號","121.462175","25.0246866666667","6500100","板橋區"
"220053","285-VK","2018/03/27 19:59:19","新北市板橋區中山路二段88號","121.475196666667","25.0162816666667","6500100","板橋區"
"220083","286-VK","2018/03/27 19:59:13","新北市板橋區僑中二街38號","121.445385","25.0107883333333","6500100","板橋區"
"220081","287-VK","2018/03/27 19:59:19","新北市板橋區僑中一街80巷6弄1號","121.447696666667","25.0122016666667","6500100","板橋區"
"220090","288-VK","2018/03/27 19:59:09","新北市板橋區幸福路32巷2弄47號","121.460676666667","25.0223766666667","6500100","板橋區"
"220061","293-UM","2018/03/27 19:59:12","新北市板橋區觀光街19號","121.47144","25.0161816666667","6500100","板橋區"
"220062","295-UM","2018/03/27 19:59:11","新北市板橋區光復街33巷17號","121.482036666667","25.0190183333333","6500100","板橋區"
"220075","303-R5","2018/03/27 19:59:18","新北市板橋區金華街10巷48弄46號","121.458573333333","25.0200716666667","6500100","板橋區"
"220092","307-R5","2018/03/27 19:59:05","新北市板橋區英士路179號","121.459625","25.0234833333333","6500100","板橋區"
"220098","317-R6","2018/03/27 19:59:18","新北市板橋區文德路47號","121.461663333333","25.023755","6500100","板橋區"
"220080","461-BY","2018/03/27 19:59:09","新北市板橋區大觀路二段171號","121.445163333333","25.0003166666667","6500100","板橋區"
"220064","486-VK","2018/03/27 19:59:24","新北市板橋區漢生東路193巷9號","121.470435","25.0119233333333","6500100","板橋區"
"220088","491-VK","2018/03/27 19:59:23","新北市板橋區民治街51巷1號","121.479088333333","25.03377","6500100","板橋區"
"220035","560-BX","2018/03/27 19:59:07","新北市板橋區新生街50號","121.456838333333","25.02107","6500100","板橋區"
"220055","568-UM","2018/03/27 19:59:14","新北市板橋區仁愛路47巷2號","121.459798333333","24.9994166666667","6500100","板橋區"
"220063","609-BX","2018/03/27 19:59:23","新北市板橋區中山路二段97-2號","121.474195","25.0162866666667","6500100","板橋區"
"220057","686-BX","2018/03/27 19:59:10","新北市板橋區四川路二段2號","121.45667","24.9966233333333","6500100","板橋區"
"220093","689-BX","2018/03/27 19:59:12","新北市板橋區長江路三段122號","121.475258333333","25.034295","6500100","板橋區"
"220054","741-BX","2018/03/27 19:59:25","新北市板橋區忠孝路201巷68號","121.464748333333","25.0041766666667","6500100","板橋區"
"220102","KEA-2699","2018/03/27 19:59:17","新北市板橋區仁化街64巷14號","121.475688333333","25.0314933333333","6500100","板橋區"
"220067","829-TW","2018/03/27 19:59:08","新北市板橋區漢生東路193巷38號","121.472416666667","25.01189","6500100","板橋區"
"220068","830-TW","2018/03/27 19:59:18","新北市板橋區光復街208號","121.485628333333","25.0202683333333","6500100","板橋區"
"220096","831-TW","2018/03/27 19:59:22","新北市板橋區莒光路40巷17弄7號","121.470531666667","25.0235916666667","6500100","板橋區"
"220089","833-TW","2018/03/27 19:59:14","新北市板橋區龍泉街55巷4號","121.457185","25.025695","6500100","板橋區"
"220074","895-R6","2018/03/27 19:59:18","新北市板橋區府後街1巷8號","121.459403333333","25.01098","6500100","板橋區"
"220073","985-R7","2018/03/27 19:59:18","新北市板橋區南雅西路二段110號","121.45219","25.0121183333333","6500100","板橋區"
"220097","AAC-210","2018/03/27 19:59:17","新北市板橋區光正街23巷46號","121.46156","25.015765","6500100","板橋區"
"220070","AAC-253","2018/03/27 19:59:17","新北市板橋區成都街47號","121.461408333333","25.00493","6500100","板橋區"
