"lineid","car","time","location","longitude","latitude","cityid","cityname"
"234046","148-BY","2018/03/27 20:19:15","新北市新店區環河路550號","121.527103333333","24.98505","6500400","永和區"
"234070","149-BY","2018/03/27 20:19:09","新北市永和區福和路263巷10號","121.517921666667","25.0068116666667","6500400","永和區"
"234007","207-UY","2018/03/27 20:19:12","新北市永和區環河西路二段219號","121.501263333333","25.01009","6500400","永和區"
"234081","298-R6","2018/03/27 20:19:20","新北市永和區福和路19巷12號","121.524325","25.007675","6500400","永和區"
"234038","336-UY","2018/03/27 20:19:20","新北市永和區成功路一段93巷20弄6號","121.528028333333","25.0026666666667","6500400","永和區"
"234064","337-UY","2018/03/27 20:19:09","新北市永和區得和路106號","121.518111666667","25.0001","6500400","永和區"
"234086","338-UY","2018/03/27 20:19:05","新北市永和區永和路二段61號","121.514661666667","25.0111133333333","6500400","永和區"
"234017","745-BX","2018/03/27 20:19:14","新北市永和區永和路二段185號","121.515105","25.0135133333333","6500400","永和區"
"234030","746-BX","2018/03/27 20:19:21","新北市永和區民有街25巷6號","121.517256666667","24.9963166666667","6500400","永和區"
"234054","KEA-2590","2018/03/27 20:19:22","新北市永和區光復街2巷24號","121.517575","25.0165233333333","6500400","永和區"
"234013","KEA-2591","2018/03/27 20:19:15","新北市永和區仁愛路306巷23號","121.50292","25.0086833333333","6500400","永和區"
"234061","AAD-866","2018/03/27 20:19:20","新北市永和區得和路23號","121.515543333333","25.0004616666667","6500400","永和區"
"234042","862-TW","2018/03/27 20:19:10","新北市中和區中安街166號","121.510903333333","25.0000083333333","6500400","永和區"
"234050","863-TW","2018/03/27 20:19:21","新北市永和區新生路2-7號","121.509423333333","25.0169233333333","6500400","永和區"
"249005","172-UM","2018/03/27 20:19:12","新北市八里區下罟子2-1號","121.38843","25.1417333333333","6502300","八里區"
"249001","173-UM","2018/03/27 20:19:15","新北市八里區中華路二段341-10號","121.399098333333","25.1450116666667","6502300","八里區"
"249004","303-UY","2018/03/27 20:19:11","新北市八里區中山路一段129巷45號","121.413953333333","25.1585683333333","6502300","八里區"
"249002","305-UY","2018/03/27 20:19:12","新北市八里區龍米路二段32巷17號","121.44895","25.14071","6502300","八里區"
"249003","593-UM","2018/03/27 20:19:14","新北市八里區商港路12-2號","121.397283333333","25.1448483333333","6502300","八里區"
"248016","026-BX","2018/03/27 20:19:12","新北市五股區天乙路16號","121.448491666667","25.1034683333333","6501500","五股區"
"248012","247-BX","2018/03/27 20:19:23","新北市五股區民義路一段212號","121.430578333333","25.0893816666667","6501500","五股區"
"248004","677-BX","2018/03/27 20:19:08","新北市五股區中興路四段23號","121.438836666667","25.0827066666667","6501500","五股區"
"248002","678-BX","2018/03/27 20:19:24","新北市五股區成泰路三段101-1號","121.44393","25.0902916666667","6501500","五股區"
"248010","682-TV","2018/03/27 20:19:20","新北市泰山區新五路一段97號","121.440646666667","25.0616583333333","6501500","五股區"
"234023","9380-KE","2018/03/27 20:19:06","新北市永和區永和路二段259號","121.515933333333","25.0153616666667","6500400","永和區"
"234077","969-R7","2018/03/27 20:19:12","新北市永和區中正路102號","121.514323333333","24.99571","6500400","永和區"
"234074","AAC-211","2018/03/27 20:19:07","新北市永和區豫溪街156號","121.522988333333","25.0097766666667","6500400","永和區"
"234067","AAC-212","2018/03/27 20:19:09","新北市永和區保平路236巷1弄16號","121.508475","25.0054133333333","6500400","永和區"
"234003","AAC-295","2018/03/27 20:19:18","新北市永和區大新街4號","121.514511666667","25.0085316666667","6500400","永和區"
"243012","AAD-798","2018/03/27 20:19:11","新北市泰山區楓江路47號","121.435415","25.062565","6501600","泰山區"
"243011","297-R6","2018/03/27 20:19:18","新北市泰山區貴陽街16巷5弄6號","121.422445","25.032015","6501600","泰山區"
"243015","380-SR","2018/03/27 20:19:18","新北市泰山區仁德路65號","121.434341666667","25.056815","6501600","泰山區"
"243014","421-VK","2018/03/27 20:19:18","新北市泰山區泰林路二段418號","121.427131666667","25.06431","6501600","泰山區"
"243010","KEA-2215","2018/03/27 20:19:12","新北市泰山區明志路二段254巷5號","121.426436666667","25.0476566666667","6501600","泰山區"
"243009","KEA-2216","2018/03/27 20:19:11","新北市泰山區泰林路二段306巷19號","121.431115","25.063625","6501600","泰山區"
"243013","646-TV","2018/03/27 20:19:23","新北市泰山區中央路5巷17弄1號","121.427221666667","25.0436283333333","6501600","泰山區"
"243016","680-BX","2018/03/27 20:19:04","新北市泰山區明志路三段313號","121.422576666667","25.0361433333333","6501600","泰山區"
"222003","436-BY","2018/03/27 20:19:19","新北市深坑區文化街43號","121.617611666667","25.0018766666667","6501800","深坑區"
"222002","659-BX","2018/03/27 20:19:23","新北市深坑區萬福路75巷53號","121.598168333333","25.00993","6501800","深坑區"
"231041","002-UM","2018/03/27 20:19:05","新北市新店區民權路42號","121.540391666667","24.9830466666667","6500600","新店區"
"231059","046-UY","2018/03/27 20:19:18","新北市新店區安德街141號","121.508618333333","24.960135","6500600","新店區"
"231061","047-UY","2018/03/27 20:19:06","新北市新店區安興路32號","121.515738333333","24.9704083333333","6500600","新店區"
"231060","106-UY","2018/03/27 20:19:09","新北市新店區錦秀路11巷90弄2號","121.480381666667","24.9431266666667","6500600","新店區"
"231051","107-UY","2018/03/27 20:19:26","新北市新店區中央六街57號","121.52795","24.9759233333333","6500600","新店區"
"231048","108-UY","2018/03/27 20:19:13","新北市新店區中興路三段221-1號","121.543423333333","24.98263","6500600","新店區"
"231064","110-UY","2018/03/27 20:19:06","新北市新店區安樂街11號","121.520205","24.9736133333333","6500600","新店區"
"231053","187-VK","2018/03/27 20:19:15","新北市新店區新烏路二段331號","121.550235","24.9106216666667","6500600","新店區"
"231050","KEA-2219","2018/03/27 20:19:12","新北市新店區博愛街2巷1號","121.540913333333","24.9730333333333","6500600","新店區"
"231057","256-BX","2018/03/27 20:19:16","新北市新店區花園十路二段7-6號","121.554098333333","24.93436","6500600","新店區"
"231054","AAD-862","2018/03/27 20:19:14","新北市新店區檳榔路109號","121.544465","24.9617866666667","6500600","新店區"
"231056","3713-VJ","2018/03/27 20:18:58","新北市新店區中正路310號","121.537383333333","24.9746916666667","6500600","新店區"
"231055","4716-K9","2018/03/27 20:19:14","新北市新店區北新路一段297巷21號","121.540721666667","24.96796","6500600","新店區"
"231067","4772-VM","2018/03/27 20:19:08","新北市新店區溪洲路8巷64號","121.533326666667","24.962425","6500600","新店區"
"231045","617-UM","2018/03/27 20:19:12","新北市新店區新坡一街88號","121.548373333333","24.9619266666667","6500600","新店區"
"231040","618-UM","2018/03/27 20:19:11","新北市新店區三民路14號","121.539536666667","24.972105","6500600","新店區"
"231042","641-BX","2018/03/27 20:19:06","新北市新店區寶高路13號","121.552195","24.97774","6500600","新店區"
"231063","645-TV","2018/03/27 20:19:03","新北市新店區安康路二段320巷6號","121.504563333333","24.9596266666667","6500600","新店區"
"231068","718-UY","2018/03/27 20:19:16","新北市新店區寶安街30號","121.542105","24.982315","6500600","新店區"
"231049","719-UM","2018/03/27 20:19:25","新北市新店區碧潭路77巷1號","121.534668333333","24.957295","6500600","新店區"
"231065","719-UY","2018/03/27 20:19:15","新北市新店區安祥路104-10號","121.479151666667","24.9620666666667","6500600","新店區"
"231062","720-UM","2018/03/27 20:19:20","新北市新店區安泰路7巷16號","121.48568","24.950995","6500600","新店區"
"231044","897-TW","2018/03/27 20:19:15","新北市新店區北新路三段128號","121.541683333333","24.9818583333333","6500600","新店區"
"231043","899-TW","2018/03/27 20:19:24","新北市新店區建國路131號","121.539485","24.978245","6500600","新店區"
"231066","AKT-0513","2018/03/27 20:19:15","新北市新店區安民街341-1號","121.516821666667","24.9749283333333","6500600","新店區"
"241011","013-R5","2018/03/27 20:19:07","新北市三重區龍門路217號","121.500255","25.0734916666667","6500200","三重區"
"241028","022-UY","2018/03/27 20:19:20","新北市三重區大同南路144號","121.496483333333","25.057925","6500200","三重區"
"241008","059-VK","2018/03/27 20:19:15","新北市三重區永福街229號","121.480458333333","25.0743916666667","6500200","三重區"
"241009","060-VK","2018/03/27 20:19:14","新北市三重區永福街1號","121.482915","25.0783066666667","6500200","三重區"
"241031","061-VK","2018/03/27 20:19:21","新北市三重區三寧街25號","121.489626666667","25.05988","6500200","三重區"
"241015","062-VK","2018/03/27 20:19:08","新北市三重區重新路一段120號","121.500433333333","25.0628783333333","6500200","三重區"
"241017","063-VK","2018/03/27 20:19:07","新北市三重區自強路一段211號","121.491445","25.068465","6500200","三重區"
"241024","065-VK","2018/03/27 20:19:09","新北市三重區忠孝路三段15巷20號","121.480855","25.06769","6500200","三重區"
"241026","066-VK","2018/03/27 20:19:16","新北市三重區重新路一段52-1號","121.502771666667","25.0634716666667","6500200","三重區"
"241002","090-VK","2018/03/27 20:19:13","新北市三重區仁義街126號","121.497641666667","25.0800616666667","6500200","三重區"
"241016","265-UM","2018/03/27 20:19:22","新北市三重區大同北路97-3號","121.494418333333","25.063575","6500200","三重區"
"241022","267-UM","2018/03/27 20:19:17","新北市三重區市前街14號","121.489158333333","25.0623983333333","6500200","三重區"
"241018","268-UM","2018/03/27 20:19:15","新北市三重區自強路一段230號","121.493503333333","25.066935","6500200","三重區"
"241032","269-UM","2018/03/27 20:19:23","新北市三重區捷運路19巷8弄20號","121.48424","25.0571616666667","6500200","三重區"
"241013","270-UM","2018/03/27 20:19:08","新北市三重區三和路三段167巷3號","121.492065","25.074105","6500200","三重區"
"241025","271-UM","2018/03/27 20:19:09","新北市三重區自由街18巷5號","121.47941","25.0662583333333","6500200","三重區"
"241007","398-BY","2018/03/27 20:19:20","新北市三重區溪尾街108巷50號","121.48743","25.0781883333333","6500200","三重區"
"241035","KEA-2210","2018/03/27 20:19:17","新北市三重區正義北路33巷12號","121.498005","25.0637883333333","6500200","三重區"
"241004","475-VK","2018/03/27 20:19:05","新北市三重區溪尾街165巷61號","121.49096","25.0807816666667","6500200","三重區"
"241020","478-VK","2018/03/27 20:19:16","新北市三重區三和路三段170巷9號","121.49225","25.0730516666667","6500200","三重區"
"241030","480-VK","2018/03/27 20:19:03","新北市三重區環河南路254巷57號","121.48796","25.0523833333333","6500200","三重區"
"241014","543-UM","2018/03/27 20:19:15","新北市三重區龍濱路237號","121.50153","25.0722933333333","6500200","三重區"
"241023","545-UM","2018/03/27 20:19:23","新北市三重區頂崁街141號","121.477755","25.0651116666667","6500200","三重區"
"241001","547-UM","2018/03/27 20:19:16","新北市三重區溪尾街34號","121.490761666667","25.0767816666667","6500200","三重區"
"241033","557-UM","2018/03/27 19:59:39","新北市三重區中興北街105號","121.46978","25.048485","6500200","三重區"
"241006","AAD-863","2018/03/27 20:19:19","新北市三重區車路頭街139巷14號","121.484323333333","25.0762883333333","6500200","三重區"
"241019","887-TS","2018/03/27 20:19:20","新北市三重區忠孝路一段62號","121.490441666667","25.0719783333333","6500200","三重區"
"241012","941-UM","2018/03/27 20:19:12","新北市三重區河邊北街379-1號","121.501735","25.0764433333333","6500200","三重區"
"241029","942-UM","2018/03/27 20:19:01","新北市三重區集美街225號","121.49199","25.055135","6500200","三重區"
"235066","003-UY","2018/03/27 20:19:14","新北市中和區南工路99號","121.507315","25.0037566666667","6500300","中和區"
"235039","097-UM","2018/03/27 20:19:22","新北市中和區自強路56號","121.520145","24.9945816666667","6500300","中和區"
"235065","098-UM","2018/03/27 20:19:12","新北市中和區永和路128巷9號","121.497675","25.007015","6500300","中和區"
"235068","377-QA","2018/03/27 20:19:11","新北市中和區勝利路35巷1弄36號","121.500381666667","25.0079483333333","6500300","中和區"
"235050","4979-A6","2018/03/27 20:19:15","新北市中和區景平路464巷2弄1-4號","121.505905","24.9939366666667","6500300","中和區"
"235069","4980-A6","2018/03/27 20:19:17","新北市中和區中正路440號","121.491065","24.9942383333333","6500300","中和區"
"235026","800-TS","2018/03/27 20:19:17","新北市中和區員山路36巷13號","121.48414","24.9910233333333","6500300","中和區"
"235059","AAC-215","2018/03/27 20:19:12","新北市中和區圓通路356-10號","121.48526","24.9867933333333","6500300","中和區"
"247024","893-R6","2018/03/27 20:19:08","新北市蘆洲區光榮路120巷8弄39號","121.464556666667","25.0879183333333","6501400","蘆洲區"
"247014","546-UM","2018/03/27 20:19:20","新北市蘆洲區中山二路133號","121.472","25.0813733333333","6501400","蘆洲區"
"247022","500-BY","2018/03/27 20:19:24","新北市蘆洲區民族路568號","121.467336666667","25.0887383333333","6501400","蘆洲區"
"247010","341-TH","2018/03/27 20:19:21","新北市蘆洲區信義路188巷12號","121.48016","25.0844966666667","6501400","蘆洲區"
"247012","339-TH","2018/03/27 20:19:05","新北市蘆洲區中興街30號","121.480856666667","25.0869583333333","6501400","蘆洲區"
"247004","337-TH","2018/03/27 20:19:13","新北市蘆洲區永康街30號","121.458578333333","25.0855383333333","6501400","蘆洲區"
"247006","336-TH","2018/03/27 20:19:09","新北市蘆洲區九芎街153巷6號","121.465388333333","25.0788733333333","6501400","蘆洲區"
"247018","057-VK","2018/03/27 20:19:13","新北市蘆洲區民族路408巷10號","121.474835","25.0918933333333","6501400","蘆洲區"
"247008","056-VK","2018/03/27 20:19:20","新北市蘆洲區集賢路233號","121.481945","25.085635","6501400","蘆洲區"
"247002","053-VK","2018/03/27 20:19:09","新北市蘆洲區長安街313巷22號","121.456123333333","25.086095","6501400","蘆洲區"
"247016","007-UY","2018/03/27 20:19:16","新北市蘆洲區光華路132巷39號","121.46585","25.0837616666667","6501400","蘆洲區"
"222001","KEA-2212","2018/03/27 20:19:19","新北市深坑區北深路三段258號","121.599568333333","25.0043566666667","6501800","深坑區"
"208002","KEA-2872","2018/03/27 20:19:10","新北市金山區磺清路135號","121.639365","25.2274416666667","6502700","金山區"
"251013","179-VK","2018/03/27 20:19:13","新北市淡水區水汴頭4-3號","121.475268333333","25.2044433333333","6501000","淡水區"
"251014","180-VK","2018/03/27 20:19:16","新北市淡水區石頭厝3號","121.45868","25.2355933333333","6501000","淡水區"
"251008","181-VK","2018/03/27 20:19:26","新北市淡水區淡海路180巷22號","121.4216","25.1845783333333","6501000","淡水區"
"251015","182-VK","2018/03/27 20:19:19","新北市淡水區淡金路四段496號","121.452043333333","25.22537","6501000","淡水區"
"251010","413-VK","2018/03/27 20:19:20","新北市淡水區新民街一段134號","121.427526666667","25.18889","6501000","淡水區"
"251012","441-VK","2018/03/27 20:19:14","新北市淡水區下圭柔山431-1號","121.449841666667","25.210245","6501000","淡水區"
"251016","442-VK","2018/03/27 20:19:14","新北市淡水區番子田18-1號","121.456813333333","25.22942","6501000","淡水區"
"251006","561-UM","2018/03/27 20:19:13","新北市淡水區淡金路一段571號","121.4527","25.1806116666667","6501000","淡水區"
"251002","672-BX","2018/03/27 20:19:08","新北市淡水區中正路63號","121.441415","25.1695366666667","6501000","淡水區"
"251003","673-BX","2018/03/27 20:19:14","新北市淡水區中山北路一段225號","121.44438","25.17944","6501000","淡水區"
"207004","225-TW","2018/03/27 20:19:23","新北市萬里區北基里仁二街2號","121.682593333333","25.175625","6502800","萬里區"
"252002","178-VK","2018/03/27 20:19:18","新北市三芝區中正路一段21號","121.502913333333","25.2586166666667","6502100","三芝區"
"252001","292-VK","2018/03/27 20:19:04","新北市三芝區中山路一段35號","121.5007","25.2579483333333","6502100","三芝區"
"237006","5529-G3","2018/03/27 20:19:08","新北市三峽區中正路二段206-1號","121.365998333333","24.9143316666667","6500900","三峽區"
"236070","105-UM","2018/03/27 20:19:16","新北市土城區中山路67號","121.426428333333","24.96509","6501300","土城區"
"236031","253-BX","2018/03/27 20:19:08","新北市土城區學成路128巷8弄1號","121.449526666667","24.989965","6501300","土城區"
"236026","269-VK","2018/03/27 20:19:17","新北市土城區中央路一段249巷12號","121.445823333333","24.9855516666667","6501300","土城區"
"236015","270-VK","2018/03/27 20:19:22","新北市土城區廣明街90巷18號","121.455456666667","24.9945066666667","6501300","土城區"
"236038","271-VK","2018/03/27 20:19:15","新北市土城區明德路一段238號","121.460295","24.9773416666667","6501300","土城區"
"236023","401-BY","2018/03/27 20:19:23","新北市土城區延吉街11號","121.472136666667","24.9889566666667","6501300","土城區"
"236059","912-UM","2018/03/27 20:19:11","新北市土城區中央路三段38號","121.438351666667","24.968855","6501300","土城區"
"242034","AAC-296","2018/03/27 20:00:47","新北市新莊區建中街90巷5弄20號","121.44561","25.0373883333333","6500500","新莊區"
"242058","986-R7","2018/03/27 20:19:06","新北市新莊區四維路213號","121.421675","25.019985","6500500","新莊區"
"242029","705-TV","2018/03/27 20:19:24","新北市新莊區中原路207號","121.450853333333","25.0542966666667","6500500","新莊區"
"242027","615-BX","2018/03/27 20:19:22","新北市新莊區幸福路581號","121.453815","25.0492766666667","6500500","新莊區"
"242025","613-BX","2018/03/27 20:19:17","新北市新莊區五工一路80巷10號","121.461365","25.066975","6500500","新莊區"
"242042","566-BX","2018/03/27 20:19:23","新北市新莊區壽山路73號","121.409656666667","25.0326483333333","6500500","新莊區"
"242046","497-BY","2018/03/27 20:19:21","新北市新莊區中正路新生巷9號","121.417178333333","25.0241333333333","6500500","新莊區"
"242002","442-UM","2018/03/27 20:19:23","新北市新莊區化成路13號","121.464966666667","25.0433083333333","6500500","新莊區"
"242051","441-UM","2018/03/27 20:19:13","新北市新莊區民安西路209號","121.426071666667","25.0146916666667","6500500","新莊區"
"242056","440-UM","2018/03/27 20:19:15","新北市新莊區豐年街28巷27號","121.445321666667","25.0322933333333","6500500","新莊區"
"242037","415-TV","2018/03/27 20:19:22","新北市新莊區建安街62巷22號","121.426795","25.0252583333333","6500500","新莊區"
"242007","413-TV","2018/03/27 20:19:17","新北市新莊區福壽街94巷15號","121.459058333333","25.0501733333333","6500500","新莊區"
"242044","400-BY","2018/03/27 20:19:13","新北市新莊區中正路新建巷28弄85號","121.413513333333","25.0214583333333","6500500","新莊區"
"242023","362-BY","2018/03/27 20:19:08","新北市新莊區化成路968號","121.465146666667","25.06373","6500500","新莊區"
"242061","353-BY","2018/03/27 20:19:14","新北市新莊區新樹路172號","121.434625","25.0217683333333","6500500","新莊區"
"242039","133-UY","2018/03/27 20:19:20","新北市新莊區成功街83巷9號","121.4244","25.019145","6500500","新莊區"
"242032","135-UY","2018/03/27 20:19:14","新北市新莊區三和路54號","121.437776666667","25.0382766666667","6500500","新莊區"
"242048","172-VK","2018/03/27 20:19:08","新北市新莊區龍安路256號","121.421356666667","25.0196433333333","6500500","新莊區"
"242011","173-VK","2018/03/27 20:19:23","新北市新莊區中信街16號","121.450968333333","25.0508616666667","6500500","新莊區"
"242017","175-VK","2018/03/27 20:19:20","新北市新莊區中港一街131號","121.448255","25.0451283333333","6500500","新莊區"
"242005","176-VK","2018/03/27 20:19:11","新北市新莊區頭前路15巷2號","121.467896666667","25.05222","6500500","新莊區"
"242015","346-TH","2018/03/27 20:19:08","新北市新莊區永樂街228號","121.446391666667","25.044375","6500500","新莊區"
"242021","348-TH","2018/03/27 20:19:06","新北市新莊區和興街59號","121.446395","25.040905","6500500","新莊區"
"242019","350-TH","2018/03/27 20:19:18","新北市新莊區復興路二段92號","121.455993333333","25.044115","6500500","新莊區"
"242013","351-TH","2018/03/27 20:19:17","新北市新莊區中和街155巷24弄36號","121.44678","25.05112","6500500","新莊區"
"221008","489-VK","2018/03/27 20:19:20","新北市汐止區康寧街119號","121.620921666667","25.066525","6501100","汐止區"
"221036","130-UY","2018/03/27 20:19:10","新北市汐止區仁愛路152巷11號","121.664426666667","25.0642966666667","6501100","汐止區"
"221015","131-UY","2018/03/27 20:19:19","新北市汐止區建成路142巷19弄7號","121.662106666667","25.073905","6501100","汐止區"
"221010","269-BY","2018/03/27 20:19:08","新北市汐止區八連路二段610巷4號","121.62778","25.1088233333333","6501100","汐止區"
"221012","278-VK","2018/03/27 20:19:15","新北市汐止區保新街133-1號","121.687948333333","25.0706666666667","6501100","汐止區"
"221023","279-VK","2018/03/27 20:19:06","新北市汐止區湖東街5巷10號","121.633926666667","25.0729116666667","6501100","汐止區"
"221032","280-BY","2018/03/27 20:19:18","新北市汐止區民權街二段37號","121.619521666667","25.0496966666667","6501100","汐止區"
"221027","281-BY","2018/03/27 20:19:06","新北市汐止區水源路一段3號","121.657275","25.0672433333333","6501100","汐止區"
"221029","298-VK","2018/03/27 20:18:37","新北市汐止區工建路88號","121.640108333333","25.0631083333333","6501100","汐止區"
"221021","299-VK","2018/03/27 20:19:12","新北市汐止區水源路一段284號","121.654188333333","25.058265","6501100","汐止區"
"221031","353-TW","2018/03/27 20:19:08","新北市汐止區中興路150巷13號","121.633","25.0649383333333","6501100","汐止區"
"221035","622-UM","2018/03/27 20:19:11","新北市汐止區長江街101-5號","121.658608333333","25.0732566666667","6501100","汐止區"
"221025","623-UM","2018/03/27 20:19:14","新北市汐止區水源路二段30號","121.654846666667","25.05736","6501100","汐止區"
"221038","646-BX","2018/03/27 20:19:24","新北市汐止區忠孝東路444號","121.666195","25.0725483333333","6501100","汐止區"
"221033","647-BX","2018/03/27 20:19:05","新北市汐止區東勢街201巷39號","121.63501","25.04341","6501100","汐止區"
"221002","707-TV","2018/03/27 20:19:23","新北市汐止區福德三路26號","121.636898333333","25.0693983333333","6501100","汐止區"
"221018","753-BX","2018/03/27 20:19:18","新北市汐止區茄苳路256號","121.67168","25.0682366666667","6501100","汐止區"
"220101","245-BX","2018/03/27 20:19:23","新北市板橋區萬板路810-1號","121.482871666667","25.0273316666667","6500100","板橋區"
"220103","257-TC","2018/03/27 20:19:23","新北市板橋區英士路60號","121.460846666667","25.0248283333333","6500100","板橋區"
"220083","286-VK","2018/03/27 20:19:20","新北市板橋區僑中二街102巷8號","121.445738333333","25.0084616666667","6500100","板橋區"
"220081","287-VK","2018/03/27 20:19:19","新北市板橋區僑中一街80巷1弄4號","121.447386666667","25.011965","6500100","板橋區"
"220061","293-UM","2018/03/27 20:19:12","新北市板橋區四川路一段249號","121.459843333333","25.0026316666667","6500100","板橋區"
"242009","281-VK","2018/03/27 20:19:19","新北市新莊區昌平街1號","121.454995","25.0513933333333","6500500","新莊區"
"220055","568-UM","2018/03/27 20:19:14","新北市板橋區仁愛路23號","121.458915","24.9994983333333","6500100","板橋區"
"220102","KEA-2699","2018/03/27 20:19:17","新北市板橋區漢生東路63巷2號","121.46607","25.016335","6500100","板橋區"
"220089","833-TW","2018/03/27 20:19:14","新北市板橋區四維路175-1號","121.464566666667","25.02629","6500100","板橋區"
"220097","AAC-210","2018/03/27 20:19:17","新北市板橋區光正街42號","121.461833333333","25.0174683333333","6500100","板橋區"
"220070","AAC-253","2018/03/27 20:19:17","新北市板橋區四川路二段245巷21號","121.451201666667","24.9931116666667","6500100","板橋區"
