"lineid","car","time","location","longitude","latitude","cityid","cityname"
"247010","341-TH","2018/03/27 22:29:27","新北市五股區凌雲路二段18巷6-7號","121.444488333333","25.1067683333333","6501400","蘆洲區"
"251004","009-UM","2018/03/27 22:29:15","新北市淡水區民族路35號","121.46251","25.13567","6501000","淡水區"
"251008","181-VK","2018/03/27 22:29:26","新北市淡水區學府路104號","121.449845","25.1717383333333","6501000","淡水區"
"251010","413-VK","2018/03/27 22:29:20","新北市淡水區沙崙路200號","121.424703333333","25.1839566666667","6501000","淡水區"
"251007","577-R6","2018/03/27 22:29:12","新北市淡水區北新路143號","121.449556666667","25.1788733333333","6501000","淡水區"
