"lineid","car","time","location","longitude","latitude","cityid","cityname"
"232001","290-BY","2018/11/26 07:59:45","新北市坪林區坪雙路一段58號","121.713248333333","24.9435533333333","6502000","坪林區"
"232012","291-BY","2018/11/26 07:59:45","新北市坪林區金瓜寮28號","121.67713","24.90798","6502000","坪林區"
"232010","375-UM","2018/11/26 07:59:58","新北市坪林區厚德岡坑8-5號","121.733161666667","24.9409516666667","6502000","坪林區"
"232017","705-BZ","2018/11/26 07:59:53","新北市坪林區坪雙路二段115號","121.753113333333","24.965995","6502000","坪林區"
"232005","758-BX","2018/11/26 07:59:47","新北市坪林區九芎林25-2號","121.70409","24.9251616666667","6502000","坪林區"
"244006","080-UY","2018/11/26 07:59:40","新北市林口區粉寮路二段24號","121.402758333333","25.08622","6501700","林口區"
"244012","KEA-2802","2018/11/26 07:59:51","新北市林口區粉寮69號","121.404765","25.0908016666667","6501700","林口區"
"244001","410-SL","2018/11/26 07:59:48","新北市林口區頂福里26號","121.347686666667","25.09514","6501700","林口區"
"244010","701-TV","2018/11/26 07:59:51","新北市林口區粉寮69號","121.405031666667","25.0907716666667","6501700","林口區"
"244024","837-TS","2018/11/26 08:00:00","新北市林口區粉寮路二段128號","121.404371666667","25.090645","6501700","林口區"
"222005","289-BY","2018/11/26 07:59:58","新北市深坑區文化街45號","121.61693","25.00175","6501800","深坑區"
"231007","189-VK","2018/11/26 07:59:46","新北市新店區華城路11號","121.52958","24.9599916666667","6500600","新店區"
"231008","192-VK","2018/11/26 07:59:49","新北市新店區光明街31號","121.538326666667","24.95967","6500600","新店區"
"235001","611-BX","2018/11/26 07:59:51","新北市中和區圓通路367巷6號","121.491453333333","24.9892383333333","6500300","中和區"
"226005","5620-A6","2018/11/26 07:59:48","新北市平溪區石底里公園街18-3號","121.733558333333","25.02559","6502400","平溪區"
"226001","7418-A5","2018/11/26 07:59:52","新北市平溪區靜安路三段375號","121.781228333333","25.0467316666667","6502400","平溪區"
"226003","AGD-0702","2018/11/26 08:00:00","新北市平溪區新寮里頂寮子4號","121.773785","25.0518416666667","6502400","平溪區"
"223006","022-BY","2018/11/26 07:59:47","新北市石碇區番子坑36號","121.677775","25.0098566666667","6501900","石碇區"
"223002","KEA-2673","2018/11/26 07:59:51","新北市石碇區北宜路五段濕水子巷10號","121.635223333333","24.9489516666667","6501900","石碇區"
"223003","205-TH","2018/11/26 07:59:51","新北市石碇區樟空子10-2號","121.666938333333","24.9619583333333","6501900","石碇區"
"223004","437-BY","2018/11/26 07:59:39","新北市深坑區文山路一段2號","121.645911666667","25.0082483333333","6501900","石碇區"
"223001","592-UM","2018/11/26 07:59:16","新北市石碇區樟空子10-2號","121.666945","24.9621533333333","6501900","石碇區"
"223007","661-BX","2018/11/26 07:53:05","新北市石碇區靜安路一段337號","121.698948333333","25.0144566666667","6501900","石碇區"
"223005","677-TV","2018/11/26 07:59:43","新北市石碇區外按1號","121.651278333333","24.9968066666667","6501900","石碇區"
"227005","282-VK","2018/11/26 07:59:42","新北市雙溪區平林里梅竹蹊16號","121.862026666667","25.0359683333333","6502500","雙溪區"
"252006","073-UM","2018/11/26 07:59:48","新北市三芝區海景三街32號","121.471188333333","25.2477683333333","6502100","三芝區"
"252004","249-BX","2018/11/26 07:59:39","新北市三芝區店子里菜公坑81號","121.513203333333","25.2018633333333","6502100","三芝區"
"237001","159-UY","2018/11/26 07:59:59","新北市三峽區大學路66號","121.376191666667","24.9416566666667","6500900","三峽區"
"242057","986-R7","2018/11/26 07:59:52","新北市新莊區中正路530號","121.430963333333","25.0316","6500500","新莊區"
"242055","751-BX","2018/11/26 07:59:52","新北市新莊區景德路212號","121.448993333333","25.0337983333333","6500500","新莊區"
"242024","705-TV","2018/11/26 07:59:51","新北市新莊區復興路二段61號","121.455146666667","25.044235","6500500","新莊區"
"242026","615-BX","2018/11/26 07:59:46","新北市新莊區思源路38號","121.46024","25.0421683333333","6500500","新莊區"
"242028","612-BX","2018/11/26 07:59:54","新北市新莊區思源路233號","121.459778333333","25.0464883333333","6500500","新莊區"
"242043","566-BX","2018/11/26 07:59:39","新北市新莊區富國路87號","121.420551666667","25.0257833333333","6500500","新莊區"
"242047","497-BY","2018/11/26 07:59:58","新北市新莊區四維路212巷17號","121.42088","25.020255","6500500","新莊區"
"242035","442-UM","2018/11/26 07:59:54","新北市新莊區建國二路1號","121.435056666667","25.02372","6500500","新莊區"
"242052","441-UM","2018/11/26 07:59:56","新北市新莊區環河路48-1號","121.436275","25.0083766666667","6500500","新莊區"
"242001","440-UM","2018/11/26 07:59:45","新北市新莊區新莊路247號","121.454561666667","25.0349766666667","6500500","新莊區"
"242038","415-TV","2018/11/26 07:59:59","新北市新莊區民安東路7號","121.427748333333","25.02098","6500500","新莊區"
"242008","413-TV","2018/11/26 07:59:55","新北市新莊區中原路101號","121.456186666667","25.0542666666667","6500500","新莊區"
"242045","400-BY","2018/11/26 07:59:40","新北市新莊區新樹路47號","121.440136666667","25.032045","6500500","新莊區"
"242022","362-BY","2018/11/26 07:59:55","新北市新莊區公園路150號","121.453161666667","25.0401183333333","6500500","新莊區"
"242059","353-BY","2018/11/26 07:59:42","新北市新莊區瓊林路118-6號","121.441958333333","25.0250133333333","6500500","新莊區"
"242010","132-UY","2018/11/26 07:59:49","新北市新莊區中港路497號","121.451993333333","25.0502183333333","6500500","新莊區"
"242033","135-UY","2018/11/26 07:59:23","新北市新莊區景德路227號","121.44891","25.03368","6500500","新莊區"
"242049","172-VK","2018/11/26 07:59:40","新北市新莊區瓊林南路75-10號","121.434833333333","25.0139766666667","6500500","新莊區"
"242012","173-VK","2018/11/26 07:59:59","新北市新莊區中誠街56號","121.450983333333","25.04809","6500500","新莊區"
"242018","175-VK","2018/11/26 07:59:45","新北市新莊區中港路110號","121.45535","25.0399183333333","6500500","新莊區"
"242006","176-VK","2018/11/26 08:00:00","新北市新莊區福樂街118巷15號","121.457491666667","25.0483066666667","6500500","新莊區"
"242016","346-TH","2018/11/26 07:59:49","新北市新莊區德豐街4號","121.451645","25.0439516666667","6500500","新莊區"
"242030","348-TH","2018/11/26 07:59:52","新北市新莊區新泰路381巷38號","121.442411666667","25.0437233333333","6500500","新莊區"
"242003","349-TH","2018/11/26 07:59:45","新北市新莊區中港路288巷20號","121.453603333333","25.0446016666667","6500500","新莊區"
"242020","350-TH","2018/11/26 07:59:43","新北市新莊區中華路一段33號","121.451865","25.0375216666667","6500500","新莊區"
"242014","351-TH","2018/11/26 07:59:41","新北市新莊區新泰路194號","121.447201666667","25.0383183333333","6500500","新莊區"
"242040","281-VK","2018/11/26 07:59:54","新北市新莊區新樹路113巷33號","121.439545","25.0264616666667","6500500","新莊區"
