"lineid","car","time","location","longitude","latitude","cityid","cityname"
"232001","290-BY","2018/11/26 08:09:45","新北市坪林區坪雙路一段102號","121.722635","24.9460883333333","6502000","坪林區"
"232012","291-BY","2018/11/26 08:09:44","新北市坪林區金瓜寮34-1號","121.67775","24.9070933333333","6502000","坪林區"
"232017","705-BZ","2018/11/26 08:09:53","新北市坪林區坪雙路二段152號","121.766521666667","24.961975","6502000","坪林區"
"232005","758-BX","2018/11/26 08:09:45","新北市坪林區北宜路八段501號","121.706755","24.919715","6502000","坪林區"
"244022","069-UM","2018/11/26 08:09:42","新北市林口區興林路6號","121.38944","25.07663","6501700","林口區"
"244006","080-UY","2018/11/26 08:09:40","新北市林口區中湖43-5號","121.381795","25.09236","6501700","林口區"
"244012","KEA-2802","2018/11/26 08:09:51","新北市林口區林口路39號","121.390245","25.0787766666667","6501700","林口區"
"244001","410-SL","2018/11/26 08:09:48","新北市林口區頂福里28號","121.354381666667","25.0972616666667","6501700","林口區"
"244016","485-VK","2018/11/26 08:10:01","新北市林口區粉寮32號","121.403236666667","25.0866016666667","6501700","林口區"
"244008","656-BX","2018/11/26 08:09:54","新北市林口區竹林路320巷6-1號","121.390951666667","25.0820866666667","6501700","林口區"
"244010","701-TV","2018/11/26 08:09:51","新北市林口區仁愛路一段635號","121.3893","25.0766366666667","6501700","林口區"
"244024","837-TS","2018/11/26 08:09:39","新北市林口區中山路303號","121.383876666667","25.0804166666667","6501700","林口區"
"244020","838-TS","2018/11/26 08:09:51","新北市林口區粉寮路二段288號","121.405078333333","25.0953916666667","6501700","林口區"
"222005","289-BY","2018/11/26 08:09:58","新北市深坑區北深路二段130號","121.615946666667","25.0029116666667","6501800","深坑區"
"231007","189-VK","2018/11/26 08:09:46","新北市新店區新潭路一段1-1號","121.523151666667","24.9436533333333","6500600","新店區"
"231008","192-VK","2018/11/26 08:09:49","新北市新店區永興路73號","121.544533333333","24.935905","6500600","新店區"
"235001","611-BX","2018/11/26 08:09:51","新北市中和區圓通路367巷33弄107號","121.495243333333","24.984105","6500300","中和區"
"226005","5620-A6","2018/11/26 08:09:48","新北市平溪區望古里灰3-1號","121.755795","25.02906","6502400","平溪區"
"226001","7418-A5","2018/11/26 08:09:57","新北市平溪區十分里姜仔坑2號","121.766641666667","25.035335","6502400","平溪區"
"226003","AGD-0702","2018/11/26 08:10:00","新北市平溪區十分里十分街286號","121.776635","25.0468383333333","6502400","平溪區"
"223006","022-BY","2018/11/26 08:09:47","新北市石碇區蚯蚓坑11-10號","121.690236666667","25.0062183333333","6501900","石碇區"
"223002","KEA-2673","2018/11/26 08:06:16","新北市石碇區北宜路五段80號","121.646565","24.95174","6501900","石碇區"
"223003","205-TH","2018/11/26 08:09:51","新北市石碇區小粗坑(格頭里)1號","121.652183333333","24.95285","6501900","石碇區"
"223008","406-TH","2018/11/26 08:09:46","新北市石碇區靜安路一段342號","121.698836666667","25.00878","6501900","石碇區"
"223004","437-BY","2018/11/26 08:09:39","新北市石碇區外按8號","121.651453333333","24.9966683333333","6501900","石碇區"
"223001","592-UM","2018/11/26 08:09:57","新北市石碇區小粗坑(格頭里)1號","121.651281666667","24.9522166666667","6501900","石碇區"
"223007","661-BX","2018/11/26 08:09:52","新北市石碇區靜安路一段342號","121.698493333333","25.0079233333333","6501900","石碇區"
"223005","677-TV","2018/11/26 08:09:43","新北市石碇區外按16-1號","121.65071","24.9975483333333","6501900","石碇區"
"227005","282-VK","2018/11/26 08:09:42","新北市雙溪區上林里內平林120-1號","121.825126666667","25.026515","6502500","雙溪區"
"252006","073-UM","2018/11/26 08:09:48","新北市三芝區海景一街11號","121.472366666667","25.2466133333333","6502100","三芝區"
"252004","249-BX","2018/11/26 08:09:59","新北市三芝區興華里車埕31-3號","121.503533333333","25.1944133333333","6502100","三芝區"
"237001","159-UY","2018/11/26 08:09:58","新北市三峽區學成路269號","121.37565","24.9430233333333","6500900","三峽區"
"242057","986-R7","2018/11/26 08:09:52","新北市新莊區中正路730-3號","121.414818333333","25.0236483333333","6500500","新莊區"
"242055","751-BX","2018/11/26 08:09:52","新北市新莊區瓊林路34號","121.448961666667","25.0311283333333","6500500","新莊區"
"242024","705-TV","2018/11/26 08:09:31","新北市新莊區福美街12號","121.46074","25.0528133333333","6500500","新莊區"
"242026","615-BX","2018/11/26 08:09:46","新北市新莊區福壽街146號","121.457813333333","25.05209","6500500","新莊區"
"242028","612-BX","2018/11/26 08:09:54","新北市新莊區復興路一段145號","121.450301666667","25.0433066666667","6500500","新莊區"
"242043","566-BX","2018/11/26 08:09:59","新北市新莊區中正路871巷9弄42號","121.419833333333","25.0267133333333","6500500","新莊區"
"242047","497-BY","2018/11/26 08:09:38","新北市新莊區萬安街105號","121.420875","25.0229416666667","6500500","新莊區"
"242035","442-UM","2018/11/26 08:09:45","新北市新莊區建福路59巷28號","121.428048333333","25.0275216666667","6500500","新莊區"
"242052","441-UM","2018/11/26 08:09:56","新北市新莊區樹新路120巷49弄1號","121.430361666667","24.9957433333333","6500500","新莊區"
"242001","440-UM","2018/11/26 08:09:45","新北市新莊區新泰路47號","121.449525","25.033665","6500500","新莊區"
"242038","415-TV","2018/11/26 08:09:43","新北市新莊區民全街2號","121.428976666667","25.0209833333333","6500500","新莊區"
"242008","413-TV","2018/11/26 08:09:41","新北市新莊區昌明街30巷21號","121.456673333333","25.05369","6500500","新莊區"
"242045","400-BY","2018/11/26 08:10:00","新北市新莊區福營路103號","121.433885","25.0322516666667","6500500","新莊區"
"242022","362-BY","2018/11/26 08:09:55","新北市新莊區民樂街76號","121.457938333333","25.0435783333333","6500500","新莊區"
"242059","353-BY","2018/11/26 08:09:48","新北市新莊區瓊林南路118-27號","121.43392","25.0107233333333","6500500","新莊區"
"242010","132-UY","2018/11/26 08:09:49","新北市新莊區中港路628號","121.451045","25.055115","6500500","新莊區"
"242033","135-UY","2018/11/26 08:09:42","新北市新莊區新莊路643號","121.445173333333","25.03281","6500500","新莊區"
"242049","172-VK","2018/11/26 08:09:59","新北市新莊區西盛街230號","121.427966666667","25.01643","6500500","新莊區"
"242012","173-VK","2018/11/26 08:09:59","新北市新莊區中誠街98號","121.449923333333","25.0477683333333","6500500","新莊區"
"242018","175-VK","2018/11/26 08:09:44","新北市新莊區復興路二段20-2號","121.454221666667","25.04394","6500500","新莊區"
"242006","176-VK","2018/11/26 08:10:00","新北市新莊區自信街65巷7號","121.45541","25.0487316666667","6500500","新莊區"
"242016","346-TH","2018/11/26 08:09:48","新北市新莊區中和街30巷23號","121.449206666667","25.0440183333333","6500500","新莊區"
"242030","348-TH","2018/11/26 08:09:58","新北市新莊區新泰路321巷7號","121.444298333333","25.0412733333333","6500500","新莊區"
"242003","349-TH","2018/11/26 08:09:45","新北市新莊區自立街214巷7號","121.457236666667","25.0450533333333","6500500","新莊區"
"242020","350-TH","2018/11/26 08:09:43","新北市新莊區中華路一段238號","121.45263","25.0434416666667","6500500","新莊區"
"242014","351-TH","2018/11/26 08:10:01","新北市新莊區新泰路332號","121.44489","25.0419433333333","6500500","新莊區"
"242040","281-VK","2018/11/26 08:09:56","新北市新莊區中正路514號","121.42952","25.0353966666667","6500500","新莊區"
