"lineid","car","time","location","longitude","latitude","cityid","cityname"
"232001","290-BY","2018/11/26 08:19:45","新北市坪林區大粗坑6-1號","121.732226666667","24.94826","6502000","坪林區"
"232012","291-BY","2018/11/26 08:19:44","新北市坪林區九芎根4-1號","121.666295","24.8852016666667","6502000","坪林區"
"232017","705-BZ","2018/11/26 08:19:53","新北市坪林區柑腳坑13-1號","121.767441666667","24.9472433333333","6502000","坪林區"
"232005","758-BX","2018/11/26 08:19:45","新北市坪林區鶯子瀨2-1號","121.708678333333","24.9129566666667","6502000","坪林區"
"244022","069-UM","2018/11/26 08:19:42","新北市林口區隆林街73號","121.386628333333","25.075365","6501700","林口區"
"244006","080-UY","2018/11/26 08:19:59","新北市林口區湖子48-3號","121.383148333333","25.0951216666667","6501700","林口區"
"244012","KEA-2802","2018/11/26 08:19:51","新北市林口區中正路451號","121.384503333333","25.0777566666667","6501700","林口區"
"244001","410-SL","2018/11/26 08:19:48","新北市林口區嘉寶里1鄰18號","121.33986","25.1074033333333","6501700","林口區"
"244016","485-VK","2018/11/26 08:19:41","新北市林口區文化一路二段2號","121.380048333333","25.0767133333333","6501700","林口區"
"244008","656-BX","2018/11/26 08:19:54","新北市林口區中湖39-54號","121.384973333333","25.086195","6501700","林口區"
"244010","701-TV","2018/11/26 08:19:51","新北市林口區佳林路217號","121.383781666667","25.0766133333333","6501700","林口區"
"244024","837-TS","2018/11/26 08:19:39","新北市林口區文化三路一段377-1號","121.365095","25.0737716666667","6501700","林口區"
"244020","838-TS","2018/11/26 08:19:51","新北市林口區中山路2-2號","121.396633333333","25.0787883333333","6501700","林口區"
"222005","289-BY","2018/11/26 08:19:58","新北市深坑區萬福路83號","121.601553333333","25.0094866666667","6501800","深坑區"
"231007","189-VK","2018/11/26 08:19:46","新北市新店區新潭路一段78-1號","121.525155","24.9398783333333","6500600","新店區"
"231008","192-VK","2018/11/26 08:19:49","新北市新店區新烏路二段212-1號","121.547496666667","24.915255","6500600","新店區"
"235001","611-BX","2018/11/26 08:19:51","新北市中和區中正路501號","121.488981666667","24.993845","6500300","中和區"
"226005","5620-A6","2018/11/26 08:19:55","新北市平溪區南山里南山坪121號","121.783556666667","25.0443866666667","6502400","平溪區"
"226001","7418-A5","2018/11/26 08:19:52","新北市平溪區靜安路三段130號","121.774231666667","25.0379466666667","6502400","平溪區"
"226003","AGD-0702","2018/11/26 08:20:00","新北市平溪區十分里十分街45號","121.774536666667","25.0408066666667","6502400","平溪區"
"223006","022-BY","2018/11/26 08:17:25","新北市石碇區十八重溪63號","121.674885","25.0135833333333","6501900","石碇區"
"223002","KEA-2673","2018/11/26 08:06:16","新北市石碇區北宜路五段80號","121.646565","24.95174","6501900","石碇區"
"223003","205-TH","2018/11/26 08:19:51","新北市石碇區北宜路六段十三股巷1號","121.64881","24.9487133333333","6501900","石碇區"
"223008","406-TH","2018/11/26 08:19:46","新北市石碇區靜安路一段266號","121.683985","25.0090766666667","6501900","石碇區"
"223004","437-BY","2018/11/26 08:19:59","新北市石碇區碇坪路一段39號","121.658136666667","24.9914033333333","6501900","石碇區"
"223001","592-UM","2018/11/26 08:18:16","新北市石碇區北宜路六段十三股巷3號","121.647113333333","24.9442966666667","6501900","石碇區"
"223007","661-BX","2018/11/26 08:19:59","新北市石碇區蚯蚓坑61號","121.683738333333","25.009915","6501900","石碇區"
"223005","677-TV","2018/11/26 08:19:43","新北市石碇區碇坪路一段39號","121.6581","24.9914283333333","6501900","石碇區"
"227005","282-VK","2018/11/26 08:19:42","新北市雙溪區上林里大瀨10號","121.822326666667","25.022155","6502500","雙溪區"
"252006","073-UM","2018/11/26 08:19:48","新北市三芝區後厝里大片頭90號","121.456175","25.2467366666667","6502100","三芝區"
"252004","249-BX","2018/11/26 08:19:39","新北市三芝區興華里車埕62號","121.498695","25.196915","6502100","三芝區"
"237001","159-UY","2018/11/26 08:19:58","新北市三峽區三樹路279號","121.379063333333","24.9432183333333","6500900","三峽區"
"242057","986-R7","2018/11/26 08:19:52","新北市新莊區新北大道七段323號","121.412365","25.0283133333333","6500500","新莊區"
"242055","751-BX","2018/11/26 08:19:52","新北市新莊區瓊林路40巷20-3號","121.447171666667","25.0302066666667","6500500","新莊區"
"242024","705-TV","2018/11/26 08:19:51","新北市新莊區新北大道二段292號","121.465115","25.0614066666667","6500500","新莊區"
"242026","615-BX","2018/11/26 08:19:47","新北市新莊區思源路448號","121.45998","25.053905","6500500","新莊區"
"242028","612-BX","2018/11/26 08:19:54","新北市新莊區中平路57號","121.44475","25.044445","6500500","新莊區"
"242043","566-BX","2018/11/26 08:19:55","新北市新莊區雙鳳路23號","121.416681666667","25.0269066666667","6500500","新莊區"
"242047","497-BY","2018/11/26 08:19:58","新北市新莊區萬安街75號","121.421225","25.0237933333333","6500500","新莊區"
"242035","442-UM","2018/11/26 08:19:45","新北市新莊區建福路46號","121.426606666667","25.0277166666667","6500500","新莊區"
"242052","441-UM","2018/11/26 08:19:56","新北市新莊區新樹路699巷33號","121.43289","25.0013916666667","6500500","新莊區"
"242001","440-UM","2018/11/26 08:19:41","新北市新莊區大觀街42巷31號","121.454621666667","25.03646","6500500","新莊區"
"242038","415-TV","2018/11/26 08:19:43","新北市新莊區民安路146號","121.424516666667","25.0250683333333","6500500","新莊區"
"242008","413-TV","2018/11/26 08:19:41","新北市新莊區昌平街59巷32號","121.45383","25.0531766666667","6500500","新莊區"
"242045","400-BY","2018/11/26 08:19:40","新北市新莊區建國一路78號","121.434408333333","25.0304283333333","6500500","新莊區"
"242022","362-BY","2018/11/26 08:19:55","新北市新莊區福壽街51號","121.458238333333","25.0489233333333","6500500","新莊區"
"242059","353-BY","2018/11/26 08:19:42","新北市新莊區新樹路541號","121.432865","25.0083266666667","6500500","新莊區"
"242010","132-UY","2018/11/26 08:19:52","新北市新莊區富貴路161號","121.450033333333","25.0569566666667","6500500","新莊區"
"242033","135-UY","2018/11/26 08:19:42","新北市新莊區瓊泰路176號","121.443276666667","25.03321","6500500","新莊區"
"242049","172-VK","2018/11/26 08:19:20","新北市新莊區民安西路139巷8號","121.427236666667","25.0167366666667","6500500","新莊區"
"242012","173-VK","2018/11/26 08:19:42","新北市新莊區中誠街169巷1弄1號","121.448246666667","25.0470083333333","6500500","新莊區"
"242018","175-VK","2018/11/26 08:19:44","新北市新莊區明中街51巷1號","121.456783333333","25.0396966666667","6500500","新莊區"
"242006","176-VK","2018/11/26 08:19:54","新北市新莊區中華路二段40號","121.45411","25.0455783333333","6500500","新莊區"
"242016","346-TH","2018/11/26 08:19:28","新北市新莊區中港路339巷48號","121.45026","25.04507","6500500","新莊區"
"242030","348-TH","2018/11/26 08:19:52","新北市新莊區新泰路314號","121.445208333333","25.0414733333333","6500500","新莊區"
"242003","349-TH","2018/11/26 08:19:45","新北市新莊區福樂街56巷17號","121.458781666667","25.046225","6500500","新莊區"
"242020","350-TH","2018/11/26 08:19:54","新北市新莊區中華路一段8號","121.452031666667","25.0368683333333","6500500","新莊區"
"242014","351-TH","2018/11/26 08:19:41","新北市新莊區新泰路502巷48號","121.444126666667","25.0463616666667","6500500","新莊區"
"242040","281-VK","2018/11/26 08:19:54","新北市新莊區中正路612-1號","121.426161666667","25.0301933333333","6500500","新莊區"
