"lineid","car","time","location","longitude","latitude","cityid","cityname"
"244022","069-UM","2018/11/26 10:29:42","新北市林口區文化三路一段617巷126號","121.371086666667","25.07847","6501700","林口區"
"244011","701-TV","2018/11/26 10:29:51","新北市林口區粉寮69號","121.405056666667","25.0907916666667","6501700","林口區"
"231007","189-VK","2018/11/26 10:29:46","新北市新店區小坑三路81號","121.51365","24.9085533333333","6500600","新店區"
"231008","192-VK","2018/11/26 10:29:49","新北市新店區新烏路三段220巷24號","121.545478333333","24.9036533333333","6500600","新店區"
"227005","282-VK","2018/11/26 10:11:02","新北市雙溪區泰平里灣潭路35-1號","121.812315","24.9289516666667","6502500","雙溪區"
"252006","AAC-283","2018/11/26 10:29:50","新北市三芝區新庄里番社后29-1號","121.501433333333","25.2712683333333","6502100","三芝區"
