"lineid","car","time","location","longitude","latitude","cityid","cityname"
"248011","655-BX","2018/11/26 10:37:17","新北市五股區中興路二段83巷26-6號","121.460011666667","25.0753","6501500","五股區"
"244022","069-UM","2018/11/26 10:40:02","新北市林口區仁愛路二段692號","121.369601666667","25.0805383333333","6501700","林口區"
"244011","701-TV","2018/11/26 10:35:53","新北市林口區粉寮69號","121.405041666667","25.090795","6501700","林口區"
"231007","189-VK","2018/11/26 10:39:46","新北市新店區新潭路三段80巷15號","121.502178333333","24.9094633333333","6500600","新店區"
"231008","192-VK","2018/11/26 10:33:29","新北市新店區成功路58-1號","121.5386","24.9000816666667","6500600","新店區"
"227005","282-VK","2018/11/26 10:37:02","新北市雙溪區泰平里烏山路40-1號","121.833878333333","24.9381916666667","6502500","雙溪區"
