"lineid","car","time","location","longitude","latitude","cityid","cityname"
"244019","403-UM","2018/11/26 11:09:56","新北市林口區粉寮69號","121.405083333333","25.0907783333333","6501700","林口區"
"231007","189-VK","2018/11/26 11:10:06","新北市新店區新潭路一段212號","121.529221666667","24.9295166666667","6500600","新店區"
"231008","192-VK","2018/11/26 11:09:49","新北市新店區頂石厝路72號","121.535263333333","24.918495","6500600","新店區"
"235029","098-UM","2018/11/26 11:09:59","新北市中和區員山路36巷16-3號","121.48511","24.9912883333333","6500300","中和區"
"227005","282-VK","2018/11/26 11:10:01","新北市雙溪區泰平里泰平1-5號","121.847611666667","24.994655","6502500","雙溪區"
