"lineid","car","time","location","longitude","latitude","cityid","cityname"
"234028","746-BX","2018/11/26 14:49:30","新北市五股區孝義路9-17號","121.449225","25.1069666666667","6500400","永和區"
"234025","9371-KE","2018/11/26 14:49:26","新北市永和區雙和街52巷1-1號","121.509108333333","25.0031683333333","6500400","永和區"
"248013","025-BX","2018/11/26 14:49:38","新北市五股區五福路11-6號","121.43423","25.0887016666667","6501500","五股區"
"248015","026-BX","2018/11/26 14:49:41","新北市五股區成泰路三段577巷80弄48號","121.449835","25.1051033333333","6501500","五股區"
"248007","095-VK","2018/11/26 14:49:30","新北市五股區國道路三段19號","121.468591666667","25.0752633333333","6501500","五股區"
"248003","677-BX","2018/11/26 14:49:39","新北市五股區成泰路一段135號","121.435513333333","25.07279","6501500","五股區"
"248001","678-BX","2018/11/26 14:49:23","新北市五股區新城八路313號","121.445695","25.0920966666667","6501500","五股區"
"248009","682-TV","2018/11/26 14:49:37","新北市五股區成泰路一段7巷17號","121.43255","25.0670566666667","6501500","五股區"
"243005","AAD-798","2018/11/26 14:49:32","新北市泰山區明志路三段76號","121.424903333333","25.041765","6501600","泰山區"
"243001","297-R6","2018/11/26 14:49:21","新北市泰山區福泰街60號","121.434283333333","25.059115","6501600","泰山區"
"243008","KEA-2801","2018/11/26 14:49:32","新北市泰山區新北大道六段217號","121.425148333333","25.03493","6501600","泰山區"
"243007","421-VK","2018/11/26 14:49:39","新北市泰山區明志路一段318號","121.43142","25.0592583333333","6501600","泰山區"
"243003","KEA-2215","2018/11/26 14:49:35","新北市新莊區丹鳳街34號","121.421543333333","25.02958","6501600","泰山區"
"243002","KEA-2216","2018/11/26 14:49:32","新北市泰山區明志路二段273巷16弄14號","121.427761666667","25.0467233333333","6501600","泰山區"
"243004","646-TV","2018/11/26 14:49:31","新北市泰山區楓江路81號","121.436803333333","25.06344","6501600","泰山區"
"243006","680-BX","2018/11/26 14:49:27","新北市泰山區明志路一段80號","121.43349","25.064395","6501600","泰山區"
"231002","002-UM","2018/11/26 14:49:35","新北市新店區民權路132號","121.534888333333","24.9828233333333","6500600","新店區"
"231027","0293-UT","2018/11/26 14:49:26","新北市新店區中正路336號","121.536813333333","24.9751516666667","6500600","新店區"
"231028","046-UY","2018/11/26 14:49:34","新北市新店區安德街77號","121.510098333333","24.9614416666667","6500600","新店區"
"231001","047-UY","2018/11/26 14:49:33","新北市新店區三民路38號","121.536288333333","24.971465","6500600","新店區"
"231005","106-UY","2018/11/26 14:49:27","新北市新店區復興路2號","121.532346666667","24.9882866666667","6500600","新店區"
"231019","108-UY","2018/11/26 14:49:25","新北市新店區桂山路51巷6-1號","121.561966666667","24.9015716666667","6500600","新店區"
"231011","187-VK","2018/11/26 14:49:36","新北市新店區寶橋路59-1號","121.54505","24.9750866666667","6500600","新店區"
"231023","KEA-2219","2018/11/26 14:49:24","新北市新店區檳榔路105號","121.544598333333","24.9616716666667","6500600","新店區"
"231026","256-BX","2018/11/26 14:49:29","新北市新店區安康路一段355-10號","121.520495","24.96384","6500600","新店區"
"231003","268-BY","2018/11/26 14:49:39","新北市新店區中興路二段199號","121.548021666667","24.9739516666667","6500600","新店區"
"231018","278-BY","2018/11/26 14:49:38","新北市新店區中央五街3-1號","121.530291666667","24.974225","6500600","新店區"
"231014","AAD-862","2018/11/26 14:49:22","新北市新店區雙峰路20號","121.582396666667","24.9501416666667","6500600","新店區"
"231038","3712-VJ","2018/11/26 14:49:23","新北市新店區安華路28-1號","121.519593333333","24.960915","6500600","新店區"
"231037","4716-K9","2018/11/26 14:49:24","新北市新店區柴埕路52巷13號","121.511498333333","24.9652016666667","6500600","新店區"
"231025","4715-K9","2018/11/26 14:49:21","新北市新店區中央一街2號","121.52874","24.97218","6500600","新店區"
"231036","512-UM","2018/11/26 14:49:27","新北市新店區安祥路106巷183號","121.474018333333","24.9598166666667","6500600","新店區"
"231013","513-UM","2018/11/26 14:49:34","新北市新店區北新路二段97巷9弄17號","121.542216666667","24.9737833333333","6500600","新店區"
"231034","616-UM","2018/11/26 14:49:34","新北市新店區安康路二段385號","121.49488","24.95454","6500600","新店區"
"231006","617-UM","2018/11/26 14:49:27","新北市新店區北宜路一段152號","121.540261666667","24.9538283333333","6500600","新店區"
"231030","619-UM","2018/11/26 14:49:27","新北市新店區安民街235號","121.517065","24.9719883333333","6500600","新店區"
"231039","718-UY","2018/11/26 14:49:38","新北市新店區安一路一段1-1號","121.519351666667","24.9611383333333","6500600","新店區"
"231035","719-UM","2018/11/26 14:49:36","新北市新店區安業街67巷22號","121.519038333333","24.9760616666667","6500600","新店區"
"231031","720-UM","2018/11/26 14:49:19","新北市新店區安泰路20號","121.485501666667","24.9486433333333","6500600","新店區"
"231029","897-TW","2018/11/26 14:49:21","新北市新店區錦秀路11巷11號","121.479841666667","24.9447383333333","6500600","新店區"
"231004","899-TW","2018/11/26 14:49:39","新北市新店區建國路133號","121.539305","24.978165","6500600","新店區"
"231024","AKT-0513","2018/11/26 14:49:22","新北市新店區力行路30號","121.539121666667","24.9647766666667","6500600","新店區"
"235030","003-UY","2018/11/26 14:49:26","新北市中和區南工路18號","121.505443333333","25.0004633333333","6500300","中和區"
"235020","096-UM","2018/11/26 14:49:30","新北市中和區中山路三段114巷72-6號","121.476238333333","25.0079283333333","6500300","中和區"
"235003","097-UM","2018/11/26 14:49:35","新北市中和區安樂路139號","121.514571666667","24.99677","6500300","中和區"
"235029","098-UM","2018/11/26 14:49:39","新北市中和區福祥路85巷2弄2號","121.498735","25.0057466666667","6500300","中和區"
"235004","150-BY","2018/11/26 14:49:20","新北市中和區安和路39號","121.509715","24.99439","6500300","中和區"
"235022","151-BY","2018/11/26 14:49:39","新北市中和區員山路150-31號","121.481271666667","24.9982966666667","6500300","中和區"
"235019","183-VK","2018/11/26 14:49:33","新北市中和區德光路72號","121.469286666667","25.0038216666667","6500300","中和區"
"235002","185-VK","2018/11/26 14:49:22","新北市中和區自立路14號","121.522198333333","24.9960533333333","6500300","中和區"
"235013","186-VK","2018/11/26 14:49:36","新北市中和區中正路70巷2號","121.501148333333","24.99371","6500300","中和區"
"235031","255-BX","2018/11/26 14:49:40","新北市中和區新生街154號","121.483583333333","25.0005266666667","6500300","中和區"
"235008","293-VK","2018/11/26 14:49:33","新北市中和區中正路1號","121.503428333333","24.993365","6500300","中和區"
"235036","301-VK","2018/11/26 14:49:34","新北市中和區連城路219巷10號","121.49465","24.99713","6500300","中和區"
"235007","352-BY","2018/11/26 14:49:18","新北市中和區安和路59號","121.508755","24.9949083333333","6500300","中和區"
"247011","KEA-2869","2018/11/26 14:49:27","新北市蘆洲區集賢路222-6號","121.482475","25.08661","6501400","蘆洲區"
"235014","4979-A6","2018/11/26 14:49:22","新北市中和區景平路241巷84弄54號","121.506146666667","24.9923733333333","6500300","中和區"
"235033","4980-A6","2018/11/26 14:49:25","新北市中和區和城路一段271巷1號","121.485421666667","24.991725","6500300","中和區"
"235034","558-UM","2018/11/26 14:49:29","新北市中和區連勝街45號","121.498105","24.99755","6500300","中和區"
"235018","640-BX","2018/11/26 14:49:22","新北市中和區莒光路222-3號","121.469245","24.99504","6500300","中和區"
"235024","647-TV","2018/11/26 14:49:36","新北市中和區員山路433號","121.480738333333","25.0036933333333","6500300","中和區"
"235011","732-UM","2018/11/26 14:49:32","新北市中和區和平街25-1號","121.507896666667","24.9909433333333","6500300","中和區"
"235010","733-UM","2018/11/26 14:49:40","新北市中和區仁愛街98號","121.51141","24.98716","6500300","中和區"
"235035","783-BX","2018/11/26 14:49:38","新北市中和區建六路71號","121.487136666667","25.0021916666667","6500300","中和區"
"235026","800-TS","2018/11/26 14:49:38","新北市中和區中山路二段375號","121.487285","25.0048516666667","6500300","中和區"
"235021","801-TS","2018/11/26 14:49:33","新北市中和區中正路808-1號","121.484963333333","25.0025316666667","6500300","中和區"
"235016","805-TS","2018/11/26 14:49:26","新北市中和區華新街122號","121.508295","24.9826783333333","6500300","中和區"
"235012","896-TW","2018/11/26 14:49:35","新北市中和區忠孝街122-2號","121.512148333333","24.9859916666667","6500300","中和區"
"235017","900-TW","2018/11/26 14:49:32","新北市中和區國光街215巷10弄13-2號","121.466801666667","25.0004083333333","6500300","中和區"
"235015","157-BY","2018/11/26 14:49:28","新北市中和區景安路247巷16號","121.504303333333","24.9904133333333","6500300","中和區"
"235001","AAC-213","2018/11/26 14:49:23","新北市中和區秀朗路三段173-2號","121.524423333333","24.9914733333333","6500300","中和區"
"235023","AAC-215","2018/11/26 14:49:26","新北市中和區圓通路305巷5弄55號","121.494951666667","24.990245","6500300","中和區"
"220105","075-UY","2018/11/26 14:49:36","新北市板橋區文化路二段606號","121.47736","25.0351866666667","6500100","板橋區"
"220017","AAD-861","2018/11/26 14:49:27","新北市板橋區貴興路106巷27號","121.455125","25.0028483333333","6500100","板橋區"
"247001","893-R6","2018/11/26 14:49:39","新北市蘆洲區永康街2巷25號","121.459063333333","25.0862883333333","6501400","蘆洲區"
"247013","339-TH","2018/11/26 14:49:26","新北市蘆洲區三民路62號","121.472823333333","25.083575","6501400","蘆洲區"
"247021","001-UY","2018/11/26 14:49:28","新北市蘆洲區中正路453-1號","121.462663333333","25.0945033333333","6501400","蘆洲區"
"253003","6232-TK","2018/11/26 14:49:33","新北市石門區尖子鹿87號","121.578823333333","25.2921016666667","6502200","石門區"
"253004","6251-TK","2018/11/26 14:49:22","新北市石門區茂林社區86號","121.592733333333","25.2696016666667","6502200","石門區"
"253002","637-UY","2018/11/26 14:42:58","新北市三芝區橫山里橫山39-9號","121.545768333333","25.2546916666667","6502200","石門區"
"253001","KEC-0718","2018/11/26 14:49:35","新北市石門區崁子腳35-2號","121.539896666667","25.2697333333333","6502200","石門區"
"207002","749-BX","2018/11/26 14:49:34","新北市萬里區崁腳里崁腳路73號","121.64756","25.159615","6502800","萬里區"
"252005","073-UM","2018/11/26 14:49:30","新北市三芝區埔坪里埔頭坑138號","121.514445","25.24702","6502100","三芝區"
"207001","662-BX","2018/11/26 14:49:31","新北市萬里區雙興里豐稟路39號","121.642485","25.1820166666667","6502800","萬里區"
"236064","105-UM","2018/11/26 14:49:35","新北市土城區明德路二段99巷2弄2號","121.450358333333","24.981085","6501300","土城區"
"236040","KED-0685","2018/11/26 14:49:29","新北市土城區裕民路114巷27號","121.450356666667","24.9856266666667","6501300","土城區"
"236074","166-UM","2018/11/26 14:49:33","新北市土城區中央路四段125巷26號","121.417006666667","24.956795","6501300","土城區"
"236029","253-BX","2018/11/26 14:49:22","新北市土城區忠義路26巷19號","121.439826666667","24.9698616666667","6501300","土城區"
"236024","269-VK","2018/11/26 14:49:34","新北市土城區中央路二段233號","121.440445","24.97233","6501300","土城區"
"236012","270-VK","2018/11/26 14:49:35","新北市土城區金城路二段354巷20號","121.46067","24.984065","6501300","土城區"
"236032","271-VK","2018/11/26 14:49:36","新北市土城區仁愛路54巷1-3號","121.462356666667","24.978555","6501300","土城區"
"236016","752-BX","2018/11/26 14:49:32","新北市土城區延安街42-5號","121.467593333333","24.9852266666667","6501300","土城區"
"236057","912-UM","2018/11/26 14:49:19","新北市土城區中央路三段87號","121.437771666667","24.9678483333333","6501300","土城區"
"236045","913-UM","2018/11/26 14:49:33","新北市土城區廣福街68巷24號","121.458771666667","24.9904433333333","6501300","土城區"
"236060","915-UM","2018/11/26 14:49:28","新北市土城區延壽路13巷5號","121.47083","24.9903683333333","6501300","土城區"
"236054","970-R7","2018/11/26 14:49:22","新北市土城區裕民路112號","121.450896666667","24.9866916666667","6501300","土城區"
"221032","280-BY","2018/11/26 14:49:28","新北市汐止區大同路二段184巷3號","121.653998333333","25.063805","6501100","汐止區"
"221033","647-BX","2018/11/26 14:49:21","新北市汐止區汐萬路二段275巷14號","121.645046666667","25.088845","6501100","汐止區"
"220027","145-BY","2018/11/26 14:49:33","新北市板橋區建國街54巷19號","121.45955","25.0169566666667","6500100","板橋區"
"220028","200-UY","2018/11/26 14:49:36","新北市板橋區大觀路二段37巷2號","121.447001666667","25.00278","6500100","板橋區"
"220030","610-BX","2018/11/26 14:49:32","新北市板橋區大觀路三段180巷30號","121.42976","24.9936433333333","6500100","板橋區"
"220050","245-BX","2018/11/26 14:49:30","新北市板橋區莒光路237-9號","121.474251666667","25.0218383333333","6500100","板橋區"
"220004","276-BY","2018/11/26 14:49:24","新北市板橋區四川路二段47巷2弄1號","121.454095","24.9948966666667","6500100","板橋區"
"220020","277-BY","2018/11/26 14:49:25","新北市板橋區金門街171號","121.432593333333","24.990195","6500100","板橋區"
"220012","282-UM","2018/11/26 14:49:30","新北市板橋區館前東路112號","121.46336","25.00761","6500100","板橋區"
"220019","283-VK","2018/11/26 14:49:35","新北市板橋區五權街30巷24弄1號","121.463926666667","24.993215","6500100","板橋區"
"220043","285-UM","2018/11/26 14:49:18","新北市板橋區長江路一段118號","121.459926666667","25.0297433333333","6500100","板橋區"
"220001","285-VK","2018/11/26 14:49:32","新北市板橋區中山路二段60巷9號","121.474278333333","25.0153583333333","6500100","板橋區"
"220031","286-VK","2018/11/26 14:49:31","新北市板橋區大觀路二段20巷2號","121.44484","25.0040233333333","6500100","板橋區"
"220029","287-VK","2018/11/26 14:49:31","新北市板橋區大觀路一段35巷7弄18號","121.450278333333","25.0072516666667","6500100","板橋區"
"220039","288-VK","2018/11/26 14:49:39","新北市板橋區龍泉街54巷8弄10號","121.45734","25.026915","6500100","板橋區"
"220009","295-UM","2018/11/26 14:49:30","新北市板橋區觀光街1巷2號","121.472116666667","25.015515","6500100","板橋區"
"220032","296-UM","2018/11/26 14:49:33","新北市板橋區滿平街60號","121.427096666667","24.9893316666667","6500100","板橋區"
"220023","303-R5","2018/11/26 14:49:35","新北市板橋區中正路234-1號","121.455653333333","25.0189066666667","6500100","板橋區"
"220010","305-R5","2018/11/26 14:49:20","新北市板橋區三民路二段29巷31弄15號","121.48206","25.0178983333333","6500100","板橋區"
"220041","307-R5","2018/11/26 14:49:37","新北市板橋區四維路259巷46號","121.461245","25.0271216666667","6500100","板橋區"
"220047","317-R6","2018/11/26 14:49:34","新北市板橋區裕民街130號","121.458888333333","25.0273433333333","6500100","板橋區"
"220038","487-VK","2018/11/26 14:49:23","新北市板橋區龍泉街133號","121.457615","25.02394","6500100","板橋區"
"220104","560-BX","2018/11/26 14:49:37","新北市板橋區金華街52號","121.456765","25.0204633333333","6500100","板橋區"
"220052","561-BX","2018/11/26 14:49:25","新北市板橋區陽明街27巷4號","121.465416666667","25.0216883333333","6500100","板橋區"
"220013","568-UM","2018/11/26 14:49:26","新北市板橋區國泰街39巷5弄4號","121.468623333333","25.0060133333333","6500100","板橋區"
"220011","609-BX","2018/11/26 14:49:33","新北市板橋區三民路一段140號","121.479183333333","25.0204283333333","6500100","板橋區"
"220040","637-BX","2018/11/26 14:49:22","新北市板橋區懷德街162號","121.479008333333","25.0305283333333","6500100","板橋區"
"220005","686-BX","2018/11/26 14:49:36","新北市板橋區廣和街126號","121.462606666667","24.9924316666667","6500100","板橋區"
"220025","687-BX","2018/11/26 14:49:23","新北市板橋區僑中二街108巷1號","121.44582","25.0071066666667","6500100","板橋區"
"220042","689-BX","2018/11/26 14:49:21","新北市板橋區新海路466號","121.457706666667","25.0284416666667","6500100","板橋區"
"220002","741-BX","2018/11/26 14:49:36","新北市板橋區忠孝路忠義巷15弄2號","121.466018333333","25.00376","6500100","板橋區"
"220051","KEA-2699","2018/11/26 14:49:37","新北市板橋區文化路二段410巷29號","121.474751666667","25.0306616666667","6500100","板橋區"
"220003","827-TW","2018/11/26 14:49:21","新北市板橋區仁愛路62巷17弄1號","121.460036666667","24.998225","6500100","板橋區"
"220014","829-TW","2018/11/26 14:49:19","新北市板橋區民生路一段19號","121.475096666667","25.0115766666667","6500100","板橋區"
"220016","830-TW","2018/11/26 14:49:23","新北市板橋區中山路二段416巷47弄19號","121.48363","25.0195","6500100","板橋區"
"220045","831-TW","2018/11/26 14:49:39","新北市板橋區民生路二段226巷37號","121.471338333333","25.0223583333333","6500100","板橋區"
"220037","833-TW","2018/11/26 14:49:18","新北市板橋區文化路二段402號","121.473731666667","25.0313833333333","6500100","板橋區"
"220022","895-R6","2018/11/26 14:49:36","新北市板橋區府中路22號","121.459776666667","25.0096516666667","6500100","板橋區"
"220021","985-R7","2018/11/26 14:49:30","新北市板橋區大仁街51號","121.454608333333","25.0164483333333","6500100","板橋區"
"220046","AAC-210","2018/11/26 14:49:20","新北市板橋區文化路一段285巷1號","121.464451666667","25.0188316666667","6500100","板橋區"
"220018","AAC-253","2018/11/26 14:49:19","新北市板橋區民族路216號","121.468445","25.0074333333333","6500100","板橋區"
"235032","KEA-2873","2018/11/26 14:49:14","新北市中和區中山路二段258號","121.497621666667","25.0026083333333","6500300","中和區"
"235028","KEA-2876","2018/11/26 14:49:20","新北市中和區圓通路12號","121.501626666667","24.9980016666667","6500300","中和區"
