"lineid","car","time","location","longitude","latitude","cityid","cityname"
"243010","KEA-2216","2018/11/26 15:47:27","新北市泰山區黎明路25號","121.421846666667","25.0608533333333","6501600","泰山區"
"243012","646-TV","2018/11/26 15:41:14","新北市泰山區黎明路25號","121.4221","25.0607483333333","6501600","泰山區"
"243014","680-BX","2018/11/26 15:44:15","新北市泰山區黎明路25號","121.421995","25.0606333333333","6501600","泰山區"
"231046","107-UY","2018/11/26 15:49:27","新北市新店區安一路一段1-1號","121.519838333333","24.961205","6500600","新店區"
"231019","108-UY","2018/11/26 15:49:25","新北市新店區新烏路161號","121.545261666667","24.9329566666667","6500600","新店區"
"231011","187-VK","2018/11/26 15:49:37","新北市新店區中興路三段161號","121.544105","24.98032","6500600","新店區"
"231023","KEA-2219","2018/11/26 15:49:24","新北市新店區檳榔路16號","121.54107","24.9643516666667","6500600","新店區"
"231026","256-BX","2018/11/26 15:49:29","新北市新店區中正路401號","121.534375","24.9775","6500600","新店區"
"231003","268-BY","2018/11/26 15:49:39","新北市新店區寶興路60巷6號","121.549806666667","24.9717733333333","6500600","新店區"
"231018","278-BY","2018/11/26 15:49:18","新北市新店區中正路663巷7弄13號","121.532858333333","24.9900233333333","6500600","新店區"
"231014","AAD-862","2018/11/26 15:46:42","新北市新店區中華路85號","121.53932","24.9687433333333","6500600","新店區"
"231037","4716-K9","2018/11/26 15:49:24","新北市新店區安興路112號","121.514698333333","24.9775116666667","6500600","新店區"
"231013","513-UM","2018/11/26 15:49:34","新北市新店區永業路81巷1弄1號","121.529713333333","24.9494133333333","6500600","新店區"
"231034","616-UM","2018/11/26 15:49:34","新北市新店區吉祥街13巷1號","121.49776","24.9460683333333","6500600","新店區"
"231030","619-UM","2018/11/26 15:49:26","新北市新店區永安街60號","121.51897","24.9869233333333","6500600","新店區"
"231039","718-UY","2018/11/26 15:49:38","新北市新店區寶中路69號","121.547421666667","24.9805283333333","6500600","新店區"
"231035","719-UM","2018/11/26 15:49:36","新北市新店區安興路83-3號","121.515345","24.9755983333333","6500600","新店區"
"231031","720-UM","2018/11/26 15:49:39","新北市新店區雙城路60巷16弄13號","121.49165","24.9479133333333","6500600","新店區"
"231004","899-TW","2018/11/26 15:49:39","新北市新店區中央路200號","121.530491666667","24.9741283333333","6500600","新店區"
"241011","013-R5","2018/11/26 15:49:35","新北市三重區文化北路149-1號","121.497563333333","25.0694866666667","6500200","三重區"
"241028","022-UY","2018/11/26 15:49:27","新北市三重區中正南路115號","121.494113333333","25.0574883333333","6500200","三重區"
"241008","059-VK","2018/11/26 15:49:37","新北市三重區重新路四段121號","121.485008333333","25.0521933333333","6500200","三重區"
"241022","060-VK","2018/11/26 15:49:35","新北市三重區新北大道一段250號","121.479883333333","25.061375","6500200","三重區"
"241015","062-VK","2018/11/26 15:49:35","新北市三重區重新路四段121號","121.48504","25.0521","6500200","三重區"
"241017","063-VK","2018/11/26 15:49:37","新北市三重區大仁街36巷22號","121.490963333333","25.0640566666667","6500200","三重區"
"241024","065-VK","2018/11/26 15:49:37","新北市三重區成功路108巷8號","121.485558333333","25.05041","6500200","三重區"
"241026","066-VK","2018/11/26 15:49:21","新北市三重區文化南路42號","121.50039","25.0603316666667","6500200","三重區"
"241002","090-VK","2018/11/26 15:49:35","新北市三重區成功路187號","121.4856","25.0529466666667","6500200","三重區"
"241003","091-VK","2018/11/26 15:49:30","新北市三重區中央南路134號","121.502213333333","25.0593383333333","6500200","三重區"
"241005","262-UM","2018/11/26 15:49:32","新北市三重區重安街148巷37號","121.496566666667","25.054895","6500200","三重區"
"241016","265-UM","2018/11/26 15:49:38","新北市三重區重新路四段121號","121.48513","25.05202","6500200","三重區"
"241018","268-UM","2018/11/26 15:49:42","新北市三重區重新路四段121號","121.484796666667","25.0520783333333","6500200","三重區"
"241013","270-UM","2018/11/26 15:49:29","新北市三重區三和路三段5號","121.496648333333","25.0704733333333","6500200","三重區"
"241025","271-UM","2018/11/26 15:49:25","新北市三重區忠孝路三段84巷1號","121.480291666667","25.0647016666667","6500200","三重區"
"241007","398-BY","2018/11/26 15:49:33","新北市三重區忠孝路三段84巷16號","121.480356666667","25.065005","6500200","三重區"
"241004","475-VK","2018/11/26 15:49:25","新北市三重區重新路四段121號","121.48492","25.051905","6500200","三重區"
"241030","480-VK","2018/11/26 15:49:29","新北市三重區重新路四段121號","121.484851666667","25.052545","6500200","三重區"
"241014","543-UM","2018/11/26 15:49:39","新北市三重區重新路四段121號","121.485078333333","25.0521183333333","6500200","三重區"
"241023","545-UM","2018/11/26 15:49:25","新北市三重區忠孝路三段84巷16-1號","121.48076","25.064725","6500200","三重區"
"241033","557-UM","2018/11/26 15:41:10","新北市三重區後埔街61-1號","121.479113333333","25.0480183333333","6500200","三重區"
"241019","KEA-2593","2018/11/26 15:49:32","新北市三重區重新路四段121號","121.48487","25.05217","6500200","三重區"
"241006","AAD-863","2018/11/26 15:49:31","新北市三重區重新路四段121號","121.484363333333","25.052185","6500200","三重區"
"241020","743-BX","2018/11/26 15:49:23","新北市三重區忠孝路二段48號","121.485121666667","25.0704466666667","6500200","三重區"
"241009","887-TS","2018/11/26 15:49:37","新北市三重區重新路四段121號","121.485001666667","25.051985","6500200","三重區"
"241012","941-UM","2018/11/26 15:49:38","新北市三重區文化北路132巷1號","121.498423333333","25.0668816666667","6500200","三重區"
"241029","942-UM","2018/11/26 15:49:41","新北市三重區大同南路246號","121.49701","25.0557316666667","6500200","三重區"
"247011","KEA-2869","2018/11/26 15:48:27","新北市八里區荖阡坑路34號","121.402641666667","25.1281883333333","6501400","蘆洲區"
"235033","4980-A6","2018/11/26 15:49:25","新北市中和區連城路469巷29號","121.4836","24.9948233333333","6500300","中和區"
"235018","640-BX","2018/11/26 15:49:22","新北市八里區中山路三段409號","121.36867","25.1343966666667","6500300","中和區"
"235026","800-TS","2018/11/26 15:49:38","新北市中和區中山路二段488-1號","121.48742","25.0048566666667","6500300","中和區"
"235001","AAC-213","2018/11/26 15:49:23","新北市八里區中山路三段409號","121.36875","25.134465","6500300","中和區"
"220016","120-SR","2018/11/26 15:49:25","新北市板橋區民族路219巷75號","121.468676666667","25.0091483333333","6500100","板橋區"
"247008","336-TH","2018/11/26 15:43:59","新北市五股區中興路三段2巷10號","121.449056666667","25.0808783333333","6501400","蘆洲區"
"226006","AGD-0702","2018/11/26 15:27:52","新北市平溪區石底里公園街18-3號","121.734343333333","25.0256483333333","6502400","平溪區"
"224007","275-VK","2018/11/26 15:49:10","新北市瑞芳區大寮路356-1號","121.784715","25.1033933333333","6501200","瑞芳區"
"227008","642-TC","2018/11/26 15:49:40","新北市雙溪區牡丹里中正路56號","121.865716666667","25.04071","6502500","雙溪區"
"227001","400-TW","2018/11/26 15:49:33","新北市雙溪區平林里外平林44號","121.852923333333","25.0363416666667","6502500","雙溪區"
"236064","105-UM","2018/11/26 15:49:35","新北市土城區金安街5號","121.421661666667","24.9638516666667","6501300","土城區"
"236074","166-UM","2018/11/26 15:49:33","新北市土城區福安街55巷11號","121.418843333333","24.9638716666667","6501300","土城區"
"236024","269-VK","2018/11/26 15:49:34","新北市土城區中央路一段249巷20號","121.446195","24.9854416666667","6501300","土城區"
"236012","270-VK","2018/11/26 15:49:35","新北市土城區廣明街81號","121.454783333333","24.9941233333333","6501300","土城區"
"236057","912-UM","2018/11/26 15:49:39","新北市土城區中央路一段112號","121.446586666667","24.9881233333333","6501300","土城區"
"236045","913-UM","2018/11/26 15:49:33","新北市土城區清水路253號","121.462738333333","24.9841566666667","6501300","土城區"
"236054","970-R7","2018/11/26 15:49:21","新北市土城區中央路一段45巷21號","121.449235","24.9899466666667","6501300","土城區"
"238002","755-BX","2018/11/26 15:49:31","新北市樹林區樹德街136巷30號","121.420085","24.9943883333333","6500700","樹林區"
"238010","601-UM","2018/11/26 15:49:25","新北市樹林區龍興街31巷24號","121.40378","25.0161083333333","6500700","樹林區"
"238006","599-UM","2018/11/26 15:49:36","新北市樹林區忠孝街103號","121.424523333333","24.9807716666667","6500700","樹林區"
"238005","571-TV","2018/11/26 15:49:32","新北市樹林區中華路23號","121.424105","24.9836916666667","6500700","樹林區"
"238011","5061-A6","2018/11/26 15:49:39","新北市樹林區山佳街57號","121.392816666667","24.9724583333333","6500700","樹林區"
"238009","KEA-2213","2018/11/26 15:49:25","新北市樹林區太順街62巷1弄36號","121.41641","24.9789516666667","6500700","樹林區"
"238008","KEA-2539","2018/11/26 15:49:36","新北市樹林區柑園街二段175號","121.380651666667","24.9533216666667","6500700","樹林區"
"238012","303-VK","2018/11/26 15:49:23","新北市樹林區保安二街84巷1號","121.423185","24.9955633333333","6500700","樹林區"
"238004","283-BY","2018/11/26 15:49:25","新北市樹林區保安街二段163號","121.415268333333","25.0028316666667","6500700","樹林區"
"238001","282-BY","2018/11/26 15:49:38","新北市樹林區保安二街40巷18號","121.425623333333","24.9946466666667","6500700","樹林區"
"238007","268-VK","2018/11/26 15:49:27","新北市樹林區三俊街215號","121.421058333333","25.01514","6500700","樹林區"
"238013","172-UY","2018/11/26 15:49:30","新北市樹林區佳園路一段22號","121.392748333333","24.9715","6500700","樹林區"
"238003","169-UY","2018/11/26 15:49:25","新北市樹林區啟智街173巷10號","121.416021666667","24.9872466666667","6500700","樹林區"
"220018","AAC-253","2018/11/26 15:49:19","新北市板橋區華東街1-8號","121.447768333333","24.9947166666667","6500100","板橋區"
