"lineid","car","time","location","longitude","latitude","cityid","cityname"
"234001","149-BY","2018/11/26 17:05:55","新北市永和區福和路1號","121.526456666667","25.0098233333333","6500400","永和區"
"249005","172-UM","2018/11/26 17:09:13","新北市八里區大堀湖28號","121.41864","25.1460883333333","6502300","八里區"
"249004","303-UY","2018/11/26 17:09:31","新北市八里區忠孝路167號","121.423726666667","25.1607383333333","6502300","八里區"
"249002","305-UY","2018/11/26 17:09:22","新北市八里區米倉18號","121.440966666667","25.14978","6502300","八里區"
"249003","593-UM","2018/11/26 17:09:33","新北市八里區中山路二段417號","121.397233333333","25.1461783333333","6502300","八里區"
"244023","069-UM","2018/11/26 17:09:38","新北市林口區仁愛路一段647號","121.388363333333","25.0766833333333","6501700","林口區"
"244007","080-UY","2018/11/26 17:09:34","新北市林口區菁埔路3號","121.379511666667","25.0961066666667","6501700","林口區"
"244019","403-UM","2018/11/26 17:09:04","新北市林口區文化一路一段190巷7弄2-1號","121.380288333333","25.0748983333333","6501700","林口區"
"244013","KEA-2802","2018/11/26 17:09:40","新北市林口區粉寮69號","121.40476","25.0908216666667","6501700","林口區"
"244017","485-VK","2018/11/26 17:09:34","新北市林口區粉寮69號","121.405091666667","25.09083","6501700","林口區"
"244009","656-BX","2018/11/26 17:09:36","新北市林口區中北二街19巷18號","121.383343333333","25.08806","6501700","林口區"
"244011","701-TV","2018/11/26 17:09:29","新北市林口區粉寮69號","121.405046666667","25.0907916666667","6501700","林口區"
"244025","837-TS","2018/11/26 17:09:26","新北市林口區中山路492號","121.379923333333","25.0825233333333","6501700","林口區"
"244021","838-TS","2018/11/26 17:09:34","新北市林口區粉寮62號","121.407293333333","25.0894766666667","6501700","林口區"
"243014","680-BX","2018/11/26 17:09:35","新北市泰山區黎明路25號","121.422235","25.0606716666667","6501600","泰山區"
"231046","107-UY","2018/11/26 17:09:27","新北市新店區直潭路92號","121.530933333333","24.9376066666667","6500600","新店區"
"241011","013-R5","2018/11/26 17:09:35","新北市三重區龍門路230號","121.500493333333","25.0735416666667","6500200","三重區"
"241028","022-UY","2018/11/26 17:09:27","新北市三重區重新路三段110號","121.492335","25.0602583333333","6500200","三重區"
"241008","059-VK","2018/11/26 17:09:37","新北市三重區力行路二段136巷17弄2號","121.481618333333","25.0755466666667","6500200","三重區"
"241022","060-VK","2018/11/26 17:09:35","新北市三重區三民街71號","121.485846666667","25.0627383333333","6500200","三重區"
"241015","062-VK","2018/11/26 17:09:35","新北市三重區長生街32號","121.499641666667","25.0664433333333","6500200","三重區"
"241017","063-VK","2018/11/26 17:09:37","新北市三重區中正北路25巷14號","121.493458333333","25.0629066666667","6500200","三重區"
"241024","065-VK","2018/11/26 17:09:37","新北市三重區大勇街82巷26弄19-2號","121.478678333333","25.0720966666667","6500200","三重區"
"241026","066-VK","2018/11/26 17:09:21","新北市三重區重新路一段98號","121.50139","25.063445","6500200","三重區"
"241002","090-VK","2018/11/26 17:09:35","新北市三重區五華街35巷84號","121.496256666667","25.0819833333333","6500200","三重區"
"241003","091-VK","2018/11/26 17:09:30","新北市三重區富福街93號","121.493028333333","25.0852616666667","6500200","三重區"
"251014","742-BX","2018/11/26 17:09:21","新北市淡水區八里堆9-1號","121.463273333333","25.22373","6501000","淡水區"
"241005","262-UM","2018/11/26 17:09:32","新北市三重區碧華街54號","121.483878333333","25.08146","6500200","三重區"
"241016","265-UM","2018/11/26 17:09:38","新北市三重區大同北路124-1號","121.49298","25.06429","6500200","三重區"
"241018","268-UM","2018/11/26 17:09:22","新北市三重區大智街144號","121.492183333333","25.0684883333333","6500200","三重區"
"241032","269-UM","2018/11/26 17:09:39","新北市三重區三陽路1號","121.486633333333","25.058935","6500200","三重區"
"241013","270-UM","2018/11/26 17:09:29","新北市三重區仁福街17號","121.496121666667","25.0743183333333","6500200","三重區"
"241025","271-UM","2018/11/26 17:09:25","新北市三重區中正北路560巷89號","121.470853333333","25.06834","6500200","三重區"
"241007","398-BY","2018/11/26 17:09:33","新北市三重區三和路四段145巷91號","121.486661666667","25.0787616666667","6500200","三重區"
"241004","475-VK","2018/11/26 17:09:25","新北市三重區五華街122巷4號","121.491746666667","25.0830833333333","6500200","三重區"
"241030","480-VK","2018/11/26 17:09:29","新北市三重區集成路21號","121.488956666667","25.0523716666667","6500200","三重區"
"241014","543-UM","2018/11/26 17:09:39","新北市三重區龍濱路128號","121.501756666667","25.0715966666667","6500200","三重區"
"241023","545-UM","2018/11/26 17:09:25","新北市三重區忠孝路三段84巷1號","121.480236666667","25.0645616666667","6500200","三重區"
"241001","547-UM","2018/11/26 17:09:23","新北市三重區仁愛街249號","121.49334","25.0781116666667","6500200","三重區"
"241019","KEA-2593","2018/11/26 17:09:32","新北市三重區力行路一段153巷42號","121.48624","25.06916","6500200","三重區"
"241006","AAD-863","2018/11/26 17:09:30","新北市三重區三和路四段264巷2弄13號","121.485105","25.076835","6500200","三重區"
"241020","743-BX","2018/11/26 17:05:43","新北市三重區自強路三段32號","121.486873333333","25.07251","6500200","三重區"
"241009","887-TS","2018/11/26 17:09:37","新北市三重區三和路四段215巷26號","121.482676666667","25.08003","6500200","三重區"
"241012","941-UM","2018/11/26 17:09:38","新北市三重區仁壽街166號","121.500225","25.07455","6500200","三重區"
"241029","942-UM","2018/11/26 17:09:28","新北市三重區重安街22號","121.490365","25.0580216666667","6500200","三重區"
"235065","098-UM","2018/11/26 17:09:38","新北市中和區員山路36巷16-3號","121.485073333333","24.9911566666667","6500300","中和區"
"247012","KEA-2869","2018/11/26 17:09:28","新北市蘆洲區信義路292巷7號","121.478026666667","25.0877183333333","6501400","蘆洲區"
"220016","120-SR","2018/11/26 17:02:27","新北市板橋區新站路1號","121.467195","25.0111616666667","6500100","板橋區"
"247002","893-R6","2018/11/26 17:09:31","新北市蘆洲區永樂街48號","121.457671666667","25.0884033333333","6501400","蘆洲區"
"247016","546-UM","2018/11/26 17:09:29","新北市蘆洲區光華路73巷17號","121.468453333333","25.0823","6501400","蘆洲區"
"247024","500-BY","2018/11/26 17:09:39","新北市蘆洲區長興路166號","121.461451666667","25.0856683333333","6501400","蘆洲區"
"247014","339-TH","2018/11/26 17:09:29","新北市蘆洲區中央路37巷15-15號","121.473246666667","25.0824716666667","6501400","蘆洲區"
"247006","337-TH","2018/11/26 17:09:38","新北市蘆洲區中華街6巷40號","121.462621666667","25.0824483333333","6501400","蘆洲區"
"247008","336-TH","2018/11/26 17:09:31","新北市蘆洲區民生街15號","121.475836666667","25.0791366666667","6501400","蘆洲區"
"247020","057-VK","2018/11/26 17:09:29","新北市蘆洲區民族路422巷116號","121.472545","25.094175","6501400","蘆洲區"
"247010","056-VK","2018/11/26 17:09:42","新北市蘆洲區民族路38號","121.47674","25.0841516666667","6501400","蘆洲區"
"247018","007-UY","2018/11/26 17:09:39","新北市蘆洲區復興路132號","121.476723333333","25.0875566666667","6501400","蘆洲區"
"247004","002-UY","2018/11/26 17:09:34","新北市蘆洲區長安街193巷37號","121.459315","25.0811616666667","6501400","蘆洲區"
"247022","001-UY","2018/11/26 17:09:35","新北市蘆洲區民族路389號","121.469451666667","25.09017","6501400","蘆洲區"
"228003","097-TW","2018/11/26 17:09:37","新北市貢寮區福隆里東興街18-1號","121.950131666667","25.0181316666667","6502600","貢寮區"
"228002","585-TW","2018/11/26 17:09:40","新北市貢寮區龍崗里泮宮路5號","121.907806666667","25.01806","6502600","貢寮區"
"228001","670-TC","2018/11/26 17:09:27","新北市貢寮區仁理村研海街45號","121.925768333333","25.0429566666667","6502600","貢寮區"
"224006","676-BX","2018/11/26 17:09:29","新北市瑞芳區大寮路101-2號","121.77863","25.0991433333333","6501200","瑞芳區"
"224008","285-BY","2018/11/26 17:09:27","新北市瑞芳區侯硐路125-1號","121.831305","25.0899783333333","6501200","瑞芳區"
"224007","275-VK","2018/11/26 17:09:30","新北市瑞芳區楓子瀨路54-2號","121.768746666667","25.10344","6501200","瑞芳區"
"224009","273-VK","2018/11/26 17:09:28","新北市瑞芳區輕便路90號","121.844988333333","25.1128066666667","6501200","瑞芳區"
"224005","271-BY","2018/11/26 17:09:32","新北市瑞芳區南雅路29-1號","121.888025","25.1205166666667","6501200","瑞芳區"
"227008","642-TC","2018/11/26 17:09:40","新北市雙溪區牡丹里下坑28號","121.850111666667","25.0567466666667","6502500","雙溪區"
"227001","400-TW","2018/11/26 17:09:33","新北市雙溪區外柑里田寮5號","121.80568","25.0159266666667","6502500","雙溪區"
"251009","008-UM","2018/11/26 17:09:32","新北市淡水區三民街22號","121.439068333333","25.1717583333333","6501000","淡水區"
"251005","010-UM","2018/11/26 17:09:19","新北市淡水區中正東路36-1號","121.4489","25.165775","6501000","淡水區"
"251013","KEA-2871","2018/11/26 17:09:32","新北市淡水區大埤頭4號","121.487801666667","25.1951283333333","6501000","淡水區"
"251016","179-VK","2018/11/26 17:09:38","新北市淡水區社厝坑3-6號","121.474788333333","25.18807","6501000","淡水區"
"251008","181-VK","2018/11/26 17:09:43","新北市淡水區樹梅坑14號","121.471105","25.1430066666667","6501000","淡水區"
"251015","182-VK","2018/11/26 17:09:40","新北市淡水區鄧公路35巷29號","121.453221666667","25.1716183333333","6501000","淡水區"
"251010","413-VK","2018/11/26 17:09:34","新北市淡水區中正路二段31號","121.419438333333","25.1816233333333","6501000","淡水區"
"251012","441-VK","2018/11/26 17:09:33","新北市淡水區中山北路一段158號","121.444321666667","25.1778983333333","6501000","淡水區"
"251004","443-VK","2018/11/26 17:08:52","新北市淡水區中正路32號","121.444028333333","25.1690966666667","6501000","淡水區"
"251006","561-UM","2018/11/26 17:09:35","新北市淡水區真理街6號","121.438435","25.1744966666667","6501000","淡水區"
"251007","577-R6","2018/11/26 17:09:39","新北市淡水區民生路47-4號","121.462076666667","25.1379883333333","6501000","淡水區"
"251011","650-BX","2018/11/26 17:09:36","新北市淡水區坪頂路50號","121.457981666667","25.1625683333333","6501000","淡水區"
"251002","672-BX","2018/11/26 17:09:36","新北市淡水區中正路二段31號","121.41928","25.1816333333333","6501000","淡水區"
"252002","178-VK","2018/11/26 17:09:42","新北市三芝區忠孝街1-43號","121.505933333333","25.2529916666667","6502100","三芝區"
"252001","292-VK","2018/11/26 17:09:27","新北市三芝區埔頭里埔頭37號","121.498348333333","25.260235","6502100","三芝區"
"242058","986-R7","2018/11/26 17:09:33","新北市新莊區新泰路357巷3弄57號","121.442238333333","25.0392283333333","6500500","新莊區"
"242056","751-BX","2018/11/26 17:09:26","新北市新莊區新泰路357巷2號","121.442453333333","25.04147","6500500","新莊區"
"242025","705-TV","2018/11/26 17:09:32","新北市新莊區三和路12-17號","121.442315","25.0375833333333","6500500","新莊區"
"242029","612-BX","2018/11/26 17:09:42","新北市新莊區新泰路255巷83號","121.442266666667","25.03909","6500500","新莊區"
"242044","566-BX","2018/11/26 17:09:41","新北市新莊區新泰路357巷3弄31號","121.441986666667","25.0405466666667","6500500","新莊區"
"242048","497-BY","2018/11/26 17:09:39","新北市新莊區中正路466號","121.439073333333","25.0333733333333","6500500","新莊區"
"242036","442-UM","2018/11/26 17:09:27","新北市新莊區新泰路255巷83號","121.442146666667","25.0388233333333","6500500","新莊區"
"242053","441-UM","2018/11/26 17:09:40","新北市新莊區新泰路401巷29-1號","121.44209","25.043765","6500500","新莊區"
"242009","413-TV","2018/11/26 17:09:29","新北市新莊區新泰路357巷3弄57號","121.441818333333","25.0394833333333","6500500","新莊區"
"242046","400-BY","2018/11/26 17:09:37","新北市新莊區新泰路357巷3弄57號","121.44224","25.0395916666667","6500500","新莊區"
"242023","362-BY","2018/11/26 17:09:37","新北市新莊區新泰路255巷83號","121.442005","25.039005","6500500","新莊區"
"242060","353-BY","2018/11/26 17:09:40","新北市新莊區新泰路357巷3弄57號","121.44201","25.0393366666667","6500500","新莊區"
"242050","172-VK","2018/11/26 17:09:24","新北市新莊區新莊路664-2號","121.442288333333","25.0329466666667","6500500","新莊區"
"242013","173-VK","2018/11/26 17:09:41","新北市新莊區三和路12-21號","121.441853333333","25.03873","6500500","新莊區"
"242019","175-VK","2018/11/26 17:09:26","新北市新莊區三和路12-21號","121.441913333333","25.0387016666667","6500500","新莊區"
"242007","176-VK","2018/11/26 17:09:38","新北市新莊區三和路12-21號","121.44188","25.0386266666667","6500500","新莊區"
"242017","346-TH","2018/11/26 17:09:36","新北市新莊區三和路12-21號","121.442176666667","25.0381466666667","6500500","新莊區"
"242015","351-TH","2018/11/26 17:09:36","新北市新莊區新泰路357巷3弄57號","121.44204","25.03959","6500500","新莊區"
"238015","755-BX","2018/11/26 17:09:33","新北市樹林區中山路三段125-11號","121.398668333333","24.9736666666667","6500700","樹林區"
"238019","599-UM","2018/11/26 17:09:36","新北市樹林區八德街824號","121.394448333333","24.9686916666667","6500700","樹林區"
"238018","571-TV","2018/11/26 17:09:40","新北市樹林區中華路6-3號","121.424703333333","24.9841566666667","6500700","樹林區"
"238024","5061-A6","2018/11/26 17:09:39","新北市樹林區鎮前街77-21號","121.424711666667","24.99025","6500700","樹林區"
"238022","KEA-2213","2018/11/26 17:09:25","新北市樹林區忠孝街31號","121.423698333333","24.9821616666667","6500700","樹林區"
"238021","KEA-2539","2018/11/26 17:09:34","新北市樹林區西圳街一段165巷20弄16號","121.39532","24.9605483333333","6500700","樹林區"
"238025","303-VK","2018/11/26 17:09:30","新北市樹林區中正路22-1號","121.427973333333","24.9994583333333","6500700","樹林區"
"238017","283-BY","2018/11/26 17:09:44","新北市樹林區光武街7-3號","121.415758333333","25.0052983333333","6500700","樹林區"
"238001","282-BY","2018/11/26 17:09:38","新北市樹林區中正路22-1號","121.4278","24.9996","6500700","樹林區"
"238020","268-VK","2018/11/26 17:09:27","新北市樹林區中山路三段125-11號","121.39869","24.9737383333333","6500700","樹林區"
"238016","169-UY","2018/11/26 17:09:32","新北市樹林區中山路二段34號","121.417378333333","24.9848833333333","6500700","樹林區"
"239007","AAC-297","2018/11/26 17:09:29","新北市鶯歌區信義街48號","121.353311666667","24.95532","6500800","鶯歌區"
"239006","891-R6","2018/11/26 17:09:31","新北市鶯歌區八德路2巷17號","121.336968333333","24.94727","6500800","鶯歌區"
"239008","527-UM","2018/11/26 17:09:33","新北市鶯歌區文化路136巷1-1號","121.351761666667","24.95109","6500800","鶯歌區"
"239005","526-UM","2018/11/26 17:09:27","新北市鶯歌區德昌街1號","121.334106666667","24.9607883333333","6500800","鶯歌區"
"239001","417-VK","2018/11/26 17:09:29","新北市鶯歌區尖山路140巷6弄1號","121.346575","24.9489583333333","6500800","鶯歌區"
"239003","360-BY","2018/11/26 17:09:29","新北市鶯歌區八德路16號","121.330883333333","24.955345","6500800","鶯歌區"
"239002","359-BY","2018/11/26 17:09:38","新北市鶯歌區建國路223號","121.348745","24.9533866666667","6500800","鶯歌區"
"239004","193-VK","2018/11/26 17:09:28","新北市鶯歌區文化路324巷11弄1號","121.350446666667","24.9450066666667","6500800","鶯歌區"
"242042","281-VK","2018/11/26 17:09:39","新北市新莊區三和路12-21號","121.442195","25.038075","6500500","新莊區"
