"lineid","car","time","location","longitude","latitude","cityid","cityname"
"234046","148-BY","2018/11/26 19:19:40","新北市永和區得和路373巷3-1號","121.524763333333","24.9997066666667","6500400","永和區"
"234007","207-UY","2018/11/26 19:19:34","新北市永和區中山路一段151號","121.509988333333","25.00949","6500400","永和區"
"234081","298-R6","2018/11/26 19:19:35","新北市永和區福和路41-1號","121.523566666667","25.008105","6500400","永和區"
"234038","336-UY","2018/11/26 19:19:43","新北市永和區民樂街70號","121.527416666667","24.9984366666667","6500400","永和區"
"234064","337-UY","2018/11/26 19:19:35","新北市永和區得和路243巷28弄21號","121.521381666667","25.0011183333333","6500400","永和區"
"234070","552-UM","2018/11/26 19:19:29","新北市永和區豫溪街45號","121.516938333333","25.00988","6500400","永和區"
"234017","745-BX","2018/11/26 19:19:40","新北市永和區文化路144巷31弄8號","121.512441666667","25.016775","6500400","永和區"
"234030","746-BX","2018/11/26 19:19:35","新北市永和區厚德街82號","121.523748333333","24.9988866666667","6500400","永和區"
"234054","KEA-2590","2018/11/26 19:19:27","新北市永和區中興街20號","121.516081666667","25.011845","6500400","永和區"
"234013","KEA-2591","2018/11/26 19:19:42","新北市永和區信義路49號","121.512973333333","25.0125","6500400","永和區"
"234061","AAD-866","2018/11/26 19:19:37","新北市永和區秀朗路一段175號","121.517086666667","25.003665","6500400","永和區"
"234086","748-BX","2018/11/26 19:19:41","新北市永和區永利路6號","121.517461666667","25.00577","6500400","永和區"
"234042","862-TW","2018/11/26 19:19:33","新北市永和區保平路151巷2弄1號","121.510108333333","25.005545","6500400","永和區"
"234050","863-TW","2018/11/26 19:19:29","新北市永和區仁愛路104巷10號","121.512058333333","25.0137183333333","6500400","永和區"
"234023","9372-KE","2018/11/26 19:19:45","新北市永和區竹林路109巷7號","121.52032","25.011965","6500400","永和區"
"234026","9371-KE","2018/11/26 19:19:28","新北市永和區安樂路104巷1號","121.51454","24.99969","6500400","永和區"
"234011","9373-KE","2018/11/26 19:19:37","新北市永和區保福路二段9巷9號","121.510578333333","25.01088","6500400","永和區"
"249001","173-UM","2018/11/26 19:19:42","新北市八里區中華路二段145號","121.40908","25.1524366666667","6502300","八里區"
"249003","593-UM","2018/11/26 19:19:30","新北市八里區中山路二段466巷6號","121.398861666667","25.1473933333333","6502300","八里區"
"248016","026-BX","2018/11/26 19:19:38","新北市五股區成洲五路40號","121.45264","25.10198","6501500","五股區"
"248008","095-VK","2018/11/26 19:19:41","新北市蘆洲區中山一路312號","121.469288333333","25.0772133333333","6501500","五股區"
"248018","225-UY","2018/11/26 19:19:33","新北市五股區民義路一段255-6號","121.426065","25.0914683333333","6501500","五股區"
"248012","655-BX","2018/11/26 19:19:26","新北市五股區中興路四段38巷11號","121.438763333333","25.0833933333333","6501500","五股區"
"248004","677-BX","2018/11/26 19:19:44","新北市五股區五福路149號","121.432023333333","25.09138","6501500","五股區"
"248002","678-BX","2018/11/26 19:19:45","新北市五股區凌雲路一段158巷6號","121.447808333333","25.1030566666667","6501500","五股區"
"248010","682-TV","2018/11/26 19:19:35","新北市五股區水碓一路23號","121.430655","25.0712566666667","6501500","五股區"
"234077","969-R7","2018/11/26 19:19:40","新北市永和區民族街42號","121.518421666667","24.9987916666667","6500400","永和區"
"234074","AAC-211","2018/11/26 19:19:33","新北市永和區竹林路98號","121.519593333333","25.0121416666667","6500400","永和區"
"234067","AAC-212","2018/11/26 19:19:30","新北市永和區保平路52號","121.511381666667","25.007015","6500400","永和區"
"234003","AAC-295","2018/11/26 19:19:43","新北市永和區中山路一段135號","121.510475","25.0098983333333","6500400","永和區"
"244023","069-UM","2018/11/26 19:19:38","新北市林口區仁愛路二段269號","121.373398333333","25.0772366666667","6501700","林口區"
"244019","403-UM","2018/11/26 19:19:24","新北市林口區文化二路一段490-8號","121.375883333333","25.0782583333333","6501700","林口區"
"244017","485-VK","2018/11/26 19:19:34","新北市林口區忠孝路371-1號","121.36869","25.0720783333333","6501700","林口區"
"243013","AAD-798","2018/11/26 19:19:44","新北市泰山區明志路三段145巷2弄15號","121.425071666667","25.0394466666667","6501600","泰山區"
"243009","297-R6","2018/11/26 19:19:37","新北市泰山區和平街13巷38號","121.434471666667","25.0655583333333","6501600","泰山區"
"243016","KEA-2801","2018/11/26 19:19:43","新北市泰山區明志路三段135號","121.424958333333","25.040365","6501600","泰山區"
"243015","421-VK","2018/11/26 19:19:32","新北市泰山區明志路二段1號","121.430198333333","25.0538266666667","6501600","泰山區"
"243011","KEA-2215","2018/11/26 19:19:30","新北市泰山區中央路11巷1號","121.426233333333","25.0428316666667","6501600","泰山區"
"243010","KEA-2216","2018/11/26 19:19:45","新北市泰山區明志路一段494號","121.430203333333","25.0546866666667","6501600","泰山區"
"243012","646-TV","2018/11/26 19:19:45","新北市泰山區仁義路220巷6號","121.4327","25.0541033333333","6501600","泰山區"
"243014","680-BX","2018/11/26 19:19:44","新北市泰山區泰林路二段23號","121.4363","25.0563166666667","6501600","泰山區"
"222003","436-BY","2018/11/26 19:19:41","新北市深坑區深南路204號","121.626666666667","25.016075","6501800","深坑區"
"222002","659-BX","2018/11/26 19:19:34","新北市深坑區北深路一段177號","121.632593333333","25.0108983333333","6501800","深坑區"
"231041","002-UM","2018/11/26 19:19:25","新北市新店區溪園路203號","121.526648333333","24.9841783333333","6500600","新店區"
"231059","046-UY","2018/11/26 19:19:40","新北市新店區安和路二段166-10號","121.519056666667","24.9741283333333","6500600","新店區"
"231040","047-UY","2018/11/26 19:19:37","新北市新店區三民路55號","121.536778333333","24.97099","6500600","新店區"
"231044","106-UY","2018/11/26 19:19:38","新北市新店區中興路三段311號","121.5419","24.9860316666667","6500600","新店區"
"231046","107-UY","2018/11/26 19:19:26","新北市新店區華城路5-3號","121.52929","24.957895","6500600","新店區"
"231052","108-UY","2018/11/26 19:19:31","新北市新店區屈尺路55-1號","121.546341666667","24.9225666666667","6500600","新店區"
"231047","187-VK","2018/11/26 19:19:36","新北市新店區中興路二段59號","121.546548333333","24.9704433333333","6500600","新店區"
"231054","KEA-2219","2018/11/26 19:19:43","新北市新店區國校路51巷1號","121.538071666667","24.9546383333333","6500600","新店區"
"231042","268-BY","2018/11/26 19:19:30","新北市新店區中興路一段115號","121.541463333333","24.9627333333333","6500600","新店區"
"231051","278-BY","2018/11/26 19:19:36","新北市新店區百忍街50巷2弄2號","121.533536666667","24.9762133333333","6500600","新店區"
"231050","AAD-862","2018/11/26 19:19:39","新北市新店區竹林路30巷1號","121.552273333333","24.9512783333333","6500600","新店區"
"231058","3713-VJ","2018/11/26 19:19:36","新北市新店區檳榔路36巷20號","121.540903333333","24.9629366666667","6500600","新店區"
"231066","4716-K9","2018/11/26 19:19:31","新北市新店區安康路三段359巷10弄2號","121.484268333333","24.9504633333333","6500600","新店區"
"231065","512-UM","2018/11/26 19:19:43","新北市新店區安祥路108巷51號","121.474438333333","24.957195","6500600","新店區"
"231049","513-UM","2018/11/26 19:19:43","新北市新店區明德路64號","121.541588333333","24.9794","6500600","新店區"
"231063","616-UM","2018/11/26 19:19:28","新北市新店區達觀路14巷1號","121.504676666667","24.9414983333333","6500600","新店區"
"231045","617-UM","2018/11/26 19:19:29","新北市新店區北宜路一段260號","121.545716666667","24.9527483333333","6500600","新店區"
"231061","619-UM","2018/11/26 19:19:38","新北市新店區安康路一段65號","121.530425","24.960995","6500600","新店區"
"231064","719-UM","2018/11/26 19:19:32","新北市新店區安忠路38號","121.513141666667","24.9595133333333","6500600","新店區"
"231062","720-UM","2018/11/26 19:19:39","新北市新店區安康路一段155-1號","121.527415","24.9622516666667","6500600","新店區"
"231060","897-TW","2018/11/26 19:19:41","新北市新店區安康路二段102號","121.513513333333","24.962995","6500600","新店區"
"231043","899-TW","2018/11/26 19:19:41","新北市新店區北新路二段174號","121.542948333333","24.9759466666667","6500600","新店區"
"241022","060-VK","2018/11/26 19:19:40","新北市三重區重陽路二段38號","121.487148333333","25.06328","6500200","三重區"
"241031","061-VK","2018/11/26 19:19:38","新北市三重區重新路四段91號","121.486233333333","25.055525","6500200","三重區"
"241017","063-VK","2018/11/26 19:19:36","新北市三重區大同北路182號","121.491683333333","25.0658016666667","6500200","三重區"
"241026","066-VK","2018/11/26 19:19:41","新北市三重區中正南路216號","121.493823333333","25.0551516666667","6500200","三重區"
"251014","742-BX","2018/11/26 19:19:41","新北市淡水區小中寮19-7號","121.484771666667","25.2296233333333","6501000","淡水區"
"241025","271-UM","2018/11/26 19:19:31","新北市三重區中正北路406號","121.475346666667","25.0704766666667","6500200","三重區"
"241007","398-BY","2018/11/26 19:19:33","新北市三重區慈愛街53號","121.486275","25.079195","6500200","三重區"
"241035","462-BY","2018/11/26 19:19:36","新北市三重區大智街14號","121.495133333333","25.0646566666667","6500200","三重區"
"241030","480-VK","2018/11/26 19:19:29","新北市三重區成功路41巷72號","121.491383333333","25.053325","6500200","三重區"
"241006","AAD-863","2018/11/26 19:19:30","新北市三重區車路頭街182號","121.483646666667","25.0772433333333","6500200","三重區"
"241020","743-BX","2018/11/26 19:11:46","新北市三重區自強路三段17號","121.48732","25.0722783333333","6500200","三重區"
"241029","942-UM","2018/11/26 19:19:41","新北市三重區重安街28號","121.490546666667","25.0579066666667","6500200","三重區"
"235066","003-UY","2018/11/26 19:19:32","新北市中和區中和路135號","121.501865","24.9999083333333","6500300","中和區"
"235063","006-UY","2018/11/26 19:19:45","新北市中和區連勝街122號","121.494518333333","24.99625","6500300","中和區"
"235056","096-UM","2018/11/26 19:19:29","新北市中和區員山路529號","121.479721666667","25.0069966666667","6500300","中和區"
"235039","097-UM","2018/11/26 19:19:35","新北市中和區秀峰街103巷2弄4號","121.519951666667","24.990515","6500300","中和區"
"235065","098-UM","2018/11/26 19:19:38","新北市中和區中山路二段64巷7弄9號","121.503371666667","25.00475","6500300","中和區"
"235058","151-BY","2018/11/26 19:19:40","新北市中和區連城路523巷9弄6號","121.481771666667","24.99455","6500300","中和區"
"235055","183-VK","2018/11/26 19:19:26","新北市中和區德光路13號","121.471166666667","25.0044566666667","6500300","中和區"
"235038","185-VK","2018/11/26 19:19:35","新北市中和區大仁街10巷50號","121.520408333333","24.9925866666667","6500300","中和區"
"235049","186-VK","2018/11/26 19:19:42","新北市中和區景新街230-5號","121.508575","24.9941383333333","6500300","中和區"
"235067","255-BX","2018/11/26 19:19:30","新北市中和區民樂路36號","121.482975","25.0012616666667","6500300","中和區"
"235044","293-VK","2018/11/26 19:19:29","新北市中和區中興街266巷2號","121.498513333333","24.987455","6500300","中和區"
"235072","301-VK","2018/11/26 19:19:33","新北市中和區連城路265號","121.4913","24.996265","6500300","中和區"
"235043","352-BY","2018/11/26 19:19:43","新北市中和區景平路321號","121.506125","24.9932816666667","6500300","中和區"
"235042","KEA-2878","2018/11/26 19:19:29","新北市中和區安樂路143巷2弄12號","121.514283333333","24.9975233333333","6500300","中和區"
"235050","4979-A6","2018/11/26 19:19:34","新北市中和區復興路337號","121.500096666667","24.9902083333333","6500300","中和區"
"235069","4980-A6","2018/11/26 19:19:29","新北市中和區莊敬路35號","121.500631666667","25.0049166666667","6500300","中和區"
"235070","558-UM","2018/11/26 19:19:29","新北市中和區中山路二段231號","121.498295","25.0024466666667","6500300","中和區"
"235045","565-BX","2018/11/26 19:19:41","新北市中和區景新街423巷33弄10號","121.513741666667","24.99012","6500300","中和區"
"235054","640-BX","2018/11/26 19:19:28","新北市中和區國光街109巷14號","121.469743333333","25.0000783333333","6500300","中和區"
"235060","647-TV","2018/11/26 19:19:38","新北市中和區新生街114巷24號","121.482453333333","25.0023766666667","6500300","中和區"
"235047","732-UM","2018/11/26 19:19:36","新北市中和區和平街17-2號","121.50856","24.9905533333333","6500300","中和區"
"235046","733-UM","2018/11/26 19:19:34","新北市中和區忠孝街2巷9弄2號","121.510323333333","24.9821916666667","6500300","中和區"
"235071","783-BX","2018/11/26 19:19:44","新北市中和區中正路637巷52弄7號","121.485141666667","24.993665","6500300","中和區"
"235062","800-TS","2018/11/26 19:19:31","新北市中和區中山路二段392號","121.490526666667","25.0039983333333","6500300","中和區"
"235057","801-TS","2018/11/26 19:19:43","新北市中和區員山路333號","121.48125","25.0013016666667","6500300","中和區"
"235041","802-TS","2018/11/26 19:19:32","新北市永和區中和路381號","121.508508333333","24.9998516666667","6500300","中和區"
"235052","805-TS","2018/11/26 19:19:41","新北市中和區興南路二段142巷17弄33號","121.502998333333","24.9828216666667","6500300","中和區"
"235048","896-TW","2018/11/26 19:19:29","新北市中和區忠孝街126-1號","121.512123333333","24.9861966666667","6500300","中和區"
"235053","900-TW","2018/11/26 19:19:39","新北市中和區華安街21巷2號","121.467395","24.997485","6500300","中和區"
"235051","157-BY","2018/11/26 19:19:30","新北市中和區和平街7-2號","121.509136666667","24.9902266666667","6500300","中和區"
"235037","AAC-213","2018/11/26 19:19:34","新北市中和區秀朗路三段50巷12弄6號","121.524035","24.99527","6500300","中和區"
"235059","AAC-215","2018/11/26 19:19:40","新北市中和區錦和路195巷3弄1號","121.491258333333","24.99099","6500300","中和區"
"220086","073-UY","2018/11/26 19:19:35","新北市板橋區國光路175號","121.460526666667","25.01851","6500100","板橋區"
"220106","075-UY","2018/11/26 19:19:32","新北市板橋區雙十路三段70巷2號","121.470325","25.03238","6500100","板橋區"
"220069","AAD-861","2018/11/26 19:19:30","新北市板橋區貴興路39號","121.457615","25.00368","6500100","板橋區"
"220016","120-SR","2018/11/26 19:09:22","新北市板橋區新站路1號","121.467501666667","25.0109516666667","6500100","板橋區"
"226004","205-ST","2018/11/26 19:19:38","新北市平溪區靜安路三段130號","121.773995","25.0377333333333","6502400","平溪區"
"228003","097-TW","2018/11/26 19:19:37","新北市貢寮區和美里和美街22-1號","121.912771666667","25.0826483333333","6502600","貢寮區"
"228002","585-TW","2018/11/26 19:19:40","新北市貢寮區龍門里復興街14號","121.926596666667","25.0263133333333","6502600","貢寮區"
"228001","670-TC","2018/11/26 19:19:47","新北市貢寮區真理里新港街10號","121.925545","25.0543766666667","6502600","貢寮區"
"224008","285-BY","2018/11/26 19:19:27","新北市瑞芳區一坑路37號","121.802846666667","25.1082766666667","6501200","瑞芳區"
"227008","642-TC","2018/11/26 19:19:40","新北市雙溪區新基里新基北街40號","121.868565","25.0380416666667","6502500","雙溪區"
"227001","400-TW","2018/11/26 19:19:33","新北市雙溪區平林里梅竹蹊66-1號","121.860155","25.0358066666667","6502500","雙溪區"
"253006","032-BX","2018/11/26 19:19:27","新北市石門區楓林19號","121.536421666667","25.2908933333333","6502200","石門區"
"253005","295-VK","2018/11/26 19:19:44","新北市石門區阿里荖5號","121.611643333333","25.27941","6502200","石門區"
"222001","KEA-2212","2018/11/26 19:19:36","新北市深坑區北深路二段82號","121.617548333333","25.003505","6501800","深坑區"
"208002","KEA-2872","2018/11/26 19:19:25","新北市金山區中華路131號","121.633146666667","25.2208933333333","6502700","金山區"
"208003","665-BX","2018/11/26 19:19:46","新北市金山區中山路118-1號","121.639255","25.2199416666667","6502700","金山區"
"208001","761-BX","2018/11/26 19:19:46","新北市金山區民生路69號","121.640126666667","25.2197233333333","6502700","金山區"
"251009","008-UM","2018/11/26 19:19:32","新北市淡水區中正路114號","121.44172","25.169555","6501000","淡水區"
"251005","010-UM","2018/11/26 19:19:38","新北市淡水區水源街一段29號","121.443153333333","25.17232","6501000","淡水區"
"251001","011-UM","2018/11/26 19:19:37","新北市淡水區自強路201巷43號","121.462141666667","25.1268466666667","6501000","淡水區"
"251013","KEA-2871","2018/11/26 19:19:32","新北市淡水區安子內12-1號","121.48152","25.2191066666667","6501000","淡水區"
"251016","179-VK","2018/11/26 19:19:38","新北市淡水區下圭柔山119-51號","121.450746666667","25.2084866666667","6501000","淡水區"
"251015","182-VK","2018/11/26 19:19:40","新北市淡水區北新路三段38巷5號","121.484503333333","25.1870433333333","6501000","淡水區"
"251010","413-VK","2018/11/26 19:19:33","新北市淡水區沙崙路28號","121.421481666667","25.1813883333333","6501000","淡水區"
"251006","561-UM","2018/11/26 19:19:35","新北市淡水區大信街33號","121.44202","25.177335","6501000","淡水區"
"251007","577-R6","2018/11/26 19:19:38","新北市淡水區民生路145巷46號","121.467008333333","25.1389183333333","6501000","淡水區"
"251003","766-UM","2018/11/26 19:19:33","新北市淡水區大義街3號","121.443836666667","25.1779533333333","6501000","淡水區"
"207003","550-UM","2018/11/26 19:19:31","新北市萬里區大鵬里萬里加投79-3號","121.647335","25.2123483333333","6502800","萬里區"
"207004","225-TW","2018/11/26 19:19:27","新北市萬里區萬里里成功新村65號","121.688313333333","25.174565","6502800","萬里區"
"252002","178-VK","2018/11/26 19:19:42","新北市三芝區淡金路二段18-1號","121.502701666667","25.2594933333333","6502100","三芝區"
"252001","292-VK","2018/11/26 19:19:27","新北市三芝區長勤街9巷11弄1號","121.501718333333","25.2548433333333","6502100","三芝區"
"237004","KEA-2597","2018/11/26 19:19:39","新北市三峽區有木206號","121.439141666667","24.8515733333333","6500900","三峽區"
"237007","153-BY","2018/11/26 19:19:35","新北市三峽區二鬮路31-1號","121.362205","24.910515","6500900","三峽區"
"237009","210-TH","2018/11/26 19:19:40","新北市三峽區信義街20號","121.37083","24.93564","6500900","三峽區"
"237013","252-BX","2018/11/26 19:19:39","新北市三峽區大同路39巷22弄1號","121.377218333333","24.9275033333333","6500900","三峽區"
"237012","275-BY","2018/11/26 19:19:27","新北市三峽區三樹路98巷142號","121.385193333333","24.941865","6500900","三峽區"
"237008","302-VK","2018/11/26 19:19:34","新北市三峽區光明路106巷83號","121.374726666667","24.92653","6500900","三峽區"
"237014","433-BY","2018/11/26 19:19:24","新北市三峽區中山路257巷39號","121.362081666667","24.93649","6500900","三峽區"
"237006","5529-G3","2018/11/26 19:19:36","新北市三峽區橫溪路95號","121.398391666667","24.93545","6500900","三峽區"
"237011","KEA-2596","2018/11/26 19:19:37","新北市三峽區介壽路三段47號","121.395566666667","24.9373683333333","6500900","三峽區"
"237015","649-BX","2018/11/26 19:19:41","新北市三峽區建安73-2號","121.44828","24.926435","6500900","三峽區"
"237010","706-TV","2018/11/26 19:19:30","新北市三峽區國光街25號","121.375445","24.9369283333333","6500900","三峽區"
"237005","AKY-6261","2018/11/26 19:19:34","新北市三峽區中山路459巷50號","121.356306666667","24.9372416666667","6500900","三峽區"
"236069","105-UM","2018/11/26 19:19:37","新北市土城區學成路74號","121.451441666667","24.9881216666667","6501300","土城區"
"236078","166-UM","2018/11/26 19:19:38","新北市土城區中央路四段440號","121.410656666667","24.95133","6501300","土城區"
"236026","269-VK","2018/11/26 19:19:26","新北市土城區中央路二段149巷8號","121.44244","24.9766433333333","6501300","土城區"
"236014","270-VK","2018/11/26 19:19:33","新北市土城區學府路一段24巷1號","121.458476666667","24.9884766666667","6501300","土城區"
"236020","752-BX","2018/11/26 19:19:16","新北市土城區峰廷街8號","121.468666666667","24.9877633333333","6501300","土城區"
"236059","912-UM","2018/11/26 19:19:33","新北市土城區中央路三段59號","121.438848333333","24.9695016666667","6501300","土城區"
"236048","913-UM","2018/11/26 19:19:26","新北市土城區明德路一段365-1號","121.45363","24.9790866666667","6501300","土城區"
"242013","173-VK","2018/11/26 19:19:41","新北市新莊區三和路12-21號","121.441771666667","25.0386616666667","6500500","新莊區"
"242031","348-TH","2018/11/26 19:19:36","新北市新莊區新泰路357巷3弄57號","121.442155","25.0396816666667","6500500","新莊區"
"238015","755-BX","2018/11/26 19:19:37","新北市樹林區備內街19號","121.412651666667","24.9870766666667","6500700","樹林區"
"238023","601-UM","2018/11/26 19:19:25","桃園市龜山區萬壽路一段328號","121.402216666667","25.0171533333333","6500700","樹林區"
"238019","599-UM","2018/11/26 19:19:35","新北市樹林區東榮街28號","121.417586666667","24.983565","6500700","樹林區"
"238018","571-TV","2018/11/26 19:19:30","新北市樹林區太元街2巷7號","121.417148333333","24.9808716666667","6500700","樹林區"
"238024","5061-A6","2018/11/26 19:19:38","新北市樹林區福德街36-2號","121.400335","24.9751716666667","6500700","樹林區"
"238022","KEA-2213","2018/11/26 19:19:25","新北市樹林區中山路二段230號","121.40899","24.980185","6500700","樹林區"
"238021","KEA-2539","2018/11/26 19:19:39","新北市樹林區柑園街二段247巷18號","121.375128333333","24.950175","6500700","樹林區"
"238025","303-VK","2018/11/26 19:19:30","新北市樹林區中山路二段161號","121.406143333333","24.9787466666667","6500700","樹林區"
"238017","283-BY","2018/11/26 19:19:04","新北市樹林區光興街326號","121.407568333333","25.00569","6500700","樹林區"
"238014","282-BY","2018/11/26 19:19:38","新北市樹林區中正路22-1號","121.42771","24.9994133333333","6500700","樹林區"
"238020","268-VK","2018/11/26 19:19:26","新北市樹林區俊英街121巷29號","121.42336","25.0100383333333","6500700","樹林區"
"238026","172-UY","2018/11/26 19:19:43","新北市樹林區佳園路一段39號","121.393208333333","24.9707983333333","6500700","樹林區"
"238016","169-UY","2018/11/26 19:19:35","新北市樹林區復興路320號","121.416268333333","24.9867583333333","6500700","樹林區"
"239007","AAC-297","2018/11/26 19:19:29","新北市鶯歌區中山路196-8號","121.34711","24.9570233333333","6500800","鶯歌區"
"239006","891-R6","2018/11/26 19:19:30","新北市鶯歌區鶯桃路133號","121.338083333333","24.954675","6500800","鶯歌區"
"239008","527-UM","2018/11/26 19:19:32","新北市鶯歌區國際二路6巷18號","121.339063333333","24.9739133333333","6500800","鶯歌區"
"239005","526-UM","2018/11/26 19:19:26","新北市鶯歌區中湖街110號","121.348871666667","24.9727866666667","6500800","鶯歌區"
"239001","417-VK","2018/11/26 19:19:29","新北市鶯歌區永智街79號","121.336953333333","24.9533383333333","6500800","鶯歌區"
"239003","360-BY","2018/11/26 19:19:29","新北市鶯歌區建國路121號","121.352131666667","24.9540016666667","6500800","鶯歌區"
"239004","193-VK","2018/11/26 19:19:27","新北市鶯歌區中正三路鄭厝巷65號","121.331653333333","24.9337233333333","6500800","鶯歌區"
"221008","489-VK","2018/11/26 19:19:42","新北市汐止區康寧街310號","121.626613333333","25.067285","6501100","汐止區"
"221036","130-UY","2018/11/26 19:19:36","新北市汐止區康寧街901號","121.651698333333","25.0749183333333","6501100","汐止區"
"221015","131-UY","2018/11/26 19:19:37","新北市汐止區大同路二段341-1號","121.656173333333","25.0671033333333","6501100","汐止區"
"221010","269-BY","2018/11/26 19:19:30","新北市汐止區康寧街901號","121.651508333333","25.075025","6501100","汐止區"
"221012","278-VK","2018/11/26 19:19:31","新北市汐止區汐萬路一段160號","121.652638333333","25.0714583333333","6501100","汐止區"
"221023","279-VK","2018/11/26 19:19:30","新北市汐止區汐萬路一段256巷1號","121.65177","25.0749133333333","6501100","汐止區"
"221027","281-BY","2018/11/26 19:19:46","新北市汐止區汐萬路一段242號","121.651526666667","25.0731283333333","6501100","汐止區"
"221029","298-VK","2018/11/26 19:19:27","新北市汐止區康寧街901號","121.651576666667","25.0749483333333","6501100","汐止區"
"221021","299-VK","2018/11/26 19:19:37","新北市汐止區康寧街901號","121.651325","25.0750483333333","6501100","汐止區"
"221031","353-TW","2018/11/26 19:19:39","新北市汐止區汐萬路一段256巷3號","121.653351666667","25.0746316666667","6501100","汐止區"
"221025","623-UM","2018/11/26 19:19:34","新北市汐止區汐萬路一段312號","121.650573333333","25.0753866666667","6501100","汐止區"
"221038","646-BX","2018/11/26 19:19:40","新北市汐止區汐萬路一段312號","121.650676666667","25.0752866666667","6501100","汐止區"
"221002","707-TV","2018/11/26 19:19:43","新北市汐止區大同路一段398號","121.63984","25.0597866666667","6501100","汐止區"
"220079","145-BY","2018/11/26 19:19:43","新北市板橋區公館街110號","121.460906666667","25.0168","6500100","板橋區"
"220080","200-UY","2018/11/26 19:18:55","新北市板橋區大觀路二段19巷92號","121.449313333333","25.0028383333333","6500100","板橋區"
"220082","610-BX","2018/11/26 19:19:31","新北市板橋區溪城路75號","121.426418333333","24.9838633333333","6500100","板橋區"
"220101","245-BX","2018/11/26 19:19:36","新北市板橋區莒光路165巷42-1號","121.474188333333","25.02526","6500100","板橋區"
"220056","276-BY","2018/11/26 19:19:42","新北市板橋區信義路147號","121.4581","24.9929633333333","6500100","板橋區"
"220072","277-BY","2018/11/26 19:19:32","新北市板橋區金門街301號","121.430006666667","24.9865166666667","6500100","板橋區"
"220064","282-UM","2018/11/26 19:19:28","新北市板橋區縣民大道二段７號","121.46461","25.0140016666667","6500100","板橋區"
"220071","283-VK","2018/11/26 19:19:42","新北市板橋區大豐街19號","121.462293333333","25.0014266666667","6500100","板橋區"
"220094","285-UM","2018/11/26 19:19:27","新北市板橋區吳鳳路82號","121.466961666667","25.0312416666667","6500100","板橋區"
"220053","285-VK","2018/11/26 19:19:33","新北市板橋區富山街7巷4-2號","121.4785","25.0215566666667","6500100","板橋區"
"220083","286-VK","2018/11/26 19:19:36","新北市板橋區大觀路二段174巷196弄16號","121.443125","25.0035916666667","6500100","板橋區"
"220081","287-VK","2018/11/26 19:19:38","新北市板橋區南雅西路一段148號","121.45239","25.0074016666667","6500100","板橋區"
"220090","288-VK","2018/11/26 19:19:31","新北市板橋區長江路一段106巷13弄12號","121.460515","25.02929","6500100","板橋區"
"220061","295-UM","2018/11/26 19:19:37","新北市板橋區光復街18號","121.4814","25.0188916666667","6500100","板橋區"
"220084","296-UM","2018/11/26 19:19:26","新北市板橋區滿平街141號","121.429141666667","24.9880566666667","6500100","板橋區"
"220075","303-R5","2018/11/26 19:19:32","新北市板橋區僑中一街124巷72-3號","121.449481666667","25.0175866666667","6500100","板橋區"
"220062","305-R5","2018/11/26 19:19:39","新北市板橋區三民路二段153巷36弄2號","121.481113333333","25.0141416666667","6500100","板橋區"
"220092","307-R5","2018/11/26 19:19:27","新北市板橋區松江街62號","121.468628333333","25.0275116666667","6500100","板橋區"
"220098","317-R6","2018/11/26 19:19:31","新北市板橋區民有街71號","121.465115","25.026995","6500100","板橋區"
"220089","487-VK","2018/11/26 19:19:42","新北市板橋區文化路一段419號","121.467756666667","25.02261","6500100","板橋區"
"220035","560-BX","2018/11/26 19:19:29","新北市板橋區中正路433巷29號","121.45301","25.023655","6500100","板橋區"
"220103","561-BX","2018/11/26 19:19:42","新北市板橋區文化路一段188巷9弄106號","121.468283333333","25.0192983333333","6500100","板橋區"
"220065","568-UM","2018/11/26 19:19:37","新北市板橋區民族路170巷1號","121.467365","25.0075783333333","6500100","板橋區"
"220063","609-BX","2018/11/26 19:19:24","新北市板橋區三民路一段136號","121.479343333333","25.0206","6500100","板橋區"
"220091","637-BX","2018/11/26 19:19:44","新北市板橋區萬板路468號","121.479821666667","25.0258733333333","6500100","板橋區"
"220057","686-BX","2018/11/26 19:19:32","新北市中和區民德路360號","121.466268333333","24.99376","6500100","板橋區"
"220077","687-BX","2018/11/26 19:19:38","新北市板橋區僑中一街2號","121.449396666667","25.01119","6500100","板橋區"
"220093","689-BX","2018/11/26 19:19:34","新北市板橋區文化路一段245號","121.46434","25.0179016666667","6500100","板橋區"
"220054","741-BX","2018/11/26 19:19:44","新北市板橋區校前街42號","121.461438333333","25.0032516666667","6500100","板橋區"
"220102","KEA-2699","2018/11/26 19:19:41","新北市板橋區文聖街207號","121.47979","25.0263066666667","6500100","板橋區"
"220055","827-TW","2018/11/26 19:19:34","新北市板橋區館前東路156巷21號","121.464261666667","25.00685","6500100","板橋區"
"220067","829-TW","2018/11/26 19:19:43","新北市板橋區長安街178巷16號","121.47425","25.0109283333333","6500100","板橋區"
"220068","830-TW","2018/11/26 19:19:38","新北市板橋區翠華街6巷40號","121.481488333333","25.0245983333333","6500100","板橋區"
"220096","831-TW","2018/11/26 19:19:40","新北市板橋區大同街26巷36號","121.478508333333","25.0262983333333","6500100","板橋區"
"220088","833-TW","2018/11/26 19:19:29","新北市板橋區雙十路二段79號","121.476016666667","25.0271433333333","6500100","板橋區"
"220074","895-R6","2018/11/26 19:19:29","新北市板橋區中正路自強新村45-1號","121.454748333333","25.0140016666667","6500100","板橋區"
"220073","985-R7","2018/11/26 19:19:27","新北市板橋區新生街21號","121.45606","25.0211716666667","6500100","板橋區"
"220097","AAC-210","2018/11/26 19:19:35","新北市板橋區幸福路60巷77號","121.459856666667","25.02205","6500100","板橋區"
"220070","AAC-253","2018/11/26 19:19:34","新北市板橋區忠孝路136號","121.463518333333","25.0023583333333","6500100","板橋區"
"235068","KEA-2873","2018/11/26 19:19:22","新北市中和區圓通路158巷1弄9號","121.49726","24.996045","6500300","中和區"
"235061","KEA-2875","2018/11/26 19:19:40","新北市中和區員山路150-14號","121.481391666667","24.9977216666667","6500300","中和區"
"235064","KEA-2876","2018/11/26 19:19:18","新北市中和區中和路26巷16號","121.499251666667","25.001505","6500300","中和區"
