"lineid","car","time","location","longitude","latitude","cityid","cityname"
"234046","148-BY","2018/11/26 19:49:40","新北市永和區永利路354巷2號","121.525743333333","25.0033816666667","6500400","永和區"
"234007","207-UY","2018/11/26 19:49:38","新北市中和區中和路228號","121.506501666667","24.9996133333333","6500400","永和區"
"234081","298-R6","2018/11/26 19:49:35","新北市永和區永亨路127號","121.524388333333","25.004195","6500400","永和區"
"234038","336-UY","2018/11/26 19:49:43","新北市永和區成功路二段121巷10號","121.527281666667","24.9982833333333","6500400","永和區"
"234064","337-UY","2018/11/26 19:49:32","新北市永和區中正路368巷22號","121.518518333333","25.0007283333333","6500400","永和區"
"234070","552-UM","2018/11/26 19:49:28","新北市永和區竹林路81號","121.519505","25.0125583333333","6500400","永和區"
"234017","745-BX","2018/11/26 19:49:40","新北市永和區永和路二段301巷1號","121.515838333333","25.0162866666667","6500400","永和區"
"234030","746-BX","2018/11/26 19:49:37","新北市永和區民生路67巷22號","121.52385","24.9971533333333","6500400","永和區"
"234054","KEA-2590","2018/11/26 19:49:26","新北市永和區竹林路75巷17號","121.519838333333","25.01383","6500400","永和區"
"234013","KEA-2591","2018/11/26 19:49:43","新北市永和區永平路286-1號","121.507665","25.0120266666667","6500400","永和區"
"234061","AAD-866","2018/11/26 19:49:37","新北市永和區中正路184號","121.515353333333","24.99687","6500400","永和區"
"234086","748-BX","2018/11/26 19:49:38","新北市永和區永亨路122號","121.524358333333","25.0040766666667","6500400","永和區"
"234042","862-TW","2018/11/26 19:49:33","新北市永和區中和路389巷8號","121.50815","25.000905","6500400","永和區"
"234050","863-TW","2018/11/26 19:49:29","新北市永和區保安路77號","121.508615","25.0149083333333","6500400","永和區"
"234026","9371-KE","2018/11/26 19:49:28","新北市永和區雙和街52巷1號","121.50894","25.003215","6500400","永和區"
"234011","9373-KE","2018/11/26 19:49:37","新北市永和區仁愛路352巷92弄20號","121.501375","25.0083783333333","6500400","永和區"
"249001","173-UM","2018/11/26 19:49:44","新北市八里區中華路二段250號","121.40548","25.1496866666667","6502300","八里區"
"249004","303-UY","2018/11/26 19:49:43","新北市八里區仁愛路127號","121.410118333333","25.1589133333333","6502300","八里區"
"249002","305-UY","2018/11/26 19:49:44","新北市八里區頂寮五街17號","121.451405","25.12613","6502300","八里區"
"249003","593-UM","2018/11/26 19:49:31","新北市八里區華峰三街78號","121.398278333333","25.1454833333333","6502300","八里區"
"248014","025-BX","2018/11/26 19:49:37","新北市五股區五福路32巷7號","121.434373333333","25.0894","6501500","五股區"
"248016","026-BX","2018/11/26 19:49:38","新北市五股區成泰路三段577巷80弄25號","121.449623333333","25.1046083333333","6501500","五股區"
"248008","095-VK","2018/11/26 19:49:41","新北市蘆洲區中山二路320號","121.468428333333","25.076575","6501500","五股區"
"248018","225-UY","2018/11/26 19:49:33","新北市五股區外寮路1-2號","121.42701","25.0773366666667","6501500","五股區"
"248012","655-BX","2018/11/26 19:49:26","新北市五股區蓬萊路24號","121.433895","25.0799283333333","6501500","五股區"
"248004","677-BX","2018/11/26 19:49:44","新北市五股區成泰路一段149-4號","121.435418333333","25.0734333333333","6501500","五股區"
"248002","678-BX","2018/11/26 19:49:45","新北市五股區成泰路三段643號","121.4529","25.1049466666667","6501500","五股區"
"248010","682-TV","2018/11/26 19:49:40","新北市五股區登林路貿商巷1弄7號","121.429703333333","25.06964","6501500","五股區"
"234077","969-R7","2018/11/26 19:49:39","新北市永和區民權路29巷20號","121.521068333333","24.9979966666667","6500400","永和區"
"234074","AAC-211","2018/11/26 19:49:33","新北市永和區竹林路179巷35號","121.522175","25.0102333333333","6500400","永和區"
"234067","AAC-212","2018/11/26 19:49:30","新北市永和區永貞路408號","121.508991666667","25.0078283333333","6500400","永和區"
"234003","AAC-295","2018/11/26 19:49:43","新北市永和區福和路316-1號","121.516006666667","25.0072983333333","6500400","永和區"
"243013","AAD-798","2018/11/26 19:49:44","新北市泰山區應化街7號","121.423881666667","25.0437016666667","6501600","泰山區"
"243009","297-R6","2018/11/26 19:49:37","新北市泰山區美寧街60號","121.430945","25.064675","6501600","泰山區"
"243016","KEA-2801","2018/11/26 19:49:43","新北市泰山區新北大道六段369號","121.422381666667","25.0329266666667","6501600","泰山區"
"243015","421-VK","2018/11/26 19:49:32","新北市泰山區明志路二段214巷9號","121.426766666667","25.048785","6501600","泰山區"
"243011","KEA-2215","2018/11/26 19:49:29","新北市泰山區明志路三段196巷21弄21號","121.422516666667","25.0384816666667","6501600","泰山區"
"243010","KEA-2216","2018/11/26 19:49:45","新北市泰山區民生路33號","121.430696666667","25.0521733333333","6501600","泰山區"
"243012","646-TV","2018/11/26 19:49:44","新北市泰山區全興路13號","121.43236","25.058915","6501600","泰山區"
"243014","680-BX","2018/11/26 19:49:44","新北市泰山區泰林路二段33-8號","121.435125","25.0565066666667","6501600","泰山區"
"222003","436-BY","2018/11/26 19:49:21","新北市深坑區深南路51-1號","121.621223333333","25.0097083333333","6501800","深坑區"
"222002","659-BX","2018/11/26 19:49:34","新北市深坑區北深路一段361號","121.622316666667","25.0049516666667","6501800","深坑區"
"231041","002-UM","2018/11/26 19:49:25","新北市新店區中央路151號","121.529581666667","24.9724216666667","6500600","新店區"
"231059","046-UY","2018/11/26 19:49:40","新北市新店區安和路二段223巷2號","121.517305","24.9760283333333","6500600","新店區"
"231040","047-UY","2018/11/26 19:49:36","新北市新店區北新路一段126巷32號","121.543341666667","24.9688683333333","6500600","新店區"
"231044","106-UY","2018/11/26 19:49:38","新北市新店區復興路44-2號","121.538521666667","24.9866666666667","6500600","新店區"
"231046","107-UY","2018/11/26 19:49:26","新北市新店區福園街10巷1號","121.532686666667","24.9727833333333","6500600","新店區"
"231052","108-UY","2018/11/26 19:49:31","新北市新店區新烏路三段31號","121.553271666667","24.905355","6500600","新店區"
"231047","187-VK","2018/11/26 19:49:35","新北市新店區五峰路61巷5號","121.548661666667","24.9696883333333","6500600","新店區"
"231054","KEA-2219","2018/11/26 19:49:43","新北市新店區光明街79號","121.539001666667","24.9606583333333","6500600","新店區"
"231057","256-BX","2018/11/26 19:49:43","新北市新店區梅崗三路1號","121.55773","24.9311266666667","6500600","新店區"
"231042","268-BY","2018/11/26 19:49:30","新北市新店區中興路一段268-1號","121.545158333333","24.9676666666667","6500600","新店區"
"231050","AAD-862","2018/11/26 19:49:39","新北市新店區北宜路二段579巷5號","121.565336666667","24.9541233333333","6500600","新店區"
"231058","3713-VJ","2018/11/26 19:49:36","新北市新店區中華路60巷39號","121.540733333333","24.9703566666667","6500600","新店區"
"231066","4716-K9","2018/11/26 19:49:31","新北市新店區安康路三段165巷2弄10號","121.489225","24.9513433333333","6500600","新店區"
"231056","4715-K9","2018/11/26 19:49:47","新北市新店區民權路42巷35號","121.539155","24.9837","6500600","新店區"
"231067","4772-VM","2018/11/26 19:49:28","新北市新店區精忠路10-1號","121.532683333333","24.9590366666667","6500600","新店區"
"231065","512-UM","2018/11/26 19:49:43","新北市新店區安祥路109巷90弄20號","121.477468333333","24.95945","6500600","新店區"
"231049","513-UM","2018/11/26 19:49:43","新北市新店區民權路127巷1-1號","121.535303333333","24.982135","6500600","新店區"
"231051","515-UM","2018/11/26 19:49:34","新北市新店區中央路95巷4號","121.531436666667","24.9748733333333","6500600","新店區"
"231063","616-UM","2018/11/26 19:49:28","新北市新店區車子路11號","121.503055","24.95199","6500600","新店區"
"231045","617-UM","2018/11/26 19:49:29","新北市新店區北宜路二段360-1號","121.564726666667","24.9523383333333","6500600","新店區"
"231061","619-UM","2018/11/26 19:49:38","新北市新店區安民街189-1號","121.516875","24.9710683333333","6500600","新店區"
"231068","718-UY","2018/11/26 19:49:26","新北市新店區安一路一段1-1號","121.51922","24.9610316666667","6500600","新店區"
"231064","719-UM","2018/11/26 19:49:28","新北市新店區光華街8巷23號","121.518055","24.969835","6500600","新店區"
"231062","720-UM","2018/11/26 19:49:19","新北市新店區永業路67號","121.531236666667","24.9517633333333","6500600","新店區"
"231060","897-TW","2018/11/26 19:49:39","新北市新店區安康路二段203號","121.509048333333","24.9589566666667","6500600","新店區"
"231043","899-TW","2018/11/26 19:49:41","新北市新店區中正路263-3號","121.538371666667","24.9737716666667","6500600","新店區"
"231055","AKT-0513","2018/11/26 19:49:28","新北市新店區力行路30號","121.539093333333","24.9648","6500600","新店區"
"241011","013-R5","2018/11/26 19:49:28","新北市三重區三和路二段173巷21號","121.498526666667","25.0700016666667","6500200","三重區"
"241028","022-UY","2018/11/26 19:49:27","新北市三重區中正南路158號","121.494281666667","25.0572366666667","6500200","三重區"
"241008","059-VK","2018/11/26 19:49:29","新北市三重區永福街143號","121.478788333333","25.0764383333333","6500200","三重區"
"241022","060-VK","2018/11/26 19:49:40","新北市三重區過圳街31巷2號","121.489185","25.06059","6500200","三重區"
"241031","061-VK","2018/11/26 19:49:38","新北市三重區重新路四段226號","121.48598","25.0541583333333","6500200","三重區"
"241015","062-VK","2018/11/26 19:49:30","新北市三重區重新路一段1號","121.503793333333","25.064285","6500200","三重區"
"241017","063-VK","2018/11/26 19:49:36","新北市三重區重陽路三段5巷8弄14號","121.48952","25.0665316666667","6500200","三重區"
"241024","065-VK","2018/11/26 19:49:37","新北市三重區力行路一段188巷9號","121.480221666667","25.07229","6500200","三重區"
"241026","066-VK","2018/11/26 19:49:41","新北市三重區文化南路36號","121.50034","25.06145","6500200","三重區"
"241003","091-VK","2018/11/26 19:49:43","新北市三重區五華街93巷12號","121.492383333333","25.0840183333333","6500200","三重區"
"251014","742-BX","2018/11/26 19:49:21","新北市淡水區番社前1-7號","121.468248333333","25.2363716666667","6501000","淡水區"
"241016","265-UM","2018/11/26 19:49:38","新北市三重區正德街41巷9號","121.496243333333","25.0627666666667","6500200","三重區"
"241018","268-UM","2018/11/26 19:49:37","新北市三重區雙園街57巷32號","121.494501666667","25.06839","6500200","三重區"
"241013","270-UM","2018/11/26 19:49:44","新北市三重區仁愛街112巷12號","121.494793333333","25.0740166666667","6500200","三重區"
"241025","271-UM","2018/11/26 19:49:31","新北市三重區忠孝路三段75巷13號","121.480031666667","25.0661516666667","6500200","三重區"
"241007","398-BY","2018/11/26 19:49:33","新北市三重區三和路四段133號","121.484756666667","25.077785","6500200","三重區"
"241035","462-BY","2018/11/26 19:49:36","新北市三重區大榮街44號","121.49885","25.063535","6500200","三重區"
"241030","480-VK","2018/11/26 19:49:29","新北市三重區環河南路254巷10號","121.490655","25.0508083333333","6500200","三重區"
"241014","543-UM","2018/11/26 19:49:39","新北市三重區三和路二段37-7號","121.501315","25.067465","6500200","三重區"
"241023","545-UM","2018/11/26 19:49:25","新北市三重區頂崁街172號","121.477575","25.065905","6500200","三重區"
"241001","547-UM","2018/11/26 19:49:36","新北市三重區仁愛街327巷93號","121.49419","25.0806783333333","6500200","三重區"
"241033","557-UM","2018/11/26 19:46:20","新北市三重區中興南街80巷7號","121.471711666667","25.0435283333333","6500200","三重區"
"241019","KEA-2593","2018/11/26 19:49:32","新北市三重區自強路二段67巷15號","121.489348333333","25.0702366666667","6500200","三重區"
"241006","AAD-863","2018/11/26 19:49:28","新北市三重區力行路二段82號","121.481621666667","25.0739283333333","6500200","三重區"
"241020","743-BX","2018/11/26 19:48:25","新北市三重區後竹圍街29號","121.490906666667","25.07351","6500200","三重區"
"241012","941-UM","2018/11/26 19:49:37","新北市三重區仁興街56巷42號","121.498145","25.07546","6500200","三重區"
"241029","942-UM","2018/11/26 19:49:40","新北市三重區光明路55號","121.491666666667","25.0579533333333","6500200","三重區"
"235066","003-UY","2018/11/26 19:49:32","新北市中和區南工路36號","121.505811666667","25.00114","6500300","中和區"
"235056","096-UM","2018/11/26 19:49:29","新北市中和區中山路三段136巷10弄21號","121.47403","25.0077866666667","6500300","中和區"
"235039","097-UM","2018/11/26 19:49:34","新北市中和區大勇街27巷20號","121.516461666667","24.993815","6500300","中和區"
"235065","098-UM","2018/11/26 19:49:38","新北市中和區中山路二段178巷21號","121.500873333333","25.0031516666667","6500300","中和區"
"235058","151-BY","2018/11/26 19:49:40","新北市中和區員山路142巷20號","121.48225","24.9965216666667","6500300","中和區"
"235055","183-VK","2018/11/26 19:49:46","新北市中和區中山路三段181巷18弄37號","121.472648333333","25.0049783333333","6500300","中和區"
"235038","185-VK","2018/11/26 19:49:35","新北市中和區自立路6號","121.522448333333","24.9965383333333","6500300","中和區"
"235049","186-VK","2018/11/26 19:49:42","新北市中和區景平路431巷37號","121.500688333333","24.9943033333333","6500300","中和區"
"235067","255-BX","2018/11/26 19:49:30","新北市中和區新生街186巷1弄14號","121.483361666667","24.9990716666667","6500300","中和區"
"235044","293-VK","2018/11/26 19:49:29","新北市中和區南山路231號","121.503485","24.9931666666667","6500300","中和區"
"235072","301-VK","2018/11/26 19:49:33","新北市板橋區萬安街20巷8弄18號","121.48521","25.0234616666667","6500300","中和區"
"235043","352-BY","2018/11/26 19:49:43","新北市中和區興南路二段159巷18號","121.505191666667","24.9830283333333","6500300","中和區"
"235042","KEA-2878","2018/11/26 19:49:29","新北市中和區宜安路62號","121.51154","24.99702","6500300","中和區"
"235050","4979-A6","2018/11/26 19:49:34","新北市中和區景平路241巷84弄54號","121.506101666667","24.992365","6500300","中和區"
"235070","558-UM","2018/11/26 19:49:29","新北市中和區景平路481號","121.500305","24.9974383333333","6500300","中和區"
"235054","640-BX","2018/11/26 19:49:28","新北市中和區莒光路140號","121.472596666667","25.0011516666667","6500300","中和區"
"235060","647-TV","2018/11/26 19:49:38","新北市中和區新生街30巷1號","121.483001666667","25.00385","6500300","中和區"
"235047","732-UM","2018/11/26 19:49:36","新北市中和區捷運路52-1號","121.507773333333","24.9904716666667","6500300","中和區"
"235046","733-UM","2018/11/26 19:49:34","新北市中和區仁愛街6號","121.510626666667","24.9892183333333","6500300","中和區"
"235071","783-BX","2018/11/26 19:49:44","新北市中和區中板路7號","121.484843333333","25.0116616666667","6500300","中和區"
"235057","801-TS","2018/11/26 19:49:43","新北市中和區員山路130號","121.48113","24.9962166666667","6500300","中和區"
"235041","802-TS","2018/11/26 19:49:32","新北市中和區永貞路221號","121.513695","25.0034433333333","6500300","中和區"
"235052","805-TS","2018/11/26 19:49:41","新北市中和區華新街192巷31號","121.506273333333","24.9832866666667","6500300","中和區"
"235048","896-TW","2018/11/26 19:49:29","新北市中和區興南路一段113號","121.509151666667","24.9879416666667","6500300","中和區"
"235053","900-TW","2018/11/26 19:49:39","新北市中和區國光街189巷1號","121.467773333333","25.0010033333333","6500300","中和區"
"235051","157-BY","2018/11/26 19:49:30","新北市中和區中興街274號","121.498596666667","24.9882683333333","6500300","中和區"
"235037","AAC-213","2018/11/26 19:49:28","新北市中和區秀朗路三段173-2號","121.524488333333","24.9914816666667","6500300","中和區"
"235059","AAC-215","2018/11/26 19:49:40","新北市中和區圓通路305巷17號","121.494388333333","24.98928","6500300","中和區"
"220086","073-UY","2018/11/26 19:49:35","新北市板橋區中正路127號","121.456543333333","25.0153016666667","6500100","板橋區"
"220106","075-UY","2018/11/26 19:49:32","新北市板橋區文化路608巷50-1號","121.479578333333","25.0344566666667","6500100","板橋區"
"220069","AAD-861","2018/11/26 19:49:30","新北市板橋區貴興路60號","121.456655","25.003035","6500100","板橋區"
"220016","120-SR","2018/11/26 19:39:57","新北市板橋區新站路1號","121.467478333333","25.0109783333333","6500100","板橋區"
"247002","893-R6","2018/11/26 19:49:29","新北市蘆洲區永樂街38巷69號","121.458626666667","25.09058","6501400","蘆洲區"
"247014","339-TH","2018/11/26 19:49:29","新北市蘆洲區中央路91號","121.472663333333","25.0842183333333","6501400","蘆洲區"
"247008","336-TH","2018/11/26 19:49:33","新北市蘆洲區中山一路72號","121.478885","25.0810433333333","6501400","蘆洲區"
"247004","002-UY","2018/11/26 19:49:34","新北市蘆洲區中原路50號","121.459191666667","25.0823166666667","6501400","蘆洲區"
"226004","205-ST","2018/11/26 19:49:38","新北市平溪區靜安路三段392巷3號","121.784506666667","25.0495666666667","6502400","平溪區"
"228003","097-TW","2018/11/26 19:49:36","新北市貢寮區真理里美艷山街13-1號","121.928393333333","25.0607883333333","6502600","貢寮區"
"228001","670-TC","2018/11/26 19:49:27","新北市貢寮區真理里新港街117號","121.927023333333","25.0562266666667","6502600","貢寮區"
"227008","642-TC","2018/11/26 19:49:40","新北市雙溪區新基里中華路72號","121.865896666667","25.038245","6502500","雙溪區"
"227001","400-TW","2018/11/26 19:49:33","新北市雙溪區雙溪里內挖路47號","121.863245","25.0366816666667","6502500","雙溪區"
"222001","KEA-2212","2018/11/26 19:49:44","新北市深坑區北深路三段110號","121.606796666667","25.00161","6501800","深坑區"
"208002","KEA-2872","2018/11/26 19:49:45","新北市金山區中華路366-1號","121.633235","25.2245616666667","6502700","金山區"
"208003","665-BX","2018/11/26 19:49:26","新北市金山區清泉里清水路41巷2號","121.629668333333","25.2336533333333","6502700","金山區"
"208001","761-BX","2018/11/26 19:49:26","新北市金山區重和里林口15號","121.597793333333","25.2108333333333","6502700","金山區"
"251009","008-UM","2018/11/26 19:49:32","新北市淡水區中正路34-1號","121.44382","25.1692466666667","6501000","淡水區"
"251005","010-UM","2018/11/26 19:49:38","新北市淡水區中正東路6號","121.446901666667","25.1671766666667","6501000","淡水區"
"251001","011-UM","2018/11/26 19:49:37","新北市淡水區淡金路101號","121.456653333333","25.163395","6501000","淡水區"
"251013","KEA-2871","2018/11/26 19:49:32","新北市淡水區頂田寮18號","121.461443333333","25.2142683333333","6501000","淡水區"
"251016","179-VK","2018/11/26 19:49:38","新北市淡水區三塊厝2號","121.452185","25.2109683333333","6501000","淡水區"
"251008","181-VK","2018/11/26 19:49:34","新北市淡水區中正路一段24巷2-4號","121.426771666667","25.1770083333333","6501000","淡水區"
"251015","182-VK","2018/11/26 19:49:40","新北市淡水區商工路329號","121.464958333333","25.18582","6501000","淡水區"
"251012","441-VK","2018/11/26 19:49:32","新北市淡水區淡金路三段70巷1號","121.448316666667","25.2007466666667","6501000","淡水區"
"251006","561-UM","2018/11/26 19:49:35","新北市淡水區水碓街15號","121.443491666667","25.17696","6501000","淡水區"
"251007","577-R6","2018/11/26 19:49:38","新北市淡水區中正東路一段87-1號","121.453041666667","25.161625","6501000","淡水區"
"251011","650-BX","2018/11/26 19:49:41","新北市淡水區淡金路二段600號","121.446723333333","25.1922733333333","6501000","淡水區"
"207003","550-UM","2018/11/26 19:49:31","新北市萬里區大鵬里萬里加投68-8號","121.642548333333","25.2149483333333","6502800","萬里區"
"207004","225-TW","2018/11/26 19:49:27","新北市萬里區萬里里瑪鋉路207號","121.690425","25.1793666666667","6502800","萬里區"
"252002","178-VK","2018/11/26 19:49:42","新北市三芝區三民街20號","121.504506666667","25.2586","6502100","三芝區"
"252001","292-VK","2018/11/26 19:49:27","新北市三芝區公正街66號","121.499771666667","25.257445","6502100","三芝區"
"237004","KEA-2597","2018/11/26 19:49:39","新北市三峽區圳頭35號","121.377","24.8878716666667","6500900","三峽區"
"237007","153-BY","2018/11/26 19:49:34","新北市三峽區二鬮路136巷24弄1號","121.35608","24.90994","6500900","三峽區"
"237009","210-TH","2018/11/26 19:49:40","新北市三峽區清水街421號","121.368731666667","24.9263516666667","6500900","三峽區"
"237013","252-BX","2018/11/26 19:49:39","新北市三峽區溪北街44號","121.396936666667","24.9360366666667","6500900","三峽區"
"237012","275-BY","2018/11/26 19:49:27","新北市三峽區愛國路172-1號","121.374981666667","24.931145","6500900","三峽區"
"237008","302-VK","2018/11/26 19:49:33","新北市三峽區安溪路351號","121.370063333333","24.92608","6500900","三峽區"
"237014","433-BY","2018/11/26 19:49:44","新北市三峽區嘉添99號","121.370091666667","24.9095416666667","6500900","三峽區"
"237006","5529-G3","2018/11/26 19:49:36","新北市三峽區中正路一段336巷15弄2號","121.36993","24.9249516666667","6500900","三峽區"
"237011","KEA-2596","2018/11/26 19:49:37","新北市三峽區中正路一段524號","121.36944","24.9201166666667","6500900","三峽區"
"237015","649-BX","2018/11/26 19:49:41","新北市三峽區溪東路218巷25號","121.407153333333","24.93089","6500900","三峽區"
"237010","706-TV","2018/11/26 19:49:29","新北市三峽區復興路19號","121.374058333333","24.9362216666667","6500900","三峽區"
"237005","AKY-6261","2018/11/26 19:49:34","新北市三峽區長泰街18巷20號","121.379181666667","24.9316516666667","6500900","三峽區"
"236069","105-UM","2018/11/26 19:49:37","新北市土城區中央路二段252號","121.44165","24.9745583333333","6501300","土城區"
"236042","KED-0685","2018/11/26 19:49:42","新北市土城區金城路二段245巷17號","121.455231666667","24.9832233333333","6501300","土城區"
"236078","166-UM","2018/11/26 19:49:38","新北市土城區中央路四段466號","121.410013333333","24.9504833333333","6501300","土城區"
"236030","253-BX","2018/11/26 19:49:37","新北市土城區中央路一段294號","121.443376666667","24.9823516666667","6501300","土城區"
"236026","269-VK","2018/11/26 19:49:26","新北市土城區中央路二段61巷26號","121.443245","24.9786816666667","6501300","土城區"
"236039","271-VK","2018/11/26 19:49:37","新北市土城區國際路158巷24弄2號","121.468535","24.9758733333333","6501300","土城區"
"236020","752-BX","2018/11/26 19:49:35","新北市土城區延吉街137巷2弄24號","121.470068333333","24.9857366666667","6501300","土城區"
"236059","912-UM","2018/11/26 19:49:26","新北市土城區中央路一段148號","121.446146666667","24.9873916666667","6501300","土城區"
"236048","913-UM","2018/11/26 19:49:46","新北市土城區青雲路216號","121.459028333333","24.9815183333333","6501300","土城區"
"236063","915-UM","2018/11/26 19:49:42","新北市土城區金城路三段149巷4弄14號","121.468546666667","24.989165","6501300","土城區"
"236055","970-R7","2018/11/26 19:49:41","新北市土城區延和路106號","121.466931666667","24.9898333333333","6501300","土城區"
"242056","751-BX","2018/11/26 19:49:26","新北市新莊區新泰路87號","121.448743333333","25.0344483333333","6500500","新莊區"
"242029","612-BX","2018/11/26 19:49:36","新北市新莊區中平路359號","121.444695","25.0517983333333","6500500","新莊區"
"242036","442-UM","2018/11/26 19:49:27","新北市新莊區民安路207巷32弄4號","121.428238333333","25.0241066666667","6500500","新莊區"
"242002","440-UM","2018/11/26 19:49:31","新北市新莊區新泰路21號","121.449666666667","25.0326783333333","6500500","新莊區"
"242039","415-TV","2018/11/26 19:49:39","新北市新莊區民安路299巷55弄1號","121.429398333333","25.0238483333333","6500500","新莊區"
"242023","362-BY","2018/11/26 19:49:42","新北市新莊區化成路260號","121.465696666667","25.0475033333333","6500500","新莊區"
"242034","135-UY","2018/11/26 19:49:37","新北市新莊區建中街90巷5弄19號","121.445695","25.0372566666667","6500500","新莊區"
"242013","173-VK","2018/11/26 19:49:41","新北市新莊區中誠街71號","121.450628333333","25.0478266666667","6500500","新莊區"
"242019","175-VK","2018/11/26 19:49:35","新北市新莊區明智街11號","121.454473333333","25.0413466666667","6500500","新莊區"
"242007","176-VK","2018/11/26 19:49:38","新北市新莊區思源路593巷6弄18號","121.458726666667","25.0599516666667","6500500","新莊區"
"242017","346-TH","2018/11/26 19:49:40","新北市新莊區復興路一段212號","121.452743333333","25.0437666666667","6500500","新莊區"
"242031","348-TH","2018/11/26 19:49:36","新北市新莊區忠孝街24號","121.443923333333","25.035415","6500500","新莊區"
"242004","349-TH","2018/11/26 19:49:42","新北市新莊區化成路63巷24弄49號","121.461873333333","25.045955","6500500","新莊區"
"242021","350-TH","2018/11/26 19:49:43","新北市新莊區中正路252號","121.447983333333","25.0352266666667","6500500","新莊區"
"242015","351-TH","2018/11/26 19:49:36","新北市新莊區中港一街142號","121.446691666667","25.0448533333333","6500500","新莊區"
"238015","755-BX","2018/11/26 19:49:37","新北市樹林區中山路一段94號","121.42301","24.99134","6500700","樹林區"
"238023","601-UM","2018/11/26 19:49:45","新北市樹林區中正路153-1號","121.424398333333","25.001815","6500700","樹林區"
"238019","599-UM","2018/11/26 19:49:35","新北市樹林區中山路三段22號","121.395643333333","24.97289","6500700","樹林區"
"238021","KEA-2539","2018/11/26 19:49:41","新北市樹林區佳園路三段101巷86-1號","121.39542","24.9497566666667","6500700","樹林區"
"238017","283-BY","2018/11/26 19:49:44","新北市樹林區保安街二段37-1號","121.416216666667","25.0001316666667","6500700","樹林區"
"238014","282-BY","2018/11/26 19:49:38","新北市樹林區千歲街70巷1弄1號","121.426491666667","24.9973233333333","6500700","樹林區"
"238026","172-UY","2018/11/26 19:49:44","新北市樹林區佳園路二段15巷9弄8號","121.394286666667","24.9634166666667","6500700","樹林區"
"239006","891-R6","2018/11/26 19:49:30","新北市鶯歌區文化路267號","121.353286666667","24.9530166666667","6500800","鶯歌區"
"221008","489-VK","2018/11/26 19:49:41","新北市汐止區康寧街83巷43號","121.6204","25.0673016666667","6501100","汐止區"
"221036","130-UY","2018/11/26 19:49:36","新北市汐止區大同路二段341-1號","121.65615","25.06717","6501100","汐止區"
"221015","131-UY","2018/11/26 19:49:37","新北市汐止區忠孝東路432號","121.666143333333","25.0722366666667","6501100","汐止區"
"221010","269-BY","2018/11/26 19:49:30","新北市汐止區汐萬路一段333巷1號","121.649863333333","25.076115","6501100","汐止區"
"221012","278-VK","2018/11/26 19:49:31","新北市汐止區大同路三段579號","121.682861666667","25.0733166666667","6501100","汐止區"
"221023","279-VK","2018/11/26 19:49:30","新北市汐止區民族六街10巷2號","121.63017","25.0694366666667","6501100","汐止區"
"221032","280-BY","2018/11/26 19:49:29","新北市汐止區橫科路403巷13號","121.62488","25.0476116666667","6501100","汐止區"
"221027","281-BY","2018/11/26 19:49:32","新北市汐止區中正路7號","121.663065","25.0701133333333","6501100","汐止區"
"221029","298-VK","2018/11/26 19:49:26","新北市汐止區康寧街901號","121.651318333333","25.07494","6501100","汐止區"
"221021","299-VK","2018/11/26 19:49:37","新北市汐止區新興路83-6號","121.657935","25.0616433333333","6501100","汐止區"
"221031","353-TW","2018/11/26 19:49:39","新北市汐止區福德二路52號","121.633986666667","25.067275","6501100","汐止區"
"221035","622-UM","2018/11/26 19:49:27","新北市汐止區長江街13巷6弄3號","121.654791666667","25.071715","6501100","汐止區"
"221025","623-UM","2018/11/26 19:49:34","新北市汐止區秀峰路81巷15弄13號","121.660971666667","25.0648133333333","6501100","汐止區"
"221038","646-BX","2018/11/26 19:49:40","新北市汐止區忠孝東路399號","121.665796666667","25.0709183333333","6501100","汐止區"
"221033","647-BX","2018/11/26 19:49:39","新北市汐止區東勢街76巷51弄6號","121.63403","25.038765","6501100","汐止區"
"221002","707-TV","2018/11/26 19:49:43","新北市汐止區大同路一段219巷27號","121.633228333333","25.0583733333333","6501100","汐止區"
"221018","753-BX","2018/11/26 19:49:35","新北市汐止區大同路二段527號","121.661756666667","25.0690066666667","6501100","汐止區"
"220079","145-BY","2018/11/26 19:49:42","新北市板橋區中正路171號","121.456388333333","25.01652","6500100","板橋區"
"220080","200-UY","2018/11/26 19:49:41","新北市板橋區大觀路二段37巷42號","121.448755","25.0026333333333","6500100","板橋區"
"220082","610-BX","2018/11/26 19:49:45","新北市板橋區溪北路85號","121.428396666667","24.9894066666667","6500100","板橋區"
"220101","245-BX","2018/11/26 19:49:36","新北市板橋區縣民大道三段93巷28號","121.474811666667","25.0224933333333","6500100","板橋區"
"224002","257-TC","2018/11/26 19:49:31","新北市瑞芳區三爪子坑路303-2號","121.81805","25.1060466666667","6501200","瑞芳區"
"220056","276-BY","2018/11/26 19:49:32","新北市板橋區四川路二段99巷2弄2-3號","121.452701666667","24.994435","6500100","板橋區"
"220072","277-BY","2018/11/26 19:49:44","新北市板橋區金門街127巷8號","121.433278333333","24.9912566666667","6500100","板橋區"
"220064","282-UM","2018/11/26 19:49:33","新北市板橋區實踐路106號","121.464193333333","25.0046133333333","6500100","板橋區"
"220071","283-VK","2018/11/26 19:49:42","新北市板橋區五權街30巷37弄5號","121.46347","24.9925616666667","6500100","板橋區"
"220094","285-UM","2018/11/26 19:49:27","新北市板橋區民生路三段307號","121.463645","25.0308933333333","6500100","板橋區"
"220053","285-VK","2018/11/26 19:49:33","新北市板橋區中山路二段60巷7號","121.474251666667","25.0153633333333","6500100","板橋區"
"220083","286-VK","2018/11/26 19:49:36","新北市板橋區龍興街63巷28號","121.442451666667","25.0016116666667","6500100","板橋區"
"220081","287-VK","2018/11/26 19:49:46","新北市板橋區大觀路一段29巷131弄10號","121.450611666667","25.00515","6500100","板橋區"
"220090","288-VK","2018/11/26 19:49:31","新北市板橋區龍泉街54巷7弄14號","121.456553333333","25.02649","6500100","板橋區"
"220061","295-UM","2018/11/26 19:49:37","新北市板橋區板新路200巷2號","121.469163333333","25.016065","6500100","板橋區"
"220084","296-UM","2018/11/26 19:49:43","新北市板橋區滿平街2巷4號","121.425886666667","24.990035","6500100","板橋區"
"220075","303-R5","2018/11/26 19:49:32","新北市板橋區金華街10巷28號","121.456493333333","25.0201033333333","6500100","板橋區"
"220062","305-R5","2018/11/26 19:49:39","新北市板橋區光復街33巷13弄3號","121.481955","25.01926","6500100","板橋區"
"220092","307-R5","2018/11/26 19:49:46","新北市板橋區四維路259巷22號","121.462333333333","25.02773","6500100","板橋區"
"220098","317-R6","2018/11/26 19:49:39","新北市板橋區四維路269巷77號","121.460225","25.0268816666667","6500100","板橋區"
"220089","487-VK","2018/11/26 19:49:41","新北市板橋區龍泉街82巷11-4號","121.455848333333","25.0255083333333","6500100","板橋區"
"220035","560-BX","2018/11/26 19:49:29","新北市板橋區金華街12號","121.455821666667","25.0203233333333","6500100","板橋區"
"220103","561-BX","2018/11/26 19:49:42","新北市板橋區陽明街29巷29號","121.463966666667","25.022495","6500100","板橋區"
"220065","568-UM","2018/11/26 19:49:40","新北市中和區中山路三段229巷35號","121.469526666667","25.0058216666667","6500100","板橋區"
"220063","609-BX","2018/11/26 19:49:44","新北市板橋區三民路一段78號","121.479478333333","25.0218766666667","6500100","板橋區"
"220091","637-BX","2018/11/26 19:49:44","新北市板橋區懷德街191巷26弄2-3號","121.480626666667","25.0296133333333","6500100","板橋區"
"220057","686-BX","2018/11/26 19:49:32","新北市板橋區廣權路6號","121.46044","24.9910583333333","6500100","板橋區"
"220077","687-BX","2018/11/26 19:49:38","新北市板橋區僑中一街102巷1弄16號","121.445943333333","25.01219","6500100","板橋區"
"220093","689-BX","2018/11/26 19:49:34","新北市板橋區長江路二段295號","121.470528333333","25.0331716666667","6500100","板橋區"
"220054","741-BX","2018/11/26 19:49:43","新北市板橋區實踐路93巷38號","121.465548333333","25.0050566666667","6500100","板橋區"
"220102","KEA-2699","2018/11/26 19:49:40","新北市板橋區松柏街31-2號","121.475188333333","25.0302666666667","6500100","板橋區"
"220055","827-TW","2018/11/26 19:49:14","新北市板橋區國慶路149巷29弄15號","121.460206666667","24.9975616666667","6500100","板橋區"
"220067","829-TW","2018/11/26 19:49:43","新北市板橋區長安街138巷1弄29號","121.473773333333","25.01004","6500100","板橋區"
"220068","830-TW","2018/11/26 19:49:41","新北市板橋區中山路二段412巷16-1號","121.483386666667","25.0202616666667","6500100","板橋區"
"220096","831-TW","2018/11/26 19:49:40","新北市板橋區文化路二段124巷34弄8號","121.47108","25.025385","6500100","板橋區"
"220088","833-TW","2018/11/26 19:49:29","新北市板橋區仁化街103號","121.476573333333","25.0322466666667","6500100","板橋區"
"220074","895-R6","2018/11/26 19:49:28","新北市板橋區大東街151巷9號","121.456436666667","25.0080166666667","6500100","板橋區"
"220073","985-R7","2018/11/26 19:49:44","新北市板橋區大仁街104號","121.453248333333","25.0160166666667","6500100","板橋區"
"220097","AAC-210","2018/11/26 19:49:35","新北市板橋區文化路一段285巷2弄12號","121.464603333333","25.0193516666667","6500100","板橋區"
"220070","AAC-253","2018/11/26 19:49:34","新北市板橋區新民街2號","121.464386666667","25.0090283333333","6500100","板橋區"
"235068","KEA-2873","2018/11/26 19:49:22","新北市中和區永和路1-3號","121.499788333333","25.003135","6500300","中和區"
"235061","KEA-2875","2018/11/26 19:49:40","新北市中和區員山路220號","121.481263333333","25.0009816666667","6500300","中和區"
"235064","KEA-2876","2018/11/26 19:49:18","新北市中和區南山路81巷61-1號","121.504198333333","24.99783","6500300","中和區"
