"lineid","car","time","location","longitude","latitude","cityid","cityname"
"234081","298-R6","2018/11/26 20:39:40","新北市永和區永貞路84號","121.520166666667","25.0049316666667","6500400","永和區"
"234030","746-BX","2018/11/26 20:39:27","新北市中和區中正路216-1號","121.496688333333","24.9938316666667","6500400","永和區"
"234061","AAD-866","2018/11/26 20:39:36","新北市永和區秀朗路一段175號","121.517036666667","25.0036516666667","6500400","永和區"
"234086","748-BX","2018/11/26 20:39:38","新北市永和區光復街21號","121.51652","25.017415","6500400","永和區"
"234050","863-TW","2018/11/26 20:39:29","新北市永和區保安路138號","121.508648333333","25.0151933333333","6500400","永和區"
"234023","9372-KE","2018/11/26 20:39:45","新北市永和區竹林路23號","121.5172","25.014695","6500400","永和區"
"249001","173-UM","2018/11/26 20:39:44","新北市八里區中山路三段335號","121.37739","25.1387666666667","6502300","八里區"
"249004","303-UY","2018/11/26 20:39:42","新北市八里區中山路一段157巷17號","121.413078333333","25.15831","6502300","八里區"
"249002","305-UY","2018/11/26 20:39:42","新北市八里區大崁腳48-51號","121.425101666667","25.1593416666667","6502300","八里區"
"249003","593-UM","2018/11/26 20:39:30","新北市八里區中山路三段335號","121.37653","25.1400216666667","6502300","八里區"
"234074","AAC-211","2018/11/26 20:39:33","新北市永和區竹林路121號","121.520238333333","25.01142","6500400","永和區"
"244019","410-SL","2018/11/26 20:33:47","新北市林口區粉寮69號","121.405061666667","25.0907866666667","6501700","林口區"
"243009","297-R6","2018/11/26 20:39:37","新北市泰山區泰林路二段536號","121.423505","25.06379","6501600","泰山區"
"243011","KEA-2215","2018/11/26 20:39:29","新北市泰山區公園路70號","121.42487","25.0563683333333","6501600","泰山區"
"222003","436-BY","2018/11/26 20:39:33","新北市深坑區深坑街156號","121.612898333333","25.0012083333333","6501800","深坑區"
"222002","659-BX","2018/11/26 20:39:34","新北市深坑區萬福路45號","121.599483333333","25.0068516666667","6501800","深坑區"
"231041","002-UM","2018/11/26 20:39:45","新北市新店區中正路698號","121.53407","24.9906216666667","6500600","新店區"
"231059","046-UY","2018/11/26 20:39:41","新北市新店區僑信路132巷32號","121.500016666667","24.9454716666667","6500600","新店區"
"231040","047-UY","2018/11/26 20:39:36","新北市新店區中正路263號","121.538685","24.973645","6500600","新店區"
"231044","106-UY","2018/11/26 20:39:38","新北市新店區建國路257號","121.537393333333","24.983135","6500600","新店區"
"231052","108-UY","2018/11/26 20:39:31","新北市新店區新烏路二段178號","121.548228333333","24.91802","6500600","新店區"
"231047","187-VK","2018/11/26 20:39:35","新北市新店區寶慶街2號","121.544248333333","24.9868166666667","6500600","新店區"
"231054","KEA-2219","2018/11/26 20:39:43","新北市新店區北新路一段64巷39弄4號","121.542526666667","24.9657833333333","6500600","新店區"
"231057","256-BX","2018/11/26 20:39:43","新北市新店區花園六路二段9-2號","121.555668333333","24.9329166666667","6500600","新店區"
"231042","268-BY","2018/11/26 20:39:30","新北市新店區寶橋路238號","121.551585","24.9790633333333","6500600","新店區"
"231050","AAD-862","2018/11/26 20:39:39","新北市新店區中正路247巷4弄10號","121.538498333333","24.973375","6500600","新店區"
"231058","3713-VJ","2018/11/26 20:39:36","新北市新店區平等街48巷12號","121.53562","24.9733733333333","6500600","新店區"
"231066","4716-K9","2018/11/26 20:39:31","新北市新店區安興路105-1號","121.514685","24.9777","6500600","新店區"
"231056","4715-K9","2018/11/26 20:39:27","新北市新店區中央七街61巷2號","121.528185","24.9764183333333","6500600","新店區"
"231067","4772-VM","2018/11/26 20:39:28","新北市新店區安華路28-1號","121.519523333333","24.9607966666667","6500600","新店區"
"231065","512-UM","2018/11/26 20:39:43","新北市新店區安祥路102巷42弄1號","121.484391666667","24.9642383333333","6500600","新店區"
"231049","513-UM","2018/11/26 20:39:43","新北市新店區永業路81巷5弄30號","121.530998333333","24.9497416666667","6500600","新店區"
"231051","515-UM","2018/11/26 20:39:34","新北市新店區中央七街21號","121.529866666667","24.9751566666667","6500600","新店區"
"231063","616-UM","2018/11/26 20:39:48","新北市新店區玫瑰路4-2號","121.493936666667","24.9512533333333","6500600","新店區"
"231045","617-UM","2018/11/26 20:39:29","新北市新店區長春路100號","121.552025","24.95963","6500600","新店區"
"231061","619-UM","2018/11/26 20:39:38","新北市新店區新和街33號","121.519218333333","24.9848783333333","6500600","新店區"
"231068","718-UY","2018/11/26 20:39:26","新北市新店區寶元路一段85巷10號","121.543111666667","24.98603","6500600","新店區"
"231064","719-UM","2018/11/26 20:39:28","新北市新店區安和路三段167號","121.516043333333","24.98593","6500600","新店區"
"231062","720-UM","2018/11/26 20:39:39","新北市新店區安泰路60巷67號","121.484111666667","24.9449616666667","6500600","新店區"
"231060","897-TW","2018/11/26 20:39:39","新北市新店區安康路三段740號","121.47381","24.9420083333333","6500600","新店區"
"231043","899-TW","2018/11/26 20:39:41","新北市新店區博愛街13巷24號","121.540201666667","24.9739933333333","6500600","新店區"
"241011","013-R5","2018/11/26 20:39:28","新北市三重區龍濱路190號","121.501135","25.0732766666667","6500200","三重區"
"241028","022-UY","2018/11/26 20:39:47","新北市三重區光興街95號","121.497273333333","25.0599283333333","6500200","三重區"
"241008","059-VK","2018/11/26 20:39:29","新北市三重區下竹圍街42-1號","121.480943333333","25.0748683333333","6500200","三重區"
"241022","060-VK","2018/11/26 20:39:40","新北市三重區過圳街27-5號","121.487958333333","25.06237","6500200","三重區"
"241031","061-VK","2018/11/26 20:39:38","新北市三重區重陽路一段43巷30號","121.4882","25.0585716666667","6500200","三重區"
"241015","062-VK","2018/11/26 20:39:30","新北市三重區文化北路103號","121.497921666667","25.0684066666667","6500200","三重區"
"241017","063-VK","2018/11/26 20:39:36","新北市三重區大同北路261號","121.49096","25.0671983333333","6500200","三重區"
"241024","065-VK","2018/11/26 20:39:37","新北市三重區忠孝路三段28號","121.481371666667","25.0669183333333","6500200","三重區"
"241026","066-VK","2018/11/26 20:39:41","新北市三重區文化南路3號","121.50004","25.0623883333333","6500200","三重區"
"241002","090-VK","2018/11/26 20:39:34","新北市三重區仁義街167巷40號","121.498836666667","25.08258","6500200","三重區"
"241003","091-VK","2018/11/26 20:39:43","新北市三重區五華街141巷58號","121.493603333333","25.08679","6500200","三重區"
"251014","742-BX","2018/11/26 20:39:41","新北市淡水區公埔子36-1號","121.46253","25.232245","6501000","淡水區"
"241005","262-UM","2018/11/26 20:39:31","新北市三重區碧華街329號","121.491581666667","25.0846033333333","6500200","三重區"
"241016","265-UM","2018/11/26 20:39:39","新北市三重區長壽西街143-3號","121.494326666667","25.0665883333333","6500200","三重區"
"241018","268-UM","2018/11/26 20:39:37","新北市三重區自強路一段179號","121.492305","25.0678283333333","6500200","三重區"
"241013","270-UM","2018/11/26 20:39:44","新北市三重區三和路四段91號","121.488751666667","25.0756066666667","6500200","三重區"
"241025","271-UM","2018/11/26 20:39:31","新北市三重區忠孝路三段93巷8號","121.479091666667","25.0648466666667","6500200","三重區"
"241007","398-BY","2018/11/26 20:39:33","新北市三重區三和路四段95-7號","121.487753333333","25.0761016666667","6500200","三重區"
"241035","462-BY","2018/11/26 20:39:36","新北市三重區正義北路358號","121.493981666667","25.0712683333333","6500200","三重區"
"241004","475-VK","2018/11/26 20:39:24","新北市三重區仁愛街418號","121.490445","25.0814233333333","6500200","三重區"
"241030","480-VK","2018/11/26 20:39:29","新北市三重區成功路73巷20號","121.489435","25.05199","6500200","三重區"
"241014","543-UM","2018/11/26 20:39:39","新北市三重區介壽路3-1號","121.498998333333","25.0690016666667","6500200","三重區"
"241023","545-UM","2018/11/26 20:39:45","新北市三重區自由街35巷2號","121.47898","25.0668666666667","6500200","三重區"
"241001","547-UM","2018/11/26 20:39:36","新北市三重區三和路四段160巷87號","121.485435","25.0748983333333","6500200","三重區"
"241033","557-UM","2018/11/26 20:39:40","新北市三重區神農街378號","121.474025","25.0558816666667","6500200","三重區"
"241019","KEA-2593","2018/11/26 20:39:32","新北市三重區忠孝路一段30巷58號","121.490571666667","25.0712","6500200","三重區"
"241006","AAD-863","2018/11/26 20:39:30","新北市三重區車路頭街139巷14號","121.484326666667","25.0761516666667","6500200","三重區"
"241020","743-BX","2018/11/26 20:38:25","新北市三重區忠孝路一段50號","121.490623333333","25.071995","6500200","三重區"
"241012","941-UM","2018/11/26 20:39:37","新北市三重區秀江街31號","121.50202","25.0728966666667","6500200","三重區"
"241029","942-UM","2018/11/26 20:39:41","新北市三重區集美街126巷42號","121.490711666667","25.0540216666667","6500200","三重區"
"247012","KEA-2869","2018/11/26 20:39:29","新北市蘆洲區集賢路224巷64弄6號","121.480893333333","25.0888016666667","6501400","蘆洲區"
"235069","4980-A6","2018/11/26 20:39:40","新北市中和區中正路432巷12號","121.491148333333","24.9950766666667","6500300","中和區"
"235026","800-TS","2018/11/26 20:15:26","新北市中和區員山路36巷16-3號","121.485078333333","24.99151","6500300","中和區"
"247002","893-R6","2018/11/26 20:39:29","新北市蘆洲區環堤大道142號","121.45565","25.08844","6501400","蘆洲區"
"247016","546-UM","2018/11/26 20:39:30","新北市蘆洲區中山二路288號","121.468916666667","25.0776433333333","6501400","蘆洲區"
"247024","500-BY","2018/11/26 20:39:31","新北市蘆洲區光復路59號","121.463561666667","25.085345","6501400","蘆洲區"
"247014","339-TH","2018/11/26 20:39:29","新北市蘆洲區中山一路247號","121.473226666667","25.0804033333333","6501400","蘆洲區"
"247006","337-TH","2018/11/26 20:39:40","新北市蘆洲區和平路136-1號","121.467078333333","25.0807533333333","6501400","蘆洲區"
"247008","336-TH","2018/11/26 20:39:33","新北市蘆洲區集賢路281號","121.481188333333","25.0828966666667","6501400","蘆洲區"
"247020","057-VK","2018/11/26 20:39:42","新北市蘆洲區民族路424-1號","121.473815","25.09189","6501400","蘆洲區"
"247004","002-UY","2018/11/26 20:39:34","新北市蘆洲區長安街297號","121.45808","25.0848883333333","6501400","蘆洲區"
"247022","001-UY","2018/11/26 20:39:34","新北市蘆洲區中正路263巷9號","121.46682","25.08674","6501400","蘆洲區"
"222001","KEA-2212","2018/11/26 20:39:36","新北市深坑區北深路三段234號","121.600635","25.0041166666667","6501800","深坑區"
"251001","011-UM","2018/11/26 20:39:37","新北市淡水區淡金路218號","121.460498333333","25.1671833333333","6501000","淡水區"
"251013","KEA-2871","2018/11/26 20:39:32","新北市淡水區番子厝16號","121.460061666667","25.2061233333333","6501000","淡水區"
"251016","179-VK","2018/11/26 20:39:38","新北市淡水區後洲子8-2號","121.449586666667","25.2240466666667","6501000","淡水區"
"251015","182-VK","2018/11/26 20:39:39","新北市淡水區淡金路四段542巷17號","121.452703333333","25.2270733333333","6501000","淡水區"
"251010","413-VK","2018/11/26 20:39:33","新北市淡水區沙崙路181巷15號","121.423991666667","25.1843283333333","6501000","淡水區"
"251012","441-VK","2018/11/26 20:39:33","新北市淡水區興仁路101巷8號","121.450875","25.2179766666667","6501000","淡水區"
"251006","561-UM","2018/11/26 20:39:35","新北市淡水區商工路143號","121.447311666667","25.1882783333333","6501000","淡水區"
"251002","672-BX","2018/11/26 20:39:35","新北市淡水區中正路36號","121.443793333333","25.1692483333333","6501000","淡水區"
"251003","766-UM","2018/11/26 20:39:33","新北市淡水區新民街120巷17號","121.438233333333","25.1780266666667","6501000","淡水區"
"252002","178-VK","2018/11/26 20:39:42","新北市三芝區淡金路二段47-2號","121.503695","25.2605933333333","6502100","三芝區"
"252001","292-VK","2018/11/26 20:39:47","新北市三芝區育英街29-1號","121.501318333333","25.2574","6502100","三芝區"
"236042","KED-0685","2018/11/26 20:39:42","新北市樹林區中山路三段210-2號","121.381266666667","24.9656933333333","6501300","土城區"
"242058","986-R7","2018/11/26 20:39:43","新北市新莊區四維路129-1號","121.4229","25.0226016666667","6500500","新莊區"
"242056","751-BX","2018/11/26 20:39:45","新北市新莊區新莊路751巷80號","121.44275","25.0308116666667","6500500","新莊區"
"242025","705-TV","2018/11/26 20:39:26","新北市五股區中興路三段1-7號","121.452003333333","25.0756666666667","6500500","新莊區"
"242027","615-BX","2018/11/26 20:39:30","新北市新莊區思源路46-1號","121.460113333333","25.0437633333333","6500500","新莊區"
"242029","612-BX","2018/11/26 20:39:35","新北市新莊區中華路二段26-1號","121.453525","25.0451083333333","6500500","新莊區"
"242044","566-BX","2018/11/26 20:39:42","新北市新莊區龍安路47號","121.415273333333","25.0218383333333","6500500","新莊區"
"242036","442-UM","2018/11/26 20:39:47","新北市新莊區建安街16號","121.42866","25.0264383333333","6500500","新莊區"
"242053","441-UM","2018/11/26 20:39:41","新北市新莊區西盛街324巷11號","121.427348333333","25.0147316666667","6500500","新莊區"
"242002","440-UM","2018/11/26 20:39:41","新北市新莊區中港路22號","121.45509","25.03721","6500500","新莊區"
"242039","415-TV","2018/11/26 20:39:39","新北市新莊區新樹路166號","121.43478","25.0224966666667","6500500","新莊區"
"242009","413-TV","2018/11/26 20:39:41","新北市新莊區幸福路64巷3弄2號","121.457073333333","25.0500333333333","6500500","新莊區"
"242046","400-BY","2018/11/26 20:39:36","新北市新莊區龍安路80號","121.417611666667","25.02095","6500500","新莊區"
"242023","362-BY","2018/11/26 20:39:42","新北市新莊區復興路三段44號","121.461548333333","25.04452","6500500","新莊區"
"242060","353-BY","2018/11/26 20:39:40","新北市新莊區新樹路258巷3號","121.432078333333","25.0155633333333","6500500","新莊區"
"242011","132-UY","2018/11/26 20:39:25","新北市新莊區中榮街102號","121.447265","25.0529166666667","6500500","新莊區"
"242034","135-UY","2018/11/26 20:39:37","新北市新莊區中正路417號","121.444688333333","25.0344216666667","6500500","新莊區"
"242050","172-VK","2018/11/26 20:39:44","新北市新莊區民安西路146號","121.426126666667","25.016635","6500500","新莊區"
"242013","173-VK","2018/11/26 20:39:41","新北市新莊區中和街191巷1-1號","121.447763333333","25.0511283333333","6500500","新莊區"
"242019","175-VK","2018/11/26 20:39:34","新北市新莊區中港路五守新村1巷5號","121.455325","25.0381816666667","6500500","新莊區"
"242017","346-TH","2018/11/26 20:39:40","新北市新莊區中和街61號","121.44742","25.04693","6500500","新莊區"
"242031","348-TH","2018/11/26 20:39:38","新北市新莊區三泰路58號","121.43377","25.037635","6500500","新莊區"
"242004","349-TH","2018/11/26 20:39:36","新北市三重區新北大道二段121號","121.466488333333","25.0613083333333","6500500","新莊區"
"242021","350-TH","2018/11/26 20:39:43","新北市新莊區中華路一段6號","121.452026666667","25.036525","6500500","新莊區"
"242015","351-TH","2018/11/26 20:39:35","新北市新莊區中港一街153號","121.447588333333","25.0449966666667","6500500","新莊區"
"221008","489-VK","2018/11/26 20:39:42","新北市汐止區康寧街521號","121.633335","25.068725","6501100","汐止區"
"221036","130-UY","2018/11/26 20:39:36","新北市汐止區新昌路17號","121.661861666667","25.06749","6501100","汐止區"
"221015","131-UY","2018/11/26 20:39:36","新北市汐止區建成路21號","121.664308333333","25.072605","6501100","汐止區"
"221010","269-BY","2018/11/26 20:39:30","新北市汐止區汐萬路二段1號","121.648998333333","25.0798283333333","6501100","汐止區"
"221023","279-VK","2018/11/26 20:39:30","新北市汐止區湖東街60號","121.634536666667","25.0728116666667","6501100","汐止區"
"221032","280-BY","2018/11/26 20:39:29","新北市汐止區弘道街53巷30弄6號","121.619291666667","25.0500633333333","6501100","汐止區"
"221027","281-BY","2018/11/26 20:39:46","新北市汐止區大同路二段563-1號","121.662861666667","25.06991","6501100","汐止區"
"221029","298-VK","2018/11/26 20:39:26","新北市汐止區新台五路一段79號","121.645468333333","25.0616833333333","6501100","汐止區"
"221021","299-VK","2018/11/26 20:39:37","新北市汐止區水源路一段282巷1號","121.654086666667","25.0582216666667","6501100","汐止區"
"221035","622-UM","2018/11/26 20:39:27","新北市汐止區長江街101-5號","121.658711666667","25.0732","6501100","汐止區"
"221025","623-UM","2018/11/26 20:39:34","新北市汐止區水源路二段185號","121.657811666667","25.0535283333333","6501100","汐止區"
"221033","647-BX","2018/11/26 20:39:34","新北市汐止區合順街18巷8弄5號","121.620363333333","25.0419416666667","6501100","汐止區"
"221002","707-TV","2018/11/26 20:39:43","新北市汐止區福德二路138號","121.630728333333","25.0653733333333","6501100","汐止區"
"221018","753-BX","2018/11/26 20:39:35","新北市汐止區茄苳路70號","121.666675","25.070635","6501100","汐止區"
"220083","286-VK","2018/11/26 20:39:36","新北市板橋區僑中二街108巷18號","121.44507","25.0074816666667","6500100","板橋區"
"242042","281-VK","2018/11/26 20:39:39","新北市新莊區天祥街47巷29號","121.416131666667","25.027865","6500500","新莊區"
"220103","561-BX","2018/11/26 20:39:41","新北市板橋區漢生東路63巷1號","121.465846666667","25.0163533333333","6500100","板橋區"
"220070","AAC-253","2018/11/26 20:38:14","新北市五股區中直路21號","121.42065","25.112215","6500100","板橋區"
