"lineid","car","time","location","longitude","latitude","cityid","cityname"
"234030","746-BX","2018/11/26 20:49:27","新北市新莊區五工一路92號","121.461008333333","25.0680216666667","6500400","永和區"
"234074","AAC-211","2018/11/26 20:49:33","新北市永和區環河東路二段20號","121.522281666667","25.0130916666667","6500400","永和區"
"244019","410-SL","2018/11/26 20:33:47","新北市林口區粉寮69號","121.405061666667","25.0907866666667","6501700","林口區"
"222003","436-BY","2018/11/26 20:49:33","新北市深坑區文山路三段48-1號","121.609918333333","24.9985333333333","6501800","深坑區"
"222002","659-BX","2018/11/26 20:49:34","新北市深坑區北深路三段93巷45號","121.6045","25.00044","6501800","深坑區"
"231059","046-UY","2018/11/26 20:49:48","新北市新店區僑愛二路1號","121.499833333333","24.94515","6500600","新店區"
"231040","047-UY","2018/11/26 20:49:36","新北市新店區中正路272號","121.538945","24.973655","6500600","新店區"
"231044","106-UY","2018/11/26 20:49:38","新北市新店區中正路428號","121.534221666667","24.978045","6500600","新店區"
"231052","108-UY","2018/11/26 20:49:31","新北市新店區新烏路一段58-2號","121.546058333333","24.9461716666667","6500600","新店區"
"231047","187-VK","2018/11/26 20:49:35","新北市新店區寶元路二段1巷1號","121.550753333333","24.98405","6500600","新店區"
"231054","KEA-2219","2018/11/26 20:49:43","新北市新店區北新路一段96巷23號","121.54293","24.9686966666667","6500600","新店區"
"231057","256-BX","2018/11/26 20:49:43","新北市新店區新烏路一段58-2號","121.54594","24.947275","6500600","新店區"
"231042","268-BY","2018/11/26 20:49:30","新北市新店區寶高路120巷1號","121.554565","24.97603","6500600","新店區"
"231050","AAD-862","2018/11/26 20:49:39","新北市新店區三民路117巷1弄2號","121.534671666667","24.9718616666667","6500600","新店區"
"231058","3713-VJ","2018/11/26 20:49:36","新北市新店區平等街58號","121.535851666667","24.9725566666667","6500600","新店區"
"231066","4716-K9","2018/11/26 20:49:31","新北市新店區安興路112號","121.51468","24.9776416666667","6500600","新店區"
"231056","4715-K9","2018/11/26 20:49:27","新北市新店區安德街148巷31號","121.505783333333","24.96037","6500600","新店區"
"231067","4772-VM","2018/11/26 20:49:28","新北市新店區安民街2號","121.515383333333","24.9637283333333","6500600","新店區"
"231065","512-UM","2018/11/26 20:49:43","新北市新店區安祥路69巷19號","121.481908333333","24.9613116666667","6500600","新店區"
"231049","513-UM","2018/11/26 20:49:43","新北市新店區安康路一段61號","121.530623333333","24.960795","6500600","新店區"
"231051","515-UM","2018/11/26 20:49:34","新北市新店區溪園路283號","121.525765","24.9800683333333","6500600","新店區"
"231063","616-UM","2018/11/26 20:49:28","新北市新店區如意街15號","121.494826666667","24.9481483333333","6500600","新店區"
"231045","617-UM","2018/11/26 20:49:29","新北市新店區北新路一段2號","121.540795","24.9651433333333","6500600","新店區"
"231061","619-UM","2018/11/26 20:49:38","新北市新店區新和街93巷2號","121.521136666667","24.9864983333333","6500600","新店區"
"231068","718-UY","2018/11/26 20:49:26","新北市新店區中興路三段220巷19號","121.544928333333","24.9832733333333","6500600","新店區"
"231064","719-UM","2018/11/26 20:49:43","新北市新店區安民街379巷20號","121.515845","24.97615","6500600","新店區"
"231062","720-UM","2018/11/26 20:49:39","新北市新店區和成街14巷2號","121.487898333333","24.9475933333333","6500600","新店區"
"231060","897-TW","2018/11/26 20:49:39","新北市新店區安康路三段620號","121.47972","24.9467016666667","6500600","新店區"
"231043","899-TW","2018/11/26 20:49:41","新北市新店區建國路94號","121.540131666667","24.9775533333333","6500600","新店區"
"241011","013-R5","2018/11/26 20:49:30","新北市三重區龍濱路205巷18號","121.502928333333","25.0719516666667","6500200","三重區"
"241028","022-UY","2018/11/26 20:49:27","新北市三重區中正南路50號","121.493966666667","25.0599033333333","6500200","三重區"
"241008","059-VK","2018/11/26 20:49:29","新北市三重區永福街72巷11號","121.47941","25.0768133333333","6500200","三重區"
"241022","060-VK","2018/11/26 20:49:40","新北市三重區中正北路20巷12號","121.488008333333","25.0624916666667","6500200","三重區"
"241031","061-VK","2018/11/26 20:49:38","新北市三重區重陽路一段113巷3號","121.487513333333","25.0598133333333","6500200","三重區"
"241015","062-VK","2018/11/26 20:49:30","新北市三重區自強路一段8號","121.498905","25.0682616666667","6500200","三重區"
"241017","063-VK","2018/11/26 20:49:36","新北市三重區民生街12號","121.492115","25.06757","6500200","三重區"
"241024","065-VK","2018/11/26 20:49:17","新北市三重區中正北路350號","121.477663333333","25.0694066666667","6500200","三重區"
"241026","066-VK","2018/11/26 20:49:41","新北市三重區文化南路7號","121.500023333333","25.0623766666667","6500200","三重區"
"241002","090-VK","2018/11/26 20:49:35","新北市三重區仁義街159巷1號","121.497366666667","25.0811266666667","6500200","三重區"
"241003","091-VK","2018/11/26 20:49:43","新北市三重區五華街141巷58號","121.493595","25.086795","6500200","三重區"
"251014","742-BX","2018/11/26 20:49:41","新北市淡水區公埔子32-8號","121.461645","25.2323616666667","6501000","淡水區"
"241005","262-UM","2018/11/26 20:49:45","新北市三重區進安街196號","121.493663333333","25.08619","6500200","三重區"
"241016","265-UM","2018/11/26 20:49:38","新北市三重區正義北路202號","121.496176666667","25.0672066666667","6500200","三重區"
"241018","268-UM","2018/11/26 20:49:37","新北市三重區正義北路319號","121.49406","25.0713266666667","6500200","三重區"
"241013","270-UM","2018/11/26 20:49:44","新北市三重區仁賢街12-1號","121.495675","25.0748933333333","6500200","三重區"
"241025","271-UM","2018/11/26 20:49:31","新北市三重區貴陽街14號","121.484211666667","25.061835","6500200","三重區"
"241007","398-BY","2018/11/26 20:49:33","新北市三重區慈愛街6號","121.484371666667","25.078375","6500200","三重區"
"241004","475-VK","2018/11/26 20:49:44","新北市三重區分子尾街19號","121.489588333333","25.0810333333333","6500200","三重區"
"241030","480-VK","2018/11/26 20:49:29","新北市三重區環河南路221巷10號","121.49192","25.0522783333333","6500200","三重區"
"241014","543-UM","2018/11/26 20:49:39","新北市三重區安和路105號","121.500843333333","25.0700983333333","6500200","三重區"
"241023","545-UM","2018/11/26 20:49:45","新北市三重區忠孝路三段84巷1號","121.480246666667","25.064545","6500200","三重區"
"241001","547-UM","2018/11/26 20:49:47","新北市三重區自強路三段76巷18號","121.485871666667","25.0741216666667","6500200","三重區"
"241033","557-UM","2018/11/26 20:49:40","新北市三重區光復路二段1號","121.472208333333","25.0533166666667","6500200","三重區"
"241019","KEA-2593","2018/11/26 20:49:32","新北市三重區大智街139號","121.490771666667","25.0709333333333","6500200","三重區"
"241006","AAD-863","2018/11/26 20:49:30","新北市三重區車路頭街139巷14號","121.48432","25.0761616666667","6500200","三重區"
"241020","743-BX","2018/11/26 20:38:25","新北市三重區忠孝路一段50號","121.490623333333","25.071995","6500200","三重區"
"241012","941-UM","2018/11/26 20:49:37","新北市三重區仁信街29號","121.501251666667","25.07553","6500200","三重區"
"241029","942-UM","2018/11/26 20:49:40","新北市三重區重安街14號","121.490306666667","25.0581966666667","6500200","三重區"
"247012","KEA-2869","2018/11/26 20:49:29","新北市蘆洲區復興路340巷20-1號","121.483088333333","25.089415","6501400","蘆洲區"
"235069","4980-A6","2018/11/26 20:49:40","新北市中和區新生街194號","121.483736666667","24.99944","6500300","中和區"
"247002","893-R6","2018/11/26 20:49:38","新北市蘆洲區長安街240號","121.457726666667","25.0856933333333","6501400","蘆洲區"
"247016","546-UM","2018/11/26 20:49:29","新北市蘆洲區中正路71號","121.470463333333","25.082755","6501400","蘆洲區"
"247024","500-BY","2018/11/26 20:49:31","新北市蘆洲區長樂路136號","121.462148333333","25.09011","6501400","蘆洲區"
"247014","339-TH","2018/11/26 20:49:29","新北市蘆洲區三民路95號","121.473928333333","25.084875","6501400","蘆洲區"
"247006","337-TH","2018/11/26 20:49:45","新北市蘆洲區永安南路二段50-1號","121.465895","25.077695","6501400","蘆洲區"
"247008","336-TH","2018/11/26 20:49:33","新北市三重區仁愛街743號","121.481321666667","25.0806666666667","6501400","蘆洲區"
"247020","057-VK","2018/11/26 20:49:42","新北市蘆洲區仁愛街60號","121.471555","25.093815","6501400","蘆洲區"
"247010","056-VK","2018/11/26 20:49:39","新北市蘆洲區鷺江街76號","121.476896666667","25.0839066666667","6501400","蘆洲區"
"247004","002-UY","2018/11/26 20:49:33","新北市蘆洲區長安街100號","121.461553333333","25.080985","6501400","蘆洲區"
"247022","001-UY","2018/11/26 20:49:34","新北市蘆洲區水湳街36-8號","121.471315","25.08981","6501400","蘆洲區"
"222001","KEA-2212","2018/11/26 20:49:36","新北市深坑區北深路三段133號","121.604013333333","25.0025066666667","6501800","深坑區"
"251001","011-UM","2018/11/26 20:49:37","新北市淡水區淡金路218號","121.460501666667","25.167175","6501000","淡水區"
"251013","KEA-2871","2018/11/26 20:49:32","新北市淡水區番子厝12號","121.460138333333","25.2018883333333","6501000","淡水區"
"251016","179-VK","2018/11/26 20:49:38","新北市淡水區興仁路160號","121.451516666667","25.22042","6501000","淡水區"
"251015","182-VK","2018/11/26 20:49:39","新北市淡水區淡金路四段542巷17號","121.452726666667","25.2270883333333","6501000","淡水區"
"251010","413-VK","2018/11/26 20:49:33","新北市淡水區沙崙路134號","121.423743333333","25.1825333333333","6501000","淡水區"
"251012","441-VK","2018/11/26 20:49:32","新北市淡水區淡金路四段514號","121.452048333333","25.2258316666667","6501000","淡水區"
"251011","650-BX","2018/11/26 20:49:42","新北市淡水區新民街一段13-1號","121.433106666667","25.18463","6501000","淡水區"
"251002","672-BX","2018/11/26 20:49:35","新北市淡水區中正東路6號","121.447006666667","25.1670283333333","6501000","淡水區"
"251003","766-UM","2018/11/26 20:49:33","新北市淡水區新興街41號","121.442166666667","25.17962","6501000","淡水區"
"236042","KED-0685","2018/11/26 20:49:42","新北市樹林區環河路600-1號","121.404625","24.96742","6501300","土城區"
"242056","751-BX","2018/11/26 20:49:29","新北市新莊區瓊泰路94巷18號","121.443945","25.0294283333333","6500500","新莊區"
"242029","612-BX","2018/11/26 20:47:09","新北市新莊區化成路45號","121.465106666667","25.0446933333333","6500500","新莊區"
"242044","566-BX","2018/11/26 20:49:42","新北市新莊區龍安路108號","121.418475","25.02049","6500500","新莊區"
"242036","442-UM","2018/11/26 20:49:47","新北市新莊區中正路517-2號","121.439743333333","25.0335066666667","6500500","新莊區"
"242053","441-UM","2018/11/26 20:49:25","新北市新莊區新樹路268巷23號","121.429915","25.0155533333333","6500500","新莊區"
"242002","440-UM","2018/11/26 20:49:31","新北市新莊區中港路五守新村1巷7號","121.45535","25.0381416666667","6500500","新莊區"
"242009","413-TV","2018/11/26 20:49:33","新北市新莊區思源路59號","121.459913333333","25.0403483333333","6500500","新莊區"
"242046","400-BY","2018/11/26 20:49:36","新北市新莊區龍安路108號","121.418366666667","25.0204283333333","6500500","新莊區"
"242023","362-BY","2018/11/26 20:49:42","新北市三重區光復路二段178-1號","121.471911666667","25.0624266666667","6500500","新莊區"
"242060","353-BY","2018/11/26 20:49:40","新北市新莊區新樹路133號","121.43685","25.0256966666667","6500500","新莊區"
"242011","132-UY","2018/11/26 20:49:45","新北市新莊區中榮街89號","121.445208333333","25.0528416666667","6500500","新莊區"
"242050","172-VK","2018/11/26 20:49:24","新北市新莊區民安東路61號","121.429935","25.0208266666667","6500500","新莊區"
"242031","348-TH","2018/11/26 20:49:36","新北市新莊區中正路535-11號","121.437523333333","25.033015","6500500","新莊區"
"242004","349-TH","2018/11/26 20:48:55","新北市五股區中直路31號","121.419873333333","25.11252","6500500","新莊區"
"221036","130-UY","2018/11/26 20:49:42","新北市汐止區忠孝東路258巷11弄11號","121.664253333333","25.0678533333333","6501100","汐止區"
"221015","131-UY","2018/11/26 20:49:37","新北市汐止區大同路二段599號","121.663896666667","25.070555","6501100","汐止區"
"221027","281-BY","2018/11/26 20:49:46","新北市汐止區汐萬路一段81號","121.65472","25.0700266666667","6501100","汐止區"
"221029","298-VK","2018/11/26 20:49:26","新北市汐止區樟樹二路344-1號","121.641611666667","25.070755","6501100","汐止區"
"221035","622-UM","2018/11/26 20:49:27","新北市汐止區康寧街901號","121.65085","25.0752616666667","6501100","汐止區"
"221033","647-BX","2018/11/26 20:49:34","新北市汐止區合順街18巷8弄5號","121.620356666667","25.0419383333333","6501100","汐止區"
"221002","707-TV","2018/11/26 20:49:43","新北市汐止區中興路141號","121.631415","25.06545","6501100","汐止區"
"221018","753-BX","2018/11/26 20:49:34","新北市汐止區大同路二段609號","121.664151666667","25.0707","6501100","汐止區"
"242042","281-VK","2018/11/26 20:49:39","新北市新莊區天祥街1巷1號","121.417125","25.0270783333333","6500500","新莊區"
"220070","AAC-253","2018/11/26 20:49:34","新北市林口區汕頭32號","121.366556666667","25.1350266666667","6500100","板橋區"
