"lineid","car","time","location","longitude","latitude","cityid","cityname"
"231047","187-VK","2018/11/26 21:29:35","新北市新店區薏仁坑路6號","121.50048","24.958","6500600","新店區"
"231063","616-UM","2018/11/26 21:29:48","新北市新店區富貴街20巷17號","121.493193333333","24.9477266666667","6500600","新店區"
"241024","065-VK","2018/11/26 21:29:37","新北市三重區中正北路145巷8弄2號","121.484096666667","25.0677616666667","6500200","三重區"
"241026","066-VK","2018/11/26 21:29:41","新北市三重區新北大道一段7號","121.48962","25.0612466666667","6500200","三重區"
"241003","091-VK","2018/11/26 21:29:43","新北市三重區集賢路87-1號","121.493606666667","25.0868233333333","6500200","三重區"
"251014","742-BX","2018/11/26 21:29:41","新北市淡水區溪口1-2號","121.447691666667","25.2396816666667","6501000","淡水區"
"241005","262-UM","2018/11/26 21:29:31","新北市三重區仁華街77號","121.485636666667","25.0829716666667","6500200","三重區"
"241016","265-UM","2018/11/26 21:29:38","新北市三重區自強路一段95號","121.495863333333","25.0663783333333","6500200","三重區"
"241007","398-BY","2018/11/26 21:29:33","新北市三重區正義北路124號","121.496833333333","25.0655266666667","6500200","三重區"
"247012","KEA-2869","2018/11/26 21:29:29","新北市蘆洲區中正路520巷15號","121.464493333333","25.099655","6501400","蘆洲區"
"220016","120-SR","2018/11/26 21:29:44","新北市板橋區新站路1號","121.467321666667","25.0112516666667","6500100","板橋區"
"247002","893-R6","2018/11/26 21:29:48","新北市五股區中直路17-4號","121.422186666667","25.1115433333333","6501400","蘆洲區"
"247008","336-TH","2018/11/26 21:29:33","新北市五股區中興路二段182巷15弄13號","121.457006666667","25.08177","6501400","蘆洲區"
"251009","008-UM","2018/11/26 21:29:32","新北市淡水區民族路33巷16-3號","121.463416666667","25.1359966666667","6501000","淡水區"
"251005","010-UM","2018/11/26 21:29:38","新北市淡水區水源街一段34巷9號","121.44324","25.17181","6501000","淡水區"
"251001","011-UM","2018/11/26 21:29:37","新北市淡水區新市二路三段18號","121.432718333333","25.1937133333333","6501000","淡水區"
"251013","KEA-2871","2018/11/26 21:29:35","新北市淡水區埤島50-1號","121.459816666667","25.1982883333333","6501000","淡水區"
"251016","179-VK","2018/11/26 21:29:38","新北市淡水區前洲子20號","121.440965","25.2194416666667","6501000","淡水區"
"251008","181-VK","2018/11/26 21:29:47","新北市淡水區水源街二段150號","121.454321666667","25.1750483333333","6501000","淡水區"
"251010","413-VK","2018/11/26 21:29:33","新北市淡水區沙崙路25巷21號","121.420531666667","25.1825283333333","6501000","淡水區"
"251012","441-VK","2018/11/26 21:29:32","新北市淡水區淡金路五段33號","121.45366","25.2332083333333","6501000","淡水區"
"251004","443-VK","2018/11/26 21:29:27","新北市淡水區民權路119號","121.460191666667","25.136995","6501000","淡水區"
"251011","650-BX","2018/11/26 21:29:41","新北市淡水區新民街180-6號","121.436705","25.17883","6501000","淡水區"
"251003","766-UM","2018/11/26 21:29:33","新北市淡水區崁頂15-5號","121.438996666667","25.1859216666667","6501000","淡水區"
"242031","348-TH","2018/11/26 21:29:36","新北市林口區太平里180號","121.368103333333","25.13401","6500500","新莊區"
"220070","AAC-253","2018/11/26 21:29:34","新北市五股區新五路二段279號","121.442878333333","25.0861316666667","6500100","板橋區"
