"lineid","car","time","location","longitude","latitude","cityid","cityname"
"247012","KEA-2869","2018/11/26 22:19:29","新北市林口區太平里180號","121.368366666667","25.1343283333333","6501400","蘆洲區"
"220016","120-SR","2018/11/26 22:10:59","新北市板橋區民族路219巷75號","121.468673333333","25.0091866666667","6500100","板橋區"
"251008","181-VK","2018/11/26 22:19:47","新北市淡水區學府路104號","121.449851666667","25.1717866666667","6501000","淡水區"
"251010","413-VK","2018/11/26 22:19:33","新北市淡水區沙崙路200號","121.424691666667","25.18391","6501000","淡水區"
"251004","443-VK","2018/11/26 22:19:47","新北市淡水區民族路33號","121.462266666667","25.1358166666667","6501000","淡水區"
"251007","577-R6","2018/11/26 22:19:38","新北市淡水區北新路135號","121.449341666667","25.178885","6501000","淡水區"
"251011","650-BX","2018/11/26 22:19:41","新北市淡水區水碓街7號","121.443196666667","25.1771333333333","6501000","淡水區"
