"lineid","car","time","location","longitude","latitude","cityid","cityname"
"232002","290-BY","2018/11/27 07:29:49","新北市坪林區下坑子口15-1號","121.717323333333","24.9482266666667","6502000","坪林區"
"244002","248-BX","2018/11/27 07:29:49","新北市林口區頂福里71-81-1號","121.353513333333","25.0810966666667","6501700","林口區"
"222004","289-BY","2018/11/27 07:29:46","新北市深坑區文化街39巷13號","121.619021666667","25.0011033333333","6501800","深坑區"
"235001","611-BX","2018/11/27 07:29:32","新北市中和區圓通路367巷6號","121.491443333333","24.989215","6500300","中和區"
"226005","5620-A6","2018/11/27 07:29:33","新北市平溪區靜安路二段149號","121.722688333333","25.0232883333333","6502400","平溪區"
"226002","7418-A5","2018/11/27 07:19:21","新北市平溪區望古里灰4-2號","121.76363","25.0290383333333","6502400","平溪區"
"226006","AGD-0702","2018/11/27 07:29:29","新北市平溪區嶺腳里嶺腳寮85號","121.74877","25.0352766666667","6502400","平溪區"
"223006","022-BY","2018/11/27 07:29:38","新北市石碇區石碇東街12號","121.661768333333","24.9907983333333","6501900","石碇區"
"223002","KEA-2673","2018/11/27 07:29:35","新北市石碇區北宜路六段獅子頭坑巷16號","121.642258333333","24.9322233333333","6501900","石碇區"
"223003","205-TH","2018/11/27 07:20:54","新北市石碇區蓬菜寮17號","121.64919","24.9720766666667","6501900","石碇區"
"223004","437-BY","2018/11/27 07:29:31","新北市石碇區八分寮47號","121.642465","25.0140033333333","6501900","石碇區"
"223001","592-UM","2018/11/27 07:29:49","新北市石碇區內楒仔腳4-1號","121.642485","24.9705183333333","6501900","石碇區"
"223007","661-BX","2018/11/27 07:29:48","新北市石碇區靜安路一段352號","121.698661666667","25.0170216666667","6501900","石碇區"
"223005","677-TV","2018/11/27 07:29:42","新北市石碇區八分寮47號","121.642308333333","25.0139483333333","6501900","石碇區"
"227006","282-VK","2018/11/27 07:29:33","新北市雙溪區新基里自強路5號","121.866321666667","25.0390116666667","6502500","雙溪區"
"252004","249-BX","2018/11/27 07:29:44","新北市三芝區錫板里棟板頭32號","121.504081666667","25.2252133333333","6502100","三芝區"
"252007","AAC-283","2018/11/27 07:29:33","新北市三芝區埔頭里埔頭30號","121.495416666667","25.2624483333333","6502100","三芝區"
"237001","159-UY","2018/11/27 07:29:44","新北市三峽區隆恩街245號","121.357671666667","24.9408966666667","6500900","三峽區"
