"lineid","car","time","location","longitude","latitude","cityid","cityname"
"244005","248-BX","2018/09/08 08:49:28","新北市八里區中山路三段409號","121.368563333333","25.1343833333333","6501700","林口區"
"222004","289-BY","2018/09/08 08:49:36","新北市深坑區王軍寮1號","121.619408333333","24.9874583333333","6501800","深坑區"
"231007","189-VK","2018/09/08 08:45:01","新北市新店區新潭路三段236號","121.501683333333","24.902505","6500600","新店區"
"231008","192-VK","2018/09/08 08:49:35","新北市新店區新烏路三段350號","121.546035","24.89484","6500600","新店區"
"235001","611-BX","2018/09/08 08:49:50","新北市中和區國光街112巷22弄15號","121.470238333333","25.00238","6500300","中和區"
"247012","335-TH","2018/09/08 08:49:44","新北市蘆洲區長安街267巷9弄1號","121.458008333333","25.0835316666667","6501400","蘆洲區"
"226005","5620-A6","2018/09/08 08:49:46","新北市平溪區靜安路三段355號","121.779713333333","25.04479","6502400","平溪區"
"226007","7418-A5","2018/09/08 08:49:44","新北市平溪區東勢里芊蓁坑30號","121.727528333333","24.979225","6502400","平溪區"
"226003","AGD-0702","2018/09/08 08:49:32","新北市平溪區南山里南山坪15號","121.76757","25.03334","6502400","平溪區"
"223006","022-BY","2018/09/08 08:47:34","新北市石碇區八分寮47-1號","121.643241666667","25.01369","6501900","石碇區"
"223003","205-TH","2018/09/08 08:49:47","新北市石碇區北宜路六段水底寮巷1號","121.65841","24.9472866666667","6501900","石碇區"
"223008","406-TH","2018/09/08 08:49:43","新北市石碇區光明路13號","121.680018333333","25.0335766666667","6501900","石碇區"
"223001","592-UM","2018/09/08 08:49:37","新北市石碇區北宜路六段水底寮巷1號","121.658475","24.9471533333333","6501900","石碇區"
"223004","660-BX","2018/09/08 08:49:44","新北市石碇區崩山53號","121.682418333333","24.9688733333333","6501900","石碇區"
"223005","677-TV","2018/09/08 08:46:39","新北市石碇區崩山53號","121.682386666667","24.9688933333333","6501900","石碇區"
"227006","030-BX","2018/09/08 08:49:45","新北市雙溪區上林里內平林126號","121.823378333333","25.0274766666667","6502500","雙溪區"
"252004","249-BX","2018/09/08 08:49:34","新北市三芝區興華里田心子18號","121.494118333333","25.2034383333333","6502100","三芝區"
"252007","AAC-283","2018/09/08 08:49:36","新北市三芝區錫板里番婆林44號","121.49354","25.2371116666667","6502100","三芝區"
"237001","159-UY","2018/09/08 08:49:34","新北市三峽區學勤路97號","121.374635","24.94616","6500900","三峽區"
"236011","165-UM","2018/09/08 08:49:47","新北市土城區忠義路46號","121.440461666667","24.9693616666667","6501300","土城區"
"236002","339-SR","2018/09/08 08:49:44","新北市土城區金城路一段16號","121.439421666667","24.9689183333333","6501300","土城區"
"236006","498-BY","2018/09/08 08:49:46","新北市土城區承天路4巷10-3號","121.437673333333","24.9596583333333","6501300","土城區"
