"lineid","car","time","location","longitude","latitude","cityid","cityname"
"244005","248-BX","2018/09/08 09:29:08","新北市林口區東林里4鄰64號","121.404606666667","25.0903933333333","6501700","林口區"
"222004","289-BY","2018/09/08 09:29:01","新北市深坑區大崙腳2-3號","121.615358333333","24.9945716666667","6501800","深坑區"
"231007","189-VK","2018/09/08 09:29:01","新北市新店區新潭路三段215巷25號","121.508153333333","24.90402","6500600","新店區"
"231008","192-VK","2018/09/08 09:29:15","新北市新店區平廣路一段185號","121.517901666667","24.8894933333333","6500600","新店區"
"235001","611-BX","2018/09/08 09:29:10","新北市中和區員山路126號","121.481143333333","24.9960283333333","6500300","中和區"
"247012","335-TH","2018/09/08 09:29:05","新北市蘆洲區永安南路二段108-2號","121.462685","25.078435","6501400","蘆洲區"
"226003","AGD-0702","2018/09/08 09:29:11","新北市平溪區石底里公園街15號","121.737648333333","25.02504","6502400","平溪區"
"223006","022-BY","2018/09/08 09:29:14","新北市深坑區北深路一段83巷10弄9號","121.635246666667","25.0083866666667","6501900","石碇區"
"223003","205-TH","2018/09/08 09:29:02","新北市石碇區內楒仔腳1-3號","121.632058333333","24.9681583333333","6501900","石碇區"
"227006","030-BX","2018/09/08 09:16:45","新北市雙溪區長源里柑腳55號","121.793988333333","25.0073983333333","6502500","雙溪區"
"252004","249-BX","2018/09/08 09:29:14","新北市三芝區店子里龜子山23號","121.508123333333","25.213265","6502100","三芝區"
"252007","AAC-283","2018/09/08 09:29:16","新北市三芝區古庄里山豬堀13-1號","121.493311666667","25.25654","6502100","三芝區"
"237001","159-UY","2018/09/08 09:29:14","新北市三峽區學成路468號","121.377465","24.9440983333333","6500900","三峽區"
"236006","498-BY","2018/09/08 09:29:15","新北市土城區忠承路23號","121.441238333333","24.9674416666667","6501300","土城區"
