"lineid","car","time","location","longitude","latitude","cityid","cityname"
"231007","189-VK","2018/09/08 11:29:21","新北市新店區華潭街31號","121.529683333333","24.9552583333333","6500600","新店區"
"231008","192-VK","2018/09/08 11:29:15","新北市新店區頂石厝路72號","121.535428333333","24.9185433333333","6500600","新店區"
"247012","335-TH","2018/09/08 11:29:04","新北市五股區中興路三段163號","121.44728","25.08002","6501400","蘆洲區"
"227006","030-BX","2018/09/08 11:29:05","新北市雙溪區魚行里魚杭1號","121.883888333333","25.0266166666667","6502500","雙溪區"
"237001","159-UY","2018/09/08 11:29:13","新北市三峽區中山路459巷163-3號","121.349168333333","24.9334033333333","6500900","三峽區"
