"lineid","car","time","location","longitude","latitude","cityid","cityname"
"234044","148-BY","2018/09/08 13:49:37","新北市永和區永利路175號","121.525575","25.0034166666667","6500400","永和區"
"234005","207-UY","2018/09/08 13:49:53","新北市永和區中和路625號","121.513","25.004975","6500400","永和區"
"234078","298-R6","2018/09/08 13:49:39","新北市永和區永亨路127號","121.524496666667","25.0042566666667","6500400","永和區"
"234036","336-UY","2018/09/08 13:49:51","新北市永和區四維街32巷3號","121.526315","24.9981883333333","6500400","永和區"
"234062","337-UY","2018/09/08 13:49:50","新北市永和區中正路368巷24號","121.518683333333","25.0007133333333","6500400","永和區"
"234084","338-UY","2018/09/08 13:49:49","新北市永和區中正路471號","121.51706","25.0061433333333","6500400","永和區"
"234068","552-UM","2018/09/08 13:49:40","新北市永和區竹林路88號","121.519473333333","25.0125216666667","6500400","永和區"
"234015","745-BX","2018/09/08 13:49:42","新北市永和區文化路62號","121.514431666667","25.0151016666667","6500400","永和區"
"234028","746-BX","2018/09/08 13:49:47","新北市永和區民生路49號","121.522891666667","24.9978283333333","6500400","永和區"
"234052","KEA-2590","2018/09/08 13:49:48","新北市永和區竹林路39巷28弄21號","121.519991666667","25.0144883333333","6500400","永和區"
"234012","KEA-2591","2018/09/08 13:49:43","新北市永和區永平路296號","121.50744","25.0121933333333","6500400","永和區"
"234060","AAD-866","2018/09/08 13:49:47","新北市永和區中正路283巷2號","121.51735","25.0011483333333","6500400","永和區"
"234040","862-TW","2018/09/08 13:49:47","新北市永和區中和路389巷10號","121.508128333333","25.00097","6500400","永和區"
"234048","863-TW","2018/09/08 13:49:51","新北市永和區保安路73號","121.508748333333","25.0149266666667","6500400","永和區"
"234010","9373-KE","2018/09/08 13:49:46","新北市永和區仁愛路307號","121.503603333333","25.0079833333333","6500400","永和區"
"248017","225-UY","2018/09/08 13:49:43","新北市五股區民義路二段22巷30-1號","121.423901666667","25.0993816666667","6501500","五股區"
"234022","9380-KE","2018/09/08 13:49:56","新北市永和區永和路二段105號","121.514988333333","25.01189","6500400","永和區"
"234076","969-R7","2018/09/08 13:49:49","新北市永和區民族街40號","121.518498333333","24.9989566666667","6500400","永和區"
"234072","AAC-211","2018/09/08 13:49:37","新北市永和區豫溪街189巷1號","121.522563333333","25.010265","6500400","永和區"
"234066","AAC-212","2018/09/08 13:49:47","新北市永和區保平路236巷34號","121.50772","25.0069116666667","6500400","永和區"
"234001","AAC-295","2018/09/08 13:49:44","新北市永和區永和路一段118號","121.513953333333","25.0078566666667","6500400","永和區"
"231005","001-UM","2018/09/08 13:49:52","新北市新店區寶中路99號","121.548866666667","24.9802683333333","6500600","新店區"
"231002","002-UM","2018/09/08 13:49:46","新北市新店區溪園路249號","121.524075","24.982245","6500600","新店區"
"231027","0291-UT","2018/09/08 13:49:42","新北市新店區北宜路一段59號","121.538416666667","24.956665","6500600","新店區"
"231028","046-UY","2018/09/08 13:49:36","新北市新店區安和路二段179號","121.518493333333","24.9747116666667","6500600","新店區"
"231001","047-UY","2018/09/08 13:49:50","新北市新店區三民路62號","121.535171666667","24.9721833333333","6500600","新店區"
"231010","107-UY","2018/09/08 13:49:49","新北市新店區三民路60巷18號","121.53576","24.972915","6500600","新店區"
"231020","108-UY","2018/09/08 13:49:51","新北市新店區永興路132-3號","121.544791666667","24.9316433333333","6500600","新店區"
"231035","110-UY","2018/09/08 13:49:49","新北市新店區安忠路57巷11弄1號","121.513611666667","24.958125","6500600","新店區"
"231012","187-VK","2018/09/08 13:49:48","新北市新店區德正街27巷29弄123號","121.545751666667","24.9729416666667","6500600","新店區"
"231023","KEA-2219","2018/09/08 13:49:38","新北市新店區新店後街120號","121.537828333333","24.955575","6500600","新店區"
"231026","256-BX","2018/09/08 13:49:47","新北市新店區福園街3-1號","121.533561666667","24.9729816666667","6500600","新店區"
"231003","268-BY","2018/09/08 13:49:48","新北市新店區大新街9巷28號","121.544343333333","24.966735","6500600","新店區"
"231018","278-BY","2018/09/08 13:49:41","新北市新店區中正路382巷25號","121.535658333333","24.978435","6500600","新店區"
"231017","AAD-862","2018/09/08 13:49:51","新北市新店區北宜路二段82巷3號","121.553588333333","24.9530816666667","6500600","新店區"
"231038","3712-VJ","2018/09/08 13:49:38","新北市新店區安華路1-1號","121.51918","24.9605233333333","6500600","新店區"
"231037","4716-K9","2018/09/08 13:49:42","新北市新店區安康路三段359巷10弄2號","121.484256666667","24.95046","6500600","新店區"
"231025","4715-K9","2018/09/08 13:49:52","新北市新店區中正路273號","121.537608333333","24.9741783333333","6500600","新店區"
"231036","512-UM","2018/09/08 13:49:38","新北市新店區安祥路145巷42號","121.475703333333","24.956945","6500600","新店區"
"231013","513-UM","2018/09/08 13:49:56","新北市新店區二十張路25巷18弄16號","121.539235","24.9815616666667","6500600","新店區"
"231006","617-UM","2018/09/08 13:49:49","新北市新店區北宜路一段260號","121.545771666667","24.9528033333333","6500600","新店區"
"231030","619-UM","2018/09/08 13:49:51","新北市新店區安康路一段83-1號","121.529603333333","24.9613583333333","6500600","新店區"
"231034","641-BX","2018/09/08 13:49:50","新北市新店區達觀路16號","121.50342","24.9402833333333","6500600","新店區"
"231033","720-UM","2018/09/08 13:49:42","新北市新店區莒光路44巷21弄11-3號","121.518473333333","24.952185","6500600","新店區"
"231029","897-TW","2018/09/08 13:49:53","新北市新店區安康路二段136號","121.512445","24.9619983333333","6500600","新店區"
"231004","899-TW","2018/09/08 13:49:46","新北市新店區寶橋路69-1號","121.545568333333","24.9750516666667","6500600","新店區"
"231024","AKT-0513","2018/09/08 13:49:50","新北市新店區北新路一段271巷43-1號","121.539353333333","24.9670183333333","6500600","新店區"
"235030","003-UY","2018/09/08 13:49:50","新北市中和區中山路二段131巷33號","121.503873333333","25.002835","6500300","中和區"
"235027","006-UY","2018/09/08 13:49:42","新北市中和區連城路319巷3弄11號","121.489606666667","24.9957366666667","6500300","中和區"
"235020","096-UM","2018/09/08 13:49:54","新北市中和區中正路1192號","121.480558333333","25.01048","6500300","中和區"
"235003","097-UM","2018/09/08 13:49:46","新北市中和區立人街8-4號","121.519586666667","24.9942383333333","6500300","中和區"
"235029","098-UM","2018/09/08 13:49:39","新北市中和區中山路二段2巷31號","121.503053333333","25.00692","6500300","中和區"
"235004","150-BY","2018/09/08 13:49:52","新北市中和區保健路48巷2號","121.509923333333","24.996965","6500300","中和區"
"235022","151-BY","2018/09/08 13:49:44","新北市中和區連城路525-8號","121.480888333333","24.9949333333333","6500300","中和區"
"235019","183-VK","2018/09/08 13:49:45","新北市中和區民生街85巷5弄2號","121.469305","25.004015","6500300","中和區"
"235002","185-VK","2018/09/08 13:49:56","新北市中和區大勇街41號","121.517665","24.994535","6500300","中和區"
"235013","186-VK","2018/09/08 13:49:33","新北市中和區景安路161號","121.505268333333","24.9946733333333","6500300","中和區"
"235031","255-BX","2018/09/08 13:49:50","新北市中和區新生街242巷1弄5號","121.48339","24.9975966666667","6500300","中和區"
"235008","293-VK","2018/09/08 13:49:43","新北市中和區中興街141號","121.499988333333","24.99129","6500300","中和區"
"235036","301-VK","2018/09/08 13:49:46","新北市中和區永和路6號","121.499938333333","25.0029466666667","6500300","中和區"
"235007","352-BY","2018/09/08 13:49:47","新北市中和區成功路139號","121.526046666667","24.99038","6500300","中和區"
"235006","KEA-2878","2018/09/08 13:49:38","新北市中和區秀朗路三段70巷32號","121.525703333333","24.9945116666667","6500300","中和區"
"235014","4979-A6","2018/09/08 13:49:35","新北市中和區忠孝街62巷7弄13號","121.512398333333","24.9837083333333","6500300","中和區"
"235033","4980-A6","2018/09/08 13:49:43","新北市中和區南山路52巷26號","121.501221666667","24.9972933333333","6500300","中和區"
"235028","551-UM","2018/09/08 13:49:38","新北市中和區泰和街23號","121.499408333333","25.00015","6500300","中和區"
"235034","558-UM","2018/09/08 13:49:38","新北市中和區中和路164號","121.50428","24.999735","6500300","中和區"
"235009","565-BX","2018/09/08 13:49:55","新北市中和區捷運路8號","121.509838333333","24.9895066666667","6500300","中和區"
"235018","640-BX","2018/09/08 13:49:47","新北市中和區莒光路129巷2弄7號","121.473088333333","25.0016716666667","6500300","中和區"
"235011","732-UM","2018/09/08 13:49:35","新北市中和區興南路二段34巷56弄2號","121.504886666667","24.9853266666667","6500300","中和區"
"235010","733-UM","2018/09/08 13:49:40","新北市中和區仁愛街36巷43號","121.511236666667","24.9867333333333","6500300","中和區"
"235035","783-BX","2018/09/08 13:49:48","新北市中和區建一路99號","121.487971666667","25.0017066666667","6500300","中和區"
"235026","800-TS","2018/09/08 13:49:44","新北市中和區景平路705號","121.496328333333","25.00355","6500300","中和區"
"235021","801-TS","2018/09/08 13:49:37","新北市中和區民利街30號","121.479881666667","24.9991216666667","6500300","中和區"
"235005","802-TS","2018/09/08 13:49:46","新北市中和區永貞路280號","121.51317","25.0040183333333","6500300","中和區"
"235016","805-TS","2018/09/08 13:49:40","新北市中和區興南路二段399巷1號","121.498701666667","24.9797683333333","6500300","中和區"
"235012","896-TW","2018/09/08 13:49:39","新北市中和區南山路351號","121.505861666667","24.990795","6500300","中和區"
"235017","900-TW","2018/09/08 13:49:52","新北市中和區華福街44號","121.466433333333","24.9965033333333","6500300","中和區"
"235024","911-UM","2018/09/08 13:49:49","新北市中和區中山路二段638號","121.481111666667","25.0059133333333","6500300","中和區"
"235015","157-BY","2018/09/08 13:49:37","新北市中和區華新街109巷1弄1號","121.508765","24.982725","6500300","中和區"
"235001","AAC-213","2018/09/08 13:49:40","新北市中和區自立路141巷29號","121.524003333333","24.99389","6500300","中和區"
"235023","AAC-215","2018/09/08 13:49:39","新北市中和區圓通路393巷2號","121.489576666667","24.98896","6500300","中和區"
"220013","072-UY","2018/09/08 13:49:36","新北市板橋區漢生東路280號","121.47108","25.0093233333333","6500100","板橋區"
"220034","073-UY","2018/09/08 13:49:47","新北市板橋區大智街64號","121.454091666667","25.015475","6500100","板橋區"
"220105","075-UY","2018/09/08 13:49:55","新北市板橋區民生路二段120號","121.47035","25.0197283333333","6500100","板橋區"
"220017","AAD-861","2018/09/08 13:49:36","新北市板橋區華東街296號","121.452791666667","25.0023433333333","6500100","板橋區"
"247005","337-TH","2018/09/08 13:49:33","新北市蘆洲區和平路77號","121.469338333333","25.0790433333333","6501400","蘆洲區"
"247007","336-TH","2018/09/08 13:49:36","新北市三重區三和路四段420號","121.480705","25.0801216666667","6501400","蘆洲區"
"247019","057-VK","2018/09/08 13:49:38","新北市蘆洲區民族路422巷48弄24號","121.47469","25.093175","6501400","蘆洲區"
"247009","056-VK","2018/09/08 13:49:52","新北市蘆洲區復興路323巷158-1號","121.480176666667","25.0958666666667","6501400","蘆洲區"
"247003","002-UY","2018/09/08 13:49:40","新北市蘆洲區中原路51號","121.459285","25.0822066666667","6501400","蘆洲區"
"228005","097-TW","2018/09/08 13:49:52","新北市雙溪區三港里雙澳路100號","121.888518333333","25.0562533333333","6502600","貢寮區"
"228004","212-TW","2018/09/08 13:49:42","新北市貢寮區龍崗里嵩陽街12號","121.903488333333","25.0116","6502600","貢寮區"
"253003","6232-TK","2018/09/08 13:49:43","新北市石門區中山路60-50號","121.570271666667","25.28827","6502200","石門區"
"253001","6251-TK","2018/09/08 13:49:30","新北市三芝區新庄里新庄子48-5號","121.507618333333","25.279285","6502200","石門區"
"253002","637-UY","2018/09/08 13:49:25","新北市石門區七股56號","121.553363333333","25.2561633333333","6502200","石門區"
"253004","8270-PC","2018/09/08 13:48:00","新北市石門區草埔尾34-1號","121.603028333333","25.2650633333333","6502200","石門區"
"207002","749-BX","2018/09/08 13:49:40","新北市萬里區崁腳里崁腳路166號","121.64507","25.1558716666667","6502800","萬里區"
"252005","073-UM","2018/09/08 13:46:52","新北市三芝區圓山里二坪頂46號","121.539721666667","25.2302933333333","6502100","三芝區"
"207001","662-BX","2018/09/08 13:49:53","新北市萬里區磺潭里公館崙35號","121.632381666667","25.2113166666667","6502800","萬里區"
"236068","105-UM","2018/09/08 13:49:53","新北市土城區城林路6巷80號","121.438655","24.9796766666667","6501300","土城區"
"236040","107-UM","2018/09/08 13:49:42","新北市土城區城林路6巷80號","121.438513333333","24.9797266666667","6501300","土城區"
"236074","166-UM","2018/09/08 13:49:46","新北市土城區中央路三段185號","121.430968333333","24.96515","6501300","土城區"
"236029","253-BX","2018/09/08 13:49:54","新北市土城區城林路6巷80號","121.43817","24.9796916666667","6501300","土城區"
"236032","271-VK","2018/09/08 13:49:50","新北市土城區城林路6巷80號","121.438473333333","24.9797616666667","6501300","土城區"
"236006","498-BY","2018/09/08 13:49:52","新北市土城區中央路一段365巷11-5號","121.445018333333","24.980445","6501300","土城區"
"236057","752-BX","2018/09/08 13:49:55","新北市土城區中華路二段198號","121.43754","24.9701383333333","6501300","土城區"
"236045","913-UM","2018/09/08 13:49:35","新北市土城區城林路6巷80號","121.43847","24.97976","6501300","土城區"
"236060","915-UM","2018/09/08 13:49:52","新北市土城區城林路6巷80號","121.438435","24.9797066666667","6501300","土城區"
"236054","AAC-216","2018/09/08 13:49:46","新北市土城區城林路6巷80號","121.438625","24.9797716666667","6501300","土城區"
"242050","172-VK","2018/09/08 13:49:46","新北市新莊區民安西路416-1號","121.429245","25.009855","6500500","新莊區"
"221010","269-BY","2018/09/08 13:49:39","新北市汐止區長青路210巷188號","121.616315","25.1131366666667","6501100","汐止區"
"221002","707-TV","2018/09/08 13:48:31","新北市五股區中直路15-2號","121.423226666667","25.1111783333333","6501100","汐止區"
"220027","145-BY","2018/09/08 13:49:37","新北市板橋區民權路202巷6弄2號","121.460046666667","25.0145583333333","6500100","板橋區"
"220030","610-BX","2018/09/08 13:49:47","新北市板橋區篤行路三段玉平巷68弄2號","121.42805","24.9862483333333","6500100","板橋區"
"220050","245-BX","2018/09/08 13:49:44","新北市板橋區民生路二段120號","121.470398333333","25.0199816666667","6500100","板橋區"
"220023","256-TC","2018/09/08 13:49:46","新北市板橋區大觀路二段265巷60弄24號","121.441631666667","24.9979016666667","6500100","板橋區"
"220004","276-BY","2018/09/08 13:49:43","新北市板橋區四川路二段14號","121.4561","24.9962883333333","6500100","板橋區"
"220020","277-BY","2018/09/08 13:49:52","新北市板橋區大觀路三段36巷54弄3號","121.43449","24.997125","6500100","板橋區"
"220019","283-VK","2018/09/08 13:49:44","新北市板橋區重慶路245巷56號","121.465316666667","25.000955","6500100","板橋區"
"220043","285-UM","2018/09/08 13:49:43","新北市板橋區民生路二段161巷1號","121.470123333333","25.0198816666667","6500100","板橋區"
"220001","285-VK","2018/09/08 13:49:53","新北市板橋區永豐街55巷12弄18號","121.472741666667","25.018515","6500100","板橋區"
"220031","286-VK","2018/09/08 13:49:44","新北市板橋區僑中二街92巷2號","121.446378333333","25.0089233333333","6500100","板橋區"
"220029","287-VK","2018/09/08 13:49:43","新北市板橋區光華街13巷2號","121.454118333333","25.0116466666667","6500100","板橋區"
"220039","288-VK","2018/09/08 13:49:39","新北市板橋區民生路二段120號","121.47042","25.0197366666667","6500100","板橋區"
"220009","293-UM","2018/09/08 13:49:50","新北市板橋區民生路一段60號","121.474108333333","25.0150083333333","6500100","板橋區"
"220041","295-UM","2018/09/08 13:49:55","新北市板橋區民生路二段120號","121.470465","25.0197283333333","6500100","板橋區"
"220032","296-UM","2018/09/08 13:49:44","新北市板橋區大觀路二段150巷31號","121.441585","24.9998333333333","6500100","板橋區"
"220010","299-UM","2018/09/08 13:49:38","新北市板橋區中山路二段40巷6弄2號","121.47323","25.0148783333333","6500100","板橋區"
"220023","303-R5","2018/09/08 13:49:44","新北市板橋區南雅東路89號","121.453305","25.0085416666667","6500100","板橋區"
"220047","317-R6","2018/09/08 13:49:42","新北市板橋區民生路二段120號","121.470361666667","25.01962","6500100","板橋區"
"220012","486-VK","2018/09/08 13:49:51","新北市板橋區民生路二段17號","121.472435","25.0163866666667","6500100","板橋區"
"220037","491-VK","2018/09/08 13:49:39","新北市板橋區民生路二段161巷1號","121.469925","25.0201383333333","6500100","板橋區"
"220104","560-BX","2018/09/08 13:49:48","新北市板橋區中正路325巷5弄6號","121.453293333333","25.0191866666667","6500100","板橋區"
"220052","561-BX","2018/09/08 13:49:36","新北市板橋區民生路二段161巷1號","121.470181666667","25.0199683333333","6500100","板橋區"
"220011","609-BX","2018/09/08 13:49:42","新北市板橋區民生路二段15-1號","121.472893333333","25.01603","6500100","板橋區"
"220005","686-BX","2018/09/08 13:49:47","新北市板橋區南雅南路二段4巷2號","121.454331666667","25.0038583333333","6500100","板橋區"
"220025","687-BX","2018/09/08 13:49:57","新北市板橋區大觀路二段265巷7-6號","121.443058333333","24.9944333333333","6500100","板橋區"
"220042","689-BX","2018/09/08 13:49:44","新北市板橋區民生路二段161巷1號","121.470146666667","25.0201166666667","6500100","板橋區"
"220002","741-BX","2018/09/08 13:49:54","新北市板橋區館前西路53號","121.457721666667","25.0065283333333","6500100","板橋區"
"220051","KEA-2699","2018/09/08 13:49:41","新北市板橋區縣民大道三段201號","121.479908333333","25.0247566666667","6500100","板橋區"
"220014","829-TW","2018/09/08 13:49:54","新北市板橋區民生路二段5號","121.472841666667","25.0158833333333","6500100","板橋區"
"220016","830-TW","2018/09/08 13:49:52","新北市板橋區民生路二段89-4號","121.470921666667","25.018295","6500100","板橋區"
"220038","833-TW","2018/09/08 13:49:35","新北市板橋區民生路二段171號","121.469898333333","25.020155","6500100","板橋區"
"220022","895-R6","2018/09/08 13:49:35","新北市板橋區南門街53號","121.457203333333","25.008355","6500100","板橋區"
"220021","985-R7","2018/09/08 13:49:46","新北市板橋區府中路53號","121.458563333333","25.0092283333333","6500100","板橋區"
"220018","AAC-253","2018/09/08 13:49:40","新北市板橋區館前西路9號","121.45902","25.0069933333333","6500100","板橋區"
"235032","KEA-2873","2018/09/08 13:49:51","新北市中和區圓通路162巷1號","121.497171666667","24.9953416666667","6500300","中和區"
"235025","KEA-2875","2018/09/08 13:49:28","新北市中和區民享街69巷4號","121.47453","25.002175","6500300","中和區"
