"lineid","car","time","location","longitude","latitude","cityid","cityname"
"234044","148-BY","2018/09/08 14:09:16","新北市永和區成功路二段72號","121.526588333333","24.99933","6500400","永和區"
"234005","207-UY","2018/09/08 14:09:13","新北市中和區中和路212號","121.505871666667","24.999655","6500400","永和區"
"234078","298-R6","2018/09/08 14:09:19","新北市永和區國中路35號","121.524595","25.0055733333333","6500400","永和區"
"234036","336-UY","2018/09/08 14:09:09","新北市永和區成功路一段47巷8號","121.527563333333","25.0040283333333","6500400","永和區"
"234062","337-UY","2018/09/08 14:09:14","新北市永和區永利路152號","121.52253","25.002855","6500400","永和區"
"234084","338-UY","2018/09/08 14:09:23","新北市永和區福和路284號","121.517626666667","25.0074633333333","6500400","永和區"
"234068","552-UM","2018/09/08 14:09:22","新北市永和區福和路173號","121.520058333333","25.0074266666667","6500400","永和區"
"234015","745-BX","2018/09/08 14:09:25","新北市永和區仁愛路68號","121.513161666667","25.0132833333333","6500400","永和區"
"234028","746-BX","2018/09/08 14:09:07","新北市永和區民權路51號","121.519951666667","24.9969833333333","6500400","永和區"
"234052","KEA-2590","2018/09/08 14:09:08","新北市永和區博愛街27巷2號","121.518185","25.0158916666667","6500400","永和區"
"234012","KEA-2591","2018/09/08 14:09:22","新北市永和區永貞路387號","121.508011666667","25.0086916666667","6500400","永和區"
"234060","AAD-866","2018/09/08 14:09:07","新北市中和區安平路222號","121.514101666667","25.000045","6500400","永和區"
"234040","862-TW","2018/09/08 14:09:08","新北市永和區雙和街64巷1號","121.509098333333","25.00346","6500400","永和區"
"234048","863-TW","2018/09/08 14:09:11","新北市永和區環河西路二段89號","121.506581666667","25.01498","6500400","永和區"
"234025","9371-KE","2018/09/08 14:09:11","新北市永和區安樂路272巷11號","121.515043333333","25.0043933333333","6500400","永和區"
"234010","9373-KE","2018/09/08 14:09:06","新北市永和區仁愛路352巷122弄10號","121.500788333333","25.0087883333333","6500400","永和區"
"248017","225-UY","2018/09/08 14:09:23","新北市五股區民義路一段278號","121.425578333333","25.09293","6501500","五股區"
"234022","9380-KE","2018/09/08 14:09:22","新北市永和區博愛街32巷12號","121.518811666667","25.0153333333333","6500400","永和區"
"234076","969-R7","2018/09/08 14:09:22","新北市永和區民有街75巷10弄33號","121.519248333333","24.9960633333333","6500400","永和區"
"234072","AAC-211","2018/09/08 14:09:17","新北市永和區竹林路201巷22弄11號","121.522521666667","25.009425","6500400","永和區"
"234066","AAC-212","2018/09/08 14:09:07","新北市永和區保平路232號","121.509316666667","25.005495","6500400","永和區"
"234001","AAC-295","2018/09/08 14:09:24","新北市永和區中正路708號","121.516066666667","25.0099416666667","6500400","永和區"
"231005","001-UM","2018/09/08 14:09:26","新北市新店區中興路三段237號","121.5428","24.9837166666667","6500600","新店區"
"231002","002-UM","2018/09/08 14:09:15","新北市新店區中正路487號","121.533786666667","24.9820916666667","6500600","新店區"
"231027","0291-UT","2018/09/08 14:09:22","新北市新店區光明街138巷13弄2號","121.540146666667","24.96142","6500600","新店區"
"231028","046-UY","2018/09/08 14:09:20","新北市新店區安和路三段89號","121.517786666667","24.9839933333333","6500600","新店區"
"231001","047-UY","2018/09/08 14:09:21","新北市新店區中華路50號","121.5397","24.96843","6500600","新店區"
"231010","107-UY","2018/09/08 14:09:14","新北市新店區安一路一段1-1號","121.519453333333","24.961265","6500600","新店區"
"231020","108-UY","2018/09/08 14:09:12","新北市新店區屈尺路161-1號","121.542953333333","24.9237166666667","6500600","新店區"
"231035","110-UY","2018/09/08 14:09:09","新北市新店區安和路一段52巷2-1號","121.517686666667","24.966245","6500600","新店區"
"231012","187-VK","2018/09/08 14:09:16","新北市新店區五峰路70巷11號","121.54617","24.9676283333333","6500600","新店區"
"231023","KEA-2219","2018/09/08 14:09:18","新北市新店區文中路34號","121.538976666667","24.956935","6500600","新店區"
"231003","268-BY","2018/09/08 14:09:07","新北市新店區中興路一段56號","121.539158333333","24.959415","6500600","新店區"
"231018","278-BY","2018/09/08 14:09:21","新北市新店區中央五街60號","121.527745","24.975395","6500600","新店區"
"231017","AAD-862","2018/09/08 14:09:25","新北市新店區中生路163-1號","121.573708333333","24.94933","6500600","新店區"
"231038","3712-VJ","2018/09/08 14:09:18","新北市新店區安康路一段230-3號","121.522413333333","24.9637216666667","6500600","新店區"
"231037","4716-K9","2018/09/08 14:09:21","新北市新店區安康路三段165巷2弄6號","121.489368333333","24.95145","6500600","新店區"
"231025","4715-K9","2018/09/08 14:09:12","新北市新店區二十張路105巷22號","121.536913333333","24.9789766666667","6500600","新店區"
"231036","512-UM","2018/09/08 14:09:18","新北市新店區安祥路109巷3弄6號","121.475395","24.9596333333333","6500600","新店區"
"231013","513-UM","2018/09/08 14:09:17","新北市新店區北新路三段65巷34弄1號","121.539993333333","24.9812066666667","6500600","新店區"
"231006","617-UM","2018/09/08 14:09:09","新北市新店區北宜路二段317號","121.556936666667","24.9539666666667","6500600","新店區"
"231030","619-UM","2018/09/08 14:09:11","新北市新店區安民街65巷21-2號","121.515155","24.967525","6500600","新店區"
"231034","641-BX","2018/09/08 14:09:10","新北市新店區車子路11號","121.503026666667","24.9520333333333","6500600","新店區"
"231033","720-UM","2018/09/08 14:09:22","新北市新店區碧潭路42號","121.534288333333","24.9566166666667","6500600","新店區"
"231029","897-TW","2018/09/08 14:09:13","新北市新店區安康路二段161號","121.510108333333","24.9594","6500600","新店區"
"231004","899-TW","2018/09/08 14:09:26","新北市新店區北新路二段162號","121.543006666667","24.9756716666667","6500600","新店區"
"235030","003-UY","2018/09/08 14:09:10","新北市中和區廣福路30號","121.504821666667","25.00246","6500300","中和區"
"235027","006-UY","2018/09/08 14:09:22","新北市中和區連城路249巷21弄2號","121.494048333333","24.9959366666667","6500300","中和區"
"235020","096-UM","2018/09/08 14:09:14","新北市中和區員山路527號","121.479678333333","25.0069166666667","6500300","中和區"
"235003","097-UM","2018/09/08 14:09:06","新北市中和區秀峰街103巷2弄13號","121.51992","24.9903633333333","6500300","中和區"
"235029","098-UM","2018/09/08 14:09:19","新北市中和區中山路二段136巷1號","121.501901666667","25.0036533333333","6500300","中和區"
"235004","150-BY","2018/09/08 14:09:18","新北市中和區保健路44巷25號","121.508966666667","24.9965083333333","6500300","中和區"
"235022","151-BY","2018/09/08 14:09:24","新北市中和區員山路109號","121.480871666667","24.994705","6500300","中和區"
"235019","183-VK","2018/09/08 14:09:25","新北市中和區德光路95號","121.468586666667","25.0033133333333","6500300","中和區"
"235002","185-VK","2018/09/08 14:09:16","新北市中和區大仁街10巷27弄3號","121.51915","24.9926783333333","6500300","中和區"
"235013","186-VK","2018/09/08 14:09:13","新北市中和區景安路141號","121.505708333333","24.99548","6500300","中和區"
"235031","255-BX","2018/09/08 14:09:10","新北市中和區中正路711號","121.484553333333","24.998505","6500300","中和區"
"235008","293-VK","2018/09/08 14:09:23","新北市中和區中興街214號","121.499436666667","24.989945","6500300","中和區"
"235036","301-VK","2018/09/08 14:09:06","新北市中和區中山路二段181號","121.500828333333","25.0028083333333","6500300","中和區"
"235007","352-BY","2018/09/08 14:09:07","新北市中和區景平路116號","121.519478333333","24.9915366666667","6500300","中和區"
"235006","KEA-2878","2018/09/08 14:09:18","新北市中和區自立路16巷3號","121.521765","24.9936766666667","6500300","中和區"
"247011","KEA-2869","2018/09/08 14:09:10","新北市蘆洲區信義路315號","121.47839","25.0863233333333","6501400","蘆洲區"
"235014","4979-A6","2018/09/08 14:09:15","新北市中和區復興路280巷18弄6號","121.502351666667","24.9916","6500300","中和區"
"235033","4980-A6","2018/09/08 14:09:23","新北市中和區中山路二段181巷7號","121.501166666667","25.0018983333333","6500300","中和區"
"235028","551-UM","2018/09/08 14:09:18","新北市中和區泰和街2號","121.500081666667","25.00141","6500300","中和區"
"235034","558-UM","2018/09/08 14:09:18","新北市中和區中和路30號","121.499821666667","25.00178","6500300","中和區"
"235009","565-BX","2018/09/08 14:09:15","新北市中和區景新街467巷35弄30號","121.51366","24.9888083333333","6500300","中和區"
"235018","640-BX","2018/09/08 14:09:26","新北市中和區國光街107巷4弄30號","121.469641666667","24.9987983333333","6500300","中和區"
"235011","732-UM","2018/09/08 14:09:15","新北市中和區興南路一段91號","121.509646666667","24.9886983333333","6500300","中和區"
"235010","733-UM","2018/09/08 14:09:20","新北市中和區忠孝街1巷45號","121.508466666667","24.9839933333333","6500300","中和區"
"235035","783-BX","2018/09/08 14:09:08","新北市中和區中正路776號","121.485075","25.0001866666667","6500300","中和區"
"235026","800-TS","2018/09/08 14:09:04","新北市中和區中山路二段366巷13-1號","121.491791666667","25.0043733333333","6500300","中和區"
"235021","801-TS","2018/09/08 14:09:16","新北市中和區民利街50號","121.479323333333","24.998805","6500300","中和區"
"235005","802-TS","2018/09/08 14:09:05","新北市中和區中安街58號","121.512601666667","25.002055","6500300","中和區"
"235016","805-TS","2018/09/08 14:09:20","新北市中和區興南路二段242巷16號","121.502411666667","24.9831716666667","6500300","中和區"
"235012","896-TW","2018/09/08 14:09:19","新北市中和區工專路147號","121.508383333333","24.9788883333333","6500300","中和區"
"235017","900-TW","2018/09/08 14:09:20","新北市中和區華福街71巷26號","121.467511666667","24.9969933333333","6500300","中和區"
"235024","911-UM","2018/09/08 14:09:23","新北市中和區民治街19巷4號","121.47539","25.00259","6500300","中和區"
"235015","157-BY","2018/09/08 14:09:16","新北市中和區興南路一段102號","121.509891666667","24.9890533333333","6500300","中和區"
"235001","AAC-213","2018/09/08 14:09:20","新北市中和區秀朗路三段50巷2弄2號","121.526223333333","24.995505","6500300","中和區"
"235023","AAC-215","2018/09/08 14:09:19","新北市中和區圓通路294巷17-5號","121.48872","24.9902916666667","6500300","中和區"
"220013","072-UY","2018/09/08 14:09:16","新北市板橋區民族路219巷12號","121.46952","25.0077966666667","6500100","板橋區"
"220034","073-UY","2018/09/08 14:09:08","新北市板橋區中正路236巷65號","121.458545","25.01957","6500100","板橋區"
"220105","075-UY","2018/09/08 14:09:15","新北市板橋區文化路二段263巷20號","121.471191666667","25.02976","6500100","板橋區"
"220017","AAD-861","2018/09/08 14:09:16","新北市板橋區貴興路10號","121.457596666667","25.004105","6500100","板橋區"
"247001","893-R6","2018/09/08 14:09:16","新北市蘆洲區永平街62號","121.457373333333","25.0916583333333","6501400","蘆洲區"
"247015","546-UM","2018/09/08 14:09:23","新北市蘆洲區光華路46巷28號","121.468131666667","25.08388","6501400","蘆洲區"
"247023","500-BY","2018/09/08 14:09:13","新北市蘆洲區光榮路112號","121.464401666667","25.089355","6501400","蘆洲區"
"247013","339-TH","2018/09/08 14:09:14","新北市蘆洲區三民路155號","121.47138","25.0867683333333","6501400","蘆洲區"
"247005","337-TH","2018/09/08 14:09:13","新北市蘆洲區永安南路二段16巷17弄37號","121.467075","25.078045","6501400","蘆洲區"
"247007","336-TH","2018/09/08 14:09:17","新北市五股區國道路三段20號","121.468513333333","25.075345","6501400","蘆洲區"
"247019","057-VK","2018/09/08 14:09:18","新北市蘆洲區仁愛街36巷18號","121.472806666667","25.0935866666667","6501400","蘆洲區"
"247009","056-VK","2018/09/08 14:09:12","新北市蘆洲區民族路34號","121.47646","25.0844133333333","6501400","蘆洲區"
"247017","007-UY","2018/09/08 14:09:13","新北市蘆洲區復興路111-10號","121.477008333333","25.0885933333333","6501400","蘆洲區"
"247003","002-UY","2018/09/08 14:09:20","新北市蘆洲區長安街102巷47號","121.462376666667","25.0817983333333","6501400","蘆洲區"
"247021","001-UY","2018/09/08 14:09:22","新北市蘆洲區三民路213號","121.470166666667","25.088025","6501400","蘆洲區"
"228005","097-TW","2018/09/08 14:09:11","新北市雙溪區三港里雙澳路100號","121.888703333333","25.0560466666667","6502600","貢寮區"
"228004","212-TW","2018/09/08 14:09:22","新北市貢寮區雙玉里德心街9-1號","121.91762","25.0157916666667","6502600","貢寮區"
"253003","6232-TK","2018/09/08 14:09:03","新北市石門區阿里磅80號","121.583763333333","25.2673266666667","6502200","石門區"
"253001","6251-TK","2018/09/08 14:09:10","新北市石門區下員坑50-2號","121.519628333333","25.2727483333333","6502200","石門區"
"253002","637-UY","2018/09/08 14:09:25","新北市石門區楓林33-7號","121.544905","25.2814866666667","6502200","石門區"
"253004","8270-PC","2018/09/08 14:09:18","新北市石門區內阿里磅2-1號","121.589923333333","25.2559416666667","6502200","石門區"
"207002","749-BX","2018/09/08 14:09:20","新北市萬里區溪底里瑞泉路3號","121.610608333333","25.1443783333333","6502800","萬里區"
"252005","073-UM","2018/09/08 14:09:11","新北市三芝區橫山里橫山56-6號","121.535593333333","25.249085","6502100","三芝區"
"207001","662-BX","2018/09/08 14:09:13","新北市萬里區磺潭里清水18號","121.637906666667","25.19772","6502800","萬里區"
"236068","105-UM","2018/09/08 14:09:13","新北市土城區明德路一段130號","121.463651666667","24.9791416666667","6501300","土城區"
"236040","107-UM","2018/09/08 14:09:22","新北市土城區中華路一段279號","121.440105","24.9799783333333","6501300","土城區"
"236074","166-UM","2018/09/08 14:09:22","新北市土城區永寧路41號","121.430101666667","24.961935","6501300","土城區"
"236029","253-BX","2018/09/08 14:09:27","新北市土城區興城路79號","121.439846666667","24.97077","6501300","土城區"
"236024","269-VK","2018/09/08 14:09:18","新北市土城區承天路67號","121.439556666667","24.9634633333333","6501300","土城區"
"236013","270-VK","2018/09/08 14:09:07","新北市土城區學府路一段210號","121.452365","24.9853566666667","6501300","土城區"
"236032","271-VK","2018/09/08 14:09:10","新北市土城區中正路82號","121.444983333333","24.9756033333333","6501300","土城區"
"236017","401-BY","2018/09/08 14:09:23","新北市土城區城林路6巷80號","121.43856","24.9797916666667","6501300","土城區"
"236006","498-BY","2018/09/08 14:09:07","新北市土城區中華路一段56巷22號","121.444515","24.9895766666667","6501300","土城區"
"236057","752-BX","2018/09/08 14:09:16","新北市土城區中央路四段170號","121.416813333333","24.9580433333333","6501300","土城區"
"236045","913-UM","2018/09/08 14:09:15","新北市土城區明德路一段365-1號","121.453461666667","24.97913","6501300","土城區"
"236060","915-UM","2018/09/08 14:09:13","新北市土城區金城路三段4號","121.464486666667","24.9859316666667","6501300","土城區"
"236054","AAC-216","2018/09/08 14:09:06","新北市土城區城林路6巷80號","121.438593333333","24.97976","6501300","土城區"
"221010","269-BY","2018/09/08 14:09:19","新北市汐止區八連路二段161號","121.634353333333","25.0951616666667","6501100","汐止區"
"221002","707-TV","2018/09/08 14:09:11","新北市八里區中山路三段409號","121.3688","25.1355266666667","6501100","汐止區"
"220027","145-BY","2018/09/08 14:09:16","新北市板橋區民權路260巷32號","121.458968333333","25.0152316666667","6500100","板橋區"
"220030","610-BX","2018/09/08 14:09:07","新北市板橋區溪崑二街36號","121.428403333333","24.9910966666667","6500100","板橋區"
"220050","245-BX","2018/09/08 14:09:24","新北市板橋區民生路二段192號","121.46977","25.020585","6500100","板橋區"
"220028","256-TC","2018/09/08 14:09:26","新北市板橋區大觀路二段5-1號","121.447185","25.00391","6500100","板橋區"
"220040","267-BY","2018/09/08 14:09:22","新北市板橋區縣民大道三段251號","121.481646666667","25.026135","6500100","板橋區"
"220004","276-BY","2018/09/08 14:09:23","新北市板橋區信義路110巷1弄3號","121.458098333333","24.992255","6500100","板橋區"
"220020","277-BY","2018/09/08 14:09:12","新北市板橋區金門街280號","121.429113333333","24.9863683333333","6500100","板橋區"
"220019","283-VK","2018/09/08 14:09:22","新北市板橋區大豐街120號","121.461163333333","25.001165","6500100","板橋區"
"220043","285-UM","2018/09/08 14:09:23","新北市板橋區光武街73-3號","121.467241666667","25.0261933333333","6500100","板橋區"
"220001","285-VK","2018/09/08 14:09:19","新北市板橋區懷仁街35巷7號","121.476923333333","25.019755","6500100","板橋區"
"220031","286-VK","2018/09/08 14:09:24","新北市板橋區龍興街97巷15號","121.443421666667","25.0028266666667","6500100","板橋區"
"220029","287-VK","2018/09/08 14:09:23","新北市板橋區南雅西路二段177號","121.451965","25.0125983333333","6500100","板橋區"
"220039","288-VK","2018/09/08 14:09:20","新北市板橋區四維路269巷16號","121.462415","25.028255","6500100","板橋區"
"220009","293-UM","2018/09/08 14:09:10","新北市板橋區中山路二段248號","121.478573333333","25.0183366666667","6500100","板橋區"
"220041","295-UM","2018/09/08 14:09:15","新北市板橋區文化路二段225巷62號","121.46925","25.0285183333333","6500100","板橋區"
"220032","296-UM","2018/09/08 14:09:24","新北市板橋區溪崑一街47巷2號","121.430446666667","24.9909316666667","6500100","板橋區"
"220010","299-UM","2018/09/08 14:09:18","新北市板橋區三民路二段居仁巷2弄25號","121.479963333333","25.0129816666667","6500100","板橋區"
"220023","303-R5","2018/09/08 14:09:24","新北市板橋區中正路27號","121.456238333333","25.012665","6500100","板橋區"
"220047","317-R6","2018/09/08 14:09:22","新北市板橋區四維路103巷19號","121.46475","25.0241033333333","6500100","板橋區"
"220012","486-VK","2018/09/08 14:09:11","新北市板橋區板新路122號","121.470956666667","25.0154483333333","6500100","板橋區"
"220037","491-VK","2018/09/08 14:09:19","新北市板橋區文化路二段182巷3弄56號","121.472731666667","25.0287983333333","6500100","板橋區"
"220104","560-BX","2018/09/08 14:09:20","新北市板橋區中正路413巷6號","121.453796666667","25.02273","6500100","板橋區"
"220052","561-BX","2018/09/08 14:09:16","新北市板橋區文化路一段188巷9弄126號","121.469138333333","25.019005","6500100","板橋區"
"220011","609-BX","2018/09/08 14:09:22","新北市板橋區三民路二段202-6號","121.479043333333","25.014425","6500100","板橋區"
"220005","686-BX","2018/09/08 14:09:17","新北市板橋區重慶路305號","121.46377","24.9988633333333","6500100","板橋區"
"220025","687-BX","2018/09/08 14:09:17","新北市板橋區大觀路二段142-2號","121.442573333333","24.9989933333333","6500100","板橋區"
"220042","689-BX","2018/09/08 14:09:19","新北市板橋區民生路三段135號","121.466093333333","25.02623","6500100","板橋區"
"220002","741-BX","2018/09/08 14:09:16","新北市板橋區重慶路69巷3號","121.462231666667","25.00704","6500100","板橋區"
"220051","KEA-2699","2018/09/08 14:09:22","新北市板橋區田單街51號","121.482665","25.0279033333333","6500100","板橋區"
"220003","827-TW","2018/09/08 14:09:26","新北市板橋區新民街7巷16號","121.463725","25.010435","6500100","板橋區"
"220014","829-TW","2018/09/08 14:09:14","新北市板橋區民享街116巷2弄16號","121.477456666667","25.0155533333333","6500100","板橋區"
"220016","830-TW","2018/09/08 14:09:12","新北市板橋區翠華街6巷42號","121.481516666667","25.0246266666667","6500100","板橋區"
"220045","831-TW","2018/09/08 14:09:07","新北市板橋區大同街10號","121.477065","25.026745","6500100","板橋區"
"220038","833-TW","2018/09/08 14:09:15","新北市板橋區文化路二段419號","121.474646666667","25.0325816666667","6500100","板橋區"
"220022","895-R6","2018/09/08 14:09:13","新北市板橋區後菜園街54號","121.45607","25.0100566666667","6500100","板橋區"
"220021","985-R7","2018/09/08 14:09:17","新北市板橋區民權路216號","121.458783333333","25.0140766666667","6500100","板橋區"
"220046","AAC-210","2018/09/08 14:09:21","新北市板橋區新海路135巷29號","121.460038333333","25.022865","6500100","板橋區"
"220018","AAC-253","2018/09/08 14:09:20","新北市板橋區忠孝路52號","121.460836666667","25.00196","6500100","板橋區"
"235032","KEA-2873","2018/09/08 14:09:21","新北市中和區連勝街57巷20號","121.498045","24.9964066666667","6500300","中和區"
"235025","KEA-2875","2018/09/08 14:08:58","新北市中和區員山路263號","121.481295","24.9993166666667","6500300","中和區"
