"lineid","car","time","location","longitude","latitude","cityid","cityname"
"234028","746-BX","2018/09/08 14:27:07","新北市永和區民權路84號","121.519935","24.9969683333333","6500400","永和區"
"234025","9371-KE","2018/09/08 14:27:11","新北市永和區安樂路144巷26號","121.515285","24.9996466666667","6500400","永和區"
"234076","969-R7","2018/09/08 14:27:08","新北市中和區景平路404號","121.509075","24.99317","6500400","永和區"
"231005","001-UM","2018/09/08 14:26:52","新北市新店區北新路三段119號","121.541318333333","24.9824666666667","6500600","新店區"
"231002","002-UM","2018/09/08 14:27:15","新北市新店區中央路17號","121.533225","24.97831","6500600","新店區"
"231027","0291-UT","2018/09/08 14:27:22","新北市新店區北新路二段228巷11號","121.543386666667","24.9772516666667","6500600","新店區"
"231028","046-UY","2018/09/08 14:27:16","新北市新店區安和路一段45號","121.517346666667","24.9656916666667","6500600","新店區"
"231001","047-UY","2018/09/08 14:27:10","新北市新店區中正路75巷71號","121.543203333333","24.968785","6500600","新店區"
"231020","108-UY","2018/09/08 14:27:12","新北市新店區桂山路2-1號","121.556395","24.9044033333333","6500600","新店區"
"231035","110-UY","2018/09/08 14:27:09","新北市新店區光華街7巷2號","121.517648333333","24.96915","6500600","新店區"
"231012","187-VK","2018/09/08 14:27:08","新北市新店區寶興路42巷37號","121.547755","24.9717266666667","6500600","新店區"
"231023","KEA-2219","2018/09/08 14:27:18","新北市新店區光明街96巷3號","121.539345","24.9599566666667","6500600","新店區"
"231003","268-BY","2018/09/08 14:27:12","新北市新店區中興路一段252號","121.544581666667","24.9666866666667","6500600","新店區"
"231018","278-BY","2018/09/08 14:27:21","新北市新店區中央三街55號","121.527341666667","24.9747766666667","6500600","新店區"
"231017","AAD-862","2018/09/08 14:27:25","新北市新店區北宜路三段172號","121.586563333333","24.952295","6500600","新店區"
"231038","3712-VJ","2018/09/08 14:27:18","新北市新店區溪洲路101-1號","121.531763333333","24.962435","6500600","新店區"
"231037","4716-K9","2018/09/08 14:27:21","新北市新店區車子路1-1號","121.504736666667","24.9578216666667","6500600","新店區"
"231025","4715-K9","2018/09/08 14:27:12","新北市新店區民族路161號","121.537611666667","24.9767966666667","6500600","新店區"
"231036","512-UM","2018/09/08 14:27:18","新北市新店區安祥路109巷85弄22號","121.478155","24.95977","6500600","新店區"
"231013","513-UM","2018/09/08 14:27:17","新北市新店區民權路108-2號","121.536106666667","24.9834633333333","6500600","新店區"
"231006","617-UM","2018/09/08 14:27:09","新北市新店區北宜路二段493號","121.562826666667","24.9538033333333","6500600","新店區"
"231030","619-UM","2018/09/08 14:27:11","新北市新店區安民街71號","121.51656","24.9670483333333","6500600","新店區"
"231034","641-BX","2018/09/08 14:27:10","新北市新店區車子路11號","121.502978333333","24.9519883333333","6500600","新店區"
"231033","720-UM","2018/09/08 14:27:22","新北市新店區溪洲路160-1號","121.530383333333","24.9649983333333","6500600","新店區"
"231029","897-TW","2018/09/08 14:27:12","新北市新店區安康路二段416號","121.496516666667","24.955185","6500600","新店區"
"231004","899-TW","2018/09/08 14:27:26","新北市新店區中正路263-3號","121.538431666667","24.973855","6500600","新店區"
"231024","AKT-0513","2018/09/08 14:27:10","新北市新店區安民街121巷19號","121.515271666667","24.9687933333333","6500600","新店區"
"235030","003-UY","2018/09/08 14:27:10","新北市中和區景新街7號","121.503318333333","24.9994466666667","6500300","中和區"
"235020","096-UM","2018/09/08 14:27:14","新北市中和區員山路514巷17號","121.479655","25.0097116666667","6500300","中和區"
"235003","097-UM","2018/09/08 14:27:26","新北市中和區秀峰街103巷7弄4號","121.519448333333","24.988935","6500300","中和區"
"235029","098-UM","2018/09/08 14:27:19","新北市中和區福美路245號","121.499193333333","25.0051116666667","6500300","中和區"
"235004","150-BY","2018/09/08 14:27:12","新北市中和區保健路123號","121.512305","24.9960716666667","6500300","中和區"
"235022","151-BY","2018/09/08 14:27:24","新北市中和區員山路36巷16-2號","121.48523","24.9917083333333","6500300","中和區"
"235019","183-VK","2018/09/08 14:27:05","新北市中和區中山路三段181巷18弄5號","121.472608333333","25.0051966666667","6500300","中和區"
"235002","185-VK","2018/09/08 14:27:16","新北市中和區立人街21號","121.521328333333","24.9940466666667","6500300","中和區"
"235013","186-VK","2018/09/08 14:27:13","新北市中和區景新街230號","121.508301666667","24.9941583333333","6500300","中和區"
"235031","255-BX","2018/09/08 14:27:10","新北市中和區連城路326號","121.48327","24.99598","6500300","中和區"
"235008","293-VK","2018/09/08 14:27:23","新北市中和區景安路194號","121.504308333333","24.9915483333333","6500300","中和區"
"235036","301-VK","2018/09/08 14:27:24","新北市中和區莊敬路33巷8號","121.500393333333","25.0051283333333","6500300","中和區"
"235007","352-BY","2018/09/08 14:27:27","新北市中和區景平路296號","121.512786666667","24.9925716666667","6500300","中和區"
"235014","4979-A6","2018/09/08 14:27:15","新北市中和區中正路450號","121.490831666667","24.9940633333333","6500300","中和區"
"235033","4980-A6","2018/09/08 14:27:23","新北市中和區連城路134巷7號","121.495333333333","24.9998833333333","6500300","中和區"
"235034","558-UM","2018/09/08 14:27:18","新北市中和區圓通路49號","121.50079","24.9975583333333","6500300","中和區"
"235018","640-BX","2018/09/08 14:27:16","新北市中和區國光街109巷26-1號","121.469453333333","24.99972","6500300","中和區"
"235011","732-UM","2018/09/08 14:27:15","新北市中和區景平路241巷46號","121.50833","24.9923483333333","6500300","中和區"
"235010","733-UM","2018/09/08 14:27:20","新北市中和區忠孝街37巷49號","121.510735","24.9844083333333","6500300","中和區"
"235026","800-TS","2018/09/08 14:27:04","新北市中和區中山路二段488-1號","121.487525","25.0049","6500300","中和區"
"235021","801-TS","2018/09/08 14:27:17","新北市中和區中山路三段37巷33號","121.479628333333","25.0048966666667","6500300","中和區"
"235005","802-TS","2018/09/08 14:27:06","新北市中和區宜安路66號","121.511531666667","24.9971133333333","6500300","中和區"
"235016","805-TS","2018/09/08 14:27:20","新北市中和區華新街143巷67弄33號","121.507496666667","24.9792716666667","6500300","中和區"
"235012","896-TW","2018/09/08 14:27:19","新北市中和區忠孝街24號","121.51054","24.9830116666667","6500300","中和區"
"235017","900-TW","2018/09/08 14:27:22","新北市中和區民德路197-2號","121.46862","24.9988916666667","6500300","中和區"
"235024","911-UM","2018/09/08 14:27:09","新北市中和區員山路294巷21號","121.482346666667","25.0025833333333","6500300","中和區"
"235015","157-BY","2018/09/08 14:27:16","新北市中和區板南路100號","121.503851666667","24.9923883333333","6500300","中和區"
"235001","AAC-213","2018/09/08 14:27:20","新北市中和區秀朗路三段10巷14弄36號","121.524615","24.9965816666667","6500300","中和區"
"235023","AAC-215","2018/09/08 14:27:19","新北市中和區圓通路252巷5弄7號","121.493291666667","24.991275","6500300","中和區"
"220013","072-UY","2018/09/08 14:27:16","新北市板橋區國泰街75巷43號","121.468221666667","25.0049466666667","6500100","板橋區"
"220034","073-UY","2018/09/08 14:27:08","新北市板橋區中正路250巷57號","121.457913333333","25.0197683333333","6500100","板橋區"
"220105","075-UY","2018/09/08 14:27:16","新北市板橋區文化路二段417巷1號","121.473828333333","25.0333466666667","6500100","板橋區"
"220017","AAD-861","2018/09/08 14:27:16","新北市板橋區大明街20巷29弄19號","121.457786666667","25.003415","6500100","板橋區"
"247001","893-R6","2018/09/08 14:27:16","新北市蘆洲區永樂街38巷19弄18號","121.457388333333","25.0892266666667","6501400","蘆洲區"
"228005","097-TW","2018/09/08 14:27:27","新北市貢寮區美豐里巫里岸9-1號","121.90197","25.0702616666667","6502600","貢寮區"
"228004","212-TW","2018/09/08 14:27:22","新北市貢寮區雙玉里田寮洋街33-1號","121.933973333333","25.0152783333333","6502600","貢寮區"
"253003","6232-TK","2018/09/08 14:27:23","新北市石門區尖子鹿32號","121.583183333333","25.2638383333333","6502200","石門區"
"253001","6251-TK","2018/09/08 14:27:10","新北市石門區八甲66-2號","121.52685","25.27541","6502200","石門區"
"253002","637-UY","2018/09/08 14:27:05","新北市石門區七股12號","121.543598333333","25.2708783333333","6502200","石門區"
"253004","8270-PC","2018/09/08 14:27:18","新北市石門區內阿里磅47號","121.581651666667","25.2400483333333","6502200","石門區"
"207002","749-BX","2018/09/08 14:27:00","新北市萬里區溪底里溪底路6-2號","121.61672","25.1509816666667","6502800","萬里區"
"252005","073-UM","2018/09/08 14:27:11","新北市三芝區橫山里橫山8-1號","121.53451","25.2616183333333","6502100","三芝區"
"207001","662-BX","2018/09/08 14:27:13","新北市萬里區磺潭里清水18號","121.637921666667","25.1976933333333","6502800","萬里區"
"236068","105-UM","2018/09/08 14:27:13","新北市土城區永豐路205-5號","121.474575","24.97786","6501300","土城區"
"236040","107-UM","2018/09/08 14:27:21","新北市土城區學成路99巷11號","121.449938333333","24.9883816666667","6501300","土城區"
"236074","166-UM","2018/09/08 14:27:26","新北市土城區中央路四段27巷10弄2號","121.424756666667","24.9618333333333","6501300","土城區"
"236029","253-BX","2018/09/08 14:27:07","新北市土城區福仁街50巷16號","121.43934","24.9753483333333","6501300","土城區"
"236024","269-VK","2018/09/08 14:27:18","新北市土城區承天路67號","121.439615","24.9634416666667","6501300","土城區"
"236013","270-VK","2018/09/08 14:27:07","新北市土城區青雲路39巷7號","121.460205","24.9874183333333","6501300","土城區"
"236032","271-VK","2018/09/08 14:27:10","新北市土城區青雲路451巷8弄12號","121.459446666667","24.9741316666667","6501300","土城區"
"236017","401-BY","2018/09/08 14:27:23","新北市土城區明德路一段93巷2號","121.46579","24.9830866666667","6501300","土城區"
"236057","752-BX","2018/09/08 14:27:18","新北市土城區中央路四段147號","121.415498333333","24.95708","6501300","土城區"
"236045","913-UM","2018/09/08 14:27:15","新北市土城區青雲路452號","121.459335","24.970245","6501300","土城區"
"236060","915-UM","2018/09/08 14:27:13","新北市土城區延壽路111巷26號","121.468315","24.9935666666667","6501300","土城區"
"236054","AAC-216","2018/09/08 14:27:26","新北市土城區中華路二段61號","121.439451666667","24.9785816666667","6501300","土城區"
"221010","269-BY","2018/09/08 14:27:19","新北市汐止區八連路一段207號","121.640933333333","25.0803566666667","6501100","汐止區"
"221002","707-TV","2018/09/08 14:27:11","新北市五股區新五路二段131號","121.438858333333","25.0798616666667","6501100","汐止區"
"220027","145-BY","2018/09/08 14:27:16","新北市板橋區民權路257號","121.45714","25.0159983333333","6500100","板橋區"
"220030","610-BX","2018/09/08 14:27:27","新北市板橋區金門街258號","121.430166666667","24.9868016666667","6500100","板橋區"
"220050","245-BX","2018/09/08 14:27:24","新北市板橋區縣民大道三段133巷15號","121.477295","25.0236966666667","6500100","板橋區"
"220028","256-TC","2018/09/08 14:27:26","新北市板橋區大觀路二段37巷126號","121.449486666667","25.0021466666667","6500100","板橋區"
"220040","267-BY","2018/09/08 14:27:21","新北市板橋區文聖街149巷23弄3號","121.479336666667","25.0286016666667","6500100","板橋區"
"220004","276-BY","2018/09/08 14:27:23","新北市板橋區國慶路49巷19弄15號","121.45882","24.99609","6500100","板橋區"
"220020","277-BY","2018/09/08 14:27:12","新北市板橋區金門街253巷7號","121.432568333333","24.98869","6500100","板橋區"
"220019","283-VK","2018/09/08 14:27:22","新北市板橋區四川路一段387號","121.457978333333","24.999065","6500100","板橋區"
"220043","285-UM","2018/09/08 14:27:23","新北市板橋區吳鳳路17巷1號","121.467648333333","25.030085","6500100","板橋區"
"220001","285-VK","2018/09/08 14:27:13","新北市板橋區永豐街112號","121.476185","25.0207383333333","6500100","板橋區"
"220031","286-VK","2018/09/08 14:27:04","新北市板橋區大觀路二段174巷163弄2號","121.441626666667","25.003195","6500100","板橋區"
"220029","287-VK","2018/09/08 14:27:23","新北市板橋區大觀路一段75巷33號","121.448691666667","25.00416","6500100","板橋區"
"220039","288-VK","2018/09/08 14:27:20","新北市板橋區長江路一段106巷12弄2號","121.4599","25.0290416666667","6500100","板橋區"
"220009","293-UM","2018/09/08 14:27:10","新北市板橋區中山路一段279號","121.469571666667","25.0137866666667","6500100","板橋區"
"220041","295-UM","2018/09/08 14:27:15","新北市板橋區松江街16號","121.469191666667","25.0263566666667","6500100","板橋區"
"220032","296-UM","2018/09/08 14:27:24","新北市板橋區篤行路三段47號","121.428305","24.986185","6500100","板橋區"
"220010","299-UM","2018/09/08 14:27:18","新北市板橋區三民路二段181巷7號","121.479876666667","25.01439","6500100","板橋區"
"220023","303-R5","2018/09/08 14:27:24","新北市板橋區僑中一街124巷70-5號","121.449583333333","25.017185","6500100","板橋區"
"220047","317-R6","2018/09/08 14:27:22","新北市板橋區四維路266巷5弄17號","121.463563333333","25.0289383333333","6500100","板橋區"
"220012","486-VK","2018/09/08 14:27:11","新北市板橋區中山路一段11號","121.459973333333","25.0082766666667","6500100","板橋區"
"220037","491-VK","2018/09/08 14:27:19","新北市板橋區雙十路一段22號","121.477956666667","25.0243716666667","6500100","板橋區"
"220104","560-BX","2018/09/08 14:27:20","新北市板橋區中正路375巷25號","121.453885","25.020385","6500100","板橋區"
"220052","561-BX","2018/09/08 14:27:16","新北市板橋區文化路一段210號","121.466463333333","25.020255","6500100","板橋區"
"220011","609-BX","2018/09/08 14:27:22","新北市板橋區三民路二段140號","121.47915","25.0158066666667","6500100","板橋區"
"220005","686-BX","2018/09/08 14:27:07","新北市中和區華福街3號","121.465196666667","24.9970016666667","6500100","板橋區"
"220025","687-BX","2018/09/08 14:27:21","新北市板橋區僑中二街12巷2號","121.446965","25.0106816666667","6500100","板橋區"
"220042","689-BX","2018/09/08 14:26:47","新北市板橋區新海路132號","121.461045","25.0231383333333","6500100","板橋區"
"220002","741-BX","2018/09/08 14:27:13","新北市板橋區忠孝路92號","121.461698333333","25.0021466666667","6500100","板橋區"
"220051","KEA-2699","2018/09/08 14:27:22","新北市板橋區松柏街22巷45號","121.47506","25.0287333333333","6500100","板橋區"
"220003","827-TW","2018/09/08 14:27:26","新北市板橋區重慶路278巷18-1號","121.462318333333","24.9996433333333","6500100","板橋區"
"220014","829-TW","2018/09/08 14:27:14","新北市板橋區長安街138巷7弄7號","121.473278333333","25.0085333333333","6500100","板橋區"
"220016","830-TW","2018/09/08 14:27:19","新北市板橋區萬安街23號","121.48455","25.0229216666667","6500100","板橋區"
"220045","831-TW","2018/09/08 14:27:21","新北市板橋區民生路二段226巷19號","121.470735","25.0220783333333","6500100","板橋區"
"220038","833-TW","2018/09/08 14:27:15","新北市板橋區文化路一段123號","121.461858333333","25.01499","6500100","板橋區"
"220022","895-R6","2018/09/08 14:27:13","新北市板橋區府中路44號","121.457143333333","25.0095583333333","6500100","板橋區"
"220021","985-R7","2018/09/08 14:27:17","新北市板橋區新生街70號","121.457798333333","25.0211016666667","6500100","板橋區"
"220046","AAC-210","2018/09/08 14:27:21","新北市板橋區漢生西路163號","121.463185","25.0231816666667","6500100","板橋區"
"220018","AAC-253","2018/09/08 14:27:20","新北市板橋區四川路一段107號","121.459795","25.00518","6500100","板橋區"
"235032","KEA-2873","2018/09/08 14:27:21","新北市中和區福祥路30號","121.499438333333","25.0037066666667","6500300","中和區"
