"lineid","car","time","location","longitude","latitude","cityid","cityname"
"234076","969-R7","2018/09/08 15:39:08","新北市永和區福和路1號","121.526525","25.009715","6500400","永和區"
"231005","001-UM","2018/09/08 15:39:12","新北市新店區中正路351號","121.53531","24.9759383333333","6500600","新店區"
"231028","046-UY","2018/09/08 15:39:16","新北市新店區僑義路6號","121.500351666667","24.9509233333333","6500600","新店區"
"231020","108-UY","2018/09/08 15:39:11","新北市新店區金興路33號","121.552273333333","24.93088","6500600","新店區"
"231035","110-UY","2018/09/08 15:39:29","新北市新店區安興路83-3號","121.51523","24.975425","6500600","新店區"
"231012","187-VK","2018/09/08 15:39:28","新北市新店區寶元路一段109號","121.545681666667","24.9831216666667","6500600","新店區"
"231023","KEA-2219","2018/09/08 15:39:18","新北市新店區大新街7巷16號","121.543788333333","24.968165","6500600","新店區"
"231026","256-BX","2018/09/08 15:39:23","新北市新店區三民路75巷4弄2號","121.535545","24.9710066666667","6500600","新店區"
"231003","268-BY","2018/09/08 15:39:07","新北市新店區寶橋路97號","121.547536666667","24.9763883333333","6500600","新店區"
"231018","278-BY","2018/09/08 15:39:21","新北市新店區中正路663巷7弄15號","121.532905","24.99008","6500600","新店區"
"231017","AAD-862","2018/09/08 15:39:25","新北市新店區北宜路二段10號","121.54786","24.9517866666667","6500600","新店區"
"231038","3712-VJ","2018/09/08 15:39:18","新北市新店區吉安街2號","121.517163333333","24.9656433333333","6500600","新店區"
"231037","4716-K9","2018/09/08 15:39:21","新北市新店區安興路112號","121.514743333333","24.9775483333333","6500600","新店區"
"231036","512-UM","2018/09/08 15:39:18","新北市新店區安祥路80號","121.488231666667","24.9585316666667","6500600","新店區"
"231013","513-UM","2018/09/08 15:39:17","新北市新店區永業路81巷7弄33號","121.531368333333","24.9497","6500600","新店區"
"231030","619-UM","2018/09/08 15:39:11","新北市新店區新和街112號","121.520995","24.9863516666667","6500600","新店區"
"231034","641-BX","2018/09/08 15:39:10","新北市新店區玫瑰路58巷34號","121.493513333333","24.94686","6500600","新店區"
"231039","718-UY","2018/09/08 15:39:19","新北市新店區寶元路二段17號","121.546335","24.982125","6500600","新店區"
"231033","720-UM","2018/09/08 15:39:22","新北市新店區雙城路133號","121.497936666667","24.9387766666667","6500600","新店區"
"231029","897-TW","2018/09/08 15:39:12","新北市新店區安康路二段317-1號","121.499226666667","24.9565433333333","6500600","新店區"
"241011","013-R5","2018/09/08 15:39:16","新北市三重區文化北路248號","121.497418333333","25.0699433333333","6500200","三重區"
"241028","022-UY","2018/09/08 15:39:20","新北市三重區環河南路261號","121.490343333333","25.0499966666667","6500200","三重區"
"241008","059-VK","2018/09/08 15:39:19","新北市三重區重新路四段121號","121.484806666667","25.0522416666667","6500200","三重區"
"241015","062-VK","2018/09/08 15:39:26","新北市三重區重新路四段121號","121.484601666667","25.0524333333333","6500200","三重區"
"241017","063-VK","2018/09/08 15:39:28","新北市三重區大仁街1號","121.491653333333","25.0636116666667","6500200","三重區"
"241024","065-VK","2018/09/08 15:39:26","新北市三重區忠孝路三段2號","121.481978333333","25.06769","6500200","三重區"
"241002","090-VK","2018/09/08 15:39:14","新北市三重區重新路四段121號","121.484975","25.0521233333333","6500200","三重區"
"241003","091-VK","2018/09/08 15:39:15","新北市三重區重新路四段121號","121.484691666667","25.0518983333333","6500200","三重區"
"241009","265-UM","2018/09/08 15:39:28","新北市三重區光復路二段81號","121.47233","25.0574883333333","6500200","三重區"
"241016","266-UM","2018/09/08 15:39:05","新北市三重區重新路四段121號","121.484825","25.0527116666667","6500200","三重區"
"241018","268-UM","2018/09/08 15:39:07","新北市三重區重新路四段121號","121.484881666667","25.052645","6500200","三重區"
"241032","269-UM","2018/09/08 15:39:13","新北市三重區捷運路22巷10號","121.484995","25.0554883333333","6500200","三重區"
"241013","270-UM","2018/09/08 15:39:25","新北市三重區明德街50號","121.492061666667","25.071805","6500200","三重區"
"241025","271-UM","2018/09/08 15:39:23","新北市三重區重新路四段121號","121.484791666667","25.05269","6500200","三重區"
"241007","398-BY","2018/09/08 15:39:13","新北市三重區重新路四段121號","121.484778333333","25.0524683333333","6500200","三重區"
"241004","475-VK","2018/09/08 15:39:19","新北市三重區重新路四段121號","121.484786666667","25.0525116666667","6500200","三重區"
"241020","478-VK","2018/09/08 15:39:13","新北市三重區忠孝路二段52號","121.485063333333","25.0703716666667","6500200","三重區"
"241030","480-VK","2018/09/08 15:39:12","新北市三重區重新路四段121號","121.484823333333","25.0526466666667","6500200","三重區"
"241014","543-UM","2018/09/08 15:39:25","新北市三重區重新路四段121號","121.484878333333","25.0526016666667","6500200","三重區"
"241023","545-UM","2018/09/08 15:39:10","新北市三重區重新路四段121號","121.485195","25.052355","6500200","三重區"
"241001","547-UM","2018/09/08 15:39:16","新北市三重區重新路四段121號","121.484618333333","25.052325","6500200","三重區"
"241019","KEA-2593","2018/09/08 15:39:26","新北市三重區重新路四段121號","121.48447","25.0522716666667","6500200","三重區"
"241006","AAD-863","2018/09/08 15:39:28","新北市三重區重新路四段121號","121.484725","25.0524533333333","6500200","三重區"
"241005","887-TS","2018/09/08 15:39:08","新北市三重區泉州街84巷18號","121.495708333333","25.0541916666667","6500200","三重區"
"241012","941-UM","2018/09/08 15:39:24","新北市三重區重新路二段27號","121.497798333333","25.06231","6500200","三重區"
"241029","942-UM","2018/09/08 15:39:18","新北市三重區中正南路187號","121.493693333333","25.05515","6500200","三重區"
"241033","AAC-255","2018/09/08 15:39:10","新北市三重區中興南街58號","121.470383333333","25.0441766666667","6500200","三重區"
"235033","4980-A6","2018/09/08 15:39:23","新北市中和區連城路469巷44弄9-3號","121.482726666667","24.9945766666667","6500300","中和區"
"235026","800-TS","2018/09/08 15:39:24","新北市中和區連城路222巷2弄2號","121.491191666667","24.9968216666667","6500300","中和區"
"235005","802-TS","2018/09/08 15:39:25","新北市中和區中正路420號","121.491751666667","24.9941966666667","6500300","中和區"
"235023","AAC-215","2018/09/08 15:39:19","新北市中和區員山路17號","121.480438333333","24.9844016666667","6500300","中和區"
"220034","073-UY","2018/09/08 15:39:27","新北市板橋區華東街1-10號","121.448276666667","24.995025","6500100","板橋區"
"224007","275-VK","2018/09/08 15:39:28","新北市瑞芳區大寮路356-1號","121.7848","25.10328","6501200","瑞芳區"
"227010","642-TC","2018/09/08 15:39:07","新北市雙溪區三貂里政光路3-1號","121.850831666667","25.0629483333333","6502500","雙溪區"
"227002","400-TW","2018/09/08 15:39:14","新北市雙溪區牡丹里中正路43號","121.864533333333","25.0386416666667","6502500","雙溪區"
"236068","105-UM","2018/09/08 15:39:13","新北市土城區中央路三段121號","121.433936666667","24.9656883333333","6501300","土城區"
"236074","166-UM","2018/09/08 15:39:22","新北市土城區龍泉路22-4號","121.410651666667","24.9481066666667","6501300","土城區"
"236029","253-BX","2018/09/08 15:39:07","新北市土城區學成路179號","121.447911666667","24.988595","6501300","土城區"
"236024","269-VK","2018/09/08 15:39:21","新北市土城區裕生路102巷8號","121.446698333333","24.9847216666667","6501300","土城區"
"236013","270-VK","2018/09/08 15:39:27","新北市土城區廣明街92號","121.454765","24.9942633333333","6501300","土城區"
"236017","401-BY","2018/09/08 15:39:23","新北市土城區延吉街97巷11號","121.472105","24.986545","6501300","土城區"
"236057","752-BX","2018/09/08 15:39:16","新北市土城區中央路一段186-4號","121.445386666667","24.986185","6501300","土城區"
"236045","913-UM","2018/09/08 15:39:15","新北市土城區金城路三段203號","121.470383333333","24.9891933333333","6501300","土城區"
"236054","AAC-216","2018/09/08 15:39:26","新北市土城區中央路一段43號","121.448266666667","24.9904116666667","6501300","土城區"
"220029","287-VK","2018/09/08 15:39:23","新北市林口區太平里180號","121.367286666667","25.1351","6500100","板橋區"
"220038","833-TW","2018/09/08 15:39:15","新北市板橋區長江路一段188號","121.462156666667","25.0304333333333","6500100","板橋區"
