"lineid","car","time","location","longitude","latitude","cityid","cityname"
"249005","172-UM","2018/09/08 16:48:48","新北市八里區大堀湖1-9號","121.422808333333","25.15502","6502300","八里區"
"249004","303-UY","2018/09/08 16:48:38","新北市八里區中山路二段210巷166號","121.40451","25.1566633333333","6502300","八里區"
"249003","593-UM","2018/09/08 16:48:55","新北市八里區中山路二段289號","121.401558333333","25.148625","6502300","八里區"
"244013","KEA-2802","2018/09/08 16:48:58","新北市林口區粉寮路二段88巷100-12號","121.40959","25.0902933333333","6501700","林口區"
"244017","485-VK","2018/09/08 16:48:58","新北市林口區粉寮路二段88巷100-12號","121.409755","25.09025","6501700","林口區"
"231046","107-UY","2018/09/08 16:48:49","新北市新店區灣潭路15-12號","121.542351666667","24.94209","6500600","新店區"
"241011","013-R5","2018/09/08 16:48:56","新北市三重區仁愛街53巷152號","121.499598333333","25.0727633333333","6500200","三重區"
"241028","022-UY","2018/09/08 16:48:40","新北市三重區光興街93號","121.497341666667","25.0598933333333","6500200","三重區"
"241008","059-VK","2018/09/08 16:48:39","新北市三重區永安北路一段17巷11號","121.477343333333","25.075075","6500200","三重區"
"241022","060-VK","2018/09/08 16:48:48","新北市三重區中華路111巷18號","121.484273333333","25.0634766666667","6500200","三重區"
"241031","061-VK","2018/09/08 16:48:55","新北市三重區過圳街42-2號","121.488136666667","25.0601233333333","6500200","三重區"
"241015","062-VK","2018/09/08 16:48:52","新北市三重區文化北路43巷11號","121.499315","25.0655216666667","6500200","三重區"
"241017","063-VK","2018/09/08 16:48:59","新北市三重區國隆路8巷19號","121.492933333333","25.063605","6500200","三重區"
"241024","065-VK","2018/09/08 16:48:46","新北市三重區中正北路317巷22號","121.475506666667","25.0730266666667","6500200","三重區"
"241026","066-VK","2018/09/08 16:48:43","新北市三重區和平街1號","121.500208333333","25.06222","6500200","三重區"
"241002","090-VK","2018/09/08 16:48:54","新北市三重區仁義街205號","121.496836666667","25.0815866666667","6500200","三重區"
"241003","091-VK","2018/09/08 16:48:55","新北市三重區五華街75巷3號","121.492601666667","25.0832116666667","6500200","三重區"
"241009","265-UM","2018/09/08 16:48:47","新北市三重區三和路四段203巷228號","121.486781666667","25.0808983333333","6500200","三重區"
"241016","266-UM","2018/09/08 16:48:45","新北市三重區大同北路115巷19號","121.493888333333","25.0646583333333","6500200","三重區"
"241018","268-UM","2018/09/08 16:48:47","新北市三重區安慶街149巷17號","121.494345","25.0693333333333","6500200","三重區"
"241032","269-UM","2018/09/08 16:48:53","新北市三重區重陽路一段120巷35號","121.485275","25.0601616666667","6500200","三重區"
"241013","270-UM","2018/09/08 16:48:45","新北市三重區仁壽街17號","121.496605","25.0731916666667","6500200","三重區"
"241025","271-UM","2018/09/08 16:48:43","新北市三重區中正北路530巷4號","121.47202","25.0714116666667","6500200","三重區"
"241007","398-BY","2018/09/08 16:48:53","新北市三重區三和路四段191巷63號","121.484205","25.0796233333333","6500200","三重區"
"241004","475-VK","2018/09/08 16:48:39","新北市三重區仁愛街423-1號","121.490363333333","25.08149","6500200","三重區"
"241020","478-VK","2018/09/08 16:48:53","新北市三重區忠孝路二段34號","121.485815","25.0710133333333","6500200","三重區"
"241030","480-VK","2018/09/08 16:48:51","新北市三重區新興路4號","121.492758333333","25.052905","6500200","三重區"
"241014","543-UM","2018/09/08 16:48:45","新北市三重區長榮路75號","121.50259","25.0691116666667","6500200","三重區"
"241023","545-UM","2018/09/08 16:48:50","新北市三重區中華路76巷35號","121.482176666667","25.0627133333333","6500200","三重區"
"241001","547-UM","2018/09/08 16:48:56","新北市三重區仁愛街164號","121.494331666667","25.0764566666667","6500200","三重區"
"241019","KEA-2593","2018/09/08 16:48:46","新北市三重區三張街149巷10弄9號","121.486033333333","25.0698166666667","6500200","三重區"
"241006","AAD-863","2018/09/08 16:48:48","新北市三重區車路頭街142號","121.484136666667","25.075725","6500200","三重區"
"241005","887-TS","2018/09/08 16:48:50","新北市三重區仁安街51號","121.484171666667","25.0840183333333","6500200","三重區"
"241012","941-UM","2018/09/08 16:48:44","新北市三重區仁興街11巷32號","121.50055","25.0743983333333","6500200","三重區"
"241029","942-UM","2018/09/08 16:48:57","新北市三重區集美街207巷20號","121.492313333333","25.0541566666667","6500200","三重區"
"241033","AAC-255","2018/09/08 16:48:50","新北市新莊區新北大道二段143號","121.465855","25.0612833333333","6500200","三重區"
"247016","546-UM","2018/09/08 16:48:48","新北市蘆洲區正和街3號","121.470471666667","25.082725","6501400","蘆洲區"
"247008","336-TH","2018/09/08 16:48:39","新北市蘆洲區中山一路238號","121.47258","25.0801783333333","6501400","蘆洲區"
"247020","057-VK","2018/09/08 16:48:46","新北市蘆洲區民族路422巷6-1號","121.474206666667","25.0920333333333","6501400","蘆洲區"
"247010","056-VK","2018/09/08 16:48:51","新北市蘆洲區中正路520巷9號","121.462378333333","25.0995666666667","6501400","蘆洲區"
"247004","002-UY","2018/09/08 16:48:44","新北市蘆洲區長榮路155號","121.461761666667","25.0840683333333","6501400","蘆洲區"
"247022","001-UY","2018/09/08 16:48:42","新北市蘆洲區中正路507號","121.461036666667","25.097685","6501400","蘆洲區"
"228003","097-TW","2018/09/08 16:48:45","新北市貢寮區貢寮里朝陽街1-2號","121.912398333333","25.0212383333333","6502600","貢寮區"
"228002","663-BX","2018/09/08 16:48:48","新北市貢寮區貢寮里長潭街25號","121.898185","25.023735","6502600","貢寮區"
"224006","676-BX","2018/09/08 16:48:41","新北市瑞芳區大寮路356-1號","121.784833333333","25.1031966666667","6501200","瑞芳區"
"224008","285-BY","2018/09/08 16:48:44","新北市瑞芳區中山路314號","121.79691","25.1099733333333","6501200","瑞芳區"
"224007","275-VK","2018/09/08 16:48:57","新北市瑞芳區瑞竹路177號","121.758925","25.1037766666667","6501200","瑞芳區"
"224009","273-VK","2018/09/08 16:48:50","新北市瑞芳區明燈路二段15號","121.811756666667","25.1079333333333","6501200","瑞芳區"
"224005","271-BY","2018/09/08 16:48:44","新北市瑞芳區洞頂路188號","121.86158","25.1195966666667","6501200","瑞芳區"
"227010","642-TC","2018/09/08 16:48:47","新北市雙溪區牡丹里石1-1號","121.864271666667","25.0480566666667","6502500","雙溪區"
"227002","400-TW","2018/09/08 16:48:54","新北市雙溪區外柑里外柑腳71號","121.807135","25.0176466666667","6502500","雙溪區"
"251005","010-UM","2018/09/08 16:48:41","新北市淡水區中正路二段31號","121.419363333333","25.1823433333333","6501000","淡水區"
"251013","KEA-2871","2018/09/08 16:48:59","新北市淡水區泉洲厝32號","121.489805","25.1925333333333","6501000","淡水區"
"251016","179-VK","2018/09/08 16:48:56","新北市淡水區水頭42號","121.478301666667","25.184985","6501000","淡水區"
"251014","180-VK","2018/09/08 16:48:52","新北市淡水區淡金路四段478號","121.452445","25.2239333333333","6501000","淡水區"
"251012","441-VK","2018/09/08 16:48:44","新北市淡水區中正路二段31號","121.41967","25.1815216666667","6501000","淡水區"
"251008","443-VK","2018/09/08 16:48:44","新北市淡水區樹梅坑45號","121.474686666667","25.144595","6501000","淡水區"
"251011","650-BX","2018/09/08 16:48:57","新北市淡水區中正路261號","121.431283333333","25.1750683333333","6501000","淡水區"
"252002","178-VK","2018/09/08 16:48:56","新北市三芝區忠孝街47號","121.50607","25.256","6502100","三芝區"
"252001","292-VK","2018/09/08 16:48:39","新北市三芝區埔坪里埔頭坑44號","121.504725","25.26175","6502100","三芝區"
"242023","362-BY","2018/09/08 16:48:51","新北市新莊區公園一路75巷13號","121.442548333333","25.0383116666667","6500500","新莊區"
"242019","175-VK","2018/09/08 16:48:39","新北市新莊區三和路12-21號","121.442023333333","25.0384966666667","6500500","新莊區"
"242031","348-TH","2018/09/08 16:48:51","新北市新莊區新泰路357巷3弄57號","121.44185","25.039415","6500500","新莊區"
"242015","351-TH","2018/09/08 16:48:56","新北市新莊區新泰路357巷3弄57號","121.442028333333","25.0394233333333","6500500","新莊區"
"239007","AAC-297","2018/09/08 16:48:49","新北市鶯歌區二甲路13-16號","121.345025","24.9351933333333","6500800","鶯歌區"
"239003","360-BY","2018/09/08 16:48:56","新北市鶯歌區二甲路13-16號","121.345471666667","24.9351866666667","6500800","鶯歌區"
"235061","KEA-2875","2018/09/08 16:35:15","新北市中和區員山路36巷16-2號","121.485201666667","24.9917683333333","6500300","中和區"
