"lineid","car","time","location","longitude","latitude","cityid","cityname"
"249005","172-UM","2018/09/08 16:58:48","新北市八里區渡船頭1號","121.43405","25.1518683333333","6502300","八里區"
"249001","173-UM","2018/09/08 16:58:39","新北市八里區商港路48號","121.39366","25.1441266666667","6502300","八里區"
"249004","303-UY","2018/09/08 16:58:57","新北市八里區挖子尾街70號","121.415143333333","25.1666933333333","6502300","八里區"
"249002","305-UY","2018/09/08 16:58:56","新北市八里區牛寮埔22號","121.432443333333","25.142525","6502300","八里區"
"249003","593-UM","2018/09/08 16:58:55","新北市八里區中山路二段370號","121.400985","25.1481533333333","6502300","八里區"
"244013","KEA-2802","2018/09/08 16:58:38","新北市林口區粉寮路二段88巷100-12號","121.409561666667","25.0902416666667","6501700","林口區"
"244017","485-VK","2018/09/08 16:58:38","新北市林口區粉寮路二段88巷100-12號","121.409736666667","25.0902433333333","6501700","林口區"
"244025","837-TS","2018/09/08 16:58:58","新北市林口區粉寮路二段88巷100-12號","121.40965","25.0902533333333","6501700","林口區"
"231046","107-UY","2018/09/08 16:58:49","新北市新店區永業路81巷12號","121.531293333333","24.9479733333333","6500600","新店區"
"241011","013-R5","2018/09/08 16:58:56","新北市三重區仁愛街55巷140號","121.4992","25.0729183333333","6500200","三重區"
"241028","022-UY","2018/09/08 16:59:00","新北市三重區中正南路50號","121.493996666667","25.0599383333333","6500200","三重區"
"241008","059-VK","2018/09/08 16:58:39","新北市三重區永安北路一段3巷29號","121.47722","25.074595","6500200","三重區"
"241022","060-VK","2018/09/08 16:58:48","新北市三重區貴陽街40號","121.483956666667","25.0625466666667","6500200","三重區"
"241031","061-VK","2018/09/08 16:58:55","新北市三重區三寧街18號","121.489305","25.0599066666667","6500200","三重區"
"241015","062-VK","2018/09/08 16:58:46","新北市三重區三和路二段2號","121.501543333333","25.0664566666667","6500200","三重區"
"241017","063-VK","2018/09/08 16:58:48","新北市三重區大仁街3巷31號","121.49257","25.0638","6500200","三重區"
"241024","065-VK","2018/09/08 16:58:46","新北市三重區大勇街82巷26弄4號","121.479296666667","25.07212","6500200","三重區"
"241026","066-VK","2018/09/08 16:58:43","新北市三重區文化南路42號","121.500421666667","25.0602866666667","6500200","三重區"
"241002","090-VK","2018/09/08 16:58:53","新北市三重區仁義街101巷2號","121.497581666667","25.0802466666667","6500200","三重區"
"241003","091-VK","2018/09/08 16:58:55","新北市三重區五華街141巷60號","121.49358","25.08683","6500200","三重區"
"241009","265-UM","2018/09/08 16:58:47","新北市三重區溪尾街230巷48號","121.485963333333","25.0810183333333","6500200","三重區"
"241016","266-UM","2018/09/08 16:58:45","新北市三重區大同北路97-2號","121.494458333333","25.0637","6500200","三重區"
"241018","268-UM","2018/09/08 16:58:47","新北市三重區六張街126巷2弄14號","121.492345","25.069495","6500200","三重區"
"241032","269-UM","2018/09/08 16:58:53","新北市三重區重陽路一段130巷26號","121.485746666667","25.060315","6500200","三重區"
"241013","270-UM","2018/09/08 16:58:45","新北市三重區仁壽街10號","121.496488333333","25.0734066666667","6500200","三重區"
"241025","271-UM","2018/09/08 16:58:43","新北市三重區中正北路510號","121.47266","25.07171","6500200","三重區"
"241007","398-BY","2018/09/08 16:58:53","新北市三重區溪尾街146-1號","121.489078333333","25.079925","6500200","三重區"
"241004","475-VK","2018/09/08 16:58:39","新北市三重區五華街98巷12號","121.491576666667","25.0816983333333","6500200","三重區"
"241020","478-VK","2018/09/08 16:58:53","新北市三重區後竹圍街175巷18號","121.485733333333","25.0725516666667","6500200","三重區"
"241030","480-VK","2018/09/08 16:58:51","新北市三重區昌隆街57號","121.491115","25.0511416666667","6500200","三重區"
"241014","543-UM","2018/09/08 16:58:45","新北市三重區介壽路39巷94號","121.500678333333","25.07061","6500200","三重區"
"241023","545-UM","2018/09/08 16:58:50","新北市三重區新北大道一段252號","121.480246666667","25.0616616666667","6500200","三重區"
"241001","547-UM","2018/09/08 16:58:56","新北市三重區仁愛街249號","121.4934","25.0780683333333","6500200","三重區"
"241019","KEA-2593","2018/09/08 16:58:46","新北市三重區自強路二段74巷21號","121.487998333333","25.0698733333333","6500200","三重區"
"241006","AAD-863","2018/09/08 16:58:48","新北市三重區車路頭街131巷12號","121.484786666667","25.0759116666667","6500200","三重區"
"241005","887-TS","2018/09/08 16:58:55","新北市三重區碧華街114號","121.484693333333","25.0818616666667","6500200","三重區"
"241012","941-UM","2018/09/08 16:58:44","新北市三重區龍門路274巷36號","121.500535","25.0750533333333","6500200","三重區"
"241029","942-UM","2018/09/08 16:58:57","新北市三重區環河南路220-8號","121.493371666667","25.0526966666667","6500200","三重區"
"241033","AAC-255","2018/09/08 16:58:50","新北市三重區中興北街275號","121.469166666667","25.0607883333333","6500200","三重區"
"247016","546-UM","2018/09/08 16:58:48","新北市蘆洲區正和街14號","121.470135","25.0824816666667","6501400","蘆洲區"
"247024","500-BY","2018/09/08 16:58:44","新北市蘆洲區長興路255號","121.460536666667","25.087535","6501400","蘆洲區"
"247014","339-TH","2018/09/08 16:58:42","新北市蘆洲區中山二路36巷35號","121.474003333333","25.0833116666667","6501400","蘆洲區"
"247006","337-TH","2018/09/08 16:58:49","新北市蘆洲區長安街99巷31號","121.460786666667","25.0797433333333","6501400","蘆洲區"
"247008","336-TH","2018/09/08 16:58:59","新北市蘆洲區信義路56號","121.47539","25.0796733333333","6501400","蘆洲區"
"247020","057-VK","2018/09/08 16:58:46","新北市蘆洲區民族路422巷35號","121.473523333333","25.0935366666667","6501400","蘆洲區"
"247010","056-VK","2018/09/08 16:58:51","新北市蘆洲區信義路176號","121.47927","25.0839583333333","6501400","蘆洲區"
"247018","007-UY","2018/09/08 16:58:44","新北市蘆洲區民族路227巷20號","121.476835","25.0892316666667","6501400","蘆洲區"
"247004","002-UY","2018/09/08 16:58:44","新北市蘆洲區中原路21巷5號","121.460955","25.082465","6501400","蘆洲區"
"247022","001-UY","2018/09/08 16:58:42","新北市蘆洲區三民路128巷166-1號","121.46842","25.0925316666667","6501400","蘆洲區"
"228003","097-TW","2018/09/08 16:58:45","新北市貢寮區福隆里虎子山街21號","121.939393333333","25.01836","6502600","貢寮區"
"228001","212-TW","2018/09/08 16:58:41","新北市貢寮區貢寮里朝陽街1-2號","121.912166666667","25.0212916666667","6502600","貢寮區"
"228002","663-BX","2018/09/08 16:58:48","新北市貢寮區貢寮里朝陽街1-2號","121.911961666667","25.021385","6502600","貢寮區"
"224006","676-BX","2018/09/08 16:58:49","新北市瑞芳區大寮路2號","121.785381666667","25.10038","6501200","瑞芳區"
"224008","285-BY","2018/09/08 16:58:44","新北市瑞芳區明燈路一段267號","121.816531666667","25.10861","6501200","瑞芳區"
"224007","275-VK","2018/09/08 16:58:48","新北市瑞芳區瑞竹路76-4號","121.763353333333","25.1033816666667","6501200","瑞芳區"
"224009","273-VK","2018/09/08 16:58:50","新北市瑞芳區濱二路28-2號","121.839673333333","25.1147433333333","6501200","瑞芳區"
"224005","271-BY","2018/09/08 16:58:44","新北市瑞芳區明里路43號","121.870293333333","25.1229166666667","6501200","瑞芳區"
"227010","642-TC","2018/09/08 16:58:47","新北市雙溪區牡丹里五分11號","121.865073333333","25.0479966666667","6502500","雙溪區"
"227002","400-TW","2018/09/08 16:58:54","新北市雙溪區長源里柑腳8號","121.804681666667","25.0146216666667","6502500","雙溪區"
"251009","008-UM","2018/09/08 16:58:46","新北市淡水區沙崙路1號","121.420308333333","25.1808","6501000","淡水區"
"251004","009-UM","2018/09/08 16:58:53","新北市淡水區沙崙路1號","121.420323333333","25.180815","6501000","淡水區"
"251005","010-UM","2018/09/08 16:58:41","新北市淡水區中山路141號","121.440783333333","25.171885","6501000","淡水區"
"251013","KEA-2871","2018/09/08 16:58:39","新北市淡水區泉洲厝32號","121.489303333333","25.1925983333333","6501000","淡水區"
"251016","179-VK","2018/09/08 16:58:56","新北市淡水區瓦坑3號","121.477565","25.1808033333333","6501000","淡水區"
"251014","180-VK","2018/09/08 16:58:52","新北市淡水區八里堆2-11號","121.453803333333","25.2242783333333","6501000","淡水區"
"251015","181-VK","2018/09/08 16:58:55","新北市淡水區忠愛街12號","121.457155","25.17439","6501000","淡水區"
"251010","413-VK","2018/09/08 16:58:52","新北市淡水區中正路二段31號","121.419515","25.1815083333333","6501000","淡水區"
"251012","441-VK","2018/09/08 16:58:44","新北市淡水區沙崙路198號","121.424511666667","25.1838283333333","6501000","淡水區"
"251008","443-VK","2018/09/08 16:58:44","新北市淡水區樹梅坑9號","121.472715","25.1427183333333","6501000","淡水區"
"251006","561-UM","2018/09/08 16:58:40","新北市淡水區中正路382號","121.428845","25.1753933333333","6501000","淡水區"
"251011","650-BX","2018/09/08 16:58:37","新北市淡水區中山路88號","121.442915","25.1705216666667","6501000","淡水區"
"252002","178-VK","2018/09/08 16:58:56","新北市三芝區忠孝街171號","121.505625","25.26124","6502100","三芝區"
"252001","292-VK","2018/09/08 16:58:59","新北市三芝區淡金路二段89號","121.503915","25.26081","6502100","三芝區"
"242027","615-BX","2018/09/08 16:58:58","新北市新莊區新泰路255巷83號","121.442176666667","25.0388","6500500","新莊區"
"242044","566-BX","2018/09/08 16:58:43","新北市新莊區新泰路357巷3弄57號","121.44195","25.0390766666667","6500500","新莊區"
"242053","441-UM","2018/09/08 16:58:50","新北市新莊區三和路12-21號","121.442016666667","25.038545","6500500","新莊區"
"242002","440-UM","2018/09/08 16:58:43","新北市新莊區新泰路357巷3弄57號","121.44195","25.0391233333333","6500500","新莊區"
"242023","362-BY","2018/09/08 16:58:51","新北市新莊區三和路12-21號","121.442155","25.0387416666667","6500500","新莊區"
"242042","133-UY","2018/09/08 16:58:55","新北市新莊區三和路12-21號","121.44182","25.0388266666667","6500500","新莊區"
"242019","175-VK","2018/09/08 16:58:59","新北市新莊區三和路12-21號","121.441956666667","25.0386033333333","6500500","新莊區"
"242007","176-VK","2018/09/08 16:58:42","新北市新莊區三和路12-21號","121.441928333333","25.038855","6500500","新莊區"
"242046","347-TH","2018/09/08 16:58:46","新北市新莊區三和路12-17號","121.441895","25.0375383333333","6500500","新莊區"
"242031","348-TH","2018/09/08 16:58:51","新北市新莊區新泰路357巷3弄57號","121.44191","25.0394166666667","6500500","新莊區"
"242004","349-TH","2018/09/08 16:43:27","新北市新莊區三和路12-14號","121.442048333333","25.0372533333333","6500500","新莊區"
"242015","351-TH","2018/09/08 16:58:56","新北市新莊區新泰路357巷3弄57號","121.441938333333","25.03942","6500500","新莊區"
"238017","283-BY","2018/09/08 16:58:59","新北市樹林區育德街78號","121.387808333333","24.9684116666667","6500700","樹林區"
"238014","282-BY","2018/09/08 16:58:43","新北市樹林區育德街78-1號","121.387821666667","24.968165","6500700","樹林區"
"238020","268-VK","2018/09/08 16:58:57","新北市樹林區育德街78號","121.38831","24.9683266666667","6500700","樹林區"
"239007","AAC-297","2018/09/08 16:58:49","新北市鶯歌區二甲路13-16號","121.345055","24.93522","6500800","鶯歌區"
"239003","360-BY","2018/09/08 16:58:56","新北市鶯歌區二甲路13-16號","121.345461666667","24.9352","6500800","鶯歌區"
"235061","KEA-2875","2018/09/08 16:35:15","新北市中和區員山路36巷16-2號","121.485201666667","24.9917683333333","6500300","中和區"
