"lineid","car","time","location","longitude","latitude","cityid","cityname"
"234026","9371-KE","2018/09/08 17:39:38","新北市永和區永和路一段149-2號","121.514195","25.0092233333333","6500400","永和區"
"249005","172-UM","2018/09/08 17:39:48","新北市八里區荖阡坑路34-3號","121.402315","25.1319","6502300","八里區"
"249001","173-UM","2018/09/08 17:39:39","新北市八里區龍米路二段153-8號","121.440176666667","25.1535183333333","6502300","八里區"
"249004","303-UY","2018/09/08 17:39:58","新北市八里區大崁腳35號","121.419395","25.15866","6502300","八里區"
"249002","305-UY","2018/09/08 17:39:56","新北市八里區龍形五街37巷20號","121.446361666667","25.134025","6502300","八里區"
"249003","593-UM","2018/09/08 17:39:55","新北市八里區中山路二段270號","121.404975","25.1511883333333","6502300","八里區"
"232011","375-UM","2018/09/08 17:39:52","新北市坪林區水柳腳34號","121.710176666667","24.9352866666667","6502000","坪林區"
"244013","069-UM","2018/09/08 17:39:51","新北市林口區東明一街38號","121.392515","25.07245","6501700","林口區"
"244007","080-UY","2018/09/08 17:39:53","新北市林口區林口路272巷23號","121.38691","25.0845233333333","6501700","林口區"
"244019","403-UM","2018/09/08 17:39:56","新北市林口區文化一路一段89-5號","121.371806666667","25.0705183333333","6501700","林口區"
"244013","KEA-2802","2018/09/08 17:39:38","新北市林口區中正路535號","121.382233333333","25.0772366666667","6501700","林口區"
"244017","485-VK","2018/09/08 17:39:38","新北市林口區文化二路一段242-1號","121.370346666667","25.0731116666667","6501700","林口區"
"244009","656-BX","2018/09/08 17:39:46","新北市林口區民享路214號","121.382896666667","25.08455","6501700","林口區"
"244011","657-BX","2018/09/08 17:39:53","新北市林口區佳林路211號","121.384301666667","25.077165","6501700","林口區"
"244025","837-TS","2018/09/08 17:39:58","新北市林口區三民路178號","121.362623333333","25.0728866666667","6501700","林口區"
"244021","838-TS","2018/09/08 17:39:36","新北市林口區中山路2-2號","121.396845","25.078725","6501700","林口區"
"243003","KEA-2215","2018/09/08 17:39:40","新北市泰山區橫窠雅10-6號","121.41549","25.0673366666667","6501600","泰山區"
"222002","659-BX","2018/09/08 17:39:37","新北市深坑區深南路32號","121.620963333333","25.0083733333333","6501800","深坑區"
"231046","107-UY","2018/09/08 17:39:49","新北市新店區直潭路92號","121.53091","24.9376283333333","6500600","新店區"
"241024","065-VK","2018/09/08 17:39:46","新北市三重區車路頭街51巷1號","121.484046666667","25.072215","6500200","三重區"
"241002","090-VK","2018/09/08 17:39:53","新北市三重區仁愛街221號","121.494621666667","25.0776","6500200","三重區"
"241016","266-UM","2018/09/08 17:39:45","新北市三重區重新路二段23號","121.497768333333","25.0625966666667","6500200","三重區"
"241013","270-UM","2018/09/08 17:39:49","新北市三重區仁福街64巷39號","121.497478333333","25.0759683333333","6500200","三重區"
"241007","398-BY","2018/09/08 17:39:53","新北市三重區車路頭街77號","121.484473333333","25.0739716666667","6500200","三重區"
"241014","543-UM","2018/09/08 17:39:56","新北市三重區長壽街136號","121.502653333333","25.068815","6500200","三重區"
"241023","545-UM","2018/09/08 17:39:50","新北市三重區中華路121號","121.48367","25.06382","6500200","三重區"
"241019","KEA-2593","2018/09/08 17:39:46","新北市三重區六張街210號","121.488023333333","25.068485","6500200","三重區"
"241005","887-TS","2018/09/08 17:39:50","新北市三重區仁愛街519號","121.487276666667","25.082205","6500200","三重區"
"241012","941-UM","2018/09/08 17:39:44","新北市三重區仁興街39巷10號","121.499473333333","25.0759266666667","6500200","三重區"
"241033","AAC-255","2018/09/08 17:39:54","新北市三重區光復路一段49號","121.472288333333","25.0488483333333","6500200","三重區"
"235065","098-UM","2018/09/08 17:39:39","新北市中和區員山路36巷16-3號","121.485135","24.9911483333333","6500300","中和區"
"247012","KEA-2869","2018/09/08 17:39:40","新北市蘆洲區民權路3巷14弄15號","121.47528","25.0857566666667","6501400","蘆洲區"
"235064","551-UM","2018/09/08 17:39:47","新北市中和區員山路36巷16-2號","121.485211666667","24.991405","6500300","中和區"
"247002","893-R6","2018/09/08 17:39:41","新北市蘆洲區永平街32巷11弄19號","121.458225","25.0916416666667","6501400","蘆洲區"
"247024","500-BY","2018/09/08 17:39:44","新北市蘆洲區長樂路125-1號","121.462143333333","25.08807","6501400","蘆洲區"
"247006","337-TH","2018/09/08 17:39:57","新北市蘆洲區長安街16號","121.464088333333","25.0792183333333","6501400","蘆洲區"
"247008","336-TH","2018/09/08 17:39:39","新北市蘆洲區和平路15號","121.47259","25.079305","6501400","蘆洲區"
"247020","057-VK","2018/09/08 17:39:46","新北市蘆洲區民族路343-3號","121.47248","25.0919","6501400","蘆洲區"
"247010","056-VK","2018/09/08 17:39:51","新北市蘆洲區中山一路74巷55號","121.479896666667","25.0814516666667","6501400","蘆洲區"
"247018","007-UY","2018/09/08 17:39:44","新北市蘆洲區民權路61巷14號","121.47319","25.0877533333333","6501400","蘆洲區"
"247004","002-UY","2018/09/08 17:39:44","新北市蘆洲區長安街249巷34號","121.45795","25.0827333333333","6501400","蘆洲區"
"247022","001-UY","2018/09/08 17:39:42","新北市蘆洲區三民路242號","121.468135","25.0897433333333","6501400","蘆洲區"
"228003","097-TW","2018/09/08 17:39:45","新北市貢寮區仁理村仁和路214號","121.923675","25.053075","6502600","貢寮區"
"228001","212-TW","2018/09/08 17:39:41","新北市貢寮區仁理村仁愛路95-1號","121.927668333333","25.0554566666667","6502600","貢寮區"
"228002","663-BX","2018/09/08 17:39:48","新北市貢寮區福隆里龜壽谷街11-1號","121.954725","25.006855","6502600","貢寮區"
"224010","AGQ-8101","2018/09/08 17:34:18","新北市瑞芳區逢甲路67號","121.807928333333","25.1093866666667","6501200","瑞芳區"
"224006","676-BX","2018/09/08 17:39:41","新北市瑞芳區傑魚坑路60號","121.793565","25.1105783333333","6501200","瑞芳區"
"224008","285-BY","2018/09/08 17:39:44","新北市瑞芳區明燈路一段200號","121.83078","25.1051633333333","6501200","瑞芳區"
"224009","273-VK","2018/09/08 17:39:50","新北市瑞芳區金光路259號","121.849465","25.1085616666667","6501200","瑞芳區"
"224005","271-BY","2018/09/08 17:39:44","新北市瑞芳區海濱路8-6號","121.831753333333","25.1261333333333","6501200","瑞芳區"
"227010","642-TC","2018/09/08 17:36:03","新北市雙溪區三貂里定福路1-2號","121.85075","25.0634216666667","6502500","雙溪區"
"208002","KEA-2872","2018/09/08 17:39:53","新北市金山區磺清路135號","121.639323333333","25.2277683333333","6502700","金山區"
"208003","665-BX","2018/09/08 17:39:52","新北市金山區磺清路135號","121.639346666667","25.2277016666667","6502700","金山區"
"251009","008-UM","2018/09/08 17:39:46","新北市淡水區中正路28號","121.444353333333","25.169125","6501000","淡水區"
"251004","009-UM","2018/09/08 17:39:53","新北市淡水區中正東路二段88巷37號","121.459281666667","25.1466916666667","6501000","淡水區"
"251005","010-UM","2018/09/08 17:39:41","新北市淡水區鄧公路35巷2號","121.451583333333","25.17131","6501000","淡水區"
"251001","011-UM","2018/09/08 17:39:35","新北市淡水區民權路92巷35-1號","121.462188333333","25.1266483333333","6501000","淡水區"
"251002","012-UM","2018/09/08 17:39:44","新北市淡水區建設街1巷7-2號","121.439308333333","25.1727633333333","6501000","淡水區"
"251013","KEA-2871","2018/09/08 17:39:39","新北市淡水區大竹圍5號","121.466606666667","25.1952883333333","6501000","淡水區"
"251016","179-VK","2018/09/08 17:39:56","新北市淡水區埤島39-15號","121.452781666667","25.1959216666667","6501000","淡水區"
"251014","180-VK","2018/09/08 17:39:52","新北市淡水區水碓30-1號","121.477721666667","25.2243583333333","6501000","淡水區"
"251015","181-VK","2018/09/08 17:39:55","新北市淡水區興福寮1-8號","121.488916666667","25.1644966666667","6501000","淡水區"
"251010","413-VK","2018/09/08 17:39:52","新北市淡水區淡海路280巷21號","121.419788333333","25.1898133333333","6501000","淡水區"
"251012","441-VK","2018/09/08 17:39:44","新北市淡水區北新路200巷6號","121.451716666667","25.179875","6501000","淡水區"
"251008","443-VK","2018/09/08 17:39:44","新北市淡水區八勢路一段123巷5弄3號","121.466621666667","25.1565583333333","6501000","淡水區"
"251006","561-UM","2018/09/08 17:39:40","新北市淡水區大信街24巷2號","121.441971666667","25.1767","6501000","淡水區"
"251007","577-R6","2018/09/08 17:39:49","新北市淡水區民生路124巷21號","121.464183333333","25.1376666666667","6501000","淡水區"
"251011","650-BX","2018/09/08 17:39:57","新北市淡水區小坪頂13-3號","121.48663","25.1562033333333","6501000","淡水區"
"251003","673-BX","2018/09/08 17:39:52","新北市淡水區中山北路一段52號","121.441893333333","25.17567","6501000","淡水區"
"207003","550-UM","2018/09/08 17:39:52","新北市萬里區龜吼里漁澳路5-1號","121.686553333333","25.1942433333333","6502800","萬里區"
"207004","225-TW","2018/09/08 17:39:43","新北市萬里區中幅里中福路18號","121.683965","25.1644116666667","6502800","萬里區"
"252002","178-VK","2018/09/08 17:39:56","新北市三芝區中正路二段18號","121.504476666667","25.2553316666667","6502100","三芝區"
"252001","292-VK","2018/09/08 17:39:39","新北市三芝區淡金路一段83號","121.502101666667","25.258975","6502100","三芝區"
"237013","252-BX","2018/09/08 17:39:51","新北市三峽區愛國路33-8號","121.37454","24.9334183333333","6500900","三峽區"
"237012","275-BY","2018/09/08 17:39:48","新北市三峽區中山路459巷163-3號","121.348861666667","24.9331066666667","6500900","三峽區"
"237014","433-BY","2018/09/08 17:39:39","新北市三峽區中山路459巷163-3號","121.348671666667","24.93298","6500900","三峽區"
"237006","5529-G3","2018/09/08 17:39:50","新北市三峽區介壽路一段552巷15號","121.387806666667","24.9325566666667","6500900","三峽區"
"237011","KEA-2596","2018/09/08 17:39:45","新北市三峽區中山路333-5號","121.359775","24.9377066666667","6500900","三峽區"
"237016","649-BX","2018/09/08 17:39:45","新北市三峽區白雞33-24號","121.371211666667","24.9120633333333","6500900","三峽區"
"237010","706-TV","2018/09/08 17:39:52","新北市三峽區中山路138-1號","121.365133333333","24.9361516666667","6500900","三峽區"
"236070","105-UM","2018/09/08 17:39:55","新北市土城區中華路二段2號","121.439473333333","24.9796016666667","6501300","土城區"
"236042","107-UM","2018/09/08 17:39:44","新北市土城區城林路6巷80號","121.438598333333","24.9797183333333","6501300","土城區"
"236079","166-UM","2018/09/08 17:39:39","新北市土城區城林路6巷80號","121.438656666667","24.979765","6501300","土城區"
"236014","270-VK","2018/09/08 17:39:45","新北市土城區城林路6巷80號","121.438485","24.9795983333333","6501300","土城區"
"236038","271-VK","2018/09/08 17:39:38","新北市土城區城林路6巷80號","121.438556666667","24.9796016666667","6501300","土城區"
"242036","AAC-296","2018/09/08 17:39:45","新北市新莊區後港一路192號","121.43238","25.0281333333333","6500500","新莊區"
"242058","986-R7","2018/09/08 17:39:52","新北市新莊區中正路695號","121.42592","25.0300133333333","6500500","新莊區"
"242056","751-BX","2018/09/08 17:39:46","新北市新莊區泰豐街15號","121.44839","25.031565","6500500","新莊區"
"242027","615-BX","2018/09/08 17:39:38","新北市新莊區福壽街95號","121.458041666667","25.05048","6500500","新莊區"
"242025","613-BX","2018/09/08 17:39:45","新北市新莊區思源路116號","121.460186666667","25.0468233333333","6500500","新莊區"
"242044","566-BX","2018/09/08 17:39:43","新北市新莊區富國路75號","121.42006","25.0259916666667","6500500","新莊區"
"242048","497-BY","2018/09/08 17:39:55","新北市新莊區萬安街161號","121.42019","25.0212483333333","6500500","新莊區"
"242053","441-UM","2018/09/08 17:39:51","新北市新莊區新樹路398號","121.432248333333","25.0025716666667","6500500","新莊區"
"242002","440-UM","2018/09/08 17:39:43","新北市新莊區新莊路319號","121.452756666667","25.0342","6500500","新莊區"
"242039","415-TV","2018/09/08 17:39:42","新北市新莊區民全街2號","121.428988333333","25.0210116666667","6500500","新莊區"
"242009","413-TV","2018/09/08 17:39:47","新北市新莊區昌明街14巷7弄2號","121.457353333333","25.053515","6500500","新莊區"
"242023","362-BY","2018/09/08 17:39:51","新北市新莊區中港路132巷26號","121.45645","25.04066","6500500","新莊區"
"242061","353-BY","2018/09/08 17:39:39","新北市新莊區瓊林南路103巷8弄21號","121.435255","25.0112216666667","6500500","新莊區"
"242042","133-UY","2018/09/08 17:39:54","新北市新莊區新樹路52-37號","121.437046666667","25.0266766666667","6500500","新莊區"
"242034","135-UY","2018/09/08 17:39:45","新北市新莊區新莊路446號","121.447581666667","25.0333566666667","6500500","新莊區"
"242051","172-VK","2018/09/08 17:39:38","新北市新莊區西盛街189號","121.428948333333","25.0171683333333","6500500","新莊區"
"242019","175-VK","2018/09/08 17:39:39","新北市新莊區中港路176號","121.454926666667","25.0419433333333","6500500","新莊區"
"242007","176-VK","2018/09/08 17:39:42","新北市新莊區福樂街118巷14號","121.457511666667","25.0482733333333","6500500","新莊區"
"242017","346-TH","2018/09/08 17:39:48","新北市新莊區復興路一段149巷21弄14號","121.44963","25.0441583333333","6500500","新莊區"
"242046","347-TH","2018/09/08 17:39:46","新北市新莊區中正路589號","121.434225","25.0323033333333","6500500","新莊區"
"242031","348-TH","2018/09/08 17:39:51","新北市新莊區新泰路380號","121.444206666667","25.0432633333333","6500500","新莊區"
"242004","349-TH","2018/09/08 17:39:38","新北市新莊區自立街194號","121.456533333333","25.0454016666667","6500500","新莊區"
"242021","350-TH","2018/09/08 17:39:45","新北市新莊區中華路一段28號","121.452023333333","25.03745","6500500","新莊區"
"242015","351-TH","2018/09/08 17:39:56","新北市新莊區新泰路253號","121.446195","25.0398033333333","6500500","新莊區"
"238015","755-BX","2018/09/08 17:39:55","新北市樹林區樹德街99號","121.419986666667","24.992395","6500700","樹林區"
"238023","601-UM","2018/09/08 17:39:49","新北市樹林區三福街72號","121.40477","25.01631","6500700","樹林區"
"238019","599-UM","2018/09/08 17:39:43","新北市樹林區太平路70號","121.419146666667","24.98045","6500700","樹林區"
"238018","571-TV","2018/09/08 17:39:54","新北市樹林區鎮前街8號","121.426256666667","24.993555","6500700","樹林區"
"238024","5061-A6","2018/09/08 17:39:46","新北市樹林區八德街226-6號","121.415038333333","24.9712866666667","6500700","樹林區"
"238022","KEA-2213","2018/09/08 17:39:40","新北市樹林區中華路187巷10號","121.4205","24.98141","6500700","樹林區"
"238021","KEA-2539","2018/09/08 17:39:50","新北市樹林區柑園街一段253巷26號","121.39695","24.953425","6500700","樹林區"
"238025","303-VK","2018/09/08 17:39:43","新北市樹林區保安街二段305號","121.412565","25.00656","6500700","樹林區"
"238017","283-BY","2018/09/08 17:39:39","新北市樹林區三德街14號","121.41349","25.01294","6500700","樹林區"
"238014","282-BY","2018/09/08 17:39:43","新北市樹林區保安街一段313巷18號","121.417271666667","24.997515","6500700","樹林區"
"238020","268-VK","2018/09/08 17:39:57","新北市樹林區俊英街142號","121.427","25.0062116666667","6500700","樹林區"
"238026","172-UY","2018/09/08 17:39:43","新北市樹林區新興街19巷34弄7號","121.402208333333","24.9732433333333","6500700","樹林區"
"238016","169-UY","2018/09/08 17:39:43","新北市樹林區復興路236號","121.418613333333","24.9894533333333","6500700","樹林區"
"239007","AAC-297","2018/09/08 17:39:49","新北市鶯歌區鶯桃路182巷96弄19號","121.340251666667","24.9574666666667","6500800","鶯歌區"
"239006","891-R6","2018/09/08 17:39:49","新北市鶯歌區永和街56巷5號","121.333696666667","24.9678083333333","6500800","鶯歌區"
"239008","527-UM","2018/09/08 17:39:53","新北市鶯歌區大湖路732巷1弄4號","121.332641666667","24.9773583333333","6500800","鶯歌區"
"239005","526-UM","2018/09/08 17:39:56","新北市鶯歌區鳳吉四街45號","121.327348333333","24.9732466666667","6500800","鶯歌區"
"239001","417-VK","2018/09/08 17:39:44","新北市鶯歌區中正三路236號","121.33103","24.9373566666667","6500800","鶯歌區"
"239003","360-BY","2018/09/08 17:39:56","新北市鶯歌區鶯桃路208號","121.337358333333","24.95917","6500800","鶯歌區"
"239002","359-BY","2018/09/08 17:39:43","新北市鶯歌區南雅路497號","121.345361666667","24.9540383333333","6500800","鶯歌區"
"239004","193-VK","2018/09/08 17:39:54","新北市鶯歌區三鶯路87號","121.358638333333","24.9435633333333","6500800","鶯歌區"
"221008","489-VK","2018/09/08 17:39:51","新北市汐止區康寧街901號","121.651386666667","25.07504","6501100","汐止區"
"221015","131-UY","2018/09/08 17:39:46","新北市汐止區康寧街901號","121.65073","25.0753016666667","6501100","汐止區"
"221010","269-BY","2018/09/08 17:39:41","新北市汐止區汐萬路一段418巷22號","121.650288333333","25.078565","6501100","汐止區"
"221023","279-VK","2018/09/08 17:39:49","新北市汐止區康寧街901號","121.65173","25.0749683333333","6501100","汐止區"
"221032","280-BY","2018/09/08 17:39:39","新北市汐止區工建路100號","121.639551666667","25.0637866666667","6501100","汐止區"
"221021","299-VK","2018/09/08 17:39:46","新北市汐止區康寧街901號","121.650873333333","25.07528","6501100","汐止區"
"221031","353-TW","2018/09/08 17:39:46","新北市汐止區連峰街1巷2號","121.647023333333","25.0761633333333","6501100","汐止區"
