"lineid","car","time","location","longitude","latitude","cityid","cityname"
"234026","9371-KE","2018/09/08 17:49:58","新北市永和區中山路一段35號","121.513198333333","25.0103066666667","6500400","永和區"
"249005","172-UM","2018/09/08 17:49:48","新北市八里區荖阡坑路34-3號","121.402303333333","25.1316","6502300","八里區"
"249001","173-UM","2018/09/08 17:49:39","新北市八里區龍米路二段135號","121.444806666667","25.148085","6502300","八里區"
"249004","303-UY","2018/09/08 17:49:38","新北市八里區中華路一段309巷19-11號","121.417101666667","25.1534383333333","6502300","八里區"
"249002","305-UY","2018/09/08 17:49:55","新北市八里區龍形五街37巷6號","121.448903333333","25.1326283333333","6502300","八里區"
"249003","593-UM","2018/09/08 17:49:55","新北市八里區中山路二段119號","121.405506666667","25.1519583333333","6502300","八里區"
"248008","095-VK","2018/09/08 17:49:49","新北市五股區中興路二段83巷26-6號","121.460073333333","25.0753066666667","6501500","五股區"
"232011","375-UM","2018/09/08 17:49:52","新北市坪林區北宜路八段192號","121.708043333333","24.9346833333333","6502000","坪林區"
"244013","069-UM","2018/09/08 17:49:51","新北市林口區興林路221巷27號","121.389758333333","25.071765","6501700","林口區"
"244007","080-UY","2018/09/08 17:49:53","新北市林口區佳林路33號","121.386675","25.081955","6501700","林口區"
"244019","403-UM","2018/09/08 17:49:56","新北市林口區忠孝路552巷17-1號","121.374125","25.067235","6501700","林口區"
"244013","KEA-2802","2018/09/08 17:49:38","新北市林口區佳林路130號","121.384988333333","25.07817","6501700","林口區"
"244017","485-VK","2018/09/08 17:49:38","新北市林口區文化二路一段230巷5號","121.370645","25.0720833333333","6501700","林口區"
"244009","656-BX","2018/09/08 17:49:46","新北市林口區林口路222號","121.386881666667","25.08373","6501700","林口區"
"244011","657-BX","2018/09/08 17:49:53","新北市林口區竹林路48號","121.387008333333","25.0774866666667","6501700","林口區"
"244025","837-TS","2018/09/08 17:49:58","新北市林口區文化三路一段165號","121.361496666667","25.0691016666667","6501700","林口區"
"244021","838-TS","2018/09/08 17:49:56","新北市林口區仁愛路一段145號","121.398636666667","25.071755","6501700","林口區"
"243003","KEA-2215","2018/09/08 17:49:40","新北市泰山區泰林路三段17巷3號","121.420368333333","25.0639733333333","6501600","泰山區"
"222002","659-BX","2018/09/08 17:49:37","新北市深坑區平埔街22巷8號","121.614901666667","25.0009183333333","6501800","深坑區"
"231046","107-UY","2018/09/08 17:49:49","新北市新店區康雅崙路50-1號","121.534218333333","24.9268033333333","6500600","新店區"
"231055","AKT-0513","2018/09/08 17:49:53","新北市新店區安華路28-1號","121.519428333333","24.96079","6500600","新店區"
"241024","065-VK","2018/09/08 17:49:46","新北市三重區車路頭街60號","121.48369","25.07254","6500200","三重區"
"241016","266-UM","2018/09/08 17:49:45","新北市三重區新北大道一段3-1號","121.490198333333","25.0614883333333","6500200","三重區"
"241005","887-TS","2018/09/08 17:49:49","新北市三重區集賢路8號","121.494388333333","25.0872","6500200","三重區"
"241012","941-UM","2018/09/08 17:49:44","新北市三重區龍濱路285號","121.501083333333","25.07334","6500200","三重區"
"241033","AAC-255","2018/09/08 17:49:50","新北市三重區光復路一段1號","121.47215","25.0468433333333","6500200","三重區"
"235063","006-UY","2018/09/08 17:49:45","新北市中和區員山路36巷16-3號","121.485036666667","24.9913583333333","6500300","中和區"
"235065","098-UM","2018/09/08 17:49:39","新北市中和區新生街278號","121.483721666667","24.99681","6500300","中和區"
"235058","151-BY","2018/09/08 17:49:54","新北市中和區員山路36巷16-2號","121.48523","24.991705","6500300","中和區"
"247012","KEA-2869","2018/09/08 17:49:40","新北市蘆洲區復興路113號","121.477238333333","25.0881133333333","6501400","蘆洲區"
"235069","4980-A6","2018/09/08 17:49:47","新北市中和區員山路36巷16-2號","121.485338333333","24.991815","6500300","中和區"
"235064","551-UM","2018/09/08 17:49:47","新北市中和區員山路36巷16-3號","121.485141666667","24.991435","6500300","中和區"
"247002","893-R6","2018/09/08 17:49:41","新北市蘆洲區永平街32巷33弄30號","121.458266666667","25.092685","6501400","蘆洲區"
"247016","546-UM","2018/09/08 17:49:48","新北市蘆洲區中正路185巷25弄12號","121.466998333333","25.0839833333333","6501400","蘆洲區"
"247024","500-BY","2018/09/08 17:49:50","新北市蘆洲區光榮路61巷20號","121.461148333333","25.0889033333333","6501400","蘆洲區"
"247014","339-TH","2018/09/08 17:49:42","新北市蘆洲區保和街22號","121.470681666667","25.0866166666667","6501400","蘆洲區"
"247006","337-TH","2018/09/08 17:49:49","新北市蘆洲區九芎街136號","121.464995","25.0789966666667","6501400","蘆洲區"
"247008","336-TH","2018/09/08 17:49:44","新北市蘆洲區中山一路223巷14號","121.474053333333","25.0803133333333","6501400","蘆洲區"
"247020","057-VK","2018/09/08 17:49:46","新北市蘆洲區民族路345巷23號","121.472185","25.091195","6501400","蘆洲區"
"247010","056-VK","2018/09/08 17:49:51","新北市蘆洲區信義路208號","121.479028333333","25.0849133333333","6501400","蘆洲區"
"247018","007-UY","2018/09/08 17:49:44","新北市蘆洲區復興路227巷2弄11號","121.480546666667","25.09027","6501400","蘆洲區"
"247004","002-UY","2018/09/08 17:49:44","新北市蘆洲區長榮路211巷8號","121.46038","25.084785","6501400","蘆洲區"
"247022","001-UY","2018/09/08 17:49:53","新北市蘆洲區中正路401號","121.463728333333","25.092365","6501400","蘆洲區"
"228003","097-TW","2018/09/08 17:49:45","新北市貢寮區真理里延平街143-1號","121.924958333333","25.057625","6502600","貢寮區"
"228001","212-TW","2018/09/08 17:49:41","新北市貢寮區仁理村仁愛路95-1號","121.927666666667","25.0554616666667","6502600","貢寮區"
"228002","663-BX","2018/09/08 17:49:48","新北市貢寮區福隆里龜壽谷街26號","121.952551666667","25.0090183333333","6502600","貢寮區"
"224006","676-BX","2018/09/08 17:49:41","新北市瑞芳區瑞興新村12巷1號","121.788446666667","25.1083233333333","6501200","瑞芳區"
"224002","639-TC","2018/09/08 17:49:43","新北市瑞芳區明燈路二段46號","121.80964","25.1080983333333","6501200","瑞芳區"
"224008","285-BY","2018/09/08 17:49:53","新北市瑞芳區明燈路一段6號","121.823105","25.1073883333333","6501200","瑞芳區"
"224009","273-VK","2018/09/08 17:49:51","新北市瑞芳區山尖路2號","121.854751666667","25.1160766666667","6501200","瑞芳區"
"224005","271-BY","2018/09/08 17:49:44","新北市瑞芳區瑞濱路1-8號","121.828241666667","25.1216533333333","6501200","瑞芳區"
"227010","642-TC","2018/09/08 17:36:03","新北市雙溪區三貂里定福路1-2號","121.85075","25.0634216666667","6502500","雙溪區"
"253006","032-BX","2018/09/08 17:49:57","新北市石門區中山路64-1號","121.567528333333","25.2905816666667","6502200","石門區"
"222001","KEA-2212","2018/09/08 17:49:42","新北市深坑區北深路三段25巷15-2號","121.608723333333","24.99953","6501800","深坑區"
"208002","KEA-2872","2018/09/08 17:49:53","新北市金山區磺清路121號","121.639585","25.227995","6502700","金山區"
"208003","665-BX","2018/09/08 17:49:52","新北市金山區磺清路135號","121.639333333333","25.2276616666667","6502700","金山區"
"251009","008-UM","2018/09/08 17:49:46","新北市淡水區長興街55號","121.444281666667","25.17196","6501000","淡水區"
"251004","009-UM","2018/09/08 17:49:53","新北市淡水區民權一街18號","121.458881666667","25.1370033333333","6501000","淡水區"
"251005","010-UM","2018/09/08 17:49:41","新北市淡水區學府路102巷5-3號","121.450601666667","25.1719683333333","6501000","淡水區"
"251001","011-UM","2018/09/08 17:49:55","新北市淡水區民權路92巷35-1號","121.462171666667","25.1266466666667","6501000","淡水區"
"251002","012-UM","2018/09/08 17:49:44","新北市淡水區中山路70-1號","121.443155","25.17058","6501000","淡水區"
"251013","KEA-2871","2018/09/08 17:49:39","新北市淡水區社厝坑3-8號","121.475073333333","25.1895116666667","6501000","淡水區"
"251016","179-VK","2018/09/08 17:49:56","新北市淡水區埤島39-15號","121.452785","25.195855","6501000","淡水區"
"251014","180-VK","2018/09/08 17:49:52","新北市淡水區公埔子16-6號","121.48102","25.2245983333333","6501000","淡水區"
"251015","181-VK","2018/09/08 17:49:55","新北市淡水區興福寮33號","121.488781666667","25.1618083333333","6501000","淡水區"
"251010","413-VK","2018/09/08 17:49:52","新北市淡水區淡海路280巷33弄34-2號","121.418718333333","25.188625","6501000","淡水區"
"251012","441-VK","2018/09/08 17:49:44","新北市淡水區北新路一段3-1號","121.475451666667","25.185125","6501000","淡水區"
"251008","443-VK","2018/09/08 17:49:44","新北市淡水區八勢路一段125-1號","121.467058333333","25.15669","6501000","淡水區"
"251006","561-UM","2018/09/08 17:49:40","新北市淡水區中山北路一段53號","121.441183333333","25.175955","6501000","淡水區"
"251007","577-R6","2018/09/08 17:49:49","新北市淡水區民生路16巷1號","121.46104","25.137505","6501000","淡水區"
"251011","650-BX","2018/09/08 17:44:57","新北市淡水區吳(仔)厝10-3號","121.481621666667","25.1484933333333","6501000","淡水區"
"251003","673-BX","2018/09/08 17:49:52","新北市淡水區大忠街5巷1號","121.443125","25.176405","6501000","淡水區"
"207003","550-UM","2018/09/08 17:49:46","新北市萬里區野柳里東澳路66號","121.692798333333","25.2009966666667","6502800","萬里區"
"207004","225-TW","2018/09/08 17:49:43","新北市萬里區萬里里瑪鋉頂街61號","121.688406666667","25.1804866666667","6502800","萬里區"
"252002","178-VK","2018/09/08 17:49:36","新北市三芝區智成街10號","121.502973333333","25.256745","6502100","三芝區"
"252001","292-VK","2018/09/08 17:49:39","新北市三芝區中興街一段12號","121.497418333333","25.25889","6502100","三芝區"
"237007","153-BY","2018/09/08 17:49:56","新北市三峽區中園街217號","121.366998333333","24.9202383333333","6500900","三峽區"
"237009","210-TH","2018/09/08 17:49:44","新北市三峽區大勇路3巷27號","121.367771666667","24.9368016666667","6500900","三峽區"
"237013","252-BX","2018/09/08 17:49:51","新北市三峽區介壽路一段109號","121.375893333333","24.9321366666667","6500900","三峽區"
"237012","275-BY","2018/09/08 17:49:48","新北市三峽區民生街77號","121.37482","24.9359116666667","6500900","三峽區"
"237008","302-VK","2018/09/08 17:49:43","新北市三峽區正義街2號","121.36978","24.920125","6500900","三峽區"
"237014","433-BY","2018/09/08 17:49:39","新北市三峽區復興路101巷1弄59-1號","121.371348333333","24.937055","6500900","三峽區"
"237006","5529-G3","2018/09/08 17:49:50","新北市三峽區介壽路二段65號","121.390965","24.9353583333333","6500900","三峽區"
"237011","KEA-2596","2018/09/08 17:49:45","新北市三峽區大同路184號","121.372275","24.9269666666667","6500900","三峽區"
"237016","649-BX","2018/09/08 17:49:45","新北市三峽區白雞129-1號","121.396805","24.90761","6500900","三峽區"
"237010","706-TV","2018/09/08 17:49:52","新北市三峽區文化路212-3號","121.368515","24.9360033333333","6500900","三峽區"
"237005","AKY-6261","2018/09/08 17:49:39","新北市三峽區中山路126號","121.365538333333","24.9360616666667","6500900","三峽區"
"236070","105-UM","2018/09/08 17:49:55","新北市土城區青雲路643號","121.461446666667","24.9674116666667","6501300","土城區"
"236042","107-UM","2018/09/08 17:49:44","新北市土城區城林路6巷80號","121.4386","24.9797183333333","6501300","土城區"
"236079","166-UM","2018/09/08 17:49:39","新北市土城區中華路二段184號","121.437488333333","24.97142","6501300","土城區"
"236026","269-VK","2018/09/08 17:49:58","新北市土城區中華路二段198號","121.437581666667","24.9701033333333","6501300","土城區"
"236014","270-VK","2018/09/08 17:49:45","新北市土城區城林路6巷80號","121.438453333333","24.979615","6501300","土城區"
"236038","271-VK","2018/09/08 17:49:38","新北市土城區城林路6巷80號","121.438531666667","24.97961","6501300","土城區"
"236021","401-BY","2018/09/08 17:49:51","新北市土城區城林路6巷80號","121.438623333333","24.9798216666667","6501300","土城區"
"236049","913-UM","2018/09/08 17:49:57","新北市土城區城林路6巷80號","121.438541666667","24.979775","6501300","土城區"
"236063","915-UM","2018/09/08 17:49:47","新北市土城區城林路6巷80號","121.438568333333","24.9796233333333","6501300","土城區"
"236055","AAC-216","2018/09/08 17:49:42","新北市土城區城林路6巷80號","121.438521666667","24.9796216666667","6501300","土城區"
"242036","AAC-296","2018/09/08 17:49:53","新北市新莊區後港一路112號","121.428493333333","25.026965","6500500","新莊區"
"242058","986-R7","2018/09/08 17:49:52","新北市新莊區中正路722-1號","121.416058333333","25.0248333333333","6500500","新莊區"
"242056","751-BX","2018/09/08 17:49:49","新北市新莊區豐年街57號","121.446681666667","25.030515","6500500","新莊區"
"242027","615-BX","2018/09/08 17:49:58","新北市新莊區福壽街155號","121.458055","25.0532666666667","6500500","新莊區"
"242025","613-BX","2018/09/08 17:49:45","新北市三重區光復路二段178-8號","121.470803333333","25.0616483333333","6500500","新莊區"
"242044","566-BX","2018/09/08 17:49:43","新北市新莊區中正路871巷11號","121.418915","25.0268133333333","6500500","新莊區"
"242048","497-BY","2018/09/08 17:49:55","新北市新莊區萬安街115號","121.420833333333","25.0227016666667","6500500","新莊區"
"242053","441-UM","2018/09/08 17:49:54","新北市新莊區民安西路411號","121.430696666667","25.0089216666667","6500500","新莊區"
"242002","440-UM","2018/09/08 17:49:43","新北市新莊區景德路174號","121.450193333333","25.03416","6500500","新莊區"
"242039","415-TV","2018/09/08 17:49:42","新北市新莊區民安東路2號","121.427771666667","25.0209566666667","6500500","新莊區"
"242009","413-TV","2018/09/08 17:49:46","新北市新莊區昌明街42-2號","121.456106666667","25.0523183333333","6500500","新莊區"
"242023","362-BY","2018/09/08 17:49:51","新北市新莊區福樂街42號","121.457806666667","25.045705","6500500","新莊區"
"242061","353-BY","2018/09/08 17:49:39","新北市新莊區新樹路601號","121.433183333333","25.005875","6500500","新莊區"
"242042","133-UY","2018/09/08 17:49:54","新北市新莊區建國一路7號","121.43372","25.031835","6500500","新莊區"
"242034","135-UY","2018/09/08 17:49:56","新北市新莊區新莊路592號","121.444045","25.03291","6500500","新莊區"
"242051","172-VK","2018/09/08 17:49:38","新北市新莊區西盛街231巷22號","121.428935","25.0163066666667","6500500","新莊區"
"242019","175-VK","2018/09/08 17:49:39","新北市新莊區復興路二段31號","121.454275","25.0440383333333","6500500","新莊區"
"242007","176-VK","2018/09/08 17:49:42","新北市新莊區福樂街132巷18號","121.456925","25.0487166666667","6500500","新莊區"
"242017","346-TH","2018/09/08 17:49:56","新北市新莊區永安街48號","121.451458333333","25.0447366666667","6500500","新莊區"
"242046","347-TH","2018/09/08 17:49:46","新北市新莊區建國一路46號","121.433945","25.0312233333333","6500500","新莊區"
"242031","348-TH","2018/09/08 17:49:51","新北市新莊區新泰路357巷1弄2號","121.44272","25.041305","6500500","新莊區"
"242004","349-TH","2018/09/08 17:49:38","新北市新莊區自立街248號","121.45879","25.04553","6500500","新莊區"
"242021","350-TH","2018/09/08 17:49:51","新北市新莊區中華路一段128號","121.452586666667","25.04093","6500500","新莊區"
"242015","351-TH","2018/09/08 17:49:56","新北市新莊區新泰路442號","121.443333333333","25.0447033333333","6500500","新莊區"
"238015","755-BX","2018/09/08 17:49:49","新北市樹林區復興路72號","121.421966666667","24.9935666666667","6500700","樹林區"
"238023","601-UM","2018/09/08 17:46:01","新北市樹林區龍興街30號","121.402751666667","25.015875","6500700","樹林區"
"238019","599-UM","2018/09/08 17:49:43","新北市樹林區太平路148號","121.418596666667","24.9781566666667","6500700","樹林區"
"238018","571-TV","2018/09/08 17:49:53","新北市樹林區博愛街182號","121.425725","24.9905033333333","6500700","樹林區"
"238022","KEA-2213","2018/09/08 17:49:40","新北市樹林區太順街62巷3弄2號","121.417456666667","24.9797083333333","6500700","樹林區"
"238021","KEA-2539","2018/09/08 17:49:50","新北市樹林區田尾街1-5號","121.406481666667","24.9620716666667","6500700","樹林區"
"238025","303-VK","2018/09/08 17:49:43","新北市樹林區三俊街166號","121.417225","25.01547","6500700","樹林區"
"238017","283-BY","2018/09/08 17:49:39","新北市樹林區三俊街146號","121.416471666667","25.0153066666667","6500700","樹林區"
"238014","282-BY","2018/09/08 17:49:43","新北市樹林區大安路145巷1號","121.42228","24.9967333333333","6500700","樹林區"
"238020","268-VK","2018/09/08 17:49:57","新北市樹林區俊英街276號","121.424065","25.0128366666667","6500700","樹林區"
"238026","172-UY","2018/09/08 17:49:43","新北市樹林區新興街19巷2弄31號","121.401865","24.9730216666667","6500700","樹林區"
"238016","169-UY","2018/09/08 17:49:22","新北市樹林區復興路365號","121.417095","24.9871983333333","6500700","樹林區"
"239007","AAC-297","2018/09/08 17:49:49","新北市鶯歌區永利街36號","121.339461666667","24.954535","6500800","鶯歌區"
"239006","891-R6","2018/09/08 17:49:49","新北市鶯歌區鶯桃路413巷42號","121.330756666667","24.9634166666667","6500800","鶯歌區"
"239008","527-UM","2018/09/08 17:49:54","新北市鶯歌區香賓街11巷1號","121.336763333333","24.9793466666667","6500800","鶯歌區"
"239005","526-UM","2018/09/08 17:49:56","新北市鶯歌區鶯桃路二段12號","121.326138333333","24.972085","6500800","鶯歌區"
"239001","417-VK","2018/09/08 17:49:44","新北市鶯歌區中正三路471號","121.321633333333","24.9344616666667","6500800","鶯歌區"
"239003","360-BY","2018/09/08 17:49:56","新北市鶯歌區永吉街46巷5號","121.335353333333","24.9573733333333","6500800","鶯歌區"
"239002","359-BY","2018/09/08 17:49:43","新北市鶯歌區光明街107號","121.34446","24.9557933333333","6500800","鶯歌區"
"239004","193-VK","2018/09/08 17:49:54","新北市鶯歌區文化路136巷58號","121.350348333333","24.9499033333333","6500800","鶯歌區"
"221008","489-VK","2018/09/08 17:49:51","新北市汐止區康寧街901號","121.651366666667","25.075","6501100","汐止區"
"221036","130-UY","2018/09/08 17:49:41","新北市汐止區汐萬路一段7號","121.65603","25.0673966666667","6501100","汐止區"
"221015","131-UY","2018/09/08 17:49:56","新北市汐止區長江街255巷6號","121.66406","25.079785","6501100","汐止區"
"221010","269-BY","2018/09/08 17:49:41","新北市汐止區汐萬路二段122巷22號","121.648548333333","25.0859783333333","6501100","汐止區"
"221012","278-VK","2018/09/08 17:49:47","新北市汐止區長江街83號","121.657443333333","25.0723566666667","6501100","汐止區"
"221023","279-VK","2018/09/08 17:49:49","新北市汐止區民族一街18號","121.634955","25.0711183333333","6501100","汐止區"
"221032","280-BY","2018/09/08 17:49:39","新北市汐止區民權街一段16號","121.621318333333","25.0536","6501100","汐止區"
"221027","281-BY","2018/09/08 17:49:42","新北市汐止區汐萬路一段191號","121.652465","25.0717166666667","6501100","汐止區"
"221033","297-VK","2018/09/08 17:49:48","新北市汐止區林森街76號","121.623546666667","25.0406633333333","6501100","汐止區"
"221021","299-VK","2018/09/08 17:49:46","新北市汐止區水源路一段31號","121.657178333333","25.0665433333333","6501100","汐止區"
"221031","353-TW","2018/09/08 17:49:46","新北市汐止區中興路96巷1-3號","121.635408333333","25.06254","6501100","汐止區"
"221035","622-UM","2018/09/08 17:49:42","新北市汐止區汐萬路一段211巷15號","121.651526666667","25.0718716666667","6501100","汐止區"
"221025","623-UM","2018/09/08 17:49:38","新北市汐止區新台五路一段131號","121.652305","25.0619616666667","6501100","汐止區"
"221038","646-BX","2018/09/08 17:49:45","新北市汐止區大同路二段273號","121.65238","25.06759","6501100","汐止區"
"221018","753-BX","2018/09/08 17:49:49","新北市汐止區大同路二段341-1號","121.656038333333","25.06709","6501100","汐止區"
