"lineid","car","time","location","longitude","latitude","cityid","cityname"
"234030","746-BX","2018/09/08 18:19:15","新北市永和區福和路1號","121.52647","25.0097983333333","6500400","永和區"
"234026","9371-KE","2018/09/08 18:19:18","新北市永和區豫溪街28巷19號","121.515133333333","25.009","6500400","永和區"
"249005","172-UM","2018/09/08 18:19:08","新北市八里區荖阡坑路15-2號","121.400718333333","25.1401583333333","6502300","八里區"
"249001","173-UM","2018/09/08 18:19:19","新北市八里區龍米路一段135號","121.452123333333","25.1269833333333","6502300","八里區"
"249004","303-UY","2018/09/08 18:19:18","新北市八里區觀海大道37號","121.42942","25.1608666666667","6502300","八里區"
"249002","305-UY","2018/09/08 18:19:16","新北市八里區龍形二街52號","121.450225","25.1329816666667","6502300","八里區"
"248014","025-BX","2018/09/08 18:19:08","新北市五股區自強路19巷11號","121.434691666667","25.0736816666667","6501500","五股區"
"248006","077-UY","2018/09/08 18:19:26","新北市五股區中興路一段142-2號","121.464876666667","25.0737883333333","6501500","五股區"
"248008","095-VK","2018/09/08 18:19:09","新北市五股區更洲路32巷8弄14號","121.459265","25.0796516666667","6501500","五股區"
"248020","225-UY","2018/09/08 18:19:20","新北市五股區孝義路45號","121.454223333333","25.1105283333333","6501500","五股區"
"248012","247-BX","2018/09/08 18:19:26","新北市五股區御成路12號","121.441835","25.0911833333333","6501500","五股區"
"248016","261-SL","2018/09/08 18:19:14","新北市五股區西雲路293號","121.449428333333","25.099205","6501500","五股區"
"248010","272-BY","2018/09/08 18:19:23","新北市五股區成泰路一段139巷2弄6號","121.435108333333","25.0731066666667","6501500","五股區"
"248004","677-BX","2018/09/08 18:19:11","新北市五股區成泰路二段222-4號","121.439371666667","25.08563","6501500","五股區"
"248002","678-BX","2018/09/08 18:19:20","新北市五股區西雲路34號","121.443443333333","25.0907933333333","6501500","五股區"
"244013","069-UM","2018/09/08 18:19:11","新北市林口區東湖路117巷22號","121.38331","25.0724483333333","6501700","林口區"
"244007","080-UY","2018/09/08 18:19:13","新北市林口區林口路113巷47號","121.387921666667","25.0798416666667","6501700","林口區"
"244019","403-UM","2018/09/08 18:19:16","新北市林口區忠孝路586巷3號","121.375703333333","25.068235","6501700","林口區"
"244013","KEA-2802","2018/09/08 18:19:23","新北市林口區中山路202-1號","121.387536666667","25.0792466666667","6501700","林口區"
"244017","485-VK","2018/09/08 18:19:18","新北市林口區八德路45號","121.366773333333","25.06605","6501700","林口區"
"244009","656-BX","2018/09/08 18:19:06","新北市林口區民生路131巷1號","121.377421666667","25.0884883333333","6501700","林口區"
"244011","657-BX","2018/09/08 18:19:13","新北市林口區中正路74巷5弄4號","121.394551666667","25.0780316666667","6501700","林口區"
"244025","837-TS","2018/09/08 18:19:18","新北市林口區南勢七街51號","121.355661666667","25.0691566666667","6501700","林口區"
"244021","838-TS","2018/09/08 18:19:16","新北市林口區自強八街2號","121.40071","25.07645","6501700","林口區"
"243013","AAD-798","2018/09/08 18:19:16","新北市泰山區明志路三段196巷41號","121.42065","25.0398583333333","6501600","泰山區"
"243011","KEA-2215","2018/09/08 18:12:50","新北市泰山區黎明路31號","121.4216","25.0609016666667","6501600","泰山區"
"222003","436-BY","2018/09/08 18:19:18","新北市深坑區旺耽路67號","121.62626","25.0030133333333","6501800","深坑區"
"222002","659-BX","2018/09/08 18:19:17","新北市深坑區文化街17巷7弄18號","121.621068333333","25.0005133333333","6501800","深坑區"
"231041","002-UM","2018/09/08 18:19:10","新北市新店區安華路28-1號","121.51977","24.96086","6500600","新店區"
"231040","047-UY","2018/09/08 18:19:16","新北市新店區安一路一段1-1號","121.519128333333","24.9609833333333","6500600","新店區"
"231046","107-UY","2018/09/08 18:19:09","新北市新店區直潭七街60號","121.532325","24.93987","6500600","新店區"
"231052","108-UY","2018/09/08 18:19:14","新北市新店區安康路一段35-5號","121.531966666667","24.9606433333333","6500600","新店區"
"231048","187-VK","2018/09/08 18:19:12","新北市新店區安一路一段1-1號","121.51967","24.9612316666667","6500600","新店區"
"231054","KEA-2219","2018/09/08 18:19:27","新北市新店區安一路一段1-1號","121.519868333333","24.9614866666667","6500600","新店區"
"231057","256-BX","2018/09/08 18:19:15","新北市新店區安一路一段1-1號","121.51969","24.9611716666667","6500600","新店區"
"231042","268-BY","2018/09/08 18:19:27","新北市新店區安華路28-1號","121.519531666667","24.9606483333333","6500600","新店區"
"231051","278-BY","2018/09/08 18:16:10","新北市新店區安一路一段1-1號","121.51975","24.9611333333333","6500600","新店區"
"231050","AAD-862","2018/09/08 18:19:15","新北市新店區安一路一段1-1號","121.519855","24.9611133333333","6500600","新店區"
"231058","3713-VJ","2018/09/08 18:19:13","新北市新店區環河路5號","121.538105","24.961265","6500600","新店區"
"231056","4715-K9","2018/09/08 18:19:15","新北市新店區中央路57號","121.532776666667","24.9774","6500600","新店區"
"231067","4772-VM","2018/09/08 18:19:25","新北市新店區安華路28-1號","121.519256666667","24.9606616666667","6500600","新店區"
"231049","513-UM","2018/09/08 18:19:22","新北市新店區安一路一段1-1號","121.519775","24.9612466666667","6500600","新店區"
"231045","617-UM","2018/09/08 18:19:25","新北市新店區安一路一段1-1號","121.51942","24.96108","6500600","新店區"
"231061","619-UM","2018/09/08 18:19:22","新北市新店區安華路28-1號","121.519641666667","24.9608416666667","6500600","新店區"
"231063","641-BX","2018/09/08 18:19:18","新北市新店區安華路28-1號","121.519645","24.9605916666667","6500600","新店區"
"231062","720-UM","2018/09/08 18:19:17","新北市新店區安一路一段1-1號","121.519378333333","24.96141","6500600","新店區"
"231060","897-TW","2018/09/08 18:19:26","新北市新店區安華路28-1號","121.51976","24.9606866666667","6500600","新店區"
"231043","899-TW","2018/09/08 18:19:18","新北市新店區安康路一段359-27號","121.518745","24.9609233333333","6500600","新店區"
"231055","AKT-0513","2018/09/08 18:19:13","新北市新店區北新路一段303號","121.54157","24.9675433333333","6500600","新店區"
"241033","AAC-255","2018/09/08 18:19:10","新北市三重區光復路一段66號","121.471918333333","25.04907","6500200","三重區"
"235066","003-UY","2018/09/08 18:19:10","新北市中和區中山路二段120號","121.502836666667","25.0038283333333","6500300","中和區"
"235063","006-UY","2018/09/08 18:19:25","新北市中和區中正路525號","121.488035","24.993715","6500300","中和區"
"235056","096-UM","2018/09/08 18:19:27","新北市中和區中山路二段594號","121.482353333333","25.0056366666667","6500300","中和區"
"235039","097-UM","2018/09/08 18:19:09","新北市中和區安平路30號","121.509548333333","24.994725","6500300","中和區"
"235065","098-UM","2018/09/08 18:19:19","新北市中和區莊敬路49巷18號","121.501656666667","25.00618","6500300","中和區"
"235040","150-BY","2018/09/08 18:19:17","新北市中和區景安路68號","121.505775","24.9967283333333","6500300","中和區"
"235058","151-BY","2018/09/08 18:19:14","新北市中和區圓通路369巷35號","121.48893","24.9868916666667","6500300","中和區"
"235055","183-VK","2018/09/08 18:19:18","新北市中和區中正路637巷52弄1號","121.485463333333","24.9933816666667","6500300","中和區"
"235038","185-VK","2018/09/08 18:19:27","新北市中和區大智街109巷7號","121.523373333333","24.9925783333333","6500300","中和區"
"235049","186-VK","2018/09/08 18:19:15","新北市中和區中正路501號","121.488786666667","24.9935416666667","6500300","中和區"
"235067","255-BX","2018/09/08 18:00:09","新北市中和區和城路一段271巷1號","121.485738333333","24.9917316666667","6500300","中和區"
"235044","293-VK","2018/09/08 18:19:24","新北市中和區中正路395號","121.48982","24.9935716666667","6500300","中和區"
"235072","301-VK","2018/09/08 18:19:21","新北市中和區連城路261-4號","121.49219","24.99655","6500300","中和區"
"235043","352-BY","2018/09/08 18:19:27","新北市中和區景平路379號","121.50401","24.993305","6500300","中和區"
"235042","KEA-2878","2018/09/08 18:19:24","新北市中和區大仁街44號","121.518353333333","24.993865","6500300","中和區"
"235050","4979-A6","2018/09/08 18:19:20","新北市中和區捷運路102號","121.505615","24.9915016666667","6500300","中和區"
"235069","4980-A6","2018/09/08 18:19:28","新北市中和區連城路127巷4弄1號","121.496346666667","24.998815","6500300","中和區"
"235064","551-UM","2018/09/08 18:19:27","新北市中和區圓通路169號","121.497646666667","24.995415","6500300","中和區"
"235070","558-UM","2018/09/08 18:19:22","新北市中和區圓通路72號","121.50022","24.99725","6500300","中和區"
"235045","565-BX","2018/09/08 18:19:12","新北市中和區景安路200巷1弄2號","121.503741666667","24.99145","6500300","中和區"
"235054","640-BX","2018/09/08 18:19:25","新北市中和區莒光路203號","121.472311666667","24.998615","6500300","中和區"
"235047","732-UM","2018/09/08 18:18:25","新北市中和區南山路250巷1號","121.507623333333","24.9890633333333","6500300","中和區"
"235046","733-UM","2018/09/08 18:19:22","新北市中和區中正路589巷15號","121.48558","24.9933366666667","6500300","中和區"
"235062","800-TS","2018/09/08 18:19:08","新北市中和區景平路999巷1號","121.495513333333","25.0059833333333","6500300","中和區"
"235057","801-TS","2018/09/08 18:19:13","新北市中和區民享街97巷19號","121.475373333333","24.99956","6500300","中和區"
"235041","802-TS","2018/09/08 18:19:27","新北市中和區錦和路350-1號","121.490388333333","24.993585","6500300","中和區"
"235052","805-TS","2018/09/08 18:19:13","新北市中和區捷運路8-2號","121.509616666667","24.9895416666667","6500300","中和區"
"235048","896-TW","2018/09/08 18:19:18","新北市中和區錦和路350-1號","121.49006","24.9935666666667","6500300","中和區"
"235053","900-TW","2018/09/08 18:19:27","新北市中和區中正路637巷52弄1號","121.485441666667","24.9933583333333","6500300","中和區"
"235060","911-UM","2018/09/08 18:19:17","新北市中和區員山路295號","121.481236666667","25.0000116666667","6500300","中和區"
"235051","157-BY","2018/09/08 18:19:12","新北市中和區興南路二段130號","121.50428","24.9835916666667","6500300","中和區"
"235037","AAC-213","2018/09/08 18:19:16","新北市中和區景德街67號","121.516805","24.99144","6500300","中和區"
"235059","AAC-215","2018/09/08 18:19:25","新北市中和區員山路36巷16-3號","121.484978333333","24.99101","6500300","中和區"
"226004","312-R5","2018/09/08 18:19:21","新北市平溪區靜安路二段22號","121.713053333333","25.02036","6502400","平溪區"
"228003","097-TW","2018/09/08 18:19:26","新北市貢寮區真理里美艷山街64號","121.919155","25.0728433333333","6502600","貢寮區"
"228001","212-TW","2018/09/08 18:19:21","新北市貢寮區真理里新港街26巷55弄2-1號","121.92743","25.0528716666667","6502600","貢寮區"
"228002","663-BX","2018/09/08 18:19:28","新北市貢寮區福連里馬崗街1號","121.994783333333","25.0146616666667","6502600","貢寮區"
"224006","676-BX","2018/09/08 18:19:21","新北市瑞芳區三爪子坑路106巷112號","121.808433333333","25.1045216666667","6501200","瑞芳區"
"224002","639-TC","2018/09/08 18:19:24","新北市瑞芳區三爪子坑路149巷32號","121.811763333333","25.1066433333333","6501200","瑞芳區"
"224011","420-VK","2018/09/08 18:18:55","新北市瑞芳區崙頂路1-6號","121.847048333333","25.10474","6501200","瑞芳區"
"224008","285-BY","2018/09/08 18:19:24","新北市瑞芳區逢甲路84號","121.809753333333","25.10873","6501200","瑞芳區"
"224007","275-VK","2018/09/08 18:19:28","新北市瑞芳區大埔路有勝新村1號","121.764963333333","25.1014566666667","6501200","瑞芳區"
"224009","273-VK","2018/09/08 18:19:10","新北市瑞芳區五號路16號","121.854853333333","25.1104016666667","6501200","瑞芳區"
"224005","271-BY","2018/09/08 18:19:24","新北市瑞芳區建基路二段83號","121.805775","25.1339566666667","6501200","瑞芳區"
"227010","642-TC","2018/09/08 18:19:26","新北市雙溪區牡丹里牡丹73號","121.85181","25.0593433333333","6502500","雙溪區"
"227002","400-TW","2018/09/08 18:19:14","新北市雙溪區共和里中山路8號","121.864783333333","25.033255","6502500","雙溪區"
"253006","032-BX","2018/09/08 18:19:10","新北市石門區老梅路78號","121.54701","25.2892","6502200","石門區"
"253005","295-VK","2018/09/08 18:19:15","新北市石門區中央路7號","121.56654","25.2916166666667","6502200","石門區"
"222001","KEA-2212","2018/09/08 18:19:23","新北市深坑區北深路二段66號","121.618905","25.0041416666667","6501800","深坑區"
"208002","KEA-2872","2018/09/08 18:19:13","新北市金山區海興路35號","121.62928","25.2364166666667","6502700","金山區"
"208003","665-BX","2018/09/08 18:19:12","新北市金山區民生路84號","121.648348333333","25.223815","6502700","金山區"
"208001","761-BX","2018/09/08 18:19:11","新北市金山區中山路16號","121.641655","25.2178483333333","6502700","金山區"
"251004","009-UM","2018/09/08 18:19:13","新北市淡水區民族路134號","121.463015","25.134675","6501000","淡水區"
"251005","010-UM","2018/09/08 18:19:21","新北市淡水區水源街一段122巷37號","121.447205","25.17047","6501000","淡水區"
"251001","011-UM","2018/09/08 18:19:15","新北市淡水區自強路108-19號","121.461603333333","25.131355","6501000","淡水區"
"251002","012-UM","2018/09/08 18:19:24","新北市淡水區中正東路一段59號","121.452588333333","25.162445","6501000","淡水區"
"251013","KEA-2871","2018/09/08 18:19:19","新北市淡水區後寮9號","121.477606666667","25.198805","6501000","淡水區"
"251016","179-VK","2018/09/08 18:19:20","新北市淡水區淡金路三段228巷22-7號","121.449945","25.2049266666667","6501000","淡水區"
"251014","180-VK","2018/09/08 18:19:12","新北市淡水區南平18號","121.491668333333","25.219335","6501000","淡水區"
"251015","181-VK","2018/09/08 18:19:15","新北市淡水區興福寮88巷1號","121.485343333333","25.1650133333333","6501000","淡水區"
"251010","413-VK","2018/09/08 18:19:12","新北市淡水區淡海路188號","121.420366666667","25.185165","6501000","淡水區"
"251012","441-VK","2018/09/08 18:19:24","新北市淡水區北新路二段77-5號","121.48057","25.1856033333333","6501000","淡水區"
"251008","443-VK","2018/09/08 18:19:24","新北市淡水區水源街二段346巷1弄1號","121.464421666667","25.175515","6501000","淡水區"
"251006","561-UM","2018/09/08 18:19:20","新北市淡水區新民街74號","121.438653333333","25.17643","6501000","淡水區"
"251007","577-R6","2018/09/08 17:59:21","新北市淡水區中正東路二段143巷2弄1號","121.460573333333","25.147325","6501000","淡水區"
"251011","650-BX","2018/09/08 18:19:17","新北市淡水區淡金路33-14號","121.45718","25.1619366666667","6501000","淡水區"
"251003","673-BX","2018/09/08 18:19:12","新北市淡水區北新路137號","121.44951","25.1788","6501000","淡水區"
"207003","550-UM","2018/09/08 18:19:26","新北市萬里區野柳里港東路6-3號","121.686661666667","25.2032733333333","6502800","萬里區"
"207004","225-TW","2018/09/08 18:19:23","新北市萬里區中幅里中福路125號","121.675753333333","25.1659416666667","6502800","萬里區"
"252002","178-VK","2018/09/08 18:19:16","新北市三芝區中山路二段39號","121.502931666667","25.2551083333333","6502100","三芝區"
"252003","249-BX","2018/09/08 18:19:17","新北市三芝區錫板里海尾14-33號","121.478231666667","25.2604133333333","6502100","三芝區"
"252001","292-VK","2018/09/08 18:19:19","新北市三芝區中興街二段2號","121.498443333333","25.2566233333333","6502100","三芝區"
"237004","KEA-2597","2018/09/08 18:19:25","新北市三峽區五寮4號","121.377938333333","24.8727516666667","6500900","三峽區"
"237007","153-BY","2018/09/08 18:19:16","新北市三峽區中正路三段70巷50號","121.355315","24.9048916666667","6500900","三峽區"
"237009","210-TH","2018/09/08 18:19:24","新北市三峽區中山路146號","121.364988333333","24.9364083333333","6500900","三峽區"
"237013","252-BX","2018/09/08 18:19:11","新北市三峽區永安街9巷54號","121.376093333333","24.9296566666667","6500900","三峽區"
"237012","275-BY","2018/09/08 18:19:08","新北市三峽區民生街1巷1-6號","121.377061666667","24.9370033333333","6500900","三峽區"
"237008","302-VK","2018/09/08 18:19:23","新北市三峽區白雞68-159號","121.390095","24.9086533333333","6500900","三峽區"
"237014","433-BY","2018/09/08 18:19:19","新北市三峽區文化路4號","121.373358333333","24.935525","6500900","三峽區"
"237006","5529-G3","2018/09/08 18:19:10","新北市三峽區溪東路178巷13弄10號","121.406151666667","24.932235","6500900","三峽區"
"237011","KEA-2596","2018/09/08 18:19:25","新北市三峽區溪東路309號","121.410203333333","24.9305683333333","6500900","三峽區"
"237016","649-BX","2018/09/08 18:19:25","新北市三峽區紫微路19號","121.4241","24.9206033333333","6500900","三峽區"
"237010","706-TV","2018/09/08 18:19:12","新北市三峽區中山路62號","121.368191666667","24.934555","6500900","三峽區"
"237005","AKY-6261","2018/09/08 18:19:19","新北市三峽區民族街5巷23-1號","121.369863333333","24.9319483333333","6500900","三峽區"
"236070","105-UM","2018/09/08 18:19:20","新北市土城區永豐路149-1號","121.467133333333","24.9826416666667","6501300","土城區"
"236042","107-UM","2018/09/08 18:19:24","新北市土城區樂利街3巷10號","121.44845","24.9862316666667","6501300","土城區"
"236079","166-UM","2018/09/08 18:19:19","新北市土城區永安街115巷24號","121.428916666667","24.963105","6501300","土城區"
"236030","253-BX","2018/09/08 18:19:28","新北市土城區順風路41號","121.440745","24.976785","6501300","土城區"
"236026","269-VK","2018/09/08 18:19:18","新北市土城區承天路18號","121.43949","24.9634783333333","6501300","土城區"
"236014","270-VK","2018/09/08 18:19:25","新北市土城區青雲路39巷7號","121.460328333333","24.987455","6501300","土城區"
"236038","271-VK","2018/09/08 18:19:19","新北市土城區青雲路483巷9-1號","121.459485","24.9739316666667","6501300","土城區"
"236021","401-BY","2018/09/08 18:19:11","新北市土城區清水路169號","121.459231666667","24.981515","6501300","土城區"
"236059","752-BX","2018/09/08 18:19:24","新北市土城區中央路四段434號","121.410778333333","24.9516283333333","6501300","土城區"
"236049","913-UM","2018/09/08 18:19:17","新北市土城區明德路一段361-3號","121.456211666667","24.9777383333333","6501300","土城區"
"236063","915-UM","2018/09/08 18:19:07","新北市土城區延壽路33號","121.471038333333","24.9911433333333","6501300","土城區"
"236055","AAC-216","2018/09/08 18:19:22","新北市土城區中華路二段92號","121.438265","24.974745","6501300","土城區"
"242036","AAC-296","2018/09/08 18:17:05","新北市新莊區後港一路65巷11弄5號","121.42602","25.0271283333333","6500500","新莊區"
"242058","986-R7","2018/09/08 18:19:12","新北市新莊區新北大道七段842號","121.413743333333","25.0236583333333","6500500","新莊區"
"242056","751-BX","2018/09/08 18:19:05","新北市新莊區豐年街豐2巷39號","121.447856666667","25.030965","6500500","新莊區"
"242027","615-BX","2018/09/08 18:19:18","新北市新莊區幸福路818號","121.445483333333","25.0491466666667","6500500","新莊區"
"242025","613-BX","2018/09/08 18:19:25","新北市新莊區五權一路12巷18號","121.457438333333","25.0644733333333","6500500","新莊區"
"242044","566-BX","2018/09/08 18:19:23","新北市新莊區雙鳳路135號","121.412841666667","25.0273483333333","6500500","新莊區"
"242048","497-BY","2018/09/08 18:19:22","新北市新莊區富國路146號","121.423016666667","25.0249183333333","6500500","新莊區"
"242053","441-UM","2018/09/08 18:19:27","新北市新莊區民安西路410巷8弄1號","121.428476666667","25.0095416666667","6500500","新莊區"
"242002","440-UM","2018/09/08 18:19:22","新北市新莊區新莊路189號","121.455786666667","25.03579","6500500","新莊區"
"242039","415-TV","2018/09/08 18:19:26","新北市新莊區民安西路38巷36號","121.426241666667","25.0202066666667","6500500","新莊區"
"242009","413-TV","2018/09/08 18:19:28","新北市新莊區中華路二段152-1號","121.45332","25.0505166666667","6500500","新莊區"
"242061","353-BY","2018/09/08 18:19:19","新北市新莊區新樹路66號","121.436965","25.026015","6500500","新莊區"
"242042","133-UY","2018/09/08 18:19:20","新北市新莊區天祥街89號","121.415276666667","25.0294583333333","6500500","新莊區"
"242034","135-UY","2018/09/08 18:19:25","新北市新莊區景德路260號","121.448601666667","25.0336666666667","6500500","新莊區"
"242051","172-VK","2018/09/08 18:19:18","新北市新莊區民本街11巷2弄4號","121.428068333333","25.0200333333333","6500500","新莊區"
"242046","347-TH","2018/09/08 18:19:06","新北市新莊區福營路431-5號","121.421073333333","25.0263683333333","6500500","新莊區"
"242031","348-TH","2018/09/08 18:19:18","新北市新莊區新泰路255巷31號","121.444913333333","25.0396733333333","6500500","新莊區"
"242004","349-TH","2018/09/08 18:19:18","新北市新莊區中平路82巷10號","121.445283333333","25.0448066666667","6500500","新莊區"
"242021","350-TH","2018/09/08 18:19:25","新北市新莊區建興街52-9號","121.450055","25.0381616666667","6500500","新莊區"
"242015","351-TH","2018/09/08 18:19:23","新北市新莊區中平路172號","121.445428333333","25.0477283333333","6500500","新莊區"
"238015","755-BX","2018/09/08 18:19:18","新北市樹林區大安路323巷10弄15號","121.4172","24.9907566666667","6500700","樹林區"
"238023","601-UM","2018/09/08 18:19:09","新北市樹林區三福街68號","121.404991666667","25.016305","6500700","樹林區"
"238019","599-UM","2018/09/08 18:19:24","新北市樹林區國凱街108號","121.422205","24.979765","6500700","樹林區"
"238018","571-TV","2018/09/08 18:19:13","新北市樹林區樹新路34巷9號","121.428206666667","24.9945366666667","6500700","樹林區"
"238024","5061-A6","2018/09/08 18:19:26","新北市樹林區育英街10號","121.422656666667","24.989145","6500700","樹林區"
"238025","303-VK","2018/09/08 18:19:23","新北市樹林區保安二街59號","121.424508333333","24.9945666666667","6500700","樹林區"
"238017","283-BY","2018/09/08 18:19:19","新北市樹林區保安街二段335號","121.412483333333","25.0078716666667","6500700","樹林區"
"238014","282-BY","2018/09/08 18:19:23","新北市樹林區大安路111巷2號","121.423031666667","24.9975483333333","6500700","樹林區"
"238020","268-VK","2018/09/08 18:19:17","新北市樹林區三龍街92號","121.41453","25.0186","6500700","樹林區"
"238026","172-UY","2018/09/08 18:19:23","新北市樹林區佳園路一段50號","121.392846666667","24.9706283333333","6500700","樹林區"
"238016","169-UY","2018/09/08 18:19:22","新北市樹林區文化街28號","121.41937","24.9878","6500700","樹林區"
"239007","AAC-297","2018/09/08 18:19:08","新北市鶯歌區尖山埔路38號","121.349003333333","24.9511066666667","6500800","鶯歌區"
"239006","891-R6","2018/09/08 18:19:09","新北市鶯歌區鶯桃路294-1號","121.334971666667","24.9603066666667","6500800","鶯歌區"
"239008","527-UM","2018/09/08 18:19:13","新北市鶯歌區朝陽街4號","121.336256666667","24.97658","6500800","鶯歌區"
"239005","526-UM","2018/09/08 18:19:23","新北市鶯歌區鳳七路101巷16號","121.329583333333","24.9707366666667","6500800","鶯歌區"
"239001","417-VK","2018/09/08 18:19:23","新北市鶯歌區國中街140號","121.339253333333","24.939775","6500800","鶯歌區"
"239003","360-BY","2018/09/08 18:19:15","新北市鶯歌區鶯桃路392號","121.333835","24.963665","6500800","鶯歌區"
"239002","359-BY","2018/09/08 18:19:23","新北市鶯歌區文化路311號","121.352418333333","24.9524216666667","6500800","鶯歌區"
"239004","193-VK","2018/09/08 18:19:14","新北市鶯歌區尖山路卓厝巷7號","121.341758333333","24.9455016666667","6500800","鶯歌區"
"221008","489-VK","2018/09/08 18:19:11","新北市汐止區汐萬路一段301號","121.649275","25.075935","6501100","汐止區"
"221036","130-UY","2018/09/08 18:19:21","新北市汐止區長興街一段49號","121.67026","25.0791016666667","6501100","汐止區"
"221015","131-UY","2018/09/08 18:19:29","新北市汐止區長江街363號","121.6678","25.0825933333333","6501100","汐止區"
"221010","269-BY","2018/09/08 18:19:27","新北市汐止區汐萬路二段339號","121.644788333333","25.090585","6501100","汐止區"
"221012","278-VK","2018/09/08 18:19:08","新北市汐止區保長路35巷15弄2號","121.673238333333","25.080105","6501100","汐止區"
"221023","279-VK","2018/09/08 18:19:09","新北市汐止區康寧街395號","121.629461666667","25.068135","6501100","汐止區"
"221032","280-BY","2018/09/08 18:19:19","新北市汐止區民權街二段58號","121.619341666667","25.0487783333333","6501100","汐止區"
"221027","281-BY","2018/09/08 18:19:22","新北市汐止區和平街2巷2號","121.663518333333","25.07072","6501100","汐止區"
"221033","297-VK","2018/09/08 18:19:08","新北市汐止區宜興街59巷4號","121.621941666667","25.042835","6501100","汐止區"
"221029","298-VK","2018/09/08 18:19:12","新北市汐止區樟樹二路342巷13號","121.64236","25.070815","6501100","汐止區"
"221021","299-VK","2018/09/08 18:19:26","新北市汐止區連興街120號","121.653766666667","25.0623883333333","6501100","汐止區"
"221031","353-TW","2018/09/08 18:19:05","新北市汐止區大同路一段160號","121.633261666667","25.05702","6501100","汐止區"
"221035","622-UM","2018/09/08 18:19:26","新北市汐止區大同路二段175號","121.651523333333","25.06416","6501100","汐止區"
"221025","623-UM","2018/09/08 18:19:18","新北市汐止區勤進路12巷37號","121.65918","25.062655","6501100","汐止區"
"221038","646-BX","2018/09/08 18:19:25","新北市汐止區仁愛路336號","121.663983333333","25.0681516666667","6501100","汐止區"
"221002","707-TV","2018/09/08 18:19:23","新北市汐止區福德一路213巷35號","121.635771666667","25.06472","6501100","汐止區"
"221018","753-BX","2018/09/08 18:19:08","新北市汐止區茄苳路88巷6弄8號","121.666578333333","25.0702216666667","6501100","汐止區"
"220082","610-BX","2018/09/08 18:19:24","新北市板橋區華東街1-10號","121.448286666667","24.9950133333333","6500100","板橋區"
"220064","486-VK","2018/09/08 18:19:13","新北市板橋區南雅南路二段144巷46號","121.449868333333","24.9970066666667","6500100","板橋區"
"220077","687-BX","2018/09/08 18:19:09","新北市板橋區華東街1-10號","121.448333333333","24.9950616666667","6500100","板橋區"
"220073","985-R7","2018/09/08 18:19:09","新北市板橋區華東街1-10號","121.448255","24.9949933333333","6500100","板橋區"
"235068","KEA-2873","2018/09/08 18:19:02","新北市中和區員山路36巷16-3號","121.485131666667","24.9912683333333","6500300","中和區"
"235061","KEA-2875","2018/09/08 18:19:27","新北市中和區民德路187號","121.468568333333","24.99924","6500300","中和區"
