"lineid","car","time","location","longitude","latitude","cityid","cityname"
"234046","148-BY","2018/09/08 18:27:26","新北市永和區福和路1號","121.526248333333","25.0098833333333","6500400","永和區"
"234086","338-UY","2018/09/08 18:29:09","新北市永和區福和路175號","121.519971666667","25.007655","6500400","永和區"
"234070","552-UM","2018/09/08 18:29:26","新北市永和區福和路1號","121.525521666667","25.0095116666667","6500400","永和區"
"234030","746-BX","2018/09/08 18:29:15","新北市永和區福和路1號","121.526391666667","25.009755","6500400","永和區"
"234042","862-TW","2018/09/08 18:29:11","新北市永和區豫溪街217巷15號","121.52455","25.0098","6500400","永和區"
"234026","9371-KE","2018/09/08 18:29:18","新北市永和區中正路621號","121.515978333333","25.009755","6500400","永和區"
"234011","9373-KE","2018/09/08 18:29:15","新北市永和區保福路二段158巷1號","121.509046666667","25.0150166666667","6500400","永和區"
"249005","172-UM","2018/09/08 18:29:08","新北市八里區中華路三段128號","121.39217","25.1358683333333","6502300","八里區"
"249001","173-UM","2018/09/08 18:29:19","新北市八里區龍米路一段140號","121.452951666667","25.125635","6502300","八里區"
"249004","303-UY","2018/09/08 18:29:18","新北市八里區忠孝路47號","121.428286666667","25.1601683333333","6502300","八里區"
"249002","305-UY","2018/09/08 18:29:16","新北市八里區龍形三街36號","121.447196666667","25.13185","6502300","八里區"
"248014","025-BX","2018/09/08 18:29:08","新北市五股區自強路130號","121.432265","25.0713966666667","6501500","五股區"
"248006","077-UY","2018/09/08 18:29:26","新北市五股區四維路25號","121.46716","25.0708066666667","6501500","五股區"
"248008","095-VK","2018/09/08 18:29:29","新北市五股區四維路185巷42弄1號","121.463685","25.076865","6501500","五股區"
"248020","225-UY","2018/09/08 18:28:59","新北市五股區孝義路55巷1號","121.45266","25.1121033333333","6501500","五股區"
"248012","247-BX","2018/09/08 18:29:20","新北市五股區御史路22號","121.442026666667","25.0911883333333","6501500","五股區"
"248016","261-SL","2018/09/08 18:29:14","新北市五股區凌雲路一段83巷7弄2號","121.449811666667","25.1007366666667","6501500","五股區"
"248010","272-BY","2018/09/08 18:29:23","新北市五股區明德路8號","121.43337","25.071695","6501500","五股區"
"248004","677-BX","2018/09/08 18:29:11","新北市五股區六合街3號","121.432008333333","25.0885916666667","6501500","五股區"
"248002","678-BX","2018/09/08 18:29:20","新北市五股區西雲路118號","121.444748333333","25.0937866666667","6501500","五股區"
"234077","969-R7","2018/09/08 18:29:11","新北市永和區中正路479號","121.516978333333","25.0064183333333","6500400","永和區"
"234003","AAC-295","2018/09/08 18:29:11","新北市永和區福和路1號","121.525865","25.009135","6500400","永和區"
"244013","069-UM","2018/09/08 18:29:11","新北市林口區仁愛路二段109號","121.383946666667","25.075065","6501700","林口區"
"244007","080-UY","2018/09/08 18:29:13","新北市林口區後湖17-2號","121.386743333333","25.0966433333333","6501700","林口區"
"244019","403-UM","2018/09/08 18:29:16","新北市林口區忠孝路646巷14號","121.379086666667","25.06782","6501700","林口區"
"244013","KEA-2802","2018/09/08 18:29:18","新北市林口區文化一路二段100巷17弄16號","121.383068333333","25.0794933333333","6501700","林口區"
"244017","485-VK","2018/09/08 18:29:18","新北市林口區八德路78號","121.365673333333","25.06564","6501700","林口區"
"244009","656-BX","2018/09/08 18:29:26","新北市林口區民生路102-2號","121.37738","25.0883016666667","6501700","林口區"
"244011","657-BX","2018/09/08 18:29:13","新北市林口區新生街17號","121.394195","25.0766216666667","6501700","林口區"
"244025","837-TS","2018/09/08 18:29:18","新北市林口區南勢四街196巷17號","121.356871666667","25.073","6501700","林口區"
"244021","838-TS","2018/09/08 18:29:16","新北市林口區自強一街4號","121.397673333333","25.07867","6501700","林口區"
"243013","AAD-798","2018/09/08 18:25:58","新北市泰山區明志路三段206巷3號","121.42332","25.0379483333333","6501600","泰山區"
"243011","KEA-2215","2018/09/08 18:12:50","新北市泰山區黎明路31號","121.4216","25.0609016666667","6501600","泰山區"
"222003","436-BY","2018/09/08 18:29:18","新北市深坑區文山路一段28-1號","121.630835","25.005355","6501800","深坑區"
"222002","659-BX","2018/09/08 18:29:17","新北市深坑區雲鄉路133號","121.622778333333","24.9980733333333","6501800","深坑區"
"231041","002-UM","2018/09/08 18:29:10","新北市新店區安華路28-1號","121.519871666667","24.9608216666667","6500600","新店區"
"231059","046-UY","2018/09/08 18:29:26","新北市新店區安華路28-1號","121.519706666667","24.96092","6500600","新店區"
"231040","047-UY","2018/09/08 18:29:16","新北市新店區安華路28-1號","121.519103333333","24.96089","6500600","新店區"
"231046","107-UY","2018/09/08 18:29:09","新北市新店區直潭七街60號","121.532241666667","24.939855","6500600","新店區"
"231052","108-UY","2018/09/08 18:29:14","新北市新店區新烏路一段50-5號","121.545661666667","24.94937","6500600","新店區"
"231064","110-UY","2018/09/08 18:29:26","新北市新店區安一路一段1-1號","121.519521666667","24.9613366666667","6500600","新店區"
"231048","187-VK","2018/09/08 18:29:12","新北市新店區安一路一段1-1號","121.519691666667","24.9611333333333","6500600","新店區"
"231054","KEA-2219","2018/09/08 18:29:07","新北市新店區安一路一段1-1號","121.519868333333","24.9611966666667","6500600","新店區"
"231057","256-BX","2018/09/08 18:29:15","新北市新店區北新路一段71號","121.538331666667","24.9602883333333","6500600","新店區"
"231042","268-BY","2018/09/08 18:29:27","新北市新店區安華路28-1號","121.519543333333","24.960705","6500600","新店區"
"231051","278-BY","2018/09/08 18:16:10","新北市新店區安一路一段1-1號","121.51975","24.9611333333333","6500600","新店區"
"231050","AAD-862","2018/09/08 18:29:15","新北市新店區安一路一段1-1號","121.52004","24.9612016666667","6500600","新店區"
"231058","3713-VJ","2018/09/08 18:29:27","新北市新店區新店後街58號","121.537736666667","24.9540266666667","6500600","新店區"
"231066","4716-K9","2018/09/08 18:29:09","新北市新店區安一路一段1-1號","121.51954","24.9613433333333","6500600","新店區"
"231056","4715-K9","2018/09/08 18:29:15","新北市新店區二十張路131號","121.535935","24.9791216666667","6500600","新店區"
"231067","4772-VM","2018/09/08 18:29:25","新北市新店區安華路28-1號","121.519375","24.9607033333333","6500600","新店區"
"231049","513-UM","2018/09/08 18:29:22","新北市新店區安一路一段1-1號","121.519861666667","24.9611133333333","6500600","新店區"
"231045","617-UM","2018/09/08 18:29:25","新北市新店區安華路28-1號","121.519596666667","24.9610216666667","6500600","新店區"
"231061","619-UM","2018/09/08 18:29:22","新北市新店區安華路28-1號","121.519705","24.960785","6500600","新店區"
"231063","641-BX","2018/09/08 18:29:18","新北市新店區安華路28-1號","121.519618333333","24.9606316666667","6500600","新店區"
"231062","720-UM","2018/09/08 18:29:17","新北市新店區安一路一段1-1號","121.519375","24.9614383333333","6500600","新店區"
"231060","897-TW","2018/09/08 18:29:26","新北市新店區安華路28-1號","121.519755","24.9607633333333","6500600","新店區"
"231043","899-TW","2018/09/08 18:29:18","新北市新店區安華路28-1號","121.51907","24.9608883333333","6500600","新店區"
"231055","AKT-0513","2018/09/08 18:29:13","新北市新店區華興街11號","121.537893333333","24.969575","6500600","新店區"
"241033","AAC-255","2018/09/08 18:29:17","新北市三重區光復路一段37號","121.472035","25.0482683333333","6500200","三重區"
"235066","003-UY","2018/09/08 18:29:30","新北市中和區中山路二段110號","121.502895","25.003845","6500300","中和區"
"235063","006-UY","2018/09/08 18:29:25","新北市中和區中正路508號","121.488515","24.9944883333333","6500300","中和區"
"235056","096-UM","2018/09/08 18:29:07","新北市中和區員山路611巷1號","121.477745","25.011115","6500300","中和區"
"235039","097-UM","2018/09/08 18:29:09","新北市中和區安樂路241號","121.513998333333","24.9994716666667","6500300","中和區"
"235065","098-UM","2018/09/08 18:29:19","新北市中和區中山路二段64巷16弄2號","121.50327","25.0058216666667","6500300","中和區"
"235040","150-BY","2018/09/08 18:29:17","新北市中和區安平路59號","121.509663333333","24.995205","6500300","中和區"
"235058","151-BY","2018/09/08 18:29:14","新北市中和區圓通路369巷30弄54號","121.48864","24.984565","6500300","中和區"
"235055","183-VK","2018/09/08 18:29:18","新北市中和區莒光路161號","121.472651666667","25.0006383333333","6500300","中和區"
"235038","185-VK","2018/09/08 18:29:27","新北市中和區秀朗路三段128巷17弄41號","121.522948333333","24.9932666666667","6500300","中和區"
"235049","186-VK","2018/09/08 18:29:15","新北市中和區景安路130號","121.505186666667","24.9944483333333","6500300","中和區"
"235067","255-BX","2018/09/08 18:29:10","新北市中和區新生街122號","121.4836","25.0013583333333","6500300","中和區"
"235044","293-VK","2018/09/08 18:29:29","新北市中和區復興路301巷2弄2號","121.501476666667","24.9900133333333","6500300","中和區"
"235072","301-VK","2018/09/08 18:29:21","新北市中和區連城路144巷4弄11號","121.495755","24.9988183333333","6500300","中和區"
"235043","352-BY","2018/09/08 18:29:27","新北市中和區景平路295-1號","121.50682","24.9930033333333","6500300","中和區"
"235042","KEA-2878","2018/09/08 18:29:26","新北市中和區自立路58巷25弄8號","121.523221666667","24.9909866666667","6500300","中和區"
"235050","4979-A6","2018/09/08 18:29:20","新北市中和區景新街362巷5號","121.51199","24.9901133333333","6500300","中和區"
"235069","4980-A6","2018/09/08 18:29:07","新北市中和區連城路103號","121.49642","24.9997733333333","6500300","中和區"
"235064","551-UM","2018/09/08 18:29:27","新北市中和區圓通路158巷1弄3號","121.497371666667","24.995785","6500300","中和區"
"235070","558-UM","2018/09/08 18:29:22","新北市中和區南華路65號","121.504511666667","24.9971916666667","6500300","中和區"
"235045","565-BX","2018/09/08 18:29:21","新北市中和區南山路236巷24弄21號","121.504886666667","24.9889066666667","6500300","中和區"
"235054","640-BX","2018/09/08 18:29:25","新北市中和區民享街117巷1號","121.474625","24.999175","6500300","中和區"
"235047","732-UM","2018/09/08 18:29:25","新北市中和區南山路250巷1號","121.507585","24.9890866666667","6500300","中和區"
"235046","733-UM","2018/09/08 18:29:22","新北市中和區南山路152號","121.50424","24.9921683333333","6500300","中和區"
"235062","800-TS","2018/09/08 18:29:28","新北市中和區中山路二段312巷55號","121.49518","25.0047516666667","6500300","中和區"
"235057","801-TS","2018/09/08 18:29:13","新北市中和區民安街43號","121.479885","25.0002033333333","6500300","中和區"
"235041","802-TS","2018/09/08 18:29:07","新北市中和區景安路34號","121.507181666667","24.99833","6500300","中和區"
"235052","805-TS","2018/09/08 18:29:13","新北市中和區興南路二段133號","121.505248333333","24.9842133333333","6500300","中和區"
"235048","896-TW","2018/09/08 18:29:18","新北市中和區中正路83號","121.500643333333","24.9934766666667","6500300","中和區"
"235053","900-TW","2018/09/08 18:29:07","新北市中和區民享街457號","121.470388333333","24.9931916666667","6500300","中和區"
"235060","911-UM","2018/09/08 18:29:17","新北市中和區中山路二段555號","121.480851666667","25.00548","6500300","中和區"
"235051","157-BY","2018/09/08 18:29:12","新北市中和區興南路二段114巷10弄12號","121.504085","24.984855","6500300","中和區"
"235037","AAC-213","2018/09/08 18:29:16","新北市中和區景德街95-3號","121.515378333333","24.9910866666667","6500300","中和區"
"235059","AAC-215","2018/09/08 18:29:25","新北市中和區員山路36巷16-2號","121.485241666667","24.991355","6500300","中和區"
"220069","015-TV","2018/09/08 18:29:23","新北市板橋區華東街1-10號","121.448586666667","24.995015","6500100","板橋區"
"226004","312-R5","2018/09/08 18:29:21","新北市平溪區靜安路二段268號","121.725676666667","25.0220333333333","6502400","平溪區"
"228003","097-TW","2018/09/08 18:29:26","新北市貢寮區和美里和美街42號","121.913658333333","25.0910433333333","6502600","貢寮區"
"228001","212-TW","2018/09/08 18:29:22","新北市貢寮區仁理村仁和路166號","121.923315","25.0521616666667","6502600","貢寮區"
"228002","663-BX","2018/09/08 18:29:28","新北市貢寮區福連里福連街37號","121.98887","25.0108633333333","6502600","貢寮區"
"224006","676-BX","2018/09/08 18:29:21","新北市瑞芳區明燈路二段65號","121.810758333333","25.1081083333333","6501200","瑞芳區"
"224002","639-TC","2018/09/08 18:29:24","新北市瑞芳區三爪子坑路29巷35號","121.813816666667","25.106615","6501200","瑞芳區"
"224011","420-VK","2018/09/08 18:29:15","新北市瑞芳區崙頂路1-6號","121.847028333333","25.1047316666667","6501200","瑞芳區"
"224008","285-BY","2018/09/08 18:29:24","新北市瑞芳區岳王路1巷3號","121.806466666667","25.11044","6501200","瑞芳區"
"224007","275-VK","2018/09/08 18:29:28","新北市瑞芳區大埔路吉慶公園城28號","121.764545","25.099755","6501200","瑞芳區"
"224009","273-VK","2018/09/08 18:29:10","新北市瑞芳區五號路130號","121.854955","25.1108383333333","6501200","瑞芳區"
"224005","271-BY","2018/09/08 18:29:24","新北市瑞芳區台電新村153號","121.811611666667","25.1286683333333","6501200","瑞芳區"
"227010","642-TC","2018/09/08 18:29:26","新北市雙溪區牡丹里牡丹145號","121.851425","25.0591483333333","6502500","雙溪區"
"227002","400-TW","2018/09/08 18:29:14","新北市雙溪區魚行里坤溪22號","121.870343333333","25.0289733333333","6502500","雙溪區"
"253006","032-BX","2018/09/08 18:29:10","新北市石門區公地20號","121.545798333333","25.2902233333333","6502200","石門區"
"253005","295-VK","2018/09/08 18:29:15","新北市石門區老崩山10號","121.552921666667","25.2911716666667","6502200","石門區"
"222001","KEA-2212","2018/09/08 18:29:22","新北市深坑區北深路一段199號","121.630386666667","25.00899","6501800","深坑區"
"208002","KEA-2872","2018/09/08 18:29:13","新北市金山區民生路200號","121.644675","25.2225","6502700","金山區"
"208003","665-BX","2018/09/08 18:29:12","新北市金山區中山路116號","121.639358333333","25.21989","6502700","金山區"
"208001","761-BX","2018/09/08 18:29:15","新北市金山區溫泉路21巷1號","121.637753333333","25.22301","6502700","金山區"
"251004","009-UM","2018/09/08 18:26:13","新北市淡水區民族路60號","121.462056666667","25.1358416666667","6501000","淡水區"
"251005","010-UM","2018/09/08 18:29:21","新北市淡水區中正東路35巷6號","121.44632","25.1684633333333","6501000","淡水區"
"251001","011-UM","2018/09/08 18:29:15","新北市淡水區自強路154號","121.465203333333","25.1338283333333","6501000","淡水區"
"251002","012-UM","2018/09/08 18:29:24","新北市淡水區竿蓁二街19巷9號","121.452918333333","25.1638216666667","6501000","淡水區"
"251013","KEA-2871","2018/09/08 18:29:19","新北市淡水區椿子林20號","121.479981666667","25.2038316666667","6501000","淡水區"
"251016","179-VK","2018/09/08 18:29:15","新北市淡水區下圭柔山114-10號","121.445613333333","25.2096333333333","6501000","淡水區"
"251014","180-VK","2018/09/08 18:29:12","新北市淡水區南平20-1號","121.49386","25.2170533333333","6501000","淡水區"
"251015","181-VK","2018/09/08 18:29:15","新北市淡水區興福寮88巷228號","121.486056666667","25.166575","6501000","淡水區"
"251010","413-VK","2018/09/08 18:29:12","新北市淡水區沙崙路181巷1號","121.424196666667","25.1842466666667","6501000","淡水區"
"251012","441-VK","2018/09/08 18:29:24","新北市淡水區北投子55號","121.457746666667","25.18215","6501000","淡水區"
"251008","443-VK","2018/09/08 18:29:24","新北市淡水區北投子86-5號","121.469158333333","25.1824266666667","6501000","淡水區"
"251006","561-UM","2018/09/08 18:29:20","新北市淡水區新生街51巷37號","121.440873333333","25.17596","6501000","淡水區"
"251007","577-R6","2018/09/08 18:29:24","新北市淡水區中正東路二段143巷2弄1號","121.460556666667","25.147315","6501000","淡水區"
"251011","650-BX","2018/09/08 18:29:17","新北市淡水區中正東路一段3巷14弄5號","121.451016666667","25.1639466666667","6501000","淡水區"
"251003","673-BX","2018/09/08 18:29:12","新北市淡水區北新路169巷19號","121.44954","25.1799933333333","6501000","淡水區"
"207003","550-UM","2018/09/08 18:29:26","新北市萬里區野柳里港東路70號","121.687893333333","25.2046216666667","6502800","萬里區"
"207004","225-TW","2018/09/08 18:29:25","新北市萬里區萬里里瑪鋉路102號","121.690548333333","25.1788083333333","6502800","萬里區"
"252002","178-VK","2018/09/08 18:29:16","新北市三芝區中山路二段39號","121.502928333333","25.2551416666667","6502100","三芝區"
"252003","249-BX","2018/09/08 18:29:26","新北市三芝區後厝里北勢子45-32號","121.469478333333","25.2509033333333","6502100","三芝區"
"252001","292-VK","2018/09/08 18:29:19","新北市三芝區中興街二段2號","121.498373333333","25.2566716666667","6502100","三芝區"
"237004","KEA-2597","2018/09/08 18:29:25","新北市三峽區五寮41-6號","121.36756","24.8647033333333","6500900","三峽區"
"237007","153-BY","2018/09/08 18:29:16","新北市三峽區中正路三段170巷11號","121.352455","24.9040733333333","6500900","三峽區"
"237009","210-TH","2018/09/08 18:29:24","新北市三峽區大同路270巷2號","121.365506666667","24.9255383333333","6500900","三峽區"
"237013","252-BX","2018/09/08 18:29:11","新北市三峽區光明路69巷25號","121.376708333333","24.9292416666667","6500900","三峽區"
"237012","275-BY","2018/09/08 18:29:08","新北市三峽區三樹路214巷9號","121.37985","24.94191","6500900","三峽區"
"237008","302-VK","2018/09/08 18:29:23","新北市三峽區白雞129-1號","121.397966666667","24.905785","6500900","三峽區"
"237014","433-BY","2018/09/08 18:29:19","新北市三峽區和平街66號","121.370421666667","24.93805","6500900","三峽區"
"237006","5529-G3","2018/09/08 18:29:22","新北市三峽區溪東路370號","121.413608333333","24.927935","6500900","三峽區"
"237011","KEA-2596","2018/09/08 18:29:25","新北市三峽區溪東路345號","121.411111666667","24.9297816666667","6500900","三峽區"
"237016","649-BX","2018/09/08 18:29:25","新北市三峽區竹崙路157號","121.437005","24.9056816666667","6500900","三峽區"
"237010","706-TV","2018/09/08 18:29:12","新北市三峽區復興路489號","121.36121","24.93848","6500900","三峽區"
"237005","AKY-6261","2018/09/08 18:29:19","新北市三峽區民生街100號","121.373871666667","24.935545","6500900","三峽區"
"236070","105-UM","2018/09/08 18:29:15","新北市土城區永豐路255巷23弄1號","121.47518","24.9733933333333","6501300","土城區"
"236042","107-UM","2018/09/08 18:29:24","新北市土城區裕民路67巷4弄6號","121.449926666667","24.98782","6501300","土城區"
"236079","166-UM","2018/09/08 18:29:19","新北市土城區中央路四段27巷10弄2號","121.424758333333","24.9618666666667","6501300","土城區"
"236030","253-BX","2018/09/08 18:29:28","新北市土城區水源街81巷1弄2號","121.439476666667","24.9760433333333","6501300","土城區"
"236026","269-VK","2018/09/08 18:29:18","新北市土城區南天母路18-3號","121.448235","24.9530516666667","6501300","土城區"
"236014","270-VK","2018/09/08 18:29:25","新北市土城區青雲路39巷7號","121.460343333333","24.9874916666667","6501300","土城區"
"236038","271-VK","2018/09/08 18:28:59","新北市土城區青雲路451巷13號","121.459591666667","24.974805","6501300","土城區"
"236021","401-BY","2018/09/08 18:29:11","新北市土城區永豐路202巷3-1號","121.466566666667","24.9831366666667","6501300","土城區"
"236059","752-BX","2018/09/08 18:29:14","新北市土城區中央路四段181號","121.41505","24.95678","6501300","土城區"
"236049","913-UM","2018/09/08 18:29:21","新北市土城區青雲路364號","121.45871","24.973925","6501300","土城區"
"236063","915-UM","2018/09/08 18:29:07","新北市土城區延壽路75巷6號","121.468673333333","24.992285","6501300","土城區"
"236055","AAC-216","2018/09/08 18:29:22","新北市土城區中華路二段1號","121.439628333333","24.9791083333333","6501300","土城區"
"242058","986-R7","2018/09/08 18:29:12","新北市新莊區中正路897-10號","121.411588333333","25.0216466666667","6500500","新莊區"
"242056","751-BX","2018/09/08 18:29:26","新北市新莊區瓊林路38-1號","121.448628333333","25.030825","6500500","新莊區"
"242025","613-BX","2018/09/08 18:29:25","新北市新莊區中央路232號","121.454668333333","25.0591116666667","6500500","新莊區"
"242044","566-BX","2018/09/08 18:29:23","新北市新莊區天泉二街24巷2號","121.414793333333","25.02526","6500500","新莊區"
"242053","441-UM","2018/09/08 18:29:11","新北市新莊區樹新路120巷47號","121.430058333333","24.9959766666667","6500500","新莊區"
"242002","440-UM","2018/09/08 18:29:23","新北市新莊區碧江街102號","121.450325","25.03265","6500500","新莊區"
"242061","353-BY","2018/09/08 18:29:19","新北市新莊區四維路6號","121.423985","25.0253183333333","6500500","新莊區"
"242042","133-UY","2018/09/08 18:29:14","新北市新莊區天祥街116號","121.414616666667","25.0297616666667","6500500","新莊區"
"242051","172-VK","2018/09/08 18:29:18","新北市新莊區新樹路603號","121.433206666667","25.005705","6500500","新莊區"
"242046","347-TH","2018/09/08 18:29:26","新北市新莊區中正路803巷44號","121.421748333333","25.0277516666667","6500500","新莊區"
"242031","348-TH","2018/09/08 18:29:11","新北市新莊區新泰路277巷43弄3號","121.444143333333","25.0401033333333","6500500","新莊區"
"242004","349-TH","2018/09/08 18:29:18","新北市新莊區三和路12-20號","121.442151666667","25.03779","6500500","新莊區"
"242021","350-TH","2018/09/08 18:29:25","新北市新莊區新興街64-1號","121.450786666667","25.03783","6500500","新莊區"
"242015","351-TH","2018/09/08 18:29:16","新北市新莊區中平路110巷28號","121.446318333333","25.0457316666667","6500500","新莊區"
"238015","755-BX","2018/09/08 18:29:29","新北市樹林區大安路519號","121.414163333333","24.98607","6500700","樹林區"
"238023","601-UM","2018/09/08 18:29:09","新北市樹林區忠義街18號","121.409538333333","25.0143033333333","6500700","樹林區"
"238019","599-UM","2018/09/08 18:29:24","新北市樹林區中山路三段245號","121.392763333333","24.9722483333333","6500700","樹林區"
"238018","571-TV","2018/09/08 18:28:34","新北市樹林區樹新路89號","121.427845","24.9953816666667","6500700","樹林區"
"238024","5061-A6","2018/09/08 18:29:06","新北市樹林區中山路一段172號","121.422008333333","24.9891283333333","6500700","樹林區"
"238025","303-VK","2018/09/08 18:29:23","新北市樹林區中山路二段157號","121.406266666667","24.97897","6500700","樹林區"
"238017","283-BY","2018/09/08 18:29:19","新北市樹林區光榮街79號","121.41211","25.003015","6500700","樹林區"
"238014","282-BY","2018/09/08 18:29:23","新北市樹林區大安路111巷4號","121.423095","24.9975233333333","6500700","樹林區"
"238020","268-VK","2018/09/08 18:29:17","桃園市龜山區宏慶街34巷22號","121.410898333333","25.0179316666667","6500700","樹林區"
"238026","172-UY","2018/09/08 18:29:23","新北市樹林區佳園路一段41巷38-1號","121.39502","24.970435","6500700","樹林區"
"238016","169-UY","2018/09/08 18:29:22","新北市樹林區文化街23號","121.419308333333","24.9876383333333","6500700","樹林區"
"239007","AAC-297","2018/09/08 18:29:08","新北市鶯歌區建國路278號","121.346993333333","24.953255","6500800","鶯歌區"
"239006","891-R6","2018/09/08 18:29:09","新北市鶯歌區鶯桃路296巷46號","121.335678333333","24.9613883333333","6500800","鶯歌區"
"239008","527-UM","2018/09/08 18:29:13","新北市鶯歌區朝陽街1號","121.336276666667","24.9765866666667","6500800","鶯歌區"
"239005","526-UM","2018/09/08 18:29:16","新北市鶯歌區鳳吉三街15號","121.326701666667","24.973345","6500800","鶯歌區"
"239001","417-VK","2018/09/08 18:29:23","新北市鶯歌區二甲路光照巷1-2號","121.338515","24.9404283333333","6500800","鶯歌區"
"239003","360-BY","2018/09/08 18:29:15","新北市鶯歌區永和街181號","121.335908333333","24.9703383333333","6500800","鶯歌區"
"239002","359-BY","2018/09/08 18:29:23","新北市鶯歌區中正一路460號","121.364421666667","24.9564416666667","6500800","鶯歌區"
"239004","193-VK","2018/09/08 18:29:14","新北市鶯歌區中正三路156巷31號","121.333405","24.9395883333333","6500800","鶯歌區"
"221008","489-VK","2018/09/08 18:29:11","新北市汐止區康寧街901號","121.651386666667","25.0750666666667","6501100","汐止區"
"221036","130-UY","2018/09/08 18:29:21","新北市汐止區南昌街27號","121.663191666667","25.06921","6501100","汐止區"
"221015","131-UY","2018/09/08 18:29:26","新北市汐止區吉祥街11巷2號","121.667808333333","25.080735","6501100","汐止區"
"221010","269-BY","2018/09/08 18:29:21","新北市汐止區瑞松街10號","121.645183333333","25.1048033333333","6501100","汐止區"
"221012","278-VK","2018/09/08 18:29:08","新北市汐止區保長路53號","121.673738333333","25.07886","6501100","汐止區"
"221023","279-VK","2018/09/08 18:29:09","新北市汐止區康寧街478號","121.63222","25.0682033333333","6501100","汐止區"
"221032","280-BY","2018/09/08 18:29:19","新北市汐止區福山街60巷2號","121.617768333333","25.0464583333333","6501100","汐止區"
"221027","281-BY","2018/09/08 18:29:22","新北市汐止區和平街68號","121.661805","25.0707883333333","6501100","汐止區"
"221033","297-VK","2018/09/08 18:29:28","新北市汐止區宜興街6號","121.621141666667","25.0413383333333","6501100","汐止區"
"221029","298-VK","2018/09/08 18:29:12","新北市汐止區樟樹二路330巷76號","121.642986666667","25.0700383333333","6501100","汐止區"
"221021","299-VK","2018/09/08 18:29:26","新北市汐止區復興路46號","121.656593333333","25.062835","6501100","汐止區"
"221031","353-TW","2018/09/08 18:29:25","新北市汐止區光復街8巷23-1號","121.63793","25.0571183333333","6501100","汐止區"
"221035","622-UM","2018/09/08 18:29:22","新北市汐止區大同路二段167-1號","121.651105","25.06398","6501100","汐止區"
"221025","623-UM","2018/09/08 18:29:18","新北市汐止區仁愛路121巷1號","121.662793333333","25.06385","6501100","汐止區"
"221038","646-BX","2018/09/08 18:29:25","新北市汐止區秀峰路3號","121.659286666667","25.066905","6501100","汐止區"
"221002","707-TV","2018/09/08 18:29:23","新北市汐止區福德一路174號","121.635901666667","25.0661216666667","6501100","汐止區"
"221018","753-BX","2018/09/08 18:29:08","新北市汐止區茄苳路118號","121.667975","25.070175","6501100","汐止區"
"220079","145-BY","2018/09/08 18:29:18","新北市板橋區華東街1-10號","121.448321666667","24.9950683333333","6500100","板橋區"
"220082","610-BX","2018/09/08 18:29:24","新北市板橋區華東街1-10號","121.44828","24.995005","6500100","板橋區"
"220071","283-VK","2018/09/08 18:29:29","新北市板橋區華東街1-9號","121.448125","24.9949283333333","6500100","板橋區"
"220084","296-UM","2018/09/08 18:29:25","新北市板橋區華東街1-9號","121.448146666667","24.9949716666667","6500100","板橋區"
"220075","303-R5","2018/09/08 18:29:25","新北市板橋區華東街1-10號","121.448266666667","24.994955","6500100","板橋區"
"220064","486-VK","2018/09/08 18:29:13","新北市板橋區縣民大道一段314號","121.461038333333","25.0101383333333","6500100","板橋區"
"220035","560-BX","2018/09/08 18:29:21","新北市板橋區南雅南路二段11-5號","121.454006666667","25.002255","6500100","板橋區"
"220077","687-BX","2018/09/08 18:29:09","新北市板橋區華東街1-10號","121.44832","24.9949983333333","6500100","板橋區"
"220073","985-R7","2018/09/08 18:29:09","新北市板橋區華東街1-10號","121.448313333333","24.9950233333333","6500100","板橋區"
"235068","KEA-2873","2018/09/08 18:29:02","新北市中和區圓通路230號","121.495095","24.9928816666667","6500300","中和區"
"235061","KEA-2875","2018/09/08 18:29:00","新北市中和區民享街89巷4弄15號","121.475386666667","25.0010983333333","6500300","中和區"
