"lineid","car","time","location","longitude","latitude","cityid","cityname"
"234046","148-BY","2018/09/08 19:39:26","新北市永和區永利路358號","121.526125","25.0032333333333","6500400","永和區"
"234007","207-UY","2018/09/08 19:39:26","新北市中和區中和路390號","121.511025","25.0024733333333","6500400","永和區"
"234081","298-R6","2018/09/08 19:39:26","新北市永和區國中路104巷8弄19號","121.525333333333","25.0063716666667","6500400","永和區"
"234038","336-UY","2018/09/08 19:39:18","新北市永和區民樂街31巷10弄1號","121.528156666667","25.0008066666667","6500400","永和區"
"234064","337-UY","2018/09/08 19:39:18","新北市永和區秀朗路一段192巷6弄14號","121.519115","25.0022683333333","6500400","永和區"
"234086","338-UY","2018/09/08 19:39:09","新北市永和區永亨路132號","121.524691666667","25.003925","6500400","永和區"
"234070","552-UM","2018/09/08 19:39:26","新北市永和區永和路二段234號","121.515686666667","25.0143433333333","6500400","永和區"
"234017","745-BX","2018/09/08 19:39:18","新北市永和區永和路二段425巷57弄5號","121.513675","25.0171166666667","6500400","永和區"
"234030","746-BX","2018/09/08 19:39:15","新北市永和區四維街113號","121.523525","24.9980933333333","6500400","永和區"
"234054","KEA-2590","2018/09/08 19:39:28","新北市永和區竹林路39巷8號","121.518295","25.014425","6500400","永和區"
"234013","KEA-2591","2018/09/08 19:39:10","新北市永和區永平路246號","121.508726666667","25.011085","6500400","永和區"
"234061","AAD-866","2018/09/08 19:39:26","新北市永和區永貞路166號","121.517021666667","25.0043733333333","6500400","永和區"
"234042","862-TW","2018/09/08 19:39:11","新北市永和區永貞路261號","121.512071666667","25.0046666666667","6500400","永和區"
"234050","863-TW","2018/09/08 19:39:17","新北市永和區保安路53號","121.509478333333","25.0157216666667","6500400","永和區"
"234026","9371-KE","2018/09/08 19:39:18","新北市永和區中和路505號","121.510721666667","25.0023266666667","6500400","永和區"
"234011","9373-KE","2018/09/08 19:39:15","新北市永和區保生路55-1號","121.504518333333","25.0109016666667","6500400","永和區"
"249004","303-UY","2018/09/08 19:39:17","新北市八里區仁愛路39號","121.413363333333","25.1605816666667","6502300","八里區"
"249003","593-UM","2018/09/08 19:39:24","新北市八里區中華路二段530號","121.399281666667","25.1457866666667","6502300","八里區"
"248014","025-BX","2018/09/08 19:39:15","新北市五股區五福路52巷6號","121.434015","25.089845","6501500","五股區"
"248008","095-VK","2018/09/08 19:39:29","新北市五股區四維路118巷9號","121.468855","25.0744","6501500","五股區"
"248020","225-UY","2018/09/08 19:39:20","新北市五股區中直路17-5號","121.422578333333","25.1123983333333","6501500","五股區"
"248012","247-BX","2018/09/08 19:39:20","新北市五股區成泰路一段241巷12號","121.4361","25.081025","6501500","五股區"
"248016","261-SL","2018/09/08 19:39:13","新北市五股區成泰路四段22巷45號","121.456205","25.1092816666667","6501500","五股區"
"248010","272-BY","2018/09/08 19:39:23","新北市五股區自強路111號","121.432321666667","25.07057","6501500","五股區"
"248004","677-BX","2018/09/08 19:39:11","新北市五股區成泰路二段40號","121.437303333333","25.0814516666667","6501500","五股區"
"248002","678-BX","2018/09/08 19:39:20","新北市五股區成泰路三段577巷45號","121.450821666667","25.1031833333333","6501500","五股區"
"234023","9380-KE","2018/09/08 19:39:10","新北市永和區豫溪街57巷8弄9號","121.51778","25.0104166666667","6500400","永和區"
"234077","969-R7","2018/09/08 19:39:27","新北市永和區民權路56號","121.52","24.99818","6500400","永和區"
"234074","AAC-211","2018/09/08 19:39:11","新北市永和區福和路139號","121.52093","25.0077216666667","6500400","永和區"
"234067","AAC-212","2018/09/08 19:39:17","新北市永和區中山路一段213號","121.508571666667","25.008105","6500400","永和區"
"234003","AAC-295","2018/09/08 19:39:11","新北市永和區自由街49號","121.513991666667","25.00583","6500400","永和區"
"244023","069-UM","2018/09/08 19:39:11","新北市林口區民富街93號","121.370038333333","25.0750766666667","6501700","林口區"
"244019","403-UM","2018/09/08 19:38:35","新北市八里區中山路三段409號","121.368691666667","25.13472","6501700","林口區"
"243013","AAD-798","2018/09/08 19:38:20","新北市泰山區應化街7號","121.423903333333","25.0437133333333","6501600","泰山區"
"243009","297-R6","2018/09/08 19:39:13","新北市泰山區美寧街60號","121.430963333333","25.0647066666667","6501600","泰山區"
"243016","KEA-2801","2018/09/08 19:39:18","新北市泰山區明志路三段204巷3號","121.421728333333","25.0379616666667","6501600","泰山區"
"243015","421-VK","2018/09/08 19:39:12","新北市泰山區文程路18巷5號","121.428305","25.048965","6501600","泰山區"
"243011","KEA-2215","2018/09/08 19:39:22","新北市泰山區貴子路69號","121.431235","25.0399666666667","6501600","泰山區"
"243010","KEA-2216","2018/09/08 19:39:19","新北市泰山區明志路二段7巷10號","121.43064","25.0532783333333","6501600","泰山區"
"243012","646-TV","2018/09/08 19:39:22","新北市泰山區全興路258號","121.435776666667","25.0532416666667","6501600","泰山區"
"243014","680-BX","2018/09/08 19:38:53","新北市泰山區仁愛路72號","121.432646666667","25.055075","6501600","泰山區"
"222003","436-BY","2018/09/08 19:39:18","新北市深坑區深南路51-1號","121.621218333333","25.0097683333333","6501800","深坑區"
"222002","659-BX","2018/09/08 19:39:17","新北市深坑區北深路一段177號","121.632435","25.01088","6501800","深坑區"
"231044","001-UM","2018/09/08 19:39:17","新北市新店區北新路三段119號","121.541248333333","24.9824366666667","6500600","新店區"
"231041","002-UM","2018/09/08 19:39:10","新北市新店區中正路487號","121.53385","24.98209","6500600","新店區"
"231059","046-UY","2018/09/08 19:39:26","新北市新店區安和路三段85號","121.517836666667","24.9838616666667","6500600","新店區"
"231040","047-UY","2018/09/08 19:39:16","新北市新店區中正路75巷71號","121.54311","24.968775","6500600","新店區"
"231046","107-UY","2018/09/08 19:39:29","新北市新店區自由街9號","121.535605","24.9750133333333","6500600","新店區"
"231052","108-UY","2018/09/08 19:39:14","新北市新店區新烏路二段424號","121.551635","24.9089266666667","6500600","新店區"
"231064","110-UY","2018/09/08 19:39:26","新北市新店區安和路一段52巷2-1號","121.517668333333","24.9663933333333","6500600","新店區"
"231048","187-VK","2018/09/08 19:39:11","新北市新店區五峰路63巷8弄5號","121.547161666667","24.9693083333333","6500600","新店區"
"231054","KEA-2219","2018/09/08 19:39:27","新北市新店區北宜路一段47號","121.53839","24.9570183333333","6500600","新店區"
"231057","256-BX","2018/09/08 19:39:19","新北市新店區橘園一路11號","121.547971666667","24.9340916666667","6500600","新店區"
"231042","268-BY","2018/09/08 19:39:27","新北市新店區中興路一段180號","121.543198333333","24.964715","6500600","新店區"
"231051","278-BY","2018/09/08 19:39:10","新北市新店區中央四街67號","121.526926666667","24.9754616666667","6500600","新店區"
"231050","AAD-862","2018/09/08 19:39:15","新北市新店區北宜路二段82-40號","121.553483333333","24.9531883333333","6500600","新店區"
"231058","3713-VJ","2018/09/08 19:39:27","新北市新店區中正路111號","121.542333333333","24.9710266666667","6500600","新店區"
"231066","4716-K9","2018/09/08 19:39:09","新北市新店區安康路三段207巷19號","121.48842","24.9507433333333","6500600","新店區"
"231056","4715-K9","2018/09/08 19:39:14","新北市新店區安民街121巷12號","121.515425","24.9691283333333","6500600","新店區"
"231067","4772-VM","2018/09/08 19:39:25","新北市新店區安民街2號","121.515296666667","24.963885","6500600","新店區"
"231065","512-UM","2018/09/08 19:39:22","新北市新店區安祥路109巷5號","121.475748333333","24.9588716666667","6500600","新店區"
"231049","513-UM","2018/09/08 19:39:20","新北市新店區大豐路53號","121.539976666667","24.9796483333333","6500600","新店區"
"231045","617-UM","2018/09/08 19:39:24","新北市新店區北宜路二段234號","121.55996","24.95445","6500600","新店區"
"231061","619-UM","2018/09/08 19:39:22","新北市新店區碧安街9巷22號","121.516358333333","24.96838","6500600","新店區"
"231063","641-BX","2018/09/08 19:39:18","新北市新店區達觀路26號","121.501991666667","24.9404516666667","6500600","新店區"
"231062","720-UM","2018/09/08 19:39:17","新北市新店區秀山路11巷8號","121.531938333333","24.9595033333333","6500600","新店區"
"231060","897-TW","2018/09/08 19:39:26","新北市新店區安康路二段161號","121.51011","24.95943","6500600","新店區"
"231043","899-TW","2018/09/08 19:39:18","新北市新店區北新路二段6號","121.54284","24.9710366666667","6500600","新店區"
"231055","AKT-0513","2018/09/08 19:39:13","新北市新店區新生街3巷2號","121.54041","24.9657166666667","6500600","新店區"
"241011","013-R5","2018/09/08 19:39:16","新北市三重區秀江街200號","121.497553333333","25.0716083333333","6500200","三重區"
"241028","022-UY","2018/09/08 19:39:20","新北市三重區中正南路196號","121.493893333333","25.05601","6500200","三重區"
"241008","059-VK","2018/09/08 19:39:18","新北市三重區永福街135巷15號","121.478143333333","25.0769766666667","6500200","三重區"
"241022","060-VK","2018/09/08 19:39:11","新北市三重區中正北路154號","121.484705","25.06588","6500200","三重區"
"241031","061-VK","2018/09/08 19:39:14","新北市三重區重新路四段248號","121.486053333333","25.0533916666667","6500200","三重區"
"241015","062-VK","2018/09/08 19:39:10","新北市三重區福德北路34號","121.50205","25.0652016666667","6500200","三重區"
"241017","063-VK","2018/09/08 19:39:28","新北市三重區大仁街5號","121.491651666667","25.0637766666667","6500200","三重區"
"241026","066-VK","2018/09/08 19:39:16","新北市三重區光興街53號","121.499028333333","25.0601783333333","6500200","三重區"
"241003","091-VK","2018/09/08 19:39:15","新北市三重區五華街93巷50號","121.493631666667","25.0848933333333","6500200","三重區"
"241009","265-UM","2018/09/08 19:39:23","新北市三重區永安北路一段121號","121.480446666667","25.0797783333333","6500200","三重區"
"241032","269-UM","2018/09/08 19:39:20","新北市三重區三陽路65號","121.484156666667","25.058795","6500200","三重區"
"241013","270-UM","2018/09/08 19:39:24","新北市三重區仁愛街141巷10號","121.495928333333","25.0752366666667","6500200","三重區"
"241025","271-UM","2018/09/08 19:39:18","新北市三重區頂崁街189號","121.477511666667","25.066405","6500200","三重區"
"241007","398-BY","2018/09/08 19:39:13","新北市三重區三和路四段135巷35號","121.48696","25.0786016666667","6500200","三重區"
"241035","KEA-2210","2018/09/08 19:39:10","新北市三重區正義北路88號","121.497156666667","25.0646683333333","6500200","三重區"
"241020","478-VK","2018/09/08 19:39:13","新北市三重區自強路三段41號","121.487138333333","25.0727566666667","6500200","三重區"
"241030","480-VK","2018/09/08 19:39:31","新北市三重區新興路30-1號","121.491883333333","25.05315","6500200","三重區"
"241014","543-UM","2018/09/08 19:39:24","新北市三重區河邊北街82號","121.504211666667","25.068995","6500200","三重區"
"241023","545-UM","2018/09/08 19:39:30","新北市三重區忠孝路三段99巷11號","121.47969","25.06424","6500200","三重區"
"241001","547-UM","2018/09/08 19:39:30","新北市三重區仁愛街317號","121.492535","25.079315","6500200","三重區"
"241019","KEA-2593","2018/09/08 19:39:15","新北市三重區六張街194巷1弄11號","121.48816","25.0682133333333","6500200","三重區"
"241006","AAD-863","2018/09/08 19:39:27","新北市三重區永福街297號","121.483823333333","25.0744783333333","6500200","三重區"
"241012","941-UM","2018/09/08 19:39:24","新北市三重區河邊北街256巷41號","121.50039","25.07574","6500200","三重區"
"241029","942-UM","2018/09/08 19:39:17","新北市三重區重安街102號","121.492938333333","25.0558633333333","6500200","三重區"
"235066","003-UY","2018/09/08 19:39:09","新北市中和區景新街106號","121.505068333333","24.998495","6500300","中和區"
"235063","006-UY","2018/09/08 19:39:25","新北市中和區板南路335號","121.494088333333","24.99773","6500300","中和區"
"235056","096-UM","2018/09/08 19:39:27","新北市中和區員山路581巷31弄22號","121.476588333333","25.01037","6500300","中和區"
"235039","097-UM","2018/09/08 19:39:29","新北市中和區景平路150-2號","121.518003333333","24.992005","6500300","中和區"
"235065","098-UM","2018/09/08 19:39:19","新北市中和區永和路9巷1號","121.499186666667","25.0040183333333","6500300","中和區"
"235040","150-BY","2018/09/08 19:39:17","新北市中和區宜安路121號","121.510003333333","24.997895","6500300","中和區"
"235058","151-BY","2018/09/08 19:39:14","新北市中和區員山路124巷26號","121.482288333333","24.9959566666667","6500300","中和區"
"235055","183-VK","2018/09/08 19:39:18","新北市中和區中山路三段181巷2號","121.472826666667","25.0059833333333","6500300","中和區"
"235038","185-VK","2018/09/08 19:39:27","新北市中和區自強路27巷22號","121.521695","24.9932566666667","6500300","中和區"
"235049","186-VK","2018/09/08 19:39:15","新北市中和區安平路14號","121.509213333333","24.9941433333333","6500300","中和區"
"235067","255-BX","2018/09/08 19:39:29","新北市中和區新生街186巷5弄1號","121.483025","24.99966","6500300","中和區"
"235044","293-VK","2018/09/08 19:39:24","新北市中和區興南路一段164號","121.508136666667","24.986635","6500300","中和區"
"235072","301-VK","2018/09/08 19:39:21","新北市中和區中正路432巷30號","121.490863333333","24.9957916666667","6500300","中和區"
"235043","352-BY","2018/09/08 19:39:27","新北市中和區興南路一段57號","121.510603333333","24.9899616666667","6500300","中和區"
"235042","KEA-2878","2018/09/08 19:39:26","新北市中和區保健路46巷25-1號","121.508995","24.9960416666667","6500300","中和區"
"235050","4979-A6","2018/09/08 19:39:20","新北市中和區錦和路350-1號","121.490488333333","24.9935483333333","6500300","中和區"
"235069","4980-A6","2018/09/08 19:39:27","新北市中和區中正路250號","121.495763333333","24.9938933333333","6500300","中和區"
"235064","551-UM","2018/09/08 19:39:27","新北市中和區南山路127巷34弄2號","121.504296666667","24.9977683333333","6500300","中和區"
"235070","558-UM","2018/09/08 19:39:22","新北市中和區連勝街11號","121.498906666667","24.9982716666667","6500300","中和區"
"235045","565-BX","2018/09/08 19:39:12","新北市中和區景新街483號","121.51359","24.98753","6500300","中和區"
"235054","640-BX","2018/09/08 19:39:24","新北市中和區國光街102巷11弄22號","121.47068","25.0014633333333","6500300","中和區"
"235047","732-UM","2018/09/08 19:39:05","新北市中和區景平路329巷2弄11號","121.505241666667","24.9928583333333","6500300","中和區"
"235046","733-UM","2018/09/08 19:39:22","新北市中和區四維街28號","121.512773333333","24.9871266666667","6500300","中和區"
"235071","783-BX","2018/09/08 19:39:19","新北市中和區中山路二段472號","121.48825","25.0049016666667","6500300","中和區"
"235057","801-TS","2018/09/08 19:39:30","新北市中和區員山路262號","121.481438333333","25.001755","6500300","中和區"
"235041","802-TS","2018/09/08 19:39:27","新北市永和區中和路603號","121.512511666667","25.004215","6500300","中和區"
"235052","805-TS","2018/09/08 19:39:13","新北市中和區華新街206巷20號","121.506188333333","24.982805","6500300","中和區"
"235048","896-TW","2018/09/08 19:39:18","新北市中和區忠孝街4號","121.510093333333","24.9827633333333","6500300","中和區"
"235053","900-TW","2018/09/08 19:39:27","新北市中和區國光街205巷2號","121.46678","25.00192","6500300","中和區"
"235060","911-UM","2018/09/08 19:39:17","新北市中和區中山路二段523巷12號","121.481475","25.0044783333333","6500300","中和區"
"235051","157-BY","2018/09/08 19:39:12","新北市中和區板南路172號","121.501288333333","24.9926516666667","6500300","中和區"
"235037","AAC-213","2018/09/08 19:39:16","新北市中和區秀朗路三段50巷4弄2號","121.525706666667","24.9956766666667","6500300","中和區"
"235059","AAC-215","2018/09/08 19:39:25","新北市中和區圓通路282號","121.491568333333","24.9905833333333","6500300","中和區"
"220069","015-TV","2018/09/08 19:39:23","新北市板橋區南雅南路二段1-1號","121.454761666667","25.0035683333333","6500100","板橋區"
"220065","072-UY","2018/09/08 19:39:22","新北市板橋區國泰街17號","121.469396666667","25.00673","6500100","板橋區"
"220086","073-UY","2018/09/08 19:39:31","新北市板橋區中正路84號","121.456505","25.0148816666667","6500100","板橋區"
"220106","075-UY","2018/09/08 19:39:26","新北市板橋區文化路二段382號","121.473243333333","25.0308566666667","6500100","板橋區"
"247004","002-UY","2018/09/08 19:39:24","新北市蘆洲區長安街98巷10號","121.462675","25.081425","6501400","蘆洲區"
"226004","312-R5","2018/09/08 19:39:01","新北市平溪區靜安路三段392巷3號","121.784396666667","25.04954","6502400","平溪區"
"228003","097-TW","2018/09/08 19:39:25","新北市貢寮區真理里美艷山街15-3號","121.923748333333","25.0680083333333","6502600","貢寮區"
"228001","212-TW","2018/09/08 19:39:21","新北市貢寮區真理里延平街61號","121.924575","25.0556766666667","6502600","貢寮區"
"224010","AGQ-8101","2018/09/08 19:38:18","新北市瑞芳區汽車路24號","121.845561666667","25.1099366666667","6501200","瑞芳區"
"224002","639-TC","2018/09/08 19:39:23","新北市瑞芳區三爪子坑路13巷203號","121.815573333333","25.1061516666667","6501200","瑞芳區"
"224011","420-VK","2018/09/08 19:39:15","新北市瑞芳區崙頂路3-1號","121.847035","25.10469","6501200","瑞芳區"
"227010","642-TC","2018/09/08 19:39:25","新北市雙溪區新基里新基北街20號","121.86722","25.0388933333333","6502500","雙溪區"
"227002","400-TW","2018/09/08 19:39:14","新北市雙溪區雙溪里內挖路41號","121.86341","25.0363416666667","6502500","雙溪區"
"253006","032-BX","2018/09/08 19:39:10","新北市石門區小坑9號","121.594381666667","25.2886083333333","6502200","石門區"
"222001","KEA-2212","2018/09/08 19:39:22","新北市深坑區深坑街152號","121.61297","25.00147","6501800","深坑區"
"208002","KEA-2872","2018/09/08 19:39:13","新北市金山區四維路23號","121.635108333333","25.2228066666667","6502700","金山區"
"208003","665-BX","2018/09/08 19:39:12","新北市金山區仁愛路1巷1號","121.63859","25.2200816666667","6502700","金山區"
"208001","761-BX","2018/09/08 19:39:15","新北市金山區重和里六股林口20號","121.603031666667","25.2190283333333","6502700","金山區"
"251009","008-UM","2018/09/08 19:39:25","新北市淡水區中山北路一段186巷13弄8號","121.445478333333","25.1791316666667","6501000","淡水區"
"251005","010-UM","2018/09/08 19:39:21","新北市淡水區原德路108巷2號","121.443388333333","25.1734866666667","6501000","淡水區"
"251001","011-UM","2018/09/08 19:39:15","新北市淡水區民權路51號","121.459776666667","25.1389583333333","6501000","淡水區"
"251013","KEA-2871","2018/09/08 19:39:19","新北市淡水區頂田寮路145號","121.462061666667","25.2162683333333","6501000","淡水區"
"251016","179-VK","2018/09/08 19:39:15","新北市淡水區下圭柔山119-51號","121.450701666667","25.2084416666667","6501000","淡水區"
"251014","180-VK","2018/09/08 19:39:12","新北市淡水區北勢子23號","121.47677","25.2305166666667","6501000","淡水區"
"251015","181-VK","2018/09/08 19:39:15","新北市淡水區山子頂22-2號","121.492593333333","25.1893883333333","6501000","淡水區"
"251010","413-VK","2018/09/08 19:39:12","新北市淡水區濱海路二段202巷27號","121.435166666667","25.1933116666667","6501000","淡水區"
"251012","441-VK","2018/09/08 19:39:24","新北市淡水區埤島6-10號","121.44592","25.1942566666667","6501000","淡水區"
"251008","443-VK","2018/09/08 19:39:24","新北市淡水區中正路一段8巷1弄11號","121.428348333333","25.1764083333333","6501000","淡水區"
"251006","561-UM","2018/09/08 19:39:20","新北市淡水區中山北路一段247巷82號","121.44255","25.1793666666667","6501000","淡水區"
"251007","577-R6","2018/09/08 19:39:24","新北市淡水區淡金路63號","121.455936666667","25.1613483333333","6501000","淡水區"
"251011","650-BX","2018/09/08 19:39:16","新北市淡水區紅樹林路177號","121.460438333333","25.1573","6501000","淡水區"
"207003","550-UM","2018/09/08 19:39:26","新北市萬里區大鵬里下社35號","121.649371666667","25.2169883333333","6502800","萬里區"
"207004","225-TW","2018/09/08 19:39:23","新北市萬里區萬里里瑪鋉路21號","121.687218333333","25.1754016666667","6502800","萬里區"
"252002","178-VK","2018/09/08 19:39:16","新北市三芝區中正路一段18巷50號","121.504135","25.2588933333333","6502100","三芝區"
"252001","292-VK","2018/09/08 19:39:19","新北市三芝區公正街9號","121.499753333333","25.2574883333333","6502100","三芝區"
"237004","KEA-2597","2018/09/08 19:39:25","新北市三峽區插角232號","121.413668333333","24.8688916666667","6500900","三峽區"
"237007","153-BY","2018/09/08 19:39:16","新北市三峽區二鬮路136巷24弄21號","121.356178333333","24.9104766666667","6500900","三峽區"
"237009","210-TH","2018/09/08 19:39:24","新北市三峽區中園街84號","121.367825","24.9247983333333","6500900","三峽區"
"237013","252-BX","2018/09/08 19:39:11","新北市三峽區介壽路二段93號","121.392088333333","24.9354583333333","6500900","三峽區"
"237012","275-BY","2018/09/08 19:39:28","新北市三峽區光明路17號","121.373143333333","24.931345","6500900","三峽區"
"237008","302-VK","2018/09/08 19:39:23","新北市三峽區大同路147巷6號","121.371046666667","24.92658","6500900","三峽區"
"237014","433-BY","2018/09/08 19:39:19","新北市三峽區嘉添31號","121.36876","24.91155","6500900","三峽區"
"237006","5529-G3","2018/09/08 19:39:10","新北市三峽區中正路一段336巷15弄2號","121.369973333333","24.9249533333333","6500900","三峽區"
"237016","649-BX","2018/09/08 19:39:25","新北市三峽區溪東路218巷25號","121.40709","24.9303983333333","6500900","三峽區"
"237010","706-TV","2018/09/08 19:39:12","新北市三峽區復興路19號","121.374048333333","24.936265","6500900","三峽區"
"237005","AKY-6261","2018/09/08 19:39:19","新北市三峽區介壽路一段27號","121.375528333333","24.93313","6500900","三峽區"
"236070","105-UM","2018/09/08 19:39:15","新北市土城區中正路6號","121.442376666667","24.97497","6501300","土城區"
"236042","107-UM","2018/09/08 19:39:24","新北市土城區裕民路253-1號","121.454766666667","24.9830516666667","6501300","土城區"
"236079","166-UM","2018/09/08 19:39:18","新北市土城區中州路27巷78號","121.41253","24.956365","6501300","土城區"
"236030","253-BX","2018/09/08 19:39:28","新北市土城區福祥街38號","121.44126","24.98073","6501300","土城區"
"236026","269-VK","2018/09/08 19:39:18","新北市土城區中央路二段61巷28號","121.443433333333","24.9788266666667","6501300","土城區"
"236021","401-BY","2018/09/08 19:39:11","新北市土城區金城路三段198號","121.46865","24.9879116666667","6501300","土城區"
"236059","752-BX","2018/09/08 19:33:23","新北市土城區中央路二段61巷20號","121.442891666667","24.9788666666667","6501300","土城區"
"236049","913-UM","2018/09/08 19:39:25","新北市土城區明德路一段53號","121.465303333333","24.9847366666667","6501300","土城區"
"236063","915-UM","2018/09/08 19:39:26","新北市土城區延平街69巷4號","121.467441666667","24.9928583333333","6501300","土城區"
"236055","AAC-216","2018/09/08 19:39:22","新北市土城區學府路一段66-1號","121.457016666667","24.9884283333333","6501300","土城區"
"242048","497-BY","2018/09/08 19:39:15","新北市新莊區後港一路3號","121.42406","25.0262583333333","6500500","新莊區"
"242023","362-BY","2018/09/08 19:39:12","新北市新莊區復興路三段16號","121.46079","25.0444466666667","6500500","新莊區"
"242034","135-UY","2018/09/08 19:39:25","新北市新莊區仁愛街12號","121.444236666667","25.0353033333333","6500500","新莊區"
"242013","173-VK","2018/09/08 19:39:18","新北市新莊區中誠街145號","121.448805","25.0474966666667","6500500","新莊區"
"242031","348-TH","2018/09/08 19:39:11","新北市新莊區公園一路136號","121.446246666667","25.0381283333333","6500500","新莊區"
"242004","349-TH","2018/09/08 19:39:27","新北市新莊區化成路29巷69號","121.462196666667","25.04393","6500500","新莊區"
"242021","350-TH","2018/09/08 19:39:19","新北市新莊區中正路473-1號","121.442073333333","25.0329983333333","6500500","新莊區"
"238015","755-BX","2018/09/08 19:39:11","新北市樹林區中興街46號","121.421151666667","24.9910816666667","6500700","樹林區"
"238023","601-UM","2018/09/08 19:39:19","新北市樹林區三福街148號","121.405336666667","25.016035","6500700","樹林區"
"238019","599-UM","2018/09/08 19:39:23","新北市樹林區八德街3號","121.41775","24.9845733333333","6500700","樹林區"
"238024","5061-A6","2018/09/08 19:39:26","新北市樹林區佳園路一段72巷11號","121.392531666667","24.9698466666667","6500700","樹林區"
"238022","KEA-2213","2018/09/08 19:39:20","新北市樹林區國凱街32-1號","121.419778333333","24.9784416666667","6500700","樹林區"
"238021","KEA-2539","2018/09/08 19:39:25","新北市樹林區佳園路三段145巷16號","121.386708333333","24.949125","6500700","樹林區"
"238025","303-VK","2018/09/08 19:39:23","新北市樹林區中山路一段169號","121.42179","24.9884916666667","6500700","樹林區"
"238017","283-BY","2018/09/08 19:39:19","新北市樹林區保安街二段115號","121.415535","25.0015583333333","6500700","樹林區"
"238014","282-BY","2018/09/08 19:39:23","新北市樹林區千歲街28巷17號","121.426205","24.9955933333333","6500700","樹林區"
"238026","172-UY","2018/09/08 19:39:23","新北市樹林區佳園路二段111-10號","121.390426666667","24.9585516666667","6500700","樹林區"
"239007","AAC-297","2018/09/08 19:39:28","新北市鶯歌區大湖路326巷2弄1號","121.345865","24.9703733333333","6500800","鶯歌區"
"239006","891-R6","2018/09/08 19:39:29","新北市鶯歌區文化路295號","121.352791666667","24.9526516666667","6500800","鶯歌區"
"239002","359-BY","2018/09/08 19:39:23","新北市鶯歌區中山路129號","121.349518333333","24.9571183333333","6500800","鶯歌區"
"221008","489-VK","2018/09/08 19:39:11","新北市汐止區康寧街61巷65號","121.620185","25.0678166666667","6501100","汐止區"
"221036","130-UY","2018/09/08 19:39:21","新北市汐止區汐萬路一段256巷1號","121.651721666667","25.0747983333333","6501100","汐止區"
"221015","131-UY","2018/09/08 19:39:26","新北市汐止區汐萬路一段312號","121.650573333333","25.0753716666667","6501100","汐止區"
"221010","269-BY","2018/09/08 19:39:21","新北市汐止區汐萬路二段7號","121.649195","25.0802033333333","6501100","汐止區"
"221012","278-VK","2018/09/08 19:39:27","新北市汐止區茄安路231號","121.678658333333","25.070645","6501100","汐止區"
"221023","279-VK","2018/09/08 19:39:29","新北市汐止區明峰街190號","121.628138333333","25.0697233333333","6501100","汐止區"
"221032","280-BY","2018/09/08 19:39:19","新北市汐止區新台五路一段94-1號","121.648505","25.0613266666667","6501100","汐止區"
"221027","281-BY","2018/09/08 19:39:21","新北市汐止區忠孝東路9號","121.658258333333","25.0659866666667","6501100","汐止區"
"221033","297-VK","2018/09/08 19:39:09","新北市汐止區芳園街6號","121.624998333333","25.0378216666667","6501100","汐止區"
"221021","299-VK","2018/09/08 19:39:26","新北市汐止區大同路二段132號","121.65164","25.0635466666667","6501100","汐止區"
"221031","353-TW","2018/09/08 19:39:25","新北市汐止區康寧街901號","121.650818333333","25.07525","6501100","汐止區"
"221025","623-UM","2018/09/08 19:39:18","新北市汐止區福安街20巷1號","121.662566666667","25.06496","6501100","汐止區"
"221038","646-BX","2018/09/08 19:39:25","新北市汐止區忠孝東路243號","121.662736666667","25.0675133333333","6501100","汐止區"
"221002","707-TV","2018/09/08 19:39:23","新北市汐止區大同路一段219巷26號","121.633128333333","25.058805","6501100","汐止區"
"220079","145-BY","2018/09/08 19:39:18","新北市板橋區復興街128號","121.46083","25.018015","6500100","板橋區"
"220082","610-BX","2018/09/08 19:39:24","新北市板橋區大觀路三段180巷30號","121.42987","24.9937616666667","6500100","板橋區"
"220101","245-BX","2018/09/08 19:39:21","新北市板橋區莒光路200巷25號","121.473048333333","25.0220983333333","6500100","板橋區"
"220080","256-TC","2018/09/08 19:39:09","新北市板橋區大觀路二段37巷126號","121.449435","25.002215","6500100","板橋區"
"220091","267-BY","2018/09/08 19:39:13","新北市板橋區懷德街139巷27號","121.480095","25.0309266666667","6500100","板橋區"
"220056","276-BY","2018/09/08 19:39:17","新北市板橋區四川路二段47巷1弄2號","121.454103333333","24.9949666666667","6500100","板橋區"
"220072","277-BY","2018/09/08 19:39:22","新北市板橋區金門街215巷2號","121.432653333333","24.9899066666667","6500100","板橋區"
"220071","283-VK","2018/09/08 19:39:29","新北市板橋區信義路279巷11-3號","121.46261","24.989685","6500100","板橋區"
"220094","285-UM","2018/09/08 19:39:22","新北市板橋區銘傳街108號","121.470018333333","25.0318416666667","6500100","板橋區"
"220053","285-VK","2018/09/08 19:39:13","新北市板橋區中山路二段148巷30號","121.477098333333","25.0160833333333","6500100","板橋區"
"220083","286-VK","2018/09/08 19:39:23","新北市板橋區大觀路二段174巷165弄2號","121.441838333333","25.0034183333333","6500100","板橋區"
"220081","287-VK","2018/09/08 19:39:26","新北市板橋區大觀路一段29巷20號","121.449183333333","25.00542","6500100","板橋區"
"220090","288-VK","2018/09/08 19:39:24","新北市板橋區長江路一段48巷6弄2號","121.45918","25.0284366666667","6500100","板橋區"
"220061","293-UM","2018/09/08 19:39:12","新北市板橋區漢生東路113巷9號","121.46769","25.01542","6500100","板橋區"
"220092","295-UM","2018/09/08 19:39:16","新北市板橋區文化路一段387巷13號","121.466318333333","25.02203","6500100","板橋區"
"220084","296-UM","2018/09/08 19:39:25","新北市板橋區滿平二街2巷1弄24號","121.424936666667","24.986915","6500100","板橋區"
"220062","299-UM","2018/09/08 19:39:13","新北市板橋區三民路二段83號","121.479398333333","25.0166483333333","6500100","板橋區"
"220075","303-R5","2018/09/08 19:39:25","新北市板橋區大勇街3巷1號","121.455041666667","25.0174533333333","6500100","板橋區"
"220098","317-R6","2018/09/08 19:39:25","新北市板橋區四維路269巷45號","121.461328333333","25.0273683333333","6500100","板橋區"
"220064","486-VK","2018/09/08 19:39:13","新北市板橋區中山路一段118號","121.462896666667","25.0105833333333","6500100","板橋區"
"220088","491-VK","2018/09/08 19:39:18","新北市板橋區雙十路二段149號","121.474681666667","25.02812","6500100","板橋區"
"220035","560-BX","2018/09/08 19:39:21","新北市板橋區金華街85巷40號","121.459245","25.0212","6500100","板橋區"
"220103","561-BX","2018/09/08 19:39:23","新北市板橋區文化路一段286巷2弄2號","121.468426666667","25.021285","6500100","板橋區"
"220063","609-BX","2018/09/08 19:39:25","新北市板橋區中山路二段408號","121.48279","25.0208133333333","6500100","板橋區"
"220057","686-BX","2018/09/08 19:39:27","新北市板橋區和平路安樂巷54號","121.46226","24.9930866666667","6500100","板橋區"
"220077","687-BX","2018/09/08 19:39:29","新北市板橋區僑中二街86號","121.44654","25.0094716666667","6500100","板橋區"
"220093","689-BX","2018/09/08 19:39:16","新北市板橋區長江路一段93-3號","121.459118333333","25.029515","6500100","板橋區"
"220054","741-BX","2018/09/08 19:39:17","新北市板橋區實踐路65巷45號","121.4653","25.00626","6500100","板橋區"
"220102","KEA-2699","2018/09/08 19:39:25","新北市板橋區文化路二段410巷31號","121.474705","25.0305383333333","6500100","板橋區"
"220055","827-TW","2018/09/08 19:39:26","新北市板橋區國慶路149巷1弄2號","121.461225","24.9966183333333","6500100","板橋區"
"220067","829-TW","2018/09/08 19:39:22","新北市板橋區長安街168巷10弄18號","121.473466666667","25.01057","6500100","板橋區"
"220068","830-TW","2018/09/08 19:39:18","新北市板橋區萬安街2號","121.484816666667","25.0223866666667","6500100","板橋區"
"220096","831-TW","2018/09/08 19:39:28","新北市板橋區民生路二段240巷7號","121.468765","25.0232566666667","6500100","板橋區"
"220089","833-TW","2018/09/08 19:39:20","新北市板橋區雨農路16號","121.46215","25.0247633333333","6500100","板橋區"
"220074","895-R6","2018/09/08 19:39:21","新北市板橋區文化路一段9號","121.45787","25.0098966666667","6500100","板橋區"
"220073","985-R7","2018/09/08 19:39:09","新北市板橋區國光路49巷17號","121.458923333333","25.0187583333333","6500100","板橋區"
"220097","AAC-210","2018/09/08 19:39:29","新北市板橋區幸福路31-2號","121.46165","25.0202233333333","6500100","板橋區"
"220070","AAC-253","2018/09/08 19:39:27","新北市板橋區民族路220號","121.46854","25.0073866666667","6500100","板橋區"
"235068","KEA-2873","2018/09/08 19:39:02","新北市中和區景平路493巷10號","121.4993","24.99701","6500300","中和區"
"235061","KEA-2875","2018/09/08 19:39:27","新北市中和區民利街31巷2弄8號","121.479828333333","24.99865","6500300","中和區"
