"lineid","car","time","location","longitude","latitude","cityid","cityname"
"234070","552-UM","2018/09/08 21:08:26","新北市八里區中山路三段409號","121.368445","25.1348383333333","6500400","永和區"
"234077","969-R7","2018/09/08 21:08:51","新北市林口區太平里180號","121.368491666667","25.134265","6500400","永和區"
"244018","403-UM","2018/09/08 20:56:00","新北市林口區粉寮路二段88巷100-12號","121.409596666667","25.0902266666667","6501700","林口區"
"243006","680-BX","2018/09/08 21:06:57","新北市泰山區黎明路25號","121.422141666667","25.0606383333333","6501600","泰山區"
"231059","046-UY","2018/09/08 21:08:46","新北市新店區僑信路46號","121.49931","24.9505833333333","6500600","新店區"
"231040","047-UY","2018/09/08 21:08:56","新北市新店區北新路一段351號","121.54192","24.9693583333333","6500600","新店區"
"231052","108-UY","2018/09/08 21:08:53","新北市新店區安康路一段42號","121.530963333333","24.9610716666667","6500600","新店區"
"231064","110-UY","2018/09/08 21:08:46","新北市新店區薏仁坑路自強巷6號","121.496583333333","24.9584166666667","6500600","新店區"
"231048","187-VK","2018/09/08 21:08:52","新北市新店區文化路53號","121.544378333333","24.9814883333333","6500600","新店區"
"231054","KEA-2219","2018/09/08 21:08:46","新北市新店區大新街7巷21號","121.544183333333","24.9679383333333","6500600","新店區"
"231042","268-BY","2018/09/08 21:08:47","新北市新店區寶興路60巷3號","121.549865","24.9718","6500600","新店區"
"231051","278-BY","2018/09/08 21:08:50","新北市新店區中正路700巷82號","121.53591","24.9931766666667","6500600","新店區"
"231050","AAD-862","2018/09/08 21:08:54","新北市新店區中華路91號","121.539168333333","24.9689733333333","6500600","新店區"
"231065","512-UM","2018/09/08 21:08:42","新北市新店區安祥路69巷41弄25號","121.482256666667","24.96132","6500600","新店區"
"231061","619-UM","2018/09/08 21:09:02","新北市新店區永安街22-1號","121.51744","24.9864733333333","6500600","新店區"
"231063","641-BX","2018/09/08 21:08:58","新北市新店區玫瑰路58巷2號","121.495358333333","24.94661","6500600","新店區"
"231062","720-UM","2018/09/08 21:08:56","新北市新店區雙城路4巷2號","121.491293333333","24.95099","6500600","新店區"
"231060","897-TW","2018/09/08 21:08:46","新北市新店區薏仁坑路自強巷6號","121.496676666667","24.9584716666667","6500600","新店區"
"241011","013-R5","2018/09/08 21:08:56","新北市三重區秀江街119號","121.49971","25.072195","6500200","三重區"
"241028","022-UY","2018/09/08 21:09:00","新北市三重區正義南路54號","121.498248333333","25.06067","6500200","三重區"
"241008","059-VK","2018/09/08 21:08:58","新北市三重區三和路三段8號","121.497133333333","25.07008","6500200","三重區"
"241022","060-VK","2018/09/08 21:08:51","新北市三重區中正北路64巷24號","121.486103333333","25.0637783333333","6500200","三重區"
"241031","061-VK","2018/09/08 21:08:54","新北市三重區重新路五段283號","121.478823333333","25.0490233333333","6500200","三重區"
"241015","062-VK","2018/09/08 21:08:50","新北市三重區福德北路50號","121.50195","25.0657116666667","6500200","三重區"
"241017","063-VK","2018/09/08 21:08:48","新北市三重區國隆路31號","121.492248333333","25.06456","6500200","三重區"
"241024","065-VK","2018/09/08 21:08:43","新北市三重區國道路一段58巷13號","121.481341666667","25.0721366666667","6500200","三重區"
"241026","066-VK","2018/09/08 21:08:56","新北市三重區文化南路67號","121.50032","25.0607566666667","6500200","三重區"
"241002","090-VK","2018/09/08 21:08:53","新北市三重區五華街19-3號","121.49493","25.0806066666667","6500200","三重區"
"241003","091-VK","2018/09/08 21:08:55","新北市三重區仁義街224號","121.494915","25.0846783333333","6500200","三重區"
"241009","265-UM","2018/09/08 21:08:43","新北市三重區忠孝路二段124號","121.483033333333","25.06883","6500200","三重區"
"241016","266-UM","2018/09/08 21:08:45","新北市三重區信義西街118號","121.495688333333","25.0641833333333","6500200","三重區"
"241018","268-UM","2018/09/08 21:08:46","新北市三重區正義北路332-1號","121.4943","25.07055","6500200","三重區"
"241032","269-UM","2018/09/08 21:09:00","新北市三重區新北大道二段166號","121.469056666667","25.0616216666667","6500200","三重區"
"241013","270-UM","2018/09/08 21:08:44","新北市三重區仁賢街12-1號","121.495708333333","25.0748566666667","6500200","三重區"
"241025","271-UM","2018/09/08 21:08:58","新北市三重區忠孝路三段40巷16弄10號","121.482293333333","25.0668916666667","6500200","三重區"
"241007","398-BY","2018/09/08 21:08:52","新北市三重區三和路四段145巷85號","121.486411666667","25.078725","6500200","三重區"
"241004","475-VK","2018/09/08 21:08:59","新北市三重區仁愛街423-1號","121.490398333333","25.0815016666667","6500200","三重區"
"241020","478-VK","2018/09/08 21:08:53","新北市三重區忠孝路二段35號","121.48593","25.071085","6500200","三重區"
"241030","480-VK","2018/09/08 21:08:51","新北市三重區五谷王北街20巷15弄1號","121.475038333333","25.048455","6500200","三重區"
"241014","543-UM","2018/09/08 21:08:44","新北市三重區三和路二段37-8號","121.501373333333","25.0675616666667","6500200","三重區"
"241023","545-UM","2018/09/08 21:08:50","新北市三重區洛陽街45巷20號","121.482431666667","25.0638383333333","6500200","三重區"
"241001","547-UM","2018/09/08 21:08:50","新北市三重區福隆路50號","121.492463333333","25.0784016666667","6500200","三重區"
"241019","KEA-2593","2018/09/08 21:08:55","新北市三重區自強路二段74巷19號","121.488005","25.0698783333333","6500200","三重區"
"241006","AAD-863","2018/09/08 21:08:47","新北市三重區明志街135號","121.48928","25.06327","6500200","三重區"
"241005","887-TS","2018/09/08 21:08:49","新北市三重區三信路182號","121.48797","25.0862033333333","6500200","三重區"
"241012","941-UM","2018/09/08 21:08:43","新北市三重區仁信街27號","121.501335","25.0755966666667","6500200","三重區"
"241029","942-UM","2018/09/08 21:08:57","新北市三重區正義南路111號","121.49823","25.0585516666667","6500200","三重區"
"241033","AAC-255","2018/09/08 21:08:54","新北市三重區重光街107-1號","121.466331666667","25.064735","6500200","三重區"
"235040","150-BY","2018/09/08 21:08:57","新北市中和區員山路36巷12號","121.483975","24.9908","6500300","中和區"
"235072","301-VK","2018/09/08 21:08:41","新北市中和區員山路36巷13號","121.484008333333","24.99099","6500300","中和區"
"247012","KEA-2869","2018/09/08 21:08:55","新北市蘆洲區民權路26號","121.476733333333","25.0857766666667","6501400","蘆洲區"
"235069","4980-A6","2018/09/08 21:08:47","新北市中和區員山路36巷16-2號","121.485273333333","24.9918233333333","6500300","中和區"
"235010","733-UM","2018/09/08 21:09:02","新北市中和區員山路36巷13號","121.484113333333","24.9908833333333","6500300","中和區"
"247002","893-R6","2018/09/08 21:08:52","新北市蘆洲區永樂街38巷40號","121.458581666667","25.090065","6501400","蘆洲區"
"247016","546-UM","2018/09/08 21:09:01","新北市蘆洲區光華路150巷40號","121.464918333333","25.08347","6501400","蘆洲區"
"247024","500-BY","2018/09/08 21:08:49","新北市蘆洲區長興路50巷1號","121.463813333333","25.0838266666667","6501400","蘆洲區"
"247014","339-TH","2018/09/08 21:09:02","新北市蘆洲區中央路155號","121.472665","25.0846983333333","6501400","蘆洲區"
"247006","337-TH","2018/09/08 21:08:50","新北市蘆洲區永安南路二段16巷18號","121.468003333333","25.0778833333333","6501400","蘆洲區"
"247008","336-TH","2018/09/08 21:08:58","新北市蘆洲區民生街47號","121.474981666667","25.0788616666667","6501400","蘆洲區"
"247020","057-VK","2018/09/08 21:08:53","新北市蘆洲區民族路464-1號","121.471861666667","25.0917416666667","6501400","蘆洲區"
"247010","056-VK","2018/09/08 21:08:47","新北市蘆洲區鷺江街38號","121.477293333333","25.0830133333333","6501400","蘆洲區"
"247018","007-UY","2018/09/08 21:08:44","新北市蘆洲區民族路408巷7號","121.47477","25.0918616666667","6501400","蘆洲區"
"247004","002-UY","2018/09/08 21:09:02","新北市蘆洲區永安南路二段268號","121.458505","25.0807916666667","6501400","蘆洲區"
"247022","001-UY","2018/09/08 21:09:00","新北市蘆洲區民族路560號","121.46751","25.088885","6501400","蘆洲區"
"251009","008-UM","2018/09/08 21:08:52","新北市淡水區民族路112巷40號","121.461993333333","25.1344183333333","6501000","淡水區"
"251005","010-UM","2018/09/08 21:09:00","新北市淡水區博愛街47號","121.446721666667","25.1691083333333","6501000","淡水區"
"251001","011-UM","2018/09/08 21:08:55","新北市淡水區新市一路三段101巷16弄14號","121.446756666667","25.18387","6501000","淡水區"
"251002","012-UM","2018/09/08 21:08:44","新北市淡水區水源街一段160號","121.44859","25.171315","6501000","淡水區"
"251013","KEA-2871","2018/09/08 21:08:59","新北市淡水區行忠路328號","121.460443333333","25.1996166666667","6501000","淡水區"
"251016","179-VK","2018/09/08 21:08:55","新北市淡水區前洲子5號","121.443276666667","25.218655","6501000","淡水區"
"251014","180-VK","2018/09/08 21:08:52","新北市淡水區六塊厝1-1號","121.450193333333","25.2427933333333","6501000","淡水區"
"251015","181-VK","2018/09/08 21:08:55","新北市淡水區淡金路四段542巷59號","121.454548333333","25.2269083333333","6501000","淡水區"
"251010","413-VK","2018/09/08 21:08:51","新北市淡水區中正路一段63巷5-3號","121.423371666667","25.17736","6501000","淡水區"
"251012","441-VK","2018/09/08 21:08:44","新北市淡水區淡金路五段151號","121.455803333333","25.2401216666667","6501000","淡水區"
"251007","577-R6","2018/09/08 21:08:44","新北市淡水區水源街二段34巷3號","121.450188333333","25.1732233333333","6501000","淡水區"
"251011","650-BX","2018/09/08 21:08:56","新北市淡水區新民街180巷31號","121.43795","25.1797133333333","6501000","淡水區"
"251003","673-BX","2018/09/08 21:08:52","新北市淡水區新春街96號","121.43911","25.18244","6501000","淡水區"
"242053","441-UM","2018/09/08 21:08:51","新北市樹林區八德街236號","121.4123","24.9704083333333","6500500","新莊區"
"242004","349-TH","2018/09/08 21:07:57","新北市樹林區中山路三段214號","121.37989","24.9677016666667","6500500","新莊區"
"221027","281-BY","2018/09/08 21:07:33","新北市汐止區汐萬路一段256巷1號","121.651843333333","25.074905","6501100","汐止區"
"220070","AAC-253","2018/09/08 21:08:47","新北市八里區下罟子1-11號","121.389973333333","25.1420766666667","6500100","板橋區"
