"lineid","car","time","location","longitude","latitude","cityid","cityname"
"234070","552-UM","2018/09/08 21:39:26","新北市中和區勝利路2號","121.498186666667","25.00842","6500400","永和區"
"234077","969-R7","2018/09/08 21:39:31","新北市永和區光復街31-1號","121.51651","25.0178883333333","6500400","永和區"
"243001","297-R6","2018/09/08 21:13:52","新北市泰山區黎明路25號","121.421828333333","25.0608233333333","6501600","泰山區"
"241017","063-VK","2018/09/08 21:39:13","新北市三重區新北大道一段15巷2弄2號","121.487718333333","25.060735","6500200","三重區"
"241005","887-TS","2018/09/08 21:39:29","新北市三重區碧華街1號","121.483485","25.0811216666667","6500200","三重區"
"235072","301-VK","2018/09/08 21:14:34","新北市中和區員山路36巷13號","121.484001666667","24.99101","6500300","中和區"
"247012","KEA-2869","2018/09/08 21:39:15","新北市五股區新城三路45號","121.448663333333","25.0929733333333","6501400","蘆洲區"
"235069","4980-A6","2018/09/08 21:17:36","新北市中和區員山路36巷16-2號","121.485131666667","24.991715","6500300","中和區"
"235010","733-UM","2018/09/08 21:15:57","新北市中和區員山路36巷13號","121.484126666667","24.9909716666667","6500300","中和區"
"251009","008-UM","2018/09/08 21:39:32","新北市淡水區民生路52巷22弄5號","121.462618333333","25.1374333333333","6501000","淡水區"
"251004","009-UM","2018/09/08 21:39:32","新北市淡水區民生路48號","121.461818333333","25.1379666666667","6501000","淡水區"
"251005","010-UM","2018/09/08 21:39:20","新北市淡水區學府路88號","121.449151666667","25.170975","6501000","淡水區"
"251001","011-UM","2018/09/08 21:39:15","新北市淡水區新市二路三段152號","121.435403333333","25.1942883333333","6501000","淡水區"
"251002","012-UM","2018/09/08 21:39:24","新北市淡水區學府路154號","121.44649","25.17435","6501000","淡水區"
"251016","179-VK","2018/09/08 21:39:15","新北市淡水區淡金路三段33號","121.446636666667","25.1978483333333","6501000","淡水區"
"251014","180-VK","2018/09/08 21:39:31","新北市淡水區牛埔子11-1號","121.450056666667","25.2191016666667","6501000","淡水區"
"251010","413-VK","2018/09/08 21:39:31","新北市淡水區沙崙路216巷15號","121.426166666667","25.18412","6501000","淡水區"
"251012","441-VK","2018/09/08 21:39:23","新北市淡水區淡金路四段203號","121.45167","25.221965","6501000","淡水區"
"251008","443-VK","2018/09/08 21:37:07","新北市淡水區水源街二段62號","121.451076666667","25.1740983333333","6501000","淡水區"
"251006","561-UM","2018/09/08 21:39:20","新北市淡水區中正路11巷3號","121.437831666667","25.1707466666667","6501000","淡水區"
"251007","577-R6","2018/09/08 21:39:24","新北市淡水區水源街二段194號","121.456753333333","25.175985","6501000","淡水區"
"251011","650-BX","2018/09/08 21:39:32","新北市淡水區新民街322巷2號","121.435323333333","25.1835383333333","6501000","淡水區"
"251003","673-BX","2018/09/08 21:39:12","新北市淡水區新春街46號","121.437516666667","25.1817366666667","6501000","淡水區"
"220070","AAC-253","2018/09/08 21:39:27","新北市板橋區華東街1-9號","121.44826","24.9948666666667","6500100","板橋區"
