"lineid","car","time","location","longitude","latitude","cityid","cityname"
"241017","063-VK","2018/09/08 22:19:13","新北市八里區荖阡坑路4-31號","121.398261666667","25.1419483333333","6500200","三重區"
"247012","KEA-2869","2018/09/08 22:19:15","新北市五股區成洲一路23號","121.450003333333","25.0960633333333","6501400","蘆洲區"
"251004","009-UM","2018/09/08 22:19:32","新北市淡水區民族路33號","121.462331666667","25.1358483333333","6501000","淡水區"
"251010","413-VK","2018/09/08 22:19:11","新北市淡水區沙崙路200號","121.424685","25.1839666666667","6501000","淡水區"
"251008","443-VK","2018/09/08 22:19:24","新北市淡水區學府路104號","121.449843333333","25.1718283333333","6501000","淡水區"
"251007","577-R6","2018/09/08 22:19:24","新北市淡水區北新路135號","121.449386666667","25.17884","6501000","淡水區"
"251011","650-BX","2018/09/08 22:19:16","新北市淡水區水碓街7號","121.443155","25.1771883333333","6501000","淡水區"
"220070","AAC-253","2018/09/08 21:52:53","新北市板橋區華東街1-9號","121.448273333333","24.9948733333333","6500100","板橋區"
