"lineid","car","time","location","longitude","latitude","cityid","cityname"
"234070","149-BY","2018/07/13 08:39:40","新北市永和區文化路172號","121.512013333333","25.0157366666667","6500400","永和區"
"248005","653-BX","2018/07/13 08:39:37","新北市五股區明德路12巷3號","121.433318333333","25.0718366666667","6501500","五股區"
"244004","248-BX","2018/07/13 08:39:46","新北市林口區文化北路一段151號","121.357081666667","25.0701816666667","6501700","林口區"
"222005","289-BY","2018/07/13 08:38:08","台北市南港區南深路52號","121.623631666667","25.0215083333333","6501800","深坑區"
"231007","189-VK","2018/07/13 08:39:47","新北市新店區小坑二路117號","121.518355","24.9123533333333","6500600","新店區"
"231009","192-VK","2018/07/13 08:39:29","新北市新店區新烏路三段165巷36號","121.553355","24.90117","6500600","新店區"
"235001","611-BX","2018/07/13 08:39:35","新北市中和區民享街97巷20號","121.47519","24.9999866666667","6500300","中和區"
"226005","5620-A6","2018/07/13 08:39:30","新北市平溪區南山里南山坪125號","121.786291666667","25.0453066666667","6502400","平溪區"
"226001","7418-A5","2018/07/13 08:39:28","新北市平溪區東勢里火燒寮34-1號","121.760185","24.9912566666667","6502400","平溪區"
"226006","AGD-0702","2018/07/13 08:39:34","新北市平溪區十分里十分街241號","121.77803","25.044265","6502400","平溪區"
"223006","022-BY","2018/07/13 08:39:43","新北市石碇區碇坪路一段130號","121.659353333333","24.99138","6501900","石碇區"
"223002","KEA-2673","2018/07/13 08:39:17","新北市深坑區文山路一段8號","121.644323333333","25.0088516666667","6501900","石碇區"
"223003","205-TH","2018/07/13 08:39:43","新北市石碇區北宜路六段柑腳巷2號","121.659558333333","24.9380416666667","6501900","石碇區"
"223008","406-TH","2018/07/13 08:39:35","新北市石碇區碇南路二段松柏崎巷52號","121.67855","25.026125","6501900","石碇區"
"223001","592-UM","2018/07/13 08:39:36","新北市石碇區北宜路六段柑腳巷2號","121.659593333333","24.9380716666667","6501900","石碇區"
"223004","660-BX","2018/07/13 08:39:49","新北市石碇區崩山15號","121.674911666667","24.9707216666667","6501900","石碇區"
"223005","677-TV","2018/07/13 08:39:29","新北市石碇區崩山24-2號","121.67862","24.9678483333333","6501900","石碇區"
"227005","282-VK","2018/07/13 08:39:48","新北市雙溪區外柑里四分子1號","121.833151666667","25.001795","6502500","雙溪區"
"237001","159-UY","2018/07/13 08:39:35","新北市三峽區學勤路113號","121.375256666667","24.9464516666667","6500900","三峽區"
"236010","165-UM","2018/07/13 08:25:10","新北市土城區石門路100-3號","121.45866","24.9517933333333","6501300","土城區"
"236004","339-SR","2018/07/13 08:39:41","新北市土城區中央路三段185號","121.431125","24.965","6501300","土城區"
"236006","498-BY","2018/07/13 08:39:40","新北市土城區永和街2巷18號","121.434155","24.9644983333333","6501300","土城區"
