"lineid","car","time","location","longitude","latitude","cityid","cityname"
"234070","149-BY","2018/07/13 09:09:11","新北市永和區福和路1號","121.526401666667","25.0099133333333","6500400","永和區"
"248005","653-BX","2018/07/13 09:29:28","新北市五股區登林路貿商巷3弄15號","121.42971","25.0699533333333","6501500","五股區"
"222005","289-BY","2018/07/13 09:29:32","新北市深坑區土庫尖路60-6號","121.636216666667","25.0179583333333","6501800","深坑區"
"231007","189-VK","2018/07/13 09:29:27","新北市新店區新潭路三段220號","121.503973333333","24.9048133333333","6500600","新店區"
"231009","192-VK","2018/07/13 09:29:29","新北市新店區平廣路一段216號","121.512048333333","24.888585","6500600","新店區"
"223003","205-TH","2018/07/13 09:29:43","新北市石碇區碇格路二段16-5號","121.641133333333","24.9540766666667","6501900","石碇區"
"223008","406-TH","2018/07/13 09:28:03","新北市石碇區西勢坑5-3號","121.6906","24.9892366666667","6501900","石碇區"
"223004","660-BX","2018/07/13 09:29:49","新北市石碇區碇坪路二段25號","121.683575","24.976045","6501900","石碇區"
"223005","677-TV","2018/07/13 09:29:31","新北市石碇區碇坪路二段19號","121.68212","24.9747566666667","6501900","石碇區"
"227005","282-VK","2018/07/13 09:17:48","新北市雙溪區泰平里料角坑19號","121.81184","24.9715116666667","6502500","雙溪區"
"237001","159-UY","2018/07/13 09:28:15","新北市樹林區中山路三段214號","121.380178333333","24.96793","6500900","三峽區"
"236010","165-UM","2018/07/13 09:29:50","新北市土城區中央路一段184巷1-1號","121.430245","24.96543","6501300","土城區"
"236004","339-SR","2018/07/13 09:29:35","新北市土城區明德路二段185號","121.44749","24.9832866666667","6501300","土城區"
"236006","498-BY","2018/07/13 09:29:40","新北市土城區承天路88-1號","121.443086666667","24.9604716666667","6501300","土城區"
