"lineid","car","time","location","longitude","latitude","cityid","cityname"
"234044","148-BY","2018/07/13 12:49:53","新北市永和區秀朗路二段175號","121.525736666667","25.0015633333333","6500400","永和區"
"234070","149-BY","2018/07/13 12:49:51","新北市永和區福和路1號","121.525676666667","25.00948","6500400","永和區"
"234005","207-UY","2018/07/13 12:49:35","新北市永和區文化路123號","121.512341666667","25.0152916666667","6500400","永和區"
"234078","298-R6","2018/07/13 12:49:50","新北市永和區林森路136號","121.522165","25.0029783333333","6500400","永和區"
"234036","336-UY","2018/07/13 12:49:45","新北市永和區成功路一段89號","121.526893333333","25.0029316666667","6500400","永和區"
"234062","337-UY","2018/07/13 12:49:41","新北市永和區福和路1號","121.526388333333","25.0096783333333","6500400","永和區"
"234068","552-UM","2018/07/13 12:49:32","新北市永和區豫溪街130號","121.520735","25.01029","6500400","永和區"
"234084","553-UM","2018/07/13 12:49:35","新北市永和區中正路69號","121.514868333333","24.9967216666667","6500400","永和區"
"234015","745-BX","2018/07/13 12:49:32","新北市永和區忠孝街26巷27弄1號","121.515206666667","25.01703","6500400","永和區"
"234028","746-BX","2018/07/13 12:49:35","新北市永和區得和路321號","121.52337","24.9995966666667","6500400","永和區"
"234052","KEA-2590","2018/07/13 12:49:38","新北市永和區豫溪街189巷4號","121.522801666667","25.0104166666667","6500400","永和區"
"234012","KEA-2591","2018/07/13 12:49:44","新北市永和區保福路二段133巷36弄2號","121.508798333333","25.0136416666667","6500400","永和區"
"234060","AAD-866","2018/07/13 12:49:37","新北市永和區福和路208號","121.519668333333","25.0077316666667","6500400","永和區"
"234048","863-TW","2018/07/13 12:49:36","新北市永和區福和路1號","121.525995","25.009855","6500400","永和區"
"234025","9371-KE","2018/07/13 12:49:44","新北市永和區中正路657號","121.51488","25.0101416666667","6500400","永和區"
"234010","9373-KE","2018/07/13 12:49:45","新北市永和區保福路二段158巷1號","121.509115","25.015045","6500400","永和區"
"248019","225-UY","2018/07/13 12:49:33","新北市五股區中興路二段83巷26-6號","121.460021666667","25.0752733333333","6501500","五股區"
"234022","9380-KE","2018/07/13 12:49:49","新北市永和區竹林路119巷28-3號","121.521855","25.0117716666667","6500400","永和區"
"234076","969-R7","2018/07/13 12:49:45","新北市永和區中正路4號","121.512448333333","24.9937266666667","6500400","永和區"
"234066","AAC-212","2018/07/13 12:49:53","新北市永和區永和路一段22號","121.513061666667","25.00479","6500400","永和區"
"234001","AAC-295","2018/07/13 12:49:48","新北市永和區中正路742-1號","121.515153333333","25.010295","6500400","永和區"
"244004","248-BX","2018/07/13 12:49:41","新北市林口區粉寮69號","121.405123333333","25.0908033333333","6501700","林口區"
"231005","106-UY","2018/07/13 12:49:45","新北市新店區安華路28-1號","121.519631666667","24.9608","6500600","新店區"
"231010","107-UY","2018/07/13 12:49:40","新北市新店區安一路一段1-1號","121.519506666667","24.961485","6500600","新店區"
"231036","110-UY","2018/07/13 12:49:45","新北市新店區安一路一段1-1號","121.519311666667","24.9612933333333","6500600","新店區"
"231012","187-VK","2018/07/13 12:49:44","新北市新店區安一路一段1-1號","121.519565","24.9612716666667","6500600","新店區"
"231023","KEA-2219","2018/07/13 12:49:48","新北市新店區安一路一段1-1號","121.51989","24.961125","6500600","新店區"
"231003","268-BY","2018/07/13 12:49:40","新北市新店區安華路28-1號","121.519411666667","24.9605583333333","6500600","新店區"
"231018","278-BY","2018/07/13 12:49:38","新北市新店區安一路一段1-1號","121.51956","24.961045","6500600","新店區"
"231016","AAD-862","2018/07/13 12:49:42","新北市新店區安華路28-1號","121.519828333333","24.96104","6500600","新店區"
"231037","4716-K9","2018/07/13 12:49:43","新北市新店區安一路一段1-1號","121.519316666667","24.9612183333333","6500600","新店區"
"231013","513-UM","2018/07/13 12:49:48","新北市新店區安一路一段1-1號","121.519613333333","24.9611633333333","6500600","新店區"
"231030","619-UM","2018/07/13 12:49:38","新北市新店區安一路一段1-1號","121.519515","24.961025","6500600","新店區"
"231035","719-UM","2018/07/13 12:49:45","新北市新店區安一路一段1-1號","121.51953","24.961355","6500600","新店區"
"231004","899-TW","2018/07/13 12:49:41","新北市新店區安華路28-1號","121.519395","24.960845","6500600","新店區"
"235028","005-UY","2018/07/13 12:49:51","新北市中和區員山路36巷16-3號","121.48505","24.9912916666667","6500300","中和區"
"235027","006-UY","2018/07/13 12:49:34","新北市中和區員山路36巷16-3號","121.48493","24.9916566666667","6500300","中和區"
"235029","098-UM","2018/07/13 12:49:47","新北市中和區員山路36巷16-3號","121.485011666667","24.9912333333333","6500300","中和區"
"235002","185-VK","2018/07/13 12:49:53","新北市中和區員山路36巷16-2號","121.48534","24.9917133333333","6500300","中和區"
"235031","255-BX","2018/07/13 12:49:32","新北市中和區中山路二段568巷38號","121.482291666667","25.0066983333333","6500300","中和區"
"235001","611-BX","2018/07/13 12:49:31","新北市中和區中山路三段120-15號","121.474756666667","25.0089666666667","6500300","中和區"
"207002","749-BX","2018/07/13 12:49:50","新北市萬里區雙興里大坪路1-1號","121.641346666667","25.1665033333333","6502800","萬里區"
"207001","662-BX","2018/07/13 12:49:44","新北市萬里區萬里里獅頭路22-1號","121.693013333333","25.178145","6502800","萬里區"
"237001","159-UY","2018/07/13 12:49:34","新北市三峽區中山路459巷163-1號","121.349301666667","24.933395","6500900","三峽區"
"236006","498-BY","2018/07/13 12:49:39","新北市土城區永寧路25號","121.430471666667","24.9635433333333","6501300","土城區"
"221032","280-BY","2018/07/13 12:49:48","新北市汐止區汐萬路一段186號","121.65225","25.07199","6501100","汐止區"
"235025","KEA-2875","2018/07/13 12:24:16","新北市中和區和城路一段271巷1號","121.485378333333","24.9919116666667","6500300","中和區"
