"lineid","car","time","location","longitude","latitude","cityid","cityname"
"234044","148-BY","2018/07/13 13:29:31","新北市永和區得和路423號","121.526103333333","24.9992216666667","6500400","永和區"
"234070","149-BY","2018/07/13 13:29:51","新北市永和區得和路35號","121.515981666667","25.0001583333333","6500400","永和區"
"234005","207-UY","2018/07/13 13:29:35","新北市永和區中山路一段164號","121.509486666667","25.0092966666667","6500400","永和區"
"234078","298-R6","2018/07/13 13:29:54","新北市永和區福和路5-9號","121.525418333333","25.0085183333333","6500400","永和區"
"234036","336-UY","2018/07/13 13:29:50","新北市永和區民樂街35巷2號","121.527576666667","25.000885","6500400","永和區"
"234062","337-UY","2018/07/13 13:29:41","新北市永和區中正路368巷1弄88號","121.520448333333","25.0006533333333","6500400","永和區"
"234068","552-UM","2018/07/13 13:29:51","新北市永和區竹林路173號","121.520538333333","25.00994","6500400","永和區"
"234084","553-UM","2018/07/13 13:29:55","新北市永和區永亨路165巷8號","121.526173333333","25.0040966666667","6500400","永和區"
"234015","745-BX","2018/07/13 13:29:52","新北市永和區環河西路一段1號","121.51529","25.01809","6500400","永和區"
"234028","746-BX","2018/07/13 13:29:44","新北市永和區民生路61號","121.522693333333","24.9974133333333","6500400","永和區"
"234052","KEA-2590","2018/07/13 13:29:38","新北市永和區竹林路36號","121.51731","25.0145566666667","6500400","永和區"
"234012","KEA-2591","2018/07/13 13:29:40","新北市永和區永平路203巷1號","121.509373333333","25.0098133333333","6500400","永和區"
"234060","AAD-866","2018/07/13 13:29:37","新北市永和區永貞路127號","121.516891666667","25.0042333333333","6500400","永和區"
"234040","862-TW","2018/07/13 13:29:47","新北市永和區中和路539號","121.511346666667","25.003005","6500400","永和區"
"234048","863-TW","2018/07/13 13:29:48","新北市永和區保福路二段100號","121.510148333333","25.013625","6500400","永和區"
"234025","9371-KE","2018/07/13 13:29:44","新北市永和區永和路一段202號","121.514373333333","25.009245","6500400","永和區"
"234010","9373-KE","2018/07/13 13:29:45","新北市永和區信義路25巷53號","121.512278333333","25.0115183333333","6500400","永和區"
"248019","225-UY","2018/07/13 13:29:53","新北市五股區孝義路70-1號","121.452195","25.1134283333333","6501500","五股區"
"234022","9380-KE","2018/07/13 13:29:40","新北市永和區竹林路91巷21弄11號","121.520888333333","25.0125183333333","6500400","永和區"
"234076","969-R7","2018/07/13 13:29:42","新北市永和區智光街27號","121.518121666667","24.999165","6500400","永和區"
"234072","AAC-211","2018/07/13 13:29:48","新北市永和區光復街60巷25號","121.517893333333","25.0174883333333","6500400","永和區"
"234066","AAC-212","2018/07/13 13:29:33","新北市永和區保平路176號","121.510836666667","25.0066566666667","6500400","永和區"
"234001","AAC-295","2018/07/13 13:29:48","新北市永和區永和路一段122號","121.513938333333","25.0077516666667","6500400","永和區"
"244004","248-BX","2018/07/13 13:29:41","新北市林口區頂福里71-78號","121.353136666667","25.0813216666667","6501700","林口區"
"231002","002-UM","2018/07/13 13:29:37","新北市新店區環河路62號","121.53703","24.9626433333333","6500600","新店區"
"231027","0291-UT","2018/07/13 13:29:52","新北市新店區新店後街102號","121.537681666667","24.9552483333333","6500600","新店區"
"231028","046-UY","2018/07/13 13:29:39","新北市新店區安華路28-1號","121.519635","24.9609883333333","6500600","新店區"
"231001","047-UY","2018/07/13 13:29:52","新北市新店區中央路135號","121.530328333333","24.973805","6500600","新店區"
"231005","106-UY","2018/07/13 13:29:45","新北市新店區北新路一段123號","121.539418333333","24.962585","6500600","新店區"
"231010","107-UY","2018/07/13 13:29:40","新北市新店區中央路11號","121.533418333333","24.978465","6500600","新店區"
"231036","110-UY","2018/07/13 13:29:44","新北市新店區安祥路190巷10號","121.47941","24.9569866666667","6500600","新店區"
"231012","187-VK","2018/07/13 13:29:50","新北市新店區北新路一段307號","121.541578333333","24.9676966666667","6500600","新店區"
"231023","KEA-2219","2018/07/13 13:29:48","新北市新店區新店路13號","121.540351666667","24.952825","6500600","新店區"
"231026","256-BX","2018/07/13 13:29:46","新北市新店區安康路一段3-1號","121.534036666667","24.9606116666667","6500600","新店區"
"231003","268-BY","2018/07/13 13:29:40","新北市新店區光明街125號","121.539208333333","24.9618466666667","6500600","新店區"
"231018","278-BY","2018/07/13 13:29:38","新北市新店區中央路63號","121.532706666667","24.9770133333333","6500600","新店區"
"231016","AAD-862","2018/07/13 13:29:42","新北市新店區新烏路一段11巷7號","121.547436666667","24.9512633333333","6500600","新店區"
"231038","3712-VJ","2018/07/13 13:29:42","新北市新店區安華路28-1號","121.51915","24.960595","6500600","新店區"
"231037","4716-K9","2018/07/13 13:29:43","新北市新店區安康路二段380號","121.500461666667","24.957295","6500600","新店區"
"231025","4715-K9","2018/07/13 13:29:36","新北市新店區中央五街55號","121.527885","24.9755633333333","6500600","新店區"
"231013","513-UM","2018/07/13 13:29:48","新北市新店區中央路167-3號","121.533546666667","24.970315","6500600","新店區"
"231034","616-UM","2018/07/13 13:29:37","新北市新店區安華路30巷3號","121.51886","24.9586583333333","6500600","新店區"
"231006","617-UM","2018/07/13 13:29:35","新北市新店區環河路29巷1-1號","121.53608","24.9611066666667","6500600","新店區"
"231030","619-UM","2018/07/13 13:29:38","新北市新店區安華路28-1號","121.519855","24.9604966666667","6500600","新店區"
"231035","719-UM","2018/07/13 13:29:45","新北市新店區安一路一段1-1號","121.51976","24.96159","6500600","新店區"
"231022","719-UY","2018/07/13 13:29:52","新北市新店區北宜路一段9號","121.538116666667","24.958145","6500600","新店區"
"231032","720-UM","2018/07/13 13:29:45","新北市新店區安豐路60-1號","121.497873333333","24.953635","6500600","新店區"
"231029","897-TW","2018/07/13 13:29:40","新北市新店區安華路30巷12-1號","121.51831","24.9579883333333","6500600","新店區"
"231004","899-TW","2018/07/13 13:29:41","新北市新店區安康路一段107-2號","121.528846666667","24.9616983333333","6500600","新店區"
"231024","AKT-0513","2018/07/13 13:29:43","新北市新店區三民路14號","121.539505","24.9720716666667","6500600","新店區"
"235030","003-UY","2018/07/13 13:29:45","新北市中和區水源路2號","121.502751666667","25.0036116666667","6500300","中和區"
"235028","005-UY","2018/07/13 13:29:51","新北市中和區連城路139巷45號","121.496658333333","24.9976033333333","6500300","中和區"
"235027","006-UY","2018/07/13 13:29:54","新北市中和區連城路347巷2弄3-3號","121.488001666667","24.9958266666667","6500300","中和區"
"235009","031-BX","2018/07/13 13:29:49","新北市中和區南山路236巷24弄21號","121.504976666667","24.9889383333333","6500300","中和區"
"235020","096-UM","2018/07/13 13:29:46","新北市中和區新民街5號","121.482413333333","25.0057583333333","6500300","中和區"
"235003","097-UM","2018/07/13 13:29:48","新北市中和區景平路170號","121.51693","24.9924533333333","6500300","中和區"
"235029","098-UM","2018/07/13 13:29:47","新北市中和區莊敬路49巷27號","121.501558333333","25.00616","6500300","中和區"
"235004","150-BY","2018/07/13 13:29:49","新北市中和區安平路59號","121.509525","24.9951616666667","6500300","中和區"
"235022","151-BY","2018/07/13 13:29:50","新北市中和區圓通路369巷55弄10號","121.491208333333","24.983385","6500300","中和區"
"235019","183-VK","2018/07/13 13:29:44","新北市中和區民享街245號","121.472118333333","24.99624","6500300","中和區"
"235002","185-VK","2018/07/13 13:29:33","新北市中和區秀朗路三段128巷17弄18號","121.523321666667","24.9934583333333","6500300","中和區"
"235013","186-VK","2018/07/13 13:29:40","新北市中和區景安路80號","121.505701666667","24.99623","6500300","中和區"
"235031","255-BX","2018/07/13 13:29:52","新北市中和區新生街186巷5弄27號","121.482815","24.9986616666667","6500300","中和區"
"235008","293-VK","2018/07/13 13:29:41","新北市中和區復興路301巷2弄1號","121.501416666667","24.9899","6500300","中和區"
"235036","301-VK","2018/07/13 13:29:45","新北市中和區連城路253號","121.492721666667","24.9967283333333","6500300","中和區"
"235007","352-BY","2018/07/13 13:29:39","新北市中和區景平路307號","121.50651","24.9930866666667","6500300","中和區"
"235006","KEA-2878","2018/07/13 13:29:38","新北市中和區自立路193號","121.524361666667","24.9912533333333","6500300","中和區"
"235014","4979-A6","2018/07/13 13:29:32","新北市中和區景新街418巷14號","121.512183333333","24.98885","6500300","中和區"
"235033","4980-A6","2018/07/13 13:29:44","新北市中和區連城路127巷17號","121.496641666667","24.998385","6500300","中和區"
"235034","558-UM","2018/07/13 13:29:35","新北市中和區南華路60號","121.50455","24.9971633333333","6500300","中和區"
"235018","640-BX","2018/07/13 13:29:46","新北市中和區民享街89巷4弄16號","121.47519","25.0009283333333","6500300","中和區"
"235024","647-TV","2018/07/13 13:29:52","新北市中和區員山路393號","121.48118","25.0029083333333","6500300","中和區"
"235011","732-UM","2018/07/13 13:29:48","新北市中和區南山路487號","121.508021666667","24.987925","6500300","中和區"
"235035","783-BX","2018/07/13 13:29:50","新北市中和區環中路122號","121.481888333333","25.01258","6500300","中和區"
"235026","800-TS","2018/07/13 13:29:39","新北市中和區中山路二段312巷51號","121.495056666667","25.0045316666667","6500300","中和區"
"235021","801-TS","2018/07/13 13:29:47","新北市中和區民享街97巷21號","121.475328333333","24.999525","6500300","中和區"
"235005","802-TS","2018/07/13 13:29:33","新北市中和區中和路324巷3弄2號","121.509961666667","25.0008083333333","6500300","中和區"
"235016","805-TS","2018/07/13 13:29:52","新北市中和區興南路二段143號","121.505113333333","24.9839866666667","6500300","中和區"
"235017","900-TW","2018/07/13 13:29:40","新北市土城區金城路三段257號","121.471828333333","24.990055","6500300","中和區"
"235015","157-BY","2018/07/13 13:29:52","新北市中和區興南路二段142巷19弄40號","121.502481666667","24.9834383333333","6500300","中和區"
"235001","AAC-213","2018/07/13 13:29:48","新北市中和區景德街91號","121.515976666667","24.991455","6500300","中和區"
"235023","AAC-215","2018/07/13 13:29:47","新北市中和區員山路36巷16-3號","121.484931666667","24.9913683333333","6500300","中和區"
"220028","015-TV","2018/07/13 13:29:42","新北市板橋區華東街1-9號","121.448133333333","24.9947983333333","6500100","板橋區"
"220013","072-UY","2018/07/13 13:29:42","新北市板橋區縣民大道一段92-1號","121.456171666667","25.0047933333333","6500100","板橋區"
"220034","073-UY","2018/07/13 13:29:37","新北市板橋區南雅南路二段120-16號","121.451868333333","24.99903","6500100","板橋區"
"247007","053-VK","2018/07/13 13:29:39","新北市五股區工商路8號","121.440786666667","25.0828266666667","6501400","蘆洲區"
"247019","001-UY","2018/07/13 13:29:42","新北市五股區中興路三段163號","121.449428333333","25.0803366666667","6501400","蘆洲區"
"207002","749-BX","2018/07/13 13:29:47","新北市萬里區崁腳里崁腳路166號","121.645088333333","25.156025","6502800","萬里區"
"207001","662-BX","2018/07/13 13:27:44","新北市萬里區龜吼里石角路12號","121.683736666667","25.1913933333333","6502800","萬里區"
"237001","159-UY","2018/07/13 13:29:54","新北市三峽區大學路86-3號","121.375365","24.9425533333333","6500900","三峽區"
"236006","498-BY","2018/07/13 13:29:39","新北市土城區亞洲路11巷1弄14號","121.435618333333","24.9717616666667","6501300","土城區"
"221032","280-BY","2018/07/13 13:29:48","新北市汐止區大同路二段312巷11弄2號","121.656246666667","25.0654283333333","6501100","汐止區"
"220030","610-BX","2018/07/13 13:29:43","新北市板橋區華東街1-9號","121.448261666667","24.9948966666667","6500100","板橋區"
"220004","276-BY","2018/07/13 13:29:36","新北市板橋區華東街1-9號","121.448118333333","24.994905","6500100","板橋區"
"220019","283-VK","2018/07/13 13:29:51","新北市板橋區華東街1-9號","121.448111666667","24.9949583333333","6500100","板橋區"
"220032","296-UM","2018/07/13 13:29:35","新北市板橋區華東街1-9號","121.448161666667","24.99495","6500100","板橋區"
"220023","303-R5","2018/07/13 13:29:53","新北市板橋區華東街1-10號","121.448263333333","24.994925","6500100","板橋區"
"220012","486-VK","2018/07/13 13:29:38","新北市板橋區南雅南路二段120號","121.452256666667","24.9996366666667","6500100","板橋區"
"220027","568-UM","2018/07/13 13:29:50","新北市板橋區華東街1-10號","121.448276666667","24.9950533333333","6500100","板橋區"
"220005","686-BX","2018/07/13 13:29:42","新北市板橋區華東街1-9號","121.448255","24.9948083333333","6500100","板橋區"
"220054","741-BX","2018/07/13 13:29:42","新北市板橋區華東街1-9號","121.448096666667","24.99491","6500100","板橋區"
"220025","806-UM","2018/07/13 13:29:55","新北市板橋區篤行路一段37號","121.431941666667","24.9938883333333","6500100","板橋區"
"220022","895-R6","2018/07/13 13:29:46","新北市板橋區華東街1-10號","121.448218333333","24.995005","6500100","板橋區"
"220021","985-R7","2018/07/13 13:29:42","新北市板橋區華東街1-10號","121.448376666667","24.994935","6500100","板橋區"
"235032","KEA-2873","2018/07/13 13:29:47","新北市中和區中正路273-5號","121.495715","24.9933533333333","6500300","中和區"
"235025","KEA-2875","2018/07/13 13:29:43","新北市中和區民享街88巷3號","121.474381666667","25.0005083333333","6500300","中和區"
