"lineid","car","time","location","longitude","latitude","cityid","cityname"
"234044","148-BY","2018/07/13 13:59:51","新北市永和區成功路一段82號","121.52671","25.002985","6500400","永和區"
"234070","149-BY","2018/07/13 13:59:51","新北市永和區民治街77號","121.517675","24.9980816666667","6500400","永和區"
"234005","207-UY","2018/07/13 13:59:55","新北市中和區中和路302號","121.508913333333","24.9997783333333","6500400","永和區"
"234078","298-R6","2018/07/13 13:59:55","新北市永和區國中路8號","121.524313333333","25.004735","6500400","永和區"
"234036","336-UY","2018/07/13 13:59:45","新北市永和區成功路二段115號","121.52665","24.99867","6500400","永和區"
"234062","337-UY","2018/07/13 13:59:45","新北市永和區中正路368巷1弄45號","121.51922","25.0010533333333","6500400","永和區"
"234068","552-UM","2018/07/13 13:59:52","新北市永和區國光路39-1號","121.519063333333","25.0081916666667","6500400","永和區"
"234084","553-UM","2018/07/13 13:59:48","新北市永和區福和路121號","121.52172","25.0077366666667","6500400","永和區"
"234015","745-BX","2018/07/13 13:59:52","新北市永和區文化路80號","121.514058333333","25.0151433333333","6500400","永和區"
"234028","746-BX","2018/07/13 13:59:35","新北市永和區民生路47巷58號","121.52558","24.9978216666667","6500400","永和區"
"234052","KEA-2590","2018/07/13 13:59:38","新北市永和區竹林路39巷42弄1號","121.520161666667","25.0151033333333","6500400","永和區"
"234012","KEA-2591","2018/07/13 13:59:40","新北市永和區保生路55號","121.504685","25.0106266666667","6500400","永和區"
"234060","AAD-866","2018/07/13 13:59:37","新北市永和區中正路151巷5弄1號","121.515943333333","24.9985883333333","6500400","永和區"
"234040","862-TW","2018/07/13 13:59:39","新北市永和區中和路335巷18弄32號","121.508195","25.0004483333333","6500400","永和區"
"234048","863-TW","2018/07/13 13:59:56","新北市永和區保安路250號","121.506345","25.0126316666667","6500400","永和區"
"234025","9371-KE","2018/07/13 13:59:52","新北市永和區安樂路467號","121.514323333333","25.0054883333333","6500400","永和區"
"234010","9373-KE","2018/07/13 13:59:45","新北市永和區仁愛路352巷114號","121.50034","25.0081966666667","6500400","永和區"
"248019","225-UY","2018/07/13 13:59:53","新北市五股區凌雲路三段94-1號","121.427605","25.121885","6501500","五股區"
"234022","9380-KE","2018/07/13 13:59:40","新北市永和區永和路二段159號","121.515318333333","25.0128933333333","6500400","永和區"
"234076","969-R7","2018/07/13 13:59:42","新北市永和區民治街59巷10號","121.518411666667","24.9973183333333","6500400","永和區"
"234072","AAC-211","2018/07/13 13:59:49","新北市永和區豫溪街134號","121.520968333333","25.0103333333333","6500400","永和區"
"234066","AAC-212","2018/07/13 13:59:53","新北市永和區永貞路313號","121.510088333333","25.006545","6500400","永和區"
"234001","AAC-295","2018/07/13 13:59:48","新北市永和區福和路345號","121.515393333333","25.00712","6500400","永和區"
"244004","248-BX","2018/07/13 13:59:41","新北市林口區南勢里31號","121.35212","25.0704616666667","6501700","林口區"
"231002","002-UM","2018/07/13 13:59:37","新北市新店區中正路546號","121.533715","24.9864616666667","6500600","新店區"
"231027","0291-UT","2018/07/13 13:59:51","新北市新店區中興路一段34號","121.538835","24.9586","6500600","新店區"
"231028","046-UY","2018/07/13 13:59:39","新北市新店區安和路三段46號","121.517971666667","24.9818333333333","6500600","新店區"
"231001","047-UY","2018/07/13 13:59:52","新北市新店區三民路45號","121.537113333333","24.9708983333333","6500600","新店區"
"231005","106-UY","2018/07/13 13:59:45","新北市新店區中興路三段190號","121.543938333333","24.9816166666667","6500600","新店區"
"231010","107-UY","2018/07/13 13:59:40","新北市新店區安康路一段35-1號","121.53214","24.9605","6500600","新店區"
"231036","110-UY","2018/07/13 13:59:44","新北市新店區安祥路109巷3弄64號","121.477616666667","24.96116","6500600","新店區"
"231012","187-VK","2018/07/13 13:59:51","新北市新店區五峰路79號","121.546398333333","24.967705","6500600","新店區"
"231023","KEA-2219","2018/07/13 13:59:48","新北市新店區文中路40號","121.53967","24.9565766666667","6500600","新店區"
"231026","256-BX","2018/07/13 13:59:46","新北市新店區安康路一段52巷1號","121.529915","24.961245","6500600","新店區"
"231003","268-BY","2018/07/13 13:59:40","新北市新店區光明街138巷22號","121.540273333333","24.9609516666667","6500600","新店區"
"231018","278-BY","2018/07/13 13:59:38","新北市新店區中央路133巷20弄4號","121.530823333333","24.9733566666667","6500600","新店區"
"231016","AAD-862","2018/07/13 13:59:42","新北市新店區郵政路3巷5號","121.557316666667","24.9520883333333","6500600","新店區"
"231038","3712-VJ","2018/07/13 13:59:42","新北市新店區安華路30巷3號","121.51969","24.959165","6500600","新店區"
"231037","4716-K9","2018/07/13 13:59:43","新北市新店區安康路三段207巷15號","121.488416666667","24.95085","6500600","新店區"
"231025","4715-K9","2018/07/13 13:59:36","新北市新店區中正路328巷42弄10號","121.538466666667","24.9759833333333","6500600","新店區"
"231013","513-UM","2018/07/13 13:59:48","新北市新店區明德路119-1號","121.541213333333","24.979925","6500600","新店區"
"231034","616-UM","2018/07/13 13:59:37","新北市新店區達觀路8巷5號","121.503958333333","24.9435816666667","6500600","新店區"
"231006","617-UM","2018/07/13 13:59:35","新北市新店區北宜路二段213號","121.553238333333","24.9533266666667","6500600","新店區"
"231030","619-UM","2018/07/13 13:59:38","新北市新店區安康路一段323-3號","121.52124","24.9638783333333","6500600","新店區"
"231035","719-UM","2018/07/13 13:59:44","新北市新店區安和路一段52巷2-1號","121.517698333333","24.96639","6500600","新店區"
"231022","719-UY","2018/07/13 13:59:52","新北市新店區湖子內路22號","121.542321666667","24.930775","6500600","新店區"
"231032","720-UM","2018/07/13 13:59:45","新北市新店區青山路399巷2號","121.5249","24.9530016666667","6500600","新店區"
"231029","897-TW","2018/07/13 13:59:40","新北市新店區安和路一段1號","121.516573333333","24.96376","6500600","新店區"
"231004","899-TW","2018/07/13 13:59:41","新北市新店區北新路二段167號","121.542831666667","24.9763733333333","6500600","新店區"
"231024","AKT-0513","2018/07/13 13:59:43","新北市新店區中央二街77號","121.525945","24.9748016666667","6500600","新店區"
"235030","003-UY","2018/07/13 13:59:45","新北市中和區中山路二段131巷5弄10號","121.50313","25.0030333333333","6500300","中和區"
"235028","005-UY","2018/07/13 13:59:51","新北市中和區泰和街30巷19號","121.499018333333","25.0010016666667","6500300","中和區"
"235027","006-UY","2018/07/13 13:59:54","新北市中和區中正路700號","121.486253333333","24.9963183333333","6500300","中和區"
"235009","031-BX","2018/07/13 13:59:49","新北市中和區景新街467巷20弄19號","121.51489","24.9872683333333","6500300","中和區"
"235020","096-UM","2018/07/13 13:59:46","新北市板橋區三民路二段204-3號","121.478923333333","25.01231","6500300","中和區"
"235003","097-UM","2018/07/13 13:59:48","新北市中和區秀朗路三段177號","121.524358333333","24.99113","6500300","中和區"
"235029","098-UM","2018/07/13 13:59:51","新北市中和區中山路二段136巷6弄4號","121.50212","25.0038283333333","6500300","中和區"
"235004","150-BY","2018/07/13 13:59:49","新北市中和區景安路79巷45號","121.507596666667","24.99589","6500300","中和區"
"235022","151-BY","2018/07/13 13:59:51","新北市中和區連城路428巷3-3號","121.47998","24.9951816666667","6500300","中和區"
"235019","183-VK","2018/07/13 13:59:44","新北市中和區民生街72號","121.468601666667","25.0049216666667","6500300","中和區"
"235002","185-VK","2018/07/13 13:59:33","新北市中和區立人街24-4號","121.518878333333","24.9942383333333","6500300","中和區"
"235013","186-VK","2018/07/13 13:59:40","新北市中和區景安路66號","121.50587","24.9967216666667","6500300","中和區"
"235031","255-BX","2018/07/13 13:59:52","新北市中和區中正路711號","121.484533333333","24.9985266666667","6500300","中和區"
"235008","293-VK","2018/07/13 13:59:41","新北市中和區中興街178號","121.499841666667","24.991075","6500300","中和區"
"235036","301-VK","2018/07/13 13:59:44","新北市中和區中山路二段41號","121.504613333333","25.0051","6500300","中和區"
"235007","352-BY","2018/07/13 13:59:39","新北市中和區秀朗路三段117號","121.526011666667","24.993335","6500300","中和區"
"235006","KEA-2878","2018/07/13 13:59:28","新北市中和區秀朗路三段128巷12弄1號","121.52463","24.9928683333333","6500300","中和區"
"235014","4979-A6","2018/07/13 13:59:52","新北市中和區華新街50巷3號","121.507776666667","24.98392","6500300","中和區"
"235033","4980-A6","2018/07/13 13:59:44","新北市中和區景平路459巷2弄2號","121.500355","24.9964566666667","6500300","中和區"
"235034","558-UM","2018/07/13 13:59:35","新北市中和區中和路212號","121.506013333333","24.999555","6500300","中和區"
"235018","640-BX","2018/07/13 13:59:46","新北市中和區國光街107巷2弄32號","121.4693","24.99904","6500300","中和區"
"235024","647-TV","2018/07/13 13:59:52","新北市中和區民治街6巷1號","121.474901666667","25.0053666666667","6500300","中和區"
"235011","732-UM","2018/07/13 13:59:48","新北市中和區興南路二段54巷9弄2號","121.505903333333","24.98552","6500300","中和區"
"235010","733-UM","2018/07/13 13:59:48","新北市中和區興南路一段135巷22弄2號","121.509135","24.98689","6500300","中和區"
"235035","783-BX","2018/07/13 13:59:49","新北市中和區立德街98巷83號","121.48831","25.0086683333333","6500300","中和區"
"235026","800-TS","2018/07/13 13:59:39","新北市中和區中山路二段340巷64號","121.492958333333","25.004925","6500300","中和區"
"235021","801-TS","2018/07/13 13:59:47","新北市中和區民利街71號","121.478586666667","24.9983666666667","6500300","中和區"
"235005","802-TS","2018/07/13 13:59:53","新北市中和區永貞路239巷13號","121.51275","25.0031433333333","6500300","中和區"
"235016","805-TS","2018/07/13 13:59:52","新北市中和區興南路二段261巷7-1號","121.503185","24.9798616666667","6500300","中和區"
"235012","896-TW","2018/07/13 13:59:56","新北市中和區南山路300號","121.507863333333","24.9870866666667","6500300","中和區"
"235017","900-TW","2018/07/13 13:59:40","新北市中和區和平路200巷35弄1號","121.465336666667","24.9945566666667","6500300","中和區"
"235015","157-BY","2018/07/13 13:59:52","新北市中和區忠孝街19巷16號","121.510108333333","24.9833166666667","6500300","中和區"
"235001","AAC-213","2018/07/13 13:59:48","新北市中和區秀朗路三段10巷37弄1號","121.524138333333","24.9960983333333","6500300","中和區"
"235023","AAC-215","2018/07/13 13:59:47","新北市中和區圓通路367巷20弄25號","121.491413333333","24.98817","6500300","中和區"
"220016","013-TV","2018/07/13 13:59:48","新北市板橋區中山路二段465巷40弄2號","121.481246666667","25.0215116666667","6500100","板橋區"
"220028","015-TV","2018/07/13 13:59:42","新北市板橋區大觀路二段153巷46弄68號","121.449573333333","25.000605","6500100","板橋區"
"220013","072-UY","2018/07/13 13:59:42","新北市板橋區漢生東路340巷3號","121.471655","25.007365","6500100","板橋區"
"220034","073-UY","2018/07/13 13:59:57","新北市板橋區中正路236巷16號","121.45649","25.0191033333333","6500100","板橋區"
"220105","075-UY","2018/07/13 13:59:46","新北市板橋區莒光路38號","121.470368333333","25.0244066666667","6500100","板橋區"
"220017","AAD-861","2018/07/13 13:59:39","新北市板橋區華興街68號","121.457443333333","25.0048916666667","6500100","板橋區"
"247013","546-UM","2018/07/13 13:59:52","新北市蘆洲區中正路187號","121.468513333333","25.08573","6501400","蘆洲區"
"247003","337-TH","2018/07/13 13:59:36","新北市蘆洲區長榮路38-8號","121.463126666667","25.0827733333333","6501400","蘆洲區"
"247005","336-TH","2018/07/13 13:59:43","新北市蘆洲區永安南路二段76號","121.46465","25.0780383333333","6501400","蘆洲區"
"247017","057-VK","2018/07/13 13:59:45","新北市蘆洲區民族路327巷93號","121.475651666667","25.0890033333333","6501400","蘆洲區"
"247007","053-VK","2018/07/13 13:59:39","新北市三重區永安北路二段5巷1-1號","121.481363333333","25.080765","6501400","蘆洲區"
"247015","007-UY","2018/07/13 13:59:46","新北市蘆洲區光華路40號","121.468916666667","25.0832433333333","6501400","蘆洲區"
"247001","002-UY","2018/07/13 13:59:48","新北市蘆洲區三民路595號","121.46102","25.0937583333333","6501400","蘆洲區"
"247019","001-UY","2018/07/13 13:59:42","新北市蘆洲區民族路422巷82弄3號","121.473493333333","25.0940233333333","6501400","蘆洲區"
"207002","749-BX","2018/07/13 13:59:46","新北市萬里區溪底里溪底路10號","121.616905","25.148305","6502800","萬里區"
"207001","662-BX","2018/07/13 13:59:25","新北市萬里區磺潭里清水2號","121.641443333333","25.20104","6502800","萬里區"
"236067","105-UM","2018/07/13 13:59:47","新北市土城區和平路54號","121.445171666667","24.96906","6501300","土城區"
"236040","107-UM","2018/07/13 13:59:43","新北市土城區中央路一段303號","121.443905","24.9835483333333","6501300","土城區"
"236077","166-UM","2018/07/13 13:59:45","新北市土城區永寧路32巷5號","121.429068333333","24.9606166666667","6501300","土城區"
"236029","253-BX","2018/07/13 13:59:50","新北市土城區城林路6巷80號","121.438408333333","24.9797666666667","6501300","土城區"
"236013","270-VK","2018/07/13 13:59:50","新北市土城區城林路6巷80號","121.43861","24.97971","6501300","土城區"
"236032","271-VK","2018/07/13 13:59:52","新北市土城區城林路6巷80號","121.438491666667","24.9797833333333","6501300","土城區"
"236016","401-BY","2018/07/13 13:59:39","新北市土城區城林路6巷80號","121.438526666667","24.9797283333333","6501300","土城區"
"236006","498-BY","2018/07/13 13:59:39","新北市土城區中央路一段365巷18弄1號","121.446103333333","24.98002","6501300","土城區"
"236057","912-UM","2018/07/13 13:59:32","新北市土城區中央路三段191-1號","121.430705","24.9646666666667","6501300","土城區"
"236045","913-UM","2018/07/13 13:59:53","新北市土城區城林路6巷80號","121.438491666667","24.9797216666667","6501300","土城區"
"236060","915-UM","2018/07/13 13:59:48","新北市土城區員福街8號","121.441721666667","24.9784816666667","6501300","土城區"
"236054","AAC-216","2018/07/13 13:59:43","新北市土城區城林路6巷80號","121.438468333333","24.9797283333333","6501300","土城區"
"221032","280-BY","2018/07/13 13:59:48","台北市內湖區民權東路六段56巷29號","121.58563","25.06682","6501100","汐止區"
"220030","610-BX","2018/07/13 13:59:48","新北市板橋區滿平街76號","121.42744","24.989175","6500100","板橋區"
"220050","245-BX","2018/07/13 13:59:52","新北市板橋區莊敬路125巷1弄3-3號","121.472241666667","25.0253366666667","6500100","板橋區"
"220040","267-BY","2018/07/13 13:59:42","新北市板橋區大同街50巷6號","121.478535","25.02727","6500100","板橋區"
"220004","276-BY","2018/07/13 13:59:36","新北市板橋區信義路165號","121.458728333333","24.9922433333333","6500100","板橋區"
"220020","277-BY","2018/07/13 13:59:52","新北市板橋區金門街369巷55號","121.42923","24.9842283333333","6500100","板橋區"
"220019","283-VK","2018/07/13 13:59:51","新北市板橋區重慶路245巷50弄28-5號","121.465118333333","24.9999433333333","6500100","板橋區"
"220043","285-UM","2018/07/13 13:59:50","新北市板橋區光武街35-3號","121.467735","25.0251816666667","6500100","板橋區"
"220001","285-VK","2018/07/13 13:59:50","新北市板橋區中山路二段89巷49號","121.473585","25.0173133333333","6500100","板橋區"
"220031","286-VK","2018/07/13 13:59:43","新北市板橋區僑中二街152-1號","121.444361666667","25.0043016666667","6500100","板橋區"
"220029","287-VK","2018/07/13 13:59:50","新北市板橋區光華街28巷1號","121.453883333333","25.0125883333333","6500100","板橋區"
"220039","288-VK","2018/07/13 13:59:33","新北市板橋區互助街25巷9號","121.463156666667","25.0270466666667","6500100","板橋區"
"220009","293-UM","2018/07/13 13:59:49","新北市板橋區富山街99號","121.47634","25.0218966666667","6500100","板橋區"
"220032","296-UM","2018/07/13 13:59:35","新北市板橋區篤行路一段16號","121.43129","24.99541","6500100","板橋區"
"220023","303-R5","2018/07/13 13:59:53","新北市板橋區館前西路213巷23號","121.45422","25.0079283333333","6500100","板橋區"
"220010","305-R5","2018/07/13 13:59:44","新北市板橋區三民路二段245巷34號","121.480568333333","25.0125033333333","6500100","板橋區"
"220041","307-R5","2018/07/13 13:59:54","新北市板橋區文化路一段104巷1弄5號","121.465246666667","25.0179516666667","6500100","板橋區"
"220047","317-R6","2018/07/13 13:59:51","新北市板橋區民有街32號","121.465988333333","25.0254366666667","6500100","板橋區"
"220012","486-VK","2018/07/13 13:59:50","新北市板橋區板新路237號","121.467505","25.0159866666667","6500100","板橋區"
"220037","491-VK","2018/07/13 13:59:38","新北市板橋區文化路二段16-2號","121.46875","25.0242816666667","6500100","板橋區"
"220035","560-BX","2018/07/13 13:59:43","新北市板橋區中正路379巷1弄36號","121.453036666667","25.02191","6500100","板橋區"
"220052","561-BX","2018/07/13 13:59:52","新北市板橋區縣民大道二段279號","121.470073333333","25.0178383333333","6500100","板橋區"
"220027","568-UM","2018/07/13 13:59:50","新北市板橋區民權路202巷9弄62號","121.45909","25.0157633333333","6500100","板橋區"
"220011","609-BX","2018/07/13 13:59:52","新北市板橋區中山路二段176號","121.477186666667","25.01733","6500100","板橋區"
"220005","686-BX","2018/07/13 13:59:42","新北市板橋區重慶路192號","121.4626","25.0031516666667","6500100","板橋區"
"220042","689-BX","2018/07/13 13:59:43","新北市板橋區民生路三段138號","121.466263333333","25.0270683333333","6500100","板橋區"
"220002","741-BX","2018/07/13 13:59:45","新北市板橋區重慶路139巷9號","121.463146666667","25.0045616666667","6500100","板橋區"
"220051","KEA-2699","2018/07/13 13:59:46","新北市板橋區田單街2巷24號","121.481411666667","25.0278816666667","6500100","板橋區"
"220025","806-UM","2018/07/13 13:59:38","新北市板橋區僑中二街152號","121.44479","25.00434","6500100","板橋區"
"220003","827-TW","2018/07/13 13:59:38","新北市板橋區中山路一段156號","121.464751666667","25.0114983333333","6500100","板橋區"
"220014","829-TW","2018/07/13 13:59:43","新北市板橋區三民路二段正隆巷12弄8號","121.478043333333","25.0132066666667","6500100","板橋區"
"220045","830-TW","2018/07/13 13:59:53","新北市板橋區莒光路74號","121.47144","25.0241216666667","6500100","板橋區"
"220038","833-TW","2018/07/13 13:59:40","新北市板橋區文化路二段433號","121.474713333333","25.0331583333333","6500100","板橋區"
"220022","895-R6","2018/07/13 13:59:46","新北市板橋區西門街59號","121.454423333333","25.0091733333333","6500100","板橋區"
"220021","985-R7","2018/07/13 13:59:42","新北市板橋區中正路69號","121.456366666667","25.0138433333333","6500100","板橋區"
"220046","AAC-210","2018/07/13 13:59:47","新北市板橋區國光路214-2號","121.462223333333","25.0185816666667","6500100","板橋區"
"220018","AAC-253","2018/07/13 13:59:51","新北市板橋區四川路一段278號","121.458798333333","25.000895","6500100","板橋區"
"235032","KEA-2873","2018/07/13 13:59:47","新北市中和區景平路545巷1弄13號","121.498805","24.998925","6500300","中和區"
"235025","KEA-2875","2018/07/13 13:59:42","新北市中和區中山路三段65號","121.476491666667","25.005775","6500300","中和區"
