"lineid","car","time","location","longitude","latitude","cityid","cityname"
"234070","149-BY","2018/07/13 15:39:11","新北市永和區福和路1號","121.526315","25.0097816666667","6500400","永和區"
"231028","046-UY","2018/07/13 15:39:19","新北市新店區僑信路4巷2號","121.499676666667","24.9529833333333","6500600","新店區"
"231005","106-UY","2018/07/13 15:39:25","新北市新店區中正路190號","121.540715","24.97232","6500600","新店區"
"231010","107-UY","2018/07/13 15:39:13","新北市新店區安一路一段1-1號","121.519736666667","24.961175","6500600","新店區"
"231036","110-UY","2018/07/13 15:39:24","新北市新店區安康路二段458號","121.494188333333","24.9541016666667","6500600","新店區"
"231012","187-VK","2018/07/13 15:39:10","新北市新店區寶元路一段109號","121.545711666667","24.9831783333333","6500600","新店區"
"231023","KEA-2219","2018/07/13 15:39:08","新北市新店區中興路一段266號","121.54484","24.9673833333333","6500600","新店區"
"231026","256-BX","2018/07/13 15:39:13","新北市新店區三民路75巷6號","121.535408333333","24.9708833333333","6500600","新店區"
"231003","268-BY","2018/07/13 15:39:19","新北市新店區寶橋路203號","121.548386666667","24.9769266666667","6500600","新店區"
"231018","278-BY","2018/07/13 15:39:18","新北市新店區溪園路75號","121.529325","24.9872833333333","6500600","新店區"
"231016","AAD-862","2018/07/13 15:39:22","新北市新店區北宜路二段4號","121.547658333333","24.9518783333333","6500600","新店區"
"231038","3712-VJ","2018/07/13 15:39:22","新北市新店區安華路28-1號","121.519695","24.9608583333333","6500600","新店區"
"231037","4716-K9","2018/07/13 15:39:22","新北市新店區安興路56號","121.51634","24.9747166666667","6500600","新店區"
"231013","513-UM","2018/07/13 15:39:25","新北市新店區永業路81巷3弄1號","121.529796666667","24.9492316666667","6500600","新店區"
"231034","616-UM","2018/07/13 15:39:17","新北市新店區玫瑰路66巷1號","121.495953333333","24.94524","6500600","新店區"
"231030","619-UM","2018/07/13 15:39:18","新北市新店區永安街109巷7號","121.521236666667","24.9857733333333","6500600","新店區"
"231039","718-UY","2018/07/13 15:39:26","新北市新店區寶元路二段31巷1號","121.546643333333","24.98181","6500600","新店區"
"231035","719-UM","2018/07/13 15:39:24","新北市新店區安興路81號","121.515411666667","24.9754516666667","6500600","新店區"
"231022","719-UY","2018/07/13 15:39:12","新北市新店區花園二路三段15號","121.556005","24.93172","6500600","新店區"
"231032","720-UM","2018/07/13 15:39:25","新北市新店區雙城路133號","121.497941666667","24.938785","6500600","新店區"
"231029","897-TW","2018/07/13 15:39:20","新北市新店區安豐路54-1號","121.499791666667","24.95404","6500600","新店區"
"241011","013-R5","2018/07/13 15:39:18","新北市三重區文化北路246號","121.497446666667","25.0698883333333","6500200","三重區"
"241028","022-UY","2018/07/13 15:39:15","新北市三重區重新路四段121號","121.484733333333","25.0518766666667","6500200","三重區"
"241008","059-VK","2018/07/13 15:39:08","新北市三重區重新路四段121號","121.484895","25.05217","6500200","三重區"
"241015","062-VK","2018/07/13 15:39:23","新北市三重區重新路四段121號","121.485028333333","25.0524383333333","6500200","三重區"
"241017","063-VK","2018/07/13 15:39:16","新北市三重區重新路三段180號","121.490483333333","25.0591133333333","6500200","三重區"
"241024","065-VK","2018/07/13 15:39:19","新北市三重區重新路四段121號","121.484988333333","25.0522966666667","6500200","三重區"
"241026","066-VK","2018/07/13 15:39:23","新北市三重區重新路四段121號","121.484736666667","25.05226","6500200","三重區"
"241002","090-VK","2018/07/13 15:39:07","新北市三重區重新路四段121號","121.484913333333","25.0520716666667","6500200","三重區"
"241003","091-VK","2018/07/13 15:39:25","新北市三重區重新路四段121號","121.484926666667","25.0523233333333","6500200","三重區"
"241005","262-UM","2018/07/13 15:39:21","新北市三重區重新路四段121號","121.48512","25.052415","6500200","三重區"
"241016","266-UM","2018/07/13 15:39:21","新北市三重區重新路四段121號","121.48506","25.052405","6500200","三重區"
"241013","270-UM","2018/07/13 15:39:06","新北市三重區正義北路295號","121.494903333333","25.0706716666667","6500200","三重區"
"241007","398-BY","2018/07/13 15:39:09","新北市三重區重新路四段121號","121.485068333333","25.0520933333333","6500200","三重區"
"241025","413-TH","2018/07/13 15:39:22","新北市三重區重新路四段121號","121.485003333333","25.0526416666667","6500200","三重區"
"241004","475-VK","2018/07/13 15:39:23","新北市三重區重新路四段121號","121.484903333333","25.0524216666667","6500200","三重區"
"241020","478-VK","2018/07/13 15:39:20","新北市三重區忠孝路二段52號","121.485085","25.0703016666667","6500200","三重區"
"241030","480-VK","2018/07/13 15:39:09","新北市三重區重新路四段121號","121.48488","25.05255","6500200","三重區"
"241014","543-UM","2018/07/13 15:39:07","新北市三重區重新路四段121號","121.485123333333","25.0522516666667","6500200","三重區"
"241006","AAD-863","2018/07/13 15:39:19","新北市三重區重新路四段121號","121.484646666667","25.0521516666667","6500200","三重區"
"241023","887-TS","2018/07/13 15:39:17","新北市三重區重新路四段121號","121.484913333333","25.0526566666667","6500200","三重區"
"241012","941-UM","2018/07/13 15:39:25","新北市三重區正義南路60-5號","121.498353333333","25.0602133333333","6500200","三重區"
"241029","942-UM","2018/07/13 15:39:15","新北市三重區大同南路153-2號","121.496706666667","25.0566966666667","6500200","三重區"
"241033","AAC-255","2018/07/13 15:39:09","新北市三重區中興南街58號","121.470315","25.0442466666667","6500200","三重區"
"235033","4980-A6","2018/07/13 15:36:15","新北市中和區中正路748號","121.485516666667","24.9984416666667","6500300","中和區"
"235046","733-UM","2018/07/13 15:24:22","新北市中和區員山路36巷13號","121.484145","24.9908266666667","6500300","中和區"
"235001","AAC-213","2018/07/13 15:39:28","新北市林口區太平里180號","121.36648","25.134165","6500300","中和區"
"235023","AAC-215","2018/07/13 15:39:28","新北市中和區員山路28-27號","121.480965","24.986725","6500300","中和區"
"220016","013-TV","2018/07/13 15:31:39","新北市板橋區民生路二段120號","121.470366666667","25.0197583333333","6500100","板橋區"
"247006","336-TH","2018/07/13 15:35:36","新北市五股區中興路三段163號","121.449088333333","25.0807366666667","6501400","蘆洲區"
"227003","400-TW","2018/07/13 15:39:18","新北市雙溪區雙溪里中正路48號","121.86537","25.0399733333333","6502500","雙溪區"
"236067","105-UM","2018/07/13 15:39:07","新北市土城區中央路三段92-2號","121.43581","24.9666433333333","6501300","土城區"
"236077","166-UM","2018/07/13 15:39:25","新北市土城區福安街106號","121.417318333333","24.963945","6501300","土城區"
"236029","253-BX","2018/07/13 15:39:10","新北市土城區中央路一段45巷2弄12號","121.44825","24.9900283333333","6501300","土城區"
"236024","269-VK","2018/07/13 15:39:23","新北市土城區裕生路83巷29弄2號","121.448245","24.983835","6501300","土城區"
"236013","270-VK","2018/07/13 15:39:17","新北市土城區四川路29巷34號","121.454596666667","24.994835","6501300","土城區"
"236016","401-BY","2018/07/13 15:39:19","新北市土城區延吉街111巷12弄20號","121.471506666667","24.9854616666667","6501300","土城區"
"236057","912-UM","2018/07/13 15:39:12","新北市土城區中央路一段245號","121.445431666667","24.9860366666667","6501300","土城區"
"236045","913-UM","2018/07/13 15:39:13","新北市土城區金城路三段153號","121.468693333333","24.9882533333333","6501300","土城區"
"236054","AAC-216","2018/07/13 15:39:23","新北市土城區學成路139號","121.449101666667","24.98952","6501300","土城區"
