"lineid","car","time","location","longitude","latitude","cityid","cityname"
"234070","149-BY","2018/07/13 15:49:11","新北市永和區福和路1號","121.526305","25.0100316666667","6500400","永和區"
"231046","107-UY","2018/07/13 15:49:13","新北市新店區安一路一段1-1號","121.519731666667","24.9611366666667","6500600","新店區"
"231012","187-VK","2018/07/13 15:49:10","新北市新店區中興路三段160號","121.54451","24.9806416666667","6500600","新店區"
"231023","KEA-2219","2018/07/13 15:49:08","新北市新店區檳榔路14號","121.541128333333","24.96451","6500600","新店區"
"231026","256-BX","2018/07/13 15:49:13","新北市新店區中正路542-6號","121.533595","24.9862983333333","6500600","新店區"
"231003","268-BY","2018/07/13 15:49:19","新北市新店區寶興路60巷4號","121.54981","24.9718216666667","6500600","新店區"
"231018","278-BY","2018/07/13 15:49:18","新北市新店區中正路663巷7弄15-5號","121.533125","24.990235","6500600","新店區"
"231016","AAD-862","2018/07/13 15:49:22","新北市新店區中華路83巷4弄20號","121.538261666667","24.968885","6500600","新店區"
"231038","3712-VJ","2018/07/13 15:49:22","新北市新店區安和路一段39號","121.517223333333","24.965375","6500600","新店區"
"231037","4716-K9","2018/07/13 15:49:22","新北市新店區安興路56號","121.516333333333","24.9746866666667","6500600","新店區"
"231013","513-UM","2018/07/13 15:49:08","新北市新店區華潭街52號","121.528396666667","24.9550233333333","6500600","新店區"
"231034","616-UM","2018/07/13 15:49:17","新北市新店區吉祥街7巷1號","121.497398333333","24.9473883333333","6500600","新店區"
"231030","619-UM","2018/07/13 15:49:23","新北市新店區永安街22-1號","121.51746","24.9864766666667","6500600","新店區"
"231039","718-UY","2018/07/13 15:49:26","新北市新店區中興路一段294號","121.546018333333","24.9693233333333","6500600","新店區"
"231035","719-UM","2018/07/13 15:49:04","新北市新店區安興路96-2號","121.51519","24.9765816666667","6500600","新店區"
"231022","719-UY","2018/07/13 15:49:12","新北市新店區新烏路一段245-3號","121.548456666667","24.9312033333333","6500600","新店區"
"231032","720-UM","2018/07/13 15:49:05","新北市新店區雙城路60巷16弄13號","121.49168","24.9479133333333","6500600","新店區"
"241011","013-R5","2018/07/13 15:49:18","新北市三重區文化北路248號","121.49735","25.0698866666667","6500200","三重區"
"241028","022-UY","2018/07/13 15:49:15","新北市三重區重新路三段94號","121.49268","25.0609433333333","6500200","三重區"
"241008","059-VK","2018/07/13 15:49:09","新北市三重區重新路四段121號","121.484916666667","25.05224","6500200","三重區"
"241015","062-VK","2018/07/13 15:49:23","新北市三重區重新路四段121號","121.485063333333","25.0523683333333","6500200","三重區"
"241017","063-VK","2018/07/13 15:49:16","新北市三重區大仁街11號","121.491685","25.0641616666667","6500200","三重區"
"241024","065-VK","2018/07/13 15:49:19","新北市三重區成功路112-4號","121.485873333333","25.051965","6500200","三重區"
"241026","066-VK","2018/07/13 15:49:23","新北市三重區成功路92號","121.487878333333","25.0513916666667","6500200","三重區"
"241002","090-VK","2018/07/13 15:49:07","新北市三重區重新路四段121號","121.484301666667","25.0520733333333","6500200","三重區"
"241003","091-VK","2018/07/13 15:49:25","新北市三重區長元街105號","121.504598333333","25.0670666666667","6500200","三重區"
"241005","262-UM","2018/07/13 15:49:21","新北市三重區長元街105號","121.50456","25.06691","6500200","三重區"
"241016","266-UM","2018/07/13 15:49:21","新北市三重區重新路四段121號","121.485148333333","25.052525","6500200","三重區"
"241013","270-UM","2018/07/13 15:49:06","新北市三重區三和路三段40號","121.495986666667","25.07074","6500200","三重區"
"241007","398-BY","2018/07/13 15:49:09","新北市三重區忠孝路三段4號","121.481851666667","25.067535","6500200","三重區"
"241025","413-TH","2018/07/13 15:49:22","新北市三重區忠孝路三段84巷5號","121.480166666667","25.0644483333333","6500200","三重區"
"241004","475-VK","2018/07/13 15:49:23","新北市三重區重新路四段121號","121.485288333333","25.0518966666667","6500200","三重區"
"241020","478-VK","2018/07/13 15:49:20","新北市三重區忠孝路二段52號","121.485086666667","25.0702933333333","6500200","三重區"
"241030","480-VK","2018/07/13 15:49:28","新北市三重區重新路四段121號","121.484923333333","25.0528883333333","6500200","三重區"
"241014","543-UM","2018/07/13 15:49:27","新北市三重區重新路四段121號","121.485118333333","25.0522433333333","6500200","三重區"
"241001","547-UM","2018/07/13 15:49:24","新北市三重區重新路四段121號","121.484611666667","25.0523733333333","6500200","三重區"
"241006","AAD-863","2018/07/13 15:49:19","新北市三重區重新路三段157號","121.4896","25.0586716666667","6500200","三重區"
"241023","887-TS","2018/07/13 15:49:17","新北市三重區名源街37巷4號","121.480378333333","25.060075","6500200","三重區"
"241012","941-UM","2018/07/13 15:49:25","新北市三重區文化北路83巷2-2號","121.498408333333","25.0669966666667","6500200","三重區"
"241029","942-UM","2018/07/13 15:49:15","新北市三重區大同南路246號","121.497015","25.05578","6500200","三重區"
"241033","AAC-255","2018/07/13 15:49:10","新北市三重區光復路一段60號","121.47194","25.048885","6500200","三重區"
"235033","4980-A6","2018/07/13 15:49:21","新北市中和區新生街180號","121.483725","24.999855","6500300","中和區"
"235046","733-UM","2018/07/13 15:24:22","新北市中和區員山路36巷13號","121.484145","24.9908266666667","6500300","中和區"
"235023","AAC-215","2018/07/13 15:49:07","新北市中和區員山路49-7號","121.480638333333","24.9914333333333","6500300","中和區"
"220016","013-TV","2018/07/13 15:31:39","新北市板橋區民生路二段120號","121.470366666667","25.0197583333333","6500100","板橋區"
"247006","336-TH","2018/07/13 15:35:36","新北市五股區中興路三段163號","121.449088333333","25.0807366666667","6501400","蘆洲區"
"224007","275-VK","2018/07/13 15:49:09","新北市瑞芳區大寮路356-1號","121.784853333333","25.1032133333333","6501200","瑞芳區"
"227011","642-TC","2018/07/13 15:49:24","新北市雙溪區牡丹里中正路56號","121.86551","25.0404","6502500","雙溪區"
"227003","400-TW","2018/07/13 15:49:18","新北市雙溪區平林里外平林44號","121.852925","25.0363383333333","6502500","雙溪區"
"236067","105-UM","2018/07/13 15:49:07","新北市土城區中山路53號","121.422101666667","24.9633383333333","6501300","土城區"
"236077","166-UM","2018/07/13 15:49:25","新北市土城區民族街26號","121.418846666667","24.96333","6501300","土城區"
"236013","270-VK","2018/07/13 15:49:22","新北市土城區廣明街83號","121.454778333333","24.99419","6501300","土城區"
"236057","912-UM","2018/07/13 15:49:12","新北市土城區中央路二段125號","121.442025","24.977355","6501300","土城區"
"236054","AAC-216","2018/07/13 15:49:23","新北市土城區中華路二段62號","121.43888","24.97653","6501300","土城區"
