"lineid","car","time","location","longitude","latitude","cityid","cityname"
"234070","149-BY","2018/07/13 16:29:11","新北市永和區福和路1號","121.526233333333","25.0099166666667","6500400","永和區"
"231046","107-UY","2018/07/13 16:29:13","新北市新店區灣潭路3-3號","121.538246666667","24.9507816666667","6500600","新店區"
"241011","013-R5","2018/07/13 16:29:18","新北市三重區龍濱路172號","121.501388333333","25.0727983333333","6500200","三重區"
"241028","022-UY","2018/07/13 16:29:15","新北市三重區泉州街47號","121.494633333333","25.0552633333333","6500200","三重區"
"241008","059-VK","2018/07/13 16:29:28","新北市三重區力行路二段136巷45弄14號","121.479246666667","25.0755133333333","6500200","三重區"
"241022","060-VK","2018/07/13 16:29:20","新北市三重區過圳街102號","121.486128333333","25.06212","6500200","三重區"
"241031","061-VK","2018/07/13 16:29:21","新北市三重區重陽路一段53號","121.486756666667","25.05839","6500200","三重區"
"241015","062-VK","2018/07/13 16:29:23","新北市三重區福德北路40號","121.501911666667","25.065285","6500200","三重區"
"241017","063-VK","2018/07/13 16:29:24","新北市三重區大同北路61號","121.495135","25.0633066666667","6500200","三重區"
"241024","065-VK","2018/07/13 16:29:19","新北市三重區中正北路315巷16弄8號","121.475286666667","25.0716833333333","6500200","三重區"
"241026","066-VK","2018/07/13 16:29:23","新北市三重區文化南路42號","121.500353333333","25.060315","6500200","三重區"
"241002","090-VK","2018/07/13 16:29:08","新北市三重區五華街7巷21號","121.495711666667","25.0802866666667","6500200","三重區"
"241003","091-VK","2018/07/13 16:29:25","新北市三重區五華街71巷83號","121.494173333333","25.0837983333333","6500200","三重區"
"241005","262-UM","2018/07/13 16:29:21","新北市三重區溪尾街305號","121.48754","25.0837616666667","6500200","三重區"
"241016","266-UM","2018/07/13 16:29:20","新北市三重區自強路一段160巷2弄53號","121.494381666667","25.065715","6500200","三重區"
"241009","267-UM","2018/07/13 16:29:16","新北市三重區三和路四段191巷61號","121.484035","25.0796533333333","6500200","三重區"
"241018","268-UM","2018/07/13 16:29:14","新北市三重區重陽路四段20-1號","121.49119","25.0693866666667","6500200","三重區"
"241032","269-UM","2018/07/13 16:29:16","新北市三重區重陽路一段60巷101號","121.483093333333","25.057955","6500200","三重區"
"241013","270-UM","2018/07/13 16:29:27","新北市三重區三和路三段89號","121.494703333333","25.072285","6500200","三重區"
"241007","398-BY","2018/07/13 16:29:09","新北市三重區三和路四段167巷145號","121.488056666667","25.0802766666667","6500200","三重區"
"241025","413-TH","2018/07/13 16:29:22","新北市三重區中正北路560巷100弄2號","121.472586666667","25.06828","6500200","三重區"
"241004","475-VK","2018/07/13 16:29:23","新北市三重區仁愛街377巷3號","121.492011666667","25.0805666666667","6500200","三重區"
"241020","478-VK","2018/07/13 16:29:20","新北市三重區後竹圍街205巷8號","121.48476","25.0718433333333","6500200","三重區"
"241030","480-VK","2018/07/13 16:29:09","新北市三重區成功路96號","121.487708333333","25.0513516666667","6500200","三重區"
"241014","543-UM","2018/07/13 16:29:07","新北市三重區河邊北街70-3號","121.504445","25.068415","6500200","三重區"
"241001","547-UM","2018/07/13 16:29:27","新北市三重區福隆路83號","121.491818333333","25.0780916666667","6500200","三重區"
"241019","KEA-2593","2018/07/13 16:29:29","新北市三重區重陽路三段97號","121.490228333333","25.0679833333333","6500200","三重區"
"241006","AAD-863","2018/07/13 16:29:26","新北市三重區力行路二段136巷11弄24號","121.48178","25.0764483333333","6500200","三重區"
"241023","887-TS","2018/07/13 16:29:17","新北市三重區忠孝路三段50巷43號","121.48289","25.0644166666667","6500200","三重區"
"241012","941-UM","2018/07/13 16:29:25","新北市三重區河邊北街379-1號","121.501665","25.0765466666667","6500200","三重區"
"241029","942-UM","2018/07/13 16:29:15","新北市三重區集美街126巷16號","121.489603333333","25.05375","6500200","三重區"
"241033","AAC-255","2018/07/13 16:29:16","新北市三重區五谷王北街20巷15弄2號","121.474978333333","25.04828","6500200","三重區"
"235026","800-TS","2018/07/13 16:29:17","新北市中和區錦和路124號","121.489013333333","24.9984116666667","6500300","中和區"
"224007","275-VK","2018/07/13 16:29:09","新北市瑞芳區大埔路60號","121.763766666667","25.1021583333333","6501200","瑞芳區"
"224005","271-BY","2018/07/13 16:29:22","新北市瑞芳區阿美家園5號","121.82162","25.1160016666667","6501200","瑞芳區"
"227011","642-TC","2018/07/13 16:29:24","新北市雙溪區三港里雙澳路37-5號","121.872471666667","25.05074","6502500","雙溪區"
"227003","400-TW","2018/07/13 16:29:18","新北市雙溪區上林里內平林120-10號","121.82413","25.02608","6502500","雙溪區"
"251008","181-VK","2018/07/13 16:29:23","新北市淡水區民生路48號","121.461836666667","25.1379066666667","6501000","淡水區"
"252002","178-VK","2018/07/13 16:29:26","新北市三芝區埔坪里埔頭坑88-7號","121.506588333333","25.2549283333333","6502100","三芝區"
