"lineid","car","time","location","longitude","latitude","cityid","cityname"
"234070","149-BY","2018/07/13 17:11:49","新北市永和區福和路1號","121.526248333333","25.0099433333333","6500400","永和區"
"249005","172-UM","2018/07/13 17:29:11","新北市八里區荖阡坑路30號","121.404746666667","25.1304116666667","6502300","八里區"
"249001","173-UM","2018/07/13 17:29:23","新北市八里區中華路一段5號","121.42268","25.1583466666667","6502300","八里區"
"249004","303-UY","2018/07/13 17:29:19","新北市八里區賢一街217號","121.415676666667","25.1559033333333","6502300","八里區"
"249002","305-UY","2018/07/13 17:29:11","新北市八里區龍形一街33巷6-2號","121.44924","25.1294883333333","6502300","八里區"
"249003","593-UM","2018/07/13 17:29:24","新北市八里區中山路二段398號","121.400576666667","25.1477766666667","6502300","八里區"
"244007","080-UY","2018/07/13 17:29:28","新北市林口區湖北里2鄰9號","121.387951666667","25.0898016666667","6501700","林口區"
"244019","403-UM","2018/07/13 17:29:15","新北市林口區仁愛路二段201-1號","121.377408333333","25.0746466666667","6501700","林口區"
"244013","742-UY","2018/07/13 17:29:08","新北市林口區中山路2-2號","121.396883333333","25.07871","6501700","林口區"
"244009","410-SL","2018/07/13 17:29:11","新北市林口區寶林路93號","121.38427","25.08484","6501700","林口區"
"244023","483-VK","2018/07/13 17:29:29","新北市林口區東明三街382號","121.392475","25.0709016666667","6501700","林口區"
"244017","485-VK","2018/07/13 17:29:11","新北市林口區文化一路二段202號","121.383248333333","25.0807266666667","6501700","林口區"
"244011","657-BX","2018/07/13 17:29:19","新北市林口區仁愛路一段386巷6號","121.388035","25.07703","6501700","林口區"
"244025","837-TS","2018/07/13 17:29:22","新北市林口區民族路151號","121.366573333333","25.0759966666667","6501700","林口區"
"244021","838-TS","2018/07/13 17:29:18","新北市林口區中山路2-2號","121.39669","25.0787033333333","6501700","林口區"
"222002","016-RS","2018/07/13 17:29:27","新北市深坑區深南路51-1號","121.62139","25.010205","6501800","深坑區"
"231046","107-UY","2018/07/13 17:29:13","新北市新店區直潭路92號","121.530911666667","24.9375916666667","6500600","新店區"
"241011","013-R5","2018/07/13 17:29:18","新北市三重區河邊北街124巷31號","121.503018333333","25.07139","6500200","三重區"
"241008","059-VK","2018/07/13 17:29:09","新北市三重區聯華街140號","121.484436666667","25.074875","6500200","三重區"
"241015","062-VK","2018/07/13 17:29:23","新北市三重區開元街30號","121.50362","25.0658366666667","6500200","三重區"
"241017","063-VK","2018/07/13 17:29:16","新北市三重區重新路三段47巷3弄48號","121.493801666667","25.0622166666667","6500200","三重區"
"241024","065-VK","2018/07/13 17:29:19","新北市三重區中正北路191巷3弄16號","121.47824","25.0697466666667","6500200","三重區"
"241002","090-VK","2018/07/13 17:29:27","新北市三重區自強路五段91號","121.49534","25.0822216666667","6500200","三重區"
"241005","262-UM","2018/07/13 17:29:21","新北市三重區永安北路二段5巷24號","121.482503333333","25.0812933333333","6500200","三重區"
"241016","266-UM","2018/07/13 17:29:20","新北市三重區信義西街41號","121.495338333333","25.0639933333333","6500200","三重區"
"241018","268-UM","2018/07/13 17:29:14","新北市三重區新北大道一段7號","121.489613333333","25.0612516666667","6500200","三重區"
"241007","398-BY","2018/07/13 17:29:09","新北市三重區三和路四段145巷180號","121.488653333333","25.0796333333333","6500200","三重區"
"241025","413-TH","2018/07/13 17:29:22","新北市三重區中正北路179號","121.477781666667","25.0695066666667","6500200","三重區"
"241020","478-VK","2018/07/13 17:29:20","新北市三重區忠孝路一段153號","121.48802","25.0719833333333","6500200","三重區"
"241030","480-VK","2018/07/13 17:29:28","新北市三重區新興路1號","121.492911666667","25.05307","6500200","三重區"
"241014","543-UM","2018/07/13 17:29:27","新北市三重區安和路17號","121.501356666667","25.068505","6500200","三重區"
"241019","KEA-2593","2018/07/13 17:29:08","新北市三重區自強路二段26巷33號","121.48842","25.0689133333333","6500200","三重區"
"241023","887-TS","2018/07/13 17:29:16","新北市三重區忠孝路三段50巷41弄12號","121.482361666667","25.0643583333333","6500200","三重區"
"241012","941-UM","2018/07/13 17:29:25","新北市三重區仁興街41號","121.499143333333","25.07577","6500200","三重區"
"241033","AAC-255","2018/07/13 17:29:09","新北市三重區中興北街153-6號","121.469103333333","25.0532233333333","6500200","三重區"
"235064","005-UY","2018/07/13 17:29:12","新北市中和區員山路36巷16-3號","121.4851","24.9912566666667","6500300","中和區"
"247010","KEA-2869","2018/07/13 17:29:26","新北市蘆洲區鷺江街39號","121.478453333333","25.08221","6501400","蘆洲區"
"247024","893-R6","2018/07/13 17:29:24","新北市蘆洲區長興路296-8號","121.460615","25.0902933333333","6501400","蘆洲區"
"247014","546-UM","2018/07/13 17:29:27","新北市蘆洲區三民路33號","121.475436666667","25.082985","6501400","蘆洲區"
"247022","500-BY","2018/07/13 17:29:28","新北市蘆洲區三民路248號","121.467876666667","25.0899516666667","6501400","蘆洲區"
"247004","337-TH","2018/07/13 17:29:25","新北市蘆洲區長安街233巷20號","121.45863","25.0826116666667","6501400","蘆洲區"
"247006","336-TH","2018/07/13 17:29:08","新北市蘆洲區長安街68巷47號","121.4641","25.0812533333333","6501400","蘆洲區"
"247018","057-VK","2018/07/13 17:29:26","新北市蘆洲區水湳街26號","121.472261666667","25.0882666666667","6501400","蘆洲區"
"247008","053-VK","2018/07/13 17:29:25","新北市蘆洲區成功路1號","121.473961666667","25.0775583333333","6501400","蘆洲區"
"247016","007-UY","2018/07/13 17:29:11","新北市蘆洲區光華路22巷46號","121.468268333333","25.0850333333333","6501400","蘆洲區"
"247002","002-UY","2018/07/13 17:28:45","新北市蘆洲區永樂街38巷57弄16號","121.457538333333","25.0906066666667","6501400","蘆洲區"
"247020","001-UY","2018/07/13 17:29:09","新北市蘆洲區仁愛街93巷8號","121.470741666667","25.0940683333333","6501400","蘆洲區"
"228002","663-BX","2018/07/13 17:29:28","新北市貢寮區福隆里興隆街20號","121.94477","25.01667","6502600","貢寮區"
"228001","670-TC","2018/07/13 17:29:21","新北市貢寮區仁理村仁愛路35號","121.924865","25.0533816666667","6502600","貢寮區"
"228003","828-UM","2018/07/13 17:29:27","新北市貢寮區仁理村研海街62-2號","121.925513333333","25.0456566666667","6502600","貢寮區"
"224006","676-BX","2018/07/13 17:29:25","新北市瑞芳區傑魚坑路73號","121.793225","25.1104266666667","6501200","瑞芳區"
"224008","285-BY","2018/07/13 17:29:24","新北市瑞芳區九芎橋路14號","121.832125","25.09117","6501200","瑞芳區"
"224009","273-VK","2018/07/13 17:29:16","新北市瑞芳區山尖路172-1號","121.848018333333","25.1118516666667","6501200","瑞芳區"
"224005","271-BY","2018/07/13 17:29:22","新北市瑞芳區海濱路2巷1號","121.83573","25.127305","6501200","瑞芳區"
"227003","400-TW","2018/07/13 17:29:18","新北市雙溪區上林里新寮子1號","121.840475","25.0318083333333","6502500","雙溪區"
"251004","009-UM","2018/07/13 17:19:28","新北市淡水區中正東路二段88巷15號","121.459108333333","25.1504783333333","6501000","淡水區"
"251002","012-UM","2018/07/13 17:29:20","新北市淡水區中正路437號","121.432236666667","25.174715","6501000","淡水區"
"251008","181-VK","2018/07/13 17:29:23","新北市淡水區大同路124巷18號","121.463643333333","25.13989","6501000","淡水區"
"251010","413-VK","2018/07/13 17:29:13","新北市淡水區中正路二段211號","121.426231666667","25.189125","6501000","淡水區"
"251012","441-VK","2018/07/13 17:29:11","新北市淡水區北新路117號","121.4489","25.178655","6501000","淡水區"
"251007","442-VK","2018/07/13 17:29:23","新北市淡水區民生路47-4號","121.462076666667","25.1380133333333","6501000","淡水區"
"251005","443-VK","2018/07/13 17:29:16","新北市淡水區鄧公路31巷16號","121.451871666667","25.1706483333333","6501000","淡水區"
"251006","561-UM","2018/07/13 17:29:10","新北市淡水區大仁街15號","121.442363333333","25.1750366666667","6501000","淡水區"
"251009","575-R6","2018/07/13 17:29:26","新北市淡水區三民街16號","121.439006666667","25.171645","6501000","淡水區"
"251011","650-BX","2018/07/13 17:29:17","新北市淡水區坪頂路712號","121.48251","25.1584716666667","6501000","淡水區"
"251003","673-BX","2018/07/13 17:29:16","新北市淡水區文化路61號","121.438308333333","25.1728566666667","6501000","淡水區"
"207003","550-UM","2018/07/13 17:29:17","新北市萬里區龜吼里美崙路96號","121.683796666667","25.1857216666667","6502800","萬里區"
"207004","225-TW","2018/07/13 17:29:14","新北市萬里區萬里里景美路11-2號","121.685416666667","25.1729366666667","6502800","萬里區"
"252002","178-VK","2018/07/13 17:29:26","新北市三芝區忠孝街1-14號","121.505528333333","25.25393","6502100","三芝區"
"252001","292-VK","2018/07/13 17:29:22","新北市三芝區長安街119號","121.498051666667","25.2595966666667","6502100","三芝區"
"237013","252-BX","2018/07/13 17:29:20","新北市三峽區中山路459巷24號","121.357536666667","24.9387583333333","6500900","三峽區"
"237012","275-BY","2018/07/13 17:29:26","新北市三峽區中山路459巷137號","121.349916666667","24.933955","6500900","三峽區"
"237011","KEA-2596","2018/07/13 17:29:30","新北市三峽區中山路459巷163-3號","121.34885","24.9331666666667","6500900","三峽區"
"242034","AAC-296","2018/07/13 17:29:24","新北市新莊區新莊路469號","121.449206666667","25.0332916666667","6500500","新莊區"
"242058","986-R7","2018/07/13 17:29:21","新北市新莊區中正路516-42號","121.432373333333","25.0320383333333","6500500","新莊區"
"242054","751-BX","2018/07/13 17:29:10","新北市新莊區瓊林南路187巷50-16號","121.436136666667","25.0068583333333","6500500","新莊區"
"242023","705-TV","2018/07/13 17:29:22","新北市新莊區公園路150號","121.453126666667","25.040085","6500500","新莊區"
"242027","615-BX","2018/07/13 17:29:10","新北市新莊區思源路32號","121.46032","25.040415","6500500","新莊區"
"242025","613-BX","2018/07/13 17:29:10","新北市新莊區復興路二段31號","121.454288333333","25.044125","6500500","新莊區"
"242029","612-BX","2018/07/13 17:29:12","新北市新莊區復興路二段174號","121.458606666667","25.0443333333333","6500500","新莊區"
"242041","566-BX","2018/07/13 17:29:25","新北市新莊區新樹路113巷25號","121.439511666667","25.0264083333333","6500500","新莊區"
"242046","497-BY","2018/07/13 17:29:11","新北市新莊區新樹路49號","121.44014","25.0320516666667","6500500","新莊區"
"242039","442-UM","2018/07/13 17:29:17","新北市新莊區民安路280號","121.427795","25.021535","6500500","新莊區"
"242050","441-UM","2018/07/13 17:29:17","新北市新莊區新樹路449巷24號","121.43421","25.014115","6500500","新莊區"
"242056","440-UM","2018/07/13 17:29:25","新北市新莊區新泰路6號","121.449711666667","25.0327883333333","6500500","新莊區"
"242037","415-TV","2018/07/13 17:29:09","新北市新莊區建國二路5-3號","121.434861666667","25.0236633333333","6500500","新莊區"
"242007","413-TV","2018/07/13 17:29:21","新北市新莊區自強街39號","121.454691666667","25.0466466666667","6500500","新莊區"
"242044","400-BY","2018/07/13 17:29:20","新北市新莊區富國路73號","121.419965","25.0259816666667","6500500","新莊區"
"242060","353-BY","2018/07/13 17:29:08","新北市新莊區瓊林路190號","121.43919","25.0208","6500500","新莊區"
"242009","132-UY","2018/07/13 17:29:21","新北市新莊區中原路228號","121.453128333333","25.05446","6500500","新莊區"
"242032","135-UY","2018/07/13 17:29:23","新北市新莊區新泰路381巷38號","121.442443333333","25.0436916666667","6500500","新莊區"
"242048","172-VK","2018/07/13 17:29:14","新北市新莊區龍安路252號","121.421175","25.0195666666667","6500500","新莊區"
"242017","175-VK","2018/07/13 17:29:18","新北市新莊區復興路一段191號","121.451815","25.0435733333333","6500500","新莊區"
"242005","176-VK","2018/07/13 17:29:26","新北市新莊區中港路288巷8號","121.453336666667","25.0444266666667","6500500","新莊區"
"242015","346-TH","2018/07/13 17:29:16","新北市新莊區新泰路156號","121.44771","25.0374716666667","6500500","新莊區"
"242021","348-TH","2018/07/13 17:29:27","新北市新莊區中華路一段29號","121.451895","25.0371883333333","6500500","新莊區"
"242002","349-TH","2018/07/13 17:29:17","新北市新莊區新莊路211號","121.455291666667","25.0354266666667","6500500","新莊區"
"242013","351-TH","2018/07/13 17:29:18","新北市新莊區中誠街18號","121.451938333333","25.04828","6500500","新莊區"
"238015","755-BX","2018/07/13 17:29:14","新北市樹林區大安路267號","121.41905","24.9936883333333","6500700","樹林區"
"238019","599-UM","2018/07/13 17:29:25","新北市樹林區太平路27號","121.419186666667","24.98328","6500700","樹林區"
"238018","571-TV","2018/07/13 17:28:47","新北市樹林區鎮前街151號","121.423938333333","24.9890616666667","6500700","樹林區"
"238024","5061-A6","2018/07/13 17:29:13","新北市樹林區鎮前街160號","121.424466666667","24.99013","6500700","樹林區"
"238022","KEA-2213","2018/07/13 17:29:13","新北市樹林區仁愛街13號","121.421465","24.981635","6500700","樹林區"
"238021","KEA-2539","2018/07/13 17:29:27","新北市樹林區西圳街一段203巷33號","121.394685","24.9579916666667","6500700","樹林區"
"238025","303-VK","2018/07/13 17:29:20","新北市樹林區保安街一段179-10號","121.42125","24.9957666666667","6500700","樹林區"
"238017","283-BY","2018/07/13 17:29:23","新北市樹林區三德街10巷1號","121.413383333333","25.012665","6500700","樹林區"
"238014","282-BY","2018/07/13 17:29:10","新北市樹林區保安街一段288號","121.419331666667","24.99718","6500700","樹林區"
"238020","268-VK","2018/07/13 17:29:12","新北市樹林區俊英街116巷41弄4號","121.42897","25.006475","6500700","樹林區"
"238026","172-UY","2018/07/13 17:29:20","新北市樹林區新興街11巷10號","121.401791666667","24.9735283333333","6500700","樹林區"
"238016","169-UY","2018/07/13 17:29:14","新北市樹林區長壽街13號","121.423731666667","24.993235","6500700","樹林區"
"239007","AAC-297","2018/07/13 17:29:13","新北市鶯歌區國光街72號","121.34153","24.9580366666667","6500800","鶯歌區"
"239006","891-R6","2018/07/13 17:29:13","新北市鶯歌區鳳鳴路79號","121.334195","24.9659516666667","6500800","鶯歌區"
"239008","527-UM","2018/07/13 17:29:15","新北市鶯歌區大湖路590巷9號","121.336008333333","24.9742666666667","6500800","鶯歌區"
"239005","526-UM","2018/07/13 17:29:28","新北市鶯歌區福隆一街25號","121.325226666667","24.9715783333333","6500800","鶯歌區"
"239001","417-VK","2018/07/13 17:29:19","新北市鶯歌區高職西街19號","121.337365","24.9423716666667","6500800","鶯歌區"
"239003","360-BY","2018/07/13 17:29:28","新北市鶯歌區鶯桃路311號","121.33389","24.96076","6500800","鶯歌區"
"239002","359-BY","2018/07/13 17:29:19","新北市鶯歌區育才街29號","121.348996666667","24.9548983333333","6500800","鶯歌區"
"239004","193-VK","2018/07/13 17:29:22","新北市鶯歌區三鶯路29巷19號","121.35477","24.9403766666667","6500800","鶯歌區"
"221008","489-VK","2018/07/13 17:29:15","新北市汐止區康寧街901號","121.651403333333","25.0750833333333","6501100","汐止區"
"221033","297-VK","2018/07/13 17:29:22","新北市汐止區大同路二段273號","121.652295","25.067325","6501100","汐止區"
"242019","281-VK","2018/07/13 17:29:29","新北市新莊區中港路61號","121.455335","25.0385083333333","6500500","新莊區"
"220054","741-BX","2018/07/13 17:29:15","新北市板橋區華東街1-10號","121.448393333333","24.9949383333333","6500100","板橋區"
"235061","KEA-2875","2018/07/13 17:10:25","新北市中和區和城路一段271巷1號","121.486521666667","24.991675","6500300","中和區"
