"lineid","car","time","location","longitude","latitude","cityid","cityname"
"234046","148-BY","2018/07/13 18:29:27","新北市永和區福和路1號","121.526495","25.0099683333333","6500400","永和區"
"234007","207-UY","2018/07/13 18:29:25","新北市永和區仁愛路278號","121.503843333333","25.0082333333333","6500400","永和區"
"234081","298-R6","2018/07/13 18:29:11","新北市永和區福和路1號","121.526348333333","25.0098","6500400","永和區"
"234086","553-UM","2018/07/13 18:29:16","新北市永和區福和路1號","121.526375","25.0098483333333","6500400","永和區"
"234030","746-BX","2018/07/13 18:29:14","新北市永和區福和路1號","121.526331666667","25.0097316666667","6500400","永和區"
"234042","862-TW","2018/07/13 18:29:13","新北市永和區豫溪街217巷15號","121.524486666667","25.009815","6500400","永和區"
"234026","9371-KE","2018/07/13 18:29:17","新北市永和區中山路一段62號","121.512858333333","25.0107666666667","6500400","永和區"
"234011","9373-KE","2018/07/13 18:29:18","新北市永和區保福路二段156號","121.509135","25.0149716666667","6500400","永和區"
"249005","172-UM","2018/07/13 18:29:31","新北市八里區中華路三段101號","121.393148333333","25.1387866666667","6502300","八里區"
"249001","173-UM","2018/07/13 18:29:23","新北市八里區龍米路一段140號","121.45296","25.125625","6502300","八里區"
"249004","303-UY","2018/07/13 18:29:19","新北市八里區忠孝路86號","121.426028333333","25.16044","6502300","八里區"
"249002","305-UY","2018/07/13 18:29:11","新北市八里區龍形三街26號","121.44809","25.1316","6502300","八里區"
"248016","026-BX","2018/07/13 18:29:19","新北市五股區凌雲路一段83巷7弄2號","121.44985","25.1006966666667","6501500","五股區"
"248006","077-UY","2018/07/13 18:29:17","新北市五股區四維路44號","121.467306666667","25.0719783333333","6501500","五股區"
"248008","095-VK","2018/07/13 18:29:27","新北市蘆洲區永安南路二段150號","121.46184","25.0784116666667","6501500","五股區"
"248018","225-UY","2018/07/13 18:29:22","新北市五股區御史路269號","121.421881666667","25.1061533333333","6501500","五股區"
"248012","247-BX","2018/07/13 18:29:23","新北市五股區御成路145號","121.440931666667","25.0943066666667","6501500","五股區"
"248014","261-SL","2018/07/13 18:29:26","新北市五股區明德路7巷37號","121.434653333333","25.0708383333333","6501500","五股區"
"248010","272-BY","2018/07/13 18:29:29","新北市五股區水碓路16巷9號","121.434046666667","25.0729683333333","6501500","五股區"
"248004","677-BX","2018/07/13 18:29:29","新北市五股區成泰路二段129號","121.43872","25.0848866666667","6501500","五股區"
"248002","678-BX","2018/07/13 18:29:15","新北市五股區西雲路116-3號","121.444503333333","25.0935466666667","6501500","五股區"
"234077","969-R7","2018/07/13 18:29:28","新北市永和區福和路1號","121.52648","25.0099783333333","6500400","永和區"
"244007","080-UY","2018/07/13 18:29:28","新北市林口區林口路113巷47號","121.387928333333","25.07989","6501700","林口區"
"244019","403-UM","2018/07/13 18:29:15","新北市林口區忠孝路602號","121.376475","25.068275","6501700","林口區"
"244013","742-UY","2018/07/13 18:29:12","新北市林口區文化一路二段106號","121.3821","25.0791633333333","6501700","林口區"
"244009","410-SL","2018/07/13 18:29:11","新北市林口區中山路576-8號","121.37638","25.08514","6501700","林口區"
"244023","483-VK","2018/07/13 18:29:29","新北市林口區文化一路二段2號","121.380326666667","25.0763083333333","6501700","林口區"
"244017","485-VK","2018/07/13 18:29:31","新北市林口區八德路78號","121.365581666667","25.06555","6501700","林口區"
"244011","657-BX","2018/07/13 18:29:19","新北市林口區中正路225號","121.391136666667","25.0775416666667","6501700","林口區"
"244025","837-TS","2018/07/13 18:29:23","新北市林口區南勢六街55號","121.355758333333","25.07145","6501700","林口區"
"244021","838-TS","2018/07/13 18:29:17","新北市林口區自強二街46號","121.399093333333","25.0772033333333","6501700","林口區"
"243013","AAD-798","2018/07/13 18:28:13","新北市泰山區明志路三段206巷3號","121.423268333333","25.03791","6501600","泰山區"
"243012","646-TV","2018/07/13 18:29:14","新北市泰山區泰林路二段599巷1-1號","121.421205","25.0634616666667","6501600","泰山區"
"222002","016-RS","2018/07/13 18:29:27","新北市深坑區雲鄉路155號","121.62152","24.9984366666667","6501800","深坑區"
"222003","436-BY","2018/07/13 18:29:27","新北市深坑區北深路一段288號","121.628185","25.0076133333333","6501800","深坑區"
"231041","002-UM","2018/07/13 18:29:13","新北市新店區安華路28-1號","121.51958","24.9608616666667","6500600","新店區"
"231059","046-UY","2018/07/13 18:29:15","新北市新店區安華路28-1號","121.51954","24.9608416666667","6500600","新店區"
"231040","047-UY","2018/07/13 18:29:21","新北市新店區安一路一段1-1號","121.51935","24.9610183333333","6500600","新店區"
"231044","106-UY","2018/07/13 18:29:12","新北市新店區安華路28-1號","121.519613333333","24.9608133333333","6500600","新店區"
"231046","107-UY","2018/07/13 18:29:12","新北市新店區直潭七街60號","121.532275","24.9398833333333","6500600","新店區"
"231065","110-UY","2018/07/13 18:29:17","新北市新店區安一路一段1-1號","121.519383333333","24.961295","6500600","新店區"
"231048","187-VK","2018/07/13 18:29:23","新北市新店區安一路一段1-1號","121.519531666667","24.961095","6500600","新店區"
"231054","KEA-2219","2018/07/13 18:29:13","新北市新店區安一路一段1-1號","121.519735","24.9612416666667","6500600","新店區"
"231057","256-BX","2018/07/13 18:29:16","新北市新店區環河路29巷1號","121.536815","24.9612716666667","6500600","新店區"
"231042","268-BY","2018/07/13 18:29:23","新北市新店區安華路28-1號","121.519628333333","24.96077","6500600","新店區"
"231051","278-BY","2018/07/13 18:29:18","新北市新店區安一路一段1-1號","121.519615","24.9611016666667","6500600","新店區"
"231050","AAD-862","2018/07/13 18:29:18","新北市新店區安一路一段1-1號","121.519721666667","24.9611133333333","6500600","新店區"
"231058","3713-VJ","2018/07/13 18:29:11","新北市新店區新店後街80號","121.537573333333","24.9546733333333","6500600","新店區"
"231066","4716-K9","2018/07/13 18:29:27","新北市新店區安一路一段1-1號","121.519461666667","24.961245","6500600","新店區"
"231056","4715-K9","2018/07/13 18:29:11","新北市新店區二十張路131號","121.53587","24.9792166666667","6500600","新店區"
"231067","4772-VM","2018/07/13 18:29:14","新北市新店區安華路28-1號","121.51936","24.960585","6500600","新店區"
"231049","513-UM","2018/07/13 18:29:27","新北市新店區安一路一段1-1號","121.519568333333","24.9611083333333","6500600","新店區"
"231063","616-UM","2018/07/13 18:29:15","新北市新店區安華路1-1號","121.519453333333","24.9605266666667","6500600","新店區"
"231045","617-UM","2018/07/13 18:29:20","新北市新店區安華路28-1號","121.51942","24.9608216666667","6500600","新店區"
"231061","619-UM","2018/07/13 18:29:23","新北市新店區安華路28-1號","121.519523333333","24.9609133333333","6500600","新店區"
"231064","719-UM","2018/07/13 18:29:28","新北市新店區安一路一段1-1號","121.519501666667","24.9612383333333","6500600","新店區"
"231053","719-UY","2018/07/13 18:29:17","新北市新店區新烏路一段50-2號","121.545626666667","24.9491616666667","6500600","新店區"
"231062","720-UM","2018/07/13 18:29:31","新北市新店區安一路一段1-1號","121.519371666667","24.9612366666667","6500600","新店區"
"231060","897-TW","2018/07/13 18:29:26","新北市新店區安華路28-1號","121.519583333333","24.960755","6500600","新店區"
"231043","899-TW","2018/07/13 18:29:24","新北市新店區安華路28-1號","121.519255","24.960955","6500600","新店區"
"231055","AKT-0513","2018/07/13 18:29:24","新北市新店區中正路218號","121.540283333333","24.972645","6500600","新店區"
"235066","003-UY","2018/07/13 18:29:21","新北市中和區水源路2號","121.502773333333","25.0036033333333","6500300","中和區"
"235064","005-UY","2018/07/13 18:29:12","新北市中和區連城路139巷66號","121.49687","24.996725","6500300","中和區"
"235063","006-UY","2018/07/13 18:29:24","新北市中和區連城路347巷16弄18號","121.487621666667","24.99512","6500300","中和區"
"235045","031-BX","2018/07/13 18:29:12","新北市中和區南山路236巷24弄20號","121.504968333333","24.9890666666667","6500300","中和區"
"235056","096-UM","2018/07/13 18:29:20","新北市中和區員山路611巷5弄3號","121.478018333333","25.0113133333333","6500300","中和區"
"235039","097-UM","2018/07/13 18:29:16","新北市中和區安平路161號","121.512408333333","24.9983633333333","6500300","中和區"
"235065","098-UM","2018/07/13 18:29:13","新北市中和區莊敬路49巷10弄34號","121.502986666667","25.0055383333333","6500300","中和區"
"235040","150-BY","2018/07/13 18:29:25","新北市中和區安平路38號","121.50986","24.9949566666667","6500300","中和區"
"235058","151-BY","2018/07/13 18:29:12","新北市中和區圓通路369巷30弄58號","121.488641666667","24.98474","6500300","中和區"
"235055","183-VK","2018/07/13 18:29:29","新北市中和區民生街72號","121.468673333333","25.0048366666667","6500300","中和區"
"235038","185-VK","2018/07/13 18:29:26","新北市中和區自立路26號","121.52245","24.9930466666667","6500300","中和區"
"235049","186-VK","2018/07/13 18:29:24","新北市中和區景安路130號","121.505168333333","24.9944216666667","6500300","中和區"
"235067","255-BX","2018/07/13 18:29:16","新北市中和區中正路637巷52弄1號","121.485508333333","24.99356","6500300","中和區"
"235044","293-VK","2018/07/13 18:29:23","新北市中和區復興路301巷2弄1號","121.501506666667","24.9898766666667","6500300","中和區"
"235043","352-BY","2018/07/13 18:29:17","新北市中和區景平路301號","121.506696666667","24.9932016666667","6500300","中和區"
"235042","KEA-2878","2018/07/13 18:29:19","新北市中和區自立路56巷18號","121.522565","24.9916683333333","6500300","中和區"
"235050","4979-A6","2018/07/13 18:29:16","新北市中和區景新街410巷18弄7號","121.511968333333","24.98942","6500300","中和區"
"235069","4980-A6","2018/07/13 18:29:12","新北市中和區連城路127巷17號","121.496745","24.9983916666667","6500300","中和區"
"235070","558-UM","2018/07/13 18:29:21","新北市中和區南華路61號","121.50445","24.9970883333333","6500300","中和區"
"235054","640-BX","2018/07/13 18:29:22","新北市中和區民享街89巷4弄14號","121.47511","25.001125","6500300","中和區"
"235060","647-TV","2018/07/13 18:29:16","新北市中和區員山路449號","121.480525","25.0041266666667","6500300","中和區"
"235047","732-UM","2018/07/13 18:29:24","新北市中和區南山路250巷2號","121.50776","24.9889666666667","6500300","中和區"
"235046","733-UM","2018/07/13 18:29:17","新北市中和區板南路100號","121.503865","24.9923883333333","6500300","中和區"
"235062","800-TS","2018/07/13 18:29:19","新北市中和區景平路741號","121.496373333333","25.004505","6500300","中和區"
"235057","801-TS","2018/07/13 18:29:28","新北市中和區民安街180號","121.476185","24.9999333333333","6500300","中和區"
"235041","802-TS","2018/07/13 18:29:19","新北市中和區景安路104號","121.505441666667","24.99548","6500300","中和區"
"235052","805-TS","2018/07/13 18:29:30","新北市中和區興南路二段96號","121.504968333333","24.9839666666667","6500300","中和區"
"235048","896-TW","2018/07/13 18:29:29","新北市中和區中正路79號","121.50079","24.993475","6500300","中和區"
"235053","900-TW","2018/07/13 18:29:15","新北市中和區民享街469號","121.469983333333","24.9920833333333","6500300","中和區"
"235051","157-BY","2018/07/13 18:29:19","新北市中和區興南路二段142巷20弄3號","121.502483333333","24.98463","6500300","中和區"
"235037","AAC-213","2018/07/13 18:29:18","新北市中和區景德街89巷1號","121.51617","24.9913366666667","6500300","中和區"
"235059","AAC-215","2018/07/13 18:29:17","新北市中和區員山路36巷16-3號","121.485185","24.9911733333333","6500300","中和區"
"220080","015-TV","2018/07/13 18:29:28","新北市板橋區華東街1-9號","121.44815","24.9949583333333","6500100","板橋區"
"220065","072-UY","2018/07/13 18:29:09","新北市板橋區南雅南路二段90號","121.453595","25.0014","6500100","板橋區"
"220086","073-UY","2018/07/13 18:29:26","新北市板橋區南雅南路二段144巷18號","121.450821666667","24.995685","6500100","板橋區"
"226004","205-ST","2018/07/13 18:29:15","新北市平溪區靜安路二段330號","121.736933333333","25.02426","6502400","平溪區"
"228002","663-BX","2018/07/13 18:29:28","新北市貢寮區福連里福連街35號","121.989876666667","25.01027","6502600","貢寮區"
"228001","670-TC","2018/07/13 18:29:21","新北市貢寮區仁理村仁和路166號","121.92347","25.05218","6502600","貢寮區"
"228003","828-UM","2018/07/13 18:29:27","新北市貢寮區和美里和美街38號","121.912225","25.0883983333333","6502600","貢寮區"
"224010","AGQ-8101","2018/07/13 18:29:10","新北市瑞芳區崙頂路107號","121.845135","25.1068516666667","6501200","瑞芳區"
"224006","676-BX","2018/07/13 18:29:25","新北市瑞芳區明燈路二段65號","121.810725","25.1081733333333","6501200","瑞芳區"
"224002","639-TC","2018/07/13 18:29:11","新北市瑞芳區三爪子坑路29巷22號","121.813528333333","25.1070783333333","6501200","瑞芳區"
"224008","285-BY","2018/07/13 18:29:24","新北市瑞芳區逢甲路210號","121.806708333333","25.110265","6501200","瑞芳區"
"224007","275-VK","2018/07/13 18:29:13","新北市瑞芳區大埔路吉慶公園城32號","121.764358333333","25.099705","6501200","瑞芳區"
"224009","273-VK","2018/07/13 18:29:16","新北市瑞芳區五號路308號","121.856861666667","25.11146","6501200","瑞芳區"
"224005","271-BY","2018/07/13 18:29:22","新北市瑞芳區建基路一段44-6號","121.819316666667","25.12361","6501200","瑞芳區"
"227011","642-TC","2018/07/13 18:29:31","新北市雙溪區牡丹里牡丹127號","121.850906666667","25.0594266666667","6502500","雙溪區"
"227003","400-TW","2018/07/13 18:29:18","新北市雙溪區魚行里坤溪21-1號","121.870501666667","25.02795","6502500","雙溪區"
"253005","032-BX","2018/07/13 18:29:30","新北市石門區老崩山9號","121.553066666667","25.2912516666667","6502200","石門區"
"253006","295-VK","2018/07/13 18:29:09","新北市石門區公地15號","121.545705","25.2901966666667","6502200","石門區"
"222001","KEA-2212","2018/07/13 18:29:08","新北市深坑區北深路一段232號","121.630291666667","25.0090133333333","6501800","深坑區"
"208002","KEA-2872","2018/07/13 18:29:17","新北市金山區民生路151-2號","121.644671666667","25.2226683333333","6502700","金山區"
"208003","665-BX","2018/07/13 18:29:24","新北市金山區中山路118-1號","121.639205","25.219975","6502700","金山區"
"208001","761-BX","2018/07/13 18:29:22","新北市金山區文化一路10號","121.636935","25.2243983333333","6502700","金山區"
"251004","009-UM","2018/07/13 18:29:26","新北市淡水區民族路31-29號","121.462036666667","25.1361833333333","6501000","淡水區"
"251002","012-UM","2018/07/13 18:29:20","新北市淡水區竿蓁二街19巷7弄2號","121.453061666667","25.16359","6501000","淡水區"
"251008","181-VK","2018/07/13 18:29:23","新北市淡水區北投子85-5號","121.46827","25.1788516666667","6501000","淡水區"
"251010","413-VK","2018/07/13 18:29:13","新北市淡水區沙崙路181巷2-1號","121.424198333333","25.18412","6501000","淡水區"
"251012","441-VK","2018/07/13 18:29:20","新北市淡水區北新路一段163號","121.458978333333","25.1822733333333","6501000","淡水區"
"251005","443-VK","2018/07/13 18:29:16","新北市淡水區中正東路37號","121.44628","25.16838","6501000","淡水區"
"251001","559-UM","2018/07/13 18:29:13","新北市淡水區自強路126-1號","121.465028333333","25.1336566666667","6501000","淡水區"
"251006","561-UM","2018/07/13 18:29:29","新北市淡水區新生街51巷37號","121.440878333333","25.176","6501000","淡水區"
"251011","650-BX","2018/07/13 18:29:17","新北市淡水區中正東路8號","121.44795","25.1665883333333","6501000","淡水區"
"251003","673-BX","2018/07/13 18:29:16","新北市淡水區北新路169巷35-1號","121.4496","25.1800633333333","6501000","淡水區"
"207003","550-UM","2018/07/13 18:29:17","新北市萬里區野柳里港東路74-9號","121.689033333333","25.2050183333333","6502800","萬里區"
"207004","225-TW","2018/07/13 18:29:13","新北市萬里區萬里里瑪鋉路272-1號","121.688883333333","25.1808333333333","6502800","萬里區"
"252002","178-VK","2018/07/13 18:29:26","新北市三芝區中山路二段41號","121.502938333333","25.25506","6502100","三芝區"
"252003","249-BX","2018/07/13 18:29:22","新北市三芝區後厝里北勢子43號","121.471815","25.2525366666667","6502100","三芝區"
"252001","292-VK","2018/07/13 18:29:22","新北市三芝區中興街二段6號","121.498365","25.256475","6502100","三芝區"
"237004","KEA-2597","2018/07/13 18:29:14","新北市三峽區插角1-1號","121.397413333333","24.87368","6500900","三峽區"
"237007","153-BY","2018/07/13 18:29:10","新北市三峽區中正路三段170巷34號","121.35263","24.9045666666667","6500900","三峽區"
"237009","210-TH","2018/07/13 18:29:19","新北市三峽區大同路258號","121.365823333333","24.9252916666667","6500900","三峽區"
"237013","252-BX","2018/07/13 18:29:20","新北市三峽區光明路69巷27號","121.37682","24.929335","6500900","三峽區"
"237012","275-BY","2018/07/13 18:29:26","新北市三峽區三樹路200號","121.379125","24.9418716666667","6500900","三峽區"
"237008","302-VK","2018/07/13 18:29:13","新北市三峽區白雞115-17號","121.40079","24.9064283333333","6500900","三峽區"
"237014","433-BY","2018/07/13 18:29:12","新北市三峽區和平街91-2號","121.370168333333","24.9377083333333","6500900","三峽區"
"237006","5529-G3","2018/07/13 18:29:18","新北市三峽區溪東路315巷40號","121.411415","24.9311316666667","6500900","三峽區"
"237011","KEA-2596","2018/07/13 18:29:30","新北市三峽區成福路101號","121.419186666667","24.9297833333333","6500900","三峽區"
"237015","649-BX","2018/07/13 18:29:21","新北市三峽區紫微路3號","121.426565","24.9224983333333","6500900","三峽區"
"237010","706-TV","2018/07/13 18:29:16","新北市三峽區復興路279號","121.366261666667","24.9388833333333","6500900","三峽區"
"237005","AKY-6261","2018/07/13 18:29:20","新北市三峽區清水街336號","121.371191666667","24.9338133333333","6500900","三峽區"
"236069","105-UM","2018/07/13 18:29:17","新北市土城區永豐路255巷23弄2號","121.475285","24.9732333333333","6501300","土城區"
"236079","166-UM","2018/07/13 18:29:20","新北市土城區中央路四段27巷10弄2號","121.424698333333","24.9617983333333","6501300","土城區"
"236030","253-BX","2018/07/13 18:29:11","新北市土城區福仁街50巷21號","121.439241666667","24.9753633333333","6501300","土城區"
"236026","269-VK","2018/07/13 18:29:14","新北市土城區南天母路135巷14號","121.448258333333","24.95458","6501300","土城區"
"236014","270-VK","2018/07/13 18:29:17","新北市土城區立清街69號","121.46028","24.98731","6501300","土城區"
"236039","271-VK","2018/07/13 18:29:31","新北市土城區青雲路453號","121.458863333333","24.9745783333333","6501300","土城區"
"236020","401-BY","2018/07/13 18:29:12","新北市土城區明德路一段95號","121.465613333333","24.9831983333333","6501300","土城區"
"236042","752-BX","2018/07/13 18:29:22","新北市土城區裕民路67巷13號","121.449905","24.9883283333333","6501300","土城區"
"236059","912-UM","2018/07/13 18:29:14","新北市土城區中央路四段139號","121.415856666667","24.9572683333333","6501300","土城區"
"236048","913-UM","2018/07/13 18:28:57","新北市土城區明德路一段202號","121.461483333333","24.9777333333333","6501300","土城區"
"236063","915-UM","2018/07/13 18:29:28","新北市土城區延壽路1-10號","121.469206666667","24.9937633333333","6501300","土城區"
"236055","AAC-216","2018/07/13 18:29:28","新北市土城區中華路二段1號","121.439705","24.9792016666667","6501300","土城區"
"242058","986-R7","2018/07/13 18:29:21","新北市新莊區中正路897-10號","121.411603333333","25.0216383333333","6500500","新莊區"
"242054","751-BX","2018/07/13 18:29:10","新北市新莊區民安西路468-1號","121.43174","25.0079333333333","6500500","新莊區"
"242025","613-BX","2018/07/13 18:29:10","新北市新莊區昌平街346號","121.45467","25.061265","6500500","新莊區"
"242041","566-BX","2018/07/13 18:29:25","新北市新莊區天祥街107巷18號","121.414398333333","25.0287833333333","6500500","新莊區"
"242046","497-BY","2018/07/13 18:29:29","新北市新莊區民安路31號","121.423138333333","25.02756","6500500","新莊區"
"242044","400-BY","2018/07/13 18:29:20","新北市新莊區中正路新旺巷26號","121.415983333333","25.0229916666667","6500500","新莊區"
"242060","353-BY","2018/07/13 18:29:28","新北市新莊區富國路176巷1號","121.424263333333","25.02439","6500500","新莊區"
"242009","132-UY","2018/07/13 18:29:21","新北市新莊區中平路84號","121.444881666667","25.0448733333333","6500500","新莊區"
"242048","172-VK","2018/07/13 18:29:14","新北市樹林區太平路277號","121.41901","24.97282","6500500","新莊區"
"242002","349-TH","2018/07/13 18:29:17","新北市新莊區新莊路751巷122號","121.44245","25.0299","6500500","新莊區"
"238015","755-BX","2018/07/13 18:29:14","新北市樹林區啟智街124巷1號","121.416075","24.9877783333333","6500700","樹林區"
"238023","601-UM","2018/07/13 18:29:14","新北市樹林區三福街114號","121.40648","25.0162116666667","6500700","樹林區"
"238019","599-UM","2018/07/13 18:29:25","新北市樹林區中華路190-16號","121.411801666667","24.9806283333333","6500700","樹林區"
"238018","571-TV","2018/07/13 18:29:27","新北市樹林區樹新路50巷5弄28號","121.429438333333","24.996765","6500700","樹林區"
"238024","5061-A6","2018/07/13 18:29:13","新北市樹林區中山路二段74號","121.415333333333","24.9839883333333","6500700","樹林區"
"238025","303-VK","2018/07/13 18:29:19","新北市樹林區保安街一段200號","121.42122","24.9958233333333","6500700","樹林區"
"238017","283-BY","2018/07/13 18:29:17","新北市樹林區光興街44號","121.409898333333","25.0027716666667","6500700","樹林區"
"238014","282-BY","2018/07/13 18:29:30","新北市樹林區大安路111巷11號","121.42314","24.997605","6500700","樹林區"
"238020","268-VK","2018/07/13 18:29:12","新北市樹林區三龍街28-3號","121.411583333333","25.0179016666667","6500700","樹林區"
"238026","172-UY","2018/07/13 18:29:20","新北市樹林區中山路三段202號","121.38655","24.968345","6500700","樹林區"
"238016","169-UY","2018/07/13 18:29:14","新北市樹林區日新街148巷37號","121.41942","24.987845","6500700","樹林區"
"239007","AAC-297","2018/07/13 18:29:13","新北市鶯歌區中正一路建德巷38號","121.364523333333","24.9578","6500800","鶯歌區"
"239006","891-R6","2018/07/13 18:29:12","新北市鶯歌區鶯桃路296巷46號","121.33565","24.9613333333333","6500800","鶯歌區"
"239008","527-UM","2018/07/13 18:29:15","新北市鶯歌區國際一路179號","121.336185","24.9764833333333","6500800","鶯歌區"
"239005","526-UM","2018/07/13 18:29:27","新北市鶯歌區鳳吉二街130號","121.328163333333","24.974685","6500800","鶯歌區"
"239001","417-VK","2018/07/13 18:29:23","新北市鶯歌區二橋街30號","121.336393333333","24.9393333333333","6500800","鶯歌區"
"239003","360-BY","2018/07/13 18:29:28","新北市鶯歌區鶯桃路441號","121.332441666667","24.965345","6500800","鶯歌區"
"239002","359-BY","2018/07/13 18:29:19","新北市鶯歌區中正一路阿四巷7-1號","121.368073333333","24.9574416666667","6500800","鶯歌區"
"239004","193-VK","2018/07/13 18:29:22","新北市鶯歌區尖山路302巷19號","121.341626666667","24.9433333333333","6500800","鶯歌區"
"221008","489-VK","2018/07/13 18:29:15","新北市汐止區康寧街901號","121.651391666667","25.0750733333333","6501100","汐止區"
"221036","130-UY","2018/07/13 18:29:11","新北市汐止區南昌街31號","121.663155","25.0691433333333","6501100","汐止區"
"221015","131-UY","2018/07/13 18:29:23","新北市汐止區鄉友街26號","121.668688333333","25.0811666666667","6501100","汐止區"
"221010","269-BY","2018/07/13 18:29:19","新北市汐止區汐萬路三段262號","121.643795","25.1049966666667","6501100","汐止區"
"221012","278-VK","2018/07/13 18:29:25","新北市汐止區保長路149號","121.677021666667","25.0764616666667","6501100","汐止區"
"221023","279-VK","2018/07/13 18:29:15","新北市汐止區康寧街541巷16號","121.633703333333","25.0693583333333","6501100","汐止區"
"221032","280-BY","2018/07/13 18:29:17","新北市汐止區民權街二段109巷29號","121.619898333333","25.0462033333333","6501100","汐止區"
"221027","281-BY","2018/07/13 18:29:12","新北市汐止區和平街63號","121.661711666667","25.070695","6501100","汐止區"
"221033","297-VK","2018/07/13 18:29:22","新北市汐止區宜興街1號","121.620775","25.0412083333333","6501100","汐止區"
"221029","298-VK","2018/07/13 18:29:12","新北市汐止區樟樹一路272-3號","121.642713333333","25.06869","6501100","汐止區"
"221021","299-VK","2018/07/13 18:29:13","新北市汐止區復興路56號","121.656826666667","25.0625966666667","6501100","汐止區"
"221031","353-TW","2018/07/13 18:29:27","新北市汐止區新台五路一段35號","121.63611","25.0555016666667","6501100","汐止區"
"221035","622-UM","2018/07/13 18:29:10","新北市汐止區新台五路一段79-7號","121.64597","25.0624033333333","6501100","汐止區"
"221025","623-UM","2018/07/13 18:29:25","新北市汐止區仁愛路122巷18號","121.663446666667","25.0631633333333","6501100","汐止區"
"221038","646-BX","2018/07/13 18:29:27","新北市汐止區環山路6號","121.657656666667","25.060115","6501100","汐止區"
"221002","707-TV","2018/07/13 18:29:26","新北市汐止區福德一路148號","121.636611666667","25.0668383333333","6501100","汐止區"
"221018","753-BX","2018/07/13 18:29:15","新北市汐止區茄苳路250巷13號","121.671613333333","25.0678416666667","6501100","汐止區"
"220082","610-BX","2018/07/13 18:29:28","新北市板橋區華東街1-9號","121.448196666667","24.9949316666667","6500100","板橋區"
"220056","276-BY","2018/07/13 18:29:16","新北市板橋區華東街1-10號","121.44864","24.9949966666667","6500100","板橋區"
"220071","283-VK","2018/07/13 18:29:25","新北市板橋區華東街1-9號","121.4482","24.9948033333333","6500100","板橋區"
"220083","286-VK","2018/07/13 18:29:26","新北市板橋區華東街1-10號","121.448408333333","24.995015","6500100","板橋區"
"220062","305-R5","2018/07/13 18:29:24","新北市板橋區民生路二段120號","121.470608333333","25.0197433333333","6500100","板橋區"
"220064","486-VK","2018/07/13 18:29:26","新北市板橋區南雅南路二段120-11號","121.45193","24.9994466666667","6500100","板橋區"
"220035","560-BX","2018/07/13 18:29:31","新北市板橋區南雅南路二段144巷2號","121.451543333333","24.9962433333333","6500100","板橋區"
"220057","686-BX","2018/07/13 18:29:24","新北市板橋區華東街1-9號","121.44817","24.994915","6500100","板橋區"
"220054","741-BX","2018/07/13 18:29:22","新北市板橋區華東街1-9號","121.448223333333","24.9948233333333","6500100","板橋區"
"220073","985-R7","2018/07/13 18:29:27","新北市板橋區華東街1-10號","121.448301666667","24.99503","6500100","板橋區"
"235068","KEA-2873","2018/07/13 18:29:25","新北市中和區中正路273-5號","121.495693333333","24.99317","6500300","中和區"
"235061","KEA-2875","2018/07/13 18:29:15","新北市中和區民治街29巷2弄6號","121.475536666667","25.000685","6500300","中和區"
