"lineid","car","time","location","longitude","latitude","cityid","cityname"
"234046","148-BY","2018/07/13 18:49:27","新北市永和區秀朗路二段169-1號","121.52536","25.00158","6500400","永和區"
"234007","207-UY","2018/07/13 18:49:25","新北市永和區文化路170號","121.511843333333","25.0155533333333","6500400","永和區"
"234081","298-R6","2018/07/13 18:49:16","新北市永和區永利路98號","121.521073333333","25.003565","6500400","永和區"
"234038","336-UY","2018/07/13 18:49:26","新北市永和區成功路一段112號","121.526825","25.002585","6500400","永和區"
"234064","337-UY","2018/07/13 18:49:22","新北市永和區福和路1號","121.526183333333","25.009755","6500400","永和區"
"234070","552-UM","2018/07/13 18:49:28","新北市永和區福和路1號","121.525996666667","25.0096916666667","6500400","永和區"
"234086","553-UM","2018/07/13 18:49:16","新北市中和區安樂路71-1號","121.51258","24.9939633333333","6500400","永和區"
"234017","745-BX","2018/07/13 18:49:16","新北市永和區忠孝街26巷8號","121.51542","25.0167383333333","6500400","永和區"
"234030","746-BX","2018/07/13 18:49:14","新北市永和區得和路325號","121.523476666667","24.9996916666667","6500400","永和區"
"234054","KEA-2590","2018/07/13 18:49:17","新北市永和區豫溪街191巷9號","121.52383","25.0105066666667","6500400","永和區"
"234013","KEA-2591","2018/07/13 18:49:24","新北市永和區仁愛路202巷24號","121.509013333333","25.0129383333333","6500400","永和區"
"234061","AAD-866","2018/07/13 18:49:13","新北市永和區福和路301號","121.516425","25.00712","6500400","永和區"
"234042","862-TW","2018/07/13 18:49:13","新北市永和區永貞路304號","121.51197","25.0047366666667","6500400","永和區"
"234050","863-TW","2018/07/13 18:49:24","新北市永和區福和路1號","121.52636","25.0097783333333","6500400","永和區"
"234026","9371-KE","2018/07/13 18:49:17","新北市永和區自由街56號","121.513756666667","25.0059833333333","6500400","永和區"
"234011","9373-KE","2018/07/13 18:49:18","新北市永和區仁愛路31巷2弄15號","121.513506666667","25.012875","6500400","永和區"
"249005","172-UM","2018/07/13 18:49:11","新北市八里區長道坑17號","121.396308333333","25.1156033333333","6502300","八里區"
"249001","173-UM","2018/07/13 18:49:23","新北市八里區龍米路二段58號","121.448211666667","25.1408716666667","6502300","八里區"
"249004","303-UY","2018/07/13 18:49:19","新北市八里區仁愛路10號","121.413245","25.1622983333333","6502300","八里區"
"248016","026-BX","2018/07/13 18:49:19","新北市五股區凌雲路一段133巷36號","121.448678333333","25.1010283333333","6501500","五股區"
"248006","077-UY","2018/07/13 18:48:55","新北市五股區中興路二段9巷30號","121.462765","25.072345","6501500","五股區"
"248008","095-VK","2018/07/13 18:49:27","新北市五股區中興路一段151巷59號","121.465201666667","25.0716666666667","6501500","五股區"
"248018","225-UY","2018/07/13 18:49:22","新北市五股區民義路二段37號","121.41322","25.1003233333333","6501500","五股區"
"248012","247-BX","2018/07/13 18:49:23","新北市五股區五福路6巷43號","121.437036666667","25.0884233333333","6501500","五股區"
"248010","272-BY","2018/07/13 18:49:29","新北市五股區水碓七路81號","121.429668333333","25.072255","6501500","五股區"
"248004","677-BX","2018/07/13 18:49:29","新北市五股區民義路二段26號","121.419641666667","25.0971633333333","6501500","五股區"
"248002","678-BX","2018/07/13 18:49:15","新北市五股區成泰路三段435巷11號","121.449325","25.097785","6501500","五股區"
"234023","9380-KE","2018/07/13 18:49:25","新北市永和區竹林路119巷22弄53號","121.522748333333","25.0112183333333","6500400","永和區"
"234077","969-R7","2018/07/13 18:49:28","新北市永和區中正路2巷29弄2-2號","121.51383","24.993885","6500400","永和區"
"234067","AAC-212","2018/07/13 18:49:24","新北市中和區永貞路256號","121.514021666667","25.0036116666667","6500400","永和區"
"234003","AAC-295","2018/07/13 18:49:11","新北市永和區中正路575-1號","121.516813333333","25.00855","6500400","永和區"
"232011","375-UM","2018/07/13 18:49:30","新北市坪林區坪林街43號","121.711745","24.9380466666667","6502000","坪林區"
"244007","080-UY","2018/07/13 18:49:28","新北市林口區後湖11鄰19號","121.387848333333","25.0986416666667","6501700","林口區"
"244019","403-UM","2018/07/13 18:49:15","新北市林口區麗園二街47巷33號","121.382096666667","25.0697116666667","6501700","林口區"
"244013","742-UY","2018/07/13 18:49:12","新北市林口區文化一路一段100巷10弄16-1號","121.374931666667","25.0711883333333","6501700","林口區"
"244009","410-SL","2018/07/13 18:49:11","新北市林口區林口路362巷15號","121.392758333333","25.0844616666667","6501700","林口區"
"244023","483-VK","2018/07/13 18:49:29","新北市林口區文化三路二段77巷39號","121.373048333333","25.0802483333333","6501700","林口區"
"244017","485-VK","2018/07/13 18:49:11","新北市林口區文化二路一段20巷25弄4號","121.365991666667","25.0678366666667","6501700","林口區"
"244011","657-BX","2018/07/13 18:49:19","新北市林口區中正路26號","121.395933333333","25.077545","6501700","林口區"
"244025","837-TS","2018/07/13 18:49:22","新北市林口區南勢街228號","121.35941","25.07519","6501700","林口區"
"244021","838-TS","2018/07/13 18:49:17","新北市林口區自強一街77號","121.400095","25.077065","6501700","林口區"
"243013","AAD-798","2018/07/13 18:28:13","新北市泰山區明志路三段206巷3號","121.423268333333","25.03791","6501600","泰山區"
"243009","297-R6","2018/07/13 18:49:17","新北市泰山區黎明路25號","121.421885","25.0606966666667","6501600","泰山區"
"243016","380-SR","2018/07/13 18:49:11","新北市泰山區明志路一段510號","121.430325","25.0541466666667","6501600","泰山區"
"243015","421-VK","2018/07/13 18:49:16","新北市泰山區美寧街57巷37弄1號","121.429521666667","25.065055","6501600","泰山區"
"243012","646-TV","2018/07/13 18:49:14","新北市泰山區泰林路二段73巷31號","121.434353333333","25.05782","6501600","泰山區"
"243014","680-BX","2018/07/13 18:49:20","新北市泰山區犁頭窠3-1號","121.422068333333","25.0605933333333","6501600","泰山區"
"222002","016-RS","2018/07/13 18:49:27","新北市深坑區文山路一段79號","121.626926666667","25.0018816666667","6501800","深坑區"
"222003","436-BY","2018/07/13 18:49:27","新北市深坑區深南路56號","121.61989","25.00914","6501800","深坑區"
"231041","002-UM","2018/07/13 18:49:13","新北市新店區安華路28-1號","121.519643333333","24.9608166666667","6500600","新店區"
"231059","046-UY","2018/07/13 18:49:15","新北市新店區安華路28-1號","121.519565","24.9608283333333","6500600","新店區"
"231040","047-UY","2018/07/13 18:49:21","新北市新店區環河路118號","121.536746666667","24.9679216666667","6500600","新店區"
"231044","106-UY","2018/07/13 18:49:12","新北市新店區中興路二段220號","121.548078333333","24.974995","6500600","新店區"
"231046","107-UY","2018/07/13 18:49:13","新北市新店區直潭路25號","121.534625","24.9428866666667","6500600","新店區"
"231065","110-UY","2018/07/13 18:49:17","新北市新店區車子路115-11號","121.507875","24.9547233333333","6500600","新店區"
"231048","187-VK","2018/07/13 18:49:23","新北市新店區北新路一段305號","121.541396666667","24.9676833333333","6500600","新店區"
"231054","KEA-2219","2018/07/13 18:49:13","新北市新店區安康路一段50-1號","121.52975","24.9613116666667","6500600","新店區"
"231042","268-BY","2018/07/13 18:49:23","新北市新店區北新路一段303號","121.541341666667","24.96736","6500600","新店區"
"231051","278-BY","2018/07/13 18:49:18","新北市新店區中央路63號","121.532536666667","24.9770333333333","6500600","新店區"
"231050","AAD-862","2018/07/13 18:49:18","新北市新店區安康路一段52巷2號","121.530091666667","24.961355","6500600","新店區"
"231058","3713-VJ","2018/07/13 18:49:31","新北市新店區中興路一段263號","121.544738333333","24.96734","6500600","新店區"
"231066","4716-K9","2018/07/13 18:49:27","新北市新店區安一路一段1-1號","121.519506666667","24.96148","6500600","新店區"
"231056","4715-K9","2018/07/13 18:49:11","新北市新店區大同街42號","121.538736666667","24.9807766666667","6500600","新店區"
"231067","4772-VM","2018/07/13 18:49:14","新北市新店區安華路28-1號","121.519356666667","24.9606083333333","6500600","新店區"
"231049","513-UM","2018/07/13 18:49:27","新北市新店區環河路29巷1號","121.536366666667","24.9612383333333","6500600","新店區"
"231063","616-UM","2018/07/13 18:49:15","新北市新店區安華路1-1號","121.51945","24.9605016666667","6500600","新店區"
"231045","617-UM","2018/07/13 18:49:20","新北市新店區安康路一段46巷4號","121.530595","24.961035","6500600","新店區"
"231061","619-UM","2018/07/13 18:49:23","新北市新店區安華路28-1號","121.519681666667","24.9607983333333","6500600","新店區"
"231064","719-UM","2018/07/13 18:49:28","新北市新店區安一路一段1-1號","121.519523333333","24.96126","6500600","新店區"
"231053","719-UY","2018/07/13 18:49:17","新北市新店區新烏路一段104號","121.546606666667","24.936495","6500600","新店區"
"231062","720-UM","2018/07/13 18:49:32","新北市新店區安一路一段1-1號","121.519331666667","24.9612933333333","6500600","新店區"
"231060","897-TW","2018/07/13 18:49:26","新北市新店區安華路28-1號","121.519641666667","24.9608083333333","6500600","新店區"
"231043","899-TW","2018/07/13 18:49:24","新北市新店區安康路一段287號","121.523191666667","24.9636183333333","6500600","新店區"
"231055","AKT-0513","2018/07/13 18:49:24","新北市新店區北新路一段271巷35號","121.539503333333","24.9669316666667","6500600","新店區"
"235066","003-UY","2018/07/13 18:49:21","新北市中和區水源路7巷4號","121.504003333333","25.0035433333333","6500300","中和區"
"235064","005-UY","2018/07/13 18:49:12","新北市中和區連城路75巷3號","121.497796666667","24.9995783333333","6500300","中和區"
"235063","006-UY","2018/07/13 18:49:24","新北市中和區連城路319巷11弄5號","121.489568333333","24.995005","6500300","中和區"
"235045","031-BX","2018/07/13 18:49:12","新北市中和區捷運路135號","121.507006666667","24.9908816666667","6500300","中和區"
"235056","096-UM","2018/07/13 18:49:20","新北市中和區員山路611巷5弄3號","121.478008333333","25.01129","6500300","中和區"
"235039","097-UM","2018/07/13 18:49:16","新北市中和區安樂路217巷67弄12號","121.513286666667","24.9968583333333","6500300","中和區"
"235065","098-UM","2018/07/13 18:49:13","新北市中和區中山路二段2巷45弄26-11號","121.500943333333","25.0070383333333","6500300","中和區"
"235040","150-BY","2018/07/13 18:49:05","新北市中和區保健路106巷9號","121.512363333333","24.9957766666667","6500300","中和區"
"235058","151-BY","2018/07/13 18:49:12","新北市中和區連城路532號","121.475693333333","24.9916383333333","6500300","中和區"
"235055","183-VK","2018/07/13 18:49:29","新北市中和區民德路8巷2號","121.468665","25.0028366666667","6500300","中和區"
"235038","185-VK","2018/07/13 18:49:26","新北市中和區大勇街52號","121.517641666667","24.9943433333333","6500300","中和區"
"235049","186-VK","2018/07/13 18:49:24","新北市中和區景安路179號","121.505145","24.99409","6500300","中和區"
"235067","255-BX","2018/07/13 18:49:16","新北市中和區中正路875號","121.484373333333","25.0039833333333","6500300","中和區"
"235044","293-VK","2018/07/13 18:49:23","新北市中和區中興街167號","121.499866666667","24.990605","6500300","中和區"
"235043","352-BY","2018/07/13 18:49:17","新北市中和區成功路129號","121.526095","24.9906983333333","6500300","中和區"
"235042","KEA-2878","2018/07/13 18:49:13","新北市中和區秀朗路三段70巷44號","121.525211666667","24.9944966666667","6500300","中和區"
"235050","4979-A6","2018/07/13 18:49:16","新北市中和區忠孝街62巷3號","121.512545","24.983595","6500300","中和區"
"235069","4980-A6","2018/07/13 18:49:12","新北市中和區連城路65巷8號","121.497761666667","25.0008983333333","6500300","中和區"
"235070","558-UM","2018/07/13 18:49:21","新北市中和區中和路102號","121.50277","24.9998166666667","6500300","中和區"
"235054","640-BX","2018/07/13 18:49:21","新北市中和區民享街33-2號","121.474168333333","25.0039483333333","6500300","中和區"
"235060","647-TV","2018/07/13 18:49:15","新北市中和區中山路三段167號","121.473183333333","25.0062383333333","6500300","中和區"
"235047","732-UM","2018/07/13 18:49:24","新北市中和區興南路二段34巷57弄2號","121.504838333333","24.9855833333333","6500300","中和區"
"235046","733-UM","2018/07/13 18:49:17","新北市中和區仁愛街36巷38號","121.511281666667","24.9865866666667","6500300","中和區"
"235071","783-BX","2018/07/13 18:49:12","新北市中和區員山路36巷16-3號","121.485205","24.99115","6500300","中和區"
"235062","800-TS","2018/07/13 18:49:17","新北市中和區中山路二段326號","121.495326666667","25.0022366666667","6500300","中和區"
"235057","801-TS","2018/07/13 18:49:08","新北市中和區民安街25巷2弄1號","121.480468333333","25.0002433333333","6500300","中和區"
"235041","802-TS","2018/07/13 18:49:19","新北市中和區中安街216號","121.511878333333","24.998875","6500300","中和區"
"235052","805-TS","2018/07/13 18:49:10","新北市中和區興南路二段399巷98弄48號","121.49847","24.9767266666667","6500300","中和區"
"235048","896-TW","2018/07/13 18:49:29","新北市中和區華新街28-1號","121.507713333333","24.984535","6500300","中和區"
"235053","900-TW","2018/07/13 18:49:15","新北市中和區華福街42巷4號","121.466351666667","24.99627","6500300","中和區"
"235051","157-BY","2018/07/13 18:49:12","新北市中和區華新街109巷11弄3-10號","121.50881","24.9797766666667","6500300","中和區"
"235037","AAC-213","2018/07/13 18:49:18","新北市中和區秀朗路三段128巷11號","121.524461666667","24.9932833333333","6500300","中和區"
"235059","AAC-215","2018/07/13 18:49:18","新北市中和區圓通路393巷18號","121.489856666667","24.9886266666667","6500300","中和區"
"220068","013-TV","2018/07/13 18:49:23","新北市板橋區民生路二段89-6號","121.470526666667","25.01885","6500100","板橋區"
"220080","015-TV","2018/07/13 18:49:28","新北市板橋區大觀路二段265巷3弄3號","121.443001666667","24.9983266666667","6500100","板橋區"
"220065","072-UY","2018/07/13 18:49:09","新北市板橋區民族路247巷5弄42號","121.470193333333","25.0084516666667","6500100","板橋區"
"220086","073-UY","2018/07/13 18:49:26","新北市板橋區大智街67號","121.453721666667","25.015555","6500100","板橋區"
"220106","075-UY","2018/07/13 18:49:27","新北市板橋區民生路二段56-6號","121.470841666667","25.01905","6500100","板橋區"
"220069","AAD-861","2018/07/13 18:49:28","新北市板橋區館前西路53號","121.45767","25.0065933333333","6500100","板橋區"
"226004","205-ST","2018/07/13 18:49:15","新北市平溪區平溪里三坑路30號","121.736423333333","25.0292916666667","6502400","平溪區"
"228002","663-BX","2018/07/13 18:49:28","新北市貢寮區福隆里東興街6-11號","121.950725","25.0210616666667","6502600","貢寮區"
"228001","670-TC","2018/07/13 18:49:21","新北市貢寮區仁理村保健街73號","121.923723333333","25.0517083333333","6502600","貢寮區"
"228003","828-UM","2018/07/13 18:49:07","新北市貢寮區和美里龍洞街63-7號","121.917943333333","25.1190016666667","6502600","貢寮區"
"224010","AGQ-8101","2018/07/13 18:43:10","新北市瑞芳區烏勢巷145號","121.847823333333","25.108895","6501200","瑞芳區"
"224006","676-BX","2018/07/13 18:49:25","新北市瑞芳區中正路44號","121.806783333333","25.1074266666667","6501200","瑞芳區"
"224002","639-TC","2018/07/13 18:49:31","新北市瑞芳區八分寮路10號","121.7964","25.0897116666667","6501200","瑞芳區"
"224008","285-BY","2018/07/13 18:49:24","新北市瑞芳區逢甲路342號","121.802888333333","25.1117966666667","6501200","瑞芳區"
"224007","275-VK","2018/07/13 18:49:13","新北市瑞芳區大埔路東泰新村8號","121.761136666667","25.101315","6501200","瑞芳區"
"224009","273-VK","2018/07/13 18:49:16","新北市瑞芳區五號路137號","121.855505","25.1125","6501200","瑞芳區"
"224005","271-BY","2018/07/13 18:49:22","新北市瑞芳區濱二路69號","121.829903333333","25.1200116666667","6501200","瑞芳區"
"227011","642-TC","2018/07/13 18:49:31","新北市雙溪區牡丹里聖南19號","121.857436666667","25.0526666666667","6502500","雙溪區"
"227003","400-TW","2018/07/13 18:49:18","新北市雙溪區平林里梅竹蹊28號","121.86165","25.0360183333333","6502500","雙溪區"
"253005","032-BX","2018/07/13 18:49:30","新北市石門區中山路28-3號","121.5658","25.28988","6502200","石門區"
"253006","295-VK","2018/07/13 18:49:09","新北市石門區下員坑15-13號","121.512515","25.284105","6502200","石門區"
"222001","KEA-2212","2018/07/13 18:49:28","新北市深坑區北深路一段32-50號","121.63849","25.0110866666667","6501800","深坑區"
"208002","KEA-2872","2018/07/13 18:49:17","新北市金山區信義路61號","121.635746666667","25.2189533333333","6502700","金山區"
"208003","665-BX","2018/07/13 18:49:16","新北市金山區中山路340號","121.633488333333","25.2252883333333","6502700","金山區"
"208001","761-BX","2018/07/13 18:49:11","新北市金山區文化三路66巷1號","121.634135","25.2256083333333","6502700","金山區"
"251002","012-UM","2018/07/13 18:49:20","新北市淡水區學府路71號","121.448381666667","25.169735","6501000","淡水區"
"251010","413-VK","2018/07/13 18:49:13","新北市淡水區沙崙路9號","121.420971666667","25.18118","6501000","淡水區"
"251012","441-VK","2018/07/13 18:49:30","新北市淡水區新興街19號","121.442936666667","25.1804816666667","6501000","淡水區"
"251007","442-VK","2018/07/13 18:49:23","新北市淡水區中正東路二段143巷2弄1號","121.460716666667","25.1473633333333","6501000","淡水區"
"251001","559-UM","2018/07/13 18:49:13","新北市淡水區自強路86號","121.462755","25.12827","6501000","淡水區"
"251009","575-R6","2018/07/13 18:49:17","新北市淡水區中山路171號","121.440976666667","25.173985","6501000","淡水區"
"251011","650-BX","2018/07/13 18:48:57","新北市淡水區鄧公路12-2號","121.449621666667","25.1701016666667","6501000","淡水區"
"251003","673-BX","2018/07/13 18:49:16","新北市淡水區中山北路一段212巷38號","121.446143333333","25.1789866666667","6501000","淡水區"
"207003","550-UM","2018/07/13 18:49:17","新北市萬里區大鵬里頂社1-2號","121.657373333333","25.2096916666667","6502800","萬里區"
"207004","225-TW","2018/07/13 18:49:13","新北市萬里區萬里里獅頭路23號","121.693241666667","25.1783116666667","6502800","萬里區"
"252002","178-VK","2018/07/13 18:49:26","新北市三芝區中正路一段101-1號","121.504796666667","25.2563733333333","6502100","三芝區"
"252003","249-BX","2018/07/13 18:49:22","新北市三芝區後厝里大片頭108號","121.458463333333","25.2428116666667","6502100","三芝區"
"252001","292-VK","2018/07/13 18:49:22","新北市三芝區中正路三段9號","121.502895","25.2538316666667","6502100","三芝區"
"237004","KEA-2597","2018/07/13 18:49:07","新北市三峽區有木205-1號","121.439051666667","24.8514316666667","6500900","三峽區"
"237007","153-BY","2018/07/13 18:49:10","新北市三峽區大埔路104號","121.366445","24.90665","6500900","三峽區"
"237013","252-BX","2018/07/13 18:49:20","新北市三峽區光明路69巷25號","121.376758333333","24.929155","6500900","三峽區"
"237012","275-BY","2018/07/13 18:49:25","新北市樹林區佳園路三段486號","121.382771666667","24.94397","6500900","三峽區"
"237008","302-VK","2018/07/13 18:49:13","新北市三峽區中正路一段419號","121.370143333333","24.9204166666667","6500900","三峽區"
"237014","433-BY","2018/07/13 18:49:11","新北市三峽區隆恩街158巷42號","121.36643","24.944325","6500900","三峽區"
"237006","5529-G3","2018/07/13 18:49:18","新北市三峽區溪東路233巷47弄2號","121.410628333333","24.9345833333333","6500900","三峽區"
"237011","KEA-2596","2018/07/13 18:49:10","新北市三峽區介壽路三段231號","121.404445","24.9457883333333","6500900","三峽區"
"237015","649-BX","2018/07/13 18:49:21","新北市三峽區建安161號","121.468248333333","24.9098416666667","6500900","三峽區"
"237010","706-TV","2018/07/13 18:49:16","新北市三峽區國光街54號","121.374505","24.9381133333333","6500900","三峽區"
"237005","AKY-6261","2018/07/13 18:49:20","新北市三峽區中山路459巷163-3號","121.349101666667","24.933395","6500900","三峽區"
"236069","105-UM","2018/07/13 18:49:12","新北市土城區永豐路214-1號","121.467116666667","24.9827866666667","6501300","土城區"
"236079","166-UM","2018/07/13 18:49:20","新北市土城區中央路四段185巷32弄1號","121.415831666667","24.9557816666667","6501300","土城區"
"236030","253-BX","2018/07/13 18:49:11","新北市土城區忠義路26巷19號","121.439835","24.969845","6501300","土城區"
"236026","269-VK","2018/07/13 18:49:11","新北市土城區興城路60號","121.441205","24.9723966666667","6501300","土城區"
"236014","270-VK","2018/07/13 18:49:26","新北市土城區金城路二段338巷8號","121.460616666667","24.9840066666667","6501300","土城區"
"236039","271-VK","2018/07/13 18:49:26","新北市土城區仁愛路52號","121.462178333333","24.9788283333333","6501300","土城區"
"236020","401-BY","2018/07/13 18:49:31","新北市土城區延安街42-5號","121.467605","24.9852133333333","6501300","土城區"
"236042","752-BX","2018/07/13 18:49:22","新北市土城區裕民路136巷2弄1號","121.451271666667","24.985845","6501300","土城區"
"236059","912-UM","2018/07/13 18:49:24","新北市土城區金城路二段8-1號","121.449018333333","24.977125","6501300","土城區"
"236048","913-UM","2018/07/13 18:49:16","新北市土城區青雲路229號","121.459151666667","24.98169","6501300","土城區"
"236063","915-UM","2018/07/13 18:49:28","新北市土城區延和路177巷7號","121.469703333333","24.99058","6501300","土城區"
"236055","AAC-216","2018/07/13 18:49:28","新北市土城區裕民路174號","121.452651666667","24.9853833333333","6501300","土城區"
"242058","986-R7","2018/07/13 18:49:21","新北市泰山區明志路三段517號","121.421063333333","25.0320016666667","6500500","新莊區"
"238023","601-UM","2018/07/13 18:49:14","桃園市龜山區萬壽路一段424號","121.399546666667","25.0164233333333","6500700","樹林區"
"238019","599-UM","2018/07/13 18:49:25","新北市樹林區東陽街43號","121.413495","24.9812483333333","6500700","樹林區"
"238024","5061-A6","2018/07/13 18:49:13","新北市樹林區八德街624號","121.397056666667","24.9698","6500700","樹林區"
"238022","KEA-2213","2018/07/13 18:49:13","新北市樹林區東順街20號","121.412053333333","24.9785766666667","6500700","樹林區"
"238025","303-VK","2018/07/13 18:49:19","新北市樹林區中山路三段22號","121.395636666667","24.9729033333333","6500700","樹林區"
"238017","283-BY","2018/07/13 18:49:17","新北市樹林區光興街50號","121.409861666667","25.002695","6500700","樹林區"
"238014","282-BY","2018/07/13 18:49:10","新北市樹林區大安路111巷11號","121.423028333333","24.9975966666667","6500700","樹林區"
"238020","268-VK","2018/07/13 18:49:32","新北市樹林區俊英街83巷2號","121.42578","25.0080283333333","6500700","樹林區"
"238026","172-UY","2018/07/13 18:49:20","新北市樹林區信和街2巷1號","121.389665","24.970705","6500700","樹林區"
"238016","169-UY","2018/07/13 18:49:14","新北市樹林區文化街28號","121.419221666667","24.9876966666667","6500700","樹林區"
"239007","AAC-297","2018/07/13 18:49:13","新北市鶯歌區中正一路221號","121.354186666667","24.9570916666667","6500800","鶯歌區"
"239006","891-R6","2018/07/13 18:49:12","新北市鶯歌區鶯桃路296巷94弄7號","121.337171666667","24.9618733333333","6500800","鶯歌區"
"239008","527-UM","2018/07/13 18:49:15","新北市鶯歌區朝陽路居易巷7號","121.337005","24.97664","6500800","鶯歌區"
"239005","526-UM","2018/07/13 18:49:27","新北市鶯歌區大湖路361巷36弄20號","121.329813333333","24.977235","6500800","鶯歌區"
"239001","417-VK","2018/07/13 18:49:19","新北市鶯歌區永明街60巷7號","121.340753333333","24.955385","6500800","鶯歌區"
"239003","360-BY","2018/07/13 18:49:27","新北市鶯歌區鶯桃路658巷97號","121.332016666667","24.9709266666667","6500800","鶯歌區"
"239002","359-BY","2018/07/13 18:49:19","新北市鶯歌區中正一路381號","121.358415","24.9570566666667","6500800","鶯歌區"
"239004","193-VK","2018/07/13 18:49:22","新北市鶯歌區中正三路302巷15號","121.327975","24.936095","6500800","鶯歌區"
"221008","489-VK","2018/07/13 18:49:15","新北市汐止區康寧街901號","121.651445","25.0750116666667","6501100","汐止區"
"221036","130-UY","2018/07/13 18:49:11","新北市汐止區南昌街47號","121.66326","25.0683383333333","6501100","汐止區"
"221015","131-UY","2018/07/13 18:49:23","新北市汐止區鄉長路一段33-8號","121.665388333333","25.07485","6501100","汐止區"
"221010","269-BY","2018/07/13 18:49:19","新北市汐止區康寧街901號","121.651485","25.074995","6501100","汐止區"
"221023","279-VK","2018/07/13 18:49:15","新北市汐止區康寧街901號","121.651","25.0752066666667","6501100","汐止區"
"221032","280-BY","2018/07/13 18:49:17","新北市汐止區民權街二段79號","121.619118333333","25.04808","6501100","汐止區"
"221027","281-BY","2018/07/13 18:49:11","新北市汐止區康寧街901號","121.65146","25.074945","6501100","汐止區"
"221033","297-VK","2018/07/13 18:49:22","新北市汐止區南勢街1巷1號","121.627105","25.03749","6501100","汐止區"
"221029","298-VK","2018/07/13 18:49:12","新北市汐止區工建路62號","121.640643333333","25.062985","6501100","汐止區"
"221021","299-VK","2018/07/13 18:49:13","新北市汐止區汐萬路一段256巷1號","121.652008333333","25.0747333333333","6501100","汐止區"
"221031","353-TW","2018/07/13 18:49:27","新北市汐止區福德一路300巷13號","121.630783333333","25.0637733333333","6501100","汐止區"
"221035","622-UM","2018/07/13 18:49:10","新北市汐止區汐萬路一段5號","121.656041666667","25.0673866666667","6501100","汐止區"
"221025","623-UM","2018/07/13 18:49:25","新北市汐止區秀峰路60號","121.65975","25.06476","6501100","汐止區"
"221038","646-BX","2018/07/13 18:49:27","新北市汐止區汐萬路一段121號","121.654106666667","25.0711233333333","6501100","汐止區"
"221002","707-TV","2018/07/13 18:49:26","新北市汐止區大同路一段139號","121.631601666667","25.0556966666667","6501100","汐止區"
"221018","753-BX","2018/07/13 18:49:15","新北市汐止區茄苳路14號","121.664941666667","25.0704033333333","6501100","汐止區"
"220082","610-BX","2018/07/13 18:49:28","新北市板橋區篤行路三段69號","121.427451666667","24.9856683333333","6500100","板橋區"
"220091","267-BY","2018/07/13 18:48:15","新北市板橋區民生路二段163號","121.469681666667","25.0198066666667","6500100","板橋區"
"220056","276-BY","2018/07/13 18:49:16","新北市土城區四川路25號","121.455136666667","24.9957966666667","6500100","板橋區"
"220072","277-BY","2018/07/13 18:49:13","新北市板橋區大觀路三段20號","121.434541666667","24.9958316666667","6500100","板橋區"
"220071","283-VK","2018/07/13 18:49:25","新北市板橋區忠孝路176巷12號","121.46466","25.0019383333333","6500100","板橋區"
"220094","285-UM","2018/07/13 18:49:09","新北市板橋區民生路二段56-6號","121.47131","25.018905","6500100","板橋區"
"220053","285-VK","2018/07/13 18:49:15","新北市板橋區民生路二段89-2號","121.471703333333","25.017335","6500100","板橋區"
"220083","286-VK","2018/07/13 18:49:26","新北市板橋區僑中一街108號","121.44643","25.0116733333333","6500100","板橋區"
"220081","287-VK","2018/07/13 18:49:26","新北市板橋區南雅西路二段90號","121.452548333333","25.0111516666667","6500100","板橋區"
"220090","288-VK","2018/07/13 18:49:25","新北市板橋區民生路二段120號","121.470508333333","25.0198","6500100","板橋區"
"220061","293-UM","2018/07/13 18:49:19","新北市板橋區民生路二段89-6號","121.470818333333","25.0190416666667","6500100","板橋區"
"220084","296-UM","2018/07/13 18:49:19","新北市板橋區大觀路二段156巷2號","121.441416666667","24.9990383333333","6500100","板橋區"
"220075","303-R5","2018/07/13 18:49:15","新北市板橋區南雅東路100巷6號","121.4541","25.00743","6500100","板橋區"
"220062","305-R5","2018/07/13 18:49:24","新北市板橋區中山路二段25號","121.472485","25.0153483333333","6500100","板橋區"
"220098","317-R6","2018/07/13 18:49:08","新北市板橋區民生路二段120號","121.470375","25.0196783333333","6500100","板橋區"
"220064","486-VK","2018/07/13 18:49:26","新北市板橋區民生路二段36-1號","121.472083333333","25.01682","6500100","板橋區"
"220088","491-VK","2018/07/13 18:49:19","新北市板橋區民生路二段175號","121.469776666667","25.0201683333333","6500100","板橋區"
"220035","560-BX","2018/07/13 18:49:11","新北市板橋區中正路325巷30-2號","121.452988333333","25.01873","6500100","板橋區"
"220103","561-BX","2018/07/13 18:49:26","新北市板橋區民生路二段120號","121.470415","25.0196233333333","6500100","板橋區"
"220079","568-UM","2018/07/13 18:49:27","新北市板橋區民權路202巷8弄2號","121.460105","25.0146783333333","6500100","板橋區"
"220063","609-BX","2018/07/13 18:49:23","新北市板橋區民生路二段123號","121.470675","25.018645","6500100","板橋區"
"220057","686-BX","2018/07/13 18:49:24","新北市板橋區館前西路48號","121.458493333333","25.0070316666667","6500100","板橋區"
"220093","689-BX","2018/07/13 18:49:23","新北市板橋區民生路二段188號","121.470301666667","25.0202566666667","6500100","板橋區"
"220054","741-BX","2018/07/13 18:49:22","新北市板橋區館前東路25號","121.460478333333","25.0072433333333","6500100","板橋區"
"220102","KEA-2699","2018/07/13 18:49:16","新北市板橋區民生路二段120號","121.470931666667","25.0197966666667","6500100","板橋區"
"220077","806-UM","2018/07/13 18:49:27","新北市板橋區龍興街71巷2-1號","121.443895","25.0020016666667","6500100","板橋區"
"220055","827-TW","2018/07/13 18:49:17","新北市板橋區縣民大道一段312號","121.461606666667","25.0109383333333","6500100","板橋區"
"220067","829-TW","2018/07/13 18:49:24","新北市板橋區民生路一段30-1號","121.476891666667","25.01372","6500100","板橋區"
"220089","833-TW","2018/07/13 18:49:11","新北市板橋區民生路二段161巷1號","121.46992","25.0201383333333","6500100","板橋區"
"220074","895-R6","2018/07/13 18:49:18","新北市板橋區林園街46號","121.453976666667","25.0105316666667","6500100","板橋區"
"220073","985-R7","2018/07/13 18:49:27","新北市板橋區林園街56號","121.453955","25.0107333333333","6500100","板橋區"
"220070","AAC-253","2018/07/13 18:49:21","新北市板橋區四川路一段106號","121.459781666667","25.004625","6500100","板橋區"
"235068","KEA-2873","2018/07/13 18:49:24","新北市中和區中正路211巷36弄20號","121.49684","24.9924833333333","6500300","中和區"
"235061","KEA-2875","2018/07/13 18:49:15","新北市中和區民治街128巷5號","121.474971666667","25.002895","6500300","中和區"
