"lineid","car","time","location","longitude","latitude","cityid","cityname"
"234046","148-BY","2018/07/13 18:59:27","新北市永和區永元路52巷52號","121.524485","25.000775","6500400","永和區"
"234007","207-UY","2018/07/13 18:59:25","新北市永和區永和路二段99號","121.51492","25.0116383333333","6500400","永和區"
"234081","298-R6","2018/07/13 18:59:31","新北市永和區永亨路83號","121.521913333333","25.0057416666667","6500400","永和區"
"234038","336-UY","2018/07/13 18:59:26","新北市中和區秀朗路三段38號","121.526486666667","24.995925","6500400","永和區"
"234064","337-UY","2018/07/13 18:59:23","新北市永和區秀朗路一段140號","121.518016666667","25.0034133333333","6500400","永和區"
"234070","552-UM","2018/07/13 18:59:30","新北市永和區竹林路124巷32號","121.518186666667","25.0115433333333","6500400","永和區"
"234086","553-UM","2018/07/13 18:59:16","新北市永和區中正路472號","121.517393333333","25.0032683333333","6500400","永和區"
"234017","745-BX","2018/07/13 18:59:16","新北市永和區永和路二段299號","121.516111666667","25.016155","6500400","永和區"
"234030","746-BX","2018/07/13 18:59:14","新北市永和區秀朗路二段274號","121.526083333333","24.9979516666667","6500400","永和區"
"234054","KEA-2590","2018/07/13 18:59:17","新北市永和區竹林路64號","121.518243333333","25.0135116666667","6500400","永和區"
"234013","KEA-2591","2018/07/13 18:59:24","新北市永和區中山路一段100巷8號","121.511358333333","25.010885","6500400","永和區"
"234061","AAD-866","2018/07/13 18:59:13","新北市永和區福和路307號","121.516193333333","25.00721","6500400","永和區"
"234042","862-TW","2018/07/13 18:59:13","新北市永和區永貞路267號","121.511926666667","25.00474","6500400","永和區"
"234050","863-TW","2018/07/13 18:59:25","新北市永和區保安路36號","121.510368333333","25.0170216666667","6500400","永和區"
"234026","9371-KE","2018/07/13 18:59:17","新北市永和區安樂路453號","121.514206666667","25.0049933333333","6500400","永和區"
"234011","9373-KE","2018/07/13 18:59:18","新北市永和區忠孝街34巷18號","121.514505","25.0167866666667","6500400","永和區"
"249005","172-UM","2018/07/13 18:59:11","新北市八里區長道坑11號","121.39627","25.1232533333333","6502300","八里區"
"249001","173-UM","2018/07/13 18:59:23","新北市八里區龍米路二段228-1號","121.432756666667","25.1584233333333","6502300","八里區"
"248016","026-BX","2018/07/13 18:59:19","新北市五股區成泰路三段543巷16號","121.450931666667","25.1022483333333","6501500","五股區"
"248006","077-UY","2018/07/13 18:59:30","新北市五股區中興路一段56號","121.467876666667","25.0726483333333","6501500","五股區"
"248008","095-VK","2018/07/13 18:59:27","新北市五股區中興路一段128巷38號","121.465913333333","25.07547","6501500","五股區"
"248018","225-UY","2018/07/13 18:59:22","新北市五股區民義路一段328巷12號","121.422581666667","25.09783","6501500","五股區"
"248012","247-BX","2018/07/13 18:59:23","新北市五股區中興路四段48巷11號","121.43855","25.0835233333333","6501500","五股區"
"248010","272-BY","2018/07/13 18:59:09","新北市五股區水碓二路1號","121.43051","25.0713616666667","6501500","五股區"
"248004","677-BX","2018/07/13 18:59:29","新北市五股區民義路二段70號","121.405573333333","25.1081866666667","6501500","五股區"
"248002","678-BX","2018/07/13 18:59:15","新北市五股區凌雲路一段111號","121.450063333333","25.1017933333333","6501500","五股區"
"234023","9380-KE","2018/07/13 18:59:25","新北市永和區環河東路二段36號","121.52283","25.0125666666667","6500400","永和區"
"234077","969-R7","2018/07/13 18:59:28","新北市永和區中正路316號","121.517833333333","24.9993916666667","6500400","永和區"
"234074","AAC-211","2018/07/13 18:59:30","新北市永和區環河東路二段100號","121.524125","25.010315","6500400","永和區"
"234067","AAC-212","2018/07/13 18:59:24","新北市永和區自由街55號","121.513596666667","25.0055683333333","6500400","永和區"
"234003","AAC-295","2018/07/13 18:59:11","新北市永和區和平街38號","121.513035","25.0099333333333","6500400","永和區"
"232011","375-UM","2018/07/13 18:59:10","新北市坪林區水聳淒坑20-2號","121.711325","24.9339933333333","6502000","坪林區"
"244007","080-UY","2018/07/13 18:59:28","新北市林口區太平里2鄰12號","121.378665","25.1145983333333","6501700","林口區"
"244019","403-UM","2018/07/13 18:58:55","新北市林口區麗園二街15號","121.379091666667","25.0696483333333","6501700","林口區"
"244013","742-UY","2018/07/13 18:59:12","新北市林口區麗園一街11巷3號","121.377475","25.0704233333333","6501700","林口區"
"244009","410-SL","2018/07/13 18:59:11","新北市林口區台電新村3號","121.38803","25.086195","6501700","林口區"
"244023","483-VK","2018/07/13 18:59:09","新北市林口區文林六街60號","121.370865","25.081865","6501700","林口區"
"244017","485-VK","2018/07/13 18:59:11","新北市林口區文化二路一段68巷33號","121.367061666667","25.0689516666667","6501700","林口區"
"244011","657-BX","2018/07/13 18:59:19","新北市林口區中正路327號","121.388473333333","25.0776816666667","6501700","林口區"
"244025","837-TS","2018/07/13 18:59:22","新北市林口區南勢一街6號","121.360475","25.0747416666667","6501700","林口區"
"244021","838-TS","2018/07/13 18:59:17","新北市八里區長道坑21號","121.397488333333","25.1094766666667","6501700","林口區"
"243010","267-VK","2018/07/13 18:59:27","新北市泰山區辭修路24號","121.429038333333","25.0581783333333","6501600","泰山區"
"243013","AAD-798","2018/07/13 18:59:21","新北市泰山區明志路三段243號","121.423478333333","25.0376516666667","6501600","泰山區"
"243009","297-R6","2018/07/13 18:59:17","新北市泰山區泰林路二段347號","121.428908333333","25.0635316666667","6501600","泰山區"
"243016","380-SR","2018/07/13 18:59:11","新北市泰山區明志路二段152號","121.427398333333","25.0507383333333","6501600","泰山區"
"243015","421-VK","2018/07/13 18:59:16","新北市泰山區泰林路二段282號","121.431328333333","25.062485","6501600","泰山區"
"243011","KEA-2215","2018/07/13 18:59:01","新北市泰山區明志路二段246-1號","121.426915","25.048175","6501600","泰山區"
"243012","646-TV","2018/07/13 18:59:14","新北市泰山區全興路87號","121.433556666667","25.0574466666667","6501600","泰山區"
"243014","680-BX","2018/07/13 18:59:20","新北市泰山區黎明路15號","121.420918333333","25.0631016666667","6501600","泰山區"
"222002","016-RS","2018/07/13 18:59:27","新北市深坑區文山路一段35號","121.627865","25.0026116666667","6501800","深坑區"
"222003","436-BY","2018/07/13 18:59:27","新北市深坑區深南路51-1號","121.621345","25.0101716666667","6501800","深坑區"
"231041","002-UM","2018/07/13 18:59:13","新北市新店區環河路62號","121.537008333333","24.9626766666667","6500600","新店區"
"231059","046-UY","2018/07/13 18:59:15","新北市新店區安華路28-1號","121.519608333333","24.9607633333333","6500600","新店區"
"231040","047-UY","2018/07/13 18:59:21","新北市新店區中正路406號","121.534481666667","24.9776083333333","6500600","新店區"
"231044","106-UY","2018/07/13 18:59:12","新北市新店區寶中路72號","121.547903333333","24.9805466666667","6500600","新店區"
"231046","107-UY","2018/07/13 18:59:24","新北市新店區直潭四街46號","121.533128333333","24.941405","6500600","新店區"
"231065","110-UY","2018/07/13 18:59:17","新北市新店區安祥路211號","121.476611666667","24.9549783333333","6500600","新店區"
"231048","187-VK","2018/07/13 18:59:24","新北市新店區德正街23巷7號","121.544438333333","24.9721616666667","6500600","新店區"
"231054","KEA-2219","2018/07/13 18:59:13","新北市新店區新店路13號","121.540268333333","24.952865","6500600","新店區"
"231042","268-BY","2018/07/13 18:59:23","新北市新店區中興路一段286號","121.545816666667","24.9690216666667","6500600","新店區"
"231051","278-BY","2018/07/13 18:59:18","新北市新店區百忍街17巷1號","121.53449","24.97554","6500600","新店區"
"231050","AAD-862","2018/07/13 18:59:18","新北市新店區北宜路二段30巷5弄2號","121.548018333333","24.95089","6500600","新店區"
"231058","3713-VJ","2018/07/13 18:59:31","新北市新店區光明街96巷1號","121.539233333333","24.960035","6500600","新店區"
"231066","4716-K9","2018/07/13 18:59:27","新北市新店區安豐路49號","121.50023","24.9540966666667","6500600","新店區"
"231056","4715-K9","2018/07/13 18:59:26","新北市新店區二十張路46巷37弄23號","121.536061666667","24.981535","6500600","新店區"
"231067","4772-VM","2018/07/13 18:59:14","新北市新店區安華路28-1號","121.519343333333","24.9606116666667","6500600","新店區"
"231049","513-UM","2018/07/13 18:59:27","新北市新店區中正路454-5號","121.534426666667","24.9790416666667","6500600","新店區"
"231063","616-UM","2018/07/13 18:59:15","新北市新店區安忠路205巷8號","121.50977","24.955145","6500600","新店區"
"231045","617-UM","2018/07/13 18:59:20","新北市新店區北新路一段23號","121.537978333333","24.95903","6500600","新店區"
"231061","619-UM","2018/07/13 18:59:23","新北市新店區安華路30巷1號","121.519383333333","24.9596183333333","6500600","新店區"
"231064","719-UM","2018/07/13 18:59:28","新北市新店區安一路一段1-1號","121.519551666667","24.9612266666667","6500600","新店區"
"231053","719-UY","2018/07/13 18:59:17","新北市新店區新烏路二段50巷1號","121.547166666667","24.92842","6500600","新店區"
"231062","720-UM","2018/07/13 18:59:11","新北市新店區安豐路60號","121.498488333333","24.9539766666667","6500600","新店區"
"231060","897-TW","2018/07/13 18:59:06","新北市新店區安忠路57巷13號","121.51319","24.9573583333333","6500600","新店區"
"231043","899-TW","2018/07/13 18:59:24","新北市新店區中正路111號","121.54239","24.9706066666667","6500600","新店區"
"231055","AKT-0513","2018/07/13 18:59:25","新北市新店區中央一街22號","121.527728333333","24.973145","6500600","新店區"
"241029","942-UM","2018/07/13 18:59:25","新北市三重區重安街22號","121.490255","25.0579933333333","6500200","三重區"
"235066","003-UY","2018/07/13 18:59:21","新北市中和區中山路二段131巷5弄1號","121.502805","25.0027966666667","6500300","中和區"
"235064","005-UY","2018/07/13 18:59:12","新北市中和區泰和街44巷15號","121.498443333333","25.00064","6500300","中和區"
"235063","006-UY","2018/07/13 18:59:24","新北市中和區中正路520號","121.488121666667","24.99455","6500300","中和區"
"235045","031-BX","2018/07/13 18:59:12","新北市中和區景新街467巷20弄20號","121.514328333333","24.9879333333333","6500300","中和區"
"235056","096-UM","2018/07/13 18:59:20","新北市中和區新民街94巷17號","121.481255","25.0090883333333","6500300","中和區"
"235039","097-UM","2018/07/13 18:59:16","新北市中和區安樂路217巷20弄17號","121.513406666667","24.9989516666667","6500300","中和區"
"235065","098-UM","2018/07/13 18:59:13","新北市中和區福祥路135號","121.498408333333","25.007555","6500300","中和區"
"235040","150-BY","2018/07/13 18:59:25","新北市中和區宜安路23巷26號","121.512123333333","24.99495","6500300","中和區"
"235058","151-BY","2018/07/13 18:59:32","新北市中和區連城路380號","121.480795","24.9951216666667","6500300","中和區"
"235055","183-VK","2018/07/13 18:59:29","新北市中和區德光路31號","121.470635","25.0042366666667","6500300","中和區"
"235038","185-VK","2018/07/13 18:59:26","新北市中和區立人街24-5號","121.518846666667","24.9941666666667","6500300","中和區"
"235049","186-VK","2018/07/13 18:59:24","新北市中和區景安路167巷1號","121.505563333333","24.99464","6500300","中和區"
"235067","255-BX","2018/07/13 18:59:16","新北市中和區中正路803號","121.484708333333","25.0011333333333","6500300","中和區"
"235044","293-VK","2018/07/13 18:59:23","新北市中和區中興街161巷4弄1號","121.500548333333","24.9909166666667","6500300","中和區"
"235072","301-VK","2018/07/13 18:59:17","新北市中和區中山路二段132號","121.502353333333","25.003395","6500300","中和區"
"235043","352-BY","2018/07/13 18:59:17","新北市中和區成功路56號","121.526041666667","24.9923466666667","6500300","中和區"
"235042","KEA-2878","2018/07/13 18:59:13","新北市中和區秀朗路三段22巷4號","121.52614","24.9963733333333","6500300","中和區"
"235050","4979-A6","2018/07/13 18:59:16","新北市中和區華新街50巷7號","121.507621666667","24.983885","6500300","中和區"
"235069","4980-A6","2018/07/13 18:59:12","新北市中和區南山路52巷12號","121.501496666667","24.997385","6500300","中和區"
"235070","558-UM","2018/07/13 18:59:21","新北市中和區中和路212號","121.505973333333","24.9994966666667","6500300","中和區"
"235054","640-BX","2018/07/13 18:59:21","新北市中和區國光街60號","121.470493333333","25.0002583333333","6500300","中和區"
"235060","647-TV","2018/07/13 18:59:30","新北市中和區中山路三段134號","121.473895","25.0062933333333","6500300","中和區"
"235047","732-UM","2018/07/13 18:59:24","新北市中和區興南路二段54巷11弄4號","121.505605","24.9854883333333","6500300","中和區"
"235046","733-UM","2018/07/13 18:59:17","新北市中和區興南路二段7號","121.508106666667","24.986225","6500300","中和區"
"235071","783-BX","2018/07/13 18:59:12","新北市中和區員山路36巷16-3號","121.485221666667","24.9910983333333","6500300","中和區"
"235062","800-TS","2018/07/13 18:59:15","新北市中和區中山路二段386號","121.490705","25.0037483333333","6500300","中和區"
"235057","801-TS","2018/07/13 18:59:28","新北市中和區民利街77號","121.478471666667","24.9981916666667","6500300","中和區"
"235041","802-TS","2018/07/13 18:59:19","新北市中和區宜安路129號","121.509748333333","24.9982066666667","6500300","中和區"
"235052","805-TS","2018/07/13 18:59:30","新北市中和區興南路二段114巷2號","121.504308333333","24.9841883333333","6500300","中和區"
"235048","896-TW","2018/07/13 18:59:09","新北市中和區華新街109巷16號","121.508633333333","24.9810616666667","6500300","中和區"
"235053","900-TW","2018/07/13 18:59:15","新北市中和區壽德街26號","121.466628333333","24.994375","6500300","中和區"
"235051","157-BY","2018/07/13 18:59:32","新北市中和區忠孝街11巷5號","121.50981","24.9831816666667","6500300","中和區"
"235037","AAC-213","2018/07/13 18:59:18","新北市中和區秀朗路三段10巷14弄100號","121.523245","24.996605","6500300","中和區"
"235059","AAC-215","2018/07/13 18:59:18","新北市中和區圓通路367巷20弄23號","121.491383333333","24.988275","6500300","中和區"
"220068","013-TV","2018/07/13 18:59:23","新北市板橋區中山路二段443巷82號","121.481076666667","25.0225333333333","6500100","板橋區"
"220080","015-TV","2018/07/13 18:59:28","新北市板橋區大觀路二段37巷302號","121.450243333333","25.0021466666667","6500100","板橋區"
"220065","072-UY","2018/07/13 18:59:09","新北市板橋區民族路287巷7號","121.471078333333","25.0072216666667","6500100","板橋區"
"220086","073-UY","2018/07/13 18:59:26","新北市板橋區中正路250巷18號","121.456141666667","25.0193933333333","6500100","板橋區"
"220106","075-UY","2018/07/13 18:59:27","新北市板橋區文化路二段124巷12號","121.470723333333","25.025925","6500100","板橋區"
"220069","AAD-861","2018/07/13 18:59:28","新北市板橋區華興街76號","121.457128333333","25.00506","6500100","板橋區"
"226004","205-ST","2018/07/13 18:59:15","新北市平溪區靜安路二段378號","121.738118333333","25.0246","6502400","平溪區"
"228002","663-BX","2018/07/13 18:59:28","新北市貢寮區福隆里東興街106巷25弄1號","121.946428333333","25.0182983333333","6502600","貢寮區"
"228001","670-TC","2018/07/13 18:59:21","新北市貢寮區仁理村保健街73號","121.923725","25.0517216666667","6502600","貢寮區"
"228003","828-UM","2018/07/13 18:59:27","新北市貢寮區和美里龍洞街56號","121.912056666667","25.1138683333333","6502600","貢寮區"
"224010","AGQ-8101","2018/07/13 18:56:39","新北市瑞芳區基山街31巷12號","121.84555","25.1096466666667","6501200","瑞芳區"
"224006","676-BX","2018/07/13 18:59:25","新北市瑞芳區三爪子坑路106巷1-11號","121.807838333333","25.10514","6501200","瑞芳區"
"224002","639-TC","2018/07/13 18:59:11","新北市平溪區新寮里五分寮10-2號","121.79995","25.0741033333333","6501200","瑞芳區"
"224008","285-BY","2018/07/13 18:59:24","新北市瑞芳區逢甲路343-14號","121.799145","25.1124333333333","6501200","瑞芳區"
"224007","275-VK","2018/07/13 18:59:13","新北市瑞芳區中央路48巷124號","121.758151666667","25.103975","6501200","瑞芳區"
"224009","273-VK","2018/07/13 18:58:56","新北市瑞芳區長仁路32號","121.866076666667","25.1179866666667","6501200","瑞芳區"
"224005","271-BY","2018/07/13 18:59:22","新北市瑞芳區豎崎路32-5號","121.824256666667","25.1209566666667","6501200","瑞芳區"
"227011","642-TC","2018/07/13 18:59:11","新北市雙溪區牡丹里中正路58巷23號","121.86644","25.04163","6502500","雙溪區"
"227003","400-TW","2018/07/13 18:59:18","新北市雙溪區平林里康福家園10號","121.858813333333","25.0373466666667","6502500","雙溪區"
"253005","032-BX","2018/07/13 18:59:10","新北市石門區中央路6號","121.566573333333","25.2913466666667","6502200","石門區"
"253006","295-VK","2018/07/13 18:59:29","新北市石門區八甲11號","121.521983333333","25.281425","6502200","石門區"
"222001","KEA-2212","2018/07/13 18:59:28","新北市深坑區北深路一段266號","121.629225","25.008785","6501800","深坑區"
"208002","KEA-2872","2018/07/13 18:59:17","新北市金山區信義路39號","121.635266666667","25.2196016666667","6502700","金山區"
"208003","665-BX","2018/07/13 18:59:16","新北市金山區中正路20號","121.635895","25.2222733333333","6502700","金山區"
"208001","761-BX","2018/07/13 18:59:11","新北市金山區中山路91號","121.640155","25.2188533333333","6502700","金山區"
"251002","012-UM","2018/07/13 18:59:20","新北市淡水區中正東路49號","121.446683333333","25.1678583333333","6501000","淡水區"
"251010","413-VK","2018/07/13 18:59:13","新北市淡水區淡海路98號","121.42281","25.1820333333333","6501000","淡水區"
"251007","442-VK","2018/07/13 18:59:23","新北市淡水區民生路113巷1弄70號","121.462383333333","25.1385116666667","6501000","淡水區"
"251001","559-UM","2018/07/13 18:59:13","新北市淡水區自強路58-1號","121.463261666667","25.1275266666667","6501000","淡水區"
"251009","575-R6","2018/07/13 18:59:18","新北市淡水區重建街50號","121.439948333333","25.1715533333333","6501000","淡水區"
"251011","650-BX","2018/07/13 18:59:17","新北市淡水區中正東路二段143巷2弄1號","121.460773333333","25.1474516666667","6501000","淡水區"
"251003","673-BX","2018/07/13 18:59:16","新北市淡水區中山北路一段149巷17號","121.44289","25.1778583333333","6501000","淡水區"
"207003","550-UM","2018/07/13 18:59:17","新北市萬里區大鵬里頂社23號","121.657085","25.2103933333333","6502800","萬里區"
"207004","225-TW","2018/07/13 18:59:13","新北市萬里區萬里里獅頭路23號","121.693216666667","25.1782916666667","6502800","萬里區"
"252002","178-VK","2018/07/13 18:59:26","新北市三芝區中正路一段59號","121.503496666667","25.25788","6502100","三芝區"
"252003","249-BX","2018/07/13 18:59:22","新北市三芝區後厝里北勢子42-11號","121.471565","25.25207","6502100","三芝區"
"252001","292-VK","2018/07/13 18:59:22","新北市三芝區中興街二段260號","121.501683333333","25.2531133333333","6502100","三芝區"
"237004","KEA-2597","2018/07/13 18:49:07","新北市三峽區有木205-1號","121.439051666667","24.8514316666667","6500900","三峽區"
"237007","153-BY","2018/07/13 18:59:10","新北市三峽區中正路二段275號","121.365923333333","24.91146","6500900","三峽區"
"237013","252-BX","2018/07/13 18:59:20","新北市三峽區光明路69巷25號","121.376626666667","24.9292333333333","6500900","三峽區"
"237012","275-BY","2018/07/13 18:59:25","新北市三峽區三樹路222巷196-37號","121.389796666667","24.9425416666667","6500900","三峽區"
"237008","302-VK","2018/07/13 18:59:13","新北市三峽區大同路178號","121.372538333333","24.9269933333333","6500900","三峽區"
"237014","433-BY","2018/07/13 18:59:31","新北市三峽區復興路553號","121.356728333333","24.9404283333333","6500900","三峽區"
"237006","5529-G3","2018/07/13 18:59:18","新北市三峽區橫溪路99巷12號","121.399708333333","24.9361366666667","6500900","三峽區"
"237011","KEA-2596","2018/07/13 18:59:30","新北市三峽區介壽路二段121號","121.39272","24.9356466666667","6500900","三峽區"
"237015","649-BX","2018/07/13 18:59:21","新北市三峽區建安80-3號","121.451858333333","24.9228666666667","6500900","三峽區"
"237010","706-TV","2018/07/13 18:59:15","新北市三峽區民生街72號","121.3746","24.9358966666667","6500900","三峽區"
"237005","AKY-6261","2018/07/13 18:59:20","新北市三峽區中山路459巷163-3號","121.348653333333","24.9329233333333","6500900","三峽區"
"236069","105-UM","2018/07/13 18:59:32","新北市土城區明德路一段385-1號","121.453003333333","24.9805583333333","6501300","土城區"
"236079","166-UM","2018/07/13 18:59:20","新北市土城區中央路四段125巷2弄10號","121.416435","24.9569766666667","6501300","土城區"
"236030","253-BX","2018/07/13 18:59:30","新北市土城區慶利街16號","121.439716666667","24.9736866666667","6501300","土城區"
"236026","269-VK","2018/07/13 18:59:31","新北市土城區中央路二段252號","121.441851666667","24.974705","6501300","土城區"
"236014","270-VK","2018/07/13 18:59:30","新北市土城區立德路91號","121.462915","24.98782","6501300","土城區"
"236039","271-VK","2018/07/13 18:59:21","新北市土城區仁愛路18號","121.460706666667","24.9803383333333","6501300","土城區"
"236020","401-BY","2018/07/13 18:59:12","新北市土城區延吉街168巷3號","121.468198333333","24.9856066666667","6501300","土城區"
"236042","752-BX","2018/07/13 18:59:22","新北市土城區學府路一段189巷10號","121.452496666667","24.9844583333333","6501300","土城區"
"236059","912-UM","2018/07/13 18:59:14","新北市土城區金城路二段206號","121.45518","24.9819916666667","6501300","土城區"
"236048","913-UM","2018/07/13 18:59:16","新北市土城區明德路一段365-1號","121.453646666667","24.9790933333333","6501300","土城區"
"236063","915-UM","2018/07/13 18:59:28","新北市土城區延和路41巷6弄13號","121.466486666667","24.9903433333333","6501300","土城區"
"236055","AAC-216","2018/07/13 18:59:28","新北市土城區學成路80號","121.45092","24.9885633333333","6501300","土城區"
"238023","601-UM","2018/07/13 18:59:30","新北市樹林區大慶街156號","121.396961666667","25.0132816666667","6500700","樹林區"
"238019","599-UM","2018/07/13 18:59:25","新北市樹林區東華街30號","121.414661666667","24.982225","6500700","樹林區"
"238022","KEA-2213","2018/07/13 18:59:13","新北市樹林區東興街14-2號","121.409908333333","24.97835","6500700","樹林區"
"238021","KEA-2539","2018/07/13 18:59:23","新北市樹林區柑園街二段328巷6弄29號","121.373253333333","24.9527083333333","6500700","樹林區"
"238025","303-VK","2018/07/13 18:59:24","新北市樹林區民和街50號","121.38426","24.9693816666667","6500700","樹林區"
"238017","283-BY","2018/07/13 18:59:17","新北市樹林區光興街50號","121.409825","25.0027266666667","6500700","樹林區"
"238014","282-BY","2018/07/13 18:59:30","新北市樹林區中正路22-1號","121.427663333333","24.999405","6500700","樹林區"
"238020","268-VK","2018/07/13 18:59:15","新北市樹林區俊英街195號","121.423543333333","25.0122416666667","6500700","樹林區"
"238026","172-UY","2018/07/13 18:59:20","新北市樹林區地政街41號","121.394873333333","24.971815","6500700","樹林區"
"238016","169-UY","2018/07/13 18:59:19","新北市樹林區文化街25巷7弄1號","121.418846666667","24.9870916666667","6500700","樹林區"
"239007","AAC-297","2018/07/13 18:57:13","新北市鶯歌區中山路138巷17-5號","121.351236666667","24.9595833333333","6500800","鶯歌區"
"239006","891-R6","2018/07/13 18:59:12","新北市鶯歌區鶯桃路91巷12號","121.33893","24.95328","6500800","鶯歌區"
"239008","527-UM","2018/07/13 18:59:15","新北市鶯歌區國際二路18巷5號","121.337206666667","24.9750183333333","6500800","鶯歌區"
"239005","526-UM","2018/07/13 18:59:27","新北市鶯歌區中湖街25號","121.347726666667","24.9728633333333","6500800","鶯歌區"
"239001","417-VK","2018/07/13 18:59:19","新北市鶯歌區永智街44號","121.336463333333","24.9542733333333","6500800","鶯歌區"
"239003","360-BY","2018/07/13 18:59:27","新北市鶯歌區鶯桃路405號","121.332985","24.9644216666667","6500800","鶯歌區"
"239002","359-BY","2018/07/13 18:59:19","新北市鶯歌區西湖街45巷1號","121.340258333333","24.9585266666667","6500800","鶯歌區"
"239004","193-VK","2018/07/13 18:59:22","新北市鶯歌區二甲路106巷2號","121.333891666667","24.9313283333333","6500800","鶯歌區"
"221008","489-VK","2018/07/13 18:59:15","新北市汐止區伯爵街1巷6號","121.64152","25.0752316666667","6501100","汐止區"
"221036","130-UY","2018/07/13 18:59:11","新北市汐止區信義路1號","121.662678333333","25.0692616666667","6501100","汐止區"
"221015","131-UY","2018/07/13 18:59:23","新北市汐止區汐萬路一段242號","121.6515","25.07312","6501100","汐止區"
"221010","269-BY","2018/07/13 18:59:19","新北市汐止區康寧街901號","121.651313333333","25.075","6501100","汐止區"
"221023","279-VK","2018/07/13 18:59:15","新北市汐止區康寧街901號","121.650955","25.0751883333333","6501100","汐止區"
"221032","280-BY","2018/07/13 18:59:17","新北市汐止區橫科路241-3號","121.622311666667","25.0488733333333","6501100","汐止區"
"221027","281-BY","2018/07/13 18:59:31","新北市汐止區康寧街901號","121.65146","25.07495","6501100","汐止區"
"221033","297-VK","2018/07/13 18:59:22","新北市汐止區南勢街1巷1號","121.627098333333","25.03748","6501100","汐止區"
"221029","298-VK","2018/07/13 18:59:12","新北市汐止區樟樹一路254號","121.642408333333","25.06727","6501100","汐止區"
"221021","299-VK","2018/07/13 18:59:13","新北市汐止區康寧街901號","121.651515","25.0750533333333","6501100","汐止區"
"221031","353-TW","2018/07/13 18:59:27","新北市汐止區福德二路156巷23號","121.629801666667","25.06571","6501100","汐止區"
"221035","622-UM","2018/07/13 18:59:29","新北市汐止區汐萬路一段244-1號","121.651388333333","25.0733916666667","6501100","汐止區"
"221025","623-UM","2018/07/13 18:59:25","新北市汐止區汐萬路一段256巷3號","121.652453333333","25.0746233333333","6501100","汐止區"
"221038","646-BX","2018/07/13 18:59:27","新北市汐止區康寧街901號","121.650873333333","25.0752616666667","6501100","汐止區"
"221002","707-TV","2018/07/13 18:59:26","新北市汐止區大同路一段2號","121.621065","25.0549733333333","6501100","汐止區"
"221018","753-BX","2018/07/13 18:59:15","新北市汐止區康寧街901號","121.650718333333","25.0753566666667","6501100","汐止區"
"220082","610-BX","2018/07/13 18:59:28","新北市板橋區滿平街111號","121.428423333333","24.98857","6500100","板橋區"
"220101","245-BX","2018/07/13 18:59:31","新北市板橋區文化路二段182巷7弄3號","121.471948333333","25.0271066666667","6500100","板橋區"
"220091","267-BY","2018/07/13 18:59:15","新北市板橋區莒光路165巷10號","121.474113333333","25.0241533333333","6500100","板橋區"
"220056","276-BY","2018/07/13 18:59:16","新北市板橋區信義路124號","121.458448333333","24.9924333333333","6500100","板橋區"
"220072","277-BY","2018/07/13 18:59:13","新北市板橋區篤行路一段29號","121.432055","24.9947216666667","6500100","板橋區"
"220071","283-VK","2018/07/13 18:59:25","新北市板橋區忠孝路154巷20號","121.463995","25.0020016666667","6500100","板橋區"
"220094","285-UM","2018/07/13 18:59:30","新北市板橋區文化路二段76號","121.46954","25.0250083333333","6500100","板橋區"
"220053","285-VK","2018/07/13 18:59:15","新北市板橋區中山路二段157號","121.475606666667","25.0168066666667","6500100","板橋區"
"220083","286-VK","2018/07/13 18:59:26","新北市板橋區大觀路一段38巷172號","121.441796666667","25.0045866666667","6500100","板橋區"
"220081","287-VK","2018/07/13 18:59:26","新北市板橋區南雅西路二段98-5號","121.452366666667","25.0114383333333","6500100","板橋區"
"220090","288-VK","2018/07/13 18:59:25","新北市板橋區四維路177巷2弄1號","121.464056666667","25.026255","6500100","板橋區"
"220061","293-UM","2018/07/13 18:59:19","新北市板橋區富山街109巷71號","121.475278333333","25.0211933333333","6500100","板橋區"
"220084","296-UM","2018/07/13 18:59:19","新北市板橋區大觀路三段52號","121.432308333333","24.9960633333333","6500100","板橋區"
"220075","303-R5","2018/07/13 18:59:15","新北市板橋區館前西路104號","121.457068333333","25.0074316666667","6500100","板橋區"
"220062","305-R5","2018/07/13 18:59:24","新北市板橋區三民路二段正隆巷48號","121.476741666667","25.0140583333333","6500100","板橋區"
"220092","307-R5","2018/07/13 18:59:22","新北市板橋區文化路一段88號","121.464416666667","25.01747","6500100","板橋區"
"220098","317-R6","2018/07/13 18:59:28","新北市板橋區民有街32號","121.465983333333","25.02542","6500100","板橋區"
"220064","486-VK","2018/07/13 18:59:25","新北市板橋區漢生東路127號","121.467713333333","25.0143933333333","6500100","板橋區"
"220088","491-VK","2018/07/13 18:59:20","新北市板橋區民生路二段206號","121.469641666667","25.0210616666667","6500100","板橋區"
"220035","560-BX","2018/07/13 18:59:17","新北市板橋區中正路339號","121.454756666667","25.0203733333333","6500100","板橋區"
"220103","561-BX","2018/07/13 18:59:26","新北市板橋區民生路二段89-4號","121.471466666667","25.0185683333333","6500100","板橋區"
"220079","568-UM","2018/07/13 18:59:27","新北市板橋區民權路202巷12弄1號","121.46059","25.0156583333333","6500100","板橋區"
"220063","609-BX","2018/07/13 18:59:23","新北市板橋區中山路二段169號","121.47595","25.016835","6500100","板橋區"
"220057","686-BX","2018/07/13 18:59:24","新北市板橋區重慶路153號","121.462491666667","25.0038066666667","6500100","板橋區"
"220093","689-BX","2018/07/13 18:59:23","新北市板橋區民生路三段64號","121.466926666667","25.0253583333333","6500100","板橋區"
"220054","741-BX","2018/07/13 18:59:22","新北市板橋區重慶路127巷11號","121.463153333333","25.00489","6500100","板橋區"
"220102","KEA-2699","2018/07/13 18:59:16","新北市板橋區八德路二段62號","121.482013333333","25.0273483333333","6500100","板橋區"
"220077","806-UM","2018/07/13 18:59:27","新北市板橋區大觀路二段52號","121.445338333333","25.000725","6500100","板橋區"
"220055","827-TW","2018/07/13 18:59:17","新北市板橋區中山路一段158巷20號","121.466321666667","25.0111416666667","6500100","板橋區"
"220067","829-TW","2018/07/13 18:59:24","新北市板橋區三民路二段186巷28號","121.477795","25.0141716666667","6500100","板橋區"
"220096","830-TW","2018/07/13 18:59:21","新北市板橋區莒光路133巷1號","121.472895","25.0241966666667","6500100","板橋區"
"220089","833-TW","2018/07/13 18:59:11","新北市板橋區文化路二段402號","121.473711666667","25.0315533333333","6500100","板橋區"
"220074","895-R6","2018/07/13 18:59:19","新北市板橋區文昌街24巷1號","121.455958333333","25.0108533333333","6500100","板橋區"
"220073","985-R7","2018/07/13 18:59:27","新北市板橋區民權路219號","121.457708333333","25.0152833333333","6500100","板橋區"
"220097","AAC-210","2018/07/13 18:59:18","新北市板橋區漢生東路7號","121.46461","25.017425","6500100","板橋區"
"220070","AAC-253","2018/07/13 18:59:20","新北市板橋區四川路一段489號","121.457073333333","24.9971483333333","6500100","板橋區"
"235068","KEA-2873","2018/07/13 18:59:24","新北市中和區圓通路162巷1號","121.497171666667","24.995335","6500300","中和區"
"235061","KEA-2875","2018/07/13 18:59:22","新北市中和區民享街2巷1號","121.47381","25.0057216666667","6500300","中和區"
