"lineid","car","time","location","longitude","latitude","cityid","cityname"
"234046","148-BY","2018/07/13 19:29:27","新北市永和區得和路423號","121.526258333333","24.999305","6500400","永和區"
"234007","207-UY","2018/07/13 19:29:24","新北市永和區永和路一段116號","121.513761666667","25.0075983333333","6500400","永和區"
"234081","298-R6","2018/07/13 19:29:11","新北市永和區環河東路三段60號","121.526803333333","25.0058316666667","6500400","永和區"
"234038","336-UY","2018/07/13 19:29:26","新北市永和區成功路二段47巷11號","121.527415","25.00023","6500400","永和區"
"234064","337-UY","2018/07/13 19:29:22","新北市永和區中正路368巷1弄88號","121.520538333333","25.000775","6500400","永和區"
"234070","552-UM","2018/07/13 19:29:09","新北市永和區警光街5-1號","121.519795","25.009485","6500400","永和區"
"234086","553-UM","2018/07/13 19:29:16","新北市永和區林森路68號","121.523823333333","25.00399","6500400","永和區"
"234017","745-BX","2018/07/13 19:29:16","新北市永和區環河西路一段63號","121.513371666667","25.0181083333333","6500400","永和區"
"234030","746-BX","2018/07/13 19:29:15","新北市永和區民生路8-1號","121.522591666667","24.9977216666667","6500400","永和區"
"234054","KEA-2590","2018/07/13 19:29:17","新北市永和區竹林路15號","121.51687","25.0149","6500400","永和區"
"234013","KEA-2591","2018/07/13 19:29:24","新北市永和區中山路一段143號","121.510315","25.0097133333333","6500400","永和區"
"234061","AAD-866","2018/07/13 19:29:13","新北市永和區中正路526號","121.517273333333","25.0050033333333","6500400","永和區"
"234042","862-TW","2018/07/13 19:29:13","新北市永和區水源街39巷5號","121.510483333333","25.004075","6500400","永和區"
"234050","863-TW","2018/07/13 19:29:25","新北市永和區信義路118號","121.512355","25.0145933333333","6500400","永和區"
"234026","9371-KE","2018/07/13 19:29:17","新北市中和區安樂路207號","121.5144","24.9985483333333","6500400","永和區"
"234011","9373-KE","2018/07/13 19:28:58","新北市永和區保福路二段163巷13弄5號","121.509195","25.0143166666667","6500400","永和區"
"249003","593-UM","2018/07/13 19:29:21","新北市八里區商港六路19號","121.396666666667","25.14851","6502300","八里區"
"248008","095-VK","2018/07/13 19:29:27","新北市五股區中興路一段97號","121.46665","25.0729383333333","6501500","五股區"
"248018","225-UY","2018/07/13 19:24:01","新北市五股區壟路16號","121.415276666667","25.0856283333333","6501500","五股區"
"248012","247-BX","2018/07/13 19:29:26","新北市五股區成泰路二段97號","121.438005","25.0842666666667","6501500","五股區"
"248014","261-SL","2018/07/13 19:29:21","新北市五股區民義路一段183巷6-1號","121.43084","25.0871716666667","6501500","五股區"
"248010","272-BY","2018/07/13 19:29:29","新北市五股區自強路90巷72號","121.43075","25.0713283333333","6501500","五股區"
"248004","677-BX","2018/07/13 19:29:29","新北市五股區工商路151號","121.434931666667","25.0865583333333","6501500","五股區"
"248002","678-BX","2018/07/13 19:29:15","新北市五股區凌雲路一段158巷14-1號","121.447871666667","25.1036033333333","6501500","五股區"
"234023","9380-KE","2018/07/13 19:29:25","新北市永和區竹林路91巷47弄1號","121.521203333333","25.012845","6500400","永和區"
"234077","969-R7","2018/07/13 19:29:28","新北市永和區民權路58巷3號","121.51963","24.99829","6500400","永和區"
"234074","AAC-211","2018/07/13 19:29:27","新北市永和區環河東路二段30號","121.52256","25.0127066666667","6500400","永和區"
"234067","AAC-212","2018/07/13 19:29:24","新北市永和區永貞路335號","121.509676666667","25.007055","6500400","永和區"
"234003","AAC-295","2018/07/13 19:29:31","新北市永和區永和路一段118號","121.513985","25.0077666666667","6500400","永和區"
"244019","403-UM","2018/07/13 19:28:55","新北市林口區菁湖里70-1號","121.372223333333","25.0918566666667","6501700","林口區"
"244023","483-VK","2018/07/13 19:29:29","新北市林口區仁愛路二段269號","121.373423333333","25.077475","6501700","林口區"
"243010","267-VK","2018/07/13 19:29:27","新北市泰山區民生路17巷59號","121.429318333333","25.0510883333333","6501600","泰山區"
"243013","AAD-798","2018/07/13 19:29:21","新北市泰山區貴子路36巷10號","121.425808333333","25.0414533333333","6501600","泰山區"
"243009","297-R6","2018/07/13 19:29:17","新北市泰山區半山雅6號","121.431608333333","25.0673783333333","6501600","泰山區"
"243016","380-SR","2018/07/13 19:29:31","新北市泰山區工專路20號","121.423778333333","25.0398133333333","6501600","泰山區"
"243015","421-VK","2018/07/13 19:29:16","新北市泰山區民權街25號","121.428726666667","25.05068","6501600","泰山區"
"243011","KEA-2215","2018/07/13 19:29:21","新北市泰山區貴子路120號","121.428133333333","25.04073","6501600","泰山區"
"243012","646-TV","2018/07/13 19:29:31","新北市泰山區仁愛路36-6號","121.431618333333","25.054845","6501600","泰山區"
"243014","680-BX","2018/07/13 19:29:20","新北市泰山區中港西路455號","121.433296666667","25.053255","6501600","泰山區"
"222002","016-RS","2018/07/13 19:29:27","新北市深坑區北深路一段177號","121.632608333333","25.01088","6501800","深坑區"
"222003","436-BY","2018/07/13 19:29:27","新北市深坑區深南路51-1號","121.621343333333","25.0096716666667","6501800","深坑區"
"231041","002-UM","2018/07/13 19:29:13","新北市新店區中正路616號","121.534006666667","24.9886983333333","6500600","新店區"
"231059","046-UY","2018/07/13 19:29:15","新北市新店區安和路三段7號","121.518078333333","24.9805533333333","6500600","新店區"
"231040","047-UY","2018/07/13 19:29:21","新北市新店區北新路一段96巷23號","121.543023333333","24.9686183333333","6500600","新店區"
"231044","106-UY","2018/07/13 19:29:12","新北市新店區中興路三段145號","121.544525","24.979925","6500600","新店區"
"231046","107-UY","2018/07/13 19:29:13","新北市新店區光明街119號","121.538923333333","24.9617183333333","6500600","新店區"
"231065","110-UY","2018/07/13 19:29:17","新北市新店區安祥路109巷1弄13號","121.476001666667","24.959665","6500600","新店區"
"231048","187-VK","2018/07/13 19:29:23","新北市新店區五峰路121號","121.54499","24.966485","6500600","新店區"
"231054","KEA-2219","2018/07/13 19:29:13","新北市新店區文中路45號","121.539588333333","24.956675","6500600","新店區"
"231057","256-BX","2018/07/13 19:29:29","新北市新店區花園一路四段41號","121.550968333333","24.9326166666667","6500600","新店區"
"231042","268-BY","2018/07/13 19:29:23","新北市新店區北宜路一段3號","121.538638333333","24.9585183333333","6500600","新店區"
"231051","278-BY","2018/07/13 19:29:18","新北市新店區中央五街42-1號","121.528268333333","24.9750316666667","6500600","新店區"
"231050","AAD-862","2018/07/13 19:29:18","新北市新店區竹林路92號","121.553943333333","24.950205","6500600","新店區"
"231058","3713-VJ","2018/07/13 19:29:31","新北市新店區寶橋路85巷25號","121.545191666667","24.9761016666667","6500600","新店區"
"231066","4716-K9","2018/07/13 19:29:27","新北市新店區安康路三段466號","121.48401","24.9508133333333","6500600","新店區"
"231067","4772-VM","2018/07/13 19:29:14","新北市新店區安光路30號","121.513613333333","24.9643983333333","6500600","新店區"
"231049","513-UM","2018/07/13 19:29:27","新北市新店區二十張路1巷2弄3號","121.540158333333","24.9820766666667","6500600","新店區"
"231063","616-UM","2018/07/13 19:29:14","新北市新店區達觀路16號","121.503148333333","24.9406783333333","6500600","新店區"
"231045","617-UM","2018/07/13 19:29:20","新北市新店區北宜路二段213號","121.55322","24.95334","6500600","新店區"
"231061","619-UM","2018/07/13 19:29:23","新北市新店區安康路一段266巷4號","121.52005","24.964025","6500600","新店區"
"231064","719-UM","2018/07/13 19:29:08","新北市新店區安康路二段85巷18號","121.513765","24.96217","6500600","新店區"
"231053","719-UY","2018/07/13 19:29:17","新北市新店區新烏路二段202號","121.547461666667","24.9165816666667","6500600","新店區"
"231062","720-UM","2018/07/13 19:29:11","新北市新店區安康路一段65號","121.530395","24.9610483333333","6500600","新店區"
"231060","897-TW","2018/07/13 19:29:27","新北市新店區安康路二段67號","121.51393","24.963165","6500600","新店區"
"231043","899-TW","2018/07/13 19:29:24","新北市新店區北新路二段193號","121.542668333333","24.9781","6500600","新店區"
"231055","AKT-0513","2018/07/13 19:29:24","新北市新店區中華路83巷67號","121.538358333333","24.967255","6500600","新店區"
"241028","022-UY","2018/07/13 19:29:15","新北市三重區中正南路97巷20號","121.4936","25.057755","6500200","三重區"
"241008","059-VK","2018/07/13 19:29:18","新北市三重區永福街135巷40號","121.477075","25.0772433333333","6500200","三重區"
"241022","060-VK","2018/07/13 19:29:26","新北市三重區三民街95號","121.485341666667","25.0632583333333","6500200","三重區"
"241031","061-VK","2018/07/13 19:29:11","新北市三重區集美街100號","121.488556666667","25.054165","6500200","三重區"
"241017","063-VK","2018/07/13 19:29:20","新北市三重區中正北路25巷14號","121.493456666667","25.0629183333333","6500200","三重區"
"241026","066-VK","2018/07/13 19:29:26","新北市三重區文化南路47巷2弄1號","121.499885","25.0612816666667","6500200","三重區"
"241009","267-UM","2018/07/13 19:29:16","新北市三重區溪尾街242巷70號","121.486131666667","25.08135","6500200","三重區"
"241013","270-UM","2018/07/13 19:29:26","新北市三重區仁愛街129巷4號","121.49587","25.07509","6500200","三重區"
"241007","398-BY","2018/07/13 19:29:18","新北市三重區慈愛街147號","121.48933","25.0795616666667","6500200","三重區"
"241035","KEA-2210","2018/07/13 19:29:12","新北市三重區信義西街48號","121.498116666667","25.06461","6500200","三重區"
"241025","413-TH","2018/07/13 19:29:26","新北市三重區頂崁街210巷23弄1號","121.475815","25.0680416666667","6500200","三重區"
"241020","478-VK","2018/07/13 19:29:29","新北市三重區三和路四段44巷17號","121.48967","25.0741766666667","6500200","三重區"
"241030","480-VK","2018/07/13 19:29:28","新北市三重區環河南路254巷32號","121.49012","25.05107","6500200","三重區"
"241006","AAD-863","2018/07/13 19:29:26","新北市三重區國道路一段1號","121.486473333333","25.07341","6500200","三重區"
"241029","942-UM","2018/07/13 19:29:25","新北市三重區中正南路181號","121.493671666667","25.0552133333333","6500200","三重區"
"235066","003-UY","2018/07/13 19:29:21","新北市中和區景新街56號","121.503991666667","24.9991433333333","6500300","中和區"
"235064","005-UY","2018/07/13 19:29:12","新北市中和區南山路81巷57號","121.504138333333","24.9980566666667","6500300","中和區"
"235063","006-UY","2018/07/13 19:29:24","新北市中和區連城路225號","121.494151666667","24.997575","6500300","中和區"
"235045","031-BX","2018/07/13 19:29:12","新北市中和區景新街399巷8號","121.512963333333","24.9898083333333","6500300","中和區"
"235056","096-UM","2018/07/13 19:29:20","新北市中和區民富街56號","121.47665","25.007255","6500300","中和區"
"235039","097-UM","2018/07/13 19:29:16","新北市中和區秀峰街119巷8弄9號","121.519056666667","24.9898866666667","6500300","中和區"
"235065","098-UM","2018/07/13 19:29:17","新北市中和區莊敬路24號","121.500143333333","25.004535","6500300","中和區"
"235040","150-BY","2018/07/13 19:29:25","新北市中和區保健路42-3號","121.50944","24.9971833333333","6500300","中和區"
"235058","151-BY","2018/07/13 19:29:12","新北市中和區連城路469巷5號","121.483676666667","24.9957533333333","6500300","中和區"
"235055","183-VK","2018/07/13 19:29:29","新北市中和區中山路三段183號","121.472683333333","25.006105","6500300","中和區"
"235038","185-VK","2018/07/13 19:29:30","新北市中和區立人街9號","121.521705","24.9940633333333","6500300","中和區"
"235049","186-VK","2018/07/13 19:29:24","新北市中和區景新街283號","121.509611666667","24.9933716666667","6500300","中和區"
"235067","255-BX","2018/07/13 19:17:25","新北市中和區民樂路28號","121.48272","25.0011416666667","6500300","中和區"
"235044","293-VK","2018/07/13 19:29:23","新北市中和區捷運路155號","121.506465","24.9910483333333","6500300","中和區"
"235072","301-VK","2018/07/13 19:29:17","新北市中和區連城路265巷1號","121.491535","24.9962333333333","6500300","中和區"
"235043","352-BY","2018/07/13 19:29:17","新北市中和區南山路165號","121.502708333333","24.99526","6500300","中和區"
"235042","KEA-2878","2018/07/13 19:29:13","新北市中和區中和路262巷43弄1號","121.509413333333","24.999575","6500300","中和區"
"235050","4979-A6","2018/07/13 19:29:16","新北市中和區中正路521號","121.488238333333","24.9938133333333","6500300","中和區"
"235069","4980-A6","2018/07/13 19:29:12","新北市中和區永和路39巷10號","121.497581666667","25.0049666666667","6500300","中和區"
"235070","558-UM","2018/07/13 19:29:21","新北市中和區景平路624號","121.500433333333","24.9974733333333","6500300","中和區"
"235054","640-BX","2018/07/13 19:29:21","新北市中和區國光街112巷14弄15號","121.47066","25.0013616666667","6500300","中和區"
"235060","647-TV","2018/07/13 19:29:15","新北市中和區員山路266巷5號","121.48163","25.0017883333333","6500300","中和區"
"235047","732-UM","2018/07/13 19:29:24","新北市中和區景平路241巷62號","121.507758333333","24.9922266666667","6500300","中和區"
"235046","733-UM","2018/07/13 19:29:17","新北市中和區忠孝街37巷44號","121.510656666667","24.9847116666667","6500300","中和區"
"235071","783-BX","2018/07/13 19:29:12","新北市中和區連城路469巷21弄22號","121.484233333333","24.9950933333333","6500300","中和區"
"235057","801-TS","2018/07/13 19:29:29","新北市中和區員山路370-4號","121.480731666667","25.004055","6500300","中和區"
"235041","802-TS","2018/07/13 19:29:19","新北市中和區中安街104-1號","121.511648333333","25.0012083333333","6500300","中和區"
"235052","805-TS","2018/07/13 19:29:30","新北市中和區華新街143巷68號","121.50634","24.9792566666667","6500300","中和區"
"235048","896-TW","2018/07/13 19:29:29","新北市中和區忠孝街137號","121.512763333333","24.98825","6500300","中和區"
"235053","900-TW","2018/07/13 19:29:15","新北市中和區華順街12號","121.46727","24.9986883333333","6500300","中和區"
"235051","157-BY","2018/07/13 19:29:32","新北市中和區景新街128號","121.505253333333","24.998105","6500300","中和區"
"235037","AAC-213","2018/07/13 19:29:18","新北市中和區秀朗路三段10巷14弄18號","121.524913333333","24.9966183333333","6500300","中和區"
"235059","AAC-215","2018/07/13 19:29:17","新北市中和區圓通路252-3號","121.493591666667","24.991255","6500300","中和區"
"220068","013-TV","2018/07/13 19:29:23","新北市板橋區林森街1巷20號","121.482501666667","25.024205","6500100","板橋區"
"220080","015-TV","2018/07/13 19:29:28","新北市板橋區大觀路二段37巷230號","121.449476666667","25.001225","6500100","板橋區"
"220065","072-UY","2018/07/13 19:29:29","新北市板橋區國泰街75巷28弄33號","121.467603333333","25.004415","6500100","板橋區"
"220086","073-UY","2018/07/13 19:29:27","新北市板橋區國光路162號","121.46012","25.0181483333333","6500100","板橋區"
"220106","075-UY","2018/07/13 19:29:27","新北市板橋區文化路二段417巷9號","121.473615","25.0338216666667","6500100","板橋區"
"220069","AAD-861","2018/07/13 19:29:28","新北市板橋區稚暉街35號","121.457121666667","25.004135","6500100","板橋區"
"226004","205-ST","2018/07/13 19:29:15","新北市平溪區南山里南山坪94號","121.777016666667","25.04123","6502400","平溪區"
"228001","670-TC","2018/07/13 19:29:21","新北市貢寮區真理里延平街68-2號","121.925376666667","25.05747","6502600","貢寮區"
"228003","828-UM","2018/07/13 19:29:27","新北市貢寮區和美里和美街19-2號","121.912751666667","25.0825916666667","6502600","貢寮區"
"224010","AGQ-8101","2018/07/13 19:29:30","新北市瑞芳區基山街142號","121.843558333333","25.1082033333333","6501200","瑞芳區"
"224002","639-TC","2018/07/13 19:29:22","新北市瑞芳區三爪子坑路13巷10-1號","121.814013333333","25.107125","6501200","瑞芳區"
"224007","275-VK","2018/07/13 19:29:27","新北市瑞芳區民權街3-1號","121.809253333333","25.1083366666667","6501200","瑞芳區"
"227011","642-TC","2018/07/13 19:29:11","新北市雙溪區新基里新基北街43號","121.868165","25.0396983333333","6502500","雙溪區"
"227003","400-TW","2018/07/13 19:29:18","新北市雙溪區雙溪里光復街18號","121.865125","25.03546","6502500","雙溪區"
"253005","032-BX","2018/07/13 19:29:10","新北市石門區小坑9號","121.594345","25.2885983333333","6502200","石門區"
"222001","KEA-2212","2018/07/13 19:29:28","新北市深坑區北深路二段121號","121.616756666667","25.003125","6501800","深坑區"
"208002","KEA-2872","2018/07/13 19:29:17","新北市金山區仁愛路87巷1號","121.634628333333","25.2215533333333","6502700","金山區"
"208003","665-BX","2018/07/13 19:29:16","新北市金山區忠孝一路92號","121.636618333333","25.2212666666667","6502700","金山區"
"208001","761-BX","2018/07/13 19:29:11","新北市金山區金包里街93號","121.637856666667","25.2221283333333","6502700","金山區"
"251002","012-UM","2018/07/13 19:29:20","新北市淡水區崁頂75-2號","121.435416666667","25.2038683333333","6501000","淡水區"
"251008","181-VK","2018/07/13 19:29:23","新北市淡水區中正路一段49號","121.424388333333","25.177515","6501000","淡水區"
"251010","413-VK","2018/07/13 19:29:13","新北市淡水區中正路二段136-3號","121.421286666667","25.18728","6501000","淡水區"
"251012","441-VK","2018/07/13 19:29:10","新北市淡水區崁頂78-5號","121.429193333333","25.2074583333333","6501000","淡水區"
"251007","442-VK","2018/07/13 19:29:23","新北市淡水區紅樹林路183號","121.46071","25.1570583333333","6501000","淡水區"
"251005","443-VK","2018/07/13 19:29:16","新北市淡水區水源街一段71巷18號","121.44429","25.1729616666667","6501000","淡水區"
"251001","559-UM","2018/07/13 19:29:13","新北市淡水區民權路141-1號","121.460035","25.1364083333333","6501000","淡水區"
"251006","561-UM","2018/07/13 19:29:29","新北市淡水區大義街40號","121.44197","25.1783466666667","6501000","淡水區"
"251009","575-R6","2018/07/13 19:29:17","新北市淡水區大忠街5巷9號","121.443425","25.1764833333333","6501000","淡水區"
"251011","650-BX","2018/07/13 19:29:21","新北市淡水區中正東路二段143巷2弄1號","121.460703333333","25.1473266666667","6501000","淡水區"
"207003","550-UM","2018/07/13 19:29:17","新北市萬里區大鵬里萬里加投158號","121.643888333333","25.21509","6502800","萬里區"
"207004","225-TW","2018/07/13 19:29:13","新北市萬里區萬里里瑪鋉路127-8號","121.688871666667","25.177755","6502800","萬里區"
"252002","178-VK","2018/07/13 19:29:26","新北市三芝區淡金路二段18-1號","121.502561666667","25.2595033333333","6502100","三芝區"
"252001","292-VK","2018/07/13 19:29:22","新北市三芝區長勤街62-1號","121.50012","25.2561866666667","6502100","三芝區"
"237007","153-BY","2018/07/13 19:29:10","新北市三峽區二鬮路136巷41號","121.358295","24.9087083333333","6500900","三峽區"
"237009","210-TH","2018/07/13 19:29:19","新北市三峽區民權街48號","121.369635","24.933435","6500900","三峽區"
"237013","252-BX","2018/07/13 19:29:26","新北市三峽區介壽路一段316-2號","121.38085","24.9300133333333","6500900","三峽區"
"237012","275-BY","2018/07/13 19:29:25","新北市三峽區三樹路128-1號","121.378366666667","24.9397","6500900","三峽區"
"237008","302-VK","2018/07/13 19:29:13","新北市三峽區永安街115號","121.374176666667","24.9286816666667","6500900","三峽區"
"237014","433-BY","2018/07/13 19:29:31","新北市三峽區中園街117號","121.367568333333","24.9241916666667","6500900","三峽區"
"237006","5529-G3","2018/07/13 19:29:18","新北市三峽區中正路一段336巷15弄2號","121.369966666667","24.9249433333333","6500900","三峽區"
"237015","649-BX","2018/07/13 19:29:21","新北市三峽區成福路94號","121.420783333333","24.9298533333333","6500900","三峽區"
"237005","AKY-6261","2018/07/13 19:29:20","新北市三峽區復興路367巷1弄13號","121.364031666667","24.938115","6500900","三峽區"
"236069","105-UM","2018/07/13 19:29:32","新北市土城區學府路一段143巷29號","121.454293333333","24.9853033333333","6501300","土城區"
"236079","166-UM","2018/07/13 19:29:20","新北市土城區中州路24巷6號","121.414775","24.9575933333333","6501300","土城區"
"236030","253-BX","2018/07/13 19:29:31","新北市土城區中央路一段324號","121.443245","24.9815616666667","6501300","土城區"
"236026","269-VK","2018/07/13 19:29:11","新北市土城區中央路二段61巷26號","121.443265","24.9786666666667","6501300","土城區"
"236020","401-BY","2018/07/13 19:29:12","新北市土城區明峰街83號","121.468928333333","24.9873383333333","6501300","土城區"
"236042","752-BX","2018/07/13 19:29:22","新北市土城區學府路一段239號","121.450361666667","24.9833933333333","6501300","土城區"
"236048","913-UM","2018/07/13 19:29:16","新北市土城區清水路196號","121.460248333333","24.9817833333333","6501300","土城區"
"242023","705-TV","2018/07/13 19:29:17","新北市新莊區三和路12-12號","121.442256666667","25.0370566666667","6500500","新莊區"
"242007","413-TV","2018/07/13 19:29:25","新北市新莊區新泰路401巷29-1號","121.442425","25.0438066666667","6500500","新莊區"
"242032","135-UY","2018/07/13 19:29:27","新北市新莊區新泰路225巷22弄2號","121.445215","25.039315","6500500","新莊區"
"242048","172-VK","2018/07/13 19:29:14","新北市新莊區後港一路13號","121.424196666667","25.0263083333333","6500500","新莊區"
"242011","173-VK","2018/07/13 19:27:08","新北市新莊區新泰路357巷2-2號","121.441918333333","25.0413716666667","6500500","新莊區"
"242005","176-VK","2018/07/13 19:29:26","新北市新莊區化成路11巷87號","121.46228","25.0434983333333","6500500","新莊區"
"242021","348-TH","2018/07/13 19:29:13","新北市新莊區新泰路357巷3弄57號","121.442066666667","25.0394683333333","6500500","新莊區"
"242013","351-TH","2018/07/13 19:29:20","新北市新莊區新泰路500號","121.442456666667","25.04595","6500500","新莊區"
"238015","755-BX","2018/07/13 19:29:17","新北市樹林區復興路258號","121.418486666667","24.9888433333333","6500700","樹林區"
"238023","601-UM","2018/07/13 19:29:28","新北市樹林區三福街42號","121.407913333333","25.01647","6500700","樹林區"
"238019","599-UM","2018/07/13 19:29:25","新北市樹林區大同街5號","121.418688333333","24.9827683333333","6500700","樹林區"
"238024","5061-A6","2018/07/13 19:29:13","新北市樹林區山佳街15號","121.394091666667","24.97283","6500700","樹林區"
"238022","KEA-2213","2018/07/13 19:29:13","新北市樹林區太元街75號","121.419168333333","24.978395","6500700","樹林區"
"238021","KEA-2539","2018/07/13 19:29:24","新北市樹林區佳園路三段213號","121.38512","24.946705","6500700","樹林區"
"238025","303-VK","2018/07/13 19:29:19","新北市樹林區中山路一段139號","121.422486666667","24.9895533333333","6500700","樹林區"
"238017","283-BY","2018/07/13 19:29:17","新北市樹林區保安街二段109號","121.415551666667","25.0014883333333","6500700","樹林區"
"238014","282-BY","2018/07/13 19:29:30","新北市樹林區保安二街64巷2號","121.424538333333","24.996245","6500700","樹林區"
"238020","268-VK","2018/07/13 19:29:32","新北市樹林區俊英街83巷2號","121.425773333333","25.008055","6500700","樹林區"
"238026","172-UY","2018/07/13 19:29:20","新北市樹林區佳園路二段13號","121.393413333333","24.9637733333333","6500700","樹林區"
"239007","AAC-297","2018/07/13 19:29:13","新北市鶯歌區大湖路326巷28號","121.34623","24.969745","6500800","鶯歌區"
"239006","891-R6","2018/07/13 19:29:12","新北市鶯歌區文化路303號","121.352596666667","24.952485","6500800","鶯歌區"
"239003","360-BY","2018/07/13 19:29:27","新北市鶯歌區中正一路113-1號","121.369901666667","24.9580816666667","6500800","鶯歌區"
"239002","359-BY","2018/07/13 19:29:19","新北市鶯歌區大湖路43號","121.342703333333","24.9618816666667","6500800","鶯歌區"
"221008","489-VK","2018/07/13 19:29:15","新北市汐止區康寧街235號","121.623963333333","25.06689","6501100","汐止區"
"221036","130-UY","2018/07/13 19:29:31","新北市汐止區康寧街901號","121.650771666667","25.0752866666667","6501100","汐止區"
"221015","131-UY","2018/07/13 19:29:23","新北市汐止區康寧街901號","121.65156","25.0749666666667","6501100","汐止區"
"221010","269-BY","2018/07/13 19:29:18","新北市汐止區連峰街5巷2號","121.646483333333","25.0768616666667","6501100","汐止區"
"221012","278-VK","2018/07/13 19:29:20","新北市汐止區大同路三段174號","121.673951666667","25.0751633333333","6501100","汐止區"
"221023","279-VK","2018/07/13 19:29:15","新北市汐止區汐萬路一段312號","121.65034","25.0755166666667","6501100","汐止區"
"221027","281-BY","2018/07/13 19:29:11","新北市汐止區忠孝東路9號","121.658263333333","25.0659283333333","6501100","汐止區"
"221033","297-VK","2018/07/13 19:29:22","新北市汐止區南勢街1巷1號","121.627033333333","25.0374133333333","6501100","汐止區"
"221029","298-VK","2018/07/13 19:29:12","新北市汐止區康寧街901號","121.65143","25.07493","6501100","汐止區"
"221021","299-VK","2018/07/13 19:29:13","新北市汐止區康寧街901號","121.651396666667","25.07509","6501100","汐止區"
"221031","353-TW","2018/07/13 19:29:27","新北市汐止區康寧街901號","121.650831666667","25.07527","6501100","汐止區"
"221025","623-UM","2018/07/13 19:29:25","新北市汐止區秀峰路57號","121.660025","25.064855","6501100","汐止區"
"221038","646-BX","2018/07/13 19:29:27","新北市汐止區汐萬路一段18號","121.656033333333","25.0675333333333","6501100","汐止區"
"221002","707-TV","2018/07/13 19:29:29","新北市汐止區大同路一段337巷15弄2號","121.637533333333","25.059945","6501100","汐止區"
"220082","610-BX","2018/07/13 19:29:28","新北市板橋區金門街81號","121.43319","24.9925916666667","6500100","板橋區"
"220101","245-BX","2018/07/13 19:29:19","新北市板橋區縣民大道三段127巷21號","121.476718333333","25.0238066666667","6500100","板橋區"
"220091","267-BY","2018/07/13 19:29:20","新北市板橋區文聖街149巷23弄16號","121.479293333333","25.02887","6500100","板橋區"
"220056","276-BY","2018/07/13 19:29:19","新北市板橋區國慶路49巷17號","121.459583333333","24.9962716666667","6500100","板橋區"
"220072","277-BY","2018/07/13 19:29:28","新北市板橋區金門街215巷2弄52號","121.433065","24.9885216666667","6500100","板橋區"
"220071","283-VK","2018/07/13 19:29:25","新北市板橋區四川路一段325巷3弄5號","121.459385","25.0005833333333","6500100","板橋區"
"220094","285-UM","2018/07/13 19:29:30","新北市板橋區吳鳳路50巷39號","121.468766666667","25.0302933333333","6500100","板橋區"
"220053","285-VK","2018/07/13 19:29:15","新北市板橋區永豐街205號","121.476521666667","25.021055","6500100","板橋區"
"220083","286-VK","2018/07/13 19:29:26","新北市板橋區大觀路二段174巷165弄2號","121.44186","25.0034683333333","6500100","板橋區"
"220081","287-VK","2018/07/13 19:29:26","新北市板橋區南雅南路一段102號","121.454958333333","25.004525","6500100","板橋區"
"220090","288-VK","2018/07/13 19:29:25","新北市板橋區長江路一段106巷20弄12號","121.46008","25.02837","6500100","板橋區"
"220061","293-UM","2018/07/13 19:29:19","新北市板橋區中山路二段185號","121.476098333333","25.017125","6500100","板橋區"
"220084","296-UM","2018/07/13 19:29:27","新北市板橋區滿平街84巷100弄1號","121.426446666667","24.9864933333333","6500100","板橋區"
"220075","303-R5","2018/07/13 19:29:18","新北市板橋區中正路253巷76號","121.452578333333","25.0172483333333","6500100","板橋區"
"220062","305-R5","2018/07/13 19:29:24","新北市板橋區三民路二段81巷26號","121.480513333333","25.0165916666667","6500100","板橋區"
"220092","307-R5","2018/07/13 19:29:21","新北市板橋區光武街2巷19號","121.468335","25.0254016666667","6500100","板橋區"
"220098","317-R6","2018/07/13 19:29:28","新北市板橋區民生路三段281巷1號","121.463658333333","25.0298983333333","6500100","板橋區"
"220064","486-VK","2018/07/13 19:29:26","新北市板橋區中山路一段65號","121.461163333333","25.00962","6500100","板橋區"
"220088","491-VK","2018/07/13 19:29:24","新北市板橋區文化路二段410巷2號","121.474005","25.0315283333333","6500100","板橋區"
"220035","560-BX","2018/07/13 19:29:31","新北市板橋區中正路330號","121.454461666667","25.0216066666667","6500100","板橋區"
"220103","561-BX","2018/07/13 19:29:26","新北市板橋區文化路一段266號","121.466886666667","25.02078","6500100","板橋區"
"220079","568-UM","2018/07/13 19:29:27","新北市板橋區復興街28號","121.458081666667","25.01738","6500100","板橋區"
"220063","609-BX","2018/07/13 19:29:23","新北市板橋區三民路一段31巷89弄2號","121.481538333333","25.0234083333333","6500100","板橋區"
"220057","686-BX","2018/07/13 19:29:24","新北市板橋區和平路96號","121.46188","24.994715","6500100","板橋區"
"220093","689-BX","2018/07/13 19:29:22","新北市板橋區英士路49-1號","121.461098333333","25.0245833333333","6500100","板橋區"
"220054","741-BX","2018/07/13 19:29:27","新北市板橋區忠孝路235號","121.465951666667","25.0027683333333","6500100","板橋區"
"220102","KEA-2699","2018/07/13 19:29:28","新北市板橋區雙十路二段116號","121.474458333333","25.0289616666667","6500100","板橋區"
"220077","806-UM","2018/07/13 19:29:27","新北市板橋區僑中三街17號","121.446175","25.0045833333333","6500100","板橋區"
"220055","827-TW","2018/07/13 19:29:17","新北市板橋區國慶路221號","121.463033333333","24.99891","6500100","板橋區"
"220067","829-TW","2018/07/13 19:29:24","新北市板橋區漢生東路313巷2弄1號","121.472248333333","25.0082416666667","6500100","板橋區"
"220096","830-TW","2018/07/13 19:29:21","新北市板橋區萬板路141號","121.473508333333","25.0235233333333","6500100","板橋區"
"220089","833-TW","2018/07/13 19:29:11","新北市板橋區漢生西路89巷5弄7號","121.460778333333","25.0196666666667","6500100","板橋區"
"220074","895-R6","2018/07/13 19:29:18","新北市板橋區倉後街1-2號","121.455628333333","25.0088733333333","6500100","板橋區"
"220073","985-R7","2018/07/13 19:29:27","新北市板橋區國光路35號","121.457365","25.0177233333333","6500100","板橋區"
"220097","AAC-210","2018/07/13 19:29:18","新北市板橋區漢生西路131號","121.462898333333","25.0214066666667","6500100","板橋區"
"220070","AAC-253","2018/07/13 19:29:19","新北市板橋區四川路一段10巷2號","121.459345","25.006675","6500100","板橋區"
"235068","KEA-2873","2018/07/13 19:29:24","新北市中和區景平路493-5號","121.500043333333","24.99792","6500300","中和區"
"235061","KEA-2875","2018/07/13 19:29:15","新北市中和區民利街56號","121.479163333333","24.998645","6500300","中和區"
