"lineid","car","time","location","longitude","latitude","cityid","cityname"
"234046","148-BY","2018/07/13 19:49:27","新北市永和區永利路248號","121.524208333333","25.002905","6500400","永和區"
"234007","207-UY","2018/07/13 19:49:24","新北市中和區中和路265號","121.505451666667","24.9997616666667","6500400","永和區"
"234081","298-R6","2018/07/13 19:49:11","新北市永和區永亨路98號","121.523066666667","25.0048866666667","6500400","永和區"
"234038","336-UY","2018/07/13 19:49:26","新北市永和區民樂街59巷7號","121.528041666667","24.9984216666667","6500400","永和區"
"234064","337-UY","2018/07/13 19:49:22","新北市永和區中正路368巷18號","121.518408333333","25.0007566666667","6500400","永和區"
"234070","552-UM","2018/07/13 19:49:28","新北市永和區竹林路81號","121.519515","25.012585","6500400","永和區"
"234086","553-UM","2018/07/13 19:49:30","新北市永和區中正路469號","121.517088333333","25.0061066666667","6500400","永和區"
"234017","745-BX","2018/07/13 19:49:16","新北市永和區永和路二段299號","121.51602","25.0161983333333","6500400","永和區"
"234030","746-BX","2018/07/13 19:49:14","新北市永和區民生路67巷29號","121.524283333333","24.9973133333333","6500400","永和區"
"234054","KEA-2590","2018/07/13 19:49:31","新北市永和區竹林路66巷15-8號","121.51848","25.0132583333333","6500400","永和區"
"234013","KEA-2591","2018/07/13 19:49:24","新北市永和區永平路308號","121.507158333333","25.0124916666667","6500400","永和區"
"234061","AAD-866","2018/07/13 19:49:13","新北市永和區中正路164號","121.515105","24.99666","6500400","永和區"
"234042","862-TW","2018/07/13 19:49:13","新北市永和區中和路389巷13號","121.508075","25.0010216666667","6500400","永和區"
"234050","863-TW","2018/07/13 19:49:29","新北市永和區文化路208號","121.510275","25.0165983333333","6500400","永和區"
"234026","9371-KE","2018/07/13 19:49:17","新北市永和區雙和街25巷7號","121.50889","25.0018516666667","6500400","永和區"
"234011","9373-KE","2018/07/13 19:49:19","新北市永和區仁愛路352巷112弄7號","121.500815","25.0084383333333","6500400","永和區"
"249001","173-UM","2018/07/13 19:49:15","新北市八里區中華路二段252號","121.405425","25.1496716666667","6502300","八里區"
"249004","303-UY","2018/07/13 19:49:24","新北市八里區仁愛路19號","121.41337","25.1609066666667","6502300","八里區"
"249002","305-UY","2018/07/13 19:49:31","新北市八里區頂寮五街17號","121.451405","25.1261","6502300","八里區"
"249003","593-UM","2018/07/13 19:49:21","新北市八里區中華路二段560巷17號","121.39843","25.1452016666667","6502300","八里區"
"248016","026-BX","2018/07/13 19:49:22","新北市五股區成泰路四段18-2號","121.453648333333","25.1066866666667","6501500","五股區"
"248008","095-VK","2018/07/13 19:49:27","新北市五股區四維路140號","121.468128333333","25.075345","6501500","五股區"
"248018","225-UY","2018/07/13 19:49:22","新北市五股區外寮路1-2號","121.427848333333","25.0770316666667","6501500","五股區"
"248012","247-BX","2018/07/13 19:49:23","新北市五股區蓬萊路24號","121.433878333333","25.0799133333333","6501500","五股區"
"248014","261-SL","2018/07/13 19:49:27","新北市五股區五福路32巷9號","121.434506666667","25.08941","6501500","五股區"
"248010","272-BY","2018/07/13 19:49:32","新北市五股區登林路貿商巷5弄5號","121.429476666667","25.0702033333333","6501500","五股區"
"248004","677-BX","2018/07/13 19:49:29","新北市五股區成泰路一段114號","121.43557","25.0731233333333","6501500","五股區"
"248002","678-BX","2018/07/13 19:49:15","新北市五股區成泰路四段14號","121.453326666667","25.10685","6501500","五股區"
"234077","969-R7","2018/07/13 19:49:28","新北市永和區民族街61號","121.518431666667","24.997895","6500400","永和區"
"234074","AAC-211","2018/07/13 19:49:30","新北市永和區竹林路179巷40號","121.522198333333","25.010175","6500400","永和區"
"234067","AAC-212","2018/07/13 19:49:24","新北市永和區永貞路353號","121.509061666667","25.0074783333333","6500400","永和區"
"234003","AAC-295","2018/07/13 19:49:31","新北市永和區福和路345號","121.515431666667","25.007215","6500400","永和區"
"243010","267-VK","2018/07/13 19:49:27","新北市泰山區民生路33號","121.430655","25.0522066666667","6501600","泰山區"
"243013","AAD-798","2018/07/13 19:49:21","新北市泰山區應化街7號","121.423851666667","25.04373","6501600","泰山區"
"243009","297-R6","2018/07/13 19:49:17","新北市泰山區美寧街64號","121.430991666667","25.06463","6501600","泰山區"
"243016","380-SR","2018/07/13 19:48:11","新北市泰山區新北大道七段93號","121.418003333333","25.0319666666667","6501600","泰山區"
"243015","421-VK","2018/07/13 19:49:16","新北市泰山區明志路二段214巷9號","121.426746666667","25.0489016666667","6501600","泰山區"
"243011","KEA-2215","2018/07/13 19:49:21","新北市泰山區明志路三段196巷21弄25號","121.422566666667","25.0382083333333","6501600","泰山區"
"243012","646-TV","2018/07/13 19:49:14","新北市泰山區全興路18巷1號","121.432093333333","25.0589083333333","6501600","泰山區"
"243014","680-BX","2018/07/13 19:49:20","新北市泰山區泰林路二段33-7號","121.43519","25.0563783333333","6501600","泰山區"
"222002","016-RS","2018/07/13 19:49:27","新北市深坑區北深路一段361號","121.622486666667","25.0049966666667","6501800","深坑區"
"222003","436-BY","2018/07/13 19:49:27","新北市深坑區深南路51-1號","121.621333333333","25.0097733333333","6501800","深坑區"
"231041","002-UM","2018/07/13 19:49:13","新北市新店區中央路216號","121.52994","24.9732666666667","6500600","新店區"
"231059","046-UY","2018/07/13 19:49:25","新北市新店區安和路二段175號","121.518428333333","24.9745433333333","6500600","新店區"
"231040","047-UY","2018/07/13 19:49:21","新北市新店區中正路75巷71號","121.543116666667","24.9689266666667","6500600","新店區"
"231044","106-UY","2018/07/13 19:49:12","新北市新店區復興路97號","121.534743333333","24.9878266666667","6500600","新店區"
"231046","107-UY","2018/07/13 19:49:33","新北市新店區三民路159巷19弄46號","121.53217","24.973235","6500600","新店區"
"231065","110-UY","2018/07/13 19:49:17","新北市新店區安祥路109巷151弄10號","121.478246666667","24.9588983333333","6500600","新店區"
"231048","187-VK","2018/07/13 19:49:27","新北市新店區寶興路64巷2號","121.550473333333","24.971705","6500600","新店區"
"231054","KEA-2219","2018/07/13 19:49:30","新北市新店區光明街101號","121.539041666667","24.9611916666667","6500600","新店區"
"231057","256-BX","2018/07/13 19:49:30","新北市新店區花園二路三段17號","121.556178333333","24.9314583333333","6500600","新店區"
"231042","268-BY","2018/07/13 19:48:43","新北市新店區中興路一段269號","121.54487","24.9680516666667","6500600","新店區"
"231051","278-BY","2018/07/13 19:49:17","新北市新店區中央三街48號","121.52754","24.9745683333333","6500600","新店區"
"231050","AAD-862","2018/07/13 19:47:58","新北市新店區北宜路二段579巷2號","121.565433333333","24.9541466666667","6500600","新店區"
"231058","3713-VJ","2018/07/13 19:49:11","新北市新店區光華街38巷5號","121.515603333333","24.96993","6500600","新店區"
"231066","4716-K9","2018/07/13 19:49:27","新北市新店區安康路二段341巷12號","121.496453333333","24.9548283333333","6500600","新店區"
"231056","4715-K9","2018/07/13 19:49:31","新北市新店區民權路72號","121.53812","24.983135","6500600","新店區"
"231067","4772-VM","2018/07/13 19:49:14","新北市新店區精忠路10-1號","121.532656666667","24.9590483333333","6500600","新店區"
"231049","513-UM","2018/07/13 19:49:27","新北市新店區民權路127巷7號","121.535498333333","24.9818666666667","6500600","新店區"
"231063","616-UM","2018/07/13 19:49:15","新北市新店區車子路11號","121.503028333333","24.9519966666667","6500600","新店區"
"231045","617-UM","2018/07/13 19:49:20","新北市新店區中生路66號","121.564591666667","24.9526866666667","6500600","新店區"
"231061","619-UM","2018/07/13 19:49:26","新北市新店區安民街189-6號","121.517008333333","24.9713833333333","6500600","新店區"
"231068","718-UY","2018/07/13 19:49:31","新北市新店區安華路28-1號","121.519265","24.9608833333333","6500600","新店區"
"231064","719-UM","2018/07/13 19:49:28","新北市新店區安和路二段117巷10號","121.518368333333","24.9702116666667","6500600","新店區"
"231053","719-UY","2018/07/13 19:49:17","新北市新店區新烏路二段376號","121.551053333333","24.9096683333333","6500600","新店區"
"231062","720-UM","2018/07/13 19:49:11","新北市新店區華潭街24號","121.529161666667","24.9531733333333","6500600","新店區"
"231060","897-TW","2018/07/13 19:49:26","新北市新店區安康路二段308-1號","121.507126666667","24.9582566666667","6500600","新店區"
"231043","899-TW","2018/07/13 19:49:24","新北市新店區中正路263-1號","121.53849","24.9737233333333","6500600","新店區"
"231055","AKT-0513","2018/07/13 19:49:24","新北市新店區力行路12號","121.539408333333","24.96462","6500600","新店區"
"241011","013-R5","2018/07/13 19:49:30","新北市三重區三和路二段173巷43號","121.499286666667","25.070105","6500200","三重區"
"241028","022-UY","2018/07/13 19:49:15","新北市三重區中正南路117號","121.494036666667","25.0573266666667","6500200","三重區"
"241008","059-VK","2018/07/13 19:49:18","新北市三重區永福街101號","121.47935","25.0773766666667","6500200","三重區"
"241022","060-VK","2018/07/13 19:49:26","新北市三重區新北大道一段7號","121.489788333333","25.0615216666667","6500200","三重區"
"241031","061-VK","2018/07/13 19:49:31","新北市三重區重新路四段246號","121.48572","25.0535083333333","6500200","三重區"
"241015","062-VK","2018/07/13 19:49:14","新北市三重區重新路一段1號","121.503723333333","25.0642666666667","6500200","三重區"
"241017","063-VK","2018/07/13 19:49:16","新北市三重區重陽路三段27巷1號","121.489635","25.0665466666667","6500200","三重區"
"241026","066-VK","2018/07/13 19:49:31","新北市三重區中央南路49號","121.501385","25.0618516666667","6500200","三重區"
"241003","091-VK","2018/07/13 19:49:23","新北市三重區仁愛街445巷65號","121.491553333333","25.08339","6500200","三重區"
"241016","266-UM","2018/07/13 19:49:20","新北市三重區正德街43號","121.495751666667","25.0627083333333","6500200","三重區"
"241009","267-UM","2018/07/13 19:49:16","新北市三重區三和路四段396巷20號","121.480426666667","25.0789166666667","6500200","三重區"
"241018","268-UM","2018/07/13 19:49:13","新北市三重區雙園街57巷32號","121.494388333333","25.068375","6500200","三重區"
"241013","270-UM","2018/07/13 19:49:26","新北市三重區仁愛街102巷8號","121.494825","25.07399","6500200","三重區"
"241007","398-BY","2018/07/13 19:49:18","新北市三重區三和路四段135巷1號","121.484883333333","25.0779933333333","6500200","三重區"
"241035","KEA-2210","2018/07/13 19:49:32","新北市三重區文化北路25號","121.499625","25.06375","6500200","三重區"
"241025","413-TH","2018/07/13 19:49:26","新北市三重區忠孝路三段52號","121.480645","25.0656","6500200","三重區"
"241004","475-VK","2018/07/13 19:49:23","新北市三重區五華街74號","121.49338","25.0820533333333","6500200","三重區"
"241020","478-VK","2018/07/13 19:49:29","新北市三重區三和路四段12號","121.491503333333","25.0739583333333","6500200","三重區"
"241030","480-VK","2018/07/13 19:49:28","新北市三重區成功路97號","121.487871666667","25.0516833333333","6500200","三重區"
"241014","543-UM","2018/07/13 19:49:27","新北市三重區三和路二段37-8號","121.501255","25.06754","6500200","三重區"
"241019","KEA-2593","2018/07/13 19:49:21","新北市三重區自強路二段74巷7號","121.488191666667","25.0700716666667","6500200","三重區"
"241006","AAD-863","2018/07/13 19:49:26","新北市三重區力行路二段76巷1弄2號","121.481546666667","25.0736416666667","6500200","三重區"
"241023","887-TS","2018/07/13 19:49:16","新北市三重區大有街1-9號","121.477548333333","25.0659966666667","6500200","三重區"
"241012","941-UM","2018/07/13 19:49:27","新北市三重區仁興街56巷46號","121.498086666667","25.075395","6500200","三重區"
"241029","942-UM","2018/07/13 19:49:25","新北市三重區光明路27號","121.491253333333","25.0585016666667","6500200","三重區"
"241033","AAC-255","2018/07/13 19:49:25","新北市三重區中興南街66號","121.470661666667","25.044","6500200","三重區"
"235066","003-UY","2018/07/13 19:49:21","新北市中和區南工路56號","121.505988333333","25.001655","6500300","中和區"
"235063","006-UY","2018/07/13 19:49:25","新北市中和區連城路263巷27弄2號","121.492786666667","24.99461","6500300","中和區"
"235045","031-BX","2018/07/13 19:49:32","新北市中和區景平路404號","121.509041666667","24.9931133333333","6500300","中和區"
"235056","096-UM","2018/07/13 19:49:20","新北市中和區中山路三段136巷10弄14號","121.474151666667","25.0075383333333","6500300","中和區"
"235039","097-UM","2018/07/13 19:49:16","新北市中和區大勇街25巷17號","121.515725","24.9936466666667","6500300","中和區"
"235065","098-UM","2018/07/13 19:49:13","新北市中和區莊敬路33巷3弄8號","121.499581666667","25.0061566666667","6500300","中和區"
"235040","150-BY","2018/07/13 19:49:25","新北市中和區安和路39號","121.509676666667","24.9948416666667","6500300","中和區"
"235058","151-BY","2018/07/13 19:49:12","新北市中和區員山路187號","121.48124","24.997215","6500300","中和區"
"235055","183-VK","2018/07/13 19:49:29","新北市中和區民生街35巷1弄2號","121.47038","25.0051166666667","6500300","中和區"
"235038","185-VK","2018/07/13 19:49:26","新北市永和區民族街81巷62號","121.520396666667","24.9962883333333","6500300","中和區"
"235049","186-VK","2018/07/13 19:49:24","新北市中和區中興街30號","121.500833333333","24.9948066666667","6500300","中和區"
"235067","255-BX","2018/07/13 19:49:16","新北市中和區新生街184號","121.483675","24.9997333333333","6500300","中和區"
"235044","293-VK","2018/07/13 19:49:23","新北市中和區南山路235號","121.503618333333","24.9931583333333","6500300","中和區"
"235072","301-VK","2018/07/13 19:49:17","新北市中和區連城路281巷2弄13號","121.490233333333","24.9957333333333","6500300","中和區"
"235043","352-BY","2018/07/13 19:49:17","新北市中和區華新街230號","121.506101666667","24.9816916666667","6500300","中和區"
"235042","KEA-2878","2018/07/13 19:49:13","新北市中和區宜安路169號","121.508576666667","24.999205","6500300","中和區"
"247010","KEA-2869","2018/07/13 19:49:25","新北市蘆洲區中正路520巷9號","121.46219","25.0993733333333","6501400","蘆洲區"
"235050","4979-A6","2018/07/13 19:49:16","新北市中和區景平路241巷82弄31號","121.506608333333","24.992365","6500300","中和區"
"235070","558-UM","2018/07/13 19:49:21","新北市中和區景平路485號","121.500273333333","24.997605","6500300","中和區"
"235054","640-BX","2018/07/13 19:49:21","新北市中和區莒光路151號","121.472763333333","25.0010716666667","6500300","中和區"
"235060","647-TV","2018/07/13 19:49:15","新北市中和區員山路352號","121.481033333333","25.0035816666667","6500300","中和區"
"235047","732-UM","2018/07/13 19:49:24","新北市中和區興南路一段86號","121.509901666667","24.9894066666667","6500300","中和區"
"235046","733-UM","2018/07/13 19:49:17","新北市中和區仁愛街47號","121.51115","24.9882316666667","6500300","中和區"
"235057","801-TS","2018/07/13 19:49:28","新北市中和區新生街163號","121.483731666667","25.001235","6500300","中和區"
"235041","802-TS","2018/07/13 19:49:19","新北市中和區永貞路239巷20號","121.51255","25.00316","6500300","中和區"
"235052","805-TS","2018/07/13 19:49:30","新北市中和區華新街30巷14號","121.506891666667","24.9843316666667","6500300","中和區"
"235048","896-TW","2018/07/13 19:49:29","新北市中和區興南路二段16號","121.507621666667","24.9859183333333","6500300","中和區"
"235053","900-TW","2018/07/13 19:49:15","新北市中和區國光街176號","121.467381666667","25.0017516666667","6500300","中和區"
"235051","157-BY","2018/07/13 19:49:17","新北市中和區中興街178號","121.499698333333","24.9910666666667","6500300","中和區"
"235037","AAC-213","2018/07/13 19:49:18","新北市中和區秀朗路三段173-2號","121.52443","24.99149","6500300","中和區"
"235059","AAC-215","2018/07/13 19:49:17","新北市中和區圓通路305巷27弄1號","121.494971666667","24.9891466666667","6500300","中和區"
"220068","013-TV","2018/07/13 19:49:23","新北市板橋區中山路二段412巷16-1號","121.483308333333","25.02025","6500100","板橋區"
"220080","015-TV","2018/07/13 19:49:28","新北市板橋區大觀路二段163巷17號","121.446386666667","25.00024","6500100","板橋區"
"220065","072-UY","2018/07/13 19:49:29","新北市板橋區民族路231號","121.4698","25.0071233333333","6500100","板橋區"
"220106","075-UY","2018/07/13 19:49:27","新北市板橋區文化路二段608巷56號","121.479718333333","25.0344366666667","6500100","板橋區"
"220069","AAD-861","2018/07/13 19:49:28","新北市板橋區貴興路119巷1弄1號","121.455716666667","25.0022133333333","6500100","板橋區"
"247014","546-UM","2018/07/13 19:49:18","新北市蘆洲區中央路99號","121.472431666667","25.084095","6501400","蘆洲區"
"247004","337-TH","2018/07/13 19:49:27","新北市蘆洲區中原路71號","121.45851","25.0819233333333","6501400","蘆洲區"
"247006","336-TH","2018/07/13 19:49:31","新北市蘆洲區永安南路二段26號","121.467235","25.0769533333333","6501400","蘆洲區"
"247008","053-VK","2018/07/13 19:49:20","新北市蘆洲區中山一路1號","121.478468333333","25.0800733333333","6501400","蘆洲區"
"247002","002-UY","2018/07/13 19:49:20","新北市蘆洲區永平街24號","121.458998333333","25.09079","6501400","蘆洲區"
"226004","205-ST","2018/07/13 19:49:15","新北市平溪區靜安路三段392巷3號","121.784376666667","25.0495416666667","6502400","平溪區"
"228001","670-TC","2018/07/13 19:49:21","新北市貢寮區真理里新港街95號","121.926698333333","25.05673","6502600","貢寮區"
"228003","828-UM","2018/07/13 19:49:27","新北市貢寮區真理里美艷山街3-1號","121.925686666667","25.0595966666667","6502600","貢寮區"
"224010","AGQ-8101","2018/07/13 19:48:50","新北市瑞芳區基山街4號","121.84513","25.10976","6501200","瑞芳區"
"224002","639-TC","2018/07/13 19:49:30","新北市瑞芳區員山子路員山巷10號","121.817691666667","25.1040533333333","6501200","瑞芳區"
"227011","642-TC","2018/07/13 19:49:31","新北市雙溪區新基里中華路90號","121.866066666667","25.0390233333333","6502500","雙溪區"
"227003","400-TW","2018/07/13 19:49:18","新北市雙溪區雙溪里內挖路36號","121.86319","25.0367966666667","6502500","雙溪區"
"222001","KEA-2212","2018/07/13 19:49:28","新北市深坑區北深路三段112號","121.606721666667","25.0015833333333","6501800","深坑區"
"208002","KEA-2872","2018/07/13 19:49:33","新北市金山區中華路271號","121.63337","25.2247766666667","6502700","金山區"
"208003","665-BX","2018/07/13 19:49:16","新北市金山區清泉里清水路30號","121.62997","25.2305133333333","6502700","金山區"
"208001","761-BX","2018/07/13 19:49:20","新北市金山區重和里六股林口47號","121.602293333333","25.2195183333333","6502700","金山區"
"251002","012-UM","2018/07/13 19:49:19","新北市淡水區崁頂75-2號","121.4357","25.2038","6501000","淡水區"
"251008","181-VK","2018/07/13 19:49:26","新北市淡水區中正路一段24巷9號","121.426583333333","25.1770733333333","6501000","淡水區"
"251010","413-VK","2018/07/13 19:49:13","新北市淡水區下圭柔山91-4號","121.429943333333","25.2089833333333","6501000","淡水區"
"251012","441-VK","2018/07/13 19:49:32","新北市淡水區淡金路三段70巷1號","121.448295","25.200385","6501000","淡水區"
"251007","442-VK","2018/07/13 19:49:23","新北市淡水區竿蓁一街51巷5號","121.452568333333","25.1663316666667","6501000","淡水區"
"251005","443-VK","2018/07/13 19:49:16","新北市淡水區中正東路49號","121.446455","25.1675333333333","6501000","淡水區"
"251001","559-UM","2018/07/13 19:49:13","新北市淡水區坪頂路27號","121.456328333333","25.1620433333333","6501000","淡水區"
"251006","561-UM","2018/07/13 19:49:29","新北市淡水區水碓街15號","121.443466666667","25.1769616666667","6501000","淡水區"
"251009","575-R6","2018/07/13 19:49:17","新北市淡水區中正路32號","121.44383","25.16918","6501000","淡水區"
"251011","650-BX","2018/07/13 19:49:21","新北市淡水區淡金路二段38號","121.451508333333","25.18182","6501000","淡水區"
"251003","673-BX","2018/07/13 19:49:16","新北市淡水區中山北路三段131號","121.444963333333","25.1956483333333","6501000","淡水區"
"207003","550-UM","2018/07/13 19:49:17","新北市萬里區大鵬里萬里加投46號","121.642066666667","25.2118833333333","6502800","萬里區"
"207004","225-TW","2018/07/13 19:49:13","新北市萬里區萬里里瑪鋉路207號","121.690316666667","25.17937","6502800","萬里區"
"252002","178-VK","2018/07/13 19:49:26","新北市三芝區三民街33-1號","121.504646666667","25.2585466666667","6502100","三芝區"
"252001","292-VK","2018/07/13 19:49:22","新北市三芝區公正街9號","121.499761666667","25.2575016666667","6502100","三芝區"
"237004","KEA-2597","2018/07/13 19:49:10","新北市三峽區金敏5號","121.385583333333","24.8750916666667","6500900","三峽區"
"237007","153-BY","2018/07/13 19:49:29","新北市三峽區二鬮路108號","121.36073","24.90913","6500900","三峽區"
"237009","210-TH","2018/07/13 19:49:19","新北市三峽區清水街435號","121.36846","24.9255166666667","6500900","三峽區"
"237013","252-BX","2018/07/13 19:49:20","新北市三峽區溪北街61號","121.397293333333","24.935865","6500900","三峽區"
"237012","275-BY","2018/07/13 19:49:25","新北市三峽區光明路1-12號","121.372785","24.932185","6500900","三峽區"
"237008","302-VK","2018/07/13 19:49:13","新北市三峽區中正路一段108巷28號","121.373373333333","24.9303466666667","6500900","三峽區"
"237014","433-BY","2018/07/13 19:49:31","新北市三峽區添福59-1號","121.374873333333","24.9034983333333","6500900","三峽區"
"237006","5529-G3","2018/07/13 19:49:18","新北市三峽區中正路一段336巷15弄2號","121.370426666667","24.9248516666667","6500900","三峽區"
"237015","649-BX","2018/07/13 19:49:21","新北市三峽區介壽路三段13號","121.395743333333","24.9364","6500900","三峽區"
"237005","AKY-6261","2018/07/13 19:49:20","新北市三峽區長泰街47號","121.377575","24.93266","6500900","三峽區"
"236069","105-UM","2018/07/13 19:49:12","新北市土城區水源街32巷12號","121.441143333333","24.9758733333333","6501300","土城區"
"236079","166-UM","2018/07/13 19:49:20","新北市土城區龍泉路347號","121.409396666667","24.950405","6501300","土城區"
"236030","253-BX","2018/07/13 19:49:10","新北市土城區中央路一段294號","121.4433","24.9823916666667","6501300","土城區"
"236026","269-VK","2018/07/13 19:49:31","新北市土城區中央路二段61巷26號","121.443313333333","24.9786983333333","6501300","土城區"
"236039","271-VK","2018/07/13 19:49:21","新北市土城區國際路158巷24弄2號","121.468471666667","24.9759466666667","6501300","土城區"
"236020","401-BY","2018/07/13 19:49:22","新北市土城區延吉街137巷2弄24號","121.469991666667","24.985725","6501300","土城區"
"236042","752-BX","2018/07/13 19:49:22","新北市土城區裕民路259巷12號","121.455033333333","24.983405","6501300","土城區"
"236059","912-UM","2018/07/13 19:49:14","新北市土城區中央路一段164號","121.44588","24.986985","6501300","土城區"
"236048","913-UM","2018/07/13 19:49:22","新北市土城區金城路二段316號","121.459116666667","24.98438","6501300","土城區"
"236063","915-UM","2018/07/13 19:49:28","新北市土城區延和路146巷15號","121.46831","24.9894883333333","6501300","土城區"
"236055","AAC-216","2018/07/13 19:49:28","新北市土城區延和路59號","121.466711666667","24.9897366666667","6501300","土城區"
"242034","AAC-296","2018/07/13 19:49:31","新北市新莊區仁愛街54巷1號","121.444886666667","25.037265","6500500","新莊區"
"242058","986-R7","2018/07/13 19:49:30","新北市新莊區新樹路52號","121.437338333333","25.02671","6500500","新莊區"
"242023","705-TV","2018/07/13 19:49:17","新北市新莊區化成路61號","121.465531666667","25.0457616666667","6500500","新莊區"
"242029","612-BX","2018/07/13 19:49:23","新北市新莊區中平路254號","121.444951666667","25.04932","6500500","新莊區"
"242046","497-BY","2018/07/13 19:49:30","新北市新莊區瓊林南路42巷2-2號","121.436021666667","25.01822","6500500","新莊區"
"242039","442-UM","2018/07/13 19:49:17","新北市新莊區民安路299巷52號","121.429648333333","25.0238183333333","6500500","新莊區"
"242037","415-TV","2018/07/13 19:49:29","新北市新莊區建安街103號","121.426656666667","25.0241516666667","6500500","新莊區"
"242007","413-TV","2018/07/13 19:49:25","新北市新莊區思源路593巷6弄11號","121.458581666667","25.0598283333333","6500500","新莊區"
"242032","135-UY","2018/07/13 19:49:27","新北市新莊區忠孝街17號","121.44386","25.0350733333333","6500500","新莊區"
"242048","172-VK","2018/07/13 19:49:21","新北市新莊區建安街90-1號","121.426068333333","25.0240383333333","6500500","新莊區"
"242011","173-VK","2018/07/13 19:49:28","新北市新莊區中原路297號","121.44774","25.054305","6500500","新莊區"
"242017","175-VK","2018/07/13 19:49:20","新北市新莊區中華路一段101號","121.452698333333","25.0437416666667","6500500","新莊區"
"242005","176-VK","2018/07/13 19:49:29","新北市新莊區化成路63巷24弄13號","121.462736666667","25.046035","6500500","新莊區"
"242021","348-TH","2018/07/13 19:49:16","新北市新莊區建中街34號","121.44895","25.0374483333333","6500500","新莊區"
"242002","349-TH","2018/07/13 19:49:17","新北市新莊區環漢路二段16號","121.450076666667","25.03225","6500500","新莊區"
"242013","351-TH","2018/07/13 19:49:20","新北市新莊區中泰街38巷12號","121.45077","25.0473983333333","6500500","新莊區"
"238015","755-BX","2018/07/13 19:49:17","新北市樹林區中山路一段112號","121.423001666667","24.99071","6500700","樹林區"
"238023","601-UM","2018/07/13 19:49:14","新北市樹林區中正路286-1號","121.415891666667","25.00862","6500700","樹林區"
"238022","KEA-2213","2018/07/13 19:49:13","新北市樹林區中山路三段30號","121.395345","24.9727466666667","6500700","樹林區"
"238021","KEA-2539","2018/07/13 19:49:23","新北市樹林區佳園路三段101巷86-1號","121.395665","24.9497666666667","6500700","樹林區"
"221008","489-VK","2018/07/13 19:49:23","新北市汐止區康寧街65號","121.618683333333","25.06674","6501100","汐止區"
"221036","130-UY","2018/07/13 19:49:31","新北市汐止區汐萬路一段172號","121.652418333333","25.0717733333333","6501100","汐止區"
"221015","131-UY","2018/07/13 19:49:23","新北市汐止區忠孝東路431號","121.665875","25.0718766666667","6501100","汐止區"
"221010","269-BY","2018/07/13 19:49:19","新北市汐止區八連路一段46巷51號","121.646551666667","25.0814783333333","6501100","汐止區"
"221012","278-VK","2018/07/13 19:49:20","新北市汐止區大同路三段549號","121.681345","25.0715633333333","6501100","汐止區"
"221023","279-VK","2018/07/13 19:49:15","新北市汐止區民族六街5巷2號","121.629883333333","25.06978","6501100","汐止區"
"221032","280-BY","2018/07/13 19:49:16","新北市汐止區新台五路一段73號","121.645283333333","25.0603116666667","6501100","汐止區"
"221027","281-BY","2018/07/13 19:49:24","新北市汐止區大同路二段579號","121.663496666667","25.0701516666667","6501100","汐止區"
"221033","297-VK","2018/07/13 19:49:22","新北市汐止區東勢街76巷100-1號","121.636468333333","25.0389533333333","6501100","汐止區"
"221029","298-VK","2018/07/13 19:49:12","新北市汐止區康寧街901號","121.651448333333","25.07493","6501100","汐止區"
"221021","299-VK","2018/07/13 19:49:33","新北市汐止區莊敬街29巷9弄7號","121.657505","25.0609716666667","6501100","汐止區"
"221031","353-TW","2018/07/13 19:49:27","新北市汐止區福德三路127號","121.633715","25.0675","6501100","汐止區"
"221035","622-UM","2018/07/13 19:49:29","新北市汐止區長江街13巷6弄1號","121.654701666667","25.0716733333333","6501100","汐止區"
"221025","623-UM","2018/07/13 19:49:25","新北市汐止區秀峰路81巷28號","121.66112","25.06451","6501100","汐止區"
"221038","646-BX","2018/07/13 19:49:27","新北市汐止區忠孝東路333號","121.665188333333","25.0698","6501100","汐止區"
"221002","707-TV","2018/07/13 19:49:26","新北市汐止區大同路一段219巷27號","121.633255","25.0583633333333","6501100","汐止區"
"221018","753-BX","2018/07/13 19:49:15","新北市汐止區大同路二段524號","121.661116666667","25.0684716666667","6501100","汐止區"
"220082","610-BX","2018/07/13 19:49:28","新北市板橋區篤行路二段104號","121.431165","24.99135","6500100","板橋區"
"220101","245-BX","2018/07/13 19:49:23","新北市板橋區縣民大道三段79巷14號","121.475193333333","25.0221516666667","6500100","板橋區"
"220091","267-BY","2018/07/13 19:49:15","新北市板橋區懷德街191巷26弄3號","121.48067","25.0296983333333","6500100","板橋區"
"220056","276-BY","2018/07/13 19:49:16","新北市板橋區四川路二段99巷5弄2號","121.452815","24.9943883333333","6500100","板橋區"
"220072","277-BY","2018/07/13 19:49:13","新北市板橋區篤行路二段73號","121.431753333333","24.9919266666667","6500100","板橋區"
"220071","283-VK","2018/07/13 19:49:05","新北市板橋區五權街30巷24弄33號","121.463563333333","24.9939266666667","6500100","板橋區"
"220094","285-UM","2018/07/13 19:49:30","新北市板橋區溪頭街2號","121.457418333333","25.0288983333333","6500100","板橋區"
"220053","285-VK","2018/07/13 19:49:15","新北市板橋區中山路二段60巷1弄25號","121.475076666667","25.0158716666667","6500100","板橋區"
"220083","286-VK","2018/07/13 19:49:26","新北市板橋區僑中二街8巷9號","121.446688333333","25.0112233333333","6500100","板橋區"
"220081","287-VK","2018/07/13 19:49:26","新北市板橋區大觀路一段29巷179弄32號","121.450073333333","25.0041883333333","6500100","板橋區"
"220090","288-VK","2018/07/13 19:49:25","新北市板橋區龍泉街54巷8弄10號","121.45734","25.02686","6500100","板橋區"
"220061","293-UM","2018/07/13 19:49:19","新北市板橋區中山路一段283巷2弄19號","121.470536666667","25.0151066666667","6500100","板橋區"
"220084","296-UM","2018/07/13 19:48:59","新北市板橋區滿平街2巷10號","121.425346666667","24.9894783333333","6500100","板橋區"
"242019","281-VK","2018/07/13 19:49:22","新北市新莊區公園路36號","121.448791666667","25.0392716666667","6500500","新莊區"
"220075","303-R5","2018/07/13 19:49:15","新北市板橋區金華街10巷48弄50號","121.458806666667","25.0200633333333","6500100","板橋區"
"220062","305-R5","2018/07/13 19:49:24","新北市板橋區光復街28號","121.481778333333","25.0187133333333","6500100","板橋區"
"220092","307-R5","2018/07/13 19:49:21","新北市板橋區四維路259巷13號","121.462708333333","25.0277533333333","6500100","板橋區"
"220098","317-R6","2018/07/13 19:49:28","新北市板橋區新海路385巷12號","121.458503333333","25.0258066666667","6500100","板橋區"
"220064","486-VK","2018/07/13 19:49:26","新北市板橋區公園街16號","121.462933333333","25.0090083333333","6500100","板橋區"
"220088","491-VK","2018/07/13 19:49:19","新北市板橋區文聖街147號","121.478491666667","25.028095","6500100","板橋區"
"220035","560-BX","2018/07/13 19:49:11","新北市板橋區金華街7號","121.455786666667","25.0202983333333","6500100","板橋區"
"220103","561-BX","2018/07/13 19:49:26","新北市板橋區陽明街29巷3號","121.465203333333","25.0216816666667","6500100","板橋區"
"220079","568-UM","2018/07/13 19:49:28","新北市板橋區中正路135巷12弄6號","121.455715","25.0158883333333","6500100","板橋區"
"220063","609-BX","2018/07/13 19:49:23","新北市板橋區三民路一段3巷2號","121.479005","25.0234866666667","6500100","板橋區"
"220057","686-BX","2018/07/13 19:49:28","新北市板橋區信義路15號","121.456981666667","24.9968066666667","6500100","板橋區"
"220093","689-BX","2018/07/13 19:49:22","新北市板橋區長江路二段299號","121.470678333333","25.0331516666667","6500100","板橋區"
"220054","741-BX","2018/07/13 19:49:22","新北市板橋區實踐路93巷50號","121.46586","25.0050966666667","6500100","板橋區"
"220102","KEA-2699","2018/07/13 19:49:26","新北市板橋區松柏街40號","121.47536","25.030155","6500100","板橋區"
"220077","806-UM","2018/07/13 19:49:27","新北市板橋區僑中一街124巷19弄2號","121.446171666667","25.0142066666667","6500100","板橋區"
"220055","827-TW","2018/07/13 19:49:30","新北市板橋區國慶路149巷37弄3號","121.460785","24.9979533333333","6500100","板橋區"
"220067","829-TW","2018/07/13 19:49:23","新北市板橋區長安街138巷1弄294號","121.474908333333","25.0112366666667","6500100","板橋區"
"220096","830-TW","2018/07/13 19:49:21","新北市板橋區文化路二段124巷34弄12號","121.470931666667","25.0254266666667","6500100","板橋區"
"220089","833-TW","2018/07/13 19:49:30","新北市板橋區龍泉街55巷36號","121.457881666667","25.0248683333333","6500100","板橋區"
"220074","895-R6","2018/07/13 19:49:18","新北市板橋區縣民大道一段295號","121.46096","25.010445","6500100","板橋區"
"220073","985-R7","2018/07/13 19:49:27","新北市板橋區南雅西路二段271號","121.451881666667","25.0150933333333","6500100","板橋區"
"220097","AAC-210","2018/07/13 19:49:18","新北市板橋區文化路一段285巷1弄17號","121.46404","25.0187316666667","6500100","板橋區"
"220070","AAC-253","2018/07/13 19:49:19","新北市板橋區館前東路154號","121.464531666667","25.0079266666667","6500100","板橋區"
"235068","KEA-2873","2018/07/13 19:49:24","新北市中和區福美路269號","121.498193333333","25.0050316666667","6500300","中和區"
"235061","KEA-2875","2018/07/13 19:49:15","新北市中和區新生街148巷22號","121.482526666667","25.0007616666667","6500300","中和區"
