"lineid","car","time","location","longitude","latitude","cityid","cityname"
"234046","148-BY","2018/07/13 19:59:12","新北市永和區成功路一段89號","121.52685","25.002845","6500400","永和區"
"234007","207-UY","2018/07/13 19:59:25","新北市永和區中山路一段240號","121.507466666667","25.00783","6500400","永和區"
"234081","298-R6","2018/07/13 19:59:17","新北市永和區永亨路98號","121.522968333333","25.0046866666667","6500400","永和區"
"234038","336-UY","2018/07/13 19:59:26","新北市永和區成功路二段179-1號","121.526581666667","24.99662","6500400","永和區"
"234064","337-UY","2018/07/13 19:59:22","新北市永和區中正路412巷2弄11號","121.518518333333","25.0019283333333","6500400","永和區"
"234070","552-UM","2018/07/13 19:59:28","新北市永和區國光路39號","121.519156666667","25.0083183333333","6500400","永和區"
"234086","553-UM","2018/07/13 19:59:16","新北市永和區福和路10巷1號","121.524661666667","25.0086016666667","6500400","永和區"
"234017","745-BX","2018/07/13 19:59:16","新北市永和區文化路92號","121.513855","25.0151983333333","6500400","永和區"
"234030","746-BX","2018/07/13 19:59:14","新北市永和區民生路22巷7號","121.522018333333","24.9972366666667","6500400","永和區"
"234054","KEA-2590","2018/07/13 19:59:17","新北市永和區環河東路一段122號","121.52065","25.01548","6500400","永和區"
"234013","KEA-2591","2018/07/13 19:59:24","新北市永和區保生路55號","121.504678333333","25.0106033333333","6500400","永和區"
"234061","AAD-866","2018/07/13 19:59:13","新北市永和區中正路283巷40號","121.516658333333","25.0003916666667","6500400","永和區"
"234042","862-TW","2018/07/13 19:59:13","新北市永和區雙和街17巷16號","121.509003333333","25.0017016666667","6500400","永和區"
"234050","863-TW","2018/07/13 19:59:24","新北市永和區保安路145號","121.507065","25.0132783333333","6500400","永和區"
"234026","9371-KE","2018/07/13 19:59:29","新北市永和區水源街27巷9號","121.511318333333","25.003975","6500400","永和區"
"234011","9373-KE","2018/07/13 19:59:18","新北市永和區仁愛路352巷122弄11號","121.50063","25.0088333333333","6500400","永和區"
"249005","172-UM","2018/07/13 19:59:11","新北市八里區楓林路3-1號","121.382743333333","25.1300366666667","6502300","八里區"
"249001","173-UM","2018/07/13 19:59:15","新北市八里區中華路二段312號","121.40379","25.1483483333333","6502300","八里區"
"249004","303-UY","2018/07/13 19:59:24","新北市八里區中華路一段333-1號","121.41326","25.1538733333333","6502300","八里區"
"249002","305-UY","2018/07/13 19:59:11","新北市八里區頂寮一街20-1號","121.4518","25.1242983333333","6502300","八里區"
"249003","593-UM","2018/07/13 19:59:21","新北市八里區中華路二段560巷1號","121.398653333333","25.144965","6502300","八里區"
"248016","026-BX","2018/07/13 19:59:22","新北市五股區成泰路三段577巷80弄25號","121.449585","25.1046233333333","6501500","五股區"
"248008","095-VK","2018/07/13 19:59:27","新北市五股區四維路30巷17號","121.467993333333","25.0714983333333","6501500","五股區"
"248018","225-UY","2018/07/13 19:59:22","新北市五股區登林路118-11號","121.413568333333","25.0762383333333","6501500","五股區"
"248012","247-BX","2018/07/13 19:59:23","新北市五股區民義路一段84號","121.436025","25.08494","6501500","五股區"
"248014","261-SL","2018/07/13 19:59:17","新北市五股區五福路14巷22號","121.43535","25.0888283333333","6501500","五股區"
"248010","272-BY","2018/07/13 19:59:29","新北市五股區登林路36-3號","121.432755","25.0687816666667","6501500","五股區"
"248004","677-BX","2018/07/13 19:59:29","新北市五股區成泰路一段32巷48號","121.4347","25.0670966666667","6501500","五股區"
"248002","678-BX","2018/07/13 19:59:15","新北市五股區成泰路三段436號","121.450983333333","25.0996983333333","6501500","五股區"
"234077","969-R7","2018/07/13 19:59:28","新北市永和區民有街23巷1號","121.516845","24.9964116666667","6500400","永和區"
"234074","AAC-211","2018/07/13 19:59:30","新北市永和區豫溪街205號","121.523585","25.0096766666667","6500400","永和區"
"234067","AAC-212","2018/07/13 19:57:33","新北市永和區中山路一段238號","121.507313333333","25.0075983333333","6500400","永和區"
"234003","AAC-295","2018/07/13 19:59:20","新北市永和區中正路672號","121.516903333333","25.0091533333333","6500400","永和區"
"243010","267-VK","2018/07/13 19:59:27","新北市泰山區中華街19號","121.427538333333","25.052085","6501600","泰山區"
"243013","AAD-798","2018/07/13 19:59:21","新北市泰山區應化街7號","121.423851666667","25.0437316666667","6501600","泰山區"
"243009","297-R6","2018/07/13 19:59:17","新北市泰山區楓江路16巷7號","121.433936666667","25.0619916666667","6501600","泰山區"
"243016","380-SR","2018/07/13 19:59:11","新北市泰山區明志路三段470號","121.42097","25.03207","6501600","泰山區"
"243015","421-VK","2018/07/13 19:59:16","新北市泰山區明志路二段194號","121.427388333333","25.04965","6501600","泰山區"
"243011","KEA-2215","2018/07/13 19:59:21","新北市泰山區明志路三段196巷44號","121.421966666667","25.039785","6501600","泰山區"
"243012","646-TV","2018/07/13 19:59:14","新北市泰山區全興路25巷2號","121.432633333333","25.058595","6501600","泰山區"
"243014","680-BX","2018/07/13 19:59:26","新北市泰山區泰林路二段156號","121.433958333333","25.0602066666667","6501600","泰山區"
"222002","016-RS","2018/07/13 19:59:27","新北市深坑區北深路二段81巷8弄1號","121.618345","25.003035","6501800","深坑區"
"222003","436-BY","2018/07/13 19:59:27","新北市深坑區埔新街14號","121.62076","25.0039433333333","6501800","深坑區"
"231041","002-UM","2018/07/13 19:59:13","新北市新店區中正路356號","121.53572","24.9756283333333","6500600","新店區"
"231059","046-UY","2018/07/13 19:59:15","新北市新店區安和路一段15號","121.516888333333","24.96411","6500600","新店區"
"231040","047-UY","2018/07/13 19:59:20","新北市新店區中正路61號","121.544125","24.969985","6500600","新店區"
"231044","106-UY","2018/07/13 19:59:12","新北市新店區復興路30號","121.539191666667","24.9867716666667","6500600","新店區"
"231065","110-UY","2018/07/13 19:59:23","新北市新店區安祥路106巷6弄1號","121.479016666667","24.9625183333333","6500600","新店區"
"231048","187-VK","2018/07/13 19:59:23","新北市新店區寶宏路3-6號","121.54928","24.9762233333333","6500600","新店區"
"231054","KEA-2219","2018/07/13 19:59:13","新北市新店區光明街137號","121.539473333333","24.9620133333333","6500600","新店區"
"231057","256-BX","2018/07/13 19:59:09","新北市新店區花園二路一段11號","121.555486666667","24.9325266666667","6500600","新店區"
"231042","268-BY","2018/07/13 19:59:23","新北市新店區中興路一段292號","121.545871666667","24.969135","6500600","新店區"
"231051","278-BY","2018/07/13 19:59:18","新北市新店區中央五街7號","121.530018333333","24.9742916666667","6500600","新店區"
"231050","AAD-862","2018/07/13 19:59:18","新北市新店區北宜路一段192巷4-1號","121.542068333333","24.9529216666667","6500600","新店區"
"231066","4716-K9","2018/07/13 19:59:07","新北市新店區薏仁坑路自強巷1號","121.497286666667","24.957755","6500600","新店區"
"231056","4715-K9","2018/07/13 19:59:11","新北市新店區明德路26巷2號","121.542221666667","24.9777316666667","6500600","新店區"
"231067","4772-VM","2018/07/13 19:59:14","新北市新店區精忠路10-1號","121.532641666667","24.9590616666667","6500600","新店區"
"231049","513-UM","2018/07/13 19:59:27","新北市新店區明德路85號","121.541328333333","24.9783716666667","6500600","新店區"
"231063","616-UM","2018/07/13 19:59:15","新北市新店區車子路11號","121.502926666667","24.9515766666667","6500600","新店區"
"231045","617-UM","2018/07/13 19:59:20","新北市新店區北宜路二段151-1號","121.551853333333","24.9531916666667","6500600","新店區"
"231061","619-UM","2018/07/13 19:59:23","新北市新店區安民街344號","121.516986666667","24.9754333333333","6500600","新店區"
"231068","718-UY","2018/07/13 19:59:11","新北市新店區安一路一段1-1號","121.519156666667","24.9610733333333","6500600","新店區"
"231064","719-UM","2018/07/13 19:59:08","新北市新店區光華街5巷2號","121.51769","24.968895","6500600","新店區"
"231053","719-UY","2018/07/13 19:59:25","新北市新店區新烏路三段88號","121.55359","24.903855","6500600","新店區"
"231062","720-UM","2018/07/13 19:59:11","新北市新店區華城路11號","121.529561666667","24.9596466666667","6500600","新店區"
"231060","897-TW","2018/07/13 19:59:26","新北市新店區安康路二段393號","121.494453333333","24.9542116666667","6500600","新店區"
"231043","899-TW","2018/07/13 19:59:24","新北市新店區中正路263-3號","121.538345","24.97371","6500600","新店區"
"231055","AKT-0513","2018/07/13 19:59:24","新北市新店區中華路83巷67號","121.538326666667","24.96727","6500600","新店區"
"241011","013-R5","2018/07/13 19:59:10","新北市三重區三和路二段165號","121.497908333333","25.0696333333333","6500200","三重區"
"241028","022-UY","2018/07/13 19:59:15","新北市三重區中正南路47號","121.493945","25.0596633333333","6500200","三重區"
"241008","059-VK","2018/07/13 19:59:18","新北市三重區永福街183號","121.479068333333","25.0749883333333","6500200","三重區"
"241022","060-VK","2018/07/13 19:59:26","新北市三重區過圳街31巷2號","121.489031666667","25.060635","6500200","三重區"
"241031","061-VK","2018/07/13 19:59:11","新北市三重區重新路四段144巷30號","121.48716","25.05518","6500200","三重區"
"241015","062-VK","2018/07/13 19:59:14","新北市三重區三和路二段27號","121.501078333333","25.0670033333333","6500200","三重區"
"241017","063-VK","2018/07/13 19:59:16","新北市三重區重陽路三段190號","121.490251666667","25.0683166666667","6500200","三重區"
"241024","065-VK","2018/07/13 19:59:19","新北市三重區大勇街49號","121.481433333333","25.0717266666667","6500200","三重區"
"241026","066-VK","2018/07/13 19:59:26","新北市三重區福德南路54號","121.503171666667","25.06214","6500200","三重區"
"241002","090-VK","2018/07/13 19:59:21","新北市三重區仁愛街302-1號","121.492116666667","25.079515","6500200","三重區"
"241003","091-VK","2018/07/13 19:59:23","新北市三重區仁愛街430號","121.489676666667","25.081845","6500200","三重區"
"241005","262-UM","2018/07/13 19:59:21","新北市三重區溪尾街325巷32號","121.488715","25.0834883333333","6500200","三重區"
"241016","266-UM","2018/07/13 19:59:20","新北市三重區正義北路36巷11號","121.496873333333","25.0633933333333","6500200","三重區"
"241009","267-UM","2018/07/13 19:59:16","新北市三重區三和路四段390巷2號","121.481913333333","25.0789516666667","6500200","三重區"
"241018","268-UM","2018/07/13 19:59:13","新北市三重區正義北路244巷47號","121.494445","25.0678066666667","6500200","三重區"
"241032","269-UM","2018/07/13 19:59:22","新北市三重區捷運路61號","121.483465","25.05562","6500200","三重區"
"241013","270-UM","2018/07/13 19:59:26","新北市三重區三和路三段125巷42號","121.494038333333","25.07379","6500200","三重區"
"241007","398-BY","2018/07/13 19:59:21","新北市三重區慈愛街88號","121.4886","25.0799316666667","6500200","三重區"
"241035","KEA-2210","2018/07/13 19:59:12","新北市三重區大榮街9號","121.498263333333","25.0631566666667","6500200","三重區"
"241025","413-TH","2018/07/13 19:59:26","新北市三重區頂崁街210巷16號","121.476481666667","25.0677883333333","6500200","三重區"
"241004","475-VK","2018/07/13 19:59:23","新北市三重區五華街65號","121.492625","25.0826333333333","6500200","三重區"
"241020","478-VK","2018/07/13 19:59:29","新北市三重區大智街167號","121.489801666667","25.0724666666667","6500200","三重區"
"241030","480-VK","2018/07/13 19:59:08","新北市三重區重新路四段248-1號","121.48617","25.0533866666667","6500200","三重區"
"241014","543-UM","2018/07/13 19:59:27","新北市三重區三和路二段113號","121.499308333333","25.0689716666667","6500200","三重區"
"241019","KEA-2593","2018/07/13 19:59:21","新北市三重區重陽路四段20號","121.490993333333","25.06929","6500200","三重區"
"241006","AAD-863","2018/07/13 19:59:26","新北市三重區力行路二段91巷2號","121.48299","25.0758816666667","6500200","三重區"
"241023","887-TS","2018/07/13 19:59:16","新北市三重區大有街1-9號","121.477561666667","25.0660583333333","6500200","三重區"
"241012","941-UM","2018/07/13 19:59:24","新北市三重區仁厚街57號","121.50058","25.0766316666667","6500200","三重區"
"241029","942-UM","2018/07/13 19:59:25","新北市三重區重新路三段204號","121.490153333333","25.0582916666667","6500200","三重區"
"241033","AAC-255","2018/07/13 19:59:25","新北市三重區中興北街73號","121.469511666667","25.0476583333333","6500200","三重區"
"235066","003-UY","2018/07/13 19:59:21","新北市中和區中山路二段4號","121.505126666667","25.0057383333333","6500300","中和區"
"235056","096-UM","2018/07/13 19:59:20","新北市中和區中山路三段163號","121.473311666667","25.00625","6500300","中和區"
"235039","097-UM","2018/07/13 19:59:16","新北市中和區大勇街25巷37號","121.515005","24.9944183333333","6500300","中和區"
"235065","098-UM","2018/07/13 19:59:13","新北市中和區福祥路83號","121.49909","25.0058166666667","6500300","中和區"
"235040","150-BY","2018/07/13 19:59:25","新北市中和區保健路19巷5號","121.508256666667","24.998345","6500300","中和區"
"235058","151-BY","2018/07/13 19:59:12","新北市中和區員山路148巷1號","121.481428333333","24.997145","6500300","中和區"
"235049","186-VK","2018/07/13 19:59:24","新北市中和區南華路13號","121.502353333333","24.9955683333333","6500300","中和區"
"235067","255-BX","2018/07/13 19:59:16","新北市中和區新生街220巷27號","121.482611666667","24.99844","6500300","中和區"
"235044","293-VK","2018/07/13 19:59:23","新北市中和區中正路83號","121.500623333333","24.9935","6500300","中和區"
"235043","352-BY","2018/07/13 19:59:17","新北市中和區興南路二段159巷7號","121.505425","24.9830566666667","6500300","中和區"
"247010","KEA-2869","2018/07/13 19:59:25","新北市三重區集賢路188號","121.483961666667","25.0880766666667","6501400","蘆洲區"
"235050","4979-A6","2018/07/13 19:59:16","新北市中和區景平路155號","121.51337","24.9919766666667","6500300","中和區"
"235069","4980-A6","2018/07/13 19:59:12","新北市中和區錦和路350-1號","121.490526666667","24.9935816666667","6500300","中和區"
"235070","558-UM","2018/07/13 19:59:21","新北市中和區圓通路200號","121.496231666667","24.9942816666667","6500300","中和區"
"235046","733-UM","2018/07/13 19:59:17","新北市中和區興南路一段93巷89弄1號","121.510651666667","24.9860466666667","6500300","中和區"
"235041","802-TS","2018/07/13 19:59:19","新北市中和區安平路68號","121.510773333333","24.99627","6500300","中和區"
"235052","805-TS","2018/07/13 19:59:30","新北市中和區華新街30巷17號","121.507031666667","24.9841733333333","6500300","中和區"
"235048","896-TW","2018/07/13 19:59:16","新北市中和區興南路一段20-1號","121.511161666667","24.9909866666667","6500300","中和區"
"235051","157-BY","2018/07/13 19:59:29","新北市中和區景安路247巷8號","121.504206666667","24.990585","6500300","中和區"
"235037","AAC-213","2018/07/13 19:59:18","新北市中和區自立路20巷1號","121.522313333333","24.9934116666667","6500300","中和區"
"235059","AAC-215","2018/07/13 19:59:22","新北市中和區圓通路355號","121.491396666667","24.9900666666667","6500300","中和區"
"220068","013-TV","2018/07/13 19:59:26","新北市板橋區光復街172巷8號","121.485498333333","25.019295","6500100","板橋區"
"220080","015-TV","2018/07/13 19:59:28","新北市板橋區大觀路二段177號","121.445063333333","25.0000816666667","6500100","板橋區"
"220065","072-UY","2018/07/13 19:59:29","新北市板橋區區運路28號","121.465593333333","25.0095333333333","6500100","板橋區"
"220106","075-UY","2018/07/13 19:59:27","新北市板橋區民治街52巷28號","121.478505","25.0325666666667","6500100","板橋區"
"220069","AAD-861","2018/07/13 19:59:23","新北市板橋區貴興路73號","121.456991666667","25.0029733333333","6500100","板橋區"
"247024","893-R6","2018/07/13 19:59:08","新北市蘆洲區光榮路120巷8弄33號","121.464836666667","25.0881233333333","6501400","蘆洲區"
"247014","546-UM","2018/07/13 19:59:24","新北市蘆洲區成功路108號","121.472438333333","25.0822816666667","6501400","蘆洲區"
"247004","337-TH","2018/07/13 19:59:27","新北市蘆洲區長安街202號","121.458511666667","25.084225","6501400","蘆洲區"
"247006","336-TH","2018/07/13 19:59:15","新北市蘆洲區九芎街101號","121.46597","25.0796216666667","6501400","蘆洲區"
"247018","057-VK","2018/07/13 19:59:28","新北市蘆洲區民族路290巷3號","121.47811","25.0897933333333","6501400","蘆洲區"
"247008","053-VK","2018/07/13 19:59:20","新北市蘆洲區信義路113巷1弄20號","121.477591666667","25.0802783333333","6501400","蘆洲區"
"247016","007-UY","2018/07/13 19:59:30","新北市蘆洲區光華路15-1號","121.469715","25.0834316666667","6501400","蘆洲區"
"247002","002-UY","2018/07/13 19:58:32","新北市蘆洲區永樂街31巷1-1號","121.45826","25.0874883333333","6501400","蘆洲區"
"247020","001-UY","2018/07/13 19:59:23","新北市蘆洲區民義街59號","121.47292","25.0898733333333","6501400","蘆洲區"
"226004","205-ST","2018/07/13 19:59:15","新北市平溪區十分里十分街129號","121.77688","25.0431516666667","6502400","平溪區"
"228003","828-UM","2018/07/13 19:59:27","新北市貢寮區仁理村仁和路166號","121.92331","25.05222","6502600","貢寮區"
"224010","AGQ-8101","2018/07/13 19:59:30","新北市瑞芳區基山街271號","121.840866666667","25.1076866666667","6501200","瑞芳區"
"224002","639-TC","2018/07/13 19:59:12","新北市瑞芳區蛇子形路7號","121.825781666667","25.1047416666667","6501200","瑞芳區"
"227011","642-TC","2018/07/13 19:59:11","新北市雙溪區新基里新基南街25號","121.866265","25.0381283333333","6502500","雙溪區"
"227003","400-TW","2018/07/13 19:59:18","新北市雙溪區雙溪里長安街16號","121.86498","25.0346983333333","6502500","雙溪區"
"222001","KEA-2212","2018/07/13 19:59:28","新北市深坑區北深路三段170號","121.602213333333","25.003455","6501800","深坑區"
"208002","KEA-2872","2018/07/13 19:59:17","新北市金山區中華路360號","121.632936666667","25.223955","6502700","金山區"
"208003","665-BX","2018/07/13 19:59:16","新北市金山區永興里濆水路7-2號","121.629213333333","25.265595","6502700","金山區"
"208001","761-BX","2018/07/13 19:59:22","新北市金山區重和里茅埔頭6號","121.60393","25.2165116666667","6502700","金山區"
"251004","009-UM","2018/07/13 19:58:27","新北市淡水區民權路177巷9號","121.460935","25.13538","6501000","淡水區"
"251002","012-UM","2018/07/13 19:59:19","新北市淡水區沙崙路185號","121.424515","25.1839683333333","6501000","淡水區"
"251008","181-VK","2018/07/13 19:59:23","新北市淡水區淡海路65號","121.422988333333","25.181025","6501000","淡水區"
"251010","413-VK","2018/07/13 19:59:13","新北市淡水區崁頂78-3號","121.429866666667","25.2062316666667","6501000","淡水區"
"251012","441-VK","2018/07/13 19:59:30","新北市淡水區下圭柔山96號","121.43844","25.211205","6501000","淡水區"
"251005","443-VK","2018/07/13 19:59:16","新北市淡水區學府路136巷28號","121.451613333333","25.1726716666667","6501000","淡水區"
"251001","559-UM","2018/07/13 19:59:13","新北市淡水區新市二路四段265號","121.445733333333","25.192485","6501000","淡水區"
"251006","561-UM","2018/07/13 19:59:29","新北市淡水區水碓街40巷1號","121.444443333333","25.177335","6501000","淡水區"
"251009","575-R6","2018/07/13 19:59:17","新北市淡水區英專路28巷20號","121.445881666667","25.16984","6501000","淡水區"
"251011","650-BX","2018/07/13 19:59:21","新北市淡水區崁頂55-3號","121.442325","25.1966416666667","6501000","淡水區"
"251003","673-BX","2018/07/13 19:59:16","新北市淡水區中山北路二段189巷15弄29號","121.443308333333","25.1842316666667","6501000","淡水區"
"207003","550-UM","2018/07/13 19:59:17","新北市萬里區磺潭里公館崙5號","121.641893333333","25.214225","6502800","萬里區"
"207004","225-TW","2018/07/13 19:59:13","新北市萬里區北基里忠二街35號","121.685623333333","25.1757433333333","6502800","萬里區"
"252002","178-VK","2018/07/13 19:59:26","新北市三芝區忠孝街116-3號","121.505495","25.2575133333333","6502100","三芝區"
"252001","292-VK","2018/07/13 19:59:22","新北市三芝區公正街66號","121.49978","25.257455","6502100","三芝區"
"237004","KEA-2597","2018/07/13 19:59:19","新北市三峽區添福29-1號","121.373121666667","24.90341","6500900","三峽區"
"237007","153-BY","2018/07/13 19:59:10","新北市三峽區麻園46號","121.363776666667","24.921375","6500900","三峽區"
"237009","210-TH","2018/07/13 19:59:19","新北市三峽區民族街28巷2-6號","121.369021666667","24.93072","6500900","三峽區"
"237012","275-BY","2018/07/13 19:59:25","新北市三峽區中華路48巷16號","121.371091666667","24.9301383333333","6500900","三峽區"
"237008","302-VK","2018/07/13 19:59:15","新北市三峽區中正路一段174巷16號","121.371691666667","24.9289533333333","6500900","三峽區"
"237014","433-BY","2018/07/13 19:59:11","新北市三峽區中正路一段205號","121.372288333333","24.9276216666667","6500900","三峽區"
"237006","5529-G3","2018/07/13 19:59:18","新北市三峽區中正路二段176巷24號","121.365345","24.9148383333333","6500900","三峽區"
"237015","649-BX","2018/07/13 19:59:21","新北市三峽區介壽路二段138巷1弄148-2號","121.399411666667","24.9304466666667","6500900","三峽區"
"237005","AKY-6261","2018/07/13 19:59:20","新北市三峽區民生街1巷3號","121.383023333333","24.932975","6500900","三峽區"
"236069","105-UM","2018/07/13 19:59:12","新北市土城區忠義路77-1號","121.442875","24.9652083333333","6501300","土城區"
"236079","166-UM","2018/07/13 19:59:20","新北市土城區福安街53號","121.418568333333","24.9644483333333","6501300","土城區"
"236030","253-BX","2018/07/13 19:59:10","新北市土城區中央路一段252號","121.444285","24.98462","6501300","土城區"
"236026","269-VK","2018/07/13 19:59:11","新北市土城區員林街1號","121.442393333333","24.9781633333333","6501300","土城區"
"236014","270-VK","2018/07/13 19:59:17","新北市土城區廣福街121號","121.45627","24.992775","6501300","土城區"
"236039","271-VK","2018/07/13 19:59:24","新北市土城區國際路50號","121.466343333333","24.978795","6501300","土城區"
"236020","401-BY","2018/07/13 19:59:11","新北市土城區延吉街63巷4號","121.472386666667","24.9873316666667","6501300","土城區"
"236042","752-BX","2018/07/13 19:59:22","新北市土城區學府路一段124-2號","121.455236666667","24.98737","6501300","土城區"
"236059","912-UM","2018/07/13 19:59:14","新北市土城區中央路一段264-1號","121.444038333333","24.9838616666667","6501300","土城區"
"236048","913-UM","2018/07/13 19:59:16","新北市土城區金城路三段115號","121.467603333333","24.9877566666667","6501300","土城區"
"236063","915-UM","2018/07/13 19:59:28","新北市土城區金城路三段73巷9弄1號","121.466163333333","24.9876283333333","6501300","土城區"
"236055","AAC-216","2018/07/13 19:59:08","新北市土城區延和路18巷2號","121.464441666667","24.9881233333333","6501300","土城區"
"242034","AAC-296","2018/07/13 19:59:21","新北市新莊區建中街109號","121.446268333333","25.0365216666667","6500500","新莊區"
"242058","986-R7","2018/07/13 19:59:30","新北市新莊區八德街31號","121.424926666667","25.0222883333333","6500500","新莊區"
"242054","751-BX","2018/07/13 19:59:10","新北市新莊區西盛街418號","121.427205","25.01213","6500500","新莊區"
"242023","705-TV","2018/07/13 19:59:24","新北市新莊區化成路380-1號","121.465855","25.0500533333333","6500500","新莊區"
"242025","613-BX","2018/07/13 19:59:13","新北市新莊區五工一路86號","121.461366666667","25.0673816666667","6500500","新莊區"
"242029","612-BX","2018/07/13 19:59:23","新北市新莊區中榮街152巷53號","121.445891666667","25.05377","6500500","新莊區"
"242046","497-BY","2018/07/13 19:59:11","新北市新莊區裕民街19巷4號","121.41968","25.0252766666667","6500500","新莊區"
"242039","442-UM","2018/07/13 19:59:16","新北市新莊區民安路296號","121.42816","25.0217533333333","6500500","新莊區"
"242056","440-UM","2018/07/13 19:59:25","新北市新莊區中正路347巷17弄4號","121.447346666667","25.0343233333333","6500500","新莊區"
"242037","415-TV","2018/07/13 19:59:20","新北市新莊區建安街31號","121.42895","25.0258033333333","6500500","新莊區"
"242007","413-TV","2018/07/13 19:59:25","新北市新莊區福壽街315號","121.457915","25.0559966666667","6500500","新莊區"
"242044","400-BY","2018/07/13 19:59:28","新北市新莊區萬壽路一段21巷17弄4號","121.411031666667","25.0203033333333","6500500","新莊區"
"242060","353-BY","2018/07/13 19:59:12","新北市新莊區瓊林路72號","121.44514","25.02867","6500500","新莊區"
"242032","135-UY","2018/07/13 19:59:27","新北市新莊區忠孝街29巷37號","121.44359","25.0369783333333","6500500","新莊區"
"242048","172-VK","2018/07/13 19:59:29","新北市新莊區富國路156號","121.423243333333","25.02477","6500500","新莊區"
"242011","173-VK","2018/07/13 19:59:08","新北市新莊區中港路531巷10號","121.45073","25.05153","6500500","新莊區"
"242017","175-VK","2018/07/13 19:59:18","新北市新莊區中港路320號","121.452601666667","25.0458733333333","6500500","新莊區"
"242005","176-VK","2018/07/13 19:59:25","新北市新莊區化成路320號","121.465715","25.04852","6500500","新莊區"
"242015","346-TH","2018/07/13 19:59:15","新北市新莊區復興路一段35號","121.446461666667","25.0420033333333","6500500","新莊區"
"242021","348-TH","2018/07/13 19:59:13","新北市新莊區建中街32巷12號","121.448848333333","25.0380433333333","6500500","新莊區"
"242002","349-TH","2018/07/13 19:59:17","新北市新莊區中正路219號","121.45076","25.0358116666667","6500500","新莊區"
"242013","351-TH","2018/07/13 19:59:20","新北市新莊區幸福路670巷2弄1號","121.451095","25.04951","6500500","新莊區"
"238015","755-BX","2018/07/13 19:59:17","新北市樹林區中山路三段160-1號","121.38938","24.970225","6500700","樹林區"
"238021","KEA-2539","2018/07/13 19:59:23","新北市樹林區八德街860號","121.391808333333","24.968605","6500700","樹林區"
"221008","489-VK","2018/07/13 19:59:15","新北市汐止區忠一街9巷7號","121.620458333333","25.073225","6501100","汐止區"
"221036","130-UY","2018/07/13 19:59:11","新北市汐止區新台五路二段85巷1號","121.664503333333","25.0670816666667","6501100","汐止區"
"221015","131-UY","2018/07/13 19:59:23","新北市汐止區忠孝東路473巷20號","121.665246666667","25.0734983333333","6501100","汐止區"
"221010","269-BY","2018/07/13 19:59:18","新北市汐止區連峰街225巷13號","121.644378333333","25.08095","6501100","汐止區"
"221012","278-VK","2018/07/13 19:59:20","新北市汐止區大同路三段332號","121.679391666667","25.0711033333333","6501100","汐止區"
"221023","279-VK","2018/07/13 19:59:16","新北市汐止區明峰街200-1號","121.627743333333","25.0693366666667","6501100","汐止區"
"221032","280-BY","2018/07/13 19:59:17","新北市汐止區橫科路4巷1弄10號","121.617916666667","25.05079","6501100","汐止區"
"221027","281-BY","2018/07/13 19:59:11","新北市汐止區中正路98號","121.661168333333","25.0694766666667","6501100","汐止區"
"221033","297-VK","2018/07/13 19:59:22","新北市汐止區東勢街201巷104號","121.633483333333","25.0428666666667","6501100","汐止區"
"221029","298-VK","2018/07/13 19:59:12","新北市汐止區樟樹一路137巷26號","121.640873333333","25.0661033333333","6501100","汐止區"
"221021","299-VK","2018/07/13 19:59:13","新北市汐止區水源路一段129號","121.65615","25.06266","6501100","汐止區"
"221031","353-TW","2018/07/13 19:59:27","新北市汐止區福德一路243號","121.63394","25.0648716666667","6501100","汐止區"
"221035","622-UM","2018/07/13 19:59:10","新北市汐止區長江街57巷6號","121.656225","25.0718016666667","6501100","汐止區"
"221025","623-UM","2018/07/13 19:59:25","新北市汐止區秀峰路107號","121.660213333333","25.0634916666667","6501100","汐止區"
"221038","646-BX","2018/07/13 19:59:27","新北市汐止區忠孝東路495號","121.666458333333","25.07452","6501100","汐止區"
"221002","707-TV","2018/07/13 19:59:26","新北市汐止區大同路一段219巷27號","121.63325","25.0583916666667","6501100","汐止區"
"221018","753-BX","2018/07/13 19:59:15","新北市汐止區茄苳路25號","121.665341666667","25.0708666666667","6501100","汐止區"
"220082","610-BX","2018/07/13 19:59:27","新北市板橋區大觀路三段100號","121.43265","24.9945483333333","6500100","板橋區"
"220101","245-BX","2018/07/13 19:59:19","新北市板橋區莒光路213號","121.474155","25.022905","6500100","板橋區"
"220091","267-BY","2018/07/13 19:59:23","新北市板橋區民治街119巷5號","121.47846","25.0307116666667","6500100","板橋區"
"220072","277-BY","2018/07/13 19:59:13","新北市板橋區金門街113號","121.43316","24.9918966666667","6500100","板橋區"
"220094","285-UM","2018/07/13 19:59:12","新北市板橋區陽明街100號","121.464083333333","25.02314","6500100","板橋區"
"220053","285-VK","2018/07/13 19:59:15","新北市板橋區永豐街143號","121.474958333333","25.0200933333333","6500100","板橋區"
"220083","286-VK","2018/07/13 19:59:26","新北市板橋區僑中二街48巷12號","121.44577","25.01029","6500100","板橋區"
"220081","287-VK","2018/07/13 19:59:26","新北市板橋區大觀路一段28巷107-1號","121.449885","25.01221","6500100","板橋區"
"220090","288-VK","2018/07/13 19:59:25","新北市板橋區新海路135巷29號","121.460146666667","25.023025","6500100","板橋區"
"220061","293-UM","2018/07/13 19:59:19","新北市板橋區觀光街90號","121.469438333333","25.0169233333333","6500100","板橋區"
"242019","281-VK","2018/07/13 19:59:25","新北市新莊區民生街17號","121.455921666667","25.0421216666667","6500500","新莊區"
"220092","307-R5","2018/07/13 19:59:21","新北市板橋區英士路153號","121.459593333333","25.0238833333333","6500100","板橋區"
"220098","317-R6","2018/07/13 19:59:08","新北市板橋區新海路72巷52號","121.461993333333","25.0231333333333","6500100","板橋區"
"220064","486-VK","2018/07/13 19:59:29","新北市板橋區館前東路116號","121.463626666667","25.0076583333333","6500100","板橋區"
"220088","491-VK","2018/07/13 19:59:19","新北市板橋區仁化街143號","121.477495","25.0330666666667","6500100","板橋區"
"220035","560-BX","2018/07/13 19:59:27","新北市板橋區新生街89巷16號","121.457578333333","25.0224216666667","6500100","板橋區"
"220103","561-BX","2018/07/13 19:59:26","新北市板橋區自由路42號","121.465655","25.0232566666667","6500100","板橋區"
"220079","568-UM","2018/07/13 19:59:08","新北市板橋區僑中一街124巷70-5號","121.449588333333","25.0166183333333","6500100","板橋區"
"220093","689-BX","2018/07/13 19:59:24","新北市板橋區長江路三段68號","121.473828333333","25.034085","6500100","板橋區"
"220102","KEA-2699","2018/07/13 19:59:16","新北市板橋區仁化街56號","121.475665","25.0315233333333","6500100","板橋區"
"220077","806-UM","2018/07/13 19:59:27","新北市泰山區楓里路12號","121.441806666667","25.05947","6500100","板橋區"
"220055","827-TW","2018/07/13 19:59:17","新北市板橋區仁愛路86巷22-1號","121.460835","24.998645","6500100","板橋區"
"220067","829-TW","2018/07/13 19:59:24","新北市板橋區漢生東路193巷7-1號","121.470401666667","25.0118033333333","6500100","板橋區"
"220096","830-TW","2018/07/13 19:59:21","新北市板橋區莒光路133巷5號","121.472761666667","25.0243783333333","6500100","板橋區"
"220089","833-TW","2018/07/13 19:59:15","新北市板橋區互助街89號","121.459703333333","25.0258966666667","6500100","板橋區"
"220074","895-R6","2018/07/13 19:59:18","新北市板橋區南門街79號","121.456876666667","25.007905","6500100","板橋區"
"220073","985-R7","2018/07/13 19:59:27","新北市板橋區大觀路一段24號","121.450145","25.00852","6500100","板橋區"
"220097","AAC-210","2018/07/13 19:59:18","新北市板橋區光正街11-1號","121.462736666667","25.017105","6500100","板橋區"
"220070","AAC-253","2018/07/13 19:59:19","新北市板橋區四川路一段336號","121.45698","24.9971","6500100","板橋區"
"235068","KEA-2873","2018/07/13 19:59:24","新北市中和區中山路二段248號","121.497685","25.0026583333333","6500300","中和區"
