"lineid","car","time","location","longitude","latitude","cityid","cityname"
"234046","148-BY","2018/07/13 20:09:07","新北市永和區得和路326號","121.523208333333","24.999595","6500400","永和區"
"234007","207-UY","2018/07/13 20:09:25","新北市永和區環河西路二段217巷5號","121.501708333333","25.0098266666667","6500400","永和區"
"234081","298-R6","2018/07/13 20:09:11","新北市永和區國中路101號","121.524198333333","25.0062383333333","6500400","永和區"
"234038","336-UY","2018/07/13 20:09:26","新北市永和區成功路一段63號","121.527","25.0034483333333","6500400","永和區"
"234064","337-UY","2018/07/13 20:09:22","新北市永和區秀朗路2段65巷3-3號","121.521818333333","25.00239","6500400","永和區"
"234070","552-UM","2018/07/13 20:09:29","新北市永和區福和路183巷1號","121.519931666667","25.00739","6500400","永和區"
"234086","553-UM","2018/07/13 20:09:16","新北市永和區中正路660-1號","121.516825","25.0087383333333","6500400","永和區"
"234017","745-BX","2018/07/13 20:09:16","新北市永和區文化路49號","121.514351666667","25.0150883333333","6500400","永和區"
"234030","746-BX","2018/07/13 20:09:18","新北市永和區民權路49巷5弄35號","121.521746666667","24.9979216666667","6500400","永和區"
"234054","KEA-2590","2018/07/13 20:09:18","新北市永和區博愛街19巷1號","121.517425","25.0158666666667","6500400","永和區"
"234013","KEA-2591","2018/07/13 20:09:24","新北市永和區保生路2號","121.506975","25.0074466666667","6500400","永和區"
"234061","AAD-866","2018/07/13 20:09:13","新北市永和區中正路238號","121.516376666667","24.998145","6500400","永和區"
"234042","862-TW","2018/07/13 20:09:12","新北市永和區雙和街35號","121.508888333333","25.0022766666667","6500400","永和區"
"234050","863-TW","2018/07/13 20:09:24","新北市永和區新生路263號","121.505553333333","25.0131283333333","6500400","永和區"
"234026","9371-KE","2018/07/13 20:09:17","新北市永和區保生路55號","121.504745","25.01074","6500400","永和區"
"234011","9373-KE","2018/07/13 20:09:18","新北市永和區仁愛路352巷136號","121.499871666667","25.0087566666667","6500400","永和區"
"249005","172-UM","2018/07/13 20:09:11","新北市八里區下罟子58-10號","121.387598333333","25.137415","6502300","八里區"
"249001","173-UM","2018/07/13 20:09:24","新北市八里區中華路二段318號","121.40358","25.148095","6502300","八里區"
"249004","303-UY","2018/07/13 20:09:24","新北市八里區中山路一段398巷51弄20號","121.410636666667","25.1586833333333","6502300","八里區"
"249002","305-UY","2018/07/13 20:09:11","新北市八里區龍米路一段8號","121.457595","25.11546","6502300","八里區"
"249003","593-UM","2018/07/13 20:09:21","新北市八里區中山路二段540巷3號","121.397141666667","25.1467816666667","6502300","八里區"
"248016","026-BX","2018/07/13 20:09:22","新北市五股區天乙路67號","121.44813","25.1046466666667","6501500","五股區"
"248008","095-VK","2018/07/13 20:09:27","新北市三重區中正北路560巷37弄19號","121.469855","25.0708466666667","6501500","五股區"
"248018","225-UY","2018/07/13 20:09:22","新北市五股區自強路153號","121.431623333333","25.06931","6501500","五股區"
"248012","247-BX","2018/07/13 20:09:23","新北市五股區民義路一段212號","121.430496666667","25.0895066666667","6501500","五股區"
"248014","261-SL","2018/07/13 20:09:17","新北市五股區新五路三段153號","121.447468333333","25.0916916666667","6501500","五股區"
"248010","272-BY","2018/07/13 20:09:09","新北市五股區成泰路一段7巷38號","121.432631666667","25.0671016666667","6501500","五股區"
"248004","677-BX","2018/07/13 20:09:29","新北市五股區成泰路一段194-2號","121.435708333333","25.0780566666667","6501500","五股區"
"248002","678-BX","2018/07/13 20:09:15","新北市五股區成泰路三段323號","121.44789","25.09501","6501500","五股區"
"234023","9380-KE","2018/07/13 20:09:25","新北市永和區中正路662巷23號","121.51759","25.0088116666667","6500400","永和區"
"234077","969-R7","2018/07/13 20:09:28","新北市永和區智光街107巷8號","121.515713333333","24.996","6500400","永和區"
"234074","AAC-211","2018/07/13 20:09:10","新北市永和區豫溪街148號","121.521796666667","25.0103916666667","6500400","永和區"
"234067","AAC-212","2018/07/13 20:09:18","新北市永和區永貞路358號","121.510221666667","25.0066266666667","6500400","永和區"
"234003","AAC-295","2018/07/13 20:09:28","新北市永和區自強街32巷9號","121.516193333333","25.0076166666667","6500400","永和區"
"243010","267-VK","2018/07/13 20:09:27","新北市泰山區明志路二段214巷18弄35號","121.426596666667","25.0501483333333","6501600","泰山區"
"243013","AAD-798","2018/07/13 20:09:21","新北市泰山區明志路三段74巷23號","121.423925","25.04167","6501600","泰山區"
"243009","297-R6","2018/07/13 20:09:17","新北市泰山區泰林路二段138號","121.434261666667","25.0597933333333","6501600","泰山區"
"243016","380-SR","2018/07/13 20:09:26","新北市泰山區新北大道六段321號","121.423573333333","25.033555","6501600","泰山區"
"243015","421-VK","2018/07/13 20:09:16","新北市泰山區明志路一段332號","121.431178333333","25.0588966666667","6501600","泰山區"
"243011","KEA-2215","2018/07/13 20:09:21","新北市泰山區明志路三段356號","121.421308333333","25.0342366666667","6501600","泰山區"
"243012","646-TV","2018/07/13 20:09:14","新北市泰山區楓江路46巷17-3號","121.435831666667","25.0613116666667","6501600","泰山區"
"243014","680-BX","2018/07/13 20:09:20","新北市泰山區明志路一段24號","121.43364","25.065505","6501600","泰山區"
"222002","016-RS","2018/07/13 20:09:27","新北市深坑區北深路三段22號","121.60936","25.0011316666667","6501800","深坑區"
"222003","436-BY","2018/07/13 20:09:27","新北市深坑區埔新街65號","121.620175","25.0023983333333","6501800","深坑區"
"231041","002-UM","2018/07/13 20:09:13","新北市新店區中正路468號","121.533985","24.979425","6500600","新店區"
"231059","046-UY","2018/07/13 20:09:15","新北市新店區安成街22-1號","121.510268333333","24.9608433333333","6500600","新店區"
"231040","047-UY","2018/07/13 20:09:21","新北市新店區中正路110號","121.543","24.9705333333333","6500600","新店區"
"231044","106-UY","2018/07/13 20:09:12","新北市新店區寶慶街58巷2號","121.542228333333","24.9866766666667","6500600","新店區"
"231065","110-UY","2018/07/13 20:09:17","新北市新店區安祥路106巷137號","121.473301666667","24.9585516666667","6500600","新店區"
"231048","187-VK","2018/07/13 20:09:23","新北市新店區寶橋路59-1號","121.54512","24.9750683333333","6500600","新店區"
"231054","KEA-2219","2018/07/13 20:09:13","新北市新店區檳榔路21號","121.541586666667","24.9637766666667","6500600","新店區"
"231057","256-BX","2018/07/13 20:09:29","新北市新店區花園一路一段2號","121.553151666667","24.9324516666667","6500600","新店區"
"231042","268-BY","2018/07/13 20:09:23","新北市新店區中興路二段89號","121.547003333333","24.9713766666667","6500600","新店區"
"231051","278-BY","2018/07/13 20:09:18","新北市新店區中央六街3號","121.53039","24.97444","6500600","新店區"
"231050","AAD-862","2018/07/13 20:09:18","新北市新店區北新路一段96巷23號","121.54285","24.9686883333333","6500600","新店區"
"231066","4716-K9","2018/07/13 20:09:27","新北市新店區柴埕路2-1號","121.51472","24.9659233333333","6500600","新店區"
"231056","4715-K9","2018/07/13 20:09:11","新北市新店區中正路275巷24號","121.537018333333","24.97327","6500600","新店區"
"231067","4772-VM","2018/07/13 20:09:14","新北市新店區溪洲路101-1號","121.532358333333","24.9624566666667","6500600","新店區"
"231049","513-UM","2018/07/13 20:09:27","新北市新店區北新路二段121巷1-2號","121.542225","24.9748233333333","6500600","新店區"
"231063","616-UM","2018/07/13 20:09:15","新北市新店區黎明路51巷2號","121.502018333333","24.9492333333333","6500600","新店區"
"231045","617-UM","2018/07/13 20:09:20","新北市新店區北宜路一段28號","121.538218333333","24.956955","6500600","新店區"
"231061","619-UM","2018/07/13 20:09:23","新北市新店區安興路32號","121.515555","24.97005","6500600","新店區"
"231068","718-UY","2018/07/13 20:09:11","新北市新店區寶高路102巷20號","121.553538333333","24.9728266666667","6500600","新店區"
"231064","719-UM","2018/07/13 20:09:08","新北市新店區安光路13-1號","121.51341","24.96382","6500600","新店區"
"231053","719-UY","2018/07/13 20:09:17","新北市新店區新烏路三段227號","121.547301666667","24.8966183333333","6500600","新店區"
"231062","720-UM","2018/07/13 20:09:11","新北市新店區安康路二段318-1號","121.505093333333","24.9580866666667","6500600","新店區"
"231060","897-TW","2018/07/13 20:09:26","新北市新店區安康路三段454號","121.484378333333","24.951265","6500600","新店區"
"231043","899-TW","2018/07/13 20:09:24","新北市新店區民族路188號","121.536758333333","24.9761","6500600","新店區"
"231055","AKT-0513","2018/07/13 20:09:24","新北市新店區北新路一段297巷35號","121.540386666667","24.9683816666667","6500600","新店區"
"241011","013-R5","2018/07/13 20:09:10","新北市三重區三和路三段47巷15號","121.496126666667","25.071685","6500200","三重區"
"241028","022-UY","2018/07/13 20:09:15","新北市三重區仁化街107號","121.4945","25.0580266666667","6500200","三重區"
"241008","059-VK","2018/07/13 20:09:18","新北市三重區永福街197巷6-1號","121.478318333333","25.0744516666667","6500200","三重區"
"241022","060-VK","2018/07/13 20:09:26","新北市三重區新北大道一段58號","121.487335","25.0614866666667","6500200","三重區"
"241031","061-VK","2018/07/13 20:09:11","新北市三重區過圳街9-1號","121.488763333333","25.060075","6500200","三重區"
"241015","062-VK","2018/07/13 20:09:14","新北市三重區福德北路43號","121.502333333333","25.0648866666667","6500200","三重區"
"241017","063-VK","2018/07/13 20:09:16","新北市三重區自強路一段248號","121.49282","25.0674033333333","6500200","三重區"
"241024","065-VK","2018/07/13 20:09:19","新北市三重區中正北路165巷43號","121.480198333333","25.0703916666667","6500200","三重區"
"241026","066-VK","2018/07/13 20:09:26","新北市三重區中央南路86號","121.501591666667","25.0608733333333","6500200","三重區"
"241002","090-VK","2018/07/13 20:09:21","新北市三重區仁忠街27號","121.496061666667","25.0821683333333","6500200","三重區"
"241003","091-VK","2018/07/13 20:09:23","新北市三重區富華街18號","121.489631666667","25.0825083333333","6500200","三重區"
"241005","262-UM","2018/07/13 20:09:21","新北市三重區五華街180巷35號","121.487873333333","25.0853766666667","6500200","三重區"
"241016","266-UM","2018/07/13 20:09:04","新北市三重區大同北路97-3號","121.494338333333","25.0635833333333","6500200","三重區"
"241009","267-UM","2018/07/13 20:09:16","新北市三重區三和路四段382巷153號","121.479045","25.078165","6500200","三重區"
"241018","268-UM","2018/07/13 20:09:17","新北市三重區正義北路256巷137號","121.49311","25.0678166666667","6500200","三重區"
"241032","269-UM","2018/07/13 20:09:22","新北市三重區捷運路65號","121.483438333333","25.055625","6500200","三重區"
"241013","270-UM","2018/07/13 20:09:27","新北市三重區三和路三段151巷41號","121.493826666667","25.0743183333333","6500200","三重區"
"241007","398-BY","2018/07/13 20:09:18","新北市三重區三和路四段111-8號","121.486386666667","25.0775583333333","6500200","三重區"
"241035","KEA-2210","2018/07/13 20:09:12","新北市三重區平安街57號","121.497751666667","25.0642033333333","6500200","三重區"
"241025","413-TH","2018/07/13 20:09:26","新北市三重區中正北路342號","121.478228333333","25.0693133333333","6500200","三重區"
"241004","475-VK","2018/07/13 20:09:26","新北市三重區自強路四段100號","121.491308333333","25.0797066666667","6500200","三重區"
"241020","478-VK","2018/07/13 20:09:29","新北市三重區大智街179巷13號","121.490375","25.07279","6500200","三重區"
"241030","480-VK","2018/07/13 20:09:31","新北市三重區集美街75巷25號","121.488038333333","25.0531","6500200","三重區"
"241014","543-UM","2018/07/13 20:09:27","新北市三重區長壽街120巷28號","121.501986666667","25.0696166666667","6500200","三重區"
"241001","547-UM","2018/07/13 20:09:25","新北市三重區三和路四段91號","121.488891666667","25.0755383333333","6500200","三重區"
"241019","KEA-2593","2018/07/13 20:09:21","新北市三重區自強路二段33巷64-3號","121.490938333333","25.069925","6500200","三重區"
"241006","AAD-863","2018/07/13 20:09:26","新北市三重區車路頭街139巷14號","121.48429","25.0762766666667","6500200","三重區"
"241023","887-TS","2018/07/13 20:09:16","新北市三重區頂崁街237號","121.476978333333","25.0685616666667","6500200","三重區"
"241012","941-UM","2018/07/13 20:09:24","新北市三重區仁興街56巷52號","121.49788","25.0755083333333","6500200","三重區"
"241029","942-UM","2018/07/13 20:09:25","新北市三重區光明路32巷36號","121.492196666667","25.0588383333333","6500200","三重區"
"241033","AAC-255","2018/07/13 20:09:25","新北市三重區光復路一段68巷3號","121.471543333333","25.049495","6500200","三重區"
"235066","003-UY","2018/07/13 20:09:21","新北市中和區水源路136巷3號","121.508015","25.0032116666667","6500300","中和區"
"235039","097-UM","2018/07/13 20:09:16","新北市中和區立人街24-5號","121.51878","24.994135","6500300","中和區"
"235065","098-UM","2018/07/13 20:09:13","新北市中和區永和路100號","121.496693333333","25.0056066666667","6500300","中和區"
"235040","150-BY","2018/07/13 20:09:25","新北市中和區保健路29巷1號","121.508646666667","24.9979533333333","6500300","中和區"
"247010","KEA-2869","2018/07/13 20:09:25","新北市蘆洲區集賢路406號","121.480043333333","25.08172","6501400","蘆洲區"
"235050","4979-A6","2018/07/13 20:09:21","新北市中和區安樂路1號","121.511623333333","24.991865","6500300","中和區"
"235069","4980-A6","2018/07/13 20:09:12","新北市中和區南山路37巷3弄1號","121.502675","24.9987916666667","6500300","中和區"
"235070","558-UM","2018/07/13 20:09:21","新北市中和區中正路806號","121.48503","25.0022283333333","6500300","中和區"
"235048","896-TW","2018/07/13 20:09:09","新北市中和區景新街561號","121.51556","24.98646","6500300","中和區"
"235051","157-BY","2018/07/13 20:09:12","新北市中和區復興路280巷21號","121.50202","24.9916566666667","6500300","中和區"
"235037","AAC-213","2018/07/13 20:09:18","新北市中和區自強路50號","121.520095","24.9948633333333","6500300","中和區"
"235059","AAC-215","2018/07/13 20:09:17","新北市中和區圓通路335巷35號","121.493633333333","24.98941","6500300","中和區"
"220068","013-TV","2018/07/13 20:09:23","新北市板橋區中山路二段290號","121.479641666667","25.0188566666667","6500100","板橋區"
"220069","AAD-861","2018/07/13 20:09:07","新北市板橋區貴興路113號","121.455808333333","25.0024966666667","6500100","板橋區"
"247024","893-R6","2018/07/13 20:09:08","新北市蘆洲區光明路134號","121.463975","25.0884066666667","6501400","蘆洲區"
"247014","546-UM","2018/07/13 20:09:18","新北市蘆洲區中山二路218號","121.469848333333","25.0799166666667","6501400","蘆洲區"
"247004","337-TH","2018/07/13 20:09:27","新北市蘆洲區長安街285巷16號","121.457496666667","25.0842383333333","6501400","蘆洲區"
"247006","336-TH","2018/07/13 20:09:31","新北市蘆洲區永安南路二段18號","121.467685","25.077095","6501400","蘆洲區"
"247018","057-VK","2018/07/13 20:09:18","新北市蘆洲區民族路314巷11-2號","121.478046666667","25.0905616666667","6501400","蘆洲區"
"247016","007-UY","2018/07/13 20:09:10","新北市蘆洲區光華路180號","121.46486","25.0819883333333","6501400","蘆洲區"
"247002","002-UY","2018/07/13 20:08:40","新北市蘆洲區永康街2巷16號","121.459345","25.0863866666667","6501400","蘆洲區"
"247020","001-UY","2018/07/13 20:09:23","新北市蘆洲區民權路106巷5弄2號","121.47446","25.08904","6501400","蘆洲區"
"226004","205-ST","2018/07/13 20:09:15","新北市平溪區十分里十分街311號","121.775201666667","25.0435416666667","6502400","平溪區"
"224010","AGQ-8101","2018/07/13 20:09:30","新北市瑞芳區輕便路135號","121.843658333333","25.1091166666667","6501200","瑞芳區"
"222001","KEA-2212","2018/07/13 20:09:28","新北市深坑區北深路三段210號","121.601245","25.0038683333333","6501800","深坑區"
"208002","KEA-2872","2018/07/13 20:09:22","新北市萬里區大鵬里萬里加投241號","121.642316666667","25.2166783333333","6502700","金山區"
"208003","665-BX","2018/07/13 20:09:19","新北市金山區海興路41號","121.630731666667","25.2384366666667","6502700","金山區"
"251004","009-UM","2018/07/13 20:05:48","新北市淡水區民族路31巷21-1號","121.461941666667","25.1365916666667","6501000","淡水區"
"251002","012-UM","2018/07/13 20:09:19","新北市淡水區中正路233號","121.435828333333","25.173035","6501000","淡水區"
"251008","181-VK","2018/07/13 20:09:23","新北市淡水區淡海路72巷28弄1號","121.42425","25.1821166666667","6501000","淡水區"
"251010","413-VK","2018/07/13 20:09:13","新北市淡水區崁頂五路303號","121.423893333333","25.1968766666667","6501000","淡水區"
"251012","441-VK","2018/07/13 20:09:10","新北市淡水區淡金路三段345號","121.44884","25.2066516666667","6501000","淡水區"
"251005","443-VK","2018/07/13 20:09:16","新北市淡水區忠愛街1號","121.454651666667","25.1713433333333","6501000","淡水區"
"251001","559-UM","2018/07/13 20:09:13","新北市淡水區新市二路四段265號","121.445726666667","25.1924816666667","6501000","淡水區"
"251006","561-UM","2018/07/13 20:09:29","新北市淡水區北新路141巷60弄11號","121.448195","25.1796633333333","6501000","淡水區"
"251009","575-R6","2018/07/13 20:09:17","新北市淡水區清水街38號","121.444698333333","25.1703316666667","6501000","淡水區"
"251003","673-BX","2018/07/13 20:09:16","新北市淡水區中山北路二段189巷15弄29號","121.44337","25.1841583333333","6501000","淡水區"
"207003","550-UM","2018/07/13 20:09:17","新北市萬里區大鵬里萬里加投186號","121.642816666667","25.2156333333333","6502800","萬里區"
"207004","225-TW","2018/07/13 20:09:13","新北市萬里區北基里愛三街11號","121.6818","25.176655","6502800","萬里區"
"252002","178-VK","2018/07/13 20:09:26","新北市三芝區中正路一段70號","121.504001666667","25.2578233333333","6502100","三芝區"
"252001","292-VK","2018/07/13 20:09:22","新北市三芝區公正街9號","121.499755","25.2575466666667","6502100","三芝區"
"237006","5529-G3","2018/07/13 20:09:18","新北市三峽區嘉添227-31號","121.3708","24.9115416666667","6500900","三峽區"
"237015","649-BX","2018/07/13 20:09:21","新北市三峽區介壽路二段167號","121.394725","24.9358266666667","6500900","三峽區"
"237005","AKY-6261","2018/07/13 20:09:20","新北市三峽區三樹路98巷119號","121.38231","24.93908","6500900","三峽區"
"236069","105-UM","2018/07/13 20:09:12","新北市土城區中央路三段147巷2弄15號","121.43197","24.9648183333333","6501300","土城區"
"236079","166-UM","2018/07/13 20:09:24","新北市土城區福安街56號","121.418716666667","24.964605","6501300","土城區"
"236030","253-BX","2018/07/13 20:09:10","新北市土城區中央路一段116號","121.446413333333","24.9880866666667","6501300","土城區"
"236026","269-VK","2018/07/13 20:09:12","新北市土城區中央路一段254號","121.444378333333","24.9844783333333","6501300","土城區"
"236014","270-VK","2018/07/13 20:09:17","新北市土城區德興街135號","121.455106666667","24.9917333333333","6501300","土城區"
"236039","271-VK","2018/07/13 20:09:21","新北市土城區延吉街353巷8號","121.464555","24.9835216666667","6501300","土城區"
"236020","401-BY","2018/07/13 20:09:11","新北市土城區延吉街111巷12弄8號","121.471686666667","24.9857283333333","6501300","土城區"
"236042","752-BX","2018/07/13 20:08:42","新北市土城區學府路一段151號","121.453453333333","24.9860533333333","6501300","土城區"
"236059","912-UM","2018/07/13 20:09:14","新北市土城區中央路二段191號","121.442121666667","24.975455","6501300","土城區"
"236048","913-UM","2018/07/13 20:09:16","新北市土城區明德路一段371號","121.453068333333","24.979575","6501300","土城區"
"236055","AAC-216","2018/07/13 20:09:28","新北市土城區學成路29號","121.452845","24.9869633333333","6501300","土城區"
"242034","AAC-296","2018/07/13 20:09:21","新北市新莊區中正路318巷16號","121.446473333333","25.0359633333333","6500500","新莊區"
"242058","986-R7","2018/07/13 20:09:10","新北市新莊區八德街137號","121.423748333333","25.0201","6500500","新莊區"
"242054","751-BX","2018/07/13 20:09:30","新北市新莊區西盛街387巷34弄5號","121.428513333333","25.0129066666667","6500500","新莊區"
"242023","705-TV","2018/07/13 20:09:25","新北市新莊區化成路570號","121.466141666667","25.0543816666667","6500500","新莊區"
"242027","615-BX","2018/07/13 20:09:17","新北市新莊區幸福路803號","121.446065","25.0490183333333","6500500","新莊區"
"242025","613-BX","2018/07/13 20:09:14","新北市新莊區五工路68巷5號","121.45817","25.06393","6500500","新莊區"
"242029","612-BX","2018/07/13 20:09:23","新北市新莊區中原路486號","121.44704","25.0549216666667","6500500","新莊區"
"242041","566-BX","2018/07/13 20:09:15","新北市新莊區新北大道七段370號","121.412968333333","25.031145","6500500","新莊區"
"242046","497-BY","2018/07/13 20:09:11","新北市新莊區裕民街103巷16號","121.419025","25.0228866666667","6500500","新莊區"
"242039","442-UM","2018/07/13 20:09:17","新北市新莊區民安西路110號","121.426816666667","25.0189183333333","6500500","新莊區"
"242050","441-UM","2018/07/13 20:09:17","新北市新莊區民安西路172巷2弄2號","121.425796666667","25.01602","6500500","新莊區"
"242056","440-UM","2018/07/13 20:09:25","新北市新莊區新莊路649巷15弄13號","121.445596666667","25.0315966666667","6500500","新莊區"
"242037","415-TV","2018/07/13 20:09:29","新北市新莊區建安街9巷6號","121.429016666667","25.02658","6500500","新莊區"
"242007","413-TV","2018/07/13 20:09:25","新北市新莊區福壽街184巷19號","121.459156666667","25.0532716666667","6500500","新莊區"
"242044","400-BY","2018/07/13 20:09:23","新北市新莊區中正路893巷2-1號","121.412781666667","25.0209816666667","6500500","新莊區"
"242060","353-BY","2018/07/13 20:09:12","新北市新莊區瓊林路瓊英巷5號","121.443596666667","25.0273466666667","6500500","新莊區"
"242009","132-UY","2018/07/13 20:09:22","新北市新莊區昌盛街35巷3弄1號","121.454025","25.0504233333333","6500500","新莊區"
"242032","135-UY","2018/07/13 20:09:27","新北市新莊區中正路400號","121.441626666667","25.0339466666667","6500500","新莊區"
"242048","172-VK","2018/07/13 20:09:14","新北市新莊區四維路182巷6號","121.421971666667","25.0219783333333","6500500","新莊區"
"242011","173-VK","2018/07/13 20:09:08","新北市新莊區中和街220-1號","121.448548333333","25.0511816666667","6500500","新莊區"
"242017","175-VK","2018/07/13 20:09:25","新北市新莊區中港一街19號","121.451393333333","25.0455733333333","6500500","新莊區"
"242005","176-VK","2018/07/13 20:09:25","新北市新莊區頭興街13巷1號","121.461453333333","25.0535","6500500","新莊區"
"242015","346-TH","2018/07/13 20:09:15","新北市新莊區中平路26巷49號","121.44715","25.043605","6500500","新莊區"
"242021","348-TH","2018/07/13 20:09:21","新北市新莊區中興街13號","121.449233333333","25.0362016666667","6500500","新莊區"
"242002","349-TH","2018/07/13 20:09:17","新北市新莊區中正路145號","121.459495","25.0383283333333","6500500","新莊區"
"242013","351-TH","2018/07/13 20:09:20","新北市新莊區幸福路710巷6弄2號","121.45018","25.0496616666667","6500500","新莊區"
"238015","755-BX","2018/07/13 20:09:17","新北市樹林區育德街78號","121.38754","24.96835","6500700","樹林區"
"221008","489-VK","2018/07/13 20:09:15","台北市內湖區康樂街16號","121.617958333333","25.0679916666667","6501100","汐止區"
"221036","130-UY","2018/07/13 20:09:11","新北市汐止區新台五路二段39號","121.663148333333","25.0663433333333","6501100","汐止區"
"221015","131-UY","2018/07/13 20:09:23","新北市汐止區建成路36號","121.664053333333","25.0727383333333","6501100","汐止區"
"221010","269-BY","2018/07/13 20:09:18","新北市汐止區八連路一段338號","121.640363333333","25.0880166666667","6501100","汐止區"
"221012","278-VK","2018/07/13 20:09:20","新北市汐止區汐平路二段32號","121.69447","25.0656583333333","6501100","汐止區"
"221023","279-VK","2018/07/13 20:09:15","新北市汐止區明峰街298巷4號","121.625168333333","25.0683483333333","6501100","汐止區"
"221032","280-BY","2018/07/13 20:09:17","新北市汐止區弘道街9巷2弄2號","121.616981666667","25.0488433333333","6501100","汐止區"
"221027","281-BY","2018/07/13 20:09:11","新北市汐止區中正路133號","121.659965","25.06927","6501100","汐止區"
"221033","297-VK","2018/07/13 20:09:22","新北市汐止區東勢街201巷129弄2號","121.633463333333","25.0428316666667","6501100","汐止區"
"221029","298-VK","2018/07/13 20:09:12","新北市汐止區樟樹一路119巷9號","121.641261666667","25.06431","6501100","汐止區"
"221021","299-VK","2018/07/13 20:09:13","新北市汐止區連興街121號","121.65383","25.062055","6501100","汐止區"
"221031","353-TW","2018/07/13 20:09:27","新北市汐止區原興路76巷2號","121.631988333333","25.066355","6501100","汐止區"
"221035","622-UM","2018/07/13 20:09:29","新北市汐止區長江街79巷10號","121.657641666667","25.072785","6501100","汐止區"
"221025","623-UM","2018/07/13 20:09:25","新北市汐止區水源路一段235號","121.65423","25.0603016666667","6501100","汐止區"
"221038","646-BX","2018/07/13 20:09:27","新北市汐止區橋東街5巷3號","121.66698","25.0762033333333","6501100","汐止區"
"221002","707-TV","2018/07/13 20:09:26","新北市汐止區工建路202號","121.636686666667","25.0626666666667","6501100","汐止區"
"221018","753-BX","2018/07/13 20:09:15","新北市汐止區茄苳路322號","121.673636666667","25.0664916666667","6501100","汐止區"
"220101","245-BX","2018/07/13 20:09:19","新北市板橋區莒光路171巷1弄18號","121.474565","25.02465","6500100","板橋區"
"220083","286-VK","2018/07/13 20:09:26","新北市板橋區僑中二街92巷1號","121.446196666667","25.0089116666667","6500100","板橋區"
"220081","287-VK","2018/07/13 20:09:26","新北市板橋區僑中一街124巷20弄25號","121.447266666667","25.0139466666667","6500100","板橋區"
"220090","288-VK","2018/07/13 20:09:25","新北市板橋區新海路109巷2弄2號","121.460915","25.0225416666667","6500100","板橋區"
"220061","293-UM","2018/07/13 20:09:19","新北市板橋區中山路一段156號","121.465038333333","25.0117133333333","6500100","板橋區"
"242019","281-VK","2018/07/13 20:09:22","新北市新莊區長青街33號","121.456986666667","25.0421683333333","6500500","新莊區"
"220092","307-R5","2018/07/13 20:09:21","新北市板橋區文化路一段47號","121.460475","25.0132666666667","6500100","板橋區"
"220064","486-VK","2018/07/13 20:09:25","新北市板橋區長安街331巷22-2號","121.473938333333","25.012555","6500100","板橋區"
"220088","491-VK","2018/07/13 20:09:19","新北市板橋區懷德街235巷2-1號","121.481213333333","25.028405","6500100","板橋區"
"220103","561-BX","2018/07/13 20:09:26","新北市板橋區陽明街251號","121.462653333333","25.0250933333333","6500100","板橋區"
"220079","568-UM","2018/07/13 20:09:27","新北市五股區新城三路45號","121.448536666667","25.09289","6500100","板橋區"
"220093","689-BX","2018/07/13 20:09:22","新北市板橋區長江路一段42號","121.45856","25.02899","6500100","板橋區"
"220102","KEA-2699","2018/07/13 20:09:16","新北市板橋區懷德街78巷21號","121.477843333333","25.0312183333333","6500100","板橋區"
"220055","827-TW","2018/07/13 20:09:17","新北市板橋區仁愛路86巷20號","121.461013333333","24.9986783333333","6500100","板橋區"
"220067","829-TW","2018/07/13 20:09:23","新北市板橋區中山路一段206巷22號","121.470921666667","25.0127466666667","6500100","板橋區"
"220089","833-TW","2018/07/13 20:09:11","新北市板橋區四維路226號","121.463728333333","25.0277383333333","6500100","板橋區"
"220097","AAC-210","2018/07/13 20:09:18","新北市板橋區光正街45巷2弄2號","121.461625","25.01733","6500100","板橋區"
"220070","AAC-253","2018/07/13 20:09:19","新北市板橋區四川路二段245巷49號","121.45205","24.99247","6500100","板橋區"
"235068","KEA-2873","2018/07/13 20:09:24","新北市中和區福祥路136號","121.498773333333","25.00695","6500300","中和區"
