"lineid","car","time","location","longitude","latitude","cityid","cityname"
"234081","298-R6","2018/07/13 20:19:11","新北市永和區福和路19巷1弄5號","121.5243","25.00787","6500400","永和區"
"234038","336-UY","2018/07/13 20:19:26","新北市永和區成功路一段93巷20弄2號","121.528266666667","25.0026883333333","6500400","永和區"
"234064","337-UY","2018/07/13 20:19:22","新北市永和區得和路111號","121.518551666667","25.0002983333333","6500400","永和區"
"234070","552-UM","2018/07/13 20:19:09","新北市永和區福和路263巷25號","121.518121666667","25.0062533333333","6500400","永和區"
"234086","553-UM","2018/07/13 20:19:16","新北市永和區永和路二段207號","121.515391666667","25.0138066666667","6500400","永和區"
"234017","745-BX","2018/07/13 20:19:16","新北市永和區仁愛路54-1號","121.513633333333","25.013455","6500400","永和區"
"234030","746-BX","2018/07/13 20:19:14","新北市中和區立人街14巷49號","121.51902","24.9955633333333","6500400","永和區"
"234054","KEA-2590","2018/07/13 20:19:17","新北市永和區光復街2巷26弄1號","121.517626666667","25.0165933333333","6500400","永和區"
"234061","AAD-866","2018/07/13 20:19:13","新北市永和區得和路44號","121.515806666667","25.0002333333333","6500400","永和區"
"234042","862-TW","2018/07/13 20:19:12","新北市中和區中安街166號","121.510856666667","25.0001066666667","6500400","永和區"
"234050","863-TW","2018/07/13 20:19:25","新北市永和區保安路2號","121.510858333333","25.0174216666667","6500400","永和區"
"234026","9371-KE","2018/07/13 20:19:17","新北市永和區保生路55號","121.50456","25.010775","6500400","永和區"
"249005","172-UM","2018/07/13 20:19:11","新北市八里區下罟子1-16號","121.389843333333","25.14187","6502300","八里區"
"249001","173-UM","2018/07/13 20:19:15","新北市八里區中華路二段468號","121.400733333333","25.1460566666667","6502300","八里區"
"249004","303-UY","2018/07/13 20:19:24","新北市八里區中山路一段129巷31號","121.414065","25.1585216666667","6502300","八里區"
"249002","305-UY","2018/07/13 20:19:11","新北市八里區龍米路一段225號","121.451511666667","25.1324283333333","6502300","八里區"
"249003","593-UM","2018/07/13 20:19:21","新北市八里區中山路二段447巷10號","121.396896666667","25.145275","6502300","八里區"
"248016","026-BX","2018/07/13 20:19:22","新北市五股區天乙路34號","121.448475","25.1035083333333","6501500","五股區"
"248012","247-BX","2018/07/13 20:19:23","新北市五股區民義路一段212號","121.430536666667","25.08938","6501500","五股區"
"248002","678-BX","2018/07/13 20:19:15","新北市五股區成泰路三段165號","121.44517","25.0918183333333","6501500","五股區"
"234023","9380-KE","2018/07/13 20:19:25","新北市永和區復興街56號","121.516535","25.0132583333333","6500400","永和區"
"234077","969-R7","2018/07/13 20:19:28","新北市永和區民享街2巷2號","121.514793333333","24.9957716666667","6500400","永和區"
"234074","AAC-211","2018/07/13 20:19:10","新北市永和區豫溪街160巷2號","121.523253333333","25.0095833333333","6500400","永和區"
"234067","AAC-212","2018/07/13 20:19:18","新北市永和區保平路232號","121.509338333333","25.00551","6500400","永和區"
"234003","AAC-295","2018/07/13 20:19:25","新北市永和區大新街40號","121.515638333333","25.008385","6500400","永和區"
"243010","267-VK","2018/07/13 20:19:30","新北市泰山區明志路二段273巷14弄4號","121.427473333333","25.047115","6501600","泰山區"
"243013","AAD-798","2018/07/13 20:19:21","新北市泰山區新民路14巷1號","121.426666666667","25.0446166666667","6501600","泰山區"
"243009","297-R6","2018/07/13 20:19:17","新北市泰山區福泰街9號","121.432638333333","25.0603666666667","6501600","泰山區"
"243016","380-SR","2018/07/13 20:19:31","新北市泰山區明志路三段249號","121.423353333333","25.0375183333333","6501600","泰山區"
"243015","421-VK","2018/07/13 20:19:18","新北市泰山區仁德路125號","121.432618333333","25.0561716666667","6501600","泰山區"
"243011","KEA-2215","2018/07/13 20:19:21","新北市新莊區壽山路160巷21號","121.417411666667","25.031985","6501600","泰山區"
"243012","646-TV","2018/07/13 20:19:14","新北市泰山區楓江路113號","121.43852","25.064165","6501600","泰山區"
"243014","680-BX","2018/07/13 20:19:20","新北市泰山區泰林路二段399號","121.427035","25.0641733333333","6501600","泰山區"
"222002","016-RS","2018/07/13 20:19:27","新北市深坑區萬福路75巷21號","121.599323333333","25.0097033333333","6501800","深坑區"
"222003","436-BY","2018/07/13 20:19:27","新北市深坑區文化街43號","121.617588333333","25.0018483333333","6501800","深坑區"
"231041","002-UM","2018/07/13 20:19:13","新北市新店區民權路46號","121.540133333333","24.9830583333333","6500600","新店區"
"231059","046-UY","2018/07/13 20:19:15","新北市新店區安德街77號","121.510091666667","24.961445","6500600","新店區"
"231040","047-UY","2018/07/13 20:19:21","新北市新店區中正路191號","121.540566666667","24.9723583333333","6500600","新店區"
"231044","106-UY","2018/07/13 20:19:12","新北市新店區北新路三段92號","121.541923333333","24.9808933333333","6500600","新店區"
"231065","110-UY","2018/07/13 20:19:17","新北市新店區安祥路104巷6弄36號","121.48306","24.9630433333333","6500600","新店區"
"231048","187-VK","2018/07/13 20:19:23","新北市新店區寶橋路132號","121.547386666667","24.976025","6500600","新店區"
"231054","KEA-2219","2018/07/13 20:19:13","新北市新店區檳榔路109號","121.544471666667","24.9616366666667","6500600","新店區"
"231057","256-BX","2018/07/13 20:19:29","新北市新店區花園七路一段16巷1號","121.553888333333","24.9348683333333","6500600","新店區"
"231042","268-BY","2018/07/13 20:19:23","新北市新店區中興路二段188號","121.54822","24.9728716666667","6500600","新店區"
"231051","278-BY","2018/07/13 20:19:18","新北市新店區中央六街90號","121.526275","24.9767566666667","6500600","新店區"
"231050","AAD-862","2018/07/13 20:19:18","新北市新店區中正路161號","121.541198333333","24.9719233333333","6500600","新店區"
"231058","3713-VJ","2018/07/13 20:19:11","新北市新店區三民路191號","121.535553333333","24.9757083333333","6500600","新店區"
"231066","4716-K9","2018/07/13 20:19:27","新北市新店區安德街60巷35號","121.511013333333","24.9637583333333","6500600","新店區"
"231056","4715-K9","2018/07/13 20:19:11","新北市新店區中正路328巷42弄14號","121.538616666667","24.975885","6500600","新店區"
"231067","4772-VM","2018/07/13 20:19:14","新北市新店區安康路一段24巷9號","121.531825","24.96098","6500600","新店區"
"231049","513-UM","2018/07/13 20:19:07","新北市新店區北新路一段128號","121.542178333333","24.96996","6500600","新店區"
"231063","616-UM","2018/07/13 20:19:15","新北市新店區薏仁坑路自強巷6號","121.49659","24.958455","6500600","新店區"
"231045","617-UM","2018/07/13 20:19:20","新北市新店區新坡一街72號","121.548925","24.9645616666667","6500600","新店區"
"231061","619-UM","2018/07/13 20:19:23","新北市新店區安業街2號","121.515356666667","24.97863","6500600","新店區"
"231068","718-UY","2018/07/13 20:19:11","新北市新店區民權路8號","121.542415","24.9830133333333","6500600","新店區"
"231064","719-UM","2018/07/13 20:19:08","新北市新店區安利街32號","121.518923333333","24.974865","6500600","新店區"
"231053","719-UY","2018/07/13 20:19:17","新北市新店區新烏路二段470號","121.551673333333","24.9073116666667","6500600","新店區"
"231062","720-UM","2018/07/13 20:19:11","新北市新店區安泰路7巷16號","121.485666666667","24.9509983333333","6500600","新店區"
"231060","897-TW","2018/07/13 20:19:26","新北市新店區錦秀路11巷35號","121.48019","24.944755","6500600","新店區"
"231043","899-TW","2018/07/13 20:19:24","新北市新店區建國路135號","121.539231666667","24.9783033333333","6500600","新店區"
"231055","AKT-0513","2018/07/13 20:19:24","新北市新店區光明街145號","121.539261666667","24.962275","6500600","新店區"
"241011","013-R5","2018/07/13 20:19:10","新北市三重區仁興街2號","121.49994","25.0737383333333","6500200","三重區"
"241028","022-UY","2018/07/13 20:19:15","新北市三重區大同南路85號","121.496105","25.0592266666667","6500200","三重區"
"241008","059-VK","2018/07/13 20:19:18","新北市三重區永福街211巷25號","121.479028333333","25.0740483333333","6500200","三重區"
"241022","060-VK","2018/07/13 20:19:26","新北市三重區新北大道一段6號","121.48885","25.0616083333333","6500200","三重區"
"241031","061-VK","2018/07/13 20:19:11","新北市三重區三寧街15號","121.48947","25.0597583333333","6500200","三重區"
"241015","062-VK","2018/07/13 20:19:14","新北市三重區重新路一段122號","121.500341666667","25.063055","6500200","三重區"
"241017","063-VK","2018/07/13 20:19:16","新北市三重區長壽西街169號","121.492646666667","25.0663816666667","6500200","三重區"
"241024","065-VK","2018/07/13 20:19:19","新北市三重區忠孝路三段1號","121.481955","25.06786","6500200","三重區"
"241026","066-VK","2018/07/13 20:19:26","新北市三重區福德南路7號","121.502655","25.0633666666667","6500200","三重區"
"241002","090-VK","2018/07/13 20:19:21","新北市三重區五華街9-2號","121.495211666667","25.0799766666667","6500200","三重區"
"241003","091-VK","2018/07/13 20:19:23","新北市三重區富華街86號","121.490976666667","25.0835016666667","6500200","三重區"
"241005","262-UM","2018/07/13 20:19:21","新北市三重區分子尾街83號","121.488968333333","25.082485","6500200","三重區"
"241016","266-UM","2018/07/13 20:19:20","新北市三重區大同北路97-3號","121.494353333333","25.0635366666667","6500200","三重區"
"241009","267-UM","2018/07/13 20:19:16","新北市三重區三和路四段384號","121.482401666667","25.0788766666667","6500200","三重區"
"241018","268-UM","2018/07/13 20:19:13","新北市三重區雙園街107號","121.493648333333","25.06733","6500200","三重區"
"241032","269-UM","2018/07/13 20:19:22","新北市三重區捷運路19巷8弄13號","121.484381666667","25.0572783333333","6500200","三重區"
"241013","270-UM","2018/07/13 20:19:26","新北市三重區三和路三段167巷10號","121.492238333333","25.0742533333333","6500200","三重區"
"241007","398-BY","2018/07/13 20:19:18","新北市三重區溪尾街108巷63號","121.487388333333","25.078255","6500200","三重區"
"241035","KEA-2210","2018/07/13 20:19:12","新北市三重區正義北路33巷6號","121.497906666667","25.063785","6500200","三重區"
"241025","413-TH","2018/07/13 20:19:26","新北市三重區頂崁街190號","121.477453333333","25.06638","6500200","三重區"
"241004","475-VK","2018/07/13 20:19:23","新北市三重區仁愛街390號","121.490825","25.0808416666667","6500200","三重區"
"241020","478-VK","2018/07/13 20:19:09","新北市三重區重陽路四段115號","121.49334","25.0720333333333","6500200","三重區"
"241030","480-VK","2018/07/13 20:19:28","新北市三重區環河南路254巷118號","121.487736666667","25.0523066666667","6500200","三重區"
"241014","543-UM","2018/07/13 20:19:27","新北市三重區龍門路252號","121.500968333333","25.0738966666667","6500200","三重區"
"241001","547-UM","2018/07/13 20:19:05","新北市三重區溪尾街46-1號","121.49072","25.0771533333333","6500200","三重區"
"241019","KEA-2593","2018/07/13 20:19:26","新北市三重區忠孝路一段77號","121.49044","25.0720383333333","6500200","三重區"
"241006","AAD-863","2018/07/13 20:19:26","新北市三重區車路頭街139巷14號","121.484313333333","25.0761733333333","6500200","三重區"
"241023","887-TS","2018/07/13 20:19:16","新北市三重區忠孝路三段84巷5號","121.480228333333","25.064375","6500200","三重區"
"241012","941-UM","2018/07/13 20:19:24","新北市三重區河邊北街379-1號","121.501711666667","25.0764816666667","6500200","三重區"
"241029","942-UM","2018/07/13 20:19:25","新北市三重區重安街98號","121.49266","25.056015","6500200","三重區"
"241033","AAC-255","2018/07/13 20:19:25","新北市三重區五谷王北街50巷40號","121.475163333333","25.0514083333333","6500200","三重區"
"235066","003-UY","2018/07/13 20:19:21","新北市中和區保平路326巷1號","121.50709","25.0043016666667","6500300","中和區"
"235039","097-UM","2018/07/13 20:19:16","新北市中和區大勇街27巷24號","121.516263333333","24.9941116666667","6500300","中和區"
"235065","098-UM","2018/07/13 20:19:13","新北市中和區永和路67-1號","121.496558333333","25.005345","6500300","中和區"
"235040","150-BY","2018/07/13 20:19:25","新北市中和區景安路130號","121.505141666667","24.994385","6500300","中和區"
"247010","KEA-2869","2018/07/13 20:19:25","新北市蘆洲區信義路253號","121.479063333333","25.084525","6501400","蘆洲區"
"235050","4979-A6","2018/07/13 20:19:16","新北市中和區景平路462號","121.505758333333","24.9935116666667","6500300","中和區"
"235069","4980-A6","2018/07/13 20:19:12","新北市中和區南山路127巷27弄26號","121.503361666667","24.99799","6500300","中和區"
"235059","AAC-215","2018/07/13 20:19:17","新北市中和區員山路30-3號","121.483673333333","24.9878433333333","6500300","中和區"
"247024","893-R6","2018/07/13 20:19:28","新北市蘆洲區光榮路120巷8弄41號","121.464461666667","25.0877966666667","6501400","蘆洲區"
"247014","546-UM","2018/07/13 20:19:18","新北市蘆洲區中山二路137巷31號","121.472466666667","25.0807633333333","6501400","蘆洲區"
"247004","337-TH","2018/07/13 20:19:27","新北市蘆洲區長安街297號","121.458001666667","25.0848233333333","6501400","蘆洲區"
"247006","336-TH","2018/07/13 20:19:31","新北市蘆洲區九芎街167巷6號","121.464943333333","25.0785883333333","6501400","蘆洲區"
"247018","057-VK","2018/07/13 20:19:18","新北市蘆洲區民族路291號","121.475395","25.0910516666667","6501400","蘆洲區"
"247008","053-VK","2018/07/13 20:19:20","新北市蘆洲區集賢路222-6號","121.482558333333","25.0865416666667","6501400","蘆洲區"
"247002","002-UY","2018/07/13 20:18:20","新北市蘆洲區環堤大道98號","121.455418333333","25.086255","6501400","蘆洲區"
"247020","001-UY","2018/07/13 20:19:23","新北市蘆洲區仁愛街46號","121.471831666667","25.0934316666667","6501400","蘆洲區"
"224010","AGQ-8101","2018/07/13 20:16:50","新北市瑞芳區烏勢巷145號","121.847448333333","25.1085666666667","6501200","瑞芳區"
"222001","KEA-2212","2018/07/13 20:19:08","新北市深坑區北深路三段262號","121.599496666667","25.00455","6501800","深坑區"
"251004","009-UM","2018/07/13 20:19:08","新北市淡水區民族路33巷16-14號","121.463175","25.1357266666667","6501000","淡水區"
"251002","012-UM","2018/07/13 20:19:19","新北市淡水區中正路206號","121.439738333333","25.1701116666667","6501000","淡水區"
"251008","181-VK","2018/07/13 20:19:23","新北市淡水區淡海路180巷13號","121.421098333333","25.1846566666667","6501000","淡水區"
"251010","413-VK","2018/07/13 20:19:13","新北市淡水區新民街一段132號","121.427771666667","25.1888516666667","6501000","淡水區"
"251012","441-VK","2018/07/13 20:19:30","新北市淡水區下圭柔山431-1號","121.449806666667","25.2102466666667","6501000","淡水區"
"251001","559-UM","2018/07/13 20:19:13","新北市淡水區新市二路四段265號","121.445728333333","25.1925016666667","6501000","淡水區"
"251006","561-UM","2018/07/13 20:19:09","新北市淡水區淡金路一段571號","121.452681666667","25.1805583333333","6501000","淡水區"
"251003","673-BX","2018/07/13 20:19:16","新北市淡水區中山北路一段196號","121.444526666667","25.17943","6501000","淡水區"
"207004","225-TW","2018/07/13 20:19:13","新北市萬里區北基里仁二街2號","121.682601666667","25.1756216666667","6502800","萬里區"
"252002","178-VK","2018/07/13 20:19:26","新北市三芝區中正路一段39號","121.5032","25.2583216666667","6502100","三芝區"
"252001","292-VK","2018/07/13 20:19:22","新北市三芝區中山路一段14號","121.500723333333","25.2580516666667","6502100","三芝區"
"236069","105-UM","2018/07/13 20:19:12","新北市土城區三民路4號","121.421093333333","24.9628966666667","6501300","土城區"
"236030","253-BX","2018/07/13 20:19:10","新北市土城區學成路128巷13弄2號","121.449615","24.99013","6501300","土城區"
"236026","269-VK","2018/07/13 20:19:31","新北市土城區中央路一段249巷12號","121.445893333333","24.9855016666667","6501300","土城區"
"236014","270-VK","2018/07/13 20:19:17","新北市土城區廣明街90巷21號","121.455386666667","24.994565","6501300","土城區"
"236059","912-UM","2018/07/13 20:19:14","新北市土城區大安路101-5號","121.433466666667","24.9684966666667","6501300","土城區"
"242034","AAC-296","2018/07/13 20:19:21","新北市新莊區建中街136號","121.44515","25.036575","6500500","新莊區"
"242058","986-R7","2018/07/13 20:19:10","新北市新莊區龍安路266巷3號","121.421685","25.01918","6500500","新莊區"
"242054","751-BX","2018/07/13 20:19:30","新北市新莊區民安西路261巷1號","121.4263","25.0132083333333","6500500","新莊區"
"242023","705-TV","2018/07/13 20:19:17","新北市新莊區化成路766號","121.465223333333","25.0588466666667","6500500","新莊區"
"242027","615-BX","2018/07/13 20:19:18","新北市新莊區幸福路570號","121.454233333333","25.0493483333333","6500500","新莊區"
"242025","613-BX","2018/07/13 20:19:13","新北市新莊區五工一路72巷3號","121.461981666667","25.067035","6500500","新莊區"
"242029","612-BX","2018/07/13 20:19:23","新北市新莊區中華路二段163號","121.452886666667","25.0519016666667","6500500","新莊區"
"242041","566-BX","2018/07/13 20:19:15","新北市新莊區中正路694巷116號","121.416755","25.0302216666667","6500500","新莊區"
"242046","497-BY","2018/07/13 20:19:11","新北市新莊區中正路新生巷8號","121.416833333333","25.02404","6500500","新莊區"
"242039","442-UM","2018/07/13 20:19:20","新北市新莊區成功街78-1號","121.424106666667","25.0189166666667","6500500","新莊區"
"242050","441-UM","2018/07/13 20:19:20","新北市新莊區民安西路210號","121.425826666667","25.014865","6500500","新莊區"
"242056","440-UM","2018/07/13 20:19:25","新北市新莊區新莊路649巷7號","121.445061666667","25.0321733333333","6500500","新莊區"
"242037","415-TV","2018/07/13 20:19:29","新北市新莊區後港一路56巷24弄10號","121.426228333333","25.0252183333333","6500500","新莊區"
"242007","413-TV","2018/07/13 20:19:25","新北市新莊區福壽街124巷41弄14號","121.459296666667","25.0517716666667","6500500","新莊區"
"242044","400-BY","2018/07/13 20:19:23","新北市新莊區中正路新建巷30號","121.414415","25.0217716666667","6500500","新莊區"
"242060","353-BY","2018/07/13 20:19:12","新北市新莊區瓊林路204-18號","121.43669","25.0216383333333","6500500","新莊區"
"242009","132-UY","2018/07/13 20:19:22","新北市新莊區昌平街9號","121.454818333333","25.0517216666667","6500500","新莊區"
"242032","135-UY","2018/07/13 20:19:27","新北市新莊區三和路13-6號","121.439045","25.0361683333333","6500500","新莊區"
"242048","172-VK","2018/07/13 20:19:13","新北市新莊區龍安路252-1號","121.421043333333","25.0195966666667","6500500","新莊區"
"242011","173-VK","2018/07/13 20:19:28","新北市新莊區中信街19號","121.451078333333","25.0507583333333","6500500","新莊區"
"242017","175-VK","2018/07/13 20:19:19","新北市新莊區中港二街124號","121.448536666667","25.0456983333333","6500500","新莊區"
"242005","176-VK","2018/07/13 20:19:25","新北市新莊區頭前路2巷17號","121.468325","25.0535316666667","6500500","新莊區"
"242015","346-TH","2018/07/13 20:19:15","新北市新莊區永樂街236號","121.446041666667","25.04447","6500500","新莊區"
"242021","348-TH","2018/07/13 20:19:13","新北市新莊區復興路一段10號","121.445691666667","25.04146","6500500","新莊區"
"242002","349-TH","2018/07/13 20:19:17","新北市新莊區中正路40號","121.464711666667","25.0416666666667","6500500","新莊區"
"242013","351-TH","2018/07/13 20:19:20","新北市新莊區中和街186巷2弄2號","121.447585","25.0497233333333","6500500","新莊區"
"221008","489-VK","2018/07/13 20:19:15","新北市汐止區康寧街434號","121.630941666667","25.0681133333333","6501100","汐止區"
"221036","130-UY","2018/07/13 20:19:21","新北市汐止區福安街57巷7號","121.664073333333","25.064005","6501100","汐止區"
"221015","131-UY","2018/07/13 20:19:23","新北市汐止區建成路160巷16號","121.661831666667","25.07404","6501100","汐止區"
"221010","269-BY","2018/07/13 20:19:18","新北市汐止區八連路二段494號","121.628335","25.106885","6501100","汐止區"
"221012","278-VK","2018/07/13 20:19:25","新北市汐止區保新街101號","121.687135","25.0712783333333","6501100","汐止區"
"221023","279-VK","2018/07/13 20:19:15","新北市汐止區湖東街5巷9號","121.634038333333","25.0730333333333","6501100","汐止區"
"221032","280-BY","2018/07/13 20:19:16","新北市汐止區民權街二段70號","121.619075","25.0481633333333","6501100","汐止區"
"221027","281-BY","2018/07/13 20:19:16","新北市汐止區大同路二段403號","121.65818","25.0672883333333","6501100","汐止區"
"221033","297-VK","2018/07/13 20:19:22","新北市汐止區東勢街92號","121.633385","25.04115","6501100","汐止區"
"221029","298-VK","2018/07/13 20:19:12","新北市汐止區工建路92號","121.639596666667","25.06344","6501100","汐止區"
"221021","299-VK","2018/07/13 20:19:13","新北市汐止區水源路一段288號","121.654153333333","25.0581166666667","6501100","汐止區"
"221031","353-TW","2018/07/13 20:19:27","新北市汐止區中興路150巷8號","121.633135","25.064975","6501100","汐止區"
"221035","622-UM","2018/07/13 20:19:10","新北市汐止區長江街101-5號","121.658738333333","25.0731983333333","6501100","汐止區"
"221025","623-UM","2018/07/13 20:19:25","新北市汐止區水源路二段32號","121.654913333333","25.0573266666667","6501100","汐止區"
"221038","646-BX","2018/07/13 20:19:07","新北市汐止區茄苳路45號","121.66598","25.0708933333333","6501100","汐止區"
"221002","707-TV","2018/07/13 20:19:26","新北市汐止區福德三路26號","121.636826666667","25.0694233333333","6501100","汐止區"
"221018","753-BX","2018/07/13 20:19:17","新北市汐止區茄苳路252號","121.671523333333","25.0683316666667","6501100","汐止區"
"220101","245-BX","2018/07/13 20:19:19","新北市板橋區莊敬路25巷2號","121.473778333333","25.0279016666667","6500100","板橋區"
"220083","286-VK","2018/07/13 20:19:26","新北市板橋區僑中二街102巷28號","121.445016666667","25.008415","6500100","板橋區"
"220081","287-VK","2018/07/13 20:19:26","新北市板橋區僑中一街80巷7弄5號","121.447555","25.01278","6500100","板橋區"
"220061","293-UM","2018/07/13 20:19:19","新北市板橋區文華街2號","121.45821","25.0002933333333","6500100","板橋區"
"242019","281-VK","2018/07/13 20:19:24","新北市新莊區銘德街30號","121.458353333333","25.0439916666667","6500500","新莊區"
"220088","491-VK","2018/07/13 20:19:19","新北市五股區新城八路1號","121.44786","25.088875","6500100","板橋區"
"220103","561-BX","2018/07/13 20:19:26","新北市板橋區新海路11號","121.462535","25.0206883333333","6500100","板橋區"
"220102","KEA-2699","2018/07/13 20:19:16","新北市板橋區縣民大道二段166號","121.46837","25.016675","6500100","板橋區"
"220089","833-TW","2018/07/13 20:19:11","新北市板橋區陽明街162號","121.463355","25.0244083333333","6500100","板橋區"
"220070","AAC-253","2018/07/13 20:19:19","新北市板橋區南雅南路二段116號","121.453261666667","25.00039","6500100","板橋區"
