"lineid","car","time","location","longitude","latitude","cityid","cityname"
"234077","969-R7","2018/07/13 21:19:08","新北市八里區下罟子8-28號","121.384056666667","25.1410316666667","6500400","永和區"
"231059","046-UY","2018/07/13 21:19:14","新北市新店區薏仁坑路自強巷6號","121.496793333333","24.9583966666667","6500600","新店區"
"231040","047-UY","2018/07/13 21:19:24","新北市新店區北新路一段2號","121.540736666667","24.9652166666667","6500600","新店區"
"231048","187-VK","2018/07/13 21:19:23","新北市新店區中正路351號","121.535336666667","24.9759833333333","6500600","新店區"
"231054","KEA-2219","2018/07/13 21:19:13","新北市新店區光明街147號","121.539413333333","24.9622283333333","6500600","新店區"
"231051","278-BY","2018/07/13 21:19:18","新北市新店區溪園路247號","121.525533333333","24.98376","6500600","新店區"
"231050","AAD-862","2018/07/13 21:19:18","新北市新店區中正路284巷2號","121.538283333333","24.9747033333333","6500600","新店區"
"231063","616-UM","2018/07/13 21:19:14","新北市新店區吉祥街15巷1號","121.497761666667","24.9456233333333","6500600","新店區"
"231060","897-TW","2018/07/13 21:19:26","新北市新店區安康路二段382號","121.500391666667","24.9571116666667","6500600","新店區"
"241011","013-R5","2018/07/13 21:19:10","新北市三重區龍濱路191號","121.501903333333","25.071275","6500200","三重區"
"241028","022-UY","2018/07/13 21:19:15","新北市三重區同安東街82號","121.499053333333","25.0574883333333","6500200","三重區"
"241008","059-VK","2018/07/13 21:19:18","新北市三重區自強路一段68號","121.496941666667","25.0664883333333","6500200","三重區"
"241031","061-VK","2018/07/13 21:19:11","新北市三重區五谷王南街46巷37號","121.47574","25.04554","6500200","三重區"
"241017","063-VK","2018/07/13 21:19:16","新北市三重區大同北路108號","121.493331666667","25.0639516666667","6500200","三重區"
"241024","065-VK","2018/07/13 21:19:19","新北市三重區中正北路145巷14號","121.484111666667","25.0677633333333","6500200","三重區"
"241026","066-VK","2018/07/13 21:19:26","新北市三重區大同南路220號","121.49683","25.0562366666667","6500200","三重區"
"241002","090-VK","2018/07/13 21:19:27","新北市三重區五華街60號","121.494055","25.0814666666667","6500200","三重區"
"241003","091-VK","2018/07/13 21:19:23","新北市三重區仁義街220巷1號","121.495318333333","25.0841583333333","6500200","三重區"
"241005","262-UM","2018/07/13 21:19:21","新北市三重區五華街180巷11號","121.488255","25.0860166666667","6500200","三重區"
"241016","266-UM","2018/07/13 21:19:20","新北市三重區自強路一段95號","121.495848333333","25.066345","6500200","三重區"
"241009","267-UM","2018/07/13 21:19:16","新北市三重區忠孝路二段160號","121.482268333333","25.0680783333333","6500200","三重區"
"241018","268-UM","2018/07/13 21:19:13","新北市三重區忠孝路二段87號","121.484418333333","25.0701716666667","6500200","三重區"
"241032","269-UM","2018/07/13 21:19:22","新北市三重區光復路二段170號","121.472156666667","25.06113","6500200","三重區"
"241013","270-UM","2018/07/13 21:19:26","新北市三重區仁愛街81號","121.496015","25.073095","6500200","三重區"
"241007","398-BY","2018/07/13 21:19:18","新北市三重區自強路三段114號","121.487036666667","25.0747166666667","6500200","三重區"
"241025","413-TH","2018/07/13 21:19:26","新北市三重區中正北路208巷10弄4號","121.482363333333","25.0669466666667","6500200","三重區"
"241004","475-VK","2018/07/13 21:19:22","新北市三重區碧華街251號","121.489441666667","25.0831283333333","6500200","三重區"
"241030","480-VK","2018/07/13 21:19:28","新北市三重區五谷王北街181-1號","121.47725","25.054205","6500200","三重區"
"241014","543-UM","2018/07/13 21:19:27","新北市三重區萬全街15號","121.499458333333","25.069635","6500200","三重區"
"241019","KEA-2593","2018/07/13 21:19:21","新北市三重區重陽路三段37號","121.489301666667","25.066915","6500200","三重區"
"241006","AAD-863","2018/07/13 21:19:26","新北市三重區重陽路二段67號","121.48777","25.0637966666667","6500200","三重區"
"241023","887-TS","2018/07/13 21:19:16","新北市三重區中正北路176巷27號","121.482651666667","25.0659633333333","6500200","三重區"
"241012","941-UM","2018/07/13 21:19:24","新北市三重區龍門路284號","121.502016666667","25.0740933333333","6500200","三重區"
"241033","AAC-255","2018/07/13 21:19:25","新北市三重區光復路二段102巷59號","121.469038333333","25.0581616666667","6500200","三重區"
"247010","KEA-2869","2018/07/13 21:19:24","新北市蘆洲區鷺江街23號","121.47888","25.08244","6501400","蘆洲區"
"247024","893-R6","2018/07/13 21:19:28","新北市蘆洲區光明路6號","121.460575","25.08657","6501400","蘆洲區"
"247014","546-UM","2018/07/13 21:19:18","新北市蘆洲區保和街50-6號","121.469836666667","25.086265","6501400","蘆洲區"
"247004","337-TH","2018/07/13 21:19:27","新北市蘆洲區環堤大道2-1號","121.456888333333","25.082635","6501400","蘆洲區"
"247006","336-TH","2018/07/13 21:19:11","新北市蘆洲區長安街60號","121.46296","25.079885","6501400","蘆洲區"
"247018","057-VK","2018/07/13 21:19:18","新北市蘆洲區復興路105巷11號","121.476391666667","25.0883883333333","6501400","蘆洲區"
"247008","053-VK","2018/07/13 21:19:20","新北市蘆洲區中山一路161號","121.475613333333","25.0815216666667","6501400","蘆洲區"
"247016","007-UY","2018/07/13 21:19:30","新北市蘆洲區長榮路269巷32號","121.45934","25.08592","6501400","蘆洲區"
"247002","002-UY","2018/07/13 21:19:00","新北市蘆洲區永樂街38巷8號","121.458265","25.0887766666667","6501400","蘆洲區"
"247020","001-UY","2018/07/13 21:19:23","新北市蘆洲區民族路422巷116號","121.47252","25.0941733333333","6501400","蘆洲區"
"251002","012-UM","2018/07/13 21:19:19","新北市淡水區學府路172巷21號","121.44832","25.1748533333333","6501000","淡水區"
"251008","181-VK","2018/07/13 21:19:25","新北市淡水區水源街二段240號","121.461183333333","25.17632","6501000","淡水區"
"251010","413-VK","2018/07/13 21:19:13","新北市淡水區中正路一段156巷12號","121.421825","25.1808516666667","6501000","淡水區"
"251012","441-VK","2018/07/13 21:19:10","新北市淡水區淡金路五段35巷46號","121.452473333333","25.2347316666667","6501000","淡水區"
"251007","442-VK","2018/07/13 21:19:17","新北市淡水區水源街二段189-2號","121.456581666667","25.17587","6501000","淡水區"
"251005","443-VK","2018/07/13 21:19:16","新北市淡水區水源街一段122巷9號","121.447286666667","25.1713183333333","6501000","淡水區"
"251001","559-UM","2018/07/13 21:19:13","新北市淡水區濱海路一段306巷60弄33號","121.44195","25.191625","6501000","淡水區"
"251011","650-BX","2018/07/13 21:19:21","新北市淡水區新民街120巷29號","121.438896666667","25.178845","6501000","淡水區"
"251003","673-BX","2018/07/13 21:19:16","新北市淡水區崁頂15-5號","121.439001666667","25.1858983333333","6501000","淡水區"
"242009","132-UY","2018/07/13 21:19:22","新北市樹林區八德街365-5號","121.417941666667","24.97229","6500500","新莊區"
"220070","AAC-253","2018/07/13 21:19:19","新北市五股區天乙路101-6號","121.445261666667","25.10691","6500100","板橋區"
