"lineid","car","time","location","longitude","latitude","cityid","cityname"
"234077","969-R7","2018/07/13 21:49:28","新北市永和區福和路1號","121.52633","25.0097966666667","6500400","永和區"
"241006","AAD-863","2018/07/13 21:49:26","新北市八里區中山路三段383號","121.372493333333","25.1376533333333","6500200","三重區"
"247010","KEA-2869","2018/07/13 21:49:24","新北市八里區中山路三段409號","121.368875","25.135145","6501400","蘆洲區"
"235010","733-UM","2018/07/13 21:43:45","新北市中和區員山路36巷13號","121.484176666667","24.9908083333333","6500300","中和區"
"251004","009-UM","2018/07/13 21:49:20","新北市淡水區民權路92巷35-1號","121.462035","25.1266016666667","6501000","淡水區"
"251002","012-UM","2018/07/13 21:49:19","新北市淡水區大忠街157號","121.448188333333","25.1766366666667","6501000","淡水區"
"251008","181-VK","2018/07/13 21:49:25","新北市淡水區學府路104號","121.449886666667","25.171815","6501000","淡水區"
"251010","413-VK","2018/07/13 21:49:33","新北市淡水區中正路二段211號","121.426186666667","25.1891383333333","6501000","淡水區"
"251012","441-VK","2018/07/13 21:49:30","新北市淡水區淡金路三段256號","121.448985","25.206435","6501000","淡水區"
"251007","442-VK","2018/07/13 21:49:16","新北市淡水區水源街二段177巷104號","121.452215","25.1773066666667","6501000","淡水區"
"251005","443-VK","2018/07/13 21:49:16","新北市淡水區鄧公路30巷32弄5號","121.453641666667","25.17015","6501000","淡水區"
"251001","559-UM","2018/07/13 21:49:13","新北市淡水區後洲路一段157號","121.427745","25.1985583333333","6501000","淡水區"
"251006","561-UM","2018/07/13 21:49:29","新北市淡水區中正路11巷3號","121.437821666667","25.1707533333333","6501000","淡水區"
"251009","575-R6","2018/07/13 21:49:17","新北市淡水區民族路35巷38號","121.465156666667","25.1368","6501000","淡水區"
"251011","650-BX","2018/07/13 21:49:21","新北市淡水區新民街322巷5弄6號","121.43651","25.1829283333333","6501000","淡水區"
"251003","673-BX","2018/07/13 21:49:16","新北市淡水區新春街86號","121.438738333333","25.182285","6501000","淡水區"
"220070","AAC-253","2018/07/13 21:49:19","新北市板橋區華東街1-9號","121.44823","24.99483","6500100","板橋區"
