"lineid","car","time","location","longitude","latitude","cityid","cityname"
"248005","653-BX","2018/07/14 07:09:36","新北市五股區新五路二段57-1號","121.436191666667","25.0719066666667","6501500","五股區"
"232004","290-BY","2018/07/14 07:09:30","新北市坪林區粗石斛6-1號","121.750275","24.952595","6502000","坪林區"
"232016","291-BY","2018/07/14 07:09:22","新北市坪林區金瓜寮10-1號","121.681495","24.91641","6502000","坪林區"
"232010","375-UM","2018/07/14 07:09:31","新北市坪林區水聳淒坑6號","121.725455","24.9264166666667","6502000","坪林區"
"232009","758-BX","2018/07/14 07:09:24","新北市坪林區魚堀55-1號","121.706656666667","24.9292516666667","6502000","坪林區"
"244005","248-BX","2018/07/14 07:09:42","新北市林口區南勢里76-11號","121.349233333333","25.0770233333333","6501700","林口區"
"222004","289-BY","2018/07/14 06:59:49","新北市深坑區昇高坑路50-1號","121.62941","24.9959","6501800","深坑區"
"235001","611-BX","2018/07/14 07:09:42","新北市中和區圓通路367巷6號","121.491548333333","24.9892566666667","6500300","中和區"
"226005","5620-A6","2018/07/14 07:09:33","新北市平溪區菁桐里菁桐街117號","121.72431","25.0239716666667","6502400","平溪區"
"226007","7418-A5","2018/07/14 07:09:42","新北市平溪區石底里公園街22號","121.737426666667","25.024775","6502400","平溪區"
"226003","AGD-0702","2018/07/14 07:09:39","新北市平溪區嶺腳里嶺腳寮1-1號","121.746201666667","25.0286866666667","6502400","平溪區"
"223006","022-BY","2018/07/14 07:09:21","新北市石碇區深按2號","121.659381666667","25.0182933333333","6501900","石碇區"
"223002","KEA-2673","2018/07/14 07:09:26","新北市石碇區碇格路二段31號","121.638945","24.9574116666667","6501900","石碇區"
"223003","205-TH","2018/07/14 07:09:38","新北市石碇區烏塗窟21-1號","121.656866666667","24.9750966666667","6501900","石碇區"
"223008","406-TH","2018/07/14 07:09:29","新北市石碇區番子坑20號","121.673848333333","25.0014916666667","6501900","石碇區"
"223001","592-UM","2018/07/14 07:09:37","新北市石碇區烏塗窟1號","121.656096666667","24.97592","6501900","石碇區"
"223004","660-BX","2018/07/14 07:09:35","新北市石碇區碇坪路一段10號","121.651601666667","25.00599","6501900","石碇區"
"223007","661-BX","2018/07/14 07:09:27","新北市石碇區番子坑14-2號","121.680585","25.0014216666667","6501900","石碇區"
"223005","677-TV","2018/07/14 07:09:10","新北市石碇區石崁1號","121.651698333333","25.0019566666667","6501900","石碇區"
"227006","030-BX","2018/07/14 07:09:36","新北市雙溪區新基里自強路5號","121.86635","25.038985","6502500","雙溪區"
"252004","249-BX","2018/07/14 07:09:40","新北市三芝區錫板里小坑子11-1號","121.502948333333","25.236895","6502100","三芝區"
"252005","AAC-283","2018/07/14 07:09:38","新北市三芝區福德里埔尾9-19號","121.499536666667","25.2427933333333","6502100","三芝區"
"236011","165-UM","2018/07/14 07:09:28","新北市土城區承天路1號","121.435816666667","24.9664816666667","6501300","土城區"
"236002","339-SR","2018/07/14 07:09:36","新北市土城區承天路31號","121.437093333333","24.9650466666667","6501300","土城區"
