"lineid","car","time","location","longitude","latitude","cityid","cityname"
"248005","653-BX","2018/04/16 07:59:38","新北市五股區明德路12巷6號","121.433391666667","25.07185","6501500","五股區"
"232001","290-BY","2018/04/16 07:59:46","新北市坪林區下坑子口17號","121.710711666667","24.9473633333333","6502000","坪林區"
"232012","291-BY","2018/04/16 07:59:34","新北市坪林區金瓜寮24-3號","121.679056666667","24.909305","6502000","坪林區"
"232010","375-UM","2018/04/16 07:53:13","新北市坪林區厚德岡坑2-1號","121.728655","24.9413133333333","6502000","坪林區"
"232017","705-BZ","2018/04/16 07:59:39","新北市坪林區乾溪8號","121.748501666667","24.96559","6502000","坪林區"
"232005","758-BX","2018/04/16 07:59:43","新北市坪林區九芎林30號","121.702571666667","24.9217583333333","6502000","坪林區"
"244001","248-BX","2018/04/16 07:59:33","新北市林口區頂福42號","121.354616666667","25.0983366666667","6501700","林口區"
"244018","403-UM","2018/04/16 07:59:46","新北市林口區粉寮路23號","121.400241666667","25.08264","6501700","林口區"
"244008","410-SL","2018/04/16 07:59:54","新北市林口區粉寮路二段96號","121.404475","25.0890616666667","6501700","林口區"
"244022","483-VK","2018/04/16 07:59:47","新北市林口區粉寮路二段24號","121.402756666667","25.0863","6501700","林口區"
"244010","701-TV","2018/04/16 07:59:36","新北市林口區粉寮路37-1號","121.401155","25.0849666666667","6501700","林口區"
"244024","837-TS","2018/04/16 07:59:50","新北市林口區粉寮路二段160巷28號","121.405205","25.0908116666667","6501700","林口區"
"244020","838-TS","2018/04/16 07:59:33","新北市林口區粉寮69號","121.40485","25.0908183333333","6501700","林口區"
"231007","189-VK","2018/04/16 07:59:45","新北市新店區安華路28-1號","121.519738333333","24.9615516666667","6500600","新店區"
"231008","192-VK","2018/04/16 07:59:38","新北市新店區安華路28-1號","121.51919","24.9611266666667","6500600","新店區"
"235001","611-BX","2018/04/16 07:59:36","新北市中和區圓通路367巷6號","121.491416666667","24.9891533333333","6500300","中和區"
"226005","5620-A6","2018/04/16 07:59:48","新北市平溪區石底里公園街18-3號","121.733523333333","25.02557","6502400","平溪區"
"226001","7418-A5","2018/04/16 07:59:30","新北市平溪區十分里十分街160號","121.778438333333","25.0433466666667","6502400","平溪區"
"226003","AGD-0702","2018/04/16 07:59:33","新北市平溪區新寮里頂寮子4號","121.773731666667","25.0518566666667","6502400","平溪區"
"223006","022-BY","2018/04/16 07:59:37","新北市石碇區十八重溪63號","121.674915","25.01358","6501900","石碇區"
"223002","KEA-2673","2018/04/16 07:59:44","新北市石碇區北宜路五段55號","121.631933333333","24.95179","6501900","石碇區"
"223001","205-TH","2018/04/16 07:59:33","新北市石碇區樟空子10-3號","121.666651666667","24.9638016666667","6501900","石碇區"
"223008","406-TH","2018/04/16 07:59:32","新北市石碇區蚯蚓坑22-1號","121.689411666667","25.0063833333333","6501900","石碇區"
"223001","592-UM","2018/04/16 07:59:40","新北市石碇區樟空子10-3號","121.666696666667","24.9636833333333","6501900","石碇區"
"223004","660-BX","2018/04/16 07:59:44","新北市石碇區碇坪路一段8號","121.651578333333","25.0061083333333","6501900","石碇區"
"223007","661-BX","2018/04/16 07:59:47","新北市石碇區蚯蚓坑22-1號","121.688126666667","25.0072666666667","6501900","石碇區"
"223005","677-TV","2018/04/16 07:59:50","新北市石碇區碇坪路一段18號","121.651761666667","25.00566","6501900","石碇區"
"227005","282-VK","2018/04/16 07:59:44","新北市雙溪區平林里梅竹蹊30號","121.861568333333","25.0359766666667","6502500","雙溪區"
"252006","073-UM","2018/04/16 07:59:46","新北市三芝區海景一街3號","121.471816666667","25.24704","6502100","三芝區"
"252004","249-BX","2018/04/16 07:59:35","新北市三芝區店子里店子72-3號","121.508401666667","25.20207","6502100","三芝區"
"237001","159-UY","2018/04/16 07:59:40","新北市三峽區大學路45號","121.376925","24.940685","6500900","三峽區"
"236007","165-UM","2018/04/16 07:59:40","新北市土城區延吉街286號","121.464948333333","24.9842016666667","6501300","土城區"
"236001","339-SR","2018/04/16 07:59:41","新北市土城區龍泉路89-1號","121.446271666667","24.9420683333333","6501300","土城區"
"242033","AAC-296","2018/04/16 07:59:49","新北市新莊區新莊路378號","121.449176666667","25.03342","6500500","新莊區"
"242057","986-R7","2018/04/16 07:59:22","新北市新莊區中正路400號","121.441546666667","25.0339166666667","6500500","新莊區"
"242052","751-BX","2018/04/16 07:59:32","新北市新莊區瓊林南路305巷23號","121.4354","25.00502","6500500","新莊區"
"242028","705-TV","2018/04/16 07:59:33","新北市新莊區復興路二段174號","121.458595","25.04432","6500500","新莊區"
"242026","615-BX","2018/04/16 07:59:45","新北市新莊區思源路103號","121.460208333333","25.0416333333333","6500500","新莊區"
"242024","613-BX","2018/04/16 07:59:46","新北市新莊區復興路二段61號","121.455153333333","25.0442966666667","6500500","新莊區"
"242040","566-BX","2018/04/16 07:59:41","新北市新莊區新樹路113巷26-1號","121.438628333333","25.0267166666667","6500500","新莊區"
"242045","497-BY","2018/04/16 07:59:32","新北市新莊區新樹路21號","121.440428333333","25.0324916666667","6500500","新莊區"
"242049","441-UM","2018/04/16 07:59:51","新北市新莊區新樹路266-1號","121.432608333333","25.0139716666667","6500500","新莊區"
"242055","440-UM","2018/04/16 07:59:43","新北市新莊區新泰路35號","121.449625","25.0331183333333","6500500","新莊區"
"242035","415-TV","2018/04/16 07:59:47","新北市新莊區建國二路1號","121.435051666667","25.023755","6500500","新莊區"
"242006","413-TV","2018/04/16 07:59:45","新北市新莊區福樂街118巷18號","121.457505","25.0483933333333","6500500","新莊區"
"242043","400-BY","2018/04/16 07:59:43","新北市新莊區富國路99號","121.420908333333","25.025675","6500500","新莊區"
"242022","362-BY","2018/04/16 07:59:47","新北市新莊區公園路39號","121.45315","25.0401466666667","6500500","新莊區"
"242059","353-BY","2018/04/16 07:59:42","新北市新莊區瓊林南路42巷2-2號","121.43604","25.0181716666667","6500500","新莊區"
"242038","133-UY","2018/04/16 07:59:48","新北市新莊區民安東路2號","121.427795","25.02093","6500500","新莊區"
"242047","172-VK","2018/04/16 07:59:33","新北市新莊區四維路210號","121.421593333333","25.0200466666667","6500500","新莊區"
"242016","175-VK","2018/04/16 07:59:37","新北市新莊區德豐街4號","121.451631666667","25.0439783333333","6500500","新莊區"
"242003","176-VK","2018/04/16 07:59:42","新北市新莊區中港路288巷18號","121.453578333333","25.04458","6500500","新莊區"
"242014","346-TH","2018/04/16 07:59:39","新北市新莊區新泰路152號","121.447761666667","25.0373283333333","6500500","新莊區"
"242018","347-TH","2018/04/16 07:59:40","新北市新莊區中港路61號","121.455328333333","25.038455","6500500","新莊區"
"242020","348-TH","2018/04/16 07:59:31","新北市新莊區中華路一段10號","121.45203","25.0369583333333","6500500","新莊區"
"242012","351-TH","2018/04/16 07:59:48","新北市新莊區中誠街16巷7號","121.451958333333","25.0485333333333","6500500","新莊區"
"242001","KEA-2550","2018/04/16 07:59:37","新北市新莊區瓊林路118號","121.442251666667","25.0257566666667","6500500","新莊區"
"220070","282-UM","2018/04/16 07:59:32","新北市板橋區南雅南路二段38-5號","121.454263333333","25.0029083333333","6500100","板橋區"
"242008","281-VK","2018/04/16 07:59:48","新北市新莊區中原路189-1號","121.452408333333","25.05435","6500500","新莊區"
"242030","280-VK","2018/04/16 07:59:34","新北市新莊區新泰路401巷28-1號","121.44247","25.0439983333333","6500500","新莊區"
