"lineid","car","time","location","longitude","latitude","cityid","cityname"
"248005","653-BX","2018/04/16 09:47:28","新北市五股區成泰路一段6號","121.434345","25.067325","6501500","五股區"
"244012","069-UM","2018/04/16 09:47:42","新北市林口區麗園一街7號","121.376296666667","25.0717833333333","6501700","林口區"
"244018","403-UM","2018/04/16 09:47:26","新北市林口區麗園二街36巷1號","121.38039","25.0691416666667","6501700","林口區"
"244022","483-VK","2018/04/16 09:47:27","新北市林口區民權路77號","121.371946666667","25.080895","6501700","林口區"
"244017","485-VK","2018/04/16 09:47:42","新北市林口區粉寮路一段137號","121.399055","25.0810766666667","6501700","林口區"
"244010","701-TV","2018/04/16 09:47:36","新北市林口區嘉溪雅坑8號","121.341848333333","25.104525","6501700","林口區"
"222005","289-BY","2018/04/16 09:45:59","新北市深坑區昇高坑路43號","121.629883333333","24.9975416666667","6501800","深坑區"
"231007","189-VK","2018/04/16 09:47:26","新北市新店區新潭路三段215巷25號","121.50813","24.9040416666667","6500600","新店區"
"231008","192-VK","2018/04/16 09:42:01","新北市新店區平廣路一段256號","121.507885","24.88832","6500600","新店區"
"223001","205-TH","2018/04/16 09:47:33","新北市石碇區北宜路四段26號","121.623146666667","24.9578966666667","6501900","石碇區"
"223005","677-TV","2018/04/16 09:47:32","新北市石碇區小粗坑(潭邊里)2號","121.671276666667","24.982495","6501900","石碇區"
"227005","282-VK","2018/04/16 09:34:20","新北市雙溪區泰平里溪尾寮1號","121.821048333333","24.96015","6502500","雙溪區"
"252004","249-BX","2018/04/16 09:47:35","新北市三芝區福德里大湖13-1號","121.51537","25.2234566666667","6502100","三芝區"
"252006","AAC-283","2018/04/16 09:47:41","新北市三芝區新庄里新庄子91-1號","121.510361666667","25.2694033333333","6502100","三芝區"
"237001","159-UY","2018/04/16 09:47:40","新北市三峽區學府路8號","121.371875","24.9474483333333","6500900","三峽區"
"236005","498-BY","2018/04/16 09:47:30","新北市土城區中央路二段390巷14號","121.438065","24.972275","6501300","土城區"
"242057","986-R7","2018/04/16 09:47:42","新北市新莊區四維路117號","121.423081666667","25.0232366666667","6500500","新莊區"
"242024","613-BX","2018/04/16 09:47:30","新北市新莊區新泰路357巷3弄57號","121.442208333333","25.0391933333333","6500500","新莊區"
"242055","440-UM","2018/04/16 09:47:23","新北市新莊區瓊泰路94巷14號","121.443798333333","25.0294133333333","6500500","新莊區"
"242043","400-BY","2018/04/16 09:47:43","新北市新莊區龍安路90號","121.417648333333","25.0207683333333","6500500","新莊區"
"242059","353-BY","2018/04/16 09:47:40","新北市新莊區新樹路280號","121.432568333333","25.0126816666667","6500500","新莊區"
"242003","176-VK","2018/04/16 09:47:42","新北市新莊區思源路63號","121.459873333333","25.0404316666667","6500500","新莊區"
"242001","KEA-2550","2018/04/16 09:47:37","新北市新莊區中港路五守新村23巷2號","121.454971666667","25.0384766666667","6500500","新莊區"
"242030","280-VK","2018/04/16 09:47:34","新北市新莊區三泰路7號","121.44009","25.0342216666667","6500500","新莊區"
