"lineid","car","time","location","longitude","latitude","cityid","cityname"
"234044","148-BY","2018/04/16 13:19:40","新北市永和區得和路324號","121.523168333333","24.9995083333333","6500400","永和區"
"234068","149-BY","2018/04/16 13:19:45","新北市永和區豫溪街84號","121.51795","25.009945","6500400","永和區"
"234005","207-UY","2018/04/16 13:19:39","新北市永和區保生路3號","121.506261666667","25.0073033333333","6500400","永和區"
"234078","298-R6","2018/04/16 13:19:36","新北市永和區福和路7巷9-1號","121.5255","25.0077466666667","6500400","永和區"
"234036","336-UY","2018/04/16 13:19:45","新北市永和區民樂街49號","121.527441666667","24.9988183333333","6500400","永和區"
"234062","337-UY","2018/04/16 13:19:43","新北市永和區永元路17巷15號","121.521158333333","25.00075","6500400","永和區"
"234084","338-UY","2018/04/16 13:19:28","新北市永和區永利路38號","121.51865","25.00556","6500400","永和區"
"234066","553-UM","2018/04/16 13:19:48","新北市永和區保平路30巷3號","121.511673333333","25.0075716666667","6500400","永和區"
"234015","745-BX","2018/04/16 13:19:37","新北市永和區文化路144巷31弄8號","121.512385","25.0167716666667","6500400","永和區"
"234028","746-BX","2018/04/16 13:19:33","新北市永和區厚德街60號","121.524381666667","24.9987933333333","6500400","永和區"
"234052","KEA-2590","2018/04/16 13:19:33","新北市永和區中興街20號","121.516043333333","25.01185","6500400","永和區"
"234012","KEA-2591","2018/04/16 13:19:30","新北市永和區信義路39號","121.51339","25.012285","6500400","永和區"
"234060","AAD-866","2018/04/16 13:19:32","新北市永和區秀朗路一段120號","121.517015","25.0036366666667","6500400","永和區"
"234040","862-TW","2018/04/16 13:19:43","新北市永和區保平路151巷6弄12號","121.509791666667","25.005055","6500400","永和區"
"234048","863-TW","2018/04/16 13:19:27","新北市永和區保福路二段88巷17號","121.511456666667","25.01386","6500400","永和區"
"234025","9371-KE","2018/04/16 13:19:37","新北市永和區豫溪街42巷4號","121.51541","25.0095916666667","6500400","永和區"
"234010","9373-KE","2018/04/16 13:19:46","新北市永和區永和路二段425巷57弄1號","121.513716666667","25.0172183333333","6500400","永和區"
"248015","026-BX","2018/04/16 13:19:40","新北市五股區成泰路三段477巷18號","121.44987","25.09892","6501500","五股區"
"248005","077-UY","2018/04/16 13:19:37","新北市五股區中興路一段124號","121.465646666667","25.0734133333333","6501500","五股區"
"248007","095-VK","2018/04/16 13:19:43","新北市五股區更洲路32巷8弄14號","121.459238333333","25.07965","6501500","五股區"
"248019","225-UY","2018/04/16 13:19:42","新北市五股區孝義路47巷23號","121.449783333333","25.1097166666667","6501500","五股區"
"248011","247-BX","2018/04/16 13:19:45","新北市五股區御史路1巷101弄2號","121.441013333333","25.0912083333333","6501500","五股區"
"248013","261-SL","2018/04/16 13:19:35","新北市五股區自強路90巷19號","121.432206666667","25.072095","6501500","五股區"
"248003","677-BX","2018/04/16 13:19:36","新北市五股區成泰路二段195巷1號","121.440318333333","25.0872433333333","6501500","五股區"
"248001","678-BX","2018/04/16 13:19:30","新北市五股區西雲路63號","121.443575","25.091705","6501500","五股區"
"248009","682-TV","2018/04/16 13:19:41","新北市五股區成泰路一段139巷2弄2號","121.435098333333","25.07301","6501500","五股區"
"234022","9380-KE","2018/04/16 13:19:31","新北市永和區竹林路103號","121.519883333333","25.0119666666667","6500400","永和區"
"234076","969-R7","2018/04/16 13:19:45","新北市永和區民有街100號","121.517773333333","24.9957516666667","6500400","永和區"
"234072","AAC-211","2018/04/16 13:19:34","新北市永和區竹林路87號","121.519578333333","25.01227","6500400","永和區"
"234001","AAC-295","2018/04/16 13:19:26","新北市永和區中山路一段101號","121.511235","25.0103616666667","6500400","永和區"
"244001","248-BX","2018/04/16 13:19:40","新北市林口區嘉寶里57號","121.341235","25.1161266666667","6501700","林口區"
"243005","646-TV","2018/04/16 13:19:42","新北市泰山區南泰路4巷1號","121.419025","25.0391883333333","6501600","泰山區"
"231002","002-UM","2018/04/16 13:19:31","新北市新店區安華路28-1號","121.519705","24.9615066666667","6500600","新店區"
"231027","0293-UT","2018/04/16 13:19:47","新北市新店區安康路一段3-1號","121.535515","24.9609666666667","6500600","新店區"
"231028","046-UY","2018/04/16 13:19:37","新北市新店區安華路28-1號","121.519566666667","24.9607933333333","6500600","新店區"
"231001","047-UY","2018/04/16 13:19:34","新北市新店區安華路28-1號","121.519238333333","24.9609016666667","6500600","新店區"
"231005","106-UY","2018/04/16 13:19:34","新北市新店區安康路一段48號","121.530488333333","24.9610566666667","6500600","新店區"
"231035","110-UY","2018/04/16 13:19:46","新北市新店區安華路28-1號","121.519265","24.96125","6500600","新店區"
"231011","187-VK","2018/04/16 13:19:34","新北市新店區安康路一段355號","121.519821666667","24.9627716666667","6500600","新店區"
"231010","188-VK","2018/04/16 13:19:45","新北市新店區安康路一段35號","121.53165","24.96078","6500600","新店區"
"231023","KEA-2219","2018/04/16 13:19:25","新北市新店區安康路一段355-3號","121.51983","24.9626433333333","6500600","新店區"
"231026","256-BX","2018/04/16 13:19:37","新北市新店區安華路3號","121.51919","24.9597233333333","6500600","新店區"
"231018","278-BY","2018/04/16 13:19:28","新北市新店區安康路一段52巷2號","121.530035","24.9612716666667","6500600","新店區"
"231014","AAD-862","2018/04/16 13:19:35","新北市新店區秀山路20號","121.53255","24.9604283333333","6500600","新店區"
"231038","3712-VJ","2018/04/16 13:19:35","新北市新店區安華路1-1號","121.519173333333","24.9605333333333","6500600","新店區"
"231037","4716-K9","2018/04/16 13:19:39","新北市新店區安華路16號","121.51606","24.958025","6500600","新店區"
"231025","4715-K9","2018/04/16 13:19:39","新北市新店區中央五街55號","121.527718333333","24.97548","6500600","新店區"
"231036","512-UM","2018/04/16 13:19:41","新北市新店區安康路三段450號","121.484553333333","24.9513783333333","6500600","新店區"
"231013","513-UM","2018/04/16 13:19:35","新北市新店區安華路28-1號","121.519648333333","24.9611966666667","6500600","新店區"
"231034","641-BX","2018/04/16 13:19:47","新北市新店區安華路28-1號","121.519518333333","24.96057","6500600","新店區"
"231003","645-TV","2018/04/16 13:19:42","新北市新店區安康路一段65號","121.530348333333","24.9610533333333","6500600","新店區"
"231019","719-UY","2018/04/16 13:19:47","新北市新店區秀山路68-1號","121.531068333333","24.9609516666667","6500600","新店區"
"231031","720-UM","2018/04/16 13:19:35","新北市新店區安華路28-1號","121.519266666667","24.9611966666667","6500600","新店區"
"231029","897-TW","2018/04/16 13:19:45","新北市新店區安華路28-1號","121.519681666667","24.9608633333333","6500600","新店區"
"231006","898-TW","2018/04/16 13:19:36","新北市新店區安華路28-1號","121.519353333333","24.96093","6500600","新店區"
"231004","899-TW","2018/04/16 13:19:48","新北市新店區安華路28-1號","121.51936","24.96085","6500600","新店區"
"231024","AKT-0513","2018/04/16 13:19:41","新北市新店區北新路一段91號","121.53893","24.9618083333333","6500600","新店區"
"235028","005-UY","2018/04/16 13:19:38","新北市中和區中正路150號","121.498905","24.99392","6500300","中和區"
"235027","006-UY","2018/04/16 13:19:40","新北市中和區中正路589巷1號","121.48586","24.9944266666667","6500300","中和區"
"235030","031-BX","2018/04/16 13:19:38","新北市中和區中山路二段119號","121.5028","25.0036516666667","6500300","中和區"
"235020","096-UM","2018/04/16 13:19:31","新北市中和區員山路36巷16-8號","121.485473333333","24.9923716666667","6500300","中和區"
"235003","097-UM","2018/04/16 13:19:40","新北市中和區景安路68號","121.505818333333","24.9966866666667","6500300","中和區"
"235029","098-UM","2018/04/16 13:19:44","新北市中和區莊敬路49巷20弄22號","121.502703333333","25.0057433333333","6500300","中和區"
"235022","151-BY","2018/04/16 13:19:29","新北市中和區圓通路369巷39-24號","121.490023333333","24.985325","6500300","中和區"
"235019","183-VK","2018/04/16 13:19:47","新北市中和區中正路637巷52弄11號","121.4849","24.9937133333333","6500300","中和區"
"235002","185-VK","2018/04/16 13:19:38","新北市中和區秀朗路三段128巷17弄6號","121.52415","24.9934533333333","6500300","中和區"
"235013","186-VK","2018/04/16 13:19:33","新北市中和區中正路395號","121.489738333333","24.993585","6500300","中和區"
"235031","255-BX","2018/04/16 13:19:42","新北市中和區新生街175號","121.483793333333","25.000765","6500300","中和區"
"235036","301-VK","2018/04/16 13:19:37","新北市中和區連城路265巷1號","121.491501666667","24.9963366666667","6500300","中和區"
"235007","352-BY","2018/04/16 13:19:41","新北市中和區景平路379號","121.504053333333","24.993395","6500300","中和區"
"235032","377-QA","2018/04/16 13:19:41","新北市中和區員山路36巷16-3號","121.485083333333","24.9912583333333","6500300","中和區"
"235025","378-QA","2018/04/16 13:19:40","新北市中和區國光街215巷24弄2號","121.466695","25.0003333333333","6500300","中和區"
"235024","269-TV","2018/04/16 13:19:39","新北市中和區連城路469巷23號","121.483621666667","24.9949833333333","6500300","中和區"
"235014","4979-A6","2018/04/16 13:19:41","新北市中和區捷運路61巷5號","121.508848333333","24.9895283333333","6500300","中和區"
"235006","551-UM","2018/04/16 13:19:36","新北市中和區大仁街20巷25弄10號","121.518806666667","24.9935716666667","6500300","中和區"
"235009","565-BX","2018/04/16 13:19:30","新北市中和區復興路303號","121.501488333333","24.9901483333333","6500300","中和區"
"235018","640-BX","2018/04/16 13:19:39","新北市中和區莒光路158號","121.472493333333","25.0002483333333","6500300","中和區"
"235011","732-UM","2018/04/16 13:19:39","新北市中和區南山路300號","121.507945","24.9871416666667","6500300","中和區"
"235035","783-BX","2018/04/16 13:19:36","新北市中和區永和路333巷2弄5號","121.484303333333","25.010985","6500300","中和區"
"235026","800-TS","2018/04/16 13:18:59","新北市中和區中山路二段355號","121.489908333333","25.0037283333333","6500300","中和區"
"235021","801-TS","2018/04/16 13:19:47","新北市中和區員山路86號","121.480863333333","24.994275","6500300","中和區"
"235016","805-TS","2018/04/16 13:19:29","新北市中和區中正路19號","121.502815","24.9933383333333","6500300","中和區"
"235012","896-TW","2018/04/16 13:19:38","新北市中和區員山路36巷16-3號","121.484953333333","24.9918716666667","6500300","中和區"
"235017","900-TW","2018/04/16 13:19:32","新北市中和區和城路一段271巷1號","121.485413333333","24.9919383333333","6500300","中和區"
"235034","911-UM","2018/04/16 13:19:41","新北市中和區圓通路144號","121.498196666667","24.9956716666667","6500300","中和區"
"235015","157-BY","2018/04/16 13:19:41","新北市中和區忠孝街37巷7號","121.510975","24.9834816666667","6500300","中和區"
"235001","AAC-213","2018/04/16 13:19:46","新北市中和區景德街86號","121.516286666667","24.991585","6500300","中和區"
"235023","AAC-215","2018/04/16 13:19:32","新北市中和區員山路36巷16-3號","121.484875","24.99112","6500300","中和區"
"235005","251-BX","2018/04/16 13:19:33","新北市中和區中正路13號","121.50302","24.99336","6500300","中和區"
"253003","6232-TK","2018/04/16 13:19:30","新北市石門區內石門84號","121.568311666667","25.2646383333333","6502200","石門區"
"253001","6251-TK","2018/04/16 13:19:35","新北市石門區楓林6-1號","121.537733333333","25.2961083333333","6502200","石門區"
"253002","637-UY","2018/04/16 13:19:31","新北市石門區大溪墘9-2號","121.55168","25.2755883333333","6502200","石門區"
"253004","8270-PC","2018/04/16 13:19:43","新北市石門區竹子湖1號","121.613033333333","25.26719","6502200","石門區"
"207002","749-BX","2018/04/16 13:19:32","新北市萬里區崁腳里崁腳路166號","121.645021666667","25.1558166666667","6502800","萬里區"
"252005","073-UM","2018/04/16 13:19:49","新北市三芝區八賢里八連溪43-3號","121.514593333333","25.2352133333333","6502100","三芝區"
"207001","662-BX","2018/04/16 13:19:40","新北市萬里區龜吼里玉田路19號","121.677635","25.1887833333333","6502800","萬里區"
"236005","498-BY","2018/04/16 13:19:40","新北市土城區亞洲路144號","121.433518333333","24.9714866666667","6501300","土城區"
"242047","172-VK","2018/04/16 13:19:41","新北市新莊區中港路417巷18號","121.451555","25.047585","6500500","新莊區"
"221032","280-BY","2018/04/16 13:19:42","新北市汐止區龍安路202巷14號","121.65292","25.06313","6501100","汐止區"
"220028","200-UY","2018/04/16 13:19:34","新北市板橋區華東街1-9號","121.448081666667","24.99489","6500100","板橋區"
"220002","741-BX","2018/04/16 13:19:28","新北市板橋區華東街1-9號","121.448063333333","24.9949283333333","6500100","板橋區"
"220025","AAC-253","2018/04/16 13:19:44","新北市板橋區華東街1-10號","121.448325","24.9949366666667","6500100","板橋區"
