"lineid","car","time","location","longitude","latitude","cityid","cityname"
"234044","148-BY","2018/04/16 13:29:40","新北市永和區秀朗路二段243號","121.526418333333","24.9996783333333","6500400","永和區"
"234068","149-BY","2018/04/16 13:29:40","新北市永和區警光街12號","121.519746666667","25.00955","6500400","永和區"
"234005","207-UY","2018/04/16 13:29:39","新北市永和區中山路一段253-1號","121.50759","25.0075866666667","6500400","永和區"
"234078","298-R6","2018/04/16 13:29:40","新北市永和區福和路5-9號","121.525521666667","25.008335","6500400","永和區"
"234036","336-UY","2018/04/16 13:29:35","新北市永和區成功路二段1巷12號","121.527556666667","25.0014466666667","6500400","永和區"
"234062","337-UY","2018/04/16 13:29:43","新北市永和區得和路243巷26號","121.520756666667","25.001165","6500400","永和區"
"234084","338-UY","2018/04/16 13:29:28","新北市永和區林森路80號","121.523408333333","25.0038366666667","6500400","永和區"
"234066","553-UM","2018/04/16 13:29:28","新北市永和區保平路115號","121.510791666667","25.0066116666667","6500400","永和區"
"234015","745-BX","2018/04/16 13:29:37","新北市永和區環河西路一段87號","121.51229","25.0178883333333","6500400","永和區"
"234028","746-BX","2018/04/16 13:29:32","新北市永和區民生路69號","121.52263","24.997215","6500400","永和區"
"234052","KEA-2590","2018/04/16 13:29:33","新北市永和區復興街19巷2號","121.516146666667","25.0131383333333","6500400","永和區"
"234012","KEA-2591","2018/04/16 13:29:50","新北市永和區中山路一段184巷9弄1號","121.508501666667","25.0092433333333","6500400","永和區"
"234060","AAD-866","2018/04/16 13:29:32","新北市永和區中正路532號","121.51723","25.0052866666667","6500400","永和區"
"234040","862-TW","2018/04/16 13:29:43","新北市永和區中和路519巷2號","121.510933333333","25.0029033333333","6500400","永和區"
"234048","863-TW","2018/04/16 13:29:47","新北市永和區信義路120號","121.512346666667","25.0147266666667","6500400","永和區"
"234025","9371-KE","2018/04/16 13:29:37","新北市永和區和平街30號","121.513356666667","25.0101566666667","6500400","永和區"
"234010","9373-KE","2018/04/16 13:29:25","新北市永和區仁愛路141巷5弄11號","121.512286666667","25.0123016666667","6500400","永和區"
"248015","026-BX","2018/04/16 13:29:40","新北市五股區凌雲路一段83巷22弄1號","121.449835","25.1007683333333","6501500","五股區"
"248005","077-UY","2018/04/16 13:29:29","新北市五股區四維路85號","121.467238333333","25.0724566666667","6501500","五股區"
"248007","095-VK","2018/04/16 13:29:43","新北市五股區四維路185巷46號","121.463333333333","25.07718","6501500","五股區"
"248019","225-UY","2018/04/16 13:29:42","新北市五股區天乙路114號","121.447171666667","25.11287","6501500","五股區"
"248011","247-BX","2018/04/16 13:29:25","新北市五股區御成路146號","121.440915","25.094385","6501500","五股區"
"248013","261-SL","2018/04/16 13:29:35","新北市五股區成泰路一段219-5號","121.435386666667","25.0774783333333","6501500","五股區"
"248003","677-BX","2018/04/16 13:29:36","新北市五股區六合街3號","121.432068333333","25.0884366666667","6501500","五股區"
"248001","678-BX","2018/04/16 13:29:30","新北市五股區西雲路167-1號","121.44691","25.094845","6501500","五股區"
"248009","682-TV","2018/04/16 13:29:41","新北市五股區自強路85號","121.432536666667","25.0718716666667","6501500","五股區"
"234022","9380-KE","2018/04/16 13:29:31","新北市永和區竹林路91巷47弄1號","121.521196666667","25.0128","6500400","永和區"
"234076","969-R7","2018/04/16 13:29:45","新北市永和區智光街41號","121.517748333333","24.9985883333333","6500400","永和區"
"234072","AAC-211","2018/04/16 13:29:34","新北市永和區永和路二段100號","121.515043333333","25.0118616666667","6500400","永和區"
"234001","AAC-295","2018/04/16 13:29:46","新北市永和區保平路2-1號","121.513243333333","25.0076316666667","6500400","永和區"
"244001","248-BX","2018/04/16 13:29:40","新北市林口區瑞平里8鄰54號","121.340653333333","25.12544","6501700","林口區"
"243004","AAD-798","2018/04/16 13:29:43","新北市泰山區黎明路26號","121.421371666667","25.060555","6501600","泰山區"
"243005","646-TV","2018/04/16 13:29:42","新北市泰山區明志路三段206巷3號","121.423266666667","25.03795","6501600","泰山區"
"231002","002-UM","2018/04/16 13:29:31","新北市新店區環河路62號","121.537053333333","24.9626483333333","6500600","新店區"
"231027","0293-UT","2018/04/16 13:29:47","新北市新店區新店後街118號","121.537671666667","24.95554","6500600","新店區"
"231028","046-UY","2018/04/16 13:29:37","新北市新店區安華路28-1號","121.519583333333","24.96079","6500600","新店區"
"231001","047-UY","2018/04/16 13:29:34","新北市新店區中央路183-1號","121.536093333333","24.9689033333333","6500600","新店區"
"231005","106-UY","2018/04/16 13:29:34","新北市新店區寶中路45-3號","121.545185","24.9790966666667","6500600","新店區"
"231035","110-UY","2018/04/16 13:29:46","新北市新店區安華路28-1號","121.519328333333","24.9612583333333","6500600","新店區"
"231011","187-VK","2018/04/16 13:29:34","新北市新店區北新路二段96號","121.543033333333","24.9731466666667","6500600","新店區"
"231010","188-VK","2018/04/16 13:29:45","新北市新店區中央路22-1號","121.533261666667","24.978335","6500600","新店區"
"231023","KEA-2219","2018/04/16 13:29:46","新北市新店區北宜路一段168號","121.540288333333","24.952945","6500600","新店區"
"231026","256-BX","2018/04/16 13:29:37","新北市新店區光明街1-1號","121.538065","24.9592116666667","6500600","新店區"
"231018","278-BY","2018/04/16 13:29:48","新北市新店區環河路113-1號","121.531188333333","24.9712383333333","6500600","新店區"
"231014","AAD-862","2018/04/16 13:29:40","新北市新店區北宜路二段56巷3弄1號","121.549183333333","24.950915","6500600","新店區"
"231038","3712-VJ","2018/04/16 13:29:35","新北市新店區安華路30巷1號","121.519571666667","24.9592583333333","6500600","新店區"
"231037","4716-K9","2018/04/16 13:29:39","新北市新店區薏仁坑路26號","121.497638333333","24.9604816666667","6500600","新店區"
"231025","4715-K9","2018/04/16 13:29:39","新北市新店區中央六街57號","121.528001666667","24.97596","6500600","新店區"
"231036","512-UM","2018/04/16 13:29:41","新北市新店區安祥路147巷88號","121.476093333333","24.954685","6500600","新店區"
"231013","513-UM","2018/04/16 13:29:30","新北市新店區安康路一段113號","121.52851","24.9617433333333","6500600","新店區"
"231030","618-UM","2018/04/16 13:29:37","新北市新店區安華路16號","121.517496666667","24.9584716666667","6500600","新店區"
"231034","641-BX","2018/04/16 13:29:27","新北市新店區車子路14號","121.504715","24.9539716666667","6500600","新店區"
"231003","645-TV","2018/04/16 13:29:42","新北市新店區中正路69號","121.54362","24.969995","6500600","新店區"
"231019","719-UY","2018/04/16 13:29:47","新北市新店區永興路41號","121.54347","24.9380066666667","6500600","新店區"
"231031","720-UM","2018/04/16 13:29:41","新北市新店區安豐路58號","121.498883333333","24.9541983333333","6500600","新店區"
"231029","897-TW","2018/04/16 13:29:45","新北市新店區車子路115-11號","121.507911666667","24.95472","6500600","新店區"
"231006","898-TW","2018/04/16 13:29:36","新北市新店區秀山路20號","121.532501666667","24.960375","6500600","新店區"
"231004","899-TW","2018/04/16 13:29:28","新北市新店區安康路一段35-1號","121.532043333333","24.9606","6500600","新店區"
"231024","AKT-0513","2018/04/16 13:29:41","新北市新店區北新路二段29巷1弄8號","121.542023333333","24.972335","6500600","新店區"
"235028","005-UY","2018/04/16 13:29:38","新北市中和區圓通路141巷35弄1號","121.49893","24.9951283333333","6500300","中和區"
"235027","006-UY","2018/04/16 13:29:40","新北市中和區連城路347巷2弄2號","121.487983333333","24.9958983333333","6500300","中和區"
"235030","031-BX","2018/04/16 13:29:38","新北市中和區中山路二段120號","121.502725","25.0036866666667","6500300","中和區"
"235020","096-UM","2018/04/16 13:29:31","新北市中和區中山路二段594號","121.48235","25.005545","6500300","中和區"
"235003","097-UM","2018/04/16 13:29:42","新北市中和區景平路172號","121.516983333333","24.992685","6500300","中和區"
"235029","098-UM","2018/04/16 13:29:44","新北市中和區中山路二段64巷11號","121.503231666667","25.0057533333333","6500300","中和區"
"235022","151-BY","2018/04/16 13:29:29","新北市中和區圓通路369巷72號","121.490148333333","24.982195","6500300","中和區"
"235019","183-VK","2018/04/16 13:29:47","新北市中和區民享街287-1號","121.470248333333","24.9955716666667","6500300","中和區"
"235002","185-VK","2018/04/16 13:29:38","新北市中和區立人街14巷23號","121.519458333333","24.99516","6500300","中和區"
"235013","186-VK","2018/04/16 13:29:33","新北市中和區景安路80號","121.505665","24.99623","6500300","中和區"
"235031","255-BX","2018/04/16 13:29:42","新北市中和區員山路148巷42號","121.482476666667","24.9971083333333","6500300","中和區"
"235008","293-VK","2018/04/16 13:29:33","新北市中和區復興路301巷15號","121.50164","24.9897166666667","6500300","中和區"
"235036","301-VK","2018/04/16 13:29:37","新北市中和區連城路237-1號","121.493813333333","24.9974316666667","6500300","中和區"
"235007","352-BY","2018/04/16 13:29:41","新北市中和區景平路331號","121.50575","24.9931016666667","6500300","中和區"
"235032","377-QA","2018/04/16 13:29:21","新北市中和區中正路277-6號","121.495075","24.9936916666667","6500300","中和區"
"235025","378-QA","2018/04/16 13:29:21","新北市中和區民享街111號","121.474853333333","24.9994616666667","6500300","中和區"
"235024","269-TV","2018/04/16 13:29:39","新北市中和區員山路334號","121.481125","25.0032666666667","6500300","中和區"
"235014","4979-A6","2018/04/16 13:29:36","新北市中和區景新街362巷10號","121.511923333333","24.990115","6500300","中和區"
"235006","551-UM","2018/04/16 13:29:36","新北市中和區自立路56巷4號","121.523181666667","24.99179","6500300","中和區"
"235009","565-BX","2018/04/16 13:29:30","新北市中和區復興路13號","121.505791666667","24.9896916666667","6500300","中和區"
"235018","640-BX","2018/04/16 13:29:40","新北市中和區民享街82號","121.474273333333","25.0014233333333","6500300","中和區"
"235011","732-UM","2018/04/16 13:29:39","新北市中和區南山路523-1號","121.507938333333","24.9871783333333","6500300","中和區"
"235035","783-BX","2018/04/16 13:29:36","新北市中和區永和路458巷3弄33號","121.483185","25.01333","6500300","中和區"
"235026","800-TS","2018/04/16 13:29:25","新北市中和區景平路741號","121.496275","25.0044616666667","6500300","中和區"
"235021","801-TS","2018/04/16 13:29:47","新北市中和區民享街97巷19號","121.475375","24.99959","6500300","中和區"
"235016","805-TS","2018/04/16 13:29:29","新北市中和區興南路二段96號","121.505161666667","24.9841433333333","6500300","中和區"
"235012","896-TW","2018/04/16 13:29:38","新北市中和區中正路395號","121.489913333333","24.9935416666667","6500300","中和區"
"235017","900-TW","2018/04/16 13:29:32","新北市中和區民享街457號","121.470433333333","24.993155","6500300","中和區"
"235034","911-UM","2018/04/16 13:29:41","新北市中和區景平路576號","121.501605","24.9956066666667","6500300","中和區"
"235015","157-BY","2018/04/16 13:29:41","新北市中和區興南路二段114巷17號","121.503978333333","24.9843683333333","6500300","中和區"
"235001","AAC-213","2018/04/16 13:29:46","新北市中和區景德街103號","121.515655","24.991185","6500300","中和區"
"235023","AAC-215","2018/04/16 13:29:32","新北市中和區員山路36巷16-3號","121.484895","24.99113","6500300","中和區"
"220013","072-UY","2018/04/16 13:29:41","新北市板橋區稚暉街26號","121.455496666667","25.00431","6500100","板橋區"
"220034","073-UY","2018/04/16 13:29:43","新北市板橋區華東街1-10號","121.448246666667","24.9950633333333","6500100","板橋區"
"247007","056-VK","2018/04/16 13:29:41","新北市五股區中興路三段198號","121.441171666667","25.0822033333333","6501400","蘆洲區"
"235005","251-BX","2018/04/16 13:29:33","新北市中和區中和路324巷3弄2號","121.51005","25.0008466666667","6500300","中和區"
"253003","6232-TK","2018/04/16 13:29:30","新北市石門區內石門102號","121.56803","25.2752766666667","6502200","石門區"
"253001","6251-TK","2018/04/16 13:29:35","新北市石門區八甲1號","121.521745","25.284785","6502200","石門區"
"253002","637-UY","2018/04/16 13:29:31","新北市石門區九芎林5-3號","121.559508333333","25.2686766666667","6502200","石門區"
"253004","8270-PC","2018/04/16 13:27:23","新北市石門區竹子湖13號","121.617753333333","25.255775","6502200","石門區"
"207002","749-BX","2018/04/16 13:29:32","新北市萬里區崁腳里崁腳路166號","121.645033333333","25.1558316666667","6502800","萬里區"
"252005","073-UM","2018/04/16 13:29:28","新北市三芝區福德里土地公埔65號","121.517905","25.2260116666667","6502100","三芝區"
"207001","662-BX","2018/04/16 13:29:40","新北市萬里區大鵬里萬里加投14號","121.65049","25.2092783333333","6502800","萬里區"
"236005","498-BY","2018/04/16 13:29:40","新北市土城區慶祥街59巷1-1號","121.435776666667","24.9729433333333","6501300","土城區"
"242047","172-VK","2018/04/16 13:29:41","新北市新莊區立信一街98號","121.443968333333","25.0497166666667","6500500","新莊區"
"221032","280-BY","2018/04/16 13:29:42","新北市汐止區龍安路44號","121.654238333333","25.06374","6501100","汐止區"
"220027","145-BY","2018/04/16 13:29:36","新北市板橋區大觀路2段435-7號","121.447783333333","24.9954866666667","6500100","板橋區"
"220028","200-UY","2018/04/16 13:29:34","新北市板橋區華東街1-9號","121.44816","24.9948633333333","6500100","板橋區"
"220030","610-BX","2018/04/16 13:29:38","新北市板橋區華東街1-10號","121.44827","24.99493","6500100","板橋區"
"220029","287-VK","2018/04/16 13:29:38","新北市板橋區華東街1-10號","121.448261666667","24.9950366666667","6500100","板橋區"
"220012","486-VK","2018/04/16 13:29:43","新北市板橋區華東街1-10號","121.448315","24.99508","6500100","板橋區"
"220104","560-BX","2018/04/16 13:29:34","新北市板橋區南雅南路二段98號","121.45348","25.001235","6500100","板橋區"
"220032","568-UM","2018/04/16 13:29:34","新北市板橋區華東街1-9號","121.448136666667","24.9949533333333","6500100","板橋區"
"220005","686-BX","2018/04/16 13:29:41","新北市板橋區華東街1-10號","121.448293333333","24.9949133333333","6500100","板橋區"
"220002","741-BX","2018/04/16 13:29:28","新北市板橋區華東街1-9號","121.448061666667","24.9949283333333","6500100","板橋區"
"220018","806-UM","2018/04/16 13:29:35","新北市板橋區華東街1-9號","121.448138333333","24.99484","6500100","板橋區"
"220022","895-R6","2018/04/16 13:29:38","新北市板橋區華東街1-9號","121.448158333333","24.9950533333333","6500100","板橋區"
"220025","AAC-253","2018/04/16 13:29:44","新北市板橋區篤行路一段34號","121.431806666667","24.99387","6500100","板橋區"
