"lineid","car","time","location","longitude","latitude","cityid","cityname"
"234044","148-BY","2018/04/16 13:39:20","新北市永和區永利路222號","121.523525","25.002495","6500400","永和區"
"234068","149-BY","2018/04/16 13:39:19","新北市永和區永和路二段233號","121.515521666667","25.0141216666667","6500400","永和區"
"234005","207-UY","2018/04/16 13:39:19","新北市永和區中山路一段72號","121.512475","25.0107933333333","6500400","永和區"
"234078","298-R6","2018/04/16 13:39:16","新北市永和區林森路20巷7號","121.525796666667","25.0057516666667","6500400","永和區"
"234036","336-UY","2018/04/16 13:39:17","新北市永和區民樂街37巷7號","121.528078333333","25.0008033333333","6500400","永和區"
"234062","337-UY","2018/04/16 13:39:23","新北市永和區秀朗路二段24巷28弄8號","121.519625","25.0018383333333","6500400","永和區"
"234084","338-UY","2018/04/16 13:39:08","新北市永和區永亨路165巷1-4號","121.526151666667","25.0042616666667","6500400","永和區"
"234066","553-UM","2018/04/16 13:39:28","新北市永和區中山路一段191巷9弄8號","121.509875","25.008105","6500400","永和區"
"234015","745-BX","2018/04/16 13:39:17","新北市永和區永和路二段425巷57弄7號","121.513591666667","25.0171","6500400","永和區"
"234028","746-BX","2018/04/16 13:39:12","新北市永和區民權路23號","121.520038333333","24.9977866666667","6500400","永和區"
"234052","KEA-2590","2018/04/16 13:39:13","新北市永和區竹林路39巷7號","121.518196666667","25.0145433333333","6500400","永和區"
"234012","KEA-2591","2018/04/16 13:39:10","新北市永和區永平路246號","121.508668333333","25.01104","6500400","永和區"
"234060","AAD-866","2018/04/16 13:39:12","新北市永和區中正路470號","121.517391666667","25.00303","6500400","永和區"
"234040","862-TW","2018/04/16 13:39:23","新北市永和區永貞路267號","121.511758333333","25.004785","6500400","永和區"
"234048","863-TW","2018/04/16 13:39:27","新北市永和區保安路126號","121.509021666667","25.0155183333333","6500400","永和區"
"234025","9371-KE","2018/04/16 13:39:17","新北市永和區中山路一段147號","121.510183333333","25.00953","6500400","永和區"
"234010","9373-KE","2018/04/16 13:39:25","新北市永和區保福路二段15巷29號","121.510175","25.01093","6500400","永和區"
"248015","026-BX","2018/04/16 13:39:20","新北市五股區凌雲路一段149巷13-1號","121.448606666667","25.1008733333333","6501500","五股區"
"248005","077-UY","2018/04/16 13:39:10","新北市五股區四維路119號","121.46742","25.07374","6501500","五股區"
"248007","095-VK","2018/04/16 13:39:22","新北市五股區中興路一段150巷4號","121.464743333333","25.074145","6501500","五股區"
"248019","225-UY","2018/04/16 13:37:23","新北市五股區孝義路108-1號","121.442311666667","25.1198466666667","6501500","五股區"
"248011","247-BX","2018/04/16 13:39:25","新北市五股區成泰路三段2巷1-20號","121.44123","25.0866583333333","6501500","五股區"
"248013","261-SL","2018/04/16 13:39:15","新北市五股區中興路四段70號","121.43698","25.0834416666667","6501500","五股區"
"248003","677-BX","2018/04/16 13:39:16","新北市五股區民義路一段236-6號","121.427446666667","25.0912666666667","6501500","五股區"
"248001","678-BX","2018/04/16 13:39:10","新北市五股區成泰路三段435巷11號","121.449306666667","25.0978733333333","6501500","五股區"
"248009","682-TV","2018/04/16 13:39:21","新北市五股區水碓九路140號","121.430206666667","25.0731116666667","6501500","五股區"
"234076","969-R7","2018/04/16 13:39:25","新北市永和區得和路233-1號","121.520041666667","25.00009","6500400","永和區"
"234072","AAC-211","2018/04/16 13:39:14","新北市永和區豫溪街160巷17號","121.523355","25.0090983333333","6500400","永和區"
"234001","AAC-295","2018/04/16 13:39:26","新北市永和區秀朗路一段22號","121.513955","25.0068","6500400","永和區"
"244001","248-BX","2018/04/16 13:39:20","新北市林口區瑞平里33-1號","121.348951666667","25.128255","6501700","林口區"
"243004","AAD-798","2018/04/16 13:39:09","新北市泰山區泰林路二段227號","121.432338333333","25.0619766666667","6501600","泰山區"
"243005","646-TV","2018/04/16 13:39:21","新北市泰山區明志路三段206巷5號","121.42318","25.0379733333333","6501600","泰山區"
"231002","002-UM","2018/04/16 13:39:11","新北市新店區中央三街127號","121.52402","24.9769266666667","6500600","新店區"
"231027","0293-UT","2018/04/16 13:39:27","新北市新店區北宜路一段123-5號","121.540771666667","24.9534766666667","6500600","新店區"
"231028","046-UY","2018/04/16 13:39:19","新北市新店區安和路一段52巷2-1號","121.517775","24.966675","6500600","新店區"
"231001","047-UY","2018/04/16 13:39:14","新北市新店區中正路434號","121.534223333333","24.9782216666667","6500600","新店區"
"231005","106-UY","2018/04/16 13:39:14","新北市新店區寶中路72號","121.547891666667","24.980635","6500600","新店區"
"231035","110-UY","2018/04/16 13:39:26","新北市新店區安忠路56巷6號","121.512981666667","24.9593333333333","6500600","新店區"
"231011","187-VK","2018/04/16 13:39:14","新北市新店區德正街27巷1號","121.544591666667","24.9714566666667","6500600","新店區"
"231010","188-VK","2018/04/16 13:39:25","新北市新店區中正路307巷17號","121.535783333333","24.97362","6500600","新店區"
"231023","KEA-2219","2018/04/16 13:39:25","新北市新店區新店路162-1號","121.537133333333","24.95563","6500600","新店區"
"231026","256-BX","2018/04/16 13:39:16","新北市新店區中正路114號","121.542513333333","24.970895","6500600","新店區"
"231018","278-BY","2018/04/16 13:39:08","新北市新店區百忍街42巷1號","121.533468333333","24.9759433333333","6500600","新店區"
"231014","AAD-862","2018/04/16 13:39:14","新北市新店區竹林路2巷27弄11號","121.550925","24.9508883333333","6500600","新店區"
"231038","3712-VJ","2018/04/16 13:39:15","新北市新店區安華路30巷1號","121.519505","24.9592333333333","6500600","新店區"
"231037","4716-K9","2018/04/16 13:38:39","新北市新店區薏仁坑路57號","121.490911666667","24.964365","6500600","新店區"
"231025","4715-K9","2018/04/16 13:39:19","新北市新店區中央五街55號","121.52778","24.9755833333333","6500600","新店區"
"231036","512-UM","2018/04/16 13:39:21","新北市新店區安祥路147巷26號","121.475795","24.9563033333333","6500600","新店區"
"231013","513-UM","2018/04/16 13:39:30","新北市新店區中正路454-5號","121.534425","24.9790716666667","6500600","新店區"
"231030","618-UM","2018/04/16 13:39:17","新北市新店區安康路一段247-1號","121.524836666667","24.9632283333333","6500600","新店區"
"231034","641-BX","2018/04/16 13:39:27","新北市新店區達觀路8巷3-4號","121.504163333333","24.9432483333333","6500600","新店區"
"231003","645-TV","2018/04/16 13:39:22","新北市新店區五峰路62號","121.545846666667","24.96819","6500600","新店區"
"231019","719-UY","2018/04/16 13:39:27","新北市新店區永興路90號","121.544213333333","24.93159","6500600","新店區"
"231031","720-UM","2018/04/16 13:39:15","新北市新店區安康路一段275-2號","121.523878333333","24.963485","6500600","新店區"
"231029","897-TW","2018/04/16 13:39:25","新北市新店區安康路二段250號","121.509035","24.9590966666667","6500600","新店區"
"231006","898-TW","2018/04/16 13:39:16","新北市新店區北宜路一段83號","121.5388","24.9559733333333","6500600","新店區"
"231004","899-TW","2018/04/16 13:39:08","新北市新店區北新路二段7號","121.54262","24.97131","6500600","新店區"
"231024","AKT-0513","2018/04/16 13:39:21","新北市新店區中華路50號","121.539725","24.96839","6500600","新店區"
"235028","005-UY","2018/04/16 13:39:19","新北市中和區連城路110號","121.496213333333","24.99969","6500300","中和區"
"235027","006-UY","2018/04/16 13:39:20","新北市中和區連城路389巷10弄4號","121.486228333333","24.9956883333333","6500300","中和區"
"235030","031-BX","2018/04/16 13:39:18","新北市中和區水源路7巷4號","121.504091666667","25.0035583333333","6500300","中和區"
"235020","096-UM","2018/04/16 13:39:31","新北市中和區員山路466巷21弄1號","121.480581666667","25.0070866666667","6500300","中和區"
"235003","097-UM","2018/04/16 13:39:20","新北市中和區大勇街25巷29弄1號","121.515208333333","24.9937733333333","6500300","中和區"
"235029","098-UM","2018/04/16 13:39:24","新北市中和區莊敬路33巷15號","121.500295","25.0069466666667","6500300","中和區"
"235004","150-BY","2018/04/16 13:39:14","新北市中和區保健路50巷31號","121.509906666667","24.996065","6500300","中和區"
"235022","151-BY","2018/04/16 13:39:09","新北市中和區圓通路356-10號","121.485248333333","24.98685","6500300","中和區"
"235019","183-VK","2018/04/16 13:39:27","新北市中和區莒光路120巷15弄2號","121.471635","25.0012216666667","6500300","中和區"
"235002","185-VK","2018/04/16 13:39:19","新北市中和區立人街28號","121.51861","24.9941483333333","6500300","中和區"
"235013","186-VK","2018/04/16 13:39:13","新北市中和區明義街1號","121.504346666667","24.9949","6500300","中和區"
"235031","255-BX","2018/04/16 13:39:22","新北市中和區新生街220巷4號","121.482941666667","24.99851","6500300","中和區"
"235008","293-VK","2018/04/16 13:39:13","新北市中和區復興路280巷6號","121.50234","24.9912483333333","6500300","中和區"
"235036","301-VK","2018/04/16 13:39:17","新北市中和區景平路597號","121.496956666667","25.0006083333333","6500300","中和區"
"235007","352-BY","2018/04/16 13:39:21","新北市中和區景平路123號","121.515638333333","24.9919583333333","6500300","中和區"
"235032","377-QA","2018/04/16 13:39:21","新北市中和區中正路211巷36弄20號","121.496928333333","24.9924833333333","6500300","中和區"
"235025","378-QA","2018/04/16 13:39:21","新北市中和區民享街92巷19號","121.473923333333","24.9997283333333","6500300","中和區"
"235024","269-TV","2018/04/16 13:39:18","新北市中和區中山路二段586-2號","121.482286666667","25.0051983333333","6500300","中和區"
"235014","4979-A6","2018/04/16 13:39:16","新北市中和區四維街40號","121.51239","24.98698","6500300","中和區"
"235006","551-UM","2018/04/16 13:39:16","新北市中和區秀朗路三段135巷1號","121.525366666667","24.9924683333333","6500300","中和區"
"235009","565-BX","2018/04/16 13:39:10","新北市中和區南山路236巷21號","121.505538333333","24.9885533333333","6500300","中和區"
"235018","640-BX","2018/04/16 13:39:20","新北市中和區莒光路80號","121.472311666667","25.002875","6500300","中和區"
"235011","732-UM","2018/04/16 13:39:19","新北市中和區南山路320巷3號","121.50762","24.98654","6500300","中和區"
"235035","783-BX","2018/04/16 13:39:18","新北市中和區光環路二段72號","121.484628333333","25.014545","6500300","中和區"
"235026","800-TS","2018/04/16 13:37:19","新北市中和區景平路671號","121.49652","25.0027116666667","6500300","中和區"
"235021","801-TS","2018/04/16 13:39:26","新北市中和區民安街42巷38弄2號","121.479078333333","25.00153","6500300","中和區"
"235016","805-TS","2018/04/16 13:39:21","新北市中和區興南路三段52巷2-5號","121.494523333333","24.975905","6500300","中和區"
"235012","896-TW","2018/04/16 13:39:18","新北市中和區中正路83號","121.500616666667","24.993465","6500300","中和區"
"235017","900-TW","2018/04/16 13:39:12","新北市中和區莒光路222-8號","121.468991666667","24.9947616666667","6500300","中和區"
"235034","911-UM","2018/04/16 13:39:21","新北市中和區景新街129號","121.5058","24.9972883333333","6500300","中和區"
"235015","157-BY","2018/04/16 13:39:21","新北市中和區華新街143巷106弄30號","121.50617","24.9787966666667","6500300","中和區"
"235001","AAC-213","2018/04/16 13:39:26","新北市中和區景德街95-3號","121.515326666667","24.9911866666667","6500300","中和區"
"235023","AAC-215","2018/04/16 13:39:13","新北市中和區和城路一段271巷1號","121.485436666667","24.9918883333333","6500300","中和區"
"220016","013-TV","2018/04/16 13:39:10","新北市板橋區民生路二段120號","121.470438333333","25.0197066666667","6500100","板橋區"
"220004","015-TV","2018/04/16 13:39:14","新北市板橋區四川路二段140巷16弄13號","121.448673333333","24.9935683333333","6500100","板橋區"
"220013","072-UY","2018/04/16 13:39:21","新北市板橋區漢生東路282號","121.471238333333","25.0089916666667","6500100","板橋區"
"220034","073-UY","2018/04/16 13:39:23","新北市板橋區南雅西路二段145巷6號","121.451623333333","25.0117583333333","6500100","板橋區"
"220017","AAD-861","2018/04/16 13:39:23","新北市板橋區華東街1-10號","121.448275","24.9951183333333","6500100","板橋區"
"247007","056-VK","2018/04/16 13:39:21","新北市五股區中興路二段35號","121.462325","25.0753316666667","6501400","蘆洲區"
"247009","053-VK","2018/04/16 13:39:17","新北市五股區凌雲路一段25號","121.4523","25.0998","6501400","蘆洲區"
"247015","007-UY","2018/04/16 13:39:22","新北市五股區成泰路三段544-1號","121.454383333333","25.101595","6501400","蘆洲區"
"247019","001-UY","2018/04/16 13:39:16","新北市五股區成泰路三段436號","121.452175","25.0995133333333","6501400","蘆洲區"
"235005","251-BX","2018/04/16 13:39:13","新北市中和區中安街80號","121.512323333333","25.0017716666667","6500300","中和區"
"253003","6232-TK","2018/04/16 13:39:30","新北市石門區中山路62-20號","121.569095","25.286705","6502200","石門區"
"253001","6251-TK","2018/04/16 13:39:15","新北市石門區下員坑20號","121.511296666667","25.2790283333333","6502200","石門區"
"253002","637-UY","2018/04/16 13:39:11","新北市石門區九芎林32號","121.565265","25.25859","6502200","石門區"
"253004","8270-PC","2018/04/16 13:39:23","新北市石門區阿里荖57號","121.607266666667","25.27197","6502200","石門區"
"207002","749-BX","2018/04/16 13:39:12","新北市萬里區崁腳里崁腳路166號","121.645018333333","25.1558166666667","6502800","萬里區"
"252005","073-UM","2018/04/16 13:39:28","新北市三芝區圓山里木屐寮30號","121.531711666667","25.2215183333333","6502100","三芝區"
"207001","662-BX","2018/04/16 13:39:20","新北市萬里區大鵬里萬里加投46號","121.641995","25.21135","6502800","萬里區"
"236040","107-UM","2018/04/16 13:39:10","新北市土城區城林路6巷80號","121.438555","24.97974","6501300","土城區"
"236074","166-UM","2018/04/16 13:39:24","新北市土城區城林路6巷80號","121.4384","24.9797433333333","6501300","土城區"
"236012","270-VK","2018/04/16 13:39:21","新北市土城區城林路6巷80號","121.438526666667","24.9797433333333","6501300","土城區"
"236005","498-BY","2018/04/16 13:39:20","新北市土城區慶祥街1巷32號","121.437053333333","24.9738283333333","6501300","土城區"
"236054","AAC-216","2018/04/16 13:39:22","新北市土城區城林路6巷80號","121.438526666667","24.9797766666667","6501300","土城區"
"242047","172-VK","2018/04/16 13:35:01","新北市新莊區中平路377巷17弄46號","121.442988333333","25.0518733333333","6500500","新莊區"
"221032","280-BY","2018/04/16 13:39:22","新北市汐止區水源路一段56號","121.657476666667","25.065575","6501100","汐止區"
"220027","145-BY","2018/04/16 13:39:17","新北市板橋區南雅西路二段192巷1弄3號","121.452028333333","25.0145083333333","6500100","板橋區"
"220028","200-UY","2018/04/16 13:39:15","新北市板橋區大觀路二段265巷76弄34號","121.441175","24.9967966666667","6500100","板橋區"
"220030","610-BX","2018/04/16 13:38:58","新北市板橋區大觀路三段50巷47號","121.432838333333","24.995845","6500100","板橋區"
"220020","277-BY","2018/04/16 13:39:26","新北市板橋區大觀路三段56號","121.433425","24.9954033333333","6500100","板橋區"
"220043","285-UM","2018/04/16 13:39:13","新北市板橋區民生路二段120號","121.470323333333","25.0198733333333","6500100","板橋區"
"220001","285-VK","2018/04/16 13:39:25","新北市板橋區民生路二段120號","121.470538333333","25.0198233333333","6500100","板橋區"
"220031","286-VK","2018/04/16 13:39:26","新北市板橋區板城路271號","121.4502","24.9978833333333","6500100","板橋區"
"220029","287-VK","2018/04/16 13:39:18","新北市板橋區大觀路二段169巷23號","121.446646666667","24.9997633333333","6500100","板橋區"
"220023","303-R5","2018/04/16 13:39:25","新北市板橋區南雅西路二段7巷27號","121.45175","25.00937","6500100","板橋區"
"220010","305-R5","2018/04/16 13:39:19","新北市板橋區民生路二段120號","121.470373333333","25.0197066666667","6500100","板橋區"
"220012","486-VK","2018/04/16 13:39:23","新北市板橋區文化路一段46巷60號","121.46088","25.0108833333333","6500100","板橋區"
"220104","560-BX","2018/04/16 13:39:14","新北市板橋區南雅西路二段145巷10號","121.451566666667","25.011925","6500100","板橋區"
"220052","561-BX","2018/04/16 13:39:22","新北市板橋區民生路二段161巷9號","121.47027","25.01957","6500100","板橋區"
"220032","568-UM","2018/04/16 13:39:14","新北市板橋區大觀路二段153巷44弄5號","121.4465","24.9994216666667","6500100","板橋區"
"220005","686-BX","2018/04/16 13:39:21","新北市板橋區華東街1-9號","121.448265","24.9949083333333","6500100","板橋區"
"220002","741-BX","2018/04/16 13:39:28","新北市板橋區華東街1-9號","121.448048333333","24.9949233333333","6500100","板橋區"
"220018","806-UM","2018/04/16 13:39:15","新北市板橋區華東街1-9號","121.448133333333","24.9948316666667","6500100","板橋區"
"220003","827-TW","2018/04/16 13:39:24","新北市板橋區華東街1-9號","121.44815","24.9949216666667","6500100","板橋區"
"220022","895-R6","2018/04/16 13:39:29","新北市板橋區南雅東路1號","121.455525","25.0057116666667","6500100","板橋區"
"220025","AAC-253","2018/04/16 13:39:24","新北市板橋區大觀路三段212巷72號","121.429773333333","24.9934633333333","6500100","板橋區"
