"lineid","car","time","location","longitude","latitude","cityid","cityname"
"234005","207-UY","2018/04/16 14:39:39","新北市永和區中正路508號","121.517485","25.0046216666667","6500400","永和區"
"234028","746-BX","2018/04/16 14:39:32","新北市永和區民權路55號","121.520068333333","24.9969116666667","6500400","永和區"
"234040","862-TW","2018/04/16 14:39:43","台北市中正區水源路131-4號","121.516755","25.0216033333333","6500400","永和區"
"234025","9371-KE","2018/04/16 14:39:37","新北市永和區中和路445號","121.509605","25.0013683333333","6500400","永和區"
"248015","026-BX","2018/04/16 14:39:40","新北市五股區成泰路四段18-2號","121.453648333333","25.106725","6501500","五股區"
"248007","095-VK","2018/04/16 14:39:43","新北市五股區四維路120號","121.46805","25.0746066666667","6501500","五股區"
"248019","225-UY","2018/04/16 14:39:38","新北市五股區凌雲路三段45-2號","121.42772","25.1204916666667","6501500","五股區"
"248011","247-BX","2018/04/16 14:39:45","新北市五股區民義路一段49號","121.436225","25.0846","6501500","五股區"
"248013","261-SL","2018/04/16 14:39:44","新北市五股區五福路42巷10號","121.434263333333","25.0896366666667","6501500","五股區"
"248003","677-BX","2018/04/16 14:39:36","新北市五股區成泰路二段82號","121.437391666667","25.0822783333333","6501500","五股區"
"248001","678-BX","2018/04/16 14:39:49","新北市五股區成泰路三段243號","121.446456666667","25.09339","6501500","五股區"
"248009","682-TV","2018/04/16 14:39:41","新北市五股區登林路100-4號","121.427941666667","25.0704233333333","6501500","五股區"
"234072","AAC-211","2018/04/16 14:39:34","新北市永和區環河東路二段54號","121.523288333333","25.0116183333333","6500400","永和區"
"234001","AAC-295","2018/04/16 14:39:46","新北市永和區中正路638號","121.516891666667","25.008265","6500400","永和區"
"243004","AAD-798","2018/04/16 14:39:49","新北市泰山區全興路2-2號","121.432031666667","25.0594866666667","6501600","泰山區"
"243003","297-R6","2018/04/16 14:39:35","新北市泰山區明志路三段196巷21弄18號","121.422883333333","25.0388316666667","6501600","泰山區"
"243007","380-SR","2018/04/16 14:39:45","新北市泰山區文程路18巷35號","121.428213333333","25.048285","6501600","泰山區"
"243006","421-VK","2018/04/16 14:39:35","新北市泰山區泰林路二段33-8號","121.435123333333","25.0564416666667","6501600","泰山區"
"243002","KEA-2215","2018/04/16 14:39:45","新北市泰山區明志路二段136巷48號","121.426083333333","25.0520233333333","6501600","泰山區"
"243001","KEA-2216","2018/04/16 14:39:39","新北市泰山區美寧街58號","121.43079","25.0647566666667","6501600","泰山區"
"243005","646-TV","2018/04/16 14:39:33","新北市泰山區應化街13號","121.423786666667","25.0436333333333","6501600","泰山區"
"243008","680-BX","2018/04/16 14:39:36","新北市泰山區德安街2號","121.419486666667","25.032035","6501600","泰山區"
"231002","002-UM","2018/04/16 14:39:51","新北市新店區中正路366號","121.535365","24.9760516666667","6500600","新店區"
"231027","0293-UT","2018/04/16 14:39:47","新北市新店區中正路328巷1號","121.53694","24.9753283333333","6500600","新店區"
"231028","046-UY","2018/04/16 14:39:37","新北市新店區安德街80號","121.510025","24.9615533333333","6500600","新店區"
"231001","047-UY","2018/04/16 14:39:38","新北市新店區中正路98號","121.543373333333","24.9703833333333","6500600","新店區"
"231005","106-UY","2018/04/16 14:39:34","新北市新店區中正路602號","121.534045","24.9881083333333","6500600","新店區"
"231035","110-UY","2018/04/16 14:39:46","新北市新店區安康路二段100巷5號","121.513333333333","24.9637266666667","6500600","新店區"
"231011","187-VK","2018/04/16 14:39:34","新北市新店區寶宏路38號","121.54948","24.9755433333333","6500600","新店區"
"231023","KEA-2219","2018/04/16 14:39:46","新北市新店區檳榔路21號","121.541525","24.9638416666667","6500600","新店區"
"231018","278-BY","2018/04/16 14:39:48","新北市新店區中央路216號","121.529815","24.9733966666667","6500600","新店區"
"231014","AAD-862","2018/04/16 14:39:35","新北市新店區北宜路三段221號","121.592343333333","24.95322","6500600","新店區"
"231038","3712-VJ","2018/04/16 14:39:35","新北市新店區安康路一段76巷34-1號","121.528506666667","24.9635016666667","6500600","新店區"
"231037","4716-K9","2018/04/16 14:39:39","新北市新店區柴埕路37號","121.513753333333","24.9657116666667","6500600","新店區"
"231036","512-UM","2018/04/16 14:39:41","新北市新店區安祥路106巷345號","121.472915","24.9595783333333","6500600","新店區"
"231013","513-UM","2018/04/16 14:39:50","新北市新店區明德路24號","121.542086666667","24.977045","6500600","新店區"
"231030","618-UM","2018/04/16 14:39:37","新北市新店區安民街189號","121.516805","24.9708483333333","6500600","新店區"
"231034","641-BX","2018/04/16 14:39:47","新北市新店區黎明路9號","121.502511666667","24.9502183333333","6500600","新店區"
"231003","645-TV","2018/04/16 14:39:41","新北市新店區中興路一段283號","121.545396666667","24.9684983333333","6500600","新店區"
"231039","718-UY","2018/04/16 14:39:34","新北市新店區寶橋路98號","121.546831666667","24.976255","6500600","新店區"
"231019","719-UY","2018/04/16 14:39:47","新北市新店區屈尺路2號","121.549368333333","24.922555","6500600","新店區"
"231031","720-UM","2018/04/16 14:39:35","新北市新店區安興路112號","121.515111666667","24.97749","6500600","新店區"
"231029","897-TW","2018/04/16 14:39:48","新北市新店區安康路三段269號","121.486315","24.9518016666667","6500600","新店區"
"231006","898-TW","2018/04/16 14:39:36","新北市新店區北宜路二段103號","121.550225","24.9524383333333","6500600","新店區"
"231004","899-TW","2018/04/16 14:39:48","新北市新店區中正路263-2號","121.53843","24.973755","6500600","新店區"
"231024","AKT-0513","2018/04/16 14:39:41","新北市新店區新生街5巷2號","121.540221666667","24.965975","6500600","新店區"
"235028","005-UY","2018/04/16 14:39:38","新北市中和區南華路45號","121.503791666667","24.996675","6500300","中和區"
"235027","006-UY","2018/04/16 14:39:40","新北市中和區連城路174號","121.493265","24.9971233333333","6500300","中和區"
"235030","031-BX","2018/04/16 14:39:38","新北市中和區南華路89號","121.50567","24.9974083333333","6500300","中和區"
"235020","096-UM","2018/04/16 14:39:31","新北市中和區中山路三段114巷73號","121.476141666667","25.00797","6500300","中和區"
"235003","097-UM","2018/04/16 14:39:40","新北市中和區宜安路62號","121.511563333333","24.9970083333333","6500300","中和區"
"235029","098-UM","2018/04/16 14:39:44","新北市中和區福祥路96號","121.499158333333","25.0059416666667","6500300","中和區"
"235022","151-BY","2018/04/16 14:39:50","新北市中和區員山路146巷15號","121.48226","24.9969033333333","6500300","中和區"
"235019","183-VK","2018/04/16 14:39:47","新北市中和區民生街12巷2號","121.470726666667","25.0056616666667","6500300","中和區"
"235002","185-VK","2018/04/16 14:39:38","新北市中和區立人街69巷19號","121.520426666667","24.9932816666667","6500300","中和區"
"235013","186-VK","2018/04/16 14:39:33","新北市中和區安平路12號","121.509238333333","24.994055","6500300","中和區"
"235031","255-BX","2018/04/16 14:39:42","新北市中和區新生街251號","121.483931666667","24.99845","6500300","中和區"
"235008","293-VK","2018/04/16 14:39:51","新北市中和區興南路二段3巷1號","121.50819","24.98655","6500300","中和區"
"235036","301-VK","2018/04/16 14:39:37","新北市中和區連城路144巷4弄11號","121.495655","24.9988","6500300","中和區"
"235007","352-BY","2018/04/16 14:39:41","新北市中和區南山路201號","121.502906666667","24.9945666666667","6500300","中和區"
"235032","377-QA","2018/04/16 14:39:40","新北市中和區中山路二段262號","121.4973","25.0026483333333","6500300","中和區"
"235025","378-QA","2018/04/16 14:39:40","新北市中和區民安街1號","121.480918333333","25.0008716666667","6500300","中和區"
"235024","269-TV","2018/04/16 14:39:39","新北市中和區中山路二段493號","121.482548333333","25.0049666666667","6500300","中和區"
"235014","4979-A6","2018/04/16 14:39:36","新北市中和區員山路36巷16-2號","121.485195","24.9915483333333","6500300","中和區"
"235006","551-UM","2018/04/16 14:39:36","新北市中和區保健路2巷28號","121.507093333333","24.9974883333333","6500300","中和區"
"235009","565-BX","2018/04/16 14:39:50","新北市中和區景平路161-1號","121.512588333333","24.9925066666667","6500300","中和區"
"235018","640-BX","2018/04/16 14:39:39","新北市中和區德光路87號","121.469118333333","25.003595","6500300","中和區"
"235011","732-UM","2018/04/16 14:39:40","新北市中和區南山路150號","121.504193333333","24.992145","6500300","中和區"
"235010","733-UM","2018/04/16 14:39:44","新北市中和區忠孝街39-15號","121.511875","24.9846066666667","6500300","中和區"
"235035","783-BX","2018/04/16 14:39:37","新北市中和區中正路637巷18弄20號","121.484351666667","24.9951216666667","6500300","中和區"
"235026","800-TS","2018/04/16 14:39:19","新北市中和區錦和路27號","121.486636666667","25.0027916666667","6500300","中和區"
"235021","801-TS","2018/04/16 14:39:47","新北市中和區員山路208號","121.481405","25.0007416666667","6500300","中和區"
"235016","805-TS","2018/04/16 14:39:48","新北市中和區華新街206巷2號","121.506513333333","24.982095","6500300","中和區"
"235012","896-TW","2018/04/16 14:39:42","新北市中和區景新街467巷20弄110號","121.514816666667","24.986665","6500300","中和區"
"235017","900-TW","2018/04/16 14:39:52","新北市中和區國光街215巷29號","121.467293333333","25.0005316666667","6500300","中和區"
"235015","157-BY","2018/04/16 14:39:41","新北市中和區中興街180巷52弄3號","121.498426666667","24.9883183333333","6500300","中和區"
"235001","AAC-213","2018/04/16 14:39:51","新北市中和區秀朗路三段10巷29弄5號","121.525051666667","24.9960033333333","6500300","中和區"
"235023","AAC-215","2018/04/16 14:39:32","新北市中和區圓通路266-1號","121.492705","24.99092","6500300","中和區"
"220016","013-TV","2018/04/16 14:39:46","新北市板橋區中山路二段416巷1弄2-2號","121.483396666667","25.0206716666667","6500100","板橋區"
"220004","015-TV","2018/04/16 14:39:34","新北市板橋區信義路1巷2號","121.457268333333","24.9969116666667","6500100","板橋區"
"220013","072-UY","2018/04/16 14:39:41","新北市板橋區國泰街77號","121.467411666667","25.0065133333333","6500100","板橋區"
"220034","073-UY","2018/04/16 14:39:43","新北市板橋區國光路31號","121.45711","25.0176183333333","6500100","板橋區"
"220105","075-UY","2018/04/16 14:39:46","新北市板橋區雙十路三段22-1號","121.471151666667","25.0307716666667","6500100","板橋區"
"220017","AAD-861","2018/04/16 14:39:43","新北市板橋區縣民大道一段64巷26號","121.455603333333","25.0035516666667","6500100","板橋區"
"247023","893-R6","2018/04/16 14:39:43","新北市蘆洲區正和街63巷14號","121.4691","25.0807833333333","6501400","蘆洲區"
"247013","546-UM","2018/04/16 14:39:43","新北市蘆洲區中正路50號","121.470935","25.08279","6501400","蘆洲區"
"247021","500-BY","2018/04/16 14:39:32","新北市蘆洲區三民路128巷26號","121.470785","25.088215","6501400","蘆洲區"
"247011","339-TH","2018/04/16 14:39:38","新北市蘆洲區集賢路224巷37弄9號","121.480406666667","25.0881883333333","6501400","蘆洲區"
"247003","337-TH","2018/04/16 14:39:50","新北市蘆洲區長安街285巷5弄2號","121.458028333333","25.0841016666667","6501400","蘆洲區"
"247005","336-TH","2018/04/16 14:39:49","新北市蘆洲區長安街68巷15號","121.463336666667","25.0806683333333","6501400","蘆洲區"
"247007","056-VK","2018/04/16 14:39:41","新北市蘆洲區中山一路261號","121.47289","25.0800283333333","6501400","蘆洲區"
"247009","053-VK","2018/04/16 14:39:37","新北市蘆洲區信義路222巷14號","121.479793333333","25.0852966666667","6501400","蘆洲區"
"247015","007-UY","2018/04/16 14:39:42","新北市蘆洲區光華路73巷27號","121.468475","25.0820633333333","6501400","蘆洲區"
"247001","002-UY","2018/04/16 14:39:48","新北市蘆洲區環堤大道198號","121.457001666667","25.090835","6501400","蘆洲區"
"247019","001-UY","2018/04/16 14:39:36","新北市蘆洲區民權路176號","121.472118333333","25.0901916666667","6501400","蘆洲區"
"235005","251-BX","2018/04/16 14:39:33","新北市中和區中和路260號","121.507898333333","24.9992166666667","6500300","中和區"
"253003","6232-TK","2018/04/16 14:39:50","新北市石門區尖子鹿87號","121.579068333333","25.2911616666667","6502200","石門區"
"253001","6251-TK","2018/04/16 14:39:35","新北市石門區崁子腳78-2號","121.52947","25.2806083333333","6502200","石門區"
"253002","637-UY","2018/04/16 14:36:11","新北市石門區七股53-1號","121.546168333333","25.252165","6502200","石門區"
"253004","8270-PC","2018/04/16 14:39:43","新北市石門區內阿里磅28號","121.589153333333","25.2424283333333","6502200","石門區"
"207002","749-BX","2018/04/16 14:39:43","新北市萬里區崁腳里內崁路10號","121.6413","25.159495","6502800","萬里區"
"252005","073-UM","2018/04/16 14:39:48","新北市三芝區橫山里大坑23-5號","121.52409","25.2553883333333","6502100","三芝區"
"207001","662-BX","2018/04/16 14:39:00","新北市萬里區雙興里豐稟路22-2號","121.640053333333","25.1836883333333","6502800","萬里區"
"236064","105-UM","2018/04/16 14:39:38","新北市土城區永豐路308號","121.4725","24.9776783333333","6501300","土城區"
"236040","107-UM","2018/04/16 14:39:50","新北市土城區裕民路55巷15號","121.44958","24.9888366666667","6501300","土城區"
"236074","166-UM","2018/04/16 14:39:46","新北市土城區中央路四段52巷50號","121.41853","24.96019","6501300","土城區"
"236029","253-BX","2018/04/16 14:39:33","新北市土城區中華路二段102號","121.43809","24.9743","6501300","土城區"
"236024","269-VK","2018/04/16 14:39:49","新北市土城區千歲路13號","121.44088","24.9695333333333","6501300","土城區"
"236012","270-VK","2018/04/16 14:39:41","新北市土城區清水路196號","121.46034","24.9818266666667","6501300","土城區"
"236032","271-VK","2018/04/16 14:39:51","新北市土城區明德路一段291巷16號","121.460355","24.976585","6501300","土城區"
"236016","401-BY","2018/04/16 14:39:38","新北市土城區永豐路12號","121.465746666667","24.9845683333333","6501300","土城區"
"236057","912-UM","2018/04/16 14:39:53","新北市土城區中央路四段27巷4號","121.424991666667","24.96261","6501300","土城區"
"236045","913-UM","2018/04/16 14:39:48","新北市土城區明德路一段101號","121.465581666667","24.9827783333333","6501300","土城區"
"236060","915-UM","2018/04/16 14:39:51","新北市土城區延壽路77巷6弄4號","121.468548333333","24.9927666666667","6501300","土城區"
"236054","AAC-216","2018/04/16 14:39:42","新北市土城區裕民路2號","121.446475","24.9891533333333","6501300","土城區"
"242047","172-VK","2018/04/16 14:39:41","新北市樹林區中華路2-1號","121.425368333333","24.9843633333333","6500500","新莊區"
"238012","303-VK","2018/04/16 14:39:46","新北市樹林區中山路三段186號","121.387631666667","24.96892","6500700","樹林區"
"221032","280-BY","2018/04/16 14:39:42","新北市汐止區民族六街5巷1號","121.629903333333","25.069845","6501100","汐止區"
"220027","145-BY","2018/04/16 14:39:51","新北市板橋區建國街25號","121.45806","25.0171533333333","6500100","板橋區"
"220028","200-UY","2018/04/16 14:39:34","新北市板橋區大觀路二段153巷46弄10號","121.449023333333","24.9995566666667","6500100","板橋區"
"220030","610-BX","2018/04/16 14:39:38","新北市板橋區金門街96-2號","121.433108333333","24.9923516666667","6500100","板橋區"
"220050","245-BX","2018/04/16 14:39:44","新北市板橋區縣民大道三段37號","121.473986666667","25.0208366666667","6500100","板橋區"
"220001","257-TC","2018/04/16 14:39:42","新北市板橋區富山街42號","121.477751666667","25.0219133333333","6500100","板橋區"
"220040","267-BY","2018/04/16 14:39:37","新北市板橋區懷德街201巷12號","121.481341666667","25.029535","6500100","板橋區"
"220020","277-BY","2018/04/16 14:39:46","新北市板橋區金門街215巷2弄21號","121.433151666667","24.98877","6500100","板橋區"
"220019","283-VK","2018/04/16 14:39:44","新北市板橋區信義路279巷21號","121.464341666667","24.99023","6500100","板橋區"
"220043","285-UM","2018/04/16 14:39:33","新北市板橋區宏國路93號","121.469738333333","25.03235","6500100","板橋區"
"220001","285-VK","2018/04/16 14:39:51","新北市板橋區富山街96-3號","121.476461666667","25.0219866666667","6500100","板橋區"
"220031","286-VK","2018/04/16 14:39:47","新北市板橋區龍興街63巷60號","121.441765","25.0018983333333","6500100","板橋區"
"220029","287-VK","2018/04/16 14:39:38","新北市板橋區大觀路一段29巷179弄12號","121.449016666667","25.0048133333333","6500100","板橋區"
"220039","288-VK","2018/04/16 14:39:35","新北市板橋區長江路一段48巷12號","121.459485","25.027985","6500100","板橋區"
"220009","293-UM","2018/04/16 14:39:44","新北市板橋區中山路一段283巷2弄11號","121.470405","25.0149183333333","6500100","板橋區"
"220023","303-R5","2018/04/16 14:39:45","新北市板橋區大勇街77號","121.452901666667","25.016555","6500100","板橋區"
"220010","305-R5","2018/04/16 14:39:39","新北市板橋區三民路二段123巷15號","121.480035","25.015655","6500100","板橋區"
"220041","307-R5","2018/04/16 14:39:48","新北市板橋區文化路一段387巷21-4號","121.466016666667","25.0222483333333","6500100","板橋區"
"220047","317-R6","2018/04/16 14:39:48","新北市板橋區四維路269巷35號","121.46168","25.0276583333333","6500100","板橋區"
"220012","486-VK","2018/04/16 14:39:43","新北市板橋區民族路34巷6號","121.461933333333","25.0096033333333","6500100","板橋區"
"220037","491-VK","2018/04/16 14:39:51","新北市板橋區雙十路二段85號","121.475516666667","25.0274633333333","6500100","板橋區"
"220104","560-BX","2018/04/16 14:39:44","新北市板橋區新生街86號","121.458123333333","25.0215016666667","6500100","板橋區"
"220052","561-BX","2018/04/16 14:39:42","新北市板橋區文化路一段280-3號","121.467283333333","25.0214716666667","6500100","板橋區"
"220032","568-UM","2018/04/16 14:39:54","新北市板橋區溪崑二街112巷33弄10號","121.425223333333","24.9887516666667","6500100","板橋區"
"220011","609-BX","2018/04/16 14:39:40","新北市板橋區三民路二段140-3號","121.479148333333","25.015795","6500100","板橋區"
"220005","686-BX","2018/04/16 14:39:40","新北市板橋區國慶路158巷3-4號","121.462098333333","24.9958533333333","6500100","板橋區"
"220042","689-BX","2018/04/16 14:39:45","新北市板橋區新海路360號","121.459823333333","25.0249983333333","6500100","板橋區"
"220002","741-BX","2018/04/16 14:39:49","新北市板橋區忠孝路忠義巷15弄116號","121.465351666667","25.00615","6500100","板橋區"
"220051","KEA-2699","2018/04/16 14:39:52","新北市板橋區松柏街36巷19號","121.475433333333","25.0295516666667","6500100","板橋區"
"220018","806-UM","2018/04/16 14:39:52","新北市板橋區民族路183-2號","121.468893333333","25.0075483333333","6500100","板橋區"
"220003","827-TW","2018/04/16 14:39:44","新北市板橋區國慶路149巷2弄2號","121.461351666667","24.9963283333333","6500100","板橋區"
"220014","830-TW","2018/04/16 14:39:42","新北市板橋區長安街142號","121.472868333333","25.010195","6500100","板橋區"
"220045","831-TW","2018/04/16 14:39:52","新北市板橋區莒光路28巷15號","121.469845","25.023715","6500100","板橋區"
"220038","833-TW","2018/04/16 14:39:20","新北市板橋區陽明街251號","121.462665","25.0250916666667","6500100","板橋區"
"220022","895-R6","2018/04/16 14:39:38","新北市板橋區府中路29-2號","121.458566666667","25.0079583333333","6500100","板橋區"
"220021","985-R7","2018/04/16 14:39:37","新北市板橋區中正路290號","121.455078333333","25.0203183333333","6500100","板橋區"
"220046","AAC-210","2018/04/16 14:39:51","新北市板橋區幸福路33號","121.461613333333","25.0201233333333","6500100","板橋區"
"220025","AAC-253","2018/04/16 14:39:44","新北市板橋區僑中二街104巷1號","121.445931666667","25.0077916666667","6500100","板橋區"
