"lineid","car","time","location","longitude","latitude","cityid","cityname"
"248007","095-VK","2018/04/16 15:09:22","新北市五股區中興路一段3號","121.46976","25.0721033333333","6501500","五股區"
"248019","225-UY","2018/04/16 15:09:18","新北市五股區凌雲路三段24巷16-13號","121.43529","25.10475","6501500","五股區"
"248003","677-BX","2018/04/16 15:09:16","新北市五股區成泰路一段130-1號","121.435143333333","25.0750066666667","6501500","五股區"
"243004","AAD-798","2018/04/16 15:09:09","新北市泰山區忠孝街19巷3弄1號","121.427528333333","25.0659433333333","6501600","泰山區"
"243003","297-R6","2018/04/16 15:09:16","新北市泰山區新北大道六段313巷1號","121.42396","25.0334933333333","6501600","泰山區"
"243007","380-SR","2018/04/16 15:09:25","新北市泰山區仁德路125號","121.43268","25.0561866666667","6501600","泰山區"
"243006","421-VK","2018/04/16 15:09:15","新北市泰山區橫窠雅26-3號","121.409296666667","25.071615","6501600","泰山區"
"243002","KEA-2215","2018/04/16 15:09:25","新北市泰山區泰林路三段330巷1號","121.412968333333","25.06862","6501600","泰山區"
"243001","KEA-2216","2018/04/16 15:09:19","新北市泰山區泰林路二段360號","121.42908","25.0635583333333","6501600","泰山區"
"243005","646-TV","2018/04/16 15:09:25","新北市泰山區泰林路三段272號","121.413853333333","25.06806","6501600","泰山區"
"243008","680-BX","2018/04/16 15:09:29","新北市泰山區明志路二段346號","121.426016666667","25.0453416666667","6501600","泰山區"
"231002","002-UM","2018/04/16 15:09:11","新北市新店區中正路543-4號","121.53367","24.9875516666667","6500600","新店區"
"231028","046-UY","2018/04/16 15:09:17","新北市新店區僑信路105號","121.50039","24.9466266666667","6500600","新店區"
"231001","047-UY","2018/04/16 15:09:14","新北市新店區中正路276號","121.538866666667","24.9737283333333","6500600","新店區"
"231005","106-UY","2018/04/16 15:09:14","新北市新店區北新路三段30號","121.542426666667","24.9796666666667","6500600","新店區"
"231035","110-UY","2018/04/16 15:09:26","新北市新店區安和路三段144號","121.515931666667","24.9862666666667","6500600","新店區"
"231011","187-VK","2018/04/16 15:09:14","新北市新店區寶元路一段65號","121.542241666667","24.9858233333333","6500600","新店區"
"231023","KEA-2219","2018/04/16 15:09:06","新北市新店區檳榔路109號","121.544436666667","24.96166","6500600","新店區"
"231026","256-BX","2018/04/16 15:09:25","新北市新店區建安街17號","121.539703333333","24.9754716666667","6500600","新店區"
"231018","278-BY","2018/04/16 15:09:08","新北市新店區中央六街98號","121.526","24.976975","6500600","新店區"
"231014","AAD-862","2018/04/16 15:09:14","新北市新店區明山路45號","121.56383","24.9558416666667","6500600","新店區"
"231025","4715-K9","2018/04/16 15:09:19","新北市新店區民權路109號","121.536135","24.9819383333333","6500600","新店區"
"231036","512-UM","2018/04/16 15:09:21","新北市新店區安祥路102巷148號","121.48685","24.9645416666667","6500600","新店區"
"231030","618-UM","2018/04/16 15:09:17","新北市新店區安民街341-1號","121.51684","24.9749183333333","6500600","新店區"
"231034","641-BX","2018/04/16 15:09:07","新北市新店區玫瑰路4-1號","121.493618333333","24.95141","6500600","新店區"
"231003","645-TV","2018/04/16 15:09:21","新北市新店區中興路二段240號","121.547698333333","24.9754766666667","6500600","新店區"
"231039","718-UY","2018/04/16 15:09:14","新北市新店區寶元路一段65號","121.542235","24.9857883333333","6500600","新店區"
"231019","719-UY","2018/04/16 15:09:27","新北市新店區永福路54-2號","121.55814","24.9287066666667","6500600","新店區"
"231031","720-UM","2018/04/16 15:09:15","新北市新店區安泰路72號","121.485731666667","24.94643","6500600","新店區"
"231029","897-TW","2018/04/16 15:09:25","新北市新店區安康路三段738號","121.473881666667","24.9419566666667","6500600","新店區"
"231006","898-TW","2018/04/16 15:09:16","新北市新店區新坡一街18巷5弄8-1號","121.550738333333","24.961855","6500600","新店區"
"231004","899-TW","2018/04/16 15:09:28","新北市新店區建國路13號","121.539865","24.9734883333333","6500600","新店區"
"231024","AKT-0513","2018/04/16 15:09:21","新北市新店區中華路42巷12號","121.540425","24.9685683333333","6500600","新店區"
"235003","097-UM","2018/04/16 15:09:20","新北市中和區安樂路217巷40弄1號","121.513351666667","24.99795","6500300","中和區"
"235029","098-UM","2018/04/16 15:09:24","新北市中和區永和路92-1號","121.497043333333","25.0054933333333","6500300","中和區"
"235004","150-BY","2018/04/16 15:09:14","新北市中和區保健路19巷2弄3號","121.508491666667","24.9982966666667","6500300","中和區"
"235007","352-BY","2018/04/16 15:09:21","新北市中和區興南路二段159巷12號","121.504986666667","24.9831116666667","6500300","中和區"
"235014","4979-A6","2018/04/16 15:09:26","新北市中和區景平路336號","121.511848333333","24.992965","6500300","中和區"
"235035","783-BX","2018/04/16 15:09:16","新北市中和區中山路二段550號","121.484065","25.0053633333333","6500300","中和區"
"235012","896-TW","2018/04/16 15:09:18","新北市中和區興南路一段152號","121.508371666667","24.9869483333333","6500300","中和區"
"235034","911-UM","2018/04/16 15:09:20","新北市中和區連勝街59號","121.49748","24.99706","6500300","中和區"
"235001","AAC-213","2018/04/16 15:09:25","新北市中和區自立路183號","121.523531666667","24.9918033333333","6500300","中和區"
"235023","AAC-215","2018/04/16 15:09:13","新北市中和區圓通路335巷5弄1號","121.492841666667","24.9899666666667","6500300","中和區"
"220016","013-TV","2018/04/16 15:09:12","新北市板橋區光復街234-1號","121.484715","25.0214533333333","6500100","板橋區"
"220105","075-UY","2018/04/16 15:09:26","新北市板橋區文聖街13號","121.475506666667","25.032355","6500100","板橋區"
"220017","AAD-861","2018/04/16 15:09:23","新北市板橋區大明街25巷2弄21號","121.457438333333","25.0024866666667","6500100","板橋區"
"247009","053-VK","2018/04/16 15:09:17","新北市林口區汕頭32號","121.366385","25.13464","6501400","蘆洲區"
"253003","6232-TK","2018/04/16 15:09:10","新北市石門區小坑9號","121.594498333333","25.2891983333333","6502200","石門區"
"253001","6251-TK","2018/04/16 15:09:15","新北市石門區崁子腳28-3號","121.537545","25.2887783333333","6502200","石門區"
"253002","637-UY","2018/04/16 15:09:11","新北市石門區中央路2-1號","121.565233333333","25.2911983333333","6502200","石門區"
"253004","8270-PC","2018/04/16 15:09:23","新北市石門區小坑22號","121.593948333333","25.2813016666667","6502200","石門區"
"207002","749-BX","2018/04/16 15:09:12","新北市萬里區崁腳里內中福路73-1號","121.654935","25.1669316666667","6502800","萬里區"
"207001","662-BX","2018/04/16 15:09:00","新北市萬里區磺潭里員潭路1-1號","121.646461666667","25.20247","6502800","萬里區"
"236064","105-UM","2018/04/16 15:09:19","新北市土城區中央路一段71號","121.447676666667","24.9896866666667","6501300","土城區"
"236040","107-UM","2018/04/16 15:09:17","新北市土城區學士路14號","121.453483333333","24.9830966666667","6501300","土城區"
"236074","166-UM","2018/04/16 15:09:24","新北市土城區中州路27巷1號","121.413871666667","24.9576566666667","6501300","土城區"
"236029","253-BX","2018/04/16 15:09:13","新北市土城區中央路二段50巷16弄1號","121.441738333333","24.9799633333333","6501300","土城區"
"236024","269-VK","2018/04/16 15:09:25","新北市土城區中央路二段177巷3弄4號","121.442871666667","24.976215","6501300","土城區"
"236012","270-VK","2018/04/16 15:09:21","新北市土城區學府路一段37巷33號","121.457591666667","24.9874266666667","6501300","土城區"
"236032","271-VK","2018/04/16 15:09:26","新北市土城區仁愛路42號","121.461821666667","24.979345","6501300","土城區"
"236016","401-BY","2018/04/16 15:09:18","新北市土城區延峰街16號","121.468741666667","24.986335","6501300","土城區"
"236057","912-UM","2018/04/16 15:09:13","新北市土城區金城路二段260號","121.457895","24.9840033333333","6501300","土城區"
"236045","913-UM","2018/04/16 15:09:19","新北市土城區立仁街50號","121.460763333333","24.9823016666667","6501300","土城區"
"236060","915-UM","2018/04/16 15:09:27","新北市土城區金城路三段93巷20號","121.46688","24.9884483333333","6501300","土城區"
"236054","AAC-216","2018/04/16 15:09:22","新北市土城區學府路一段276號","121.450008333333","24.9831333333333","6501300","土城區"
"238006","599-UM","2018/04/16 15:09:18","新北市樹林區太平路273巷23號","121.421156666667","24.976235","6500700","樹林區"
"238005","571-TV","2018/04/16 15:09:17","新北市板橋區大觀路三段22號","121.434388333333","24.9958716666667","6500700","樹林區"
"238011","5061-A6","2018/04/16 15:09:24","新北市樹林區八德街367號","121.417153333333","24.9719366666667","6500700","樹林區"
"238009","KEA-2213","2018/04/16 15:09:11","新北市樹林區環河路600號","121.404466666667","24.9693583333333","6500700","樹林區"
"238008","KEA-2539","2018/04/16 15:09:22","新北市樹林區西圳街一段165巷20弄11號","121.395646666667","24.9601816666667","6500700","樹林區"
"238012","303-VK","2018/04/16 15:09:26","新北市樹林區中山路一段354號","121.419201666667","24.9858666666667","6500700","樹林區"
"238001","283-BY","2018/04/16 15:09:16","新北市樹林區中山路二段89號","121.411471666667","24.9828816666667","6500700","樹林區"
"238001","282-BY","2018/04/16 15:09:17","新北市樹林區中山路二段249巷2號","121.402061666667","24.9757433333333","6500700","樹林區"
"238007","268-VK","2018/04/16 15:09:17","新北市樹林區八德街395號","121.41591","24.971495","6500700","樹林區"
"238013","172-UY","2018/04/16 15:09:21","新北市樹林區東順街123-3號","121.406301666667","24.9749166666667","6500700","樹林區"
"238003","169-UY","2018/04/16 15:09:09","新北市樹林區大安路569號","121.412096666667","24.98386","6500700","樹林區"
"221032","280-BY","2018/04/16 15:09:22","新北市汐止區康寧街482-1號","121.632491666667","25.068085","6501100","汐止區"
"220030","610-BX","2018/04/16 15:09:18","新北市板橋區大觀路三段121號","121.432701666667","24.994535","6500100","板橋區"
"220050","245-BX","2018/04/16 15:09:24","新北市板橋區莒光路167-8號","121.474638333333","25.0235616666667","6500100","板橋區"
"220001","257-TC","2018/04/16 15:09:26","新北市板橋區中山路二段94號","121.475443333333","25.01625","6500100","板橋區"
"220040","267-BY","2018/04/16 15:09:17","新北市板橋區文聖街77號","121.477306666667","25.0303566666667","6500100","板橋區"
"220020","277-BY","2018/04/16 15:09:26","新北市板橋區金門街109巷16號","121.433921666667","24.9917433333333","6500100","板橋區"
"220019","283-VK","2018/04/16 15:09:24","新北市板橋區信義路52-2號","121.457233333333","24.99427","6500100","板橋區"
"220043","285-UM","2018/04/16 15:09:13","新北市板橋區陽明街18號","121.466443333333","25.0217216666667","6500100","板橋區"
"220031","286-VK","2018/04/16 15:09:26","新北市板橋區僑中二街92巷2號","121.446266666667","25.0089266666667","6500100","板橋區"
"220029","287-VK","2018/04/16 15:09:18","新北市板橋區僑中一街124巷20弄46號","121.448121666667","25.0138166666667","6500100","板橋區"
"220039","288-VK","2018/04/16 15:09:15","新北市板橋區幸福路32巷65號","121.460398333333","25.0222616666667","6500100","板橋區"
"220009","293-UM","2018/04/16 15:09:23","新北市板橋區四川路一段290號","121.458536666667","25.00075","6500100","板橋區"
"220010","305-R5","2018/04/16 15:09:19","新北市板橋區中山路二段613號","121.485403333333","25.02247","6500100","板橋區"
"220041","307-R5","2018/04/16 15:09:23","新北市板橋區裕民街130號","121.45886","25.0275283333333","6500100","板橋區"
"220047","317-R6","2018/04/16 15:09:08","新北市板橋區雨農路52號","121.461008333333","25.02417","6500100","板橋區"
"220012","486-VK","2018/04/16 15:09:22","新北市板橋區長安街331巷104-3號","121.471728333333","25.0126766666667","6500100","板橋區"
"220037","491-VK","2018/04/16 15:09:14","新北市板橋區大同街79號","121.479685","25.0281783333333","6500100","板橋區"
"220052","561-BX","2018/04/16 15:09:22","新北市板橋區陽明街279巷42號","121.460861666667","25.0255933333333","6500100","板橋區"
"220011","609-BX","2018/04/16 15:09:20","新北市板橋區中山路二段398號","121.482501666667","25.0207133333333","6500100","板橋區"
"220042","689-BX","2018/04/16 15:09:25","新北市板橋區長江路三段96-3號","121.47465","25.0342183333333","6500100","板橋區"
"220051","KEA-2699","2018/04/16 15:09:19","新北市板橋區懷德街76巷8號","121.477578333333","25.03176","6500100","板橋區"
"220018","806-UM","2018/04/16 15:09:15","新北市板橋區四川路二段2號","121.456683333333","24.996585","6500100","板橋區"
"220003","827-TW","2018/04/16 15:09:24","新北市板橋區國慶路149巷37弄4號","121.46071","24.9980983333333","6500100","板橋區"
"220014","830-TW","2018/04/16 15:09:22","新北市板橋區中山路一段206巷45號","121.47088","25.0128066666667","6500100","板橋區"
"220038","833-TW","2018/04/16 15:09:20","新北市板橋區新海路401號","121.458576666667","25.026685","6500100","板橋區"
"220046","AAC-210","2018/04/16 15:09:26","新北市板橋區光正街57號","121.46174","25.0176766666667","6500100","板橋區"
"220025","AAC-253","2018/04/16 15:09:24","新北市板橋區僑中一街124巷73號","121.446786666667","25.0176666666667","6500100","板橋區"
"235030","KEA-2873","2018/04/16 15:09:27","新北市中和區南工路102號","121.507525","25.0032833333333","6500300","中和區"
