"lineid","car","time","location","longitude","latitude","cityid","cityname"
"243008","680-BX","2018/04/16 15:29:36","新北市泰山區明志路二段187號","121.42772","25.0495183333333","6501600","泰山區"
"231002","002-UM","2018/04/16 15:29:31","新北市新店區環河路152號","121.535175","24.966915","6500600","新店區"
"231028","046-UY","2018/04/16 15:29:37","新北市新店區僑信路57號","121.499406666667","24.9492266666667","6500600","新店區"
"231005","106-UY","2018/04/16 15:29:34","新北市新店區建國路257號","121.537351666667","24.983205","6500600","新店區"
"231035","110-UY","2018/04/16 15:29:26","新北市新店區安興路96號","121.51515","24.976415","6500600","新店區"
"231011","187-VK","2018/04/16 15:29:34","新北市新店區寶元路一段109號","121.545713333333","24.9831283333333","6500600","新店區"
"231023","KEA-2219","2018/04/16 15:29:25","新北市新店區北新路一段88巷1號","121.541743333333","24.9678033333333","6500600","新店區"
"231026","256-BX","2018/04/16 15:29:45","新北市新店區三民路117巷6弄1號","121.534115","24.9711983333333","6500600","新店區"
"231018","278-BY","2018/04/16 15:29:28","新北市新店區中央七街83號","121.526913333333","24.9769683333333","6500600","新店區"
"231014","AAD-862","2018/04/16 15:29:35","新北市新店區明山路45號","121.56381","24.9558583333333","6500600","新店區"
"231037","4716-K9","2018/04/16 15:29:39","新北市新店區安興路108號","121.515168333333","24.97699","6500600","新店區"
"231025","4715-K9","2018/04/16 15:29:38","新北市新店區安康路一段266巷4號","121.520031666667","24.964005","6500600","新店區"
"231036","512-UM","2018/04/16 15:29:41","新北市新店區安祥路67巷50弄15號","121.484191666667","24.9588583333333","6500600","新店區"
"231013","513-UM","2018/04/16 15:29:30","新北市新店區永業路81巷1弄1-1號","121.529493333333","24.949395","6500600","新店區"
"231030","618-UM","2018/04/16 15:29:37","新北市新店區新和街64號","121.519963333333","24.985465","6500600","新店區"
"231034","641-BX","2018/04/16 15:29:27","新北市新店區富貴街16巷1號","121.494065","24.9483666666667","6500600","新店區"
"231003","645-TV","2018/04/16 15:29:41","新北市新店區寶高路120巷1號","121.55457","24.9760633333333","6500600","新店區"
"231039","718-UY","2018/04/16 15:29:34","新北市新店區寶元路一段85巷4號","121.54302","24.9857116666667","6500600","新店區"
"231019","719-UY","2018/04/16 15:29:27","新北市新店區金興路20號","121.550678333333","24.9299383333333","6500600","新店區"
"231031","720-UM","2018/04/16 15:29:35","新北市新店區裕合街10號","121.48965","24.9500016666667","6500600","新店區"
"231029","897-TW","2018/04/16 15:29:44","新北市新店區安康路三段552-1號","121.481633333333","24.948725","6500600","新店區"
"231004","899-TW","2018/04/16 15:29:28","新北市新店區民族路108號","121.538178333333","24.977365","6500600","新店區"
"241017","063-VK","2018/04/16 15:29:27","新北市三重區重新路四段121號","121.485085","25.0519","6500200","三重區"
"241013","270-UM","2018/04/16 15:29:29","新北市三重區重新路四段121號","121.484765","25.0519566666667","6500200","三重區"
"241007","398-BY","2018/04/16 15:29:34","新北市三重區重新路四段121號","121.48516","25.0519766666667","6500200","三重區"
"241029","942-UM","2018/04/16 15:29:35","新北市三重區重新路四段121號","121.485065","25.052135","6500200","三重區"
"241033","AAC-255","2018/04/16 15:29:32","新北市三重區重新路四段121號","121.482051666667","25.050615","6500200","三重區"
"235014","4979-A6","2018/04/16 15:29:36","新北市中和區景新街133號","121.505856666667","24.997235","6500300","中和區"
"235034","911-UM","2018/04/16 15:29:41","新北市中和區圓通路124號","121.498668333333","24.9958366666667","6500300","中和區"
"235023","AAC-215","2018/04/16 15:29:32","新北市中和區員山路30-3號","121.483621666667","24.987885","6500300","中和區"
"253003","6232-TK","2018/04/16 15:29:30","新北市石門區小坑9號","121.594363333333","25.288345","6502200","石門區"
"253001","6251-TK","2018/04/16 15:29:35","新北市石門區小坑9號","121.5945","25.2892033333333","6502200","石門區"
"253004","8270-PC","2018/04/16 15:29:23","新北市石門區小坑9號","121.594316666667","25.2885766666667","6502200","石門區"
"207001","662-BX","2018/04/16 15:26:00","新北市萬里區龜吼里玉田路4-2號","121.6815","25.184235","6502800","萬里區"
"236064","105-UM","2018/04/16 15:29:38","新北市土城區中央路二段190號","121.44196","24.9760416666667","6501300","土城區"
"236040","107-UM","2018/04/16 15:29:41","新北市土城區學成路22巷3號","121.453406666667","24.9874166666667","6501300","土城區"
"236074","166-UM","2018/04/16 15:29:24","新北市土城區中央路四段321巷46號","121.412401666667","24.95105","6501300","土城區"
"236029","253-BX","2018/04/16 15:29:33","新北市土城區中央路一段260巷26號","121.44296","24.9846633333333","6501300","土城區"
"236024","269-VK","2018/04/16 15:29:28","新北市土城區裕生路102巷18號","121.446398333333","24.98481","6501300","土城區"
"236012","270-VK","2018/04/16 15:29:41","新北市土城區德興街137號","121.455211666667","24.9917233333333","6501300","土城區"
"236032","271-VK","2018/04/16 15:29:26","新北市土城區延吉街296巷5號","121.464383333333","24.9847216666667","6501300","土城區"
"236016","401-BY","2018/04/16 15:29:38","新北市土城區延吉街137巷12弄6號","121.470658333333","24.9855033333333","6501300","土城區"
"236057","912-UM","2018/04/16 15:29:33","新北市土城區中央路二段223號","121.440771666667","24.9736633333333","6501300","土城區"
"236045","913-UM","2018/04/16 15:29:40","新北市土城區青雲路145號","121.458768333333","24.984235","6501300","土城區"
"236060","915-UM","2018/04/16 15:29:31","新北市土城區延平街56號","121.46789","24.992505","6501300","土城區"
"236054","AAC-216","2018/04/16 15:29:42","新北市土城區金城路三段157號","121.468846666667","24.9884316666667","6501300","土城區"
"238002","755-BX","2018/04/16 15:29:38","新北市樹林區復興路227號","121.419985","24.9909383333333","6500700","樹林區"
"238010","601-UM","2018/04/16 15:29:27","新北市樹林區中正路282-8號","121.41512","25.0096016666667","6500700","樹林區"
"238006","599-UM","2018/04/16 15:29:38","新北市樹林區太順街36號","121.418981666667","24.9799066666667","6500700","樹林區"
"238005","571-TV","2018/04/16 15:29:37","新北市樹林區鎮前街144號","121.424613333333","24.9904133333333","6500700","樹林區"
"238011","5061-A6","2018/04/16 15:29:39","新北市樹林區太平路200號","121.418855","24.9753083333333","6500700","樹林區"
"238009","KEA-2213","2018/04/16 15:29:30","新北市樹林區信義街19號","121.422921666667","24.9821033333333","6500700","樹林區"
"238008","KEA-2539","2018/04/16 15:29:41","新北市樹林區西圳街一段116巷1號","121.399606666667","24.96446","6500700","樹林區"
"238012","303-VK","2018/04/16 15:29:35","新北市樹林區中山路一段163號","121.421821666667","24.9887083333333","6500700","樹林區"
"238001","283-BY","2018/04/16 15:29:37","新北市樹林區保安街二段333巷2號","121.412336666667","25.007525","6500700","樹林區"
"238001","282-BY","2018/04/16 15:29:37","新北市樹林區中正路55巷11號","121.426196666667","24.9993583333333","6500700","樹林區"
"238007","268-VK","2018/04/16 15:29:37","新北市樹林區俊英街160巷23號","121.42776","25.0070683333333","6500700","樹林區"
"238013","172-UY","2018/04/16 15:29:41","新北市樹林區新興街19巷11號","121.400753333333","24.973115","6500700","樹林區"
"238003","169-UY","2018/04/16 15:29:42","新北市樹林區中山路一段2巷21號","121.423895","24.9939783333333","6500700","樹林區"
"220050","245-BX","2018/04/16 15:29:24","新北市板橋區漢生東路83巷1號","121.466296666667","25.015935","6500100","板橋區"
"220031","286-VK","2018/04/16 15:29:45","新北市板橋區僑中二街108巷9號","121.445343333333","25.007355","6500100","板橋區"
"220029","287-VK","2018/04/16 15:29:38","新北市板橋區大觀路二段265巷7-7號","121.443921666667","24.9946233333333","6500100","板橋區"
"220047","317-R6","2018/04/16 15:28:08","新北市五股區中直路21號","121.42081","25.1121633333333","6500100","板橋區"
"220052","561-BX","2018/04/16 15:29:40","新北市板橋區漢生東路33巷15號","121.465723333333","25.0174316666667","6500100","板橋區"
"220011","609-BX","2018/04/16 15:29:40","新北市板橋區中山路二段161號","121.475833333333","25.0167066666667","6500100","板橋區"
"220042","689-BX","2018/04/16 15:29:25","新北市板橋區長江路二段49號","121.464348333333","25.0313083333333","6500100","板橋區"
"220051","KEA-2699","2018/04/16 15:29:38","新北市板橋區民生路二段181號","121.46953","25.02044","6500100","板橋區"
"220038","833-TW","2018/04/16 15:29:40","新北市板橋區四維路133號","121.46501","25.0252283333333","6500100","板橋區"
