"lineid","car","time","location","longitude","latitude","cityid","cityname"
"244019","403-UM","2018/04/16 16:29:34","新北市林口區粉寮69號","121.405093333333","25.0908466666667","6501700","林口區"
"243011","297-R6","2018/04/16 16:01:03","新北市泰山區黎明路25號","121.42206","25.0610816666667","6501600","泰山區"
"243016","680-BX","2018/04/16 16:15:03","新北市泰山區黎明路25號","121.421946666667","25.0606416666667","6501600","泰山區"
"231046","188-VK","2018/04/16 16:29:32","新北市新店區灣潭路3-3號","121.538248333333","24.9508183333333","6500600","新店區"
"241011","013-R5","2018/04/16 16:29:23","新北市三重區龍濱路269號","121.501326666667","25.0729433333333","6500200","三重區"
"241028","022-UY","2018/04/16 16:29:21","新北市三重區中正南路188號","121.493908333333","25.05611","6500200","三重區"
"241008","059-VK","2018/04/16 16:29:22","新北市三重區力行路二段136巷45弄12號","121.479155","25.0753716666667","6500200","三重區"
"241009","060-VK","2018/04/16 16:29:33","新北市三重區三和路四段191巷54號","121.483545","25.079575","6500200","三重區"
"241031","061-VK","2018/04/16 16:29:30","新北市三重區重陽路一段53號","121.486765","25.05839","6500200","三重區"
"241015","062-VK","2018/04/16 16:29:21","新北市三重區福德北路36號","121.501911666667","25.0652183333333","6500200","三重區"
"241017","063-VK","2018/04/16 16:29:30","新北市三重區大同北路52號","121.495163333333","25.06311","6500200","三重區"
"241024","065-VK","2018/04/16 16:29:27","新北市三重區中正北路265號","121.475368333333","25.0711583333333","6500200","三重區"
"241026","066-VK","2018/04/16 16:29:32","新北市三重區文化南路42號","121.500418333333","25.06038","6500200","三重區"
"241002","090-VK","2018/04/16 16:29:35","新北市三重區五華街11號","121.494923333333","25.08035","6500200","三重區"
"241003","091-VK","2018/04/16 16:29:35","新北市三重區五華街71巷118號","121.49514","25.0844816666667","6500200","三重區"
"241005","262-UM","2018/04/16 16:29:25","新北市三重區溪尾街305號","121.487475","25.083775","6500200","三重區"
"241016","265-UM","2018/04/16 16:29:15","新北市三重區大智街21號","121.494253333333","25.0657383333333","6500200","三重區"
"241018","268-UM","2018/04/16 16:29:26","新北市三重區正義北路364巷25號","121.493071666667","25.070995","6500200","三重區"
"241032","269-UM","2018/04/16 16:29:28","新北市三重區三陽路100巷3弄13號","121.482938333333","25.0581216666667","6500200","三重區"
"241013","270-UM","2018/04/16 16:29:29","新北市三重區仁愛街79號","121.496016666667","25.0729233333333","6500200","三重區"
"241025","271-UM","2018/04/16 16:29:28","新北市三重區中正北路560巷100弄2號","121.472438333333","25.0682316666667","6500200","三重區"
"241007","398-BY","2018/04/16 16:29:34","新北市三重區三和路四段167巷176號","121.48789","25.080305","6500200","三重區"
"241006","413-TH","2018/04/16 16:29:17","新北市三重區力行路二段184號","121.483316666667","25.0772866666667","6500200","三重區"
"241004","475-VK","2018/04/16 16:29:20","新北市三重區自強路五段5-1號","121.492315","25.0803316666667","6500200","三重區"
"241020","478-VK","2018/04/16 16:29:22","新北市三重區後竹圍街217號","121.484666666667","25.0715","6500200","三重區"
"241030","480-VK","2018/04/16 16:29:32","新北市三重區成功路97號","121.487895","25.0514516666667","6500200","三重區"
"241014","543-UM","2018/04/16 16:29:35","新北市三重區河邊北街70-3號","121.504353333333","25.06841","6500200","三重區"
"241023","545-UM","2018/04/16 16:29:27","新北市三重區忠孝路三段50巷47號","121.482931666667","25.0644083333333","6500200","三重區"
"241001","547-UM","2018/04/16 16:29:14","新北市三重區福隆路117號","121.492825","25.0786166666667","6500200","三重區"
"241019","KEA-2593","2018/04/16 16:29:22","新北市三重區重陽路三段97號","121.490305","25.0680783333333","6500200","三重區"
"241022","887-TS","2018/04/16 16:29:20","新北市三重區新北大道一段88號","121.486041666667","25.0616233333333","6500200","三重區"
"241012","941-UM","2018/04/16 16:29:29","新北市三重區河邊北街351號","121.502161666667","25.0756083333333","6500200","三重區"
"241029","942-UM","2018/04/16 16:29:23","新北市三重區集美街126巷10號","121.489333333333","25.05368","6500200","三重區"
"241033","AAC-255","2018/04/16 16:29:32","新北市三重區重新路五段317巷1弄20號","121.478063333333","25.0495516666667","6500200","三重區"
"235046","733-UM","2018/04/16 16:26:30","新北市中和區員山路36巷13號","121.484171666667","24.990835","6500300","中和區"
"235062","800-TS","2018/04/16 16:18:19","新北市中和區中正路410號","121.49221","24.9941316666667","6500300","中和區"
"224008","285-BY","2018/04/16 16:29:19","新北市瑞芳區大寮路356-1號","121.784871666667","25.10322","6501200","瑞芳區"
"224007","275-VK","2018/04/16 16:29:18","新北市瑞芳區大埔路60號","121.763761666667","25.10224","6501200","瑞芳區"
"224009","273-VK","2018/04/16 16:29:28","新北市瑞芳區大寮路356-1號","121.784955","25.103375","6501200","瑞芳區"
"224005","271-BY","2018/04/16 16:29:22","新北市瑞芳區海濱路77-10號","121.831258333333","25.1233383333333","6501200","瑞芳區"
"227001","642-TC","2018/04/16 16:29:24","新北市雙溪區上林里內平林120-2號","121.824481666667","25.02627","6502500","雙溪區"
"227008","400-TW","2018/04/16 16:29:24","新北市雙溪區三港里雙澳路37-5號","121.8725","25.0508216666667","6502500","雙溪區"
"251013","179-VK","2018/04/16 16:29:30","新北市淡水區北新路三段162號","121.492401666667","25.1914966666667","6501000","淡水區"
"251008","181-VK","2018/04/16 16:29:17","新北市淡水區樹梅坑17號","121.471513333333","25.1441516666667","6501000","淡水區"
"251015","182-VK","2018/04/16 16:29:23","新北市淡水區中正路一段85號","121.42234","25.1789633333333","6501000","淡水區"
"238002","755-BX","2018/04/16 16:29:18","新北市樹林區中山路三段210-2號","121.380706666667","24.9676883333333","6500700","樹林區"
"238011","5061-A6","2018/04/16 16:29:24","新北市樹林區中山路三段214號","121.380138333333","24.9678966666667","6500700","樹林區"
"238001","283-BY","2018/04/16 16:29:37","新北市樹林區中正路433-2號","121.414828333333","25.0084533333333","6500700","樹林區"
"238001","282-BY","2018/04/16 16:29:17","新北市樹林區大慶街99-1號","121.427711666667","24.9997916666667","6500700","樹林區"
