"lineid","car","time","location","longitude","latitude","cityid","cityname"
"249005","172-UM","2018/04/16 16:59:45","新北市八里區渡船頭3-19號","121.433815","25.1515716666667","6502300","八里區"
"249001","173-UM","2018/04/16 16:59:42","新北市八里區中山路三段106號","121.391055","25.1422033333333","6502300","八里區"
"249004","303-UY","2018/04/16 16:59:45","新北市八里區挖子尾街1-1號","121.415696666667","25.1654433333333","6502300","八里區"
"249002","305-UY","2018/04/16 16:59:49","新北市八里區牛寮埔10號","121.433205","25.1422216666667","6502300","八里區"
"249003","593-UM","2018/04/16 16:59:37","新北市八里區中山路二段301號","121.401066666667","25.1481316666667","6502300","八里區"
"244007","080-UY","2018/04/16 16:59:46","新北市林口區中湖43-5號","121.3818","25.0923933333333","6501700","林口區"
"244019","403-UM","2018/04/16 16:59:34","新北市林口區林口路41號","121.390041666667","25.0788583333333","6501700","林口區"
"244023","483-VK","2018/04/16 16:59:37","新北市林口區粉寮69號","121.4051","25.090765","6501700","林口區"
"244021","838-TS","2018/04/16 16:59:35","新北市林口區粉寮69號","121.40485","25.0908216666667","6501700","林口區"
"231046","188-VK","2018/04/16 16:59:52","新北市新店區灣潭路48-1號","121.542656666667","24.944815","6500600","新店區"
"241011","013-R5","2018/04/16 16:59:46","新北市三重區公園街13號","121.49944","25.0728716666667","6500200","三重區"
"241028","022-UY","2018/04/16 16:59:41","新北市三重區中正南路32-1號","121.49379","25.0601883333333","6500200","三重區"
"241008","059-VK","2018/04/16 16:59:42","新北市三重區永福街179巷42號","121.477428333333","25.0747766666667","6500200","三重區"
"241009","060-VK","2018/04/16 16:59:33","新北市三重區仁美街110號","121.485558333333","25.080745","6500200","三重區"
"241031","061-VK","2018/04/16 16:59:38","新北市三重區三寧街38號","121.489866666667","25.0602133333333","6500200","三重區"
"241015","062-VK","2018/04/16 16:59:41","新北市三重區三和路二段1-4號","121.50158","25.0665883333333","6500200","三重區"
"241017","063-VK","2018/04/16 16:59:47","新北市三重區國隆路12巷3號","121.492811666667","25.0637666666667","6500200","三重區"
"241024","065-VK","2018/04/16 16:59:46","新北市三重區國道路一段70巷11號","121.480603333333","25.0721916666667","6500200","三重區"
"241026","066-VK","2018/04/16 16:59:31","新北市三重區文化南路42號","121.500406666667","25.0602383333333","6500200","三重區"
"241002","090-VK","2018/04/16 16:59:35","新北市三重區仁義街101巷18號","121.498591666667","25.0802966666667","6500200","三重區"
"241003","091-VK","2018/04/16 16:59:35","新北市三重區集賢路87-1號","121.493795","25.086995","6500200","三重區"
"241005","262-UM","2018/04/16 16:59:44","新北市三重區仁華街82號","121.485223333333","25.0832","6500200","三重區"
"241016","265-UM","2018/04/16 16:59:51","新北市三重區大同北路56號","121.494338333333","25.063845","6500200","三重區"
"241018","268-UM","2018/04/16 16:59:46","新北市三重區六張街126巷2弄22號","121.492533333333","25.06957","6500200","三重區"
"241032","269-UM","2018/04/16 16:59:49","新北市三重區三民街9號","121.485743333333","25.06073","6500200","三重區"
"241013","270-UM","2018/04/16 16:59:49","新北市三重區仁和街62號","121.497471666667","25.074","6500200","三重區"
"241025","271-UM","2018/04/16 16:59:48","新北市三重區中正北路508巷5號","121.472651666667","25.0713916666667","6500200","三重區"
"241007","398-BY","2018/04/16 16:59:34","新北市三重區溪尾街187號","121.488681666667","25.0804466666667","6500200","三重區"
"241006","413-TH","2018/04/16 16:59:37","新北市三重區車路頭街128號","121.484256666667","25.07529","6500200","三重區"
"241004","475-VK","2018/04/16 16:59:40","新北市三重區五華街92巷16號","121.492135","25.08184","6500200","三重區"
"241020","478-VK","2018/04/16 16:59:42","新北市三重區後竹圍街175巷20號","121.485688333333","25.0727633333333","6500200","三重區"
"241030","480-VK","2018/04/16 16:59:52","新北市三重區昌隆街57號","121.491133333333","25.051185","6500200","三重區"
"241014","543-UM","2018/04/16 16:59:35","新北市三重區介壽路39巷94號","121.500695","25.0706233333333","6500200","三重區"
"241023","545-UM","2018/04/16 16:59:47","新北市三重區忠孝路三段126號","121.479893333333","25.062845","6500200","三重區"
"241001","547-UM","2018/04/16 16:59:34","新北市三重區仁愛街245巷36號","121.494331666667","25.0785616666667","6500200","三重區"
"241019","KEA-2593","2018/04/16 16:59:42","新北市三重區三張街104號","121.487896666667","25.06992","6500200","三重區"
"241022","887-TS","2018/04/16 16:59:40","新北市三重區中華路77號","121.483845","25.0626533333333","6500200","三重區"
"241012","941-UM","2018/04/16 16:59:49","新北市三重區仁壽街200號","121.50108","25.07496","6500200","三重區"
"241029","942-UM","2018/04/16 16:59:35","新北市三重區重安街135號","121.49517","25.05475","6500200","三重區"
"241033","AAC-255","2018/04/16 16:59:52","新北市三重區中興北街271號","121.469073333333","25.06063","6500200","三重區"
"247024","893-R6","2018/04/16 16:59:38","新北市蘆洲區長興路202號","121.460528333333","25.0874783333333","6501400","蘆洲區"
"247014","546-UM","2018/04/16 16:59:48","新北市蘆洲區中山二路36巷33號","121.474053333333","25.0832416666667","6501400","蘆洲區"
"247022","500-BY","2018/04/16 16:59:32","新北市蘆洲區三民路128巷140號","121.468475","25.0924016666667","6501400","蘆洲區"
"247012","339-TH","2018/04/16 16:59:42","新北市蘆洲區復興路186號","121.478018333333","25.08875","6501400","蘆洲區"
"247004","337-TH","2018/04/16 16:59:50","新北市蘆洲區長安街110號","121.460873333333","25.0815183333333","6501400","蘆洲區"
"247006","336-TH","2018/04/16 16:59:32","新北市蘆洲區長安街99巷29號","121.460813333333","25.079795","6501400","蘆洲區"
"247018","057-VK","2018/04/16 16:59:43","新北市蘆洲區民族路201巷20-1號","121.477416666667","25.0894316666667","6501400","蘆洲區"
"247008","056-VK","2018/04/16 16:59:47","新北市蘆洲區信義路57號","121.475181666667","25.0797333333333","6501400","蘆洲區"
"247010","053-VK","2018/04/16 16:59:39","新北市蘆洲區信義路160號","121.479373333333","25.083645","6501400","蘆洲區"
"247016","007-UY","2018/04/16 16:59:38","新北市蘆洲區正和街18號","121.470078333333","25.0823683333333","6501400","蘆洲區"
"247002","002-UY","2018/04/16 16:59:50","新北市蘆洲區永平街16號","121.459228333333","25.0906083333333","6501400","蘆洲區"
"247020","001-UY","2018/04/16 16:59:46","新北市蘆洲區民族路422巷84號","121.473838333333","25.093945","6501400","蘆洲區"
"228003","097-TW","2018/04/16 16:59:43","新北市貢寮區福隆里興隆街21-1號","121.94341","25.0164916666667","6502600","貢寮區"
"228002","585-TW","2018/04/16 16:59:51","新北市貢寮區貢寮里朝陽街140巷5號","121.907453333333","25.0225666666667","6502600","貢寮區"
"228001","670-TC","2018/04/16 16:59:35","新北市貢寮區貢寮里朝陽街1-2號","121.912271666667","25.0213133333333","6502600","貢寮區"
"224006","676-BX","2018/04/16 16:59:40","新北市瑞芳區大寮路2-1號","121.78557","25.1011733333333","6501200","瑞芳區"
"224008","285-BY","2018/04/16 16:59:35","新北市瑞芳區明燈路一段197號","121.818685","25.1078233333333","6501200","瑞芳區"
"224007","275-VK","2018/04/16 16:59:38","新北市瑞芳區瑞竹路76-2號","121.763271666667","25.103425","6501200","瑞芳區"
"224009","273-VK","2018/04/16 16:59:47","新北市瑞芳區明燈路一段1號","121.831883333333","25.1117533333333","6501200","瑞芳區"
"224005","271-BY","2018/04/16 16:59:42","新北市瑞芳區南雅路1號","121.889405","25.119805","6501200","瑞芳區"
"227001","642-TC","2018/04/16 16:59:44","新北市雙溪區長源里柑腳39號","121.803315","25.0131833333333","6502500","雙溪區"
"227008","400-TW","2018/04/16 16:59:44","新北市雙溪區牡丹里聖南50-1號","121.854583333333","25.0553583333333","6502500","雙溪區"
"251009","008-UM","2018/04/16 16:59:42","新北市淡水區中正路一段3號","121.426643333333","25.1761083333333","6501000","淡水區"
"251004","009-UM","2018/04/16 16:59:48","新北市淡水區中正路一段102號","121.424028333333","25.1778583333333","6501000","淡水區"
"251005","010-UM","2018/04/16 16:59:44","新北市淡水區中正路二段31號","121.419335","25.1817216666667","6501000","淡水區"
"251013","179-VK","2018/04/16 16:59:49","新北市淡水區泉洲厝23-1號","121.488348333333","25.192905","6501000","淡水區"
"251014","180-VK","2018/04/16 16:59:47","新北市淡水區八里堆2號","121.453195","25.223935","6501000","淡水區"
"251008","181-VK","2018/04/16 16:59:37","新北市淡水區樹梅坑9號","121.472736666667","25.1427266666667","6501000","淡水區"
"251015","182-VK","2018/04/16 16:59:43","新北市淡水區忠愛街9-1號","121.456798333333","25.1744233333333","6501000","淡水區"
"251010","413-VK","2018/04/16 16:59:42","新北市淡水區沙崙路172號","121.42428","25.183595","6501000","淡水區"
"251012","441-VK","2018/04/16 16:59:31","新北市淡水區淡海路100號","121.422796666667","25.1824783333333","6501000","淡水區"
"251016","442-VK","2018/04/16 16:59:33","新北市淡水區瓦坑6-1號","121.477666666667","25.1812233333333","6501000","淡水區"
"251007","577-R6","2018/04/16 16:59:43","新北市淡水區中正東路二段65號","121.459475","25.1549683333333","6501000","淡水區"
"251011","650-BX","2018/04/16 16:59:41","新北市淡水區中正東路一段3巷14弄1號","121.450831666667","25.164085","6501000","淡水區"
"252002","178-VK","2018/04/16 16:59:48","新北市三芝區忠孝街173號","121.505408333333","25.26137","6502100","三芝區"
"252001","292-VK","2018/04/16 16:59:35","新北市三芝區淡金路二段47-2號","121.503638333333","25.2606566666667","6502100","三芝區"
"242058","986-R7","2018/04/16 16:59:46","新北市新莊區新泰路357巷3弄57號","121.442133333333","25.0392516666667","6500500","新莊區"
"242025","613-BX","2018/04/16 16:46:30","新北市新莊區三和路12-21號","121.442118333333","25.038745","6500500","新莊區"
"242042","566-BX","2018/04/16 16:59:40","新北市新莊區新泰路357巷3弄57號","121.442241666667","25.0392083333333","6500500","新莊區"
"242023","362-BY","2018/04/16 16:59:52","新北市新莊區三和路12-21號","121.442153333333","25.0386516666667","6500500","新莊區"
"242060","353-BY","2018/04/16 16:59:46","新北市新莊區三和路12-21號","121.442171666667","25.0386316666667","6500500","新莊區"
"242039","133-UY","2018/04/16 16:59:42","新北市新莊區新泰路255巷83號","121.442155","25.0389783333333","6500500","新莊區"
"242017","175-VK","2018/04/16 16:59:37","新北市新莊區三和路12-21號","121.441943333333","25.0387416666667","6500500","新莊區"
"242013","351-TH","2018/04/16 16:59:33","新北市新莊區新泰路357巷3弄57號","121.442068333333","25.03956","6500500","新莊區"
"238001","283-BY","2018/04/16 16:59:36","新北市樹林區中正路439-1號","121.41488","25.00865","6500700","樹林區"
"238001","282-BY","2018/04/16 16:59:37","新北市樹林區中正路22-1號","121.427773333333","24.9996566666667","6500700","樹林區"
"239006","891-R6","2018/04/16 16:59:44","新北市鶯歌區二甲路12-2號","121.345525","24.9349766666667","6500800","鶯歌區"
"239002","359-BY","2018/04/16 16:59:41","新北市鶯歌區二甲路12-2號","121.345886666667","24.93487","6500800","鶯歌區"
"239004","292-BY","2018/04/16 16:59:32","新北市鶯歌區二甲路13號","121.344306666667","24.9350433333333","6500800","鶯歌區"
