"lineid","car","time","location","longitude","latitude","cityid","cityname"
"234067","553-UM","2018/04/16 18:15:27","新北市永和區福和路1號","121.52629","25.00952","6500400","永和區"
"234013","KEA-2591","2018/04/16 18:19:36","新北市永和區福和路1號","121.526385","25.0093383333333","6500400","永和區"
"234026","9371-KE","2018/04/16 18:19:33","新北市永和區豫溪街42巷14號","121.515373333333","25.00922","6500400","永和區"
"234011","9373-KE","2018/04/16 18:19:47","新北市永和區保福路二段156號","121.509136666667","25.0149666666667","6500400","永和區"
"249005","172-UM","2018/04/16 18:19:45","新北市八里區荖阡坑路15-29號","121.400353333333","25.1403816666667","6502300","八里區"
"249001","173-UM","2018/04/16 18:19:42","新北市八里區龍米路一段129號","121.452196666667","25.1266583333333","6502300","八里區"
"249004","303-UY","2018/04/16 18:19:45","新北市八里區龍米路二段236-3號","121.431563333333","25.15892","6502300","八里區"
"249002","305-UY","2018/04/16 18:19:49","新北市八里區龍形一街2-1號","121.450835","25.130795","6502300","八里區"
"248016","026-BX","2018/04/16 18:19:34","新北市五股區成泰路三段477巷18號","121.449891666667","25.0989383333333","6501500","五股區"
"248006","077-UY","2018/04/16 18:19:50","新北市五股區中興路一段89號","121.466856666667","25.0729233333333","6501500","五股區"
"248008","095-VK","2018/04/16 18:19:48","新北市五股區更洲路32巷8弄14號","121.45926","25.0796216666667","6501500","五股區"
"248018","225-UY","2018/04/16 18:19:51","新北市五股區御史路199-7號","121.432318333333","25.0991666666667","6501500","五股區"
"248012","247-BX","2018/04/16 18:19:32","新北市五股區御史路1巷101弄2號","121.441023333333","25.0911283333333","6501500","五股區"
"248014","261-SL","2018/04/16 18:19:46","新北市五股區自強路19巷5-1號","121.434623333333","25.07372","6501500","五股區"
"248004","677-BX","2018/04/16 18:19:49","新北市五股區成泰路二段222-3號","121.439176666667","25.0854916666667","6501500","五股區"
"248002","678-BX","2018/04/16 18:08:22","新北市五股區新五路二段550號","121.442823333333","25.0850033333333","6501500","五股區"
"248010","682-TV","2018/04/16 18:19:40","新北市五股區成泰路一段139巷2弄2號","121.435101666667","25.0729583333333","6501500","五股區"
"244013","069-UM","2018/04/16 18:19:49","新北市林口區林口路68巷18弄7號","121.391788333333","25.0797716666667","6501700","林口區"
"244007","080-UY","2018/04/16 18:19:46","新北市林口區林口路160號","121.387896666667","25.0823983333333","6501700","林口區"
"244019","403-UM","2018/04/16 18:19:34","新北市林口區忠孝路551號","121.372435","25.0686233333333","6501700","林口區"
"244009","410-SL","2018/04/16 18:19:41","新北市林口區民生路29-1號","121.375883333333","25.0873833333333","6501700","林口區"
"244023","483-VK","2018/04/16 18:19:37","新北市林口區仁愛路二段10號","121.385796666667","25.0762866666667","6501700","林口區"
"244017","485-VK","2018/04/16 18:19:44","新北市林口區八德路20巷10號","121.36775","25.06764","6501700","林口區"
"244011","701-TV","2018/04/16 18:19:54","新北市林口區中正路89號","121.39452","25.0773483333333","6501700","林口區"
"244025","837-TS","2018/04/16 18:19:48","新北市林口區南勢四街48號","121.3553","25.0699266666667","6501700","林口區"
"244021","838-TS","2018/04/16 18:19:35","新北市林口區自強二街1號","121.397413333333","25.0785116666667","6501700","林口區"
"243013","646-TV","2018/04/16 18:16:55","新北市泰山區錢厝坑13號","121.414621666667","25.0417166666667","6501600","泰山區"
"222003","436-BY","2018/04/16 18:19:51","新北市深坑區旺耽路67號","121.62627","25.0029833333333","6501800","深坑區"
"222002","659-BX","2018/04/16 18:19:43","新北市深坑區雲鄉路3號","121.621161666667","24.999565","6501800","深坑區"
"231041","002-UM","2018/04/16 18:19:36","新北市新店區安華路28-1號","121.519725","24.9607233333333","6500600","新店區"
"231059","046-UY","2018/04/16 18:19:37","新北市新店區安華路28-1號","121.519668333333","24.9608416666667","6500600","新店區"
"231040","047-UY","2018/04/16 18:19:48","新北市新店區安華路28-1號","121.519198333333","24.9609","6500600","新店區"
"231044","106-UY","2018/04/16 18:19:36","新北市新店區安華路28-1號","121.519625","24.9607966666667","6500600","新店區"
"231064","110-UY","2018/04/16 18:19:51","新北市新店區安華路28-1號","121.519233333333","24.9612633333333","6500600","新店區"
"231047","187-VK","2018/04/16 18:19:37","新北市新店區安華路28-1號","121.519568333333","24.9611816666667","6500600","新店區"
"231046","188-VK","2018/04/16 18:19:52","新北市新店區直潭七街60號","121.532258333333","24.93977","6500600","新店區"
"231054","KEA-2219","2018/04/16 18:19:43","新北市新店區安華路28-1號","121.519793333333","24.96121","6500600","新店區"
"231057","256-BX","2018/04/16 18:19:46","新北市新店區安華路28-1號","121.519671666667","24.9610933333333","6500600","新店區"
"231051","278-BY","2018/04/16 18:19:46","新北市新店區安華路28-1號","121.519693333333","24.961145","6500600","新店區"
"231050","AAD-862","2018/04/16 18:19:34","新北市新店區安華路28-1號","121.519893333333","24.9609433333333","6500600","新店區"
"231058","3713-VJ","2018/04/16 18:19:42","新北市新店區環河路1-6號","121.538156666667","24.9613983333333","6500600","新店區"
"231066","4716-K9","2018/04/16 18:19:44","新北市新店區安華路28-1號","121.519211666667","24.9613333333333","6500600","新店區"
"231056","4715-K9","2018/04/16 18:19:44","新北市新店區中央路151號","121.529343333333","24.9720616666667","6500600","新店區"
"231067","4772-VM","2018/04/16 18:19:37","新北市新店區安華路28-1號","121.51918","24.9606466666667","6500600","新店區"
"231065","512-UM","2018/04/16 18:19:37","新北市新店區安華路28-1號","121.519273333333","24.961215","6500600","新店區"
"231049","513-UM","2018/04/16 18:19:35","新北市新店區安華路28-1號","121.519621666667","24.9611433333333","6500600","新店區"
"231061","618-UM","2018/04/16 18:19:51","新北市新店區安華路28-1號","121.519808333333","24.9610733333333","6500600","新店區"
"231063","641-BX","2018/04/16 18:19:45","新北市新店區安華路1-1號","121.5196","24.960445","6500600","新店區"
"231042","645-TV","2018/04/16 18:19:54","新北市新店區安華路28-1號","121.519365","24.9606383333333","6500600","新店區"
"231052","719-UY","2018/04/16 18:19:41","新北市新店區秀山路20號","121.532533333333","24.96036","6500600","新店區"
"231062","720-UM","2018/04/16 18:19:48","新北市新店區安華路28-1號","121.519186666667","24.961175","6500600","新店區"
"231060","897-TW","2018/04/16 18:19:50","新北市新店區安華路28-1號","121.519636666667","24.960785","6500600","新店區"
"231045","898-TW","2018/04/16 18:12:23","新北市新店區安華路28-1號","121.519101666667","24.9611133333333","6500600","新店區"
"231043","899-TW","2018/04/16 18:19:47","新北市新店區安華路28-1號","121.519915","24.9613916666667","6500600","新店區"
"231055","AKT-0513","2018/04/16 18:19:42","新北市新店區安康路一段9-2號","121.533965","24.960585","6500600","新店區"
"241006","413-TH","2018/04/16 18:19:37","新北市五股區芳洲九路48號","121.447743333333","25.0884916666667","6500200","三重區"
"241033","AAC-255","2018/04/16 18:19:52","新北市三重區中興北街42巷17號","121.468873333333","25.0493083333333","6500200","三重區"
"235064","005-UY","2018/04/16 18:19:33","新北市中和區圓通路145巷9弄2號","121.498053333333","24.994915","6500300","中和區"
"235063","006-UY","2018/04/16 18:19:39","新北市中和區中正路509號","121.48848","24.9942333333333","6500300","中和區"
"235056","096-UM","2018/04/16 18:19:40","新北市板橋區民生路一段26-1號","121.477453333333","25.0117666666667","6500300","中和區"
"235039","097-UM","2018/04/16 18:19:45","新北市中和區中正路169號","121.498173333333","24.9935966666667","6500300","中和區"
"235065","098-UM","2018/04/16 18:19:52","新北市中和區莊敬路49巷18號","121.501623333333","25.0061116666667","6500300","中和區"
"235058","151-BY","2018/04/16 18:19:32","新北市中和區圓通路367巷21-1號","121.492585","24.986475","6500300","中和區"
"235055","183-VK","2018/04/16 18:19:47","新北市中和區中正路637巷52弄7號","121.48505","24.9936916666667","6500300","中和區"
"235038","185-VK","2018/04/16 18:19:49","新北市中和區秀朗路三段128巷3號","121.524491666667","24.9926483333333","6500300","中和區"
"235049","186-VK","2018/04/16 18:19:51","新北市中和區中正路637巷52弄1號","121.485461666667","24.993495","6500300","中和區"
"235067","255-BX","2018/04/16 18:06:30","新北市中和區和城路一段271巷1號","121.485785","24.9917933333333","6500300","中和區"
"235072","301-VK","2018/04/16 18:19:51","新北市中和區連城路263巷1號","121.491925","24.9964833333333","6500300","中和區"
"235043","352-BY","2018/04/16 18:19:35","新北市中和區景平路373號","121.504248333333","24.9934216666667","6500300","中和區"
"235068","377-QA","2018/04/16 18:19:35","新北市中和區員山路36巷16-3號","121.485126666667","24.9912116666667","6500300","中和區"
"235061","378-QA","2018/04/16 18:19:26","新北市中和區國光街215巷24弄13號","121.466733333333","25.000225","6500300","中和區"
"235060","269-TV","2018/04/16 18:19:43","新北市中和區員山路283號","121.481271666667","24.99973","6500300","中和區"
"235050","4979-A6","2018/04/16 18:19:36","新北市中和區捷運路61巷28號","121.509138333333","24.9892266666667","6500300","中和區"
"235042","551-UM","2018/04/16 18:19:51","新北市中和區大仁街20巷25弄19號","121.518596666667","24.9935766666667","6500300","中和區"
"235045","565-BX","2018/04/16 18:19:35","新北市中和區景安路200巷4弄1號","121.503496666667","24.991605","6500300","中和區"
"235054","640-BX","2018/04/16 18:19:38","新北市中和區民享街86巷31號","121.472756666667","25.0003583333333","6500300","中和區"
"235047","732-UM","2018/04/16 18:19:54","新北市中和區南山路479號","121.507993333333","24.988465","6500300","中和區"
"235046","733-UM","2018/04/16 18:19:44","新北市中和區員山路36巷13號","121.484136666667","24.9908933333333","6500300","中和區"
"235062","800-TS","2018/04/16 18:19:55","新北市中和區景平路999巷8號","121.4951","25.005855","6500300","中和區"
"235057","801-TS","2018/04/16 18:19:39","新北市中和區民安街133號","121.476003333333","24.999905","6500300","中和區"
"235052","805-TS","2018/04/16 18:19:44","新北市中和區捷運路3號","121.509551666667","24.9893816666667","6500300","中和區"
"235048","896-TW","2018/04/16 18:19:43","新北市中和區錦和路350-1號","121.490251666667","24.9935566666667","6500300","中和區"
"235053","900-TW","2018/04/16 18:19:45","新北市中和區中正路637巷52弄1號","121.485383333333","24.9936733333333","6500300","中和區"
"235070","911-UM","2018/04/16 18:19:48","新北市中和區圓通路132號","121.498415","24.9958183333333","6500300","中和區"
"235051","157-BY","2018/04/16 18:19:45","新北市中和區仁愛街93號","121.511955","24.9869283333333","6500300","中和區"
"235037","AAC-213","2018/04/16 18:19:34","新北市中和區景德街52號","121.517685","24.99149","6500300","中和區"
"235059","AAC-215","2018/04/16 18:19:49","新北市中和區員山路36巷16-3號","121.485051666667","24.991315","6500300","中和區"
"226004","312-R5","2018/04/16 18:19:41","新北市平溪區靜安路二段76號","121.717031666667","25.0221133333333","6502400","平溪區"
"226004","8452-VL","2018/04/16 18:19:51","新北市平溪區靜安路二段76號","121.716845","25.0218416666667","6502400","平溪區"
"235041","251-BX","2018/04/16 18:19:42","新北市中和區中正路460號","121.490268333333","24.99431","6500300","中和區"
"228003","097-TW","2018/04/16 18:19:43","新北市貢寮區和美里和美街63號","121.922156666667","25.07125","6502600","貢寮區"
"228002","585-TW","2018/04/16 18:19:51","新北市貢寮區福連里馬崗街3-2號","122.00143","25.0139666666667","6502600","貢寮區"
"228001","670-TC","2018/04/16 18:19:34","新北市貢寮區真理里新港街26巷55弄2-1號","121.927395","25.0528766666667","6502600","貢寮區"
"224006","676-BX","2018/04/16 18:19:40","新北市瑞芳區民權街3-2號","121.808133333333","25.10743","6501200","瑞芳區"
"224002","639-TC","2018/04/16 18:19:37","新北市瑞芳區三爪子坑路149巷6號","121.810903333333","25.1064266666667","6501200","瑞芳區"
"224008","285-BY","2018/04/16 18:19:35","新北市瑞芳區逢甲路11號","121.809911666667","25.1085466666667","6501200","瑞芳區"
"224009","273-VK","2018/04/16 18:19:47","新北市瑞芳區新山路31號","121.855918333333","25.1083683333333","6501200","瑞芳區"
"224005","271-BY","2018/04/16 18:19:42","新北市瑞芳區建基新村35號","121.812255","25.130215","6501200","瑞芳區"
"227001","642-TC","2018/04/16 18:19:45","新北市雙溪區共和里中山路2號","121.8638","25.033805","6502500","雙溪區"
"227008","400-TW","2018/04/16 18:19:48","新北市雙溪區牡丹里牡丹73號","121.851706666667","25.05936","6502500","雙溪區"
"253005","032-BX","2018/04/16 18:19:48","新北市石門區中央路2號","121.563823333333","25.2909333333333","6502200","石門區"
"253006","295-VK","2018/04/16 18:19:44","新北市石門區老梅路78號","121.547023333333","25.2892016666667","6502200","石門區"
"222001","KEA-2212","2018/04/16 18:19:50","新北市深坑區北深路二段58號","121.619175","25.0042016666667","6501800","深坑區"
"208002","KEA-2872","2018/04/16 18:19:36","新北市金山區清泉里清水路60巷20號","121.634551666667","25.2319633333333","6502700","金山區"
"208003","665-BX","2018/04/16 18:19:45","新北市金山區中山路73號","121.64058","25.2184966666667","6502700","金山區"
"208001","761-BX","2018/04/16 18:19:36","新北市金山區環金路19號","121.640993333333","25.2176866666667","6502700","金山區"
"251009","008-UM","2018/04/16 18:19:42","新北市淡水區中山北路三段165-1號","121.445298333333","25.19682","6501000","淡水區"
"251004","009-UM","2018/04/16 18:19:48","新北市淡水區民族路33號","121.462356666667","25.13576","6501000","淡水區"
"251005","010-UM","2018/04/16 18:19:44","新北市淡水區水源街一段122巷39號","121.44716","25.1702933333333","6501000","淡水區"
"251002","012-UM","2018/04/16 18:19:36","新北市淡水區中正東路一段65號","121.452658333333","25.1623733333333","6501000","淡水區"
"251013","179-VK","2018/04/16 18:19:49","新北市淡水區行忠路899號","121.480236666667","25.200255","6501000","淡水區"
"251014","180-VK","2018/04/16 18:19:48","新北市淡水區崙頂14號","121.491456666667","25.2216583333333","6501000","淡水區"
"251008","181-VK","2018/04/16 18:19:37","新北市淡水區淡金路12-1號","121.458036666667","25.1601383333333","6501000","淡水區"
"251015","182-VK","2018/04/16 18:19:43","新北市淡水區興福寮88巷1號","121.485416666667","25.1649116666667","6501000","淡水區"
"251010","413-VK","2018/04/16 18:19:42","新北市淡水區淡海路180巷12-3號","121.420433333333","25.18465","6501000","淡水區"
"251012","441-VK","2018/04/16 18:19:51","新北市淡水區北新路二段77-5號","121.480515","25.1855533333333","6501000","淡水區"
"251016","442-VK","2018/04/16 18:19:53","新北市淡水區淡金路三段228巷22-5號","121.44973","25.20491","6501000","淡水區"
"251001","559-UM","2018/04/16 18:19:43","新北市淡水區自強路307巷1號","121.462158333333","25.1317916666667","6501000","淡水區"
"251006","561-UM","2018/04/16 18:19:36","新北市淡水區新民街76巷14號","121.438965","25.176715","6501000","淡水區"
"251011","650-BX","2018/04/16 18:19:54","新北市淡水區淡金路33-8號","121.457183333333","25.16211","6501000","淡水區"
"251003","766-UM","2018/04/16 18:19:47","新北市淡水區北新路180號","121.449466666667","25.178755","6501000","淡水區"
"207003","550-UM","2018/04/16 18:19:41","新北市萬里區野柳里港東路24號","121.687448333333","25.2037233333333","6502800","萬里區"
"207004","225-TW","2018/04/16 18:19:44","新北市萬里區中幅里中福路39-1號","121.677296666667","25.1658883333333","6502800","萬里區"
"252002","178-VK","2018/04/16 18:19:48","新北市三芝區中山路二段35號","121.502878333333","25.2551683333333","6502100","三芝區"
"252003","249-BX","2018/04/16 18:19:48","新北市三芝區錫板里海尾11-7號","121.47851","25.2608466666667","6502100","三芝區"
"252001","292-VK","2018/04/16 18:19:54","新北市三芝區中興街二段2號","121.498398333333","25.2566833333333","6502100","三芝區"
"237004","KEA-2597","2018/04/16 18:19:34","新北市三峽區大埔1-4號","121.375418333333","24.8900233333333","6500900","三峽區"
"237007","153-BY","2018/04/16 18:19:37","新北市三峽區中正路二段470巷2號","121.363665","24.9071066666667","6500900","三峽區"
"237011","572-TV","2018/04/16 18:19:49","新北市三峽區溪東路320號","121.41022","24.9304533333333","6500900","三峽區"
"237009","210-TH","2018/04/16 18:19:36","新北市三峽區大勇路22-2號","121.36691","24.9376816666667","6500900","三峽區"
"237013","252-BX","2018/04/16 18:19:40","新北市三峽區永安街43號","121.376225","24.9301433333333","6500900","三峽區"
"237012","275-BY","2018/04/16 18:19:42","新北市三峽區民生街1巷5-1號","121.37849","24.93641","6500900","三峽區"
"237008","302-VK","2018/04/16 18:19:37","新北市三峽區白雞68-141號","121.391083333333","24.9081316666667","6500900","三峽區"
"237014","433-BY","2018/04/16 18:19:35","新北市三峽區復興路110巷2弄15號","121.373333333333","24.9378716666667","6500900","三峽區"
"237006","5529-G3","2018/04/16 18:19:55","新北市三峽區溪東路429號","121.412526666667","24.92859","6500900","三峽區"
"237010","706-TV","2018/04/16 18:19:45","新北市三峽區民族街3號","121.369171666667","24.9312266666667","6500900","三峽區"
"237005","AKY-6261","2018/04/16 18:19:40","新北市三峽區秀川街26巷3號","121.371545","24.9342366666667","6500900","三峽區"
"236069","105-UM","2018/04/16 18:19:51","新北市土城區永豐路202巷3-1號","121.466563333333","24.983275","6501300","土城區"
"236042","107-UM","2018/04/16 18:19:46","新北市土城區裕生路21巷6弄41號","121.448745","24.98656","6501300","土城區"
"236078","166-UM","2018/04/16 18:19:51","新北市土城區永安街115巷38弄2號","121.428766666667","24.9628233333333","6501300","土城區"
"236030","253-BX","2018/04/16 18:19:52","新北市土城區順風路28號","121.44034","24.9769633333333","6501300","土城區"
"236026","269-VK","2018/04/16 18:19:37","新北市土城區承天路43巷4號","121.439206666667","24.963765","6501300","土城區"
"236014","270-VK","2018/04/16 18:19:44","新北市土城區學府路一段24巷1號","121.458518333333","24.9885533333333","6501300","土城區"
"236039","271-VK","2018/04/16 18:16:39","新北市土城區青雲路449-1號","121.45883","24.9746783333333","6501300","土城區"
"236020","401-BY","2018/04/16 18:19:50","新北市土城區明德路二段8巷2號","121.452225","24.9803233333333","6501300","土城區"
"236059","912-UM","2018/04/16 18:19:40","新北市土城區中央路四段342-1號","121.41339","24.9552833333333","6501300","土城區"
"236048","913-UM","2018/04/16 18:19:44","新北市土城區明德路一段375-1號","121.45493","24.9780966666667","6501300","土城區"
"236063","915-UM","2018/04/16 18:19:51","新北市土城區金城路三段208號","121.471675","24.9897666666667","6501300","土城區"
"236055","AAC-216","2018/04/16 18:19:41","新北市土城區中華路二段98號","121.438121666667","24.974475","6501300","土城區"
"242058","986-R7","2018/04/16 18:19:46","新北市新莊區中正路742-1號","121.413553333333","25.02292","6500500","新莊區"
"242053","751-BX","2018/04/16 18:19:48","新北市新莊區民安西路416號","121.42922","25.009905","6500500","新莊區"
"242027","615-BX","2018/04/16 18:19:38","新北市新莊區幸福路820號","121.445405","25.0491","6500500","新莊區"
"242042","566-BX","2018/04/16 18:19:40","新北市新莊區天祥街69號","121.415841666667","25.0290433333333","6500500","新莊區"
"242046","497-BY","2018/04/16 18:19:43","新北市新莊區中正路829巷22弄2號","121.42143","25.027125","6500500","新莊區"
"242050","441-UM","2018/04/16 18:19:42","新北市新莊區民安東路6號","121.427975","25.0209533333333","6500500","新莊區"
"242056","440-UM","2018/04/16 18:19:46","新北市新莊區瓊林路13-3號","121.448865","25.03097","6500500","新莊區"
"242007","413-TV","2018/04/16 18:19:52","新北市新莊區自治街35號","121.45411","25.0479733333333","6500500","新莊區"
"242044","400-BY","2018/04/16 18:19:47","新北市新莊區新北大道七段772號","121.412885","25.025005","6500500","新莊區"
"242060","353-BY","2018/04/16 18:19:46","新北市新莊區建國二路19號","121.434218333333","25.024015","6500500","新莊區"
"242011","173-VK","2018/04/16 18:18:36","新北市新莊區中榮街11號","121.45098","25.0526866666667","6500500","新莊區"
"242021","348-TH","2018/04/16 18:19:32","新北市新莊區新興街20號","121.450685","25.03644","6500500","新莊區"
"242013","351-TH","2018/04/16 18:19:32","新北市板橋區大觀路三段36巷122號","121.435266666667","24.9985733333333","6500500","新莊區"
"238015","755-BX","2018/04/16 18:19:55","新北市樹林區文化街79巷1號","121.41685","24.989085","6500700","樹林區"
"238023","601-UM","2018/04/16 18:19:47","新北市樹林區忠信街1號","121.40951","25.0150083333333","6500700","樹林區"
"238019","599-UM","2018/04/16 18:19:43","新北市樹林區中華路211號","121.419701666667","24.98146","6500700","樹林區"
"238018","571-TV","2018/04/16 18:19:42","新北市樹林區保安街一段16巷25號","121.428316666667","24.99422","6500700","樹林區"
"238024","5061-A6","2018/04/16 18:19:44","新北市樹林區育英街6號","121.422721666667","24.9890316666667","6500700","樹林區"
"238025","303-VK","2018/04/16 18:19:53","新北市樹林區保安二街8-1號","121.425018333333","24.9941316666667","6500700","樹林區"
"238017","283-BY","2018/04/16 18:19:36","新北市樹林區保安街二段335號","121.412356666667","25.0078866666667","6500700","樹林區"
"238014","282-BY","2018/04/16 18:19:36","新北市樹林區大安路378號","121.416026666667","24.990035","6500700","樹林區"
"238020","268-VK","2018/04/16 18:19:36","新北市樹林區三俊街28號","121.411516666667","25.0154083333333","6500700","樹林區"
"238026","172-UY","2018/04/16 18:19:35","新北市樹林區佳園路一段75巷102號","121.39655","24.970435","6500700","樹林區"
"238016","169-UY","2018/04/16 18:19:49","新北市樹林區文化街23號","121.419326666667","24.987595","6500700","樹林區"
"239007","AAC-297","2018/04/16 18:19:46","新北市鶯歌區尖山埔路23號","121.349038333333","24.9510733333333","6500800","鶯歌區"
"239008","527-UM","2018/04/16 18:19:46","新北市鶯歌區國際一路179號","121.336271666667","24.9765366666667","6500800","鶯歌區"
"239005","526-UM","2018/04/16 18:19:37","新北市鶯歌區鶯桃路668巷74-1號","121.329906666667","24.971725","6500800","鶯歌區"
"239001","417-VK","2018/04/16 18:19:36","新北市鶯歌區國中街104號","121.340213333333","24.9405","6500800","鶯歌區"
"239003","360-BY","2018/04/16 18:19:43","新北市鶯歌區福安街58號","121.335601666667","24.965175","6500800","鶯歌區"
"239002","359-BY","2018/04/16 18:19:41","新北市鶯歌區中山路164號","121.349091666667","24.9570766666667","6500800","鶯歌區"
"239004","292-BY","2018/04/16 18:19:42","新北市鶯歌區福安街7巷24弄25號","121.334536666667","24.9656966666667","6500800","鶯歌區"
"221008","489-VK","2018/04/16 18:19:33","新北市汐止區康寧街901號","121.650813333333","25.07526","6501100","汐止區"
"221036","130-UY","2018/04/16 18:19:53","新北市汐止區長興街一段19號","121.669563333333","25.07889","6501100","汐止區"
"221015","131-UY","2018/04/16 18:19:35","新北市汐止區鄉長路二段23巷15號","121.667731666667","25.08271","6501100","汐止區"
"221010","269-BY","2018/04/16 18:19:37","新北市汐止區祥雲街18巷12號","121.646855","25.0894733333333","6501100","汐止區"
"221012","278-VK","2018/04/16 18:19:52","新北市汐止區保一街22巷6號","121.673825","25.08077","6501100","汐止區"
"221023","279-VK","2018/04/16 18:19:43","新北市汐止區中興路244號","121.629555","25.0681033333333","6501100","汐止區"
"221032","280-BY","2018/04/16 18:19:42","新北市汐止區橫科路2巷9號","121.616491666667","25.0508316666667","6501100","汐止區"
"221027","281-BY","2018/04/16 18:19:51","新北市汐止區和平街6巷5弄2號","121.663598333333","25.0717533333333","6501100","汐止區"
"221029","298-VK","2018/04/16 18:19:48","新北市汐止區汐萬路一段256巷3號","121.652435","25.07462","6501100","汐止區"
"221021","299-VK","2018/04/16 18:19:51","新北市汐止區新台五路一段159號","121.653926666667","25.0626216666667","6501100","汐止區"
"221031","353-TW","2018/04/16 18:19:35","新北市汐止區大同路一段207號","121.633648333333","25.05726","6501100","汐止區"
"221035","622-UM","2018/04/16 18:19:38","新北市汐止區大同路二段105號","121.649965","25.0634766666667","6501100","汐止區"
"221025","623-UM","2018/04/16 18:19:41","新北市汐止區勤進路12巷37號","121.659148333333","25.0626583333333","6501100","汐止區"
"221038","646-BX","2018/04/16 18:19:37","新北市汐止區仁愛路311號","121.664666666667","25.0674966666667","6501100","汐止區"
"221033","647-BX","2018/04/16 18:19:36","新北市汐止區宜興街59巷33-1號","121.621701666667","25.0428216666667","6501100","汐止區"
"221002","707-TV","2018/04/16 18:19:38","新北市汐止區福德一路201巷25號","121.635898333333","25.06478","6501100","汐止區"
"221018","753-BX","2018/04/16 18:19:33","新北市汐止區茄苳路118號","121.668196666667","25.0702983333333","6501100","汐止區"
"242002","KEA-2550","2018/04/16 18:19:36","新北市新莊區新莊路118號","121.456033333333","25.0359583333333","6500500","新莊區"
"242009","281-VK","2018/04/16 18:19:48","新北市新莊區自立街62號","121.454048333333","25.0452916666667","6500500","新莊區"
"242031","280-VK","2018/04/16 18:19:51","新北市新莊區新泰路255巷49號","121.444141666667","25.0394533333333","6500500","新莊區"
"235066","KEA-2873","2018/04/16 18:19:32","新北市中和區中山路二段123號","121.502683333333","25.0035866666667","6500300","中和區"
