"lineid","car","time","location","longitude","latitude","cityid","cityname"
"234046","148-BY","2018/04/16 18:39:05","新北市永和區永元路94號","121.522523333333","25.001685","6500400","永和區"
"234070","149-BY","2018/04/16 18:38:45","新北市永和區福和路1號","121.525778333333","25.0097066666667","6500400","永和區"
"234007","207-UY","2018/04/16 18:39:05","新北市永和區保生路55-6號","121.503851666667","25.0124566666667","6500400","永和區"
"234081","298-R6","2018/04/16 18:39:08","新北市永和區林森路68號","121.523838333333","25.00398","6500400","永和區"
"234038","336-UY","2018/04/16 18:39:19","新北市永和區福和路1號","121.526451666667","25.0101933333333","6500400","永和區"
"234086","338-UY","2018/04/16 18:39:17","新北市中和區景新街273巷32號","121.510711666667","24.99415","6500400","永和區"
"234067","553-UM","2018/04/16 18:39:17","新北市中和區永貞路229號","121.513378333333","25.0037166666667","6500400","永和區"
"234017","745-BX","2018/04/16 18:39:16","新北市永和區福和路1號","121.526468333333","25.009525","6500400","永和區"
"234030","746-BX","2018/04/16 18:39:17","新北市永和區得和路382-1號","121.524818333333","24.9993433333333","6500400","永和區"
"234013","KEA-2591","2018/04/16 18:39:17","新北市永和區仁愛路99號","121.512746666667","25.0128683333333","6500400","永和區"
"234061","AAD-866","2018/04/16 18:39:14","新北市永和區豫溪街217巷3號","121.524738333333","25.00945","6500400","永和區"
"234042","862-TW","2018/04/16 18:39:12","新北市永和區永貞路308號","121.511921666667","25.0049116666667","6500400","永和區"
"234050","863-TW","2018/04/16 18:39:09","新北市永和區福和路1號","121.52652","25.0099116666667","6500400","永和區"
"234026","9371-KE","2018/04/16 18:39:13","新北市永和區保生路55號","121.50471","25.0106783333333","6500400","永和區"
"234011","9373-KE","2018/04/16 18:39:07","新北市永和區文化路9巷22弄32號","121.514471666667","25.0145733333333","6500400","永和區"
"249005","172-UM","2018/04/16 18:39:05","新北市八里區中華路三段232號","121.38852","25.1246433333333","6502300","八里區"
"249001","173-UM","2018/04/16 18:39:22","新北市八里區龍米路一段352號","121.451501666667","25.131205","6502300","八里區"
"249004","303-UY","2018/04/16 18:39:05","新北市八里區觀海大道35-2號","121.42967","25.1606866666667","6502300","八里區"
"249002","305-UY","2018/04/16 18:39:09","新北市八里區龍形一街33巷6-1號","121.449243333333","25.1296616666667","6502300","八里區"
"248016","026-BX","2018/04/16 18:39:14","新北市五股區凌雲路一段133巷27-3號","121.448638333333","25.100885","6501500","五股區"
"248006","077-UY","2018/04/16 18:39:09","新北市五股區中興路二段83巷26-6號","121.460036666667","25.0752766666667","6501500","五股區"
"248008","095-VK","2018/04/16 18:39:08","新北市五股區中興路一段148號","121.464616666667","25.0739766666667","6501500","五股區"
"248018","225-UY","2018/04/16 18:39:11","新北市五股區民義路二段76-1號","121.404063333333","25.1107316666667","6501500","五股區"
"248012","247-BX","2018/04/16 18:39:12","新北市五股區御成路158號","121.44113","25.0946183333333","6501500","五股區"
"248014","261-SL","2018/04/16 18:39:06","新北市五股區蓬萊路24號","121.433926666667","25.0798933333333","6501500","五股區"
"248004","677-BX","2018/04/16 18:39:21","新北市五股區民義路一段255-29號","121.42778","25.0909716666667","6501500","五股區"
"248002","678-BX","2018/04/16 18:39:22","新北市五股區西雲路254號","121.449065","25.097185","6501500","五股區"
"248010","682-TV","2018/04/16 18:39:20","新北市五股區水碓一路92號","121.431768333333","25.0736916666667","6501500","五股區"
"234023","9380-KE","2018/04/16 18:39:01","新北市永和區福和路1號","121.525661666667","25.009325","6500400","永和區"
"234077","969-R7","2018/04/16 18:39:19","新北市永和區中正路121號","121.51588","24.9976683333333","6500400","永和區"
"234074","AAC-211","2018/04/16 18:39:13","新北市永和區福和路1號","121.526233333333","25.0098583333333","6500400","永和區"
"234003","AAC-295","2018/04/16 18:39:07","新北市永和區福和路1號","121.526523333333","25.0098916666667","6500400","永和區"
"244013","069-UM","2018/04/16 18:39:09","新北市林口區中山路267號","121.385145","25.0796133333333","6501700","林口區"
"244007","080-UY","2018/04/16 18:39:06","新北市林口區後湖39-1號","121.386643333333","25.0998583333333","6501700","林口區"
"244019","403-UM","2018/04/16 18:39:14","新北市林口區忠孝路52號","121.378458333333","25.06763","6501700","林口區"
"244009","410-SL","2018/04/16 18:39:21","新北市林口區竹林路278巷2號","121.390405","25.081715","6501700","林口區"
"244023","483-VK","2018/04/16 18:39:17","新北市林口區民享路70號","121.380821666667","25.0811133333333","6501700","林口區"
"244017","485-VK","2018/04/16 18:39:04","新北市林口區文化二路一段116號","121.367536666667","25.0707083333333","6501700","林口區"
"244011","701-TV","2018/04/16 18:39:14","新北市林口區仁愛路一段336-4號","121.391321666667","25.0769283333333","6501700","林口區"
"244025","837-TS","2018/04/16 18:39:08","新北市林口區南勢六街242號","121.355853333333","25.07472","6501700","林口區"
"244021","838-TS","2018/04/16 18:39:15","新北市林口區工六路94號","121.400948333333","25.0767983333333","6501700","林口區"
"243012","AAD-798","2018/04/16 18:39:14","新北市泰山區福興三街13號","121.43445","25.0577933333333","6501600","泰山區"
"243013","646-TV","2018/04/16 18:39:14","新北市泰山區明志路三段206巷3號","121.423276666667","25.0379066666667","6501600","泰山區"
"243016","680-BX","2018/04/16 18:39:09","新北市泰山區黎明路1號","121.421383333333","25.0631966666667","6501600","泰山區"
"222003","436-BY","2018/04/16 18:39:11","新北市深坑區翠谷街37巷1號","121.626545","25.0093133333333","6501800","深坑區"
"222002","659-BX","2018/04/16 18:39:03","新北市深坑區雲鄉路1號","121.621035","24.999565","6501800","深坑區"
"231041","002-UM","2018/04/16 18:39:16","新北市新店區安華路28-1號","121.51961","24.9608183333333","6500600","新店區"
"231059","046-UY","2018/04/16 18:39:17","新北市新店區安華路28-1號","121.519535","24.9607416666667","6500600","新店區"
"231040","047-UY","2018/04/16 18:39:08","新北市新店區安華路28-1號","121.519255","24.960895","6500600","新店區"
"231044","106-UY","2018/04/16 18:36:36","新北市新店區安康路一段235-1號","121.525103333333","24.9632133333333","6500600","新店區"
"231064","110-UY","2018/04/16 18:39:11","新北市新店區安華路28-1號","121.519285","24.9612083333333","6500600","新店區"
"231047","187-VK","2018/04/16 18:39:17","新北市新店區安康路一段355號","121.51987","24.9632516666667","6500600","新店區"
"231046","188-VK","2018/04/16 18:39:12","新北市新店區直潭二街1號","121.53552","24.9431666666667","6500600","新店區"
"231054","KEA-2219","2018/04/16 18:39:03","新北市新店區安華路28-1號","121.519723333333","24.9611783333333","6500600","新店區"
"231057","256-BX","2018/04/16 18:39:06","新北市新店區新烏路一段215號","121.549275","24.9314533333333","6500600","新店區"
"231051","278-BY","2018/04/16 18:39:06","新北市新店區環河路29巷1號","121.536981666667","24.9613683333333","6500600","新店區"
"231050","AAD-862","2018/04/16 18:39:14","新北市新店區安華路28-1號","121.520183333333","24.9609633333333","6500600","新店區"
"231058","3713-VJ","2018/04/16 18:39:22","新北市新店區北宜路一段170號","121.540593333333","24.952975","6500600","新店區"
"231066","4716-K9","2018/04/16 18:39:04","新北市新店區安華路28-1號","121.519218333333","24.9613066666667","6500600","新店區"
"231056","4715-K9","2018/04/16 18:39:24","新北市新店區大豐路95號","121.538141666667","24.978865","6500600","新店區"
"231067","4772-VM","2018/04/16 18:39:17","新北市新店區安康路一段76巷10-1號","121.528483333333","24.96241","6500600","新店區"
"231065","512-UM","2018/04/16 18:39:16","新北市新店區安華路28-1號","121.519281666667","24.96108","6500600","新店區"
"231049","513-UM","2018/04/16 18:39:14","新北市新店區安華路28-1號","121.519695","24.9611033333333","6500600","新店區"
"231061","618-UM","2018/04/16 18:36:31","新北市新店區安華路28-1號","121.519808333333","24.9610733333333","6500600","新店區"
"231063","641-BX","2018/04/16 18:39:05","新北市新店區安華路28-1號","121.519705","24.960495","6500600","新店區"
"231042","645-TV","2018/04/16 18:39:14","新北市新店區安華路28-1號","121.5194","24.9606216666667","6500600","新店區"
"231052","719-UY","2018/04/16 18:39:21","新北市新店區永興路34號","121.543555","24.9387833333333","6500600","新店區"
"231062","720-UM","2018/04/16 18:39:08","新北市新店區安華路28-1號","121.51924","24.9611966666667","6500600","新店區"
"231060","897-TW","2018/04/16 18:39:10","新北市新店區安華路28-1號","121.519653333333","24.96069","6500600","新店區"
"231045","898-TW","2018/04/16 18:39:23","新北市新店區安華路28-1號","121.51929","24.9609633333333","6500600","新店區"
"231043","899-TW","2018/04/16 18:39:07","新北市新店區安華路28-1號","121.51928","24.9608766666667","6500600","新店區"
"231055","AKT-0513","2018/04/16 18:39:11","新北市新店區中央路187-2號","121.537198333333","24.968815","6500600","新店區"
"241006","413-TH","2018/04/16 18:37:31","新北市三重區車路頭街135-1號","121.48425","25.07614","6500200","三重區"
"235064","005-UY","2018/04/16 18:39:13","新北市中和區連城路109巷11號","121.496628333333","24.99909","6500300","中和區"
"235063","006-UY","2018/04/16 18:39:19","新北市中和區連城路347巷4弄25號","121.487245","24.9955766666667","6500300","中和區"
"235056","096-UM","2018/04/16 18:39:19","新北市中和區員山路611巷1號","121.477858333333","25.011315","6500300","中和區"
"235039","097-UM","2018/04/16 18:39:06","新北市永和區安樂路46號","121.514723333333","24.9970583333333","6500300","中和區"
"235065","098-UM","2018/04/16 18:39:13","新北市中和區莊敬路33巷36弄10號","121.500456666667","25.006375","6500300","中和區"
"235040","150-BY","2018/04/16 18:37:57","新北市中和區安樂路217巷69弄2號","121.512781666667","24.9973066666667","6500300","中和區"
"235058","151-BY","2018/04/16 18:39:12","新北市中和區圓通路369巷30弄16號","121.489655","24.9852283333333","6500300","中和區"
"235055","183-VK","2018/04/16 18:39:07","新北市板橋區國泰街39巷9弄8號","121.468925","25.0053016666667","6500300","中和區"
"235038","185-VK","2018/04/16 18:39:09","新北市中和區自強路64號","121.520088333333","24.9943883333333","6500300","中和區"
"235049","186-VK","2018/04/16 18:39:11","新北市中和區景平路480號","121.505045","24.9937133333333","6500300","中和區"
"235067","255-BX","2018/04/16 18:39:16","新北市中和區新生街11號","121.483225","25.0043166666667","6500300","中和區"
"235044","293-VK","2018/04/16 18:39:14","新北市中和區復興路280巷6號","121.502283333333","24.9910616666667","6500300","中和區"
"235072","301-VK","2018/04/16 18:39:11","新北市中和區中山路二段132號","121.502308333333","25.003405","6500300","中和區"
"235043","352-BY","2018/04/16 18:39:15","新北市中和區景平路123號","121.515263333333","24.9919733333333","6500300","中和區"
"235068","377-QA","2018/04/16 18:39:15","新北市中和區中興街118巷8號","121.49994","24.993565","6500300","中和區"
"235061","378-QA","2018/04/16 18:39:19","新北市中和區民享街92巷6號","121.474668333333","24.9999833333333","6500300","中和區"
"235060","269-TV","2018/04/16 18:39:03","新北市中和區中山路二段585號","121.480163333333","25.0058016666667","6500300","中和區"
"235050","4979-A6","2018/04/16 18:39:16","新北市中和區忠孝街103號","121.51206","24.9862283333333","6500300","中和區"
"235042","551-UM","2018/04/16 18:39:11","新北市中和區成功路127巷16號","121.527018333333","24.9909166666667","6500300","中和區"
"235045","565-BX","2018/04/16 18:39:16","新北市中和區南山路236巷51號","121.504891666667","24.9882333333333","6500300","中和區"
"235054","640-BX","2018/04/16 18:39:18","新北市中和區莒光路149號","121.472718333333","25.0012216666667","6500300","中和區"
"235047","732-UM","2018/04/16 18:39:14","新北市中和區南山路320巷10弄1號","121.50699","24.9863616666667","6500300","中和區"
"235046","733-UM","2018/04/16 18:39:24","新北市中和區忠孝街128號","121.512128333333","24.986485","6500300","中和區"
"235062","800-TS","2018/04/16 18:37:14","新北市中和區中山路二段278號","121.49644","25.0025866666667","6500300","中和區"
"235057","801-TS","2018/04/16 18:39:19","新北市中和區員山路327巷41號","121.479636666667","25.001955","6500300","中和區"
"235052","805-TS","2018/04/16 18:39:23","新北市中和區興南路三段57號","121.493556666667","24.9753016666667","6500300","中和區"
"235048","896-TW","2018/04/16 18:39:23","新北市中和區南山路411號","121.507066666667","24.9897933333333","6500300","中和區"
"235053","900-TW","2018/04/16 18:39:25","新北市土城區延壽路77巷4弄11號","121.469081666667","24.99304","6500300","中和區"
"235070","911-UM","2018/04/16 18:39:08","新北市中和區南華路29號","121.502985","24.996","6500300","中和區"
"235051","157-BY","2018/04/16 18:39:05","新北市中和區興南路二段159巷18號","121.505281666667","24.98304","6500300","中和區"
"235037","AAC-213","2018/04/16 18:39:14","新北市中和區景新街383巷50號","121.514503333333","24.9908383333333","6500300","中和區"
"235059","AAC-215","2018/04/16 18:39:09","新北市中和區錦和路350-1號","121.490566666667","24.9935033333333","6500300","中和區"
"220056","015-TV","2018/04/16 18:39:01","新北市板橋區四川路二段243號","121.450468333333","24.9936966666667","6500100","板橋區"
"220065","072-UY","2018/04/16 18:39:08","新北市板橋區區運路3號","121.465203333333","25.0094583333333","6500100","板橋區"
"220086","073-UY","2018/04/16 18:39:04","新北市板橋區南雅西路二段192巷1弄23號","121.452356666667","25.0150833333333","6500100","板橋區"
"226004","312-R5","2018/04/16 18:39:21","新北市平溪區平溪里平溪街55號","121.736525","25.0271233333333","6502400","平溪區"
"226004","8452-VL","2018/04/16 18:39:11","新北市平溪區平溪里平溪街45號","121.738383333333","25.0266716666667","6502400","平溪區"
"235041","251-BX","2018/04/16 18:39:22","新北市中和區中和路260-1號","121.507946666667","24.9995983333333","6500300","中和區"
"228003","097-TW","2018/04/16 18:39:23","新北市貢寮區和美里龍洞街40-1號","121.915573333333","25.111645","6502600","貢寮區"
"228002","585-TW","2018/04/16 18:39:11","新北市貢寮區福隆里桂安街11號","121.960201666667","25.020565","6502600","貢寮區"
"228001","670-TC","2018/04/16 18:39:14","新北市貢寮區仁理村研海街12-1號","121.9238","25.05169","6502600","貢寮區"
"224010","AGQ-8101","2018/04/16 18:39:06","新北市瑞芳區街頂巷21號","121.84445","25.107505","6501200","瑞芳區"
"224006","676-BX","2018/04/16 18:39:20","新北市瑞芳區明燈路三段97號","121.804208333333","25.1085183333333","6501200","瑞芳區"
"224008","285-BY","2018/04/16 18:39:15","新北市瑞芳區瑞芳街17號","121.806671666667","25.10974","6501200","瑞芳區"
"224009","273-VK","2018/04/16 18:39:07","新北市瑞芳區祈堂路12號","121.858626666667","25.11373","6501200","瑞芳區"
"224005","271-BY","2018/04/16 18:39:22","新北市瑞芳區建基路一段42-1號","121.81926","25.1214416666667","6501200","瑞芳區"
"227001","642-TC","2018/04/16 18:39:05","新北市雙溪區魚行里坤溪3-5號","121.876168333333","25.0208416666667","6502500","雙溪區"
"227008","400-TW","2018/04/16 18:39:09","新北市雙溪區牡丹里下坑11號","121.851018333333","25.056175","6502500","雙溪區"
"253005","032-BX","2018/04/16 18:39:08","新北市石門區石門街47號","121.566548333333","25.2903766666667","6502200","石門區"
"253006","295-VK","2018/04/16 18:39:24","新北市石門區楓林28-2號","121.541948333333","25.28924","6502200","石門區"
"222001","KEA-2212","2018/04/16 18:39:21","新北市深坑區北深路一段98號","121.635868333333","25.0106733333333","6501800","深坑區"
"208002","KEA-2872","2018/04/16 18:39:16","新北市金山區忠孝一路19巷5號","121.63794","25.2179916666667","6502700","金山區"
"208003","665-BX","2018/04/16 18:39:25","新北市金山區中山路403號","121.633061666667","25.2254483333333","6502700","金山區"
"208001","761-BX","2018/04/16 18:39:17","新北市金山區文化三路42-6號","121.635073333333","25.225095","6502700","金山區"
"251009","008-UM","2018/04/16 18:39:02","新北市淡水區濱海路一段53號","121.443766666667","25.189085","6501000","淡水區"
"251004","009-UM","2018/04/16 18:39:08","新北市淡水區竹林路151號","121.462823333333","25.14299","6501000","淡水區"
"251002","012-UM","2018/04/16 18:39:16","新北市淡水區中正東路一段3巷14弄5號","121.451056666667","25.164215","6501000","淡水區"
"251013","179-VK","2018/04/16 18:39:09","新北市淡水區雲廣坑5-1號","121.474861666667","25.2131683333333","6501000","淡水區"
"251014","180-VK","2018/04/16 18:39:04","新北市淡水區崙頂12-8號","121.49558","25.217215","6501000","淡水區"
"251008","181-VK","2018/04/16 18:39:17","新北市淡水區北投子17-1號","121.453828333333","25.1833633333333","6501000","淡水區"
"251015","182-VK","2018/04/16 18:39:03","新北市淡水區樹林口52號","121.48488","25.1629716666667","6501000","淡水區"
"251010","413-VK","2018/04/16 18:39:22","新北市淡水區沙崙路141-1號","121.423288333333","25.1829283333333","6501000","淡水區"
"251012","441-VK","2018/04/16 18:39:11","新北市淡水區北新路117號","121.448961666667","25.1785633333333","6501000","淡水區"
"251016","442-VK","2018/04/16 18:39:13","新北市淡水區下圭柔山84號","121.437713333333","25.2058833333333","6501000","淡水區"
"251001","559-UM","2018/04/16 18:39:03","新北市淡水區自強路415巷2號","121.465456666667","25.1342866666667","6501000","淡水區"
"251006","561-UM","2018/04/16 18:39:17","新北市淡水區大信街26號","121.442083333333","25.1768283333333","6501000","淡水區"
"251011","650-BX","2018/04/16 18:39:18","新北市淡水區鄧公路210巷6號","121.455093333333","25.16913","6501000","淡水區"
"251003","766-UM","2018/04/16 18:39:07","新北市淡水區北新路69巷26號","121.446776666667","25.1800816666667","6501000","淡水區"
"207003","550-UM","2018/04/16 18:39:21","新北市萬里區大鵬里頂社2-1號","121.660378333333","25.20713","6502800","萬里區"
"207004","225-TW","2018/04/16 18:39:04","新北市萬里區萬里里獅頭路10-1號","121.692005","25.1784716666667","6502800","萬里區"
"252002","178-VK","2018/04/16 18:39:08","新北市三芝區民生街64巷11號","121.503633333333","25.2550966666667","6502100","三芝區"
"252003","249-BX","2018/04/16 18:39:08","新北市三芝區後厝里土地公坑57-1號","121.461933333333","25.2480333333333","6502100","三芝區"
"252001","292-VK","2018/04/16 18:39:14","新北市三芝區中興街二段260號","121.50151","25.2531983333333","6502100","三芝區"
"237004","KEA-2597","2018/04/16 18:39:14","新北市三峽區金敏30-1號","121.38964","24.8743783333333","6500900","三峽區"
"237007","153-BY","2018/04/16 18:39:17","新北市三峽區中正路二段498號","121.361143333333","24.90643","6500900","三峽區"
"237011","572-TV","2018/04/16 18:39:09","新北市三峽區溪東路1號","121.399221666667","24.9352616666667","6500900","三峽區"
"237009","210-TH","2018/04/16 18:39:15","新北市三峽區大同路240巷6號","121.365901666667","24.9259916666667","6500900","三峽區"
"237013","252-BX","2018/04/16 18:39:20","新北市三峽區光明路69巷25號","121.376661666667","24.92924","6500900","三峽區"
"237012","275-BY","2018/04/16 18:39:22","新北市三峽區三樹路278號","121.380111666667","24.9435383333333","6500900","三峽區"
"237008","302-VK","2018/04/16 18:39:17","新北市三峽區白雞33-60號","121.370895","24.9131066666667","6500900","三峽區"
"237014","433-BY","2018/04/16 18:39:15","新北市三峽區復興路465號","121.361948333333","24.9385933333333","6500900","三峽區"
"237006","5529-G3","2018/04/16 18:39:15","新北市三峽區溪東路315巷1弄2號","121.410553333333","24.9306566666667","6500900","三峽區"
"237010","706-TV","2018/04/16 18:39:05","新北市三峽區復興路451號","121.362511666667","24.93851","6500900","三峽區"
"237005","AKY-6261","2018/04/16 18:39:21","新北市三峽區清水街302號","121.37305","24.9346316666667","6500900","三峽區"
"236069","105-UM","2018/04/16 18:39:19","新北市土城區永豐路157巷29弄6-1號","121.468511666667","24.9814933333333","6501300","土城區"
"236042","107-UM","2018/04/16 18:39:05","新北市土城區學成路108巷9號","121.450128333333","24.9895466666667","6501300","土城區"
"236078","166-UM","2018/04/16 18:39:11","新北市土城區中央路四段47號","121.42235","24.9616033333333","6501300","土城區"
"236030","253-BX","2018/04/16 18:39:06","新北市土城區慶利街37號","121.43905","24.97428","6501300","土城區"
"236026","269-VK","2018/04/16 18:39:17","新北市土城區忠義路51號","121.440466666667","24.9689433333333","6501300","土城區"
"236014","270-VK","2018/04/16 18:39:05","新北市土城區清水路207巷11號","121.459896666667","24.982375","6501300","土城區"
"236039","271-VK","2018/04/16 18:39:19","新北市土城區明德路一段313巷3弄16號","121.460205","24.976465","6501300","土城區"
"236020","401-BY","2018/04/16 18:39:09","新北市土城區延吉街327-1號","121.46559","24.9841766666667","6501300","土城區"
"236059","912-UM","2018/04/16 18:39:20","新北市土城區中央路四段35-1號","121.42313","24.9619733333333","6501300","土城區"
"236048","913-UM","2018/04/16 18:39:19","新北市土城區明德路一段71號","121.465563333333","24.9833333333333","6501300","土城區"
"236063","915-UM","2018/04/16 18:39:11","新北市土城區延和路125巷31號","121.46906","24.9912733333333","6501300","土城區"
"236055","AAC-216","2018/04/16 18:39:21","新北市土城區中華路一段25號","121.446451666667","24.9890416666667","6501300","土城區"
"242058","986-R7","2018/04/16 18:39:15","新北市新莊區中正路887-5號","121.41672","25.0245633333333","6500500","新莊區"
"242025","613-BX","2018/04/16 18:39:10","新北市新莊區立信一街35號","121.441988333333","25.0491483333333","6500500","新莊區"
"242013","351-TH","2018/04/16 18:39:13","新北市樹林區育德街78-1號","121.388181666667","24.9681683333333","6500500","新莊區"
"238023","601-UM","2018/04/16 18:39:07","新北市樹林區三寶街2號","121.406591666667","25.016185","6500700","樹林區"
"238019","599-UM","2018/04/16 18:39:03","新北市樹林區中華路190-16號","121.411686666667","24.9806066666667","6500700","樹林區"
"238018","571-TV","2018/04/16 18:39:22","新北市樹林區鎮前街25號","121.425913333333","24.992485","6500700","樹林區"
"238024","5061-A6","2018/04/16 18:39:04","新北市樹林區太順街49巷18號","121.41812","24.978475","6500700","樹林區"
"238022","KEA-2213","2018/04/16 18:39:10","新北市樹林區中華路393號","121.411358333333","24.980455","6500700","樹林區"
"238025","303-VK","2018/04/16 18:39:13","新北市樹林區中山路三段214號","121.380061666667","24.9678216666667","6500700","樹林區"
"238020","268-VK","2018/04/16 18:39:16","新北市樹林區三俊街250號","121.421393333333","25.0147683333333","6500700","樹林區"
"238026","172-UY","2018/04/16 18:39:15","新北市樹林區中和街21巷15號","121.391098333333","24.9722816666667","6500700","樹林區"
"238016","169-UY","2018/04/16 18:39:09","新北市樹林區文化街23號","121.41933","24.9876033333333","6500700","樹林區"
"239007","AAC-297","2018/04/16 18:39:06","新北市鶯歌區中正一路461-2號","121.36326","24.9566783333333","6500800","鶯歌區"
"239008","527-UM","2018/04/16 18:39:06","新北市鶯歌區國際一路179號","121.336223333333","24.9765083333333","6500800","鶯歌區"
"239005","526-UM","2018/04/16 18:39:17","新北市鶯歌區鶯桃路二段50號","121.325395","24.9727916666667","6500800","鶯歌區"
"239001","417-VK","2018/04/16 18:39:16","新北市鶯歌區二橋街47號","121.336823333333","24.93879","6500800","鶯歌區"
"239003","360-BY","2018/04/16 18:39:23","新北市鶯歌區永和二街3號","121.335693333333","24.970665","6500800","鶯歌區"
"239004","292-BY","2018/04/16 18:39:22","新北市鶯歌區鶯桃路69-1號","121.340761666667","24.9531216666667","6500800","鶯歌區"
"239004","193-VK","2018/04/16 18:39:16","新北市鶯歌區尖山路240巷30號","121.342391666667","24.9474083333333","6500800","鶯歌區"
"221008","489-VK","2018/04/16 18:27:08","新北市汐止區康寧街901號","121.651401666667","25.0750166666667","6501100","汐止區"
"221036","130-UY","2018/04/16 18:39:13","新北市汐止區水碓街49號","121.665198333333","25.0694166666667","6501100","汐止區"
"221015","131-UY","2018/04/16 18:39:15","新北市汐止區吉祥街26號","121.667776666667","25.080965","6501100","汐止區"
"221010","269-BY","2018/04/16 18:39:17","新北市汐止區瑞松街47巷6號","121.645278333333","25.1064616666667","6501100","汐止區"
"221012","278-VK","2018/04/16 18:39:17","新北市汐止區保長路149號","121.676835","25.0763666666667","6501100","汐止區"
"221023","279-VK","2018/04/16 18:39:23","新北市汐止區明峰街2巷2號","121.6357","25.0710316666667","6501100","汐止區"
"221032","280-BY","2018/04/16 18:39:22","新北市汐止區福山街58巷18號","121.617996666667","25.0459733333333","6501100","汐止區"
"221027","281-BY","2018/04/16 18:39:11","新北市汐止區和平街29號","121.662625","25.0707183333333","6501100","汐止區"
"221029","298-VK","2018/04/16 18:39:08","新北市汐止區樟樹一路131號","121.642068333333","25.0650583333333","6501100","汐止區"
"221021","299-VK","2018/04/16 18:39:10","新北市汐止區新興路51號","121.657206666667","25.063095","6501100","汐止區"
"221031","353-TW","2018/04/16 18:39:14","新北市汐止區福德一路274號","121.632138333333","25.0639283333333","6501100","汐止區"
"221035","622-UM","2018/04/16 18:39:18","新北市汐止區大同路二段302號","121.65536","25.0666666666667","6501100","汐止區"
"221025","623-UM","2018/04/16 18:39:21","新北市汐止區仁愛路120號","121.662958333333","25.0637966666667","6501100","汐止區"
"221038","646-BX","2018/04/16 18:39:17","新北市汐止區汐萬路一段115巷2號","121.654271666667","25.0708966666667","6501100","汐止區"
"221033","647-BX","2018/04/16 18:39:16","新北市汐止區南勢街1巷1號","121.627043333333","25.0374166666667","6501100","汐止區"
"221002","707-TV","2018/04/16 18:39:18","新北市汐止區中興路108號","121.633425","25.0634983333333","6501100","汐止區"
"221018","753-BX","2018/04/16 18:39:13","新北市汐止區茄苳路250巷10號","121.671288333333","25.06778","6501100","汐止區"
"220079","145-BY","2018/04/16 18:39:17","新北市板橋區館前西路162號","121.452668333333","25.008535","6500100","板橋區"
"220080","200-UY","2018/04/16 18:39:18","新北市板橋區大觀路二段265巷76弄33號","121.441268333333","24.9966483333333","6500100","板橋區"
"242002","KEA-2550","2018/04/16 18:39:13","新北市新莊區瓊林南路61-71號","121.439705","25.0182533333333","6500500","新莊區"
"220082","610-BX","2018/04/16 18:39:20","新北市板橋區大觀路三段52號","121.432333333333","24.9960083333333","6500100","板橋區"
"220053","257-TC","2018/04/16 18:39:19","新北市板橋區民生路二段120號","121.470353333333","25.01957","6500100","板橋區"
"220072","277-BY","2018/04/16 18:39:12","新北市板橋區大觀路二段431-1號","121.441183333333","24.99497","6500100","板橋區"
"220071","283-VK","2018/04/16 18:39:24","新北市板橋區四川路二段237號","121.450946666667","24.9941216666667","6500100","板橋區"
"220094","285-UM","2018/04/16 18:39:19","新北市板橋區民生路二段161巷1號","121.470003333333","25.0198866666667","6500100","板橋區"
"220083","286-VK","2018/04/16 18:39:15","新北市板橋區大觀路二段111號","121.446168333333","25.0015883333333","6500100","板橋區"
"220081","287-VK","2018/04/16 18:39:22","新北市板橋區大觀路二段153巷39弄1號","121.447013333333","25.0004533333333","6500100","板橋區"
"242009","281-VK","2018/04/16 18:39:08","新北市新莊區瓊林路46-7號","121.447166666667","25.0293283333333","6500500","新莊區"
"220075","303-R5","2018/04/16 18:39:01","新北市板橋區華東街302號","121.452828333333","25.0029166666667","6500100","板橋區"
"220064","486-VK","2018/04/16 18:39:08","新北市板橋區縣民大道一段296號","121.46103","25.010205","6500100","板橋區"
"220035","560-BX","2018/04/16 18:39:13","新北市板橋區南雅西路二段175巷2號","121.451728333333","25.0125283333333","6500100","板橋區"
"220084","568-UM","2018/04/16 18:39:14","新北市板橋區大觀路二段153巷44弄53號","121.446005","24.99896","6500100","板橋區"
"220063","609-BX","2018/04/16 18:39:11","新北市板橋區民生路二段161巷1號","121.46997","25.0201383333333","6500100","板橋區"
"220057","686-BX","2018/04/16 18:39:09","新北市板橋區華東街1-9號","121.44824","24.9949283333333","6500100","板橋區"
"220002","741-BX","2018/04/16 18:39:14","新北市板橋區南雅南路二段118號","121.45243","25.000195","6500100","板橋區"
"220070","806-UM","2018/04/16 18:39:10","新北市板橋區華東街1-9號","121.448216666667","24.9948633333333","6500100","板橋區"
"220067","830-TW","2018/04/16 18:39:08","新北市板橋區民生路二段120號","121.47033","25.01991","6500100","板橋區"
"220074","895-R6","2018/04/16 18:39:17","新北市板橋區南雅南路二段20號","121.454531666667","25.0032766666667","6500100","板橋區"
"220073","985-R7","2018/04/16 18:39:07","新北市板橋區貴興路100號","121.455566666667","25.0025833333333","6500100","板橋區"
"220097","AAC-210","2018/04/16 18:38:03","新北市板橋區民生路二段56-6號","121.471015","25.0191266666667","6500100","板橋區"
"220077","AAC-253","2018/04/16 18:39:15","新北市板橋區大觀路二段156巷93號","121.44104","25.0009266666667","6500100","板橋區"
"235066","KEA-2873","2018/04/16 18:39:02","新北市中和區水源路22號","121.504233333333","25.0035266666667","6500300","中和區"
