"lineid","car","time","location","longitude","latitude","cityid","cityname"
"234046","148-BY","2018/04/16 18:59:25","新北市永和區得和路373巷16弄9號","121.525571666667","25.0000916666667","6500400","永和區"
"234070","149-BY","2018/04/16 18:59:25","新北市永和區竹林路124巷38號","121.517891666667","25.0115066666667","6500400","永和區"
"234007","207-UY","2018/04/16 18:59:40","新北市永和區中山路一段25號","121.513638333333","25.0105083333333","6500400","永和區"
"234081","298-R6","2018/04/16 18:59:38","新北市永和區永貞路34號","121.520918333333","25.0067016666667","6500400","永和區"
"234038","336-UY","2018/04/16 18:59:39","新北市永和區成功路二段207號","121.526593333333","24.9959216666667","6500400","永和區"
"234064","337-UY","2018/04/16 18:59:42","新北市永和區中正路468巷19號","121.517976666667","25.0031933333333","6500400","永和區"
"234086","338-UY","2018/04/16 18:59:37","新北市永和區永寧街131巷1號","121.518148333333","25.0052483333333","6500400","永和區"
"234067","553-UM","2018/04/16 18:59:37","新北市永和區中和路625號","121.513","25.0049433333333","6500400","永和區"
"234017","745-BX","2018/04/16 18:59:36","新北市永和區永和路二段297號","121.516088333333","25.016025","6500400","永和區"
"234030","746-BX","2018/04/16 18:59:38","新北市永和區四維街42號","121.525308333333","24.998075","6500400","永和區"
"234054","KEA-2590","2018/04/16 18:59:28","新北市永和區竹林路66巷2號","121.518411666667","25.01332","6500400","永和區"
"234013","KEA-2591","2018/04/16 18:59:37","新北市永和區中山路一段60巷10號","121.513221666667","25.0110733333333","6500400","永和區"
"234061","AAD-866","2018/04/16 18:59:34","新北市永和區福和路303號","121.516356666667","25.00717","6500400","永和區"
"234042","862-TW","2018/04/16 18:59:32","新北市永和區永貞路308號","121.511825","25.0048866666667","6500400","永和區"
"234050","863-TW","2018/04/16 18:59:29","新北市永和區文化路194號","121.510803333333","25.0162066666667","6500400","永和區"
"234026","9371-KE","2018/04/16 18:59:33","新北市永和區安樂路451號","121.51432","25.0049266666667","6500400","永和區"
"234011","9373-KE","2018/04/16 18:59:27","新北市永和區文化路86號","121.513946666667","25.0152083333333","6500400","永和區"
"249005","172-UM","2018/04/16 18:59:29","新北市八里區長道坑6號","121.397681666667","25.1235133333333","6502300","八里區"
"249001","173-UM","2018/04/16 18:59:42","新北市八里區龍米路二段228-1號","121.432835","25.158465","6502300","八里區"
"248016","026-BX","2018/04/16 18:59:34","新北市五股區成泰路三段543巷1號","121.450925","25.1021833333333","6501500","五股區"
"248006","077-UY","2018/04/16 18:59:39","新北市五股區中興路一段56號","121.467855","25.07274","6501500","五股區"
"248008","095-VK","2018/04/16 18:59:28","新北市五股區中興路一段118巷6弄5號","121.466271666667","25.0742883333333","6501500","五股區"
"248018","225-UY","2018/04/16 18:59:31","新北市五股區民義路二段42-1號","121.41538","25.1001966666667","6501500","五股區"
"248012","247-BX","2018/04/16 18:59:32","新北市五股區工商路18巷23弄10號","121.440228333333","25.084185","6501500","五股區"
"248004","677-BX","2018/04/16 18:59:29","新北市五股區民義路二段76-1號","121.404276666667","25.1103066666667","6501500","五股區"
"248002","678-BX","2018/04/16 18:40:02","新北市五股區西雲路272號","121.449308333333","25.09765","6501500","五股區"
"248010","682-TV","2018/04/16 18:59:40","新北市五股區水碓一路23號","121.430581666667","25.07132","6501500","五股區"
"234023","9380-KE","2018/04/16 18:59:41","新北市永和區竹林路119巷53弄15號","121.522318333333","25.0121533333333","6500400","永和區"
"234077","969-R7","2018/04/16 18:59:39","新北市永和區智光街24號","121.517828333333","24.9992366666667","6500400","永和區"
"234074","AAC-211","2018/04/16 18:59:33","新北市永和區環河東路二段98號","121.524096666667","25.0103316666667","6500400","永和區"
"234003","AAC-295","2018/04/16 18:59:26","新北市永和區和平街30號","121.51333","25.009965","6500400","永和區"
"232011","375-UM","2018/04/16 18:59:29","新北市坪林區水聳淒坑19-1號","121.712371666667","24.9347016666667","6502000","坪林區"
"244013","069-UM","2018/04/16 18:59:29","新北市林口區麗園一街6巷8-2號","121.375163333333","25.071035","6501700","林口區"
"244007","080-UY","2018/04/16 18:59:45","新北市林口區太平里25-3號","121.374871666667","25.1215966666667","6501700","林口區"
"244019","403-UM","2018/04/16 18:59:34","新北市林口區麗園二街42巷14號","121.381721666667","25.0670616666667","6501700","林口區"
"244009","410-SL","2018/04/16 18:59:41","新北市林口區台電新村30號","121.386798333333","25.0862566666667","6501700","林口區"
"244023","483-VK","2018/04/16 18:59:37","新北市林口區文林六街60號","121.370831666667","25.08184","6501700","林口區"
"244017","485-VK","2018/04/16 18:59:44","新北市林口區文化二路一段120巷7號","121.367893333333","25.069915","6501700","林口區"
"244011","701-TV","2018/04/16 18:59:34","新北市林口區中興街3-1號","121.389105","25.07765","6501700","林口區"
"244025","837-TS","2018/04/16 18:59:28","新北市林口區民族路82巷20號","121.366393333333","25.0751683333333","6501700","林口區"
"243012","AAD-798","2018/04/16 18:59:41","新北市泰山區仁德路108號","121.432625","25.0568616666667","6501600","泰山區"
"243015","380-SR","2018/04/16 18:59:28","新北市泰山區美寧街2號","121.430188333333","25.063275","6501600","泰山區"
"243014","421-VK","2018/04/16 18:59:35","新北市泰山區泰林路二段597號","121.421641666667","25.063465","6501600","泰山區"
"243010","KEA-2215","2018/04/16 18:59:38","新北市泰山區辭修路24號","121.429011666667","25.0581233333333","6501600","泰山區"
"243009","KEA-2216","2018/04/16 18:59:40","新北市泰山區泰林路二段360號","121.428938333333","25.0635833333333","6501600","泰山區"
"243013","646-TV","2018/04/16 18:59:37","新北市泰山區明志路三段351巷10號","121.422411666667","25.034915","6501600","泰山區"
"243016","680-BX","2018/04/16 18:59:30","新北市泰山區明志路二段177號","121.427503333333","25.0500883333333","6501600","泰山區"
"222003","436-BY","2018/04/16 18:59:31","新北市深坑區深南路51-1號","121.621323333333","25.010195","6501800","深坑區"
"222002","659-BX","2018/04/16 18:59:42","新北市深坑區文山路一段33號","121.629611666667","25.0037233333333","6501800","深坑區"
"231041","002-UM","2018/04/16 18:59:36","新北市新店區環河路62號","121.536988333333","24.96265","6500600","新店區"
"231059","046-UY","2018/04/16 18:59:37","新北市新店區安華路28-1號","121.519578333333","24.96084","6500600","新店區"
"231040","047-UY","2018/04/16 18:59:28","新北市新店區中正路412號","121.534418333333","24.97767","6500600","新店區"
"231044","106-UY","2018/04/16 18:59:36","新北市新店區寶中路104號","121.549861666667","24.9790466666667","6500600","新店區"
"231064","110-UY","2018/04/16 18:59:30","新北市新店區安華路28-1號","121.519315","24.96133","6500600","新店區"
"231047","187-VK","2018/04/16 18:59:37","新北市新店區德正街48號","121.544488333333","24.97134","6500600","新店區"
"231046","188-VK","2018/04/16 18:59:31","新北市新店區直潭二街69號","121.534818333333","24.939975","6500600","新店區"
"231054","KEA-2219","2018/04/16 18:59:43","新北市新店區新店路13號","121.540278333333","24.9528183333333","6500600","新店區"
"231051","278-BY","2018/04/16 18:59:26","新北市新店區百忍街7號","121.534763333333","24.9755566666667","6500600","新店區"
"231050","AAD-862","2018/04/16 18:59:34","新北市新店區北宜路二段56巷3弄4號","121.549081666667","24.9507416666667","6500600","新店區"
"231058","3713-VJ","2018/04/16 18:59:42","新北市新店區北新路一段75號","121.538478333333","24.9603816666667","6500600","新店區"
"231066","4716-K9","2018/04/16 18:59:24","新北市新店區安祥路80號","121.489233333333","24.9588166666667","6500600","新店區"
"231056","4715-K9","2018/04/16 18:59:45","新北市新店區二十張路33巷10號","121.538626666667","24.9809833333333","6500600","新店區"
"231067","4772-VM","2018/04/16 18:59:37","新北市新店區安康路一段247巷31號","121.524771666667","24.9619216666667","6500600","新店區"
"231065","512-UM","2018/04/16 18:59:36","新北市新店區安祥路147巷88號","121.475081666667","24.9543166666667","6500600","新店區"
"231049","513-UM","2018/04/16 18:59:34","新北市新店區中正路450號","121.534406666667","24.9790166666667","6500600","新店區"
"231061","618-UM","2018/04/16 18:59:31","新北市新店區安華路1-1號","121.519743333333","24.95999","6500600","新店區"
"231063","641-BX","2018/04/16 18:59:25","新北市新店區安忠路205巷8號","121.508993333333","24.954765","6500600","新店區"
"231042","645-TV","2018/04/16 18:59:34","新北市新店區中興路一段289號","121.545545","24.9687366666667","6500600","新店區"
"231052","719-UY","2018/04/16 18:59:41","新北市新店區屈尺路12號","121.548961666667","24.9225733333333","6500600","新店區"
"231062","720-UM","2018/04/16 18:59:28","新北市新店區安康路二段330號","121.503815","24.95777","6500600","新店區"
"231060","897-TW","2018/04/16 18:59:10","新北市新店區安忠路205巷8號","121.509663333333","24.9551016666667","6500600","新店區"
"231045","898-TW","2018/04/16 18:59:43","新北市新店區光明街27號","121.538391666667","24.9596233333333","6500600","新店區"
"231043","899-TW","2018/04/16 18:59:27","新北市新店區北新路二段1號","121.542536666667","24.971215","6500600","新店區"
"231055","AKT-0513","2018/04/16 18:59:22","新北市新店區新生街13巷42號","121.539","24.9665816666667","6500600","新店區"
"241026","066-VK","2018/04/16 18:59:24","新北市三重區泉州街106號","121.494915","25.053695","6500200","三重區"
"241006","413-TH","2018/04/16 18:37:31","新北市三重區車路頭街135-1號","121.48425","25.07614","6500200","三重區"
"241020","478-VK","2018/04/16 18:59:42","新北市三重區忠孝路二段31號","121.486128333333","25.071385","6500200","三重區"
"235064","005-UY","2018/04/16 18:59:33","新北市中和區連城路47巷5號","121.498481666667","25.0016783333333","6500300","中和區"
"235063","006-UY","2018/04/16 18:59:39","新北市中和區錦和路168號","121.489905","24.9957266666667","6500300","中和區"
"235056","096-UM","2018/04/16 18:59:39","新北市中和區員山路466巷34號","121.482255","25.0062583333333","6500300","中和區"
"235039","097-UM","2018/04/16 18:59:25","新北市中和區安樂路217巷56號","121.513055","24.9976166666667","6500300","中和區"
"235065","098-UM","2018/04/16 18:59:33","新北市中和區勝利路35巷3弄19號","121.499763333333","25.00733","6500300","中和區"
"235040","150-BY","2018/04/16 18:49:57","新北市中和區景平路572號","121.501725","24.995315","6500300","中和區"
"235058","151-BY","2018/04/16 18:59:32","新北市中和區連城路573-1號","121.478968333333","24.9943083333333","6500300","中和區"
"235055","183-VK","2018/04/16 18:59:27","新北市中和區民德路21號","121.468935","25.00275","6500300","中和區"
"235038","185-VK","2018/04/16 18:59:37","新北市中和區大仁街19巷3號","121.517546666667","24.9930883333333","6500300","中和區"
"235049","186-VK","2018/04/16 18:59:11","新北市中和區景安路167巷32號","121.506846666667","24.99483","6500300","中和區"
"235067","255-BX","2018/04/16 18:59:36","新北市中和區中正路788號","121.48506","25.0010583333333","6500300","中和區"
"235044","293-VK","2018/04/16 18:59:33","新北市中和區中興街161巷2弄1號","121.500333333333","24.9908733333333","6500300","中和區"
"235072","301-VK","2018/04/16 18:59:31","新北市中和區景平路719號","121.496333333333","25.0039183333333","6500300","中和區"
"235043","352-BY","2018/04/16 18:59:35","新北市中和區秀朗路三段105號","121.52647","24.99472","6500300","中和區"
"235068","377-QA","2018/04/16 18:59:15","新北市中和區圓通路240巷10弄1號","121.494683333333","24.9931583333333","6500300","中和區"
"235061","378-QA","2018/04/16 18:59:26","新北市中和區民治街134巷2-2號","121.47524","25.0021216666667","6500300","中和區"
"235060","269-TV","2018/04/16 18:59:43","新北市中和區民治街23巷1號","121.475353333333","25.0022366666667","6500300","中和區"
"235050","4979-A6","2018/04/16 18:59:36","新北市中和區忠孝街56號","121.511556666667","24.9834916666667","6500300","中和區"
"235042","551-UM","2018/04/16 18:59:31","新北市中和區秀朗路三段133巷2號","121.525375","24.9927433333333","6500300","中和區"
"235045","565-BX","2018/04/16 18:59:35","新北市中和區景新街467巷15弄2號","121.514106666667","24.9883566666667","6500300","中和區"
"235054","640-BX","2018/04/16 18:59:38","新北市中和區民享街6號","121.473996666667","25.0049216666667","6500300","中和區"
"235047","732-UM","2018/04/16 18:59:34","新北市中和區興南路二段74巷14號","121.50534","24.984985","6500300","中和區"
"235046","733-UM","2018/04/16 18:59:44","新北市中和區興南路一段135巷17號","121.509385","24.986985","6500300","中和區"
"235062","800-TS","2018/04/16 18:37:14","新北市中和區中山路二段278號","121.49644","25.0025866666667","6500300","中和區"
"235057","801-TS","2018/04/16 18:59:39","新北市中和區民安街63號","121.4787","24.9996616666667","6500300","中和區"
"235052","805-TS","2018/04/16 18:59:44","新北市中和區興南路二段130號","121.504376666667","24.98348","6500300","中和區"
"235048","896-TW","2018/04/16 18:59:42","新北市中和區華新街109巷5號","121.509045","24.9820316666667","6500300","中和區"
"235053","900-TW","2018/04/16 18:59:45","新北市中和區民德路360號","121.46611","24.9938516666667","6500300","中和區"
"235070","911-UM","2018/04/16 18:59:28","新北市中和區安和路189號","121.506063333333","24.9982766666667","6500300","中和區"
"235051","157-BY","2018/04/16 18:59:25","新北市中和區忠孝街6號","121.510075","24.982595","6500300","中和區"
"235037","AAC-213","2018/04/16 18:59:34","新北市中和區秀朗路三段10巷14弄41-5號","121.524111666667","24.99643","6500300","中和區"
"235059","AAC-215","2018/04/16 18:59:29","新北市中和區圓通路367巷2號","121.491116666667","24.9892866666667","6500300","中和區"
"220068","013-TV","2018/04/16 18:59:39","新北市板橋區中山路二段465巷92-1號","121.481211666667","25.0225483333333","6500100","板橋區"
"220056","015-TV","2018/04/16 18:59:41","新北市板橋區信義路110巷1弄13-1號","121.458413333333","24.9919233333333","6500100","板橋區"
"220065","072-UY","2018/04/16 18:59:44","新北市板橋區民族路287巷4號","121.47135","25.0069866666667","6500100","板橋區"
"220086","073-UY","2018/04/16 18:59:42","新北市板橋區中正路191號","121.456363333333","25.0170616666667","6500100","板橋區"
"220106","075-UY","2018/04/16 18:59:43","新北市板橋區文化路二段124巷28-2號","121.471211666667","25.0256166666667","6500100","板橋區"
"220069","AAD-861","2018/04/16 18:59:40","新北市板橋區華興街82號","121.457008333333","25.005195","6500100","板橋區"
"226004","312-R5","2018/04/16 18:59:41","新北市平溪區靜安路三段272號","121.77639","25.0405283333333","6502400","平溪區"
"226004","8452-VL","2018/04/16 18:59:31","新北市平溪區南山里南山坪58號","121.776048333333","25.04023","6502400","平溪區"
"235041","251-BX","2018/04/16 18:59:42","新北市中和區宜安路92巷7號","121.511016666667","24.9977433333333","6500300","中和區"
"228003","097-TW","2018/04/16 18:59:43","新北市貢寮區和美里龍洞街47號","121.911793333333","25.113225","6502600","貢寮區"
"228002","585-TW","2018/04/16 18:59:31","新北市貢寮區福隆里東興街104號","121.946045","25.016925","6502600","貢寮區"
"228001","670-TC","2018/04/16 18:59:34","新北市貢寮區仁理村研海街12-1號","121.92377","25.05166","6502600","貢寮區"
"224006","676-BX","2018/04/16 18:59:40","新北市瑞芳區三爪子坑路106巷1-1號","121.80813","25.104645","6501200","瑞芳區"
"224008","285-BY","2018/04/16 18:59:35","新北市瑞芳區裕民新城2號","121.801903333333","25.1120116666667","6501200","瑞芳區"
"224007","275-VK","2018/04/16 18:59:38","新北市瑞芳區大埔路288號","121.758896666667","25.1020433333333","6501200","瑞芳區"
"224009","273-VK","2018/04/16 18:59:27","新北市瑞芳區洞頂路148號","121.858341666667","25.1171033333333","6501200","瑞芳區"
"224005","271-BY","2018/04/16 18:59:42","新北市瑞芳區連福新城25號","121.820226666667","25.1189933333333","6501200","瑞芳區"
"227001","642-TC","2018/04/16 18:59:25","新北市雙溪區平林里康福家園10號","121.858755","25.0373066666667","6502500","雙溪區"
"227008","400-TW","2018/04/16 18:59:29","新北市雙溪區牡丹里中正路58巷23號","121.866428333333","25.0416116666667","6502500","雙溪區"
"253005","032-BX","2018/04/16 18:59:28","新北市石門區中央路37-5號","121.569505","25.296365","6502200","石門區"
"253006","295-VK","2018/04/16 18:59:24","新北市石門區下員坑30-7號","121.5194","25.2815816666667","6502200","石門區"
"222001","KEA-2212","2018/04/16 18:59:41","新北市深坑區北深路一段185號","121.631868333333","25.0104183333333","6501800","深坑區"
"208002","KEA-2872","2018/04/16 18:59:36","新北市金山區信義路39號","121.63528","25.219545","6502700","金山區"
"208003","665-BX","2018/04/16 18:59:41","新北市金山區中正路51號","121.634681666667","25.2219416666667","6502700","金山區"
"208001","761-BX","2018/04/16 18:59:36","新北市金山區中山路106號","121.639896666667","25.2191733333333","6502700","金山區"
"251009","008-UM","2018/04/16 18:59:42","新北市淡水區重建街38號","121.439928333333","25.1713083333333","6501000","淡水區"
"251002","012-UM","2018/04/16 18:59:35","新北市淡水區中正東路55-8號","121.44687","25.1678466666667","6501000","淡水區"
"251013","179-VK","2018/04/16 18:59:29","新北市淡水區安子內12號","121.48088","25.219485","6501000","淡水區"
"251014","180-VK","2018/04/16 18:59:24","新北市淡水區小中寮32-1號","121.491346666667","25.2261366666667","6501000","淡水區"
"251015","182-VK","2018/04/16 18:59:43","新北市淡水區糞箕湖60號","121.48522","25.17233","6501000","淡水區"
"251010","413-VK","2018/04/16 18:59:42","新北市淡水區沙崙路129號","121.422315","25.1824116666667","6501000","淡水區"
"251016","442-VK","2018/04/16 18:59:33","新北市淡水區埤島27號","121.446536666667","25.1996066666667","6501000","淡水區"
"251001","559-UM","2018/04/16 18:59:43","新北市淡水區自強路245號","121.463155","25.1273966666667","6501000","淡水區"
"251007","577-R6","2018/04/16 18:59:25","新北市淡水區民生路113巷1弄51號","121.462428333333","25.1385766666667","6501000","淡水區"
"251003","766-UM","2018/04/16 18:59:27","新北市淡水區中山北路一段149巷24號","121.44289","25.178015","6501000","淡水區"
"207003","550-UM","2018/04/16 18:59:41","新北市萬里區大鵬里頂社1號","121.657113333333","25.20965","6502800","萬里區"
"207004","225-TW","2018/04/16 18:59:44","新北市萬里區萬里里獅頭路23號","121.693256666667","25.1782183333333","6502800","萬里區"
"252002","178-VK","2018/04/16 18:59:28","新北市三芝區中正路一段68號","121.503853333333","25.257705","6502100","三芝區"
"252003","249-BX","2018/04/16 18:59:28","新北市三芝區後厝里北勢子42-1號","121.471876666667","25.2522533333333","6502100","三芝區"
"252001","292-VK","2018/04/16 18:59:34","新北市三芝區中興街二段260號","121.501751666667","25.25303","6502100","三芝區"
"237004","KEA-2597","2018/04/16 18:59:34","新北市三峽區有木206號","121.439085","24.8514583333333","6500900","三峽區"
"237007","153-BY","2018/04/16 18:59:37","新北市三峽區中正路二段318號","121.36592","24.9109083333333","6500900","三峽區"
"237011","572-TV","2018/04/16 18:59:29","新北市三峽區介壽路三段65號","121.395556666667","24.9379916666667","6500900","三峽區"
"237013","252-BX","2018/04/16 18:59:40","新北市三峽區光明路69巷25號","121.376745","24.9292066666667","6500900","三峽區"
"237012","275-BY","2018/04/16 18:58:22","新北市三峽區三樹路222巷166-1號","121.386878333333","24.9428383333333","6500900","三峽區"
"237008","302-VK","2018/04/16 18:59:42","新北市三峽區大同路127號","121.374013333333","24.9267566666667","6500900","三峽區"
"237014","433-BY","2018/04/16 18:59:35","新北市三峽區隆恩街243號","121.357858333333","24.9411366666667","6500900","三峽區"
"237006","5529-G3","2018/04/16 18:59:35","新北市三峽區溪東路233巷47弄2號","121.410611666667","24.9345533333333","6500900","三峽區"
"237010","706-TV","2018/04/16 18:59:45","新北市三峽區國光街350巷13號","121.37164","24.940055","6500900","三峽區"
"237005","AKY-6261","2018/04/16 18:59:40","新北市三峽區中山路459巷163-3號","121.349091666667","24.9332916666667","6500900","三峽區"
"236069","105-UM","2018/04/16 18:59:31","新北市土城區清水路25巷25號","121.453033333333","24.980555","6501300","土城區"
"236042","107-UM","2018/04/16 18:59:25","新北市土城區學府路一段256巷2弄1號","121.451153333333","24.9847333333333","6501300","土城區"
"236078","166-UM","2018/04/16 18:59:31","新北市土城區中央路四段125巷2弄15號","121.416456666667","24.9569033333333","6501300","土城區"
"236030","253-BX","2018/04/16 18:59:26","新北市土城區中央路三段1號","121.43977","24.9706833333333","6501300","土城區"
"236026","269-VK","2018/04/16 18:59:37","新北市土城區中央路二段258號","121.441581666667","24.9747266666667","6501300","土城區"
"236014","270-VK","2018/04/16 18:59:24","新北市土城區延和路14號","121.464013333333","24.9879216666667","6501300","土城區"
"236039","271-VK","2018/04/16 18:59:39","新北市土城區仁愛路18號","121.460735","24.9802816666667","6501300","土城區"
"236020","401-BY","2018/04/16 18:59:30","新北市土城區明峰街50號","121.467773333333","24.986485","6501300","土城區"
"236059","912-UM","2018/04/16 18:59:40","新北市土城區金城路二段48號","121.45137","24.9788966666667","6501300","土城區"
"236048","913-UM","2018/04/16 18:59:45","新北市土城區青雲路291號","121.459053333333","24.979795","6501300","土城區"
"236063","915-UM","2018/04/16 18:59:31","新北市土城區延和路41巷2弄1號","121.46606","24.989755","6501300","土城區"
"236055","AAC-216","2018/04/16 18:59:41","新北市土城區學成路146號","121.448753333333","24.989555","6501300","土城區"
"242013","351-TH","2018/04/16 18:59:32","新北市新莊區中環路一段8號","121.442446666667","25.0261166666667","6500500","新莊區"
"238023","601-UM","2018/04/16 18:59:38","新北市樹林區工興街35巷1號","121.401331666667","25.0132133333333","6500700","樹林區"
"238019","599-UM","2018/04/16 18:59:22","新北市樹林區東榮街91巷2弄4號","121.415945","24.982275","6500700","樹林區"
"238018","571-TV","2018/04/16 18:59:42","新北市樹林區太平路48號","121.41896","24.982615","6500700","樹林區"
"238022","KEA-2213","2018/04/16 18:59:30","新北市樹林區東興街16巷4弄2號","121.409381666667","24.978175","6500700","樹林區"
"238021","KEA-2539","2018/04/16 18:59:35","新北市樹林區西圳街二段180-1號","121.37858","24.9554433333333","6500700","樹林區"
"238025","303-VK","2018/04/16 18:59:40","新北市樹林區民和街83巷22號","121.379371666667","24.972535","6500700","樹林區"
"238017","283-BY","2018/04/16 18:59:36","新北市樹林區大安路325號","121.417366666667","24.9917416666667","6500700","樹林區"
"238014","282-BY","2018/04/16 18:59:36","新北市樹林區千歲街61巷10號","121.425865","24.998205","6500700","樹林區"
"238020","268-VK","2018/04/16 18:59:36","新北市樹林區俊英街181號","121.423811666667","25.0122433333333","6500700","樹林區"
"238026","172-UY","2018/04/16 18:59:35","新北市樹林區佳園路一段75巷12-17號","121.394731666667","24.97031","6500700","樹林區"
"238016","169-UY","2018/04/16 18:59:29","新北市樹林區復興路373巷7弄6號","121.417613333333","24.9865433333333","6500700","樹林區"
"239007","AAC-297","2018/04/16 18:59:46","新北市鶯歌區中正一路347號","121.357575","24.9572633333333","6500800","鶯歌區"
"239006","891-R6","2018/04/16 18:59:44","新北市鶯歌區鶯桃路296巷84弄13號","121.337101666667","24.9616633333333","6500800","鶯歌區"
"239008","527-UM","2018/04/16 18:59:26","新北市鶯歌區國際二路20巷52號","121.338058333333","24.97607","6500800","鶯歌區"
"239005","526-UM","2018/04/16 18:59:37","新北市鶯歌區鳳吉一街59號","121.326465","24.973925","6500800","鶯歌區"
"239001","417-VK","2018/04/16 18:59:36","新北市鶯歌區永明街60巷11號","121.340725","24.9551666666667","6500800","鶯歌區"
"239003","360-BY","2018/04/16 18:59:23","新北市鶯歌區鶯桃路559號","121.330223333333","24.9682033333333","6500800","鶯歌區"
"239004","292-BY","2018/04/16 18:59:43","新北市鶯歌區二甲路33-11號","121.340016666667","24.93814","6500800","鶯歌區"
"239004","193-VK","2018/04/16 18:59:36","新北市鶯歌區中正三路247巷76號","121.33359","24.9363983333333","6500800","鶯歌區"
"221008","489-VK","2018/04/16 18:59:36","新北市汐止區康寧街753巷2弄22號","121.640108333333","25.0745516666667","6501100","汐止區"
"221036","130-UY","2018/04/16 18:59:33","新北市汐止區忠孝東路282號","121.66378","25.0682066666667","6501100","汐止區"
"221015","131-UY","2018/04/16 18:59:35","新北市汐止區鄉長路一段43號","121.665316666667","25.0749833333333","6501100","汐止區"
"221010","269-BY","2018/04/16 18:59:37","新北市汐止區康寧街901號","121.65137","25.07501","6501100","汐止區"
"221012","278-VK","2018/04/16 18:59:32","新北市汐止區康寧街901號","121.650815","25.0753533333333","6501100","汐止區"
"221023","279-VK","2018/04/16 18:53:03","新北市汐止區康寧街901號","121.650963333333","25.0752216666667","6501100","汐止區"
"221032","280-BY","2018/04/16 18:59:22","新北市汐止區橫科路407巷81弄5號","121.628685","25.048065","6501100","汐止區"
"221027","281-BY","2018/04/16 18:59:31","新北市汐止區康寧街901號","121.651488333333","25.0749283333333","6501100","汐止區"
"221029","298-VK","2018/04/16 18:59:28","新北市汐止區樟樹一路254號","121.64234","25.0671816666667","6501100","汐止區"
"221031","353-TW","2018/04/16 18:59:34","新北市汐止區福德二路156巷38號","121.62995","25.0658666666667","6501100","汐止區"
"221035","622-UM","2018/04/16 18:59:38","新北市汐止區康寧街901號","121.651653333333","25.0749133333333","6501100","汐止區"
"221025","623-UM","2018/04/16 18:59:41","新北市汐止區水源路一段5號","121.65714","25.0670266666667","6501100","汐止區"
"221038","646-BX","2018/04/16 18:59:37","新北市汐止區康寧街901號","121.650741666667","25.07532","6501100","汐止區"
"221033","647-BX","2018/04/16 18:59:36","新北市汐止區南勢街1巷1號","121.627005","25.0373716666667","6501100","汐止區"
"221002","707-TV","2018/04/16 18:59:38","新北市汐止區大同路一段2號","121.621081666667","25.055065","6501100","汐止區"
"221018","753-BX","2018/04/16 18:59:33","新北市汐止區大同路二段370號","121.657683333333","25.0671333333333","6501100","汐止區"
"220079","145-BY","2018/04/16 18:59:37","新北市板橋區民權路202巷14弄1號","121.460646666667","25.0159483333333","6500100","板橋區"
"220080","200-UY","2018/04/16 18:59:38","新北市板橋區大觀路二段265巷1弄14號","121.443485","24.9984583333333","6500100","板橋區"
"220082","610-BX","2018/04/16 18:59:40","新北市板橋區溪崑二街88號","121.42714","24.9894633333333","6500100","板橋區"
"220101","245-BX","2018/04/16 18:59:33","新北市板橋區文化路二段182巷5弄1號","121.471686666667","25.0270566666667","6500100","板橋區"
"220053","257-TC","2018/04/16 18:59:39","新北市板橋區中山路二段89巷48號","121.473718333333","25.0171533333333","6500100","板橋區"
"220091","267-BY","2018/04/16 18:59:34","新北市板橋區雙十路二段47巷52號","121.474983333333","25.0254733333333","6500100","板橋區"
"220072","277-BY","2018/04/16 18:59:32","新北市板橋區篤行路一段33號","121.432065","24.9944416666667","6500100","板橋區"
"220071","283-VK","2018/04/16 18:59:44","新北市板橋區重慶路239號","121.46308","25.0007833333333","6500100","板橋區"
"220094","285-UM","2018/04/16 18:59:39","新北市板橋區文化路二段76號","121.469348333333","25.0250733333333","6500100","板橋區"
"220083","286-VK","2018/04/16 18:59:35","新北市板橋區大觀路一段38巷156弄4號","121.442601666667","25.00446","6500100","板橋區"
"220081","287-VK","2018/04/16 18:59:42","新北市板橋區光華街19巷1號","121.45373","25.0120416666667","6500100","板橋區"
"220090","288-VK","2018/04/16 18:59:37","新北市板橋區四維路177巷3弄1號","121.463975","25.026145","6500100","板橋區"
"220061","293-UM","2018/04/16 18:59:31","新北市板橋區富山街109巷71號","121.475258333333","25.02122","6500100","板橋區"
"220075","303-R5","2018/04/16 18:59:41","新北市板橋區館前西路159號","121.456016666667","25.0079883333333","6500100","板橋區"
"220062","305-R5","2018/04/16 18:59:24","新北市板橋區中山路二段60巷2號","121.473971666667","25.01536","6500100","板橋區"
"220092","307-R5","2018/04/16 18:59:39","新北市板橋區漢生東路7號","121.464486666667","25.017305","6500100","板橋區"
"220098","317-R6","2018/04/16 18:59:34","新北市板橋區民有街18號","121.466285","25.024965","6500100","板橋區"
"220064","486-VK","2018/04/16 18:59:28","新北市板橋區中山路一段252號","121.47145","25.01449","6500100","板橋區"
"220088","491-VK","2018/04/16 18:59:35","新北市板橋區民生路二段220號","121.469146666667","25.02166","6500100","板橋區"
"220035","560-BX","2018/04/16 18:59:42","新北市板橋區中正路339號","121.454756666667","25.0203933333333","6500100","板橋區"
"220103","561-BX","2018/04/16 18:59:41","新北市板橋區民生路二段123號","121.470616666667","25.0185366666667","6500100","板橋區"
"220084","568-UM","2018/04/16 18:59:35","新北市板橋區龍興街10號","121.442856666667","24.9997083333333","6500100","板橋區"
"220063","609-BX","2018/04/16 18:59:37","新北市板橋區中山路二段110號","121.475871666667","25.0166716666667","6500100","板橋區"
"220057","686-BX","2018/04/16 18:59:29","新北市板橋區重慶路104號","121.46203","25.0057116666667","6500100","板橋區"
"220093","689-BX","2018/04/16 18:59:42","新北市板橋區民生路三段66號","121.466838333333","25.025615","6500100","板橋區"
"220054","741-BX","2018/04/16 18:59:38","新北市板橋區重慶路139巷7號","121.46314","25.0046216666667","6500100","板橋區"
"220102","KEA-2699","2018/04/16 18:59:30","新北市板橋區雙十路一段44巷36號","121.477215","25.024795","6500100","板橋區"
"220070","806-UM","2018/04/16 18:59:31","新北市板橋區四川路一段281號","121.459515","25.0019033333333","6500100","板橋區"
"220055","827-TW","2018/04/16 18:59:28","新北市板橋區區運路65號","121.466733333333","25.01081","6500100","板橋區"
"220067","830-TW","2018/04/16 18:59:09","新北市板橋區三民路二段正隆巷12弄24號","121.477465","25.0138016666667","6500100","板橋區"
"220096","831-TW","2018/04/16 18:59:29","新北市板橋區莊敬路167號","121.471025","25.0239566666667","6500100","板橋區"
"220089","833-TW","2018/04/16 18:59:33","新北市板橋區仁化街8號","121.474301666667","25.031565","6500100","板橋區"
"220074","895-R6","2018/04/16 18:59:38","新北市板橋區府中路120號","121.455388333333","25.0094683333333","6500100","板橋區"
"220073","985-R7","2018/04/16 18:59:27","新北市板橋區民權路217號","121.457721666667","25.0152433333333","6500100","板橋區"
"220097","AAC-210","2018/04/16 18:59:34","新北市板橋區漢生東路17號","121.464851666667","25.01732","6500100","板橋區"
"220077","AAC-253","2018/04/16 18:59:35","新北市板橋區大觀路二段146-2號","121.442088333333","24.9989","6500100","板橋區"
"235066","KEA-2873","2018/04/16 18:59:32","新北市中和區中山路二段131巷5弄3號","121.502858333333","25.00283","6500300","中和區"
