"lineid","car","time","location","longitude","latitude","cityid","cityname"
"234070","149-BY","2018/04/16 20:29:25","新北市永和區永亨路51號","121.520315","25.0064616666667","6500400","永和區"
"234007","207-UY","2018/04/16 20:29:25","新北市永和區環河西路二段217巷5號","121.50165","25.0099516666667","6500400","永和區"
"234081","298-R6","2018/04/16 20:29:28","新北市永和區永貞路76號","121.520226666667","25.0051766666667","6500400","永和區"
"234038","336-UY","2018/04/16 20:29:06","新北市永和區民樂街31巷6弄15號","121.528913333333","25.001765","6500400","永和區"
"234064","337-UY","2018/04/16 20:29:31","新北市永和區中正路433號","121.517103333333","25.0050966666667","6500400","永和區"
"234086","338-UY","2018/04/16 20:29:17","新北市永和區光復街32號","121.51656","25.0174466666667","6500400","永和區"
"234067","553-UM","2018/04/16 20:29:17","新北市永和區保平路292巷46弄2號","121.507398333333","25.005315","6500400","永和區"
"234030","746-BX","2018/04/16 20:29:17","新北市永和區民權路53號","121.52026","24.996595","6500400","永和區"
"234054","KEA-2590","2018/04/16 20:29:27","新北市永和區環河東路一段82號","121.51957","25.0163733333333","6500400","永和區"
"234013","KEA-2591","2018/04/16 20:29:17","新北市永和區仁愛路306巷11號","121.502915","25.0083933333333","6500400","永和區"
"234061","AAD-866","2018/04/16 20:29:14","新北市永和區安樂路194巷39弄8號","121.516308333333","25.0014783333333","6500400","永和區"
"234042","862-TW","2018/04/16 20:29:12","新北市永和區安樂路431號","121.514431666667","25.00421","6500400","永和區"
"234050","863-TW","2018/04/16 20:29:29","新北市永和區新生路117號","121.50778","25.0152","6500400","永和區"
"249001","173-UM","2018/04/16 20:29:31","新北市八里區商港路42號","121.39632","25.1451033333333","6502300","八里區"
"249004","303-UY","2018/04/16 20:29:19","新北市八里區中山路一段129巷27號","121.414011666667","25.1585916666667","6502300","八里區"
"249002","305-UY","2018/04/16 20:29:29","新北市八里區龍米路二段68號","121.447838333333","25.141845","6502300","八里區"
"249003","593-UM","2018/04/16 20:27:09","新北市八里區華峰一街51號","121.398678333333","25.1461216666667","6502300","八里區"
"234023","9380-KE","2018/04/16 20:29:21","新北市永和區光復街2巷16弄25號","121.517983333333","25.0163283333333","6500400","永和區"
"234077","969-R7","2018/04/16 20:29:19","新北市中和區景新街473號","121.513433333333","24.9878283333333","6500400","永和區"
"234074","AAC-211","2018/04/16 20:29:13","新北市永和區豫溪街162巷2號","121.523611666667","25.0096233333333","6500400","永和區"
"234003","AAC-295","2018/04/16 20:29:26","新北市永和區中正路620號","121.51713","25.0077833333333","6500400","永和區"
"243012","AAD-798","2018/04/16 20:29:14","新北市泰山區忠孝街19巷3弄7號","121.427166666667","25.0657316666667","6501600","泰山區"
"243011","297-R6","2018/04/16 20:29:23","新北市泰山區台麗街26號","121.427028333333","25.0368733333333","6501600","泰山區"
"243015","380-SR","2018/04/16 20:29:28","新北市泰山區仁德路82號","121.433081666667","25.05634","6501600","泰山區"
"243014","421-VK","2018/04/16 20:29:12","新北市泰山區泰林路二段528號","121.423868333333","25.063825","6501600","泰山區"
"243010","KEA-2215","2018/04/16 20:29:18","新北市泰山區新生路31巷7號","121.42758","25.04589","6501600","泰山區"
"243009","KEA-2216","2018/04/16 20:29:27","新北市泰山區忠孝街14-1號","121.427661666667","25.0649366666667","6501600","泰山區"
"243013","646-TV","2018/04/16 20:29:25","新北市泰山區明志路二段216號","121.42732","25.0487616666667","6501600","泰山區"
"243016","680-BX","2018/04/16 20:29:09","新北市泰山區明志路二段330號","121.426193333333","25.04568","6501600","泰山區"
"222003","436-BY","2018/04/16 20:29:19","新北市深坑區深坑街37號","121.615606666667","25.00205","6501800","深坑區"
"222002","659-BX","2018/04/16 20:29:22","新北市深坑區萬福路16巷49號","121.611643333333","25.0085433333333","6501800","深坑區"
"231041","002-UM","2018/04/16 20:29:16","新北市新店區中正路501-4號","121.533601666667","24.9837966666667","6500600","新店區"
"231059","046-UY","2018/04/16 20:29:17","新北市新店區安康路二段270號","121.508381666667","24.9589166666667","6500600","新店區"
"231040","047-UY","2018/04/16 20:29:28","新北市新店區中正路279號","121.537566666667","24.9744","6500600","新店區"
"231044","106-UY","2018/04/16 20:29:16","新北市新店區建國路155號","121.538711666667","24.9788566666667","6500600","新店區"
"231064","110-UY","2018/04/16 20:29:30","新北市新店區永安街74巷1號","121.519811666667","24.9863816666667","6500600","新店區"
"231047","187-VK","2018/04/16 20:29:16","新北市新店區寶慶街58巷21-1號","121.542006666667","24.9873916666667","6500600","新店區"
"231054","KEA-2219","2018/04/16 20:29:23","新北市新店區檳榔路109號","121.544415","24.9615833333333","6500600","新店區"
"231057","256-BX","2018/04/16 20:29:10","新北市新店區花園五路二段3號","121.553593333333","24.9341583333333","6500600","新店區"
"231051","278-BY","2018/04/16 20:29:26","新北市新店區中央六街80號","121.526813333333","24.9763533333333","6500600","新店區"
"231050","AAD-862","2018/04/16 20:29:25","新北市新店區建興街4號","121.540073333333","24.9765083333333","6500600","新店區"
"231058","3713-VJ","2018/04/16 20:29:22","新北市新店區中正路329巷9弄8號","121.535205","24.9735416666667","6500600","新店區"
"231066","4716-K9","2018/04/16 20:29:24","新北市新店區安民街341-1號","121.516888333333","24.9749366666667","6500600","新店區"
"231056","4715-K9","2018/04/16 20:29:24","新北市新店區中正路302巷16號","121.538125","24.975205","6500600","新店區"
"231065","512-UM","2018/04/16 20:29:16","新北市新店區安祥路102巷42弄35號","121.485215","24.9634516666667","6500600","新店區"
"231049","513-UM","2018/04/16 20:29:14","新北市新店區永業路81巷1弄1-1號","121.529621666667","24.9494033333333","6500600","新店區"
"231061","618-UM","2018/04/16 20:29:11","新北市新店區安業街2號","121.515575","24.9789583333333","6500600","新店區"
"231063","641-BX","2018/04/16 20:29:25","新北市新店區玫瑰路4-1號","121.493573333333","24.9513816666667","6500600","新店區"
"231042","645-TV","2018/04/16 20:29:14","新北市新店區寶橋路156-1號","121.548568333333","24.9769783333333","6500600","新店區"
"231068","718-UY","2018/04/16 20:29:19","新北市新店區中興路三段226號","121.543438333333","24.9830483333333","6500600","新店區"
"231052","719-UY","2018/04/16 20:29:21","新北市新店區松林路30號","121.544888333333","24.911025","6500600","新店區"
"231062","720-UM","2018/04/16 20:29:32","新北市新店區安泰路60巷55弄131號","121.484348333333","24.94691","6500600","新店區"
"231060","897-TW","2018/04/16 20:29:30","新北市新店區錦秀路43號","121.479238333333","24.9437866666667","6500600","新店區"
"231045","898-TW","2018/04/16 20:29:25","新北市新店區新坡一街2號","121.548456666667","24.9610883333333","6500600","新店區"
"231043","899-TW","2018/04/16 20:29:27","新北市新店區建國路99巷1號","121.540395","24.9771133333333","6500600","新店區"
"241011","013-R5","2018/04/16 20:29:28","新北市三重區龍門路41號","121.496076666667","25.0722166666667","6500200","三重區"
"241028","022-UY","2018/04/16 20:29:21","新北市三重區光興街89號","121.497416666667","25.059985","6500200","三重區"
"241008","059-VK","2018/04/16 20:29:14","新北市三重區下竹圍街42號","121.48106","25.0749383333333","6500200","三重區"
"241009","060-VK","2018/04/16 20:29:15","新北市三重區永福街40號","121.482313333333","25.0781183333333","6500200","三重區"
"241031","061-VK","2018/04/16 20:29:18","新北市三重區三寧街22號","121.489561666667","25.0600583333333","6500200","三重區"
"241015","062-VK","2018/04/16 20:29:24","新北市三重區長元街2-2號","121.498746666667","25.0659016666667","6500200","三重區"
"241017","063-VK","2018/04/16 20:29:27","新北市三重區自強路一段290號","121.491538333333","25.0683366666667","6500200","三重區"
"241024","065-VK","2018/04/16 20:29:10","新北市三重區三民街247號","121.479521666667","25.0676483333333","6500200","三重區"
"241026","066-VK","2018/04/16 20:29:24","新北市三重區福德南路24巷13號","121.503373333333","25.0631633333333","6500200","三重區"
"241002","090-VK","2018/04/16 20:29:15","新北市三重區仁義街211巷7號","121.497176666667","25.0820383333333","6500200","三重區"
"241003","091-VK","2018/04/16 20:29:13","新北市三重區富華街147號","121.493061666667","25.0847883333333","6500200","三重區"
"241005","262-UM","2018/04/16 20:29:25","新北市三重區碧華街318號","121.490021666667","25.083635","6500200","三重區"
"241016","265-UM","2018/04/16 20:29:15","新北市三重區正義北路190巷1號","121.496143333333","25.066845","6500200","三重區"
"241018","268-UM","2018/04/16 20:29:22","新北市三重區雙園街41號","121.495378333333","25.0677366666667","6500200","三重區"
"241032","269-UM","2018/04/16 20:29:14","新北市三重區重陽路一段120巷48號","121.485026666667","25.060145","6500200","三重區"
"241013","270-UM","2018/04/16 20:29:15","新北市三重區溪尾街5巷28號","121.492568333333","25.0746533333333","6500200","三重區"
"241025","271-UM","2018/04/16 20:29:11","新北市三重區頂崁街210巷27號","121.475746666667","25.0681516666667","6500200","三重區"
"241007","398-BY","2018/04/16 20:29:31","新北市三重區自強路四段32-2號","121.489043333333","25.0770766666667","6500200","三重區"
"241035","KEA-2210","2018/04/16 20:29:27","新北市三重區正義北路33巷55號","121.499123333333","25.0639266666667","6500200","三重區"
"241004","475-VK","2018/04/16 20:29:20","新北市三重區溪尾街199號","121.488591666667","25.0806516666667","6500200","三重區"
"241020","478-VK","2018/04/16 20:29:22","新北市三重區三和路三段142號","121.493465","25.0726733333333","6500200","三重區"
"241030","480-VK","2018/04/16 20:29:12","新北市三重區成功路60號","121.488671666667","25.0509783333333","6500200","三重區"
"241014","543-UM","2018/04/16 20:29:14","新北市三重區長興街103號","121.50186","25.0691666666667","6500200","三重區"
"241023","545-UM","2018/04/16 20:29:27","新北市三重區自由街16號","121.47984","25.0665366666667","6500200","三重區"
"241001","547-UM","2018/04/16 20:29:12","新北市三重區福隆路31號","121.489963333333","25.0772533333333","6500200","三重區"
"241019","KEA-2593","2018/04/16 20:29:22","新北市三重區重陽路四段81號","121.492636666667","25.070935","6500200","三重區"
"241022","887-TS","2018/04/16 20:29:28","新北市三重區中正北路20巷2號","121.488113333333","25.062875","6500200","三重區"
"241012","941-UM","2018/04/16 20:29:29","新北市三重區龍濱路176號","121.50129","25.0729183333333","6500200","三重區"
"241029","942-UM","2018/04/16 20:29:22","新北市三重區集美街210-5號","121.491443333333","25.0546166666667","6500200","三重區"
"241033","AAC-255","2018/04/16 20:29:14","新北市三重區五谷王北街80巷56號","121.474851666667","25.052585","6500200","三重區"
"235039","097-UM","2018/04/16 20:29:25","新北市中和區大勇街27巷24號","121.516346666667","24.9940416666667","6500300","中和區"
"235065","098-UM","2018/04/16 20:29:12","新北市中和區永和路128巷9號","121.49761","25.006985","6500300","中和區"
"235050","4979-A6","2018/04/16 20:29:16","新北市中和區景平路385巷11號","121.502393333333","24.9942416666667","6500300","中和區"
"235026","800-TS","2018/04/16 20:27:50","新北市中和區員山路36巷16-3號","121.485023333333","24.99151","6500300","中和區"
"235059","AAC-215","2018/04/16 20:29:29","新北市中和區員山路36巷16號","121.484391666667","24.9915116666667","6500300","中和區"
"247024","893-R6","2018/04/16 20:29:23","新北市蘆洲區光復路70巷19號","121.464683333333","25.08516","6501400","蘆洲區"
"247014","546-UM","2018/04/16 20:29:15","新北市蘆洲區中山二路161號","121.47128","25.0812233333333","6501400","蘆洲區"
"247022","500-BY","2018/04/16 20:29:27","新北市蘆洲區三民路213號","121.470096666667","25.088085","6501400","蘆洲區"
"247012","339-TH","2018/04/16 20:29:22","新北市蘆洲區復興路252號","121.479871666667","25.0896366666667","6501400","蘆洲區"
"247004","337-TH","2018/04/16 20:29:16","新北市蘆洲區長安街297號","121.458025","25.0848233333333","6501400","蘆洲區"
"247006","336-TH","2018/04/16 20:29:27","新北市蘆洲區和平路121巷14弄38號","121.466108333333","25.080125","6501400","蘆洲區"
"247018","057-VK","2018/04/16 20:23:54","新北市三重區五華街1巷11號","121.496111666667","25.0791966666667","6501400","蘆洲區"
"247008","056-VK","2018/04/16 20:29:28","新北市蘆洲區永安北路二段76巷15號","121.482473333333","25.0851816666667","6501400","蘆洲區"
"247010","053-VK","2018/04/16 20:29:14","新北市蘆洲區集賢路300號","121.481418333333","25.08531","6501400","蘆洲區"
"247016","007-UY","2018/04/16 20:29:27","新北市蘆洲區光華路109號","121.467068333333","25.0825266666667","6501400","蘆洲區"
"247002","002-UY","2018/04/16 20:29:21","新北市蘆洲區長安街347巷25號","121.455951666667","25.0869883333333","6501400","蘆洲區"
"247020","001-UY","2018/04/16 20:29:13","新北市蘆洲區仁愛街111-1號","121.470465","25.09441","6501400","蘆洲區"
"222001","KEA-2212","2018/04/16 20:29:20","新北市深坑區北深路三段329號","121.59722","25.0049816666667","6501800","深坑區"
"251002","012-UM","2018/04/16 20:29:15","新北市淡水區中正路17號","121.442778333333","25.1696433333333","6501000","淡水區"
"251013","179-VK","2018/04/16 20:29:29","新北市淡水區後坑子6號","121.464015","25.2064483333333","6501000","淡水區"
"251014","180-VK","2018/04/16 20:29:24","新北市淡水區石頭厝9-3號","121.458263333333","25.2367466666667","6501000","淡水區"
"251008","181-VK","2018/04/16 20:29:26","新北市淡水區淡海路180巷12-3號","121.420406666667","25.1844833333333","6501000","淡水區"
"251010","413-VK","2018/04/16 20:29:22","新北市淡水區沙崙路181巷15號","121.423946666667","25.1843366666667","6501000","淡水區"
"251012","441-VK","2018/04/16 20:29:11","新北市淡水區頂田寮路37號","121.455708333333","25.21623","6501000","淡水區"
"251016","442-VK","2018/04/16 20:29:13","新北市淡水區後洲子19號","121.450718333333","25.2238033333333","6501000","淡水區"
"251001","559-UM","2018/04/16 20:29:23","新北市淡水區新市一路三段8號","121.445035","25.1829733333333","6501000","淡水區"
"251006","561-UM","2018/04/16 20:29:16","新北市淡水區商工路308號","121.46252","25.1860166666667","6501000","淡水區"
"251011","650-BX","2018/04/16 20:29:20","新北市淡水區崁頂49-6號","121.438338333333","25.1977083333333","6501000","淡水區"
"251003","766-UM","2018/04/16 20:29:27","新北市淡水區新生街108巷2號","121.440148333333","25.1747366666667","6501000","淡水區"
"252002","178-VK","2018/04/16 20:29:08","新北市三芝區淡金路二段18-1號","121.502568333333","25.2595066666667","6502100","三芝區"
"252001","292-VK","2018/04/16 20:29:14","新北市三芝區中山路一段31號","121.50054","25.2580133333333","6502100","三芝區"
"237005","AKY-6261","2018/04/16 20:29:20","新北市三峽區大學路86-1號","121.375576666667","24.9424516666667","6500900","三峽區"
"242034","AAC-296","2018/04/16 20:29:28","新北市新莊區公園一路141號","121.44663","25.038515","6500500","新莊區"
"242058","986-R7","2018/04/16 20:29:26","新北市新莊區四維路186巷2號","121.422125","25.0212766666667","6500500","新莊區"
"242053","751-BX","2018/04/16 20:29:28","新北市新莊區西盛街367號","121.428035","25.0136266666667","6500500","新莊區"
"242027","615-BX","2018/04/16 20:29:20","新北市新莊區思源路315號","121.45985","25.04918","6500500","新莊區"
"242025","613-BX","2018/04/16 20:29:18","新北市新莊區五工二路51號","121.460886666667","25.0651983333333","6500500","新莊區"
"242029","612-BX","2018/04/16 20:29:24","新北市新莊區昌隆街3巷1弄2號","121.45409","25.0513566666667","6500500","新莊區"
"242042","566-BX","2018/04/16 20:29:20","新北市新莊區天祥街54巷2弄2號","121.41687","25.0293083333333","6500500","新莊區"
"242046","497-BY","2018/04/16 20:29:23","新北市新莊區中正路新雅巷2弄15號","121.417798333333","25.0249866666667","6500500","新莊區"
"242050","441-UM","2018/04/16 20:29:22","新北市新莊區民安西路252巷12號","121.425406666667","25.013705","6500500","新莊區"
"242056","440-UM","2018/04/16 20:29:14","新北市新莊區瓊泰路211號","121.443136666667","25.0324366666667","6500500","新莊區"
"242036","415-TV","2018/04/16 20:29:28","新北市新莊區後港一路76巷10弄3號","121.426833333333","25.02591","6500500","新莊區"
"242007","413-TV","2018/04/16 20:29:12","新北市新莊區思源路243號","121.459711666667","25.0469266666667","6500500","新莊區"
"242044","400-BY","2018/04/16 20:29:10","新北市新莊區中正路新建巷55號","121.414811666667","25.0214016666667","6500500","新莊區"
"242023","362-BY","2018/04/16 20:29:22","新北市新莊區化成路940號","121.46487","25.0628766666667","6500500","新莊區"
"242060","353-BY","2018/04/16 20:29:29","新北市新莊區民安東路37號","121.428948333333","25.0210183333333","6500500","新莊區"
"242039","133-UY","2018/04/16 20:29:21","新北市新莊區民安路294號","121.428101666667","25.0217683333333","6500500","新莊區"
"242048","172-VK","2018/04/16 20:29:27","新北市新莊區中正路879號","121.418016666667","25.0268066666667","6500500","新莊區"
"242011","173-VK","2018/04/16 20:29:20","新北市新莊區中義街35號","121.450095","25.051125","6500500","新莊區"
"242017","175-VK","2018/04/16 20:29:12","新北市新莊區中港二街68號","121.449896666667","25.0458683333333","6500500","新莊區"
"242004","176-VK","2018/04/16 20:29:23","新北市新莊區化成路387號","121.465308333333","25.0583633333333","6500500","新莊區"
"242015","346-TH","2018/04/16 20:29:26","新北市新莊區中平路46巷5號","121.445191666667","25.0438516666667","6500500","新莊區"
"242019","347-TH","2018/04/16 20:22:01","新北市新莊區復興路二段196巷2弄5號","121.459096666667","25.04405","6500500","新莊區"
"242021","348-TH","2018/04/16 20:29:17","新北市新莊區公園路10巷2號","121.447805","25.03878","6500500","新莊區"
"242013","351-TH","2018/04/16 20:29:13","新北市新莊區中平路302巷6號","121.445388333333","25.0517166666667","6500500","新莊區"
"238020","268-VK","2018/04/16 20:29:16","新北市樹林區中山路三段204號","121.386793333333","24.9682083333333","6500700","樹林區"
"221008","489-VK","2018/04/16 20:29:16","新北市汐止區康寧街543號","121.634438333333","25.0692283333333","6501100","汐止區"
"221036","130-UY","2018/04/16 20:29:13","新北市汐止區新台五路二段89號","121.665043333333","25.067165","6501100","汐止區"
"221015","131-UY","2018/04/16 20:29:15","新北市汐止區建成路142巷19弄7號","121.66213","25.0738616666667","6501100","汐止區"
"221010","269-BY","2018/04/16 20:29:17","新北市汐止區八連路二段162號","121.633141666667","25.095635","6501100","汐止區"
"221012","278-VK","2018/04/16 20:29:12","新北市汐止區大同路三段205號","121.671553333333","25.0771566666667","6501100","汐止區"
"221023","279-VK","2018/04/16 20:29:31","新北市汐止區湖東街21號","121.63545","25.0726433333333","6501100","汐止區"
"221032","280-BY","2018/04/16 20:29:22","新北市汐止區弘道街53巷12號","121.61871","25.0489166666667","6501100","汐止區"
"221027","281-BY","2018/04/16 20:29:11","新北市汐止區中正路226號","121.658121666667","25.0689583333333","6501100","汐止區"
"221029","298-VK","2018/04/16 20:29:28","新北市汐止區樟樹一路129巷34弄19號","121.640476666667","25.0652216666667","6501100","汐止區"
"221021","299-VK","2018/04/16 20:29:30","新北市汐止區水源路一段282巷1號","121.654038333333","25.05827","6501100","汐止區"
"221031","353-TW","2018/04/16 20:29:14","新北市汐止區福德一路239號","121.634063333333","25.0644616666667","6501100","汐止區"
"221035","622-UM","2018/04/16 20:29:19","新北市汐止區長江街101-5號","121.658816666667","25.07313","6501100","汐止區"
"221025","623-UM","2018/04/16 20:29:21","新北市汐止區水源路二段86號","121.656471666667","25.0560983333333","6501100","汐止區"
"221038","646-BX","2018/04/16 20:29:17","新北市汐止區忠孝東路318號","121.664711666667","25.0691366666667","6501100","汐止區"
"221033","647-BX","2018/04/16 20:29:16","新北市汐止區林森街73巷15號","121.62379","25.04145","6501100","汐止區"
"221002","707-TV","2018/04/16 20:29:18","新北市汐止區福德三路73號","121.636605","25.0692233333333","6501100","汐止區"
"221018","753-BX","2018/04/16 20:29:13","新北市汐止區茄苳路225巷13號","121.671465","25.0692566666667","6501100","汐止區"
"242002","KEA-2550","2018/04/16 20:29:30","新北市新莊區中正路145-12號","121.458793333333","25.03794","6500500","新莊區"
"220083","286-VK","2018/04/16 20:29:15","新北市板橋區僑中二街106巷3-1號","121.445698333333","25.0076033333333","6500100","板橋區"
"220061","293-UM","2018/04/16 20:29:11","新北市板橋區文華街18號","121.457568333333","25.0005316666667","6500100","板橋區"
"242009","281-VK","2018/04/16 20:29:14","新北市新莊區昌盛街83號","121.455528333333","25.05007","6500500","新莊區"
"242031","280-VK","2018/04/16 20:29:25","新北市新莊區三和路58號","121.437325","25.038815","6500500","新莊區"
"220103","561-BX","2018/04/16 20:29:24","新北市板橋區漢生東路33巷30號","121.465978333333","25.017515","6500100","板橋區"
"220102","KEA-2699","2018/04/16 20:29:30","新北市板橋區民生路二段175號","121.469598333333","25.0201383333333","6500100","板橋區"
"220070","806-UM","2018/04/16 20:29:30","新北市五股區成泰路三段358號","121.45121","25.0978033333333","6500100","板橋區"
"220089","833-TW","2018/04/16 20:29:13","新北市板橋區四維路343號","121.462406666667","25.0297783333333","6500100","板橋區"
"235066","KEA-2873","2018/04/16 20:29:02","新北市中和區中山路二段3巷22弄38號","121.505766666667","25.0040833333333","6500300","中和區"
