"lineid","car","time","location","longitude","latitude","cityid","cityname"
"234007","207-UY","2018/04/16 20:49:45","新北市新店區薏仁坑路6-1號","121.499996666667","24.9583766666667","6500400","永和區"
"234013","KEA-2591","2018/04/16 20:49:37","新北市新店區安康路二段320巷6號","121.505195","24.960125","6500400","永和區"
"234077","969-R7","2018/04/16 20:49:39","新北市新店區安興路112號","121.515263333333","24.97722","6500400","永和區"
"234074","AAC-211","2018/04/16 20:49:53","新北市永和區環河東路二段10號","121.522258333333","25.013155","6500400","永和區"
"222003","436-BY","2018/04/16 20:49:38","新北市深坑區文山路三段48-1號","121.609916666667","24.9985533333333","6501800","深坑區"
"222002","659-BX","2018/04/16 20:49:42","新北市深坑區北深路三段93巷73號","121.603426666667","25.00119","6501800","深坑區"
"231041","002-UM","2018/04/16 20:49:36","台北市文山區景文街146巷26號","121.533153333333","24.9917916666667","6500600","新店區"
"231059","046-UY","2018/04/16 20:49:37","新北市新店區僑信路126巷22號","121.499516666667","24.9456633333333","6500600","新店區"
"231040","047-UY","2018/04/16 20:49:48","新北市新店區中正路259號","121.538808333333","24.9735166666667","6500600","新店區"
"231044","106-UY","2018/04/16 20:49:56","新北市新店區中央路2號","121.533845","24.9788816666667","6500600","新店區"
"231064","110-UY","2018/04/16 20:49:50","新北市新店區安民街381號","121.516345","24.9764066666667","6500600","新店區"
"231047","187-VK","2018/04/16 20:49:37","新北市新店區寶元路二段1巷2號","121.550713333333","24.9841083333333","6500600","新店區"
"231054","KEA-2219","2018/04/16 20:49:43","新北市新店區中正路75巷71號","121.54312","24.969","6500600","新店區"
"231057","256-BX","2018/04/16 20:49:50","新北市新店區新烏路一段140-1號","121.546236666667","24.9323366666667","6500600","新店區"
"231051","278-BY","2018/04/16 20:49:46","新北市新店區中央八街110號","121.525873333333","24.977935","6500600","新店區"
"231050","AAD-862","2018/04/16 20:49:54","新北市新店區三民路20巷32號","121.538173333333","24.9712983333333","6500600","新店區"
"231058","3713-VJ","2018/04/16 20:49:42","新北市新店區溪園路395號","121.523496666667","24.9775683333333","6500600","新店區"
"231066","4716-K9","2018/04/16 20:49:44","新北市新店區安民街65巷15-2號","121.515491666667","24.9667666666667","6500600","新店區"
"231056","4715-K9","2018/04/16 20:49:44","新北市新店區中央五街57號","121.527751666667","24.9756116666667","6500600","新店區"
"231067","4772-VM","2018/04/16 20:49:37","新北市新店區安忠路57巷11弄14號","121.515338333333","24.95795","6500600","新店區"
"231065","512-UM","2018/04/16 20:49:56","新北市新店區安祥路104巷6弄46號","121.483276666667","24.9636183333333","6500600","新店區"
"231049","513-UM","2018/04/16 20:49:34","新北市新店區華潭街52號","121.528458333333","24.9545666666667","6500600","新店區"
"231061","618-UM","2018/04/16 20:49:52","新北市新店區新和街116巷11號","121.521433333333","24.98607","6500600","新店區"
"231063","641-BX","2018/04/16 20:49:45","新北市新店區富貴街11巷34號","121.494973333333","24.9483383333333","6500600","新店區"
"231042","645-TV","2018/04/16 20:49:54","新北市新店區寶高路120巷1號","121.554558333333","24.976025","6500600","新店區"
"231068","718-UY","2018/04/16 20:49:39","新北市新店區寶元路一段84巷1號","121.544485","24.9837333333333","6500600","新店區"
"231052","719-UY","2018/04/16 20:49:41","新北市新店區永興路102-4號","121.545861666667","24.9303183333333","6500600","新店區"
"231062","720-UM","2018/04/16 20:49:48","新北市新店區和成街18巷41號","121.488616666667","24.9463783333333","6500600","新店區"
"231060","897-TW","2018/04/16 20:49:50","新北市新店區安康路三段625號","121.471591666667","24.9403283333333","6500600","新店區"
"231045","898-TW","2018/04/16 20:49:43","新北市新店區北新路一段215號","121.540393333333","24.9651883333333","6500600","新店區"
"231043","899-TW","2018/04/16 20:49:47","新北市新店區建國路89號","121.540476666667","24.97665","6500600","新店區"
"241011","013-R5","2018/04/16 20:49:48","新北市三重區龍濱路205巷16號","121.50285","25.0719683333333","6500200","三重區"
"241028","022-UY","2018/04/16 20:49:41","新北市三重區中正南路50號","121.493925","25.0598733333333","6500200","三重區"
"241008","059-VK","2018/04/16 20:49:54","新北市三重區永福街72巷11號","121.479408333333","25.0768633333333","6500200","三重區"
"241009","060-VK","2018/04/16 20:49:55","新北市三重區三和路四段388-2號","121.482045","25.0791633333333","6500200","三重區"
"241031","061-VK","2018/04/16 20:49:38","新北市三重區重陽路一段113巷1弄1號","121.487488333333","25.0597933333333","6500200","三重區"
"241015","062-VK","2018/04/16 20:49:44","新北市三重區自強路一段8號","121.49884","25.0683033333333","6500200","三重區"
"241017","063-VK","2018/04/16 20:49:47","新北市三重區自強路一段270號","121.492156666667","25.0676166666667","6500200","三重區"
"241024","065-VK","2018/04/16 20:49:49","新北市三重區國道路一段58巷20號","121.481243333333","25.0720433333333","6500200","三重區"
"241026","066-VK","2018/04/16 20:49:24","新北市三重區文化南路7號","121.499996666667","25.06236","6500200","三重區"
"241002","090-VK","2018/04/16 20:49:55","新北市三重區仁義街167巷55號","121.498946666667","25.0824066666667","6500200","三重區"
"241003","091-VK","2018/04/16 20:49:53","新北市三重區五華街141巷58號","121.49352","25.0867866666667","6500200","三重區"
"241005","262-UM","2018/04/16 20:49:44","新北市三重區五華街141巷58號","121.493288333333","25.0865283333333","6500200","三重區"
"241016","265-UM","2018/04/16 20:49:55","新北市三重區自強路一段230號","121.493513333333","25.0668866666667","6500200","三重區"
"241018","268-UM","2018/04/16 20:49:46","新北市三重區正義北路332號","121.494508333333","25.07074","6500200","三重區"
"241032","269-UM","2018/04/16 20:49:54","新北市三重區重陽路一段120巷48號","121.485058333333","25.0601466666667","6500200","三重區"
"241013","270-UM","2018/04/16 20:49:55","新北市三重區仁賢街12-1號","121.495725","25.0748933333333","6500200","三重區"
"241025","271-UM","2018/04/16 20:49:51","新北市三重區貴陽街18-1號","121.484223333333","25.0619116666667","6500200","三重區"
"241007","398-BY","2018/04/16 20:49:34","新北市三重區慈愛街10號","121.484555","25.0784233333333","6500200","三重區"
"241035","KEA-2210","2018/04/16 20:49:47","新北市三重區三和路三段8號","121.49707","25.0701683333333","6500200","三重區"
"241006","413-TH","2018/04/16 20:49:39","新北市三重區車路頭街135-1號","121.484268333333","25.076145","6500200","三重區"
"241004","475-VK","2018/04/16 20:49:40","新北市三重區分子尾街19號","121.489488333333","25.0810266666667","6500200","三重區"
"241020","478-VK","2018/04/16 20:49:42","新北市三重區忠孝路一段101號","121.489506666667","25.07215","6500200","三重區"
"241030","480-VK","2018/04/16 20:49:52","新北市三重區環河南路221巷10號","121.491895","25.0522766666667","6500200","三重區"
"241014","543-UM","2018/04/16 20:49:34","新北市三重區長壽街120巷60號","121.501788333333","25.0703766666667","6500200","三重區"
"241023","545-UM","2018/04/16 20:49:47","新北市三重區三民街146巷3弄1號","121.481718333333","25.0646666666667","6500200","三重區"
"241001","547-UM","2018/04/16 20:49:52","新北市三重區自強路三段79號","121.487275","25.0744866666667","6500200","三重區"
"241019","KEA-2593","2018/04/16 20:49:42","新北市三重區重陽路四段130號","121.492353333333","25.0713816666667","6500200","三重區"
"241022","887-TS","2018/04/16 20:49:48","新北市三重區中正北路20巷12號","121.487951666667","25.0624333333333","6500200","三重區"
"241012","941-UM","2018/04/16 20:49:49","新北市三重區仁信街25號","121.501263333333","25.075695","6500200","三重區"
"241029","942-UM","2018/04/16 20:49:55","新北市三重區重安街14號","121.490241666667","25.0581916666667","6500200","三重區"
"241033","AAC-255","2018/04/16 20:49:34","新北市三重區光復路二段1號","121.472291666667","25.053355","6500200","三重區"
"235026","800-TS","2018/04/16 20:27:50","新北市中和區員山路36巷16-3號","121.485023333333","24.99151","6500300","中和區"
"247024","893-R6","2018/04/16 20:49:43","新北市蘆洲區長樂路136號","121.46216","25.0901333333333","6501400","蘆洲區"
"247014","546-UM","2018/04/16 20:49:55","新北市蘆洲區三民路95號","121.473838333333","25.0850233333333","6501400","蘆洲區"
"247022","500-BY","2018/04/16 20:49:39","新北市蘆洲區中正路185巷50號","121.467248333333","25.084865","6501400","蘆洲區"
"247012","339-TH","2018/04/16 20:49:42","新北市蘆洲區集賢路222-4號","121.482723333333","25.0868066666667","6501400","蘆洲區"
"247004","337-TH","2018/04/16 20:49:36","新北市蘆洲區長安街100號","121.461903333333","25.08093","6501400","蘆洲區"
"247006","336-TH","2018/04/16 20:49:47","新北市蘆洲區和平路121巷14弄1號","121.466356666667","25.0794183333333","6501400","蘆洲區"
"247008","056-VK","2018/04/16 20:49:48","新北市蘆洲區集賢路269巷13號","121.482038333333","25.0834266666667","6501400","蘆洲區"
"247010","053-VK","2018/04/16 20:49:54","新北市蘆洲區鷺江街76號","121.476978333333","25.0838533333333","6501400","蘆洲區"
"247016","007-UY","2018/04/16 20:49:47","新北市蘆洲區中正路1號","121.471625","25.0815716666667","6501400","蘆洲區"
"247002","002-UY","2018/04/16 20:49:41","新北市蘆洲區長榮路345號","121.459445","25.087645","6501400","蘆洲區"
"247020","001-UY","2018/04/16 20:49:53","新北市蘆洲區仁愛街64號","121.47147","25.0939133333333","6501400","蘆洲區"
"222001","KEA-2212","2018/04/16 20:49:41","新北市深坑區北深路三段160號","121.602585","25.00337","6501800","深坑區"
"251002","012-UM","2018/04/16 20:49:35","新北市淡水區英專路26號","121.445563333333","25.1699933333333","6501000","淡水區"
"251013","179-VK","2018/04/16 20:49:49","新北市淡水區行忠路136號","121.455355","25.19912","6501000","淡水區"
"251014","180-VK","2018/04/16 20:49:44","新北市淡水區公埔子32-8號","121.461635","25.23238","6501000","淡水區"
"251010","413-VK","2018/04/16 20:49:42","新北市淡水區沙崙路145-1號","121.423473333333","25.18315","6501000","淡水區"
"251012","441-VK","2018/04/16 20:49:51","新北市淡水區淡金路四段180號","121.45169","25.22155","6501000","淡水區"
"251016","442-VK","2018/04/16 20:49:53","新北市淡水區興仁路165號","121.451501666667","25.220095","6501000","淡水區"
"251001","559-UM","2018/04/16 20:49:42","新北市淡水區淡金路218號","121.46059","25.16715","6501000","淡水區"
"251007","577-R6","2018/04/16 20:49:40","新北市淡水區學府路102巷51弄9號","121.452665","25.1718733333333","6501000","淡水區"
"251011","650-BX","2018/04/16 20:49:40","新北市淡水區新民街一段13-1號","121.433038333333","25.1845533333333","6501000","淡水區"
"251003","766-UM","2018/04/16 20:49:47","新北市淡水區新興街121巷47號","121.440956666667","25.1796333333333","6501000","淡水區"
"252002","178-VK","2018/04/16 20:49:48","新北市三芝區淡金路二段93號","121.50411","25.2608883333333","6502100","三芝區"
"242034","AAC-296","2018/04/16 20:49:48","新北市新莊區中正路405號","121.445075","25.0344466666667","6500500","新莊區"
"242053","751-BX","2018/04/16 20:49:48","新北市新莊區民安西路231號","121.426106666667","25.0142083333333","6500500","新莊區"
"242027","615-BX","2018/04/16 20:49:40","新北市新莊區環河路48-7號","121.436603333333","25.009705","6500500","新莊區"
"242029","612-BX","2018/04/16 20:49:44","新北市新莊區新泰路207號","121.446941666667","25.0384716666667","6500500","新莊區"
"242042","566-BX","2018/04/16 20:49:40","新北市新莊區天祥街15巷8號","121.416818333333","25.027665","6500500","新莊區"
"242050","441-UM","2018/04/16 20:49:42","新北市新莊區民安西路90-2號","121.426983333333","25.0190716666667","6500500","新莊區"
"242036","415-TV","2018/04/16 20:49:51","新北市新莊區中正路471號","121.44177","25.0337616666667","6500500","新莊區"
"242044","400-BY","2018/04/16 20:49:50","新北市新莊區龍安路108號","121.41833","25.020445","6500500","新莊區"
"242023","362-BY","2018/04/16 20:49:42","新北市新莊區環河路116-1號","121.46064","25.03805","6500500","新莊區"
"242039","133-UY","2018/04/16 20:49:41","新北市新莊區環漢路三段530號","121.43543","25.0019466666667","6500500","新莊區"
"242048","172-VK","2018/04/16 20:49:55","新北市新莊區瓊林南路77-41號","121.437605","25.0131583333333","6500500","新莊區"
"242013","351-TH","2018/04/16 20:49:53","新北市新莊區瓊林路118號","121.44222","25.0255733333333","6500500","新莊區"
"238020","268-VK","2018/04/16 20:29:50","新北市樹林區中山路三段204號","121.386796666667","24.9682066666667","6500700","樹林區"
"221036","130-UY","2018/04/16 20:49:53","新北市汐止區大同路二段312巷11弄1號","121.65605","25.0657233333333","6501100","汐止區"
"221015","131-UY","2018/04/16 20:49:55","新北市汐止區大同路二段605號","121.664018333333","25.070695","6501100","汐止區"
"221027","281-BY","2018/04/16 20:49:51","新北市汐止區大同路二段373號","121.657301666667","25.0672566666667","6501100","汐止區"
"221029","298-VK","2018/04/16 20:49:48","新北市汐止區康寧街777-1號","121.644845","25.0756166666667","6501100","汐止區"
"221021","299-VK","2018/04/16 20:49:50","新北市汐止區新台五路一段188號","121.654958333333","25.0627816666667","6501100","汐止區"
"221035","622-UM","2018/04/16 20:49:39","新北市汐止區康寧街901號","121.651685","25.074925","6501100","汐止區"
"221033","647-BX","2018/04/16 20:49:36","台北市南港區合順街8巷7弄38號","121.620231666667","25.041895","6501100","汐止區"
"221002","707-TV","2018/04/16 20:49:38","新北市汐止區福德二路167號","121.630893333333","25.0651933333333","6501100","汐止區"
"221018","753-BX","2018/04/16 20:49:53","新北市汐止區大同路二段605號","121.664031666667","25.0706866666667","6501100","汐止區"
"242002","KEA-2550","2018/04/16 20:49:53","新北市新莊區中港路五守新村37巷1號","121.454656666667","25.0387633333333","6500500","新莊區"
"242009","281-VK","2018/04/16 20:49:54","新北市新莊區幸福路564巷1弄1號","121.454358333333","25.0495433333333","6500500","新莊區"
"242031","280-VK","2018/04/16 20:49:45","新北市新莊區中正路535-11號","121.437516666667","25.0330066666667","6500500","新莊區"
