"lineid","car","time","location","longitude","latitude","cityid","cityname"
"247010","053-VK","2018/04/16 22:07:13","新北市八里區荖阡坑路34號","121.402191666667","25.1287883333333","6501400","蘆洲區"
"251004","009-UM","2018/04/16 22:09:15","新北市淡水區民族路76號","121.462205","25.1355966666667","6501000","淡水區"
"251008","181-VK","2018/04/16 22:09:17","新北市淡水區學府路104號","121.44986","25.1718283333333","6501000","淡水區"
"251010","413-VK","2018/04/16 22:09:21","新北市淡水區沙崙路200號","121.42461","25.1839","6501000","淡水區"
"251007","577-R6","2018/04/16 22:09:19","新北市淡水區中山北路一段210號","121.44499","25.1797066666667","6501000","淡水區"
"251011","650-BX","2018/04/16 22:09:20","新北市淡水區水碓街7號","121.443165","25.177155","6501000","淡水區"
