"lineid","car","time","location","longitude","latitude","cityid","cityname"
"247005","336-TH","2018/04/16 22:19:47","新北市五股區中興路三段2巷10號","121.449193333333","25.0812283333333","6501400","蘆洲區"
"251004","009-UM","2018/04/16 22:19:54","新北市淡水區民族路110巷12弄3號","121.462066666667","25.1357416666667","6501000","淡水區"
"251008","181-VK","2018/04/16 22:19:37","新北市淡水區學府路104號","121.449848333333","25.1718116666667","6501000","淡水區"
"251010","413-VK","2018/04/16 22:19:41","新北市淡水區沙崙路200號","121.424645","25.18394","6501000","淡水區"
"251007","577-R6","2018/04/16 22:19:40","新北市淡水區下圭柔山91-3號","121.430861666667","25.2095716666667","6501000","淡水區"
"251011","650-BX","2018/04/16 22:19:40","新北市淡水區水碓街7號","121.443188333333","25.17719","6501000","淡水區"
