"lineid","car","time","location","longitude","latitude","cityid","cityname"
"248005","653-BX","2018/04/17 07:09:12","新北市五股區新五路二段119-10號","121.438208333333","25.078865","6501500","五股區"
"232002","290-BY","2018/04/17 07:09:16","新北市坪林區大粗坑30-2號","121.710941666667","24.9668783333333","6502000","坪林區"
"232013","291-BY","2018/04/17 07:09:23","新北市坪林區灣潭3號","121.675635","24.9322166666667","6502000","坪林區"
"244002","248-BX","2018/04/17 07:09:17","新北市林口區文化北路一段370號","121.36249","25.0742083333333","6501700","林口區"
"222004","289-BY","2018/04/17 06:50:23","新北市深坑區深坑街75號","121.614783333333","25.0012716666667","6501800","深坑區"
"235001","611-BX","2018/04/17 07:09:12","新北市中和區圓通路367巷4號","121.491371666667","24.9892183333333","6500300","中和區"
"226005","5620-A6","2018/04/17 07:09:24","新北市平溪區菁桐里菁桐街8號","121.727265","25.0241116666667","6502400","平溪區"
"226002","7418-A5","2018/04/17 07:09:27","新北市平溪區石底里石筍尖13號","121.73517","25.0255566666667","6502400","平溪區"
"226006","AGD-0702","2018/04/17 07:09:14","新北市平溪區靜安路二段520號","121.743985","25.026945","6502400","平溪區"
"223006","022-BY","2018/04/17 07:09:19","新北市石碇區崩山15號","121.67439","24.9712833333333","6501900","石碇區"
"223002","KEA-2673","2018/04/17 07:09:21","新北市石碇區北宜路五段崙尾寮巷8號","121.646056666667","24.9551666666667","6501900","石碇區"
"223001","205-TH","2018/04/17 07:09:27","新北市石碇區溪邊寮1號","121.658323333333","24.9798833333333","6501900","石碇區"
"223008","406-TH","2018/04/17 07:09:11","新北市石碇區頭9號","121.705708333333","25.0020983333333","6501900","石碇區"
"223004","660-BX","2018/04/17 07:09:16","新北市石碇區碇坪路一段10號","121.651663333333","25.0059583333333","6501900","石碇區"
"223007","661-BX","2018/04/17 07:09:05","新北市石碇區番子坑9-2號","121.682925","25.000185","6501900","石碇區"
"223005","677-TV","2018/04/17 07:09:29","新北市石碇區碇坪路一段18號","121.651701666667","25.0058566666667","6501900","石碇區"
"227006","282-VK","2018/04/17 07:09:17","新北市雙溪區新基里自強路5號","121.866348333333","25.03909","6502500","雙溪區"
"252004","249-BX","2018/04/17 07:09:22","新北市三芝區錫板里小坑子11-1號","121.502101666667","25.2363416666667","6502100","三芝區"
"252007","AAC-283","2018/04/17 07:09:22","新北市三芝區錫板里小坑子5-2號","121.495298333333","25.2454983333333","6502100","三芝區"
"236008","165-UM","2018/04/17 07:09:20","新北市土城區中華路二段159號","121.438841666667","24.9756416666667","6501300","土城區"
"236002","339-SR","2018/04/17 07:09:17","新北市土城區南天母路60-3號","121.446843333333","24.9558466666667","6501300","土城區"
"220070","282-UM","2018/04/17 07:05:46","新北市板橋區國光路47號","121.45798","25.0179866666667","6500100","板橋區"
