"lineid","car","time","location","longitude","latitude","cityid","cityname"
"248005","653-BX","2018/06/21 06:59:27","新北市五股區中興路二段83巷26-6號","121.459408333333","25.07538","6501500","五股區"
"232001","290-BY","2018/06/21 06:59:28","新北市坪林區桶盤嶼7-1號","121.709563333333","24.9531266666667","6502000","坪林區"
"232014","291-BY","2018/06/21 06:59:14","新北市坪林區仁里10-2號","121.691865","24.9305933333333","6502000","坪林區"
"232010","375-UM","2018/06/21 06:59:12","新北市坪林區水聳淒坑21號","121.712623333333","24.9320116666667","6502000","坪林區"
"232018","705-BZ","2018/06/21 06:59:12","新北市坪林區坪雙路一段102號","121.721558333333","24.9461616666667","6502000","坪林區"
"232007","758-BX","2018/06/21 06:59:26","新北市坪林區魚堀17-1號","121.703845","24.917455","6502000","坪林區"
"244003","248-BX","2018/06/21 06:59:11","新北市林口區湖南里70-9號","121.376041666667","25.0897883333333","6501700","林口區"
"222004","016-RS","2018/06/21 06:59:22","新北市深坑區北深路一段26號","121.639","25.01045","6501800","深坑區"
"222006","289-BY","2018/06/21 06:59:23","新北市深坑區平埔街22巷19號","121.614598333333","25.0010133333333","6501800","深坑區"
"235001","611-BX","2018/06/21 06:59:20","新北市中和區圓通路367巷4號","121.491408333333","24.989265","6500300","中和區"
"223006","022-BY","2018/06/21 06:59:21","新北市石碇區深按10號","121.658021666667","25.0183966666667","6501900","石碇區"
"223002","KEA-2673","2018/06/21 06:59:10","新北市石碇區烏塗窟48-2號","121.654411666667","24.9704183333333","6501900","石碇區"
"223003","205-TH","2018/06/21 06:59:28","新北市石碇區石碇東街143號","121.658923333333","24.9890683333333","6501900","石碇區"
"223008","406-TH","2018/06/21 06:59:27","新北市石碇區十八重溪84-2號","121.67215","25.0106333333333","6501900","石碇區"
"223001","592-UM","2018/06/21 06:59:22","新北市石碇區石碇西街9號","121.658988333333","24.9906633333333","6501900","石碇區"
"223004","660-BX","2018/06/21 06:59:20","新北市石碇區碇坪路一段52號","121.656873333333","24.9915483333333","6501900","石碇區"
"223007","661-BX","2018/06/21 06:59:18","新北市石碇區十八重溪81-1號","121.672215","25.0107283333333","6501900","石碇區"
"223005","677-TV","2018/06/21 06:59:25","新北市石碇區碇坪路一段58號","121.657078333333","24.9915666666667","6501900","石碇區"
"227007","282-VK","2018/06/21 06:59:31","新北市雙溪區新基里自強路5號","121.866325","25.0390433333333","6502500","雙溪區"
"252005","073-UM","2018/06/21 06:59:28","新北市三芝區中正路三段3號","121.503","25.2542966666667","6502100","三芝區"
"252004","249-BX","2018/06/21 06:59:18","新北市三芝區埔坪里埔頭坑41號","121.504468333333","25.26445","6502100","三芝區"
"252007","AAC-283","2018/06/21 06:59:21","新北市三芝區中興街一段33號","121.497528333333","25.258015","6502100","三芝區"
