"lineid","car","time","location","longitude","latitude","cityid","cityname"
"248005","653-BX","2018/06/21 07:29:27","新北市五股區明德路12巷1號","121.433341666667","25.0717766666667","6501500","五股區"
"232001","290-BY","2018/06/21 07:29:28","新北市坪林區上坑子口11號","121.701721666667","24.9634566666667","6502000","坪林區"
"232014","291-BY","2018/06/21 07:29:14","新北市坪林區金瓜寮23-1號","121.679233333333","24.9113733333333","6502000","坪林區"
"232010","375-UM","2018/06/21 07:29:12","新北市坪林區水聳淒坑29號","121.711246666667","24.9334016666667","6502000","坪林區"
"232018","705-BZ","2018/06/21 07:29:12","新北市坪林區坪雙路二段17號","121.730908333333","24.9665866666667","6502000","坪林區"
"232007","758-BX","2018/06/21 07:29:26","新北市坪林區魚堀36-2號","121.70029","24.9305766666667","6502000","坪林區"
"244003","248-BX","2018/06/21 07:29:31","新北市林口區頂福里71-89號","121.348996666667","25.0838516666667","6501700","林口區"
"222004","016-RS","2018/06/21 07:29:22","新北市深坑區北深路一段26號","121.638985","25.0104333333333","6501800","深坑區"
"222006","289-BY","2018/06/21 07:29:23","新北市深坑區文化街39巷13號","121.61896","25.0010933333333","6501800","深坑區"
"231069","189-VK","2018/06/21 07:29:25","新北市新店區安一路一段1-1號","121.519505","24.961245","6500600","新店區"
"235001","611-BX","2018/06/21 07:29:20","新北市中和區圓通路367巷4號","121.491445","24.9893533333333","6500300","中和區"
"226005","5620-A6","2018/06/21 07:29:14","新北市平溪區靜安路二段149號","121.722838333333","25.0233133333333","6502400","平溪區"
"226007","7418-A5","2018/06/21 07:21:35","新北市平溪區望古里灰4-2號","121.763628333333","25.0291633333333","6502400","平溪區"
"226007","AGD-0702","2018/06/21 07:29:19","新北市平溪區嶺腳里嶺腳寮118號","121.747238333333","25.0305666666667","6502400","平溪區"
"223006","022-BY","2018/06/21 07:29:13","新北市石碇區蚯蚓坑29-1號","121.686161666667","25.01032","6501900","石碇區"
"223002","KEA-2673","2018/06/21 07:24:10","新北市石碇區北宜路五段土巷10號","121.627095","24.9443283333333","6501900","石碇區"
"223003","205-TH","2018/06/21 07:29:28","新北市石碇區中楒子腳2-5號","121.637543333333","24.9725233333333","6501900","石碇區"
"223008","406-TH","2018/06/21 07:25:56","新北市石碇區靜安路一段337號","121.698816666667","25.0146633333333","6501900","石碇區"
"223001","592-UM","2018/06/21 07:29:22","新北市石碇區中楒子腳2-1號","121.63803","24.9723933333333","6501900","石碇區"
"223004","660-BX","2018/06/21 07:29:20","新北市石碇區新興坑33號","121.646913333333","25.0159833333333","6501900","石碇區"
"223007","661-BX","2018/06/21 07:29:18","新北市石碇區大溪墘18號","121.692453333333","25.0082783333333","6501900","石碇區"
"223005","677-TV","2018/06/21 07:29:25","新北市石碇區新興坑30號","121.647666666667","25.0162666666667","6501900","石碇區"
"227007","282-VK","2018/06/21 07:29:11","新北市雙溪區新基里自強路5號","121.86632","25.039055","6502500","雙溪區"
"252005","073-UM","2018/06/21 07:29:28","新北市三芝區中正路三段3號","121.503003333333","25.254295","6502100","三芝區"
"252004","249-BX","2018/06/21 07:29:18","新北市三芝區興華里楓子林55-1號","121.500485","25.214135","6502100","三芝區"
"252007","AAC-283","2018/06/21 07:29:21","新北市三芝區埔頭里埔頭29號","121.494005","25.2631783333333","6502100","三芝區"
"237001","159-UY","2018/06/21 07:29:19","新北市三峽區大義路398號","121.375638333333","24.9494216666667","6500900","三峽區"
"236009","165-UM","2018/06/21 07:29:17","新北市板橋區四川路二段285巷1號","121.450065","24.99244","6501300","土城區"
"236003","339-SR","2018/06/21 07:29:22","新北市土城區忠義路127-5號","121.445373333333","24.96216","6501300","土城區"
"242033","AAC-296","2018/06/21 07:29:24","新北市新莊區新泰路357巷3弄57號","121.442213333333","25.0395833333333","6500500","新莊區"
"242052","751-BX","2018/06/21 07:29:11","新北市新莊區新泰路357巷3弄57號","121.442076666667","25.0392016666667","6500500","新莊區"
"242022","705-TV","2018/06/21 07:29:19","新北市新莊區三和路12-13號","121.442093333333","25.0371433333333","6500500","新莊區"
"242026","615-BX","2018/06/21 07:29:30","新北市新莊區新泰路255巷83號","121.442135","25.038825","6500500","新莊區"
"242028","612-BX","2018/06/21 07:29:23","新北市新莊區三和路18-25號","121.44178","25.0390083333333","6500500","新莊區"
"242035","415-TV","2018/06/21 07:29:14","新北市新莊區新泰路357巷3弄57號","121.442085","25.0393633333333","6500500","新莊區"
"242006","413-TV","2018/06/21 07:29:12","新北市新莊區新泰路357巷3弄57號","121.442068333333","25.0395116666667","6500500","新莊區"
"242043","400-BY","2018/06/21 07:29:12","新北市新莊區新泰路357巷3弄57號","121.44204","25.0392333333333","6500500","新莊區"
"242038","133-UY","2018/06/21 07:29:19","新北市新莊區新泰路255巷83號","121.44204","25.0388416666667","6500500","新莊區"
"242016","175-VK","2018/06/21 07:29:21","新北市新莊區三和路12-21號","121.44202","25.03871","6500500","新莊區"
"242003","176-VK","2018/06/21 07:29:23","新北市新莊區三和路12-21號","121.4419","25.03869","6500500","新莊區"
"242020","348-TH","2018/06/21 07:29:24","新北市新莊區新泰路357巷3弄57號","121.441823333333","25.0397266666667","6500500","新莊區"
"242012","351-TH","2018/06/21 07:29:28","新北市新莊區新泰路357巷3弄57號","121.44233","25.0395633333333","6500500","新莊區"
"242030","280-VK","2018/06/21 07:29:28","新北市新莊區三和路12-21號","121.441958333333","25.0383233333333","6500500","新莊區"
