"lineid","car","time","location","longitude","latitude","cityid","cityname"
"244004","248-BX","2018/11/30 08:39:37","新北市林口區文化北路二段286號","121.373791666667","25.086765","6501700","林口區"
"222005","289-BY","2018/11/30 08:39:33","新北市深坑區深南路158號","121.62503","25.0145616666667","6501800","深坑區"
"231007","189-VK","2018/11/30 08:39:38","新北市新店區小坑二路126巷1號","121.516835","24.912255","6500600","新店區"
"231009","192-VK","2018/11/30 08:39:35","新北市新店區新烏路三段266號","121.55043","24.8998716666667","6500600","新店區"
"235001","611-BX","2018/11/30 08:39:27","新北市中和區民德路135號","121.468873333333","25.0006633333333","6500300","中和區"
"226005","5620-A6","2018/11/30 08:39:23","新北市平溪區南山里南山坪126號","121.786048333333","25.04591","6502400","平溪區"
"226001","7418-A5","2018/11/30 08:39:24","新北市平溪區東勢里火燒寮36-1號","121.768413333333","24.9868016666667","6502400","平溪區"
"226006","AGD-0702","2018/11/30 08:39:28","新北市平溪區靜安路三段369號","121.780705","25.0457866666667","6502400","平溪區"
"223006","022-BY","2018/11/30 08:39:37","新北市石碇區石碇東街141號","121.659185","24.9894116666667","6501900","石碇區"
"223003","205-TH","2018/11/30 08:39:33","新北市石碇區北宜路六段直潭巷12號","121.661615","24.93443","6501900","石碇區"
"223008","406-TH","2018/11/30 08:39:35","新北市石碇區碇南路二段松柏崎巷50號","121.67838","25.02454","6501900","石碇區"
"223004","437-BY","2018/11/30 08:39:37","新北市石碇區崩山47-3號","121.678583333333","24.9699016666667","6501900","石碇區"
"223001","592-UM","2018/11/30 08:39:38","新北市石碇區北宜路六段直潭巷9號","121.661375","24.935535","6501900","石碇區"
"223005","677-TV","2018/11/30 08:39:21","新北市石碇區崩山45號","121.679823333333","24.9676233333333","6501900","石碇區"
"227005","282-VK","2018/11/30 08:39:33","新北市雙溪區外柑里四分子4號","121.841815","24.999945","6502500","雙溪區"
"237001","159-UY","2018/11/30 08:39:36","新北市三峽區大觀路21號","121.375335","24.9441433333333","6500900","三峽區"
