"lineid","car","time","location","longitude","latitude","cityid","cityname"
"234044","148-BY","2018/11/30 12:39:41","新北市永和區秀朗路二段66巷9號","121.522645","25.0013066666667","6500400","永和區"
"234005","207-UY","2018/11/30 12:39:26","新北市永和區環河東路二段90號","121.52443","25.0106233333333","6500400","永和區"
"234078","298-R6","2018/11/30 12:39:39","新北市永和區林森路85號","121.523821666667","25.0037666666667","6500400","永和區"
"234036","336-UY","2018/11/30 12:39:41","新北市永和區福和路1號","121.526636666667","25.0101883333333","6500400","永和區"
"234062","337-UY","2018/11/30 12:39:31","新北市永和區福和路1號","121.526496666667","25.00997","6500400","永和區"
"234015","745-BX","2018/11/30 12:39:44","新北市永和區福和路1號","121.526371666667","25.0097183333333","6500400","永和區"
"234028","746-BX","2018/11/30 12:39:31","新北市永和區成功路一段4號","121.527143333333","25.0054966666667","6500400","永和區"
"234052","KEA-2590","2018/11/30 12:39:34","新北市永和區福和路1號","121.525923333333","25.0093033333333","6500400","永和區"
"234012","KEA-2591","2018/11/30 12:39:41","新北市永和區環河東路二段92號","121.524486666667","25.0105866666667","6500400","永和區"
"234084","748-BX","2018/11/30 12:39:33","新北市中和區安樂路71號","121.512508333333","24.9939716666667","6500400","永和區"
"234040","862-TW","2018/11/30 12:39:25","新北市永和區永貞路267號","121.511781666667","25.0048383333333","6500400","永和區"
"234022","9372-KE","2018/11/30 12:39:36","新北市永和區豫溪街217巷29號","121.524568333333","25.0104883333333","6500400","永和區"
"234025","9371-KE","2018/11/30 12:39:26","新北市永和區中正路748號","121.514831666667","25.010305","6500400","永和區"
"234010","9373-KE","2018/11/30 12:39:25","新北市永和區豫溪街217巷29號","121.524593333333","25.0104166666667","6500400","永和區"
"234076","969-R7","2018/11/30 12:39:43","新北市永和區中正路196號","121.515626666667","24.9971683333333","6500400","永和區"
"234066","AAC-212","2018/11/30 12:39:34","新北市永和區永貞路160號","121.517608333333","25.0044233333333","6500400","永和區"
"234001","AAC-295","2018/11/30 12:39:30","新北市永和區福和路1號","121.526536666667","25.0097566666667","6500400","永和區"
"231005","106-UY","2018/11/30 12:39:39","新北市新店區安華路28-1號","121.519776666667","24.960955","6500600","新店區"
"231035","719-UM","2018/11/30 12:39:30","新北市新店區安一路一段1-1號","121.519565","24.9615533333333","6500600","新店區"
"235029","098-UM","2018/11/30 12:39:27","新北市中和區員山路36巷16-3號","121.485036666667","24.991275","6500300","中和區"
"235031","255-BX","2018/11/30 12:39:40","新北市中和區中正路637巷52弄3號","121.485275","24.9937633333333","6500300","中和區"
"207002","749-BX","2018/11/30 12:39:37","新北市萬里區雙興里太和路7-2號","121.658561666667","25.173995","6502800","萬里區"
"235025","KEA-2875","2018/11/30 12:30:47","新北市中和區員山路36巷16-2號","121.485328333333","24.9917183333333","6500300","中和區"
