"lineid","car","time","location","longitude","latitude","cityid","cityname"
"234044","148-BY","2018/11/30 13:19:41","新北市永和區秀朗路二段84號","121.523266666667","25.0016916666667","6500400","永和區"
"234005","207-UY","2018/11/30 13:19:46","新北市中和區中山路二段6號","121.505151666667","25.0056733333333","6500400","永和區"
"234078","298-R6","2018/11/30 13:19:39","新北市永和區福和路7巷7號","121.525361666667","25.0078783333333","6500400","永和區"
"234036","336-UY","2018/11/30 13:19:41","新北市永和區民樂街45巷1號","121.527463333333","24.999565","6500400","永和區"
"234062","337-UY","2018/11/30 13:19:31","新北市永和區永元路17巷6弄1號","121.521473333333","25.0008216666667","6500400","永和區"
"234068","552-UM","2018/11/30 13:19:33","新北市永和區中正路597號","121.516453333333","25.0093316666667","6500400","永和區"
"234015","745-BX","2018/11/30 13:19:44","新北市永和區環河西路一段87號","121.512305","25.017955","6500400","永和區"
"234028","746-BX","2018/11/30 13:19:36","新北市永和區厚德街91號","121.523883333333","24.99878","6500400","永和區"
"234052","KEA-2590","2018/11/30 13:19:34","新北市永和區中興街39號","121.516311666667","25.01183","6500400","永和區"
"234012","KEA-2591","2018/11/30 13:19:41","新北市永和區信義路39號","121.513295","25.0123383333333","6500400","永和區"
"234060","AAD-866","2018/11/30 13:19:31","新北市永和區秀朗路一段171號","121.51698","25.0038383333333","6500400","永和區"
"234084","748-BX","2018/11/30 13:19:33","新北市永和區永利路86號","121.520676666667","25.0039466666667","6500400","永和區"
"234040","862-TW","2018/11/30 13:19:26","新北市永和區保平路151巷3號","121.510096666667","25.0056183333333","6500400","永和區"
"234048","863-TW","2018/11/30 13:17:19","新北市永和區仁愛路104巷8號","121.512136666667","25.0135583333333","6500400","永和區"
"234022","9372-KE","2018/11/30 13:19:38","新北市永和區竹林路91巷17號","121.520495","25.0124033333333","6500400","永和區"
"234025","9371-KE","2018/11/30 13:19:46","新北市永和區中正路708號","121.515935","25.0099983333333","6500400","永和區"
"234010","9373-KE","2018/11/30 13:19:25","新北市永和區文化路105號","121.51297","25.0152216666667","6500400","永和區"
"248019","225-UY","2018/11/30 13:19:42","新北市五股區孝義路21-4號","121.452753333333","25.10979","6501500","五股區"
"234076","969-R7","2018/11/30 13:19:43","新北市永和區民有街69號","121.51786","24.9957083333333","6500400","永和區"
"234072","AAC-211","2018/11/30 13:19:27","新北市永和區竹林路46號","121.517708333333","25.0143","6500400","永和區"
"234066","AAC-212","2018/11/30 13:19:34","新北市永和區保平路50巷8弄1號","121.510956666667","25.0076066666667","6500400","永和區"
"234001","AAC-295","2018/11/30 13:19:36","新北市永和區中山路一段87號","121.511903333333","25.0106333333333","6500400","永和區"
"232008","758-BX","2018/11/30 13:19:37","新北市坪林區國中路1號","121.712693333333","24.9366516666667","6502000","坪林區"
"244004","248-BX","2018/11/30 13:19:11","新北市林口區頂福10號","121.358656666667","25.0877","6501700","林口區"
"231002","002-UM","2018/11/30 13:19:34","新北市新店區安華路28-1號","121.519716666667","24.9608566666667","6500600","新店區"
"231027","0293-UT","2018/11/30 13:19:38","新北市新店區安一路一段1-1號","121.519685","24.9615716666667","6500600","新店區"
"231028","046-UY","2018/11/30 13:19:30","新北市新店區安華路28-1號","121.519538333333","24.9608316666667","6500600","新店區"
"231001","047-UY","2018/11/30 13:19:32","新北市新店區安華路28-1號","121.51916","24.9609516666667","6500600","新店區"
"231005","106-UY","2018/11/30 13:19:39","新北市新店區安華路28-1號","121.519631666667","24.9608883333333","6500600","新店區"
"231010","107-UY","2018/11/30 13:19:36","新北市新店區安康路一段85號","121.52934","24.96143","6500600","新店區"
"231022","108-UY","2018/11/30 13:19:39","新北市新店區安一路一段1-1號","121.519566666667","24.961085","6500600","新店區"
"231012","187-VK","2018/11/30 13:19:27","新北市新店區安一路一段1-1號","121.519685","24.961275","6500600","新店區"
"231023","KEA-2219","2018/11/30 13:19:31","新北市新店區安一路一段1-1號","121.519835","24.9613133333333","6500600","新店區"
"231026","256-BX","2018/11/30 13:19:27","新北市新店區安一路一段1-1號","121.519558333333","24.9610766666667","6500600","新店區"
"231003","268-BY","2018/11/30 13:19:32","新北市新店區安一路一段1-1號","121.519821666667","24.9611366666667","6500600","新店區"
"231016","AAD-862","2018/11/30 13:19:46","新北市新店區環河路29巷1-1號","121.536038333333","24.9611033333333","6500600","新店區"
"231038","3712-VJ","2018/11/30 13:19:35","新北市新店區安華路28-1號","121.519326666667","24.9606516666667","6500600","新店區"
"231037","4716-K9","2018/11/30 13:19:34","新北市新店區安華路28-1號","121.51981","24.9606966666667","6500600","新店區"
"231025","4715-K9","2018/11/30 13:19:47","新北市新店區中央六街60號","121.52774","24.9758066666667","6500600","新店區"
"231036","512-UM","2018/11/30 13:19:27","新北市新店區安忠路205巷8號","121.509971666667","24.955365","6500600","新店區"
"231013","513-UM","2018/11/30 13:19:35","新北市新店區安一路一段1-1號","121.519606666667","24.961145","6500600","新店區"
"231034","616-UM","2018/11/30 13:19:35","新北市新店區安華路28-1號","121.519443333333","24.960525","6500600","新店區"
"231006","617-UM","2018/11/30 13:19:27","新北市新店區安華路28-1號","121.51943","24.960825","6500600","新店區"
"231030","619-UM","2018/11/30 13:19:37","新北市新店區安華路28-1號","121.519785","24.96085","6500600","新店區"
"231035","719-UM","2018/11/30 13:19:30","新北市新店區安一路一段1-1號","121.519388333333","24.9611666666667","6500600","新店區"
"231018","719-UY","2018/11/30 13:19:37","新北市新店區中央路175-1號","121.534341666667","24.9699383333333","6500600","新店區"
"231032","720-UM","2018/11/30 13:19:38","新北市新店區安一路一段1-1號","121.519163333333","24.9612583333333","6500600","新店區"
"231029","898-TW","2018/11/30 13:19:27","新北市新店區安華路28-1號","121.51943","24.960955","6500600","新店區"
"231004","899-TW","2018/11/30 13:19:43","新北市新店區安華路28-1號","121.519271666667","24.96078","6500600","新店區"
"231024","AKT-0513","2018/11/30 13:19:30","新北市新店區安康路一段3-1號","121.534248333333","24.9607233333333","6500600","新店區"
"235028","005-UY","2018/11/30 13:19:36","新北市中和區圓通路167巷7號","121.498078333333","24.99506","6500300","中和區"
"235027","006-UY","2018/11/30 13:19:44","新北市中和區中正路589巷15號","121.485855","24.9938883333333","6500300","中和區"
"235020","096-UM","2018/11/30 13:19:37","新北市中和區員山路36巷13號","121.484275","24.991405","6500300","中和區"
"235003","097-UM","2018/11/30 13:19:43","新北市中和區安平路29號","121.509291666667","24.9944466666667","6500300","中和區"
"235029","098-UM","2018/11/30 13:19:27","新北市中和區莊敬路49巷20弄20號","121.502645","25.00569","6500300","中和區"
"235004","150-BY","2018/11/30 13:19:43","新北市中和區中正路273號","121.495603333333","24.99366","6500300","中和區"
"235022","151-BY","2018/11/30 13:19:33","新北市中和區圓通路399號","121.489433333333","24.9891433333333","6500300","中和區"
"235019","183-VK","2018/11/30 13:19:45","新北市中和區中正路637巷52弄7號","121.485031666667","24.9937366666667","6500300","中和區"
"235002","185-VK","2018/11/30 13:19:43","新北市中和區大智街111號","121.523428333333","24.992525","6500300","中和區"
"235031","255-BX","2018/11/30 13:19:40","新北市中和區員山路148巷39-4號","121.482516666667","24.9971333333333","6500300","中和區"
"235036","301-VK","2018/11/30 13:19:28","新北市中和區連城路220號","121.491335","24.99649","6500300","中和區"
"235007","352-BY","2018/11/30 13:19:43","新北市中和區中正路271號","121.495885","24.9938333333333","6500300","中和區"
"235014","4979-A6","2018/11/30 13:19:40","新北市中和區捷運路171號","121.505956666667","24.9913083333333","6500300","中和區"
"235033","4980-A6","2018/11/30 13:19:32","新北市中和區圓通路299巷48弄1號","121.495716666667","24.991065","6500300","中和區"
"235034","558-UM","2018/11/30 13:19:39","新北市中和區圓通路83號","121.499873333333","24.9969183333333","6500300","中和區"
"235009","565-BX","2018/11/30 13:19:36","新北市中和區景安路198號","121.504155","24.9913966666667","6500300","中和區"
"235018","640-BX","2018/11/30 13:19:43","新北市中和區民享街86巷8號","121.473985","25.0009483333333","6500300","中和區"
"235024","647-TV","2018/11/30 13:19:42","新北市中和區員山路36巷16-2號","121.485108333333","24.9917733333333","6500300","中和區"
"235011","732-UM","2018/11/30 13:19:40","新北市中和區建八路143號","121.490415","24.9987066666667","6500300","中和區"
"235035","783-BX","2018/11/30 13:19:29","新北市中和區中板路18巷2弄2號","121.483973333333","25.012125","6500300","中和區"
"235026","800-TS","2018/11/30 13:19:39","新北市中和區景平路999巷2號","121.495338333333","25.00601","6500300","中和區"
"235021","801-TS","2018/11/30 13:19:42","新北市中和區民安街111巷4弄3號","121.476345","24.998945","6500300","中和區"
"235005","802-TS","2018/11/30 13:19:28","新北市中和區中和路260-1號","121.508155","24.999395","6500300","中和區"
"235016","805-TS","2018/11/30 13:19:41","新北市中和區南山路389號","121.506411666667","24.9903233333333","6500300","中和區"
"235017","900-TW","2018/11/30 13:19:32","新北市中和區員山路36巷16-2號","121.485043333333","24.991765","6500300","中和區"
"235015","157-BY","2018/11/30 13:19:28","新北市中和區華新街163號","121.506053333333","24.9815566666667","6500300","中和區"
"235001","AAC-213","2018/11/30 13:19:40","新北市中和區景德街84號","121.516373333333","24.99151","6500300","中和區"
"220013","072-UY","2018/11/30 13:19:26","新北市板橋區華東街1-9號","121.448125","24.994935","6500100","板橋區"
"247009","056-VK","2018/11/30 13:19:39","新北市五股區中興路三段2巷10號","121.449336666667","25.0810616666667","6501400","蘆洲區"
"247021","001-UY","2018/11/30 13:19:42","新北市五股區中興路三段163號","121.44898","25.0808566666667","6501400","蘆洲區"
"207002","749-BX","2018/11/30 13:19:36","新北市萬里區崁腳里崁腳路166號","121.645041666667","25.1558133333333","6502800","萬里區"
"207001","662-BX","2018/11/30 13:19:43","新北市萬里區龜吼里玉田路33號","121.680621666667","25.194375","6502800","萬里區"
"242044","566-BX","2018/11/30 13:19:32","新北市新莊區瓊泰路151號","121.443433333333","25.0309833333333","6500500","新莊區"
"242051","172-VK","2018/11/30 13:19:25","新北市新莊區龍安路57號","121.415576666667","25.02184","6500500","新莊區"
"221010","269-BY","2018/11/30 13:19:27","台北市內湖區大湖山莊街157號","121.601436666667","25.0871116666667","6501100","汐止區"
"221018","277-VK","2018/11/30 13:19:34","新北市汐止區新台五路二段652號","121.68185","25.0686283333333","6501100","汐止區"
"221032","280-BY","2018/11/30 13:19:31","新北市汐止區龍安路202巷14號","121.65287","25.063255","6501100","汐止區"
"221033","647-BX","2018/11/30 13:19:38","新北市汐止區新台五路一段260-3號","121.658038333333","25.0642416666667","6501100","汐止區"
"220025","687-BX","2018/11/30 13:19:43","新北市板橋區華東街1-10號","121.448266666667","24.9949766666667","6500100","板橋區"
"235032","KEA-2873","2018/11/30 13:19:14","新北市中和區員山路36巷16-3號","121.48511","24.9913816666667","6500300","中和區"
"235025","KEA-2875","2018/11/30 13:19:26","新北市中和區國光街215巷24弄8號","121.466526666667","25.000105","6500300","中和區"
