"lineid","car","time","location","longitude","latitude","cityid","cityname"
"234044","148-BY","2018/11/30 13:59:41","新北市永和區永亨路165巷1-6號","121.526001666667","25.0040183333333","6500400","永和區"
"234005","207-UY","2018/11/30 13:59:26","新北市中和區中和路296-1號","121.508851666667","24.9996383333333","6500400","永和區"
"234078","298-R6","2018/11/30 13:59:41","新北市永和區永亨路98號","121.522971666667","25.0046633333333","6500400","永和區"
"234036","336-UY","2018/11/30 13:59:41","新北市永和區成功路二段46號","121.526646666667","25.000095","6500400","永和區"
"234062","337-UY","2018/11/30 13:59:39","新北市永和區中正路368巷1弄45號","121.519223333333","25.00105","6500400","永和區"
"234068","552-UM","2018/11/30 13:59:33","新北市永和區國光路16號","121.518983333333","25.00833","6500400","永和區"
"234015","745-BX","2018/11/30 13:59:44","新北市永和區文化路14號","121.515425","25.0150383333333","6500400","永和區"
"234028","746-BX","2018/11/30 13:59:31","新北市永和區民生路47巷46號","121.525026666667","24.997735","6500400","永和區"
"234052","KEA-2590","2018/11/30 13:59:39","新北市永和區竹林路39巷33弄1號","121.519986666667","25.0152116666667","6500400","永和區"
"234012","KEA-2591","2018/11/30 13:59:41","新北市永和區保生路55號","121.504641666667","25.0099216666667","6500400","永和區"
"234060","AAD-866","2018/11/30 13:59:43","新北市永和區中正路283巷57號","121.515711666667","24.9989933333333","6500400","永和區"
"234084","748-BX","2018/11/30 13:59:33","新北市永和區福和路174號","121.521015","25.00777","6500400","永和區"
"234040","862-TW","2018/11/30 13:59:46","新北市永和區中和路421巷5弄19號","121.508436666667","25.0007983333333","6500400","永和區"
"234048","863-TW","2018/11/30 13:59:38","新北市永和區保安路292號","121.505083333333","25.0119083333333","6500400","永和區"
"234022","9372-KE","2018/11/30 13:59:36","新北市永和區永和路二段233號","121.515581666667","25.0141916666667","6500400","永和區"
"234025","9371-KE","2018/11/30 13:59:27","新北市永和區安樂路467號","121.514333333333","25.0054916666667","6500400","永和區"
"234010","9373-KE","2018/11/30 13:59:45","新北市永和區仁愛路352巷124號","121.500281666667","25.0086166666667","6500400","永和區"
"248019","225-UY","2018/11/30 13:59:42","新北市五股區中直路崩山巷9-1號","121.419678333333","25.1221783333333","6501500","五股區"
"234076","969-R7","2018/11/30 13:59:43","新北市永和區民族街43巷11號","121.518946666667","24.99842","6500400","永和區"
"234072","AAC-211","2018/11/30 13:59:43","新北市永和區豫溪街155號","121.521318333333","25.0104","6500400","永和區"
"234066","AAC-212","2018/11/30 13:59:35","新北市永和區永貞路354號","121.5103","25.0064133333333","6500400","永和區"
"234001","AAC-295","2018/11/30 13:59:30","新北市永和區福和路316號","121.516061666667","25.00736","6500400","永和區"
"232008","758-BX","2018/11/30 13:59:37","新北市樹林區佳園路二段41號","121.391618333333","24.9625516666667","6502000","坪林區"
"244004","248-BX","2018/11/30 13:59:31","新北市林口區文化二路二段105號","121.378045","25.0805833333333","6501700","林口區"
"231002","002-UM","2018/11/30 13:59:34","新北市新店區中正路616號","121.534013333333","24.9886616666667","6500600","新店區"
"231027","0293-UT","2018/11/30 13:59:38","新北市新店區中興路一段24-2號","121.538615","24.9581716666667","6500600","新店區"
"231028","046-UY","2018/11/30 13:59:30","新北市新店區安和路三段22-3號","121.51796","24.9814516666667","6500600","新店區"
"231001","047-UY","2018/11/30 13:59:32","新北市新店區三民路45號","121.537135","24.970925","6500600","新店區"
"231005","106-UY","2018/11/30 13:59:43","新北市新店區中興路三段216號","121.5436","24.9824466666667","6500600","新店區"
"231010","107-UY","2018/11/30 13:59:36","新北市新店區安康路一段24巷2號","121.532756666667","24.96045","6500600","新店區"
"231022","108-UY","2018/11/30 13:59:39","新北市新店區自強路74巷8號","121.545608333333","24.924995","6500600","新店區"
"231012","187-VK","2018/11/30 13:59:46","新北市新店區中興路二段57巷24號","121.545538333333","24.9710283333333","6500600","新店區"
"231023","KEA-2219","2018/11/30 13:59:31","新北市新店區文中路45號","121.539593333333","24.9566416666667","6500600","新店區"
"231026","256-BX","2018/11/30 13:59:27","新北市新店區安康路一段351-1號","121.51963","24.963515","6500600","新店區"
"231003","268-BY","2018/11/30 13:59:32","新北市新店區中興路一段49號","121.539493333333","24.96014","6500600","新店區"
"231016","AAD-862","2018/11/30 13:59:26","新北市新店區郵政路1巷6號","121.557345","24.9521","6500600","新店區"
"231038","3712-VJ","2018/11/30 13:59:35","新北市新店區安華路30巷1號","121.51954","24.9592733333333","6500600","新店區"
"231037","4716-K9","2018/11/30 13:59:34","新北市新店區安康路三段355巷6號","121.484806666667","24.9504766666667","6500600","新店區"
"231025","4715-K9","2018/11/30 13:59:27","新北市新店區中正路328巷42弄14號","121.53855","24.9758683333333","6500600","新店區"
"231036","512-UM","2018/11/30 13:59:27","新北市新店區安祥路109巷3弄5號","121.478165","24.9613333333333","6500600","新店區"
"231013","513-UM","2018/11/30 13:59:35","新北市新店區明德路111號","121.54151","24.9794566666667","6500600","新店區"
"231034","616-UM","2018/11/30 13:59:36","新北市新店區達觀路40號","121.503038333333","24.9388116666667","6500600","新店區"
"231006","617-UM","2018/11/30 13:59:47","新北市新店區北宜路二段211號","121.55319","24.9534133333333","6500600","新店區"
"231030","619-UM","2018/11/30 13:59:37","新北市新店區安康路一段222-3號","121.522511666667","24.9638183333333","6500600","新店區"
"231035","719-UM","2018/11/30 13:58:11","新北市新店區安康路二段106號","121.513451666667","24.9629266666667","6500600","新店區"
"231018","719-UY","2018/11/30 13:59:44","新北市新店區中央路133巷27弄2號","121.53189","24.9733666666667","6500600","新店區"
"231032","720-UM","2018/11/30 13:59:38","新北市新店區莒光路44巷21弄11-6號","121.51849","24.9522216666667","6500600","新店區"
"231029","898-TW","2018/11/30 13:59:43","新北市新店區安康路二段12號","121.516303333333","24.9638133333333","6500600","新店區"
"231004","899-TW","2018/11/30 13:59:43","新北市新店區北新路二段137號","121.542838333333","24.97562","6500600","新店區"
"231024","AKT-0513","2018/11/30 13:59:30","新北市新店區安和路三段4巷3號","121.518525","24.98086","6500600","新店區"
"235030","003-UY","2018/11/30 13:59:38","新北市中和區水源路7巷29號","121.504111666667","25.0039216666667","6500300","中和區"
"235028","005-UY","2018/11/30 13:59:36","新北市中和區泰和街36號","121.49925","25.0002366666667","6500300","中和區"
"235027","006-UY","2018/11/30 13:59:44","新北市中和區連城路268-6號","121.486363333333","24.9963116666667","6500300","中和區"
"235020","096-UM","2018/11/30 13:59:37","新北市中和區中正路1206巷3號","121.480225","25.0109983333333","6500300","中和區"
"235003","097-UM","2018/11/30 13:59:31","新北市中和區秀朗路三段179號","121.524528333333","24.99096","6500300","中和區"
"235029","098-UM","2018/11/30 13:59:37","新北市中和區莊敬路35號","121.500705","25.0048883333333","6500300","中和區"
"235004","150-BY","2018/11/30 13:59:43","新北市中和區宜安路63號","121.511366666667","24.996975","6500300","中和區"
"235022","151-BY","2018/11/30 13:59:33","新北市中和區員山路77巷7號","121.480226666667","24.994305","6500300","中和區"
"235019","183-VK","2018/11/30 13:59:45","新北市中和區德光路85號","121.469168333333","25.0036133333333","6500300","中和區"
"235002","185-VK","2018/11/30 13:59:43","新北市中和區立人街24-4號","121.518838333333","24.99427","6500300","中和區"
"235013","186-VK","2018/11/30 13:59:35","新北市中和區景安路163號","121.505466666667","24.9945833333333","6500300","中和區"
"235031","255-BX","2018/11/30 13:59:40","新北市中和區中正路685號","121.484945","24.9981483333333","6500300","中和區"
"235044","293-VK","2018/11/30 13:59:41","新北市中和區中興街163號","121.500035","24.990815","6500300","中和區"
"235036","301-VK","2018/11/30 13:59:28","新北市中和區中山路二段108號","121.503126666667","25.0039916666667","6500300","中和區"
"235007","352-BY","2018/11/30 13:59:43","新北市中和區景平路2號","121.524691666667","24.99053","6500300","中和區"
"235006","KEA-2878","2018/11/30 13:59:28","新北市中和區秀朗路三段10巷21弄8號","121.525173333333","24.9960283333333","6500300","中和區"
"247011","KEA-2869","2018/11/30 13:59:34","新北市蘆洲區中興街18號","121.480573333333","25.0868583333333","6501400","蘆洲區"
"235014","4979-A6","2018/11/30 13:59:40","新北市中和區忠孝街1號","121.508936666667","24.9830066666667","6500300","中和區"
"235033","4980-A6","2018/11/30 13:59:33","新北市中和區圓通路109巷1弄1號","121.499628333333","24.9964966666667","6500300","中和區"
"235034","558-UM","2018/11/30 13:59:39","新北市中和區中和路174號","121.504801666667","24.9997416666667","6500300","中和區"
"235009","565-BX","2018/11/30 13:59:36","新北市中和區景新街467巷20弄156號","121.514915","24.9876183333333","6500300","中和區"
"235018","640-BX","2018/11/30 13:59:43","新北市中和區國光街107巷2弄32號","121.46925","24.9989633333333","6500300","中和區"
"235024","647-TV","2018/11/30 13:59:42","新北市中和區民治街13巷2號","121.475255","25.003965","6500300","中和區"
"235011","732-UM","2018/11/30 13:59:40","新北市中和區興南路二段94號","121.505273333333","24.9842983333333","6500300","中和區"
"235010","733-UM","2018/11/30 13:59:30","新北市中和區興南路一段135巷17號","121.509341666667","24.9870516666667","6500300","中和區"
"235035","783-BX","2018/11/30 13:59:46","新北市中和區立德街98巷117號","121.488836666667","25.007995","6500300","中和區"
"235026","800-TS","2018/11/30 13:59:38","新北市中和區橋安街18號","121.492843333333","25.0051033333333","6500300","中和區"
"235021","801-TS","2018/11/30 13:59:42","新北市中和區民利街58巷5弄15號","121.477956666667","24.99923","6500300","中和區"
"235005","802-TS","2018/11/30 13:59:28","新北市中和區永貞路239巷22號","121.512541666667","25.0031033333333","6500300","中和區"
"235016","805-TS","2018/11/30 13:59:41","新北市中和區興南路二段399巷66號","121.499801666667","24.9785466666667","6500300","中和區"
"235012","896-TW","2018/11/30 13:59:28","新北市中和區華新街61號","121.507998333333","24.9842116666667","6500300","中和區"
"235017","900-TW","2018/11/30 13:59:31","新北市中和區民德路360號","121.466053333333","24.9939133333333","6500300","中和區"
"235015","157-BY","2018/11/30 13:59:28","新北市中和區仁愛街36巷46號","121.511296666667","24.98619","6500300","中和區"
"235001","AAC-213","2018/11/30 13:59:40","新北市中和區秀朗路三段10巷37弄4號","121.524133333333","24.9960533333333","6500300","中和區"
"235023","AAC-215","2018/11/30 13:59:46","新北市中和區圓通路367巷20弄23號","121.491495","24.9883516666667","6500300","中和區"
"220016","013-TV","2018/11/30 13:59:36","新北市板橋區中山路二段443巷56號","121.481086666667","25.0216816666667","6500100","板橋區"
"220013","072-UY","2018/11/30 13:59:26","新北市板橋區漢生東路323號","121.471935","25.0079016666667","6500100","板橋區"
"220034","073-UY","2018/11/30 13:59:42","新北市板橋區中正路236巷16號","121.45644","25.0191266666667","6500100","板橋區"
"220105","075-UY","2018/11/30 13:59:43","新北市板橋區莒光路33號","121.470378333333","25.024525","6500100","板橋區"
"220017","AAD-861","2018/11/30 13:59:42","新北市板橋區華興街72號","121.457313333333","25.0049833333333","6500100","板橋區"
"247001","893-R6","2018/11/30 13:59:45","新北市蘆洲區永平街32巷70號","121.460408333333","25.0934083333333","6501400","蘆洲區"
"247015","546-UM","2018/11/30 13:59:27","新北市蘆洲區光華路43號","121.468836666667","25.0830333333333","6501400","蘆洲區"
"247005","337-TH","2018/11/30 13:59:29","新北市蘆洲區永安南路二段32號","121.46715","25.0771816666667","6501400","蘆洲區"
"247007","336-TH","2018/11/30 13:59:37","新北市三重區三和路四段237號","121.480878333333","25.08025","6501400","蘆洲區"
"247019","057-VK","2018/11/30 13:59:38","新北市蘆洲區民族路422巷29號","121.47343","25.0933983333333","6501400","蘆洲區"
"247009","056-VK","2018/11/30 13:59:39","新北市蘆洲區集賢路224巷27號","121.481673333333","25.0870766666667","6501400","蘆洲區"
"247017","007-UY","2018/11/30 13:59:35","新北市蘆洲區民族路327巷93號","121.47578","25.0889966666667","6501400","蘆洲區"
"247003","002-UY","2018/11/30 13:59:40","新北市蘆洲區長安街98巷14號","121.46277","25.081615","6501400","蘆洲區"
"247021","001-UY","2018/11/30 13:59:42","新北市蘆洲區中正路263巷2號","121.46736","25.087445","6501400","蘆洲區"
"207002","749-BX","2018/11/30 13:59:36","新北市萬里區溪底里溪底路8號","121.623636666667","25.1487466666667","6502800","萬里區"
"207001","662-BX","2018/11/30 13:59:23","新北市萬里區磺潭里公館崙52-3號","121.628356666667","25.2062633333333","6502800","萬里區"
"236067","105-UM","2018/11/30 13:59:33","新北市土城區和平路54號","121.445183333333","24.96928","6501300","土城區"
"236040","KED-0685","2018/11/30 13:59:40","新北市土城區城林路6巷80號","121.438463333333","24.9797466666667","6501300","土城區"
"236077","166-UM","2018/11/30 13:59:45","新北市土城區永寧路32巷10弄83號","121.428238333333","24.96154","6501300","土城區"
"236029","253-BX","2018/11/30 13:59:28","新北市土城區興城路79號","121.439825","24.9707683333333","6501300","土城區"
"236024","269-VK","2018/11/30 13:59:46","新北市土城區承天路18號","121.439523333333","24.9634633333333","6501300","土城區"
"236013","270-VK","2018/11/30 13:59:25","新北市土城區城林路6巷80號","121.438486666667","24.9797666666667","6501300","土城區"
"236032","271-VK","2018/11/30 13:59:42","新北市土城區城林路6巷80號","121.438458333333","24.9798","6501300","土城區"
"236016","752-BX","2018/11/30 13:59:44","新北市土城區城林路6巷80號","121.4384","24.979855","6501300","土城區"
"236057","912-UM","2018/11/30 13:59:38","新北市土城區中央路三段280號","121.42677","24.9636583333333","6501300","土城區"
"236045","913-UM","2018/11/30 13:59:44","新北市土城區城林路6巷80號","121.438458333333","24.9797783333333","6501300","土城區"
"236060","915-UM","2018/11/30 13:59:47","新北市土城區城林路6巷80號","121.438478333333","24.9797133333333","6501300","土城區"
"236054","970-R7","2018/11/30 13:59:27","新北市土城區城林路6巷80號","121.438823333333","24.9796383333333","6501300","土城區"
"242044","566-BX","2018/11/30 13:59:32","新北市新莊區民安西路88巷5弄4號","121.425945","25.019675","6500500","新莊區"
"242051","172-VK","2018/11/30 13:59:45","新北市新莊區新泰路357巷2號","121.442376666667","25.041565","6500500","新莊區"
"221010","269-BY","2018/11/30 13:59:46","新北市汐止區長青路210巷188號","121.61628","25.1132916666667","6501100","汐止區"
"221018","277-VK","2018/11/30 13:59:34","新北市汐止區新台五路二段148號","121.664161666667","25.0666566666667","6501100","汐止區"
"221033","647-BX","2018/11/30 13:59:38","新北市新店區薏仁坑路10-1號","121.499226666667","24.95897","6501100","汐止區"
"220027","145-BY","2018/11/30 13:59:40","新北市板橋區民權路202巷9弄20號","121.459658333333","25.0156016666667","6500100","板橋區"
"220028","200-UY","2018/11/30 13:59:41","新北市板橋區合宜路5號","121.445553333333","24.9954433333333","6500100","板橋區"
"220030","610-BX","2018/11/30 13:59:46","新北市板橋區溪北路29號","121.427148333333","24.990225","6500100","板橋區"
"220050","245-BX","2018/11/30 13:59:41","新北市板橋區莊敬路66號","121.47174","25.0253633333333","6500100","板橋區"
"220004","276-BY","2018/11/30 13:59:33","新北市板橋區信義路152號","121.458963333333","24.9917383333333","6500100","板橋區"
"220020","277-BY","2018/11/30 13:59:46","新北市板橋區金門街369巷13號","121.42889","24.9845416666667","6500100","板橋區"
"220019","283-VK","2018/11/30 13:59:31","新北市板橋區重慶路245巷32弄21號","121.465245","25.00026","6500100","板橋區"
"220043","285-UM","2018/11/30 13:59:34","新北市板橋區文化路二段28號","121.469125","25.0250416666667","6500100","板橋區"
"220001","285-VK","2018/11/30 13:59:38","新北市板橋區中山路二段89巷49號","121.47357","25.0173516666667","6500100","板橋區"
"220031","286-VK","2018/11/30 13:59:46","新北市板橋區龍興街99巷27-1號","121.44347","25.003365","6500100","板橋區"
"220029","287-VK","2018/11/30 13:59:30","新北市板橋區光華街44巷2-1號","121.453736666667","25.0129283333333","6500100","板橋區"
"220039","288-VK","2018/11/30 13:59:36","新北市板橋區四維路221號","121.46309","25.0271066666667","6500100","板橋區"
"220009","295-UM","2018/11/30 13:59:43","新北市板橋區懷仁街85巷8號","121.477746666667","25.0186683333333","6500100","板橋區"
"220032","296-UM","2018/11/30 13:59:29","新北市板橋區大觀路三段50巷49號","121.432246666667","24.995835","6500100","板橋區"
"220041","299-UM","2018/11/30 13:59:25","新北市板橋區漢生東路21-1號","121.46506","25.0171416666667","6500100","板橋區"
"220023","303-R5","2018/11/30 13:59:42","新北市板橋區館前西路269號","121.453531666667","25.0087366666667","6500100","板橋區"
"220010","305-R5","2018/11/30 13:59:30","新北市板橋區三民路二段245巷45號","121.480575","25.01257","6500100","板橋區"
"220047","317-R6","2018/11/30 13:59:45","新北市板橋區四維路112巷33號","121.465288333333","25.02579","6500100","板橋區"
"220038","487-VK","2018/11/30 13:59:30","新北市板橋區文聖街20號","121.475925","25.0319016666667","6500100","板橋區"
"220037","491-VK","2018/11/30 13:59:33","新北市板橋區莒光路48-1號","121.470645","25.0243366666667","6500100","板橋區"
"220104","560-BX","2018/11/30 13:59:33","新北市板橋區中正路341巷37號","121.453991666667","25.0197333333333","6500100","板橋區"
"220052","561-BX","2018/11/30 13:59:37","新北市板橋區民生路二段121號","121.470893333333","25.0184","6500100","板橋區"
"220011","609-BX","2018/11/30 13:59:45","新北市板橋區中山路二段303號","121.478658333333","25.0184483333333","6500100","板橋區"
"220040","637-BX","2018/11/30 13:59:37","新北市板橋區萬板路456號","121.479105","25.0257616666667","6500100","板橋區"
"220005","686-BX","2018/11/30 13:59:41","新北市板橋區重慶路199-1號","121.462886666667","25.0017466666667","6500100","板橋區"
"220025","687-BX","2018/11/30 13:59:44","新北市板橋區龍興街99巷2號","121.444331666667","25.00299","6500100","板橋區"
"220042","689-BX","2018/11/30 13:59:39","新北市板橋區民生路三段204號","121.464973333333","25.0296516666667","6500100","板橋區"
"220002","741-BX","2018/11/30 13:59:31","新北市板橋區重慶路127巷8號","121.463153333333","25.0048316666667","6500100","板橋區"
"220051","KEA-2699","2018/11/30 13:59:45","新北市板橋區懷德街235巷2-1號","121.481365","25.0281683333333","6500100","板橋區"
"220012","806-UM","2018/11/30 13:59:39","新北市板橋區板新路121巷1號","121.471285","25.0149866666667","6500100","板橋區"
"220003","827-TW","2018/11/30 13:59:41","新北市板橋區中山路一段158巷27-4號","121.466506666667","25.01114","6500100","板橋區"
"220014","830-TW","2018/11/30 13:59:44","新北市板橋區三民路二段正隆巷12弄6號","121.478138333333","25.0130483333333","6500100","板橋區"
"220045","831-TW","2018/11/30 13:59:36","新北市板橋區莒光路69號","121.471423333333","25.0242016666667","6500100","板橋區"
"220022","895-R6","2018/11/30 13:59:34","新北市板橋區南雅南路一段106號","121.45494","25.0043933333333","6500100","板橋區"
"220021","985-R7","2018/11/30 13:59:34","新北市板橋區中正路42號","121.456446666667","25.01388","6500100","板橋區"
"220046","AAC-210","2018/11/30 13:59:36","新北市板橋區文化路一段90號","121.464256666667","25.0176566666667","6500100","板橋區"
"220018","AAC-253","2018/11/30 13:59:31","新北市板橋區四川路一段373號","121.458231666667","24.9995433333333","6500100","板橋區"
"235032","KEA-2873","2018/11/30 13:59:43","新北市中和區連勝街38巷7號","121.497721666667","24.997905","6500300","中和區"
"235025","KEA-2875","2018/11/30 13:59:26","新北市中和區員山路469巷1號","121.48025","25.0044683333333","6500300","中和區"
