"lineid","car","time","location","longitude","latitude","cityid","cityname"
"234054","KEA-2590","2018/11/30 15:16:00","新北市永和區福和路1號","121.526171666667","25.009455","6500400","永和區"
"232008","758-BX","2018/11/30 15:29:44","新北市深坑區文山路一段10號","121.64298","25.0086366666667","6502000","坪林區"
"244004","248-BX","2018/11/30 15:26:40","新北市林口區粉寮路二段160巷28號","121.4052","25.0907","6501700","林口區"
"231002","002-UM","2018/11/30 15:29:33","新北市新店區環河路152號","121.535201666667","24.9670116666667","6500600","新店區"
"231028","046-UY","2018/11/30 15:29:38","新北市新店區僑信路70號","121.499476666667","24.9489266666667","6500600","新店區"
"231005","106-UY","2018/11/30 15:29:38","新北市新店區建國路293巷2號","121.537018333333","24.9858366666667","6500600","新店區"
"231022","108-UY","2018/11/30 15:29:39","新北市新店區永福路61號","121.557733333333","24.9289066666667","6500600","新店區"
"231012","187-VK","2018/11/30 15:29:46","新北市新店區寶慶街8號","121.54367","24.9875483333333","6500600","新店區"
"231023","KEA-2219","2018/11/30 15:29:31","新北市新店區北新路一段96巷23號","121.542855","24.9688333333333","6500600","新店區"
"231026","256-BX","2018/11/30 15:29:31","新北市新店區三民路117巷6弄1號","121.534115","24.971145","6500600","新店區"
"231003","268-BY","2018/11/30 15:29:32","新北市新店區寶高路120巷1號","121.554621666667","24.9761133333333","6500600","新店區"
"231016","AAD-862","2018/11/30 15:29:46","新北市新店區明山路45號","121.563753333333","24.955915","6500600","新店區"
"231038","3712-VJ","2018/11/30 15:29:35","新北市新店區安華路28-1號","121.519723333333","24.9610383333333","6500600","新店區"
"231037","4716-K9","2018/11/30 15:29:39","新北市新店區安興路91巷16號","121.512823333333","24.975355","6500600","新店區"
"231025","4715-K9","2018/11/30 15:29:47","新北市新店區薏仁坑路22號","121.498633333333","24.9591383333333","6500600","新店區"
"231036","512-UM","2018/11/30 15:29:27","新北市新店區安祥路69巷89弄45號","121.4827","24.9619866666667","6500600","新店區"
"231034","616-UM","2018/11/30 15:29:35","新北市新店區玫瑰路28號","121.495111666667","24.9502683333333","6500600","新店區"
"231030","619-UM","2018/11/30 15:29:37","新北市新店區安和路三段61號","121.517946666667","24.983375","6500600","新店區"
"231039","718-UY","2018/11/30 15:29:48","新北市新店區寶元路一段52號","121.543871666667","24.9847216666667","6500600","新店區"
"231035","719-UM","2018/11/30 15:29:30","新北市新店區安興路83-8號","121.515315","24.975665","6500600","新店區"
"231018","719-UY","2018/11/30 15:29:37","新北市新店區民生路132號","121.529181666667","24.98158","6500600","新店區"
"231032","720-UM","2018/11/30 15:29:38","新北市新店區安泰路19巷1號","121.485388333333","24.9496616666667","6500600","新店區"
"231029","898-TW","2018/11/30 15:29:27","新北市新店區安康路三段571巷5-1號","121.47537","24.9430683333333","6500600","新店區"
"231004","899-TW","2018/11/30 15:29:43","新北市新店區民族路108號","121.53797","24.9772183333333","6500600","新店區"
"241011","013-R5","2018/11/30 15:29:40","新北市三重區長元街105號","121.504596666667","25.0667466666667","6500200","三重區"
"241015","062-VK","2018/11/30 15:29:28","新北市三重區重新路四段121號","121.485035","25.0520016666667","6500200","三重區"
"241017","063-VK","2018/11/30 15:29:40","新北市三重區重新路四段121號","121.484753333333","25.05199","6500200","三重區"
"241013","270-UM","2018/11/30 15:29:41","新北市三重區忠孝路二段34號","121.485783333333","25.0709783333333","6500200","三重區"
"241007","398-BY","2018/11/30 15:29:31","新北市三重區重新路四段121號","121.484968333333","25.0519433333333","6500200","三重區"
"241033","557-UM","2018/11/30 15:00:49","新北市三重區重新路四段121號","121.484626666667","25.05224","6500200","三重區"
"247011","KEA-2869","2018/11/30 15:28:54","新北市八里區荖阡坑路34號","121.402731666667","25.1281933333333","6501400","蘆洲區"
"235014","4979-A6","2018/11/30 15:29:40","新北市中和區景平路385巷11號","121.502411666667","24.9941966666667","6500300","中和區"
"235033","4980-A6","2018/11/30 15:29:32","新北市中和區連城路347巷41號","121.488586666667","24.99481","6500300","中和區"
"235054","640-BX","2018/11/30 15:29:37","新北市中和區員山路36巷16-3號","121.484991666667","24.9918466666667","6500300","中和區"
"235005","802-TS","2018/11/30 15:29:28","新北市中和區和城路一段271巷1號","121.485458333333","24.9919816666667","6500300","中和區"
"235023","AAC-215","2018/11/30 15:29:46","新北市中和區員山路36號","121.482841666667","24.9879033333333","6500300","中和區"
"220016","120-SR","2018/11/30 15:29:28","新北市樹林區中山路三段214號","121.379578333333","24.967555","6500100","板橋區"
"236067","105-UM","2018/11/30 15:29:33","新北市土城區裕民路185巷36弄10號","121.45431","24.9844816666667","6501300","土城區"
"236040","KED-0685","2018/11/30 15:29:40","新北市土城區學府路一段164巷21號","121.453458333333","24.9874416666667","6501300","土城區"
"236077","166-UM","2018/11/30 15:29:45","新北市土城區福安街112號","121.417121666667","24.9638666666667","6501300","土城區"
"236029","253-BX","2018/11/30 15:29:48","新北市土城區中央路一段118巷1弄22號","121.445545","24.987515","6501300","土城區"
"236024","269-VK","2018/11/30 15:29:46","新北市土城區中央路一段258號","121.44425","24.9842533333333","6501300","土城區"
"236013","270-VK","2018/11/30 15:29:45","新北市土城區德興街137號","121.455168333333","24.9917216666667","6501300","土城區"
"236032","271-VK","2018/11/30 15:29:42","新北市土城區延吉街280號","121.465293333333","24.9843183333333","6501300","土城區"
"236016","752-BX","2018/11/30 15:29:43","新北市土城區延吉街62號","121.471385","24.9867816666667","6501300","土城區"
"236057","912-UM","2018/11/30 15:29:38","新北市土城區中央路一段260-3號","121.444018333333","24.9839333333333","6501300","土城區"
"236045","913-UM","2018/11/30 15:29:44","新北市土城區金城路二段396號","121.46376","24.9857833333333","6501300","土城區"
"236054","970-R7","2018/11/30 15:29:27","新北市土城區金城路三段193-1號","121.469991666667","24.9890033333333","6501300","土城區"
"221018","277-VK","2018/11/30 15:29:34","新北市汐止區中興路181-1號","121.63035","25.0668566666667","6501100","汐止區"
"220050","245-BX","2018/11/30 15:29:41","新北市板橋區漢生東路83巷1號","121.466541666667","25.0159233333333","6500100","板橋區"
"220031","286-VK","2018/11/30 15:29:37","新北市板橋區僑中二街152號","121.444943333333","25.0043233333333","6500100","板橋區"
"220038","487-VK","2018/11/30 15:29:40","新北市板橋區四維路274號","121.463145","25.0286533333333","6500100","板橋區"
"220052","561-BX","2018/11/30 15:29:36","新北市板橋區漢生東路33巷9號","121.465641666667","25.01727","6500100","板橋區"
