"lineid","car","time","location","longitude","latitude","cityid","cityname"
"232008","758-BX","2018/11/30 15:49:44","新北市坪林區水柳腳16號","121.710753333333","24.9350516666667","6502000","坪林區"
"244004","248-BX","2018/11/30 15:26:40","新北市林口區粉寮路二段160巷28號","121.4052","25.0907","6501700","林口區"
"231001","047-UY","2018/11/30 15:49:32","新北市新店區薏仁坑路自強巷6號","121.496455","24.9583966666667","6500600","新店區"
"231046","107-UY","2018/11/30 15:49:36","新北市新店區安一路一段1-1號","121.519831666667","24.96116","6500600","新店區"
"231022","108-UY","2018/11/30 15:49:39","新北市新店區新烏路一段87巷3號","121.546211666667","24.9418766666667","6500600","新店區"
"231012","187-VK","2018/11/30 15:49:46","新北市新店區文化路39號","121.543946666667","24.9801866666667","6500600","新店區"
"231023","KEA-2219","2018/11/30 15:49:31","新北市新店區北新路一段219號","121.540515","24.9652233333333","6500600","新店區"
"231026","256-BX","2018/11/30 15:49:31","新北市新店區中正路546號","121.53353","24.9864883333333","6500600","新店區"
"231003","268-BY","2018/11/30 15:49:32","新北市新店區寶興路60巷4號","121.549843333333","24.9718366666667","6500600","新店區"
"231016","AAD-862","2018/11/30 15:49:46","新北市新店區華興街14號","121.537835","24.9696416666667","6500600","新店區"
"231038","3712-VJ","2018/11/30 15:49:35","新北市新店區安康路二段228巷4號","121.509406666667","24.9597833333333","6500600","新店區"
"231037","4716-K9","2018/11/30 15:49:34","新北市新店區安興路105-1號","121.51471","24.9778866666667","6500600","新店區"
"231013","513-UM","2018/11/30 15:49:35","新北市新店區精忠路7號","121.528725","24.956245","6500600","新店區"
"231034","616-UM","2018/11/30 15:49:35","新北市新店區吉祥街6巷2號","121.497646666667","24.9461666666667","6500600","新店區"
"231030","619-UM","2018/11/30 15:49:44","新北市新店區永安街42號","121.518166666667","24.9867483333333","6500600","新店區"
"231035","719-UM","2018/11/30 15:49:30","新北市新店區安民街379巷13號","121.515385","24.9758033333333","6500600","新店區"
"231018","719-UY","2018/11/30 15:49:37","新北市新店區中正路663巷7弄13號","121.532848333333","24.99001","6500600","新店區"
"231032","720-UM","2018/11/30 15:49:18","新北市新店區雙城路175-2號","121.4946","24.944845","6500600","新店區"
"231029","898-TW","2018/11/30 15:49:47","新北市新店區車子路1-1號","121.504581666667","24.9579066666667","6500600","新店區"
"241011","013-R5","2018/11/30 15:49:40","新北市三重區三和路二段228號","121.497525","25.069615","6500200","三重區"
"241028","022-UY","2018/11/30 15:49:40","新北市三重區中正南路115號","121.494025","25.0574533333333","6500200","三重區"
"241008","059-VK","2018/11/30 15:49:29","新北市三重區重新路四段121號","121.48482","25.0519566666667","6500200","三重區"
"241022","060-VK","2018/11/30 15:49:31","新北市三重區新北大道一段250號","121.47989","25.0613833333333","6500200","三重區"
"241015","062-VK","2018/11/30 15:49:28","新北市三重區重新路四段121號","121.484956666667","25.0520516666667","6500200","三重區"
"241017","063-VK","2018/11/30 15:49:40","新北市三重區大仁街38號","121.491558333333","25.0643216666667","6500200","三重區"
"241024","065-VK","2018/11/30 15:49:30","新北市三重區三陽路126號","121.482591666667","25.0588183333333","6500200","三重區"
"241026","066-VK","2018/11/30 15:49:30","新北市三重區環河南路261號","121.490445","25.04989","6500200","三重區"
"241002","090-VK","2018/11/30 15:49:39","新北市三重區成功路187號","121.485496666667","25.0524716666667","6500200","三重區"
"241003","091-VK","2018/11/30 15:49:47","新北市三重區長元街105號","121.504593333333","25.0666916666667","6500200","三重區"
"241005","262-UM","2018/11/30 15:49:39","新北市三重區泉州街84巷18號","121.495915","25.0543033333333","6500200","三重區"
"241016","265-UM","2018/11/30 15:49:34","新北市三重區重新路四段121號","121.485131666667","25.0520483333333","6500200","三重區"
"241018","268-UM","2018/11/30 15:49:35","新北市三重區重新路四段121號","121.484711666667","25.0520183333333","6500200","三重區"
"241032","269-UM","2018/11/30 15:49:49","新北市三重區三陽路100巷3弄13號","121.482993333333","25.0581983333333","6500200","三重區"
"241013","270-UM","2018/11/30 15:49:41","新北市三重區三和路三段13號","121.49635","25.07077","6500200","三重區"
"241025","271-UM","2018/11/30 15:49:29","新北市三重區忠孝路三段56-1號","121.480416666667","25.0650733333333","6500200","三重區"
"241007","398-BY","2018/11/30 15:49:31","新北市三重區三陽路170-1號","121.481091666667","25.0586433333333","6500200","三重區"
"241004","475-VK","2018/11/30 15:49:42","新北市三重區重新路四段121號","121.484718333333","25.0522416666667","6500200","三重區"
"241014","543-UM","2018/11/30 15:49:34","新北市三重區重新路四段121號","121.484888333333","25.0519983333333","6500200","三重區"
"241023","545-UM","2018/11/30 15:49:47","新北市三重區忠孝路三段84巷3號","121.48074","25.064665","6500200","三重區"
"241001","547-UM","2018/11/30 15:49:38","新北市三重區重新路四段121號","121.484503333333","25.0523433333333","6500200","三重區"
"241033","557-UM","2018/11/30 15:42:35","新北市三重區中興南街70號","121.470765","25.043995","6500200","三重區"
"241020","743-BX","2018/11/30 15:49:40","新北市三重區忠孝路二段58號","121.485006666667","25.070275","6500200","三重區"
"241006","887-TS","2018/11/30 15:49:26","新北市三重區重新路四段121號","121.485193333333","25.0520566666667","6500200","三重區"
"241012","941-UM","2018/11/30 15:49:41","新北市三重區文化北路61號","121.49864","25.0661933333333","6500200","三重區"
"241029","942-UM","2018/11/30 15:49:44","新北市三重區大同南路159號","121.496753333333","25.055775","6500200","三重區"
"235033","4980-A6","2018/11/30 15:49:37","新北市中和區中正路637巷17號","121.484893333333","24.9946366666667","6500300","中和區"
"235054","640-BX","2018/11/30 15:49:37","新北市中和區員山路36巷16-3號","121.484893333333","24.991845","6500300","中和區"
"235026","800-TS","2018/11/30 15:49:38","新北市中和區橋和路98號","121.490666666667","25.0054466666667","6500300","中和區"
"235023","AAC-215","2018/11/30 15:49:46","新北市中和區員山路45巷18號","121.481183333333","24.9916066666667","6500300","中和區"
"220016","120-SR","2018/11/30 15:49:28","新北市樹林區中華路1-6號","121.425793333333","24.9844666666667","6500100","板橋區"
"227011","642-TC","2018/11/30 15:49:36","新北市雙溪區牡丹里中正路58巷6號","121.866126666667","25.0412283333333","6502500","雙溪區"
"227003","400-TW","2018/11/30 15:49:34","新北市雙溪區平林里外平林44號","121.852918333333","25.036355","6502500","雙溪區"
"236067","105-UM","2018/11/30 15:49:33","新北市土城區水源街11號","121.441256666667","24.9750783333333","6501300","土城區"
"236040","KED-0685","2018/11/30 15:49:40","新北市土城區永寧路35號","121.430241666667","24.962485","6501300","土城區"
"236024","269-VK","2018/11/30 15:49:46","新北市土城區中央路一段211巷6弄6號","121.446316666667","24.9862066666667","6501300","土城區"
"236057","912-UM","2018/11/30 15:49:38","新北市土城區中央路二段195號","121.442018333333","24.9751416666667","6501300","土城區"
"236054","970-R7","2018/11/30 15:49:27","新北市土城區中華路二段62號","121.438823333333","24.9766116666667","6501300","土城區"
"221018","277-VK","2018/11/30 15:49:34","新北市汐止區福德一路260號","121.633151666667","25.0644366666667","6501100","汐止區"
