"lineid","car","time","location","longitude","latitude","cityid","cityname"
"234042","862-TW","2018/11/30 15:59:25","新北市永和區福和路1號","121.526476666667","25.0096916666667","6500400","永和區"
"232008","758-BX","2018/11/30 15:59:24","新北市坪林區北宜路八段558號","121.71804","24.9092166666667","6502000","坪林區"
"231001","047-UY","2018/11/30 15:59:32","新北市新店區車子路115-11號","121.506806666667","24.95445","6500600","新店區"
"231046","107-UY","2018/11/30 15:59:35","新北市新店區華城路11號","121.529606666667","24.9600166666667","6500600","新店區"
"231022","108-UY","2018/11/30 15:59:39","新北市新店區新烏路一段85巷1號","121.547091666667","24.94243","6500600","新店區"
"231012","187-VK","2018/11/30 15:59:26","新北市新店區中正路373號","121.5349","24.9766183333333","6500600","新店區"
"231026","256-BX","2018/11/30 15:59:31","新北市新店區民生路23號","121.532751666667","24.986475","6500600","新店區"
"231003","268-BY","2018/11/30 15:59:32","新北市新店區寶興路55號","121.549748333333","24.9724383333333","6500600","新店區"
"231016","AAD-862","2018/11/30 15:59:46","新北市新店區中正路284巷2號","121.538365","24.9747216666667","6500600","新店區"
"231037","4716-K9","2018/11/30 15:59:34","新北市新店區吉安街14號","121.516701666667","24.9657666666667","6500600","新店區"
"231034","616-UM","2018/11/30 15:59:35","新北市新店區如意街28號","121.49374","24.9483266666667","6500600","新店區"
"231030","619-UM","2018/11/30 15:59:37","新北市新店區永平街14號","121.516973333333","24.98367","6500600","新店區"
"231035","719-UM","2018/11/30 15:59:30","新北市新店區安民街303巷12號","121.516903333333","24.97364","6500600","新店區"
"231018","719-UY","2018/11/30 15:59:37","新北市新店區中正路663巷1弄2號","121.532885","24.9899883333333","6500600","新店區"
"231032","720-UM","2018/11/30 15:59:38","新北市新店區雙城路41巷1號","121.492418333333","24.948995","6500600","新店區"
"241011","013-R5","2018/11/30 15:59:40","新北市三重區雙園街1巷12號","121.497066666667","25.0685716666667","6500200","三重區"
"241028","022-UY","2018/11/30 15:59:39","新北市三重區正義南路107號","121.498236666667","25.058575","6500200","三重區"
"241008","059-VK","2018/11/30 15:59:29","新北市三重區重新路四段121號","121.484545","25.0517283333333","6500200","三重區"
"241022","060-VK","2018/11/30 15:59:31","新北市三重區三民街175巷23號","121.484036666667","25.065845","6500200","三重區"
"241031","061-VK","2018/11/30 15:59:33","新北市三重區重新路四段121號","121.484736666667","25.05239","6500200","三重區"
"241015","062-VK","2018/11/30 15:59:28","新北市三重區重新路四段121號","121.484951666667","25.0520483333333","6500200","三重區"
"241017","063-VK","2018/11/30 15:59:40","新北市三重區大仁街48巷25號","121.491146666667","25.0646116666667","6500200","三重區"
"241024","065-VK","2018/11/30 15:59:29","新北市三重區力行路一段62號","121.484456666667","25.0693633333333","6500200","三重區"
"241026","066-VK","2018/11/30 15:59:30","新北市三重區大同南路69號","121.495826666667","25.0596716666667","6500200","三重區"
"241002","090-VK","2018/11/30 15:59:39","新北市三重區河邊北街178號","121.50309","25.0739983333333","6500200","三重區"
"241003","091-VK","2018/11/30 15:59:27","新北市三重區進安街27號","121.496906666667","25.0839183333333","6500200","三重區"
"241005","262-UM","2018/11/30 15:59:39","新北市三重區三信路118號","121.49021","25.0879933333333","6500200","三重區"
"241016","265-UM","2018/11/30 15:59:34","新北市三重區重新路四段121號","121.485095","25.052055","6500200","三重區"
"241018","268-UM","2018/11/30 15:59:35","新北市三重區大仁街20號","121.491465","25.0634833333333","6500200","三重區"
"241032","269-UM","2018/11/30 15:59:29","新北市三重區三陽路100巷3弄13號","121.482988333333","25.0582233333333","6500200","三重區"
"241013","270-UM","2018/11/30 15:59:41","新北市三重區安慶街20號","121.49713","25.0694016666667","6500200","三重區"
"241025","271-UM","2018/11/30 15:59:47","新北市三重區三民街156號","121.482366666667","25.065475","6500200","三重區"
"241007","398-BY","2018/11/30 15:59:31","新北市三重區三和路四段143-1號","121.48429","25.0783266666667","6500200","三重區"
"241004","475-VK","2018/11/30 15:59:42","新北市三重區成功路106-2號","121.487268333333","25.0517116666667","6500200","三重區"
"241014","543-UM","2018/11/30 15:59:34","新北市三重區重新路四段121號","121.484918333333","25.0520166666667","6500200","三重區"
"241023","545-UM","2018/11/30 15:59:27","新北市三重區中正北路117號","121.483431666667","25.06689","6500200","三重區"
"241001","547-UM","2018/11/30 15:59:38","新北市三重區新北大道一段250號","121.479878333333","25.061405","6500200","三重區"
"241033","557-UM","2018/11/30 15:55:35","新北市三重區光復路一段111號","121.472075","25.0517866666667","6500200","三重區"
"241019","KEA-2593","2018/11/30 15:59:31","新北市三重區忠孝路三段56-1號","121.480488333333","25.0653466666667","6500200","三重區"
"241020","743-BX","2018/11/30 15:59:40","新北市三重區車路頭街4巷14號","121.483425","25.069955","6500200","三重區"
"241006","887-TS","2018/11/30 15:59:26","新北市三重區成功路108巷6-3號","121.486191666667","25.05036","6500200","三重區"
"241012","941-UM","2018/11/30 15:59:30","新北市三重區文化北路63號","121.498588333333","25.0665233333333","6500200","三重區"
"241029","942-UM","2018/11/30 15:59:44","新北市三重區大同南路212巷58號","121.498228333333","25.0568083333333","6500200","三重區"
"235054","640-BX","2018/11/30 15:59:37","新北市中和區員山路36巷16-3號","121.484878333333","24.9918666666667","6500300","中和區"
"235026","800-TS","2018/11/30 15:59:38","新北市中和區永和路220號","121.491263333333","25.00744","6500300","中和區"
"220016","120-SR","2018/11/30 15:59:28","新北市板橋區縣民大道一段314號","121.461026666667","25.010295","6500100","板橋區"
"224007","275-VK","2018/11/30 15:59:34","新北市瑞芳區楓子瀨路14號","121.772453333333","25.107025","6501200","瑞芳區"
"227011","642-TC","2018/11/30 15:59:36","新北市雙溪區三港里雙澳路33-3號","121.8702","25.0491666666667","6502500","雙溪區"
"227003","400-TW","2018/11/30 15:59:34","新北市雙溪區平林里外平林60號","121.845501666667","25.0348866666667","6502500","雙溪區"
"236067","105-UM","2018/11/30 15:59:33","新北市土城區大安路12號","121.432625","24.9660033333333","6501300","土城區"
"236057","912-UM","2018/11/30 15:59:38","新北市土城區中央路三段161號","121.431805","24.96553","6501300","土城區"
