"lineid","car","time","location","longitude","latitude","cityid","cityname"
"234042","862-TW","2018/11/30 16:09:46","新北市永和區福和路1號","121.52649","25.009685","6500400","永和區"
"231046","107-UY","2018/11/30 16:09:36","新北市新店區灣潭路5-1號","121.537496666667","24.9494133333333","6500600","新店區"
"231012","187-VK","2018/11/30 16:09:46","新北市新店區安德街116巷38號","121.508213333333","24.961775","6500600","新店區"
"231035","719-UM","2018/11/30 16:08:30","新北市新店區薏仁坑路自強巷1號","121.497058333333","24.957935","6500600","新店區"
"231018","719-UY","2018/11/30 16:09:37","新北市新店區中正路694巷15號","121.535341666667","24.9908716666667","6500600","新店區"
"241011","013-R5","2018/11/30 16:09:40","新北市三重區三和路三段102號","121.494151666667","25.0721716666667","6500200","三重區"
"241028","022-UY","2018/11/30 16:09:39","新北市三重區正義南路107號","121.49822","25.0585766666667","6500200","三重區"
"241008","059-VK","2018/11/30 16:09:29","新北市三重區中正北路317巷22號","121.475425","25.073395","6500200","三重區"
"241022","060-VK","2018/11/30 16:09:31","新北市三重區新北大道一段7號","121.489666666667","25.0614833333333","6500200","三重區"
"241031","061-VK","2018/11/30 16:09:33","新北市三重區重新路四段121號","121.484735","25.0522966666667","6500200","三重區"
"241015","062-VK","2018/11/30 16:09:28","新北市三重區環河南路110-1號","121.498825","25.0561616666667","6500200","三重區"
"241017","063-VK","2018/11/30 16:09:40","新北市三重區民生街74號","121.490498333333","25.06499","6500200","三重區"
"241024","065-VK","2018/11/30 16:09:29","新北市三重區中正北路145巷9弄10號","121.485455","25.0677883333333","6500200","三重區"
"241026","066-VK","2018/11/30 16:09:30","新北市三重區正義南路29號","121.498098333333","25.0610416666667","6500200","三重區"
"241002","090-VK","2018/11/30 16:09:39","新北市三重區仁義街91號","121.499803333333","25.079505","6500200","三重區"
"241003","091-VK","2018/11/30 16:09:47","新北市三重區仁義街220巷18號","121.494663333333","25.0837516666667","6500200","三重區"
"241005","262-UM","2018/11/30 16:09:39","新北市三重區溪尾街300-2號","121.48746","25.0837666666667","6500200","三重區"
"241016","265-UM","2018/11/30 16:09:34","新北市三重區明志街28號","121.491681666667","25.0639416666667","6500200","三重區"
"241018","268-UM","2018/11/30 16:09:35","新北市三重區中正北路33號","121.49155","25.0630266666667","6500200","三重區"
"241032","269-UM","2018/11/30 16:09:29","新北市三重區三陽路100巷3弄13號","121.482985","25.0582016666667","6500200","三重區"
"241013","270-UM","2018/11/30 16:09:41","新北市三重區三和路三段79號","121.49451","25.0720333333333","6500200","三重區"
"241025","271-UM","2018/11/30 16:09:29","新北市三重區忠孝路三段40巷6弄1號","121.48194","25.0663816666667","6500200","三重區"
"241007","398-BY","2018/11/30 16:09:31","新北市三重區慈愛街10號","121.484518333333","25.078435","6500200","三重區"
"241004","475-VK","2018/11/30 16:09:42","新北市三重區仁義街101巷52號","121.499813333333","25.0811466666667","6500200","三重區"
"241030","480-VK","2018/11/30 16:09:26","新北市三重區重新路四段121號","121.484761666667","25.0525116666667","6500200","三重區"
"241014","543-UM","2018/11/30 16:09:34","新北市三重區正義南路183號","121.499203333333","25.056405","6500200","三重區"
"241023","545-UM","2018/11/30 16:09:27","新北市三重區力行路一段60-1號","121.484551666667","25.0690233333333","6500200","三重區"
"241001","547-UM","2018/11/30 16:09:38","新北市三重區自強路四段77號","121.49067","25.0788416666667","6500200","三重區"
"241033","557-UM","2018/11/30 16:08:55","新北市三重區重新路五段408巷30-1號","121.476643333333","25.0457733333333","6500200","三重區"
"241019","KEA-2593","2018/11/30 16:09:31","新北市三重區自強路二段81號","121.488508333333","25.070095","6500200","三重區"
"241020","743-BX","2018/11/30 16:04:23","新北市三重區後竹圍街273號","121.482651666667","25.07107","6500200","三重區"
"241006","887-TS","2018/11/30 16:09:46","新北市三重區力行路二段122號","121.482145","25.0749633333333","6500200","三重區"
"241012","941-UM","2018/11/30 16:09:30","新北市三重區文化北路156-1號","121.498173333333","25.0674366666667","6500200","三重區"
"241029","942-UM","2018/11/30 16:09:44","新北市三重區同安街101號","121.49466","25.0564566666667","6500200","三重區"
"235054","640-BX","2018/11/30 16:09:37","新北市中和區員山路36巷16-5號","121.484853333333","24.9919633333333","6500300","中和區"
"235026","800-TS","2018/11/30 16:09:38","新北市中和區立業路70號","121.49217","25.0073716666667","6500300","中和區"
"220016","120-SR","2018/11/30 16:09:28","新北市板橋區三民路二段253-1號","121.478998333333","25.0116233333333","6500100","板橋區"
"224007","275-VK","2018/11/30 16:09:34","新北市瑞芳區粗坑口路66號","121.76132","25.0989916666667","6501200","瑞芳區"
"227011","642-TC","2018/11/30 16:09:36","新北市雙溪區三港里雙澳路73號","121.88274","25.054425","6502500","雙溪區"
"227003","400-TW","2018/11/30 16:09:34","新北市雙溪區上林里內平林47號","121.833303333333","25.0304183333333","6502500","雙溪區"
"236067","105-UM","2018/11/30 16:09:33","新北市土城區福安街1號","121.420371666667","24.96518","6501300","土城區"
