"lineid","car","time","location","longitude","latitude","cityid","cityname"
"234042","862-TW","2018/11/30 17:19:45","新北市永和區福和路1號","121.526491666667","25.0095966666667","6500400","永和區"
"249005","172-UM","2018/11/30 17:19:39","新北市八里區荖阡坑路50-1號","121.412868333333","25.122705","6502300","八里區"
"249001","173-UM","2018/11/30 17:19:41","新北市八里區中華路二段165巷3號","121.407648333333","25.1508383333333","6502300","八里區"
"249004","303-UY","2018/11/30 17:19:33","新北市八里區大崁二街30號","121.417896666667","25.1579683333333","6502300","八里區"
"249002","305-UY","2018/11/30 17:19:45","新北市八里區龍米路二段117巷26號","121.444723333333","25.1427883333333","6502300","八里區"
"249003","593-UM","2018/11/30 17:19:36","新北市八里區中山路二段470號","121.39882","25.1471333333333","6502300","八里區"
"244023","069-UM","2018/11/30 17:19:47","新北市林口區仁愛路一段619號","121.389786666667","25.076465","6501700","林口區"
"244007","080-UY","2018/11/30 17:19:26","新北市林口區湖子10-2號","121.387971666667","25.0900016666667","6501700","林口區"
"244019","402-UM","2018/11/30 17:19:47","新北市林口區公園路225號","121.37388","25.074295","6501700","林口區"
"244013","KEA-2802","2018/11/30 17:19:34","新北市林口區粉寮路二段8-1號","121.401346666667","25.0850666666667","6501700","林口區"
"244017","485-VK","2018/11/30 17:19:30","新北市林口區粉寮路二段167-1號","121.404508333333","25.08862","6501700","林口區"
"244009","656-BX","2018/11/30 17:19:38","新北市林口區松柏路19號","121.380095","25.0926216666667","6501700","林口區"
"244025","837-TS","2018/11/30 17:19:29","新北市林口區中山路520-1號","121.378678333333","25.083225","6501700","林口區"
"231046","107-UY","2018/11/30 17:19:35","新北市新店區直潭路92號","121.530921666667","24.93759","6500600","新店區"
"241011","013-R5","2018/11/30 17:19:40","新北市三重區龍濱路197號","121.501903333333","25.0714066666667","6500200","三重區"
"241028","022-UY","2018/11/30 17:19:39","新北市三重區中正南路83號","121.494288333333","25.05848","6500200","三重區"
"241008","059-VK","2018/11/30 17:19:39","新北市三重區永福街72巷37-4號","121.480431666667","25.0763333333333","6500200","三重區"
"241022","060-VK","2018/11/30 17:19:31","新北市三重區中正北路64巷12號","121.486445","25.0640533333333","6500200","三重區"
"241015","062-VK","2018/11/30 17:19:48","新北市三重區福德北路89號","121.50185","25.0662283333333","6500200","三重區"
"241017","063-VK","2018/11/30 17:19:40","新北市三重區大同北路52號","121.495056666667","25.063065","6500200","三重區"
"241024","065-VK","2018/11/30 17:19:29","新北市三重區中正北路193巷11弄28號","121.477943333333","25.0704166666667","6500200","三重區"
"241026","066-VK","2018/11/30 17:19:30","新北市三重區正義南路60-6號","121.498411666667","25.0600516666667","6500200","三重區"
"241002","090-VK","2018/11/30 17:19:39","新北市三重區自強路五段64號","121.493896666667","25.0813733333333","6500200","三重區"
"241003","091-VK","2018/11/30 17:19:26","新北市三重區富福街30號","121.490678333333","25.0836216666667","6500200","三重區"
"241005","262-UM","2018/11/30 17:19:39","新北市三重區永安北路二段25巷43號","121.483133333333","25.081935","6500200","三重區"
"241016","265-UM","2018/11/30 17:19:34","新北市三重區大同北路97號","121.49459","25.06363","6500200","三重區"
"241009","267-UM","2018/11/30 17:19:35","新北市三重區仁美街2號","121.488651666667","25.0770116666667","6500200","三重區"
"241018","268-UM","2018/11/30 17:19:45","新北市三重區安慶街210號","121.493046666667","25.068315","6500200","三重區"
"241032","269-UM","2018/11/30 17:19:29","新北市三重區中華路20巷20號","121.482571666667","25.060805","6500200","三重區"
"241013","270-UM","2018/11/30 17:19:41","新北市三重區仁愛街112巷4號","121.494666666667","25.0742716666667","6500200","三重區"
"241025","271-UM","2018/11/30 17:19:49","新北市三重區中正北路189號","121.4773","25.0695583333333","6500200","三重區"
"241007","398-BY","2018/11/30 17:19:30","新北市三重區慈愛街9號","121.485053333333","25.078715","6500200","三重區"
"241030","480-VK","2018/11/30 17:19:46","新北市三重區成功路73巷35號","121.490076666667","25.05279","6500200","三重區"
"241014","543-UM","2018/11/30 17:19:34","新北市三重區長榮路3號","121.500166666667","25.068445","6500200","三重區"
"241023","545-UM","2018/11/30 17:19:47","新北市三重區三民街156號","121.482366666667","25.065475","6500200","三重區"
"241033","557-UM","2018/11/30 17:10:35","新北市三重區中興北街269號","121.469171666667","25.0604766666667","6500200","三重區"
"241019","KEA-2593","2018/11/30 17:19:31","新北市三重區自強路二段50巷25號","121.488151666667","25.069485","6500200","三重區"
"241020","743-BX","2018/11/30 17:15:00","新北市三重區自強路三段9號","121.48733","25.07194","6500200","三重區"
"241006","887-TS","2018/11/30 17:19:46","新北市三重區永福街72巷11號","121.47942","25.0767883333333","6500200","三重區"
"241012","941-UM","2018/11/30 17:19:29","新北市三重區仁昌街63號","121.498678333333","25.0746566666667","6500200","三重區"
"235065","098-UM","2018/11/30 17:19:27","新北市中和區員山路36巷16-3號","121.485113333333","24.9911066666667","6500300","中和區"
"247012","KEA-2869","2018/11/30 17:19:45","新北市蘆洲區信義路319巷8號","121.47783","25.0862483333333","6501400","蘆洲區"
"235054","640-BX","2018/11/30 16:56:47","新北市中和區員山路36巷16-3號","121.484898333333","24.9918166666667","6500300","中和區"
"220016","120-SR","2018/11/30 17:04:46","新北市板橋區新站路1號","121.467295","25.0112166666667","6500100","板橋區"
"247002","893-R6","2018/11/30 17:19:33","新北市蘆洲區永樂街38巷43號","121.458333333333","25.0896516666667","6501400","蘆洲區"
"247016","546-UM","2018/11/30 17:19:36","新北市蘆洲區正和街96巷39號","121.467365","25.0815833333333","6501400","蘆洲區"
"247024","500-BY","2018/11/30 17:19:41","新北市蘆洲區長榮路156-6號","121.46081","25.0852983333333","6501400","蘆洲區"
"247006","337-TH","2018/11/30 17:19:45","新北市蘆洲區永安南路二段152號","121.46189","25.0789883333333","6501400","蘆洲區"
"247008","336-TH","2018/11/30 17:19:48","新北市蘆洲區永安北路一段72巷21號","121.476386666667","25.0769816666667","6501400","蘆洲區"
"247020","057-VK","2018/11/30 17:19:33","新北市蘆洲區仁愛街31號","121.472041666667","25.0926983333333","6501400","蘆洲區"
"247010","056-VK","2018/11/30 17:19:43","新北市蘆洲區中山一路120巷7弄48號","121.476996666667","25.0826483333333","6501400","蘆洲區"
"247014","053-VK","2018/11/30 17:19:44","新北市蘆洲區中正路81號","121.470041666667","25.083485","6501400","蘆洲區"
"247018","007-UY","2018/11/30 17:19:35","新北市蘆洲區民權路94號","121.47424","25.0880616666667","6501400","蘆洲區"
"247004","002-UY","2018/11/30 17:19:39","新北市蘆洲區永安南路二段282-1號","121.457776666667","25.0811766666667","6501400","蘆洲區"
"247022","001-UY","2018/11/30 17:19:40","新北市蘆洲區民族路385號","121.469626666667","25.0901466666667","6501400","蘆洲區"
"228002","663-BX","2018/11/30 17:19:33","新北市貢寮區雙玉里下雙溪街26號","121.9235","25.009875","6502600","貢寮區"
"228001","670-TC","2018/11/30 17:19:47","新北市貢寮區仁理村尖山腳街18-3號","121.925385","25.04829","6502600","貢寮區"
"228003","828-UM","2018/11/30 17:19:41","新北市貢寮區福隆里興隆街24-1號","121.944381666667","25.016635","6502600","貢寮區"
"224006","676-BX","2018/11/30 17:19:48","新北市瑞芳區傑魚坑路255號","121.787503333333","25.1063883333333","6501200","瑞芳區"
"224008","285-BY","2018/11/30 17:19:37","新北市瑞芳區侯硐路184號","121.829041666667","25.08795","6501200","瑞芳區"
"224009","273-VK","2018/11/30 17:19:34","新北市瑞芳區汽車路7-3號","121.847023333333","25.1107233333333","6501200","瑞芳區"
"224005","271-BY","2018/11/30 17:19:42","新北市瑞芳區鼻頭路247號","121.912638333333","25.1239316666667","6501200","瑞芳區"
"227011","642-TC","2018/11/30 17:19:36","新北市雙溪區三貂里政光路3號","121.8514","25.0631716666667","6502500","雙溪區"
"227003","400-TW","2018/11/30 17:19:34","新北市雙溪區上林里內平林90號","121.827551666667","25.0274583333333","6502500","雙溪區"
"251005","010-UM","2018/11/30 17:19:49","新北市淡水區鄧公路29巷2號","121.451653333333","25.169835","6501000","淡水區"
"251002","012-UM","2018/11/30 17:19:32","新北市淡水區中正路二段31號","121.419353333333","25.1815316666667","6501000","淡水區"
"251008","180-VK","2018/11/30 17:19:40","新北市淡水區大同路283號","121.467926666667","25.1424733333333","6501000","淡水區"
"251010","413-VK","2018/11/30 17:19:47","新北市淡水區沙崙路192號","121.424358333333","25.183675","6501000","淡水區"
"251012","441-VK","2018/11/30 17:19:43","新北市淡水區北新路28號","121.445195","25.1776716666667","6501000","淡水區"
"251004","443-VK","2018/11/30 17:19:45","新北市淡水區中正東路二段88巷15號","121.45903","25.1505333333333","6501000","淡水區"
"251006","561-UM","2018/11/30 17:19:36","新北市淡水區重建街204號","121.441068333333","25.17455","6501000","淡水區"
"251009","575-R6","2018/11/30 17:19:44","新北市淡水區建設街2-1號","121.439028333333","25.1721116666667","6501000","淡水區"
"251007","577-R6","2018/11/30 17:19:39","新北市淡水區民生路47-4號","121.462045","25.1379633333333","6501000","淡水區"
"251011","650-BX","2018/11/30 17:19:39","新北市淡水區坪頂路130號","121.465858333333","25.16133","6501000","淡水區"
"251003","673-BX","2018/11/30 17:19:29","新北市淡水區中正路二段31號","121.41936","25.1816716666667","6501000","淡水區"
"207003","550-UM","2018/11/30 17:19:43","新北市萬里區萬里里獅頭路23號","121.693386666667","25.1782283333333","6502800","萬里區"
"252002","178-VK","2018/11/30 17:19:42","新北市三芝區忠孝街1-15號","121.50555","25.2539016666667","6502100","三芝區"
"252001","292-VK","2018/11/30 17:19:44","新北市三芝區淡金路一段3號","121.4981","25.259635","6502100","三芝區"
"242058","986-R7","2018/11/30 17:19:40","新北市新莊區中正路386號","121.441926666667","25.0355066666667","6500500","新莊區"
"242056","751-BX","2018/11/30 17:19:43","新北市新莊區新莊路763巷6號","121.442436666667","25.0323566666667","6500500","新莊區"
"242027","615-BX","2018/11/30 17:19:40","新北市新莊區中港路272號","121.453143333333","25.04397","6500500","新莊區"
"242025","613-BX","2018/11/30 17:19:42","新北市新莊區中港一街142號","121.446781666667","25.0449433333333","6500500","新莊區"
"242029","612-BX","2018/11/30 17:19:35","新北市新莊區幸福路763-6號","121.447476666667","25.0491183333333","6500500","新莊區"
"242044","566-BX","2018/11/30 17:19:47","新北市新莊區中正路562號","121.428271666667","25.030695","6500500","新莊區"
"242048","497-BY","2018/11/30 17:19:29","新北市新莊區富國路87號","121.420446666667","25.02597","6500500","新莊區"
"242054","441-UM","2018/11/30 17:19:42","新北市新莊區瓊林路59-66號","121.441373333333","25.0226933333333","6500500","新莊區"
"242002","440-UM","2018/11/30 17:19:39","新北市新莊區瓊林路46-9號","121.447223333333","25.029005","6500500","新莊區"
"242039","415-TV","2018/11/30 17:19:41","新北市新莊區民安路296號","121.428093333333","25.0218116666667","6500500","新莊區"
"242009","413-TV","2018/11/30 17:19:29","新北市新莊區新泰路498號","121.442465","25.0463833333333","6500500","新莊區"
"242046","400-BY","2018/11/30 17:19:34","新北市新莊區中正路400號","121.44197","25.0343016666667","6500500","新莊區"
"242023","362-BY","2018/11/30 17:19:30","新北市新莊區中平路82巷36-2號","121.446291666667","25.0449116666667","6500500","新莊區"
"242060","353-BY","2018/11/30 17:19:48","新北市新莊區中正路400號","121.441888333333","25.0343366666667","6500500","新莊區"
"242034","135-UY","2018/11/30 17:19:27","新北市新莊區中正路471號","121.441975","25.03355","6500500","新莊區"
"242050","172-VK","2018/11/30 17:19:35","新北市新莊區瓊林南路75-2號","121.434991666667","25.014265","6500500","新莊區"
"242013","173-VK","2018/11/30 17:19:38","新北市新莊區三和路12-21號","121.441906666667","25.0386083333333","6500500","新莊區"
"242019","175-VK","2018/11/30 17:19:42","新北市新莊區中港一街161號","121.447335","25.0449783333333","6500500","新莊區"
"242017","346-TH","2018/11/30 17:19:34","新北市新莊區中平路82巷24號","121.445848333333","25.0449033333333","6500500","新莊區"
"242011","347-TH","2018/11/30 17:16:58","新北市新莊區中港路360-2號","121.452086666667","25.0467716666667","6500500","新莊區"
"242032","348-TH","2018/11/30 17:19:35","新北市新莊區新泰路466號","121.443281666667","25.044965","6500500","新莊區"
"242005","349-TH","2018/11/30 17:19:33","新北市新莊區復興路一段8號","121.44575","25.0413283333333","6500500","新莊區"
"242021","350-TH","2018/11/30 17:19:31","新北市新莊區中港路276號","121.453095","25.0440583333333","6500500","新莊區"
"242015","351-TH","2018/11/30 17:19:45","新北市新莊區新泰路484號","121.442638333333","25.0457083333333","6500500","新莊區"
"238015","755-BX","2018/11/30 17:19:38","新北市樹林區大安路325號","121.417353333333","24.9916866666667","6500700","樹林區"
"238023","601-UM","2018/11/30 17:19:45","新北市樹林區中正路433-1號","121.414966666667","25.008095","6500700","樹林區"
"238019","599-UM","2018/11/30 17:19:36","新北市樹林區八德街170號","121.421676666667","24.9781116666667","6500700","樹林區"
"238018","571-TV","2018/11/30 17:19:33","新北市樹林區鎮前街269巷2號","121.420136666667","24.98568","6500700","樹林區"
"238024","5061-A6","2018/11/30 17:19:46","新北市樹林區保安街一段48巷18號","121.426313333333","24.9948166666667","6500700","樹林區"
"238022","KEA-2213","2018/11/30 17:19:42","新北市樹林區仁愛街73巷1號","121.423595","24.9827633333333","6500700","樹林區"
"238017","283-BY","2018/11/30 17:19:46","新北市樹林區大安路251號","121.41932","24.994135","6500700","樹林區"
"238014","282-BY","2018/11/30 17:19:44","新北市樹林區長壽街70巷31弄19號","121.421563333333","24.9950066666667","6500700","樹林區"
"238020","268-VK","2018/11/30 17:19:38","新北市樹林區千歲街101-2號","121.428521666667","25.0008716666667","6500700","樹林區"
"238026","172-UY","2018/11/30 17:19:42","新北市樹林區東順街79巷1號","121.409796666667","24.9764883333333","6500700","樹林區"
"238016","169-UY","2018/11/30 17:19:36","新北市樹林區八德街1號","121.417601666667","24.9849433333333","6500700","樹林區"
"239007","AAC-297","2018/11/30 17:19:30","新北市鶯歌區光復街15號","121.351596666667","24.9552933333333","6500800","鶯歌區"
"239006","891-R6","2018/11/30 17:19:29","新北市鶯歌區鶯桃路311號","121.333875","24.9607316666667","6500800","鶯歌區"
"239008","527-UM","2018/11/30 17:19:40","新北市鶯歌區西湖街曾厝巷29號","121.339376666667","24.9615066666667","6500800","鶯歌區"
"239005","526-UM","2018/11/30 17:17:42","新北市鶯歌區鶯桃路555號","121.33012","24.9679033333333","6500800","鶯歌區"
"239001","417-VK","2018/11/30 17:19:46","新北市鶯歌區尖山路216號","121.343603333333","24.9469833333333","6500800","鶯歌區"
"239003","360-BY","2018/11/30 17:19:38","新北市鶯歌區德昌二街21號","121.333248333333","24.9590533333333","6500800","鶯歌區"
"239002","359-BY","2018/11/30 17:19:32","新北市鶯歌區建國路280-2號","121.34649","24.9532633333333","6500800","鶯歌區"
"239004","193-VK","2018/11/30 17:19:26","新北市鶯歌區文化路226巷5號","121.352105","24.948555","6500800","鶯歌區"
"242041","281-VK","2018/11/30 17:19:44","新北市新莊區中正路400號","121.441933333333","25.0341133333333","6500500","新莊區"
"242007","280-VK","2018/11/30 17:19:44","新北市新莊區中港路314號","121.452375","25.0453616666667","6500500","新莊區"
"235061","KEA-2875","2018/11/30 17:16:13","新北市中和區員山路36巷16-2號","121.485115","24.991745","6500300","中和區"
