"lineid","car","time","location","longitude","latitude","cityid","cityname"
"234042","862-TW","2018/11/30 17:39:45","新北市永和區福和路1號","121.526356666667","25.00962","6500400","永和區"
"234026","9371-KE","2018/11/30 17:39:37","新北市永和區豫溪街165號","121.521828333333","25.0104166666667","6500400","永和區"
"249005","172-UM","2018/11/30 17:39:39","新北市八里區荖阡坑路34-1號","121.402701666667","25.1296883333333","6502300","八里區"
"249001","173-UM","2018/11/30 17:39:41","新北市八里區龍米路二段159號","121.439011666667","25.1540416666667","6502300","八里區"
"249004","303-UY","2018/11/30 17:39:33","新北市八里區中華路一段81巷15號","121.420473333333","25.1566566666667","6502300","八里區"
"249002","305-UY","2018/11/30 17:39:45","新北市八里區頂寮二街113-8號","121.448623333333","25.1265216666667","6502300","八里區"
"249003","593-UM","2018/11/30 17:39:36","新北市八里區中山路二段125號","121.405476666667","25.1518133333333","6502300","八里區"
"232011","375-UM","2018/11/30 17:39:46","新北市坪林區水柳腳39號","121.709726666667","24.9351266666667","6502000","坪林區"
"244023","069-UM","2018/11/30 17:39:47","新北市林口區東明一街115巷11號","121.390655","25.0703933333333","6501700","林口區"
"244007","080-UY","2018/11/30 17:39:46","新北市林口區林口路272巷2號","121.386391666667","25.0846183333333","6501700","林口區"
"244019","402-UM","2018/11/30 17:39:27","新北市林口區忠孝路518號","121.371971666667","25.0689066666667","6501700","林口區"
"244013","KEA-2802","2018/11/30 17:39:45","新北市林口區中正路512號","121.381656666667","25.077035","6501700","林口區"
"244017","485-VK","2018/11/30 17:39:29","新北市林口區文化二路一段214-1號","121.36927","25.07223","6501700","林口區"
"244009","656-BX","2018/11/30 17:39:38","新北市林口區寶林路103號","121.383793333333","25.0852216666667","6501700","林口區"
"244011","701-TV","2018/11/30 17:39:42","新北市林口區佳林路211號","121.384195","25.0771116666667","6501700","林口區"
"244025","837-TS","2018/11/30 17:39:29","新北市林口區忠孝路308巷20號","121.36674","25.0723983333333","6501700","林口區"
"244021","838-TS","2018/11/30 17:39:46","新北市林口區東林街14號","121.396326666667","25.0789233333333","6501700","林口區"
"222002","016-RS","2018/11/30 17:39:38","新北市深坑區深南路51-1號","121.621351666667","25.0101433333333","6501800","深坑區"
"231046","107-UY","2018/11/30 17:39:35","新北市新店區直潭路92號","121.530923333333","24.9375816666667","6500600","新店區"
"241024","065-VK","2018/11/30 17:39:29","新北市三重區國道路一段58巷20號","121.481275","25.0720783333333","6500200","三重區"
"241005","262-UM","2018/11/30 17:39:39","新北市三重區碧華街105號","121.485665","25.0816883333333","6500200","三重區"
"241016","265-UM","2018/11/30 17:39:42","新北市三重區重新路二段27號","121.49787","25.062325","6500200","三重區"
"241007","398-BY","2018/11/30 17:39:30","新北市三重區福隆路6號","121.48969","25.07725","6500200","三重區"
"241014","543-UM","2018/11/30 17:39:41","新北市三重區龍濱路34號","121.502815","25.0682283333333","6500200","三重區"
"241023","545-UM","2018/11/30 17:39:47","新北市三重區中華路89號","121.483541666667","25.0629066666667","6500200","三重區"
"241033","557-UM","2018/11/30 17:10:35","新北市三重區中興北街269號","121.469171666667","25.0604766666667","6500200","三重區"
"235064","005-UY","2018/11/30 17:39:30","新北市中和區員山路36巷16-3號","121.485068333333","24.99122","6500300","中和區"
"235065","098-UM","2018/11/30 17:39:47","新北市中和區員山路36巷16-3號","121.485068333333","24.99115","6500300","中和區"
"247012","KEA-2869","2018/11/30 17:39:46","新北市蘆洲區民權路5號","121.476523333333","25.0858666666667","6501400","蘆洲區"
"235054","640-BX","2018/11/30 17:39:34","新北市中和區員山路36巷16-2號","121.485015","24.9918316666667","6500300","中和區"
"247002","893-R6","2018/11/30 17:39:33","新北市蘆洲區永平街32巷11弄34號","121.457743333333","25.0919483333333","6501400","蘆洲區"
"247024","500-BY","2018/11/30 17:39:41","新北市蘆洲區長樂路125-1號","121.462095","25.0880683333333","6501400","蘆洲區"
"247006","337-TH","2018/11/30 17:39:45","新北市蘆洲區長安街68巷3號","121.462853333333","25.0802316666667","6501400","蘆洲區"
"247008","336-TH","2018/11/30 17:39:48","新北市蘆洲區和平路16號","121.472436666667","25.07938","6501400","蘆洲區"
"247020","057-VK","2018/11/30 17:39:33","新北市蘆洲區民族路331號","121.473741666667","25.0917816666667","6501400","蘆洲區"
"247010","056-VK","2018/11/30 17:39:43","新北市蘆洲區集賢路412號","121.479806666667","25.0814216666667","6501400","蘆洲區"
"247014","053-VK","2018/11/30 17:39:44","新北市蘆洲區中山二路95號","121.472836666667","25.0817866666667","6501400","蘆洲區"
"247018","007-UY","2018/11/30 17:39:35","新北市蘆洲區水湳街1號","121.472908333333","25.0887466666667","6501400","蘆洲區"
"247004","002-UY","2018/11/30 17:39:39","新北市蘆洲區長安街249巷23號","121.458006666667","25.0826766666667","6501400","蘆洲區"
"247022","001-UY","2018/11/30 17:39:40","新北市蘆洲區民族路461號","121.46715","25.0885983333333","6501400","蘆洲區"
"228002","663-BX","2018/11/30 17:39:33","新北市貢寮區福隆里外隆林街15號","121.958666666667","25.003765","6502600","貢寮區"
"228001","670-TC","2018/11/30 17:39:47","新北市貢寮區真理里新港街26巷28-6號","121.927711666667","25.0553883333333","6502600","貢寮區"
"228003","828-UM","2018/11/30 17:39:41","新北市貢寮區仁理村仁和路33號","121.923976666667","25.0538216666667","6502600","貢寮區"
"224010","AGQ-8101","2018/11/30 17:39:40","新北市瑞芳區岳王路130號","121.80951","25.111215","6501200","瑞芳區"
"224006","676-BX","2018/11/30 17:39:42","新北市瑞芳區傑魚坑路16號","121.794568333333","25.1105333333333","6501200","瑞芳區"
"224008","285-BY","2018/11/30 17:39:37","新北市瑞芳區明燈路一段18巷6-1號","121.822841666667","25.107555","6501200","瑞芳區"
"224009","273-VK","2018/11/30 17:39:34","新北市瑞芳區山尖路215-1號","121.848875","25.1124366666667","6501200","瑞芳區"
"224005","271-BY","2018/11/30 17:39:42","新北市瑞芳區海濱路8-6號","121.831708333333","25.1261666666667","6501200","瑞芳區"
"227011","642-TC","2018/11/30 17:39:36","新北市雙溪區三貂里政光路3-1號","121.8508","25.0634266666667","6502500","雙溪區"
"251005","010-UM","2018/11/30 17:39:49","新北市淡水區鄧公路33巷1號","121.451488333333","25.1710933333333","6501000","淡水區"
"251001","011-UM","2018/11/30 17:39:31","新北市淡水區民權路92巷35-1號","121.46219","25.12661","6501000","淡水區"
"251002","012-UM","2018/11/30 17:39:32","新北市淡水區重建街82號","121.440121666667","25.1723683333333","6501000","淡水區"
"251008","180-VK","2018/11/30 17:39:40","新北市淡水區八勢路30巷19號","121.462468333333","25.1537483333333","6501000","淡水區"
"251010","413-VK","2018/11/30 17:39:27","新北市淡水區淡海路280巷23號","121.419726666667","25.1899216666667","6501000","淡水區"
"251012","441-VK","2018/11/30 17:39:43","新北市淡水區北新路218號","121.451838333333","25.1800866666667","6501000","淡水區"
"251004","443-VK","2018/11/30 17:39:38","新北市淡水區中正東路二段88巷37-28號","121.459261666667","25.1433866666667","6501000","淡水區"
"251006","561-UM","2018/11/30 17:39:36","新北市淡水區大信街24巷2號","121.441941666667","25.1766366666667","6501000","淡水區"
"251009","575-R6","2018/11/30 17:39:34","新北市淡水區中正路28號","121.444321666667","25.1690883333333","6501000","淡水區"
"251007","577-R6","2018/11/30 17:39:39","新北市淡水區民生路124巷2號","121.46386","25.13808","6501000","淡水區"
"251011","650-BX","2018/11/30 17:39:39","新北市淡水區小坪頂10號","121.486935","25.1558333333333","6501000","淡水區"
"251003","673-BX","2018/11/30 17:39:46","新北市淡水區中山北路一段88號","121.44241","25.176215","6501000","淡水區"
"207003","550-UM","2018/11/30 17:39:43","新北市萬里區野柳里東澳路20號","121.69118","25.1989383333333","6502800","萬里區"
"207004","225-TW","2018/11/30 17:39:45","新北市萬里區中幅里中福路20號","121.684616666667","25.1643983333333","6502800","萬里區"
"252002","178-VK","2018/11/30 17:39:42","新北市三芝區中正路二段15號","121.50438","25.2553583333333","6502100","三芝區"
"252001","292-VK","2018/11/30 17:39:44","新北市三芝區淡金路一段83號","121.502101666667","25.258955","6502100","三芝區"
"237012","275-BY","2018/11/30 17:39:42","新北市三峽區中山路459巷163-3號","121.348998333333","24.9332733333333","6500900","三峽區"
"237014","433-BY","2018/11/30 17:39:45","新北市三峽區中山路459巷163-3號","121.348816666667","24.9328966666667","6500900","三峽區"
"237015","649-BX","2018/11/30 17:39:45","新北市三峽區正義街92號","121.368885","24.9177083333333","6500900","三峽區"
"237010","706-TV","2018/11/30 17:39:36","新北市三峽區中山路153號","121.364823333333","24.936305","6500900","三峽區"
"237005","AKY-6261","2018/11/30 17:39:30","新北市三峽區中山路459巷163-3號","121.34868","24.9329166666667","6500900","三峽區"
"236042","KED-0685","2018/11/30 17:39:43","新北市土城區城林路6巷80號","121.438531666667","24.9796883333333","6501300","土城區"
"236079","166-UM","2018/11/30 17:39:40","新北市土城區城林路6巷80號","121.438721666667","24.9795933333333","6501300","土城區"
"236014","270-VK","2018/11/30 17:39:18","新北市土城區城林路6巷80號","121.438575","24.9795816666667","6501300","土城區"
"236039","271-VK","2018/11/30 17:39:37","新北市土城區城林路6巷80號","121.438525","24.9797266666667","6501300","土城區"
"236020","752-BX","2018/11/30 17:32:50","新北市土城區城林路6巷80號","121.43869","24.9797183333333","6501300","土城區"
"236063","915-UM","2018/11/30 17:39:29","新北市土城區城林路6巷80號","121.43852","24.9796633333333","6501300","土城區"
"242037","AAC-296","2018/11/30 17:39:36","新北市新莊區後港一路214號","121.433611666667","25.0282666666667","6500500","新莊區"
"242058","986-R7","2018/11/30 17:39:40","新北市新莊區中正路582號","121.427345","25.0304183333333","6500500","新莊區"
"242056","751-BX","2018/11/30 17:39:43","新北市新莊區瓊林路13-3號","121.448808333333","25.0309183333333","6500500","新莊區"
"242027","615-BX","2018/11/30 17:39:50","新北市新莊區福壽街105號","121.45797","25.05071","6500500","新莊區"
"242025","613-BX","2018/11/30 17:39:42","新北市新莊區思源路118號","121.46016","25.04686","6500500","新莊區"
"242029","612-BX","2018/11/30 17:39:35","新北市新莊區復興路一段165號","121.450998333333","25.0433466666667","6500500","新莊區"
"242044","566-BX","2018/11/30 17:39:47","新北市新莊區中正路871巷9弄38號","121.41969","25.0267233333333","6500500","新莊區"
"242048","497-BY","2018/11/30 17:39:30","新北市新莊區萬安街135號","121.420603333333","25.02208","6500500","新莊區"
"242054","441-UM","2018/11/30 17:39:42","新北市新莊區新樹路699巷16號","121.43255","25.00183","6500500","新莊區"
"242002","440-UM","2018/11/30 17:39:42","新北市新莊區新莊路421號","121.450565","25.033565","6500500","新莊區"
"242039","415-TV","2018/11/30 17:39:41","新北市新莊區民全街16號","121.429043333333","25.0219283333333","6500500","新莊區"
"242009","413-TV","2018/11/30 17:39:43","新北市新莊區福壽街169巷22-1號","121.456981666667","25.0538416666667","6500500","新莊區"
"242046","400-BY","2018/11/30 17:39:34","新北市新莊區福營路35巷3號","121.437085","25.0322566666667","6500500","新莊區"
"242023","362-BY","2018/11/30 17:39:50","新北市新莊區民樂街36號","121.457905","25.0410083333333","6500500","新莊區"
"242060","353-BY","2018/11/30 17:39:48","新北市新莊區瓊林南路77-6號","121.434446666667","25.013165","6500500","新莊區"
"242034","135-UY","2018/11/30 17:39:47","新北市新莊區新莊路637號","121.44531","25.0328466666667","6500500","新莊區"
"242050","172-VK","2018/11/30 17:39:43","新北市新莊區西盛街201巷13號","121.429028333333","25.0169416666667","6500500","新莊區"
"242013","173-VK","2018/11/30 17:39:38","新北市新莊區中誠街119號","121.449396666667","25.047575","6500500","新莊區"
"242019","175-VK","2018/11/30 17:39:45","新北市新莊區中港路263號","121.453698333333","25.0433466666667","6500500","新莊區"
"242017","346-TH","2018/11/30 17:39:34","新北市新莊區復興路一段149巷22弄2號","121.450278333333","25.0440316666667","6500500","新莊區"
"242011","347-TH","2018/11/30 17:39:44","新北市新莊區中港路597號","121.451471666667","25.0529016666667","6500500","新莊區"
"242032","348-TH","2018/11/30 17:39:35","新北市新莊區新泰路345號","121.444735","25.0420533333333","6500500","新莊區"
"242005","349-TH","2018/11/30 17:39:33","新北市新莊區自立街200號","121.456728333333","25.045515","6500500","新莊區"
"242021","350-TH","2018/11/30 17:39:31","新北市新莊區中華路一段112號","121.452536666667","25.0404016666667","6500500","新莊區"
"242015","351-TH","2018/11/30 17:39:45","新北市新莊區新泰路287號","121.445478333333","25.040625","6500500","新莊區"
"238015","755-BX","2018/11/30 17:39:38","新北市樹林區樹德街120巷6號","121.419661666667","24.9930366666667","6500700","樹林區"
"238023","601-UM","2018/11/30 17:39:45","新北市樹林區三福街114號","121.40651","25.01634","6500700","樹林區"
"238019","599-UM","2018/11/30 17:39:36","新北市樹林區太平路127巷12號","121.4198","24.9806066666667","6500700","樹林區"
"238018","571-TV","2018/11/30 17:39:33","新北市樹林區鎮前街1號","121.42609","24.99302","6500700","樹林區"
"238024","5061-A6","2018/11/30 17:39:46","新北市樹林區環河路2-2號","121.425705","24.9770183333333","6500700","樹林區"
"238022","KEA-2213","2018/11/30 17:39:37","新北市樹林區中華路185-2號","121.420193333333","24.9817233333333","6500700","樹林區"
"238021","KEA-2539","2018/11/30 17:39:28","新北市樹林區柑園街一段253巷47號","121.39701","24.9531416666667","6500700","樹林區"
"238025","303-VK","2018/11/30 17:39:46","新北市樹林區保安街三段71-3號","121.412618333333","25.01231","6500700","樹林區"
"238017","283-BY","2018/11/30 17:39:46","新北市樹林區中正路248巷28弄18號","121.41881","25.0077166666667","6500700","樹林區"
"238014","282-BY","2018/11/30 17:39:44","新北市樹林區保安街一段313巷25-1號","121.417153333333","24.9974083333333","6500700","樹林區"
"238020","268-VK","2018/11/30 17:39:38","新北市樹林區俊英街116巷29弄8號","121.428145","25.0065533333333","6500700","樹林區"
"238026","172-UY","2018/11/30 17:39:42","新北市樹林區新興街19巷36弄5號","121.402446666667","24.973295","6500700","樹林區"
"238016","169-UY","2018/11/30 17:39:36","新北市樹林區育英街134號","121.419683333333","24.9894383333333","6500700","樹林區"
"239007","AAC-297","2018/11/30 17:39:30","新北市鶯歌區鶯桃路180號","121.336978333333","24.955485","6500800","鶯歌區"
"239006","891-R6","2018/11/30 17:39:29","新北市鶯歌區永和街115巷46號","121.333128333333","24.9695833333333","6500800","鶯歌區"
"239008","527-UM","2018/11/30 17:39:40","新北市鶯歌區大湖路732巷15弄1號","121.33301","24.9776133333333","6500800","鶯歌區"
"239005","526-UM","2018/11/30 17:39:22","新北市鶯歌區鳳吉四街46號","121.327678333333","24.9730466666667","6500800","鶯歌區"
"239001","417-VK","2018/11/30 17:39:26","新北市鶯歌區中正三路273號","121.332628333333","24.9380283333333","6500800","鶯歌區"
"239003","360-BY","2018/11/30 17:39:31","新北市鶯歌區鶯桃路206巷12號","121.337576666667","24.9594033333333","6500800","鶯歌區"
"239002","359-BY","2018/11/30 17:39:32","新北市鶯歌區南雅路442號","121.345816666667","24.9538316666667","6500800","鶯歌區"
"239004","193-VK","2018/11/30 17:39:46","新北市鶯歌區三鶯路21號","121.356","24.9413666666667","6500800","鶯歌區"
"221008","489-VK","2018/11/30 17:39:34","新北市汐止區康寧街901號","121.651383333333","25.0750583333333","6501100","汐止區"
"221036","130-UY","2018/11/30 17:39:33","新北市汐止區汐萬路一段256巷1號","121.65193","25.0749466666667","6501100","汐止區"
"221010","269-BY","2018/11/30 17:39:42","新北市汐止區汐萬路一段418巷29號","121.650235","25.078895","6501100","汐止區"
"221032","280-BY","2018/11/30 17:39:31","新北市汐止區康寧街901號","121.651691666667","25.07495","6501100","汐止區"
"221021","299-VK","2018/11/30 17:39:34","新北市汐止區汐萬路一段256巷3號","121.652071666667","25.0749233333333","6501100","汐止區"
"221031","353-TW","2018/11/30 17:39:40","新北市汐止區汐萬路一段301號","121.649635","25.07579","6501100","汐止區"
"221018","753-BX","2018/11/30 17:39:26","新北市汐止區汐萬路一段312號","121.650665","25.07532","6501100","汐止區"
"242041","281-VK","2018/11/30 17:39:44","新北市新莊區中正路514巷49號","121.432221666667","25.033585","6500500","新莊區"
"242007","280-VK","2018/11/30 17:39:44","新北市新莊區福樂街118巷6號","121.457405","25.0480283333333","6500500","新莊區"
"235061","KEA-2875","2018/11/30 17:16:13","新北市中和區員山路36巷16-2號","121.485115","24.991745","6500300","中和區"
