"lineid","car","time","location","longitude","latitude","cityid","cityname"
"234046","148-BY","2018/11/30 19:19:42","新北市永和區永元路21號","121.522111666667","25.0005733333333","6500400","永和區"
"234007","207-UY","2018/11/30 19:19:46","新北市永和區中山路一段230號","121.508035","25.00811","6500400","永和區"
"234081","298-R6","2018/11/30 19:19:52","新北市永和區福和路7巷7號","121.525333333333","25.00785","6500400","永和區"
"234038","336-UY","2018/11/30 19:19:44","新北市永和區民樂街49號","121.527478333333","24.9988216666667","6500400","永和區"
"234064","337-UY","2018/11/30 19:19:50","新北市永和區得和路243巷28弄21號","121.5214","25.0011183333333","6500400","永和區"
"234070","552-UM","2018/11/30 19:19:48","新北市永和區中正路700號","121.516336666667","25.0099083333333","6500400","永和區"
"234017","745-BX","2018/11/30 19:19:38","新北市永和區文化路144巷31弄7號","121.51203","25.0168733333333","6500400","永和區"
"234030","746-BX","2018/11/30 19:19:40","新北市永和區厚德街84號","121.52372","24.9988733333333","6500400","永和區"
"234054","KEA-2590","2018/11/30 19:19:37","新北市永和區中興街12號","121.515776666667","25.0119183333333","6500400","永和區"
"234013","KEA-2591","2018/11/30 19:19:35","新北市永和區信義路49號","121.512941666667","25.0124466666667","6500400","永和區"
"234061","AAD-866","2018/11/30 19:19:42","新北市永和區秀朗路一段175號","121.517058333333","25.0035833333333","6500400","永和區"
"234086","748-BX","2018/11/30 19:19:47","新北市永和區永利路69號","121.519675","25.0047766666667","6500400","永和區"
"234042","862-TW","2018/11/30 19:19:49","新北市永和區永貞路287巷3號","121.510916666667","25.0052","6500400","永和區"
"234050","863-TW","2018/11/30 19:19:42","新北市永和區仁愛路104巷4號","121.51209","25.0134116666667","6500400","永和區"
"234023","9372-KE","2018/11/30 19:19:47","新北市永和區竹林路109巷8號","121.520278333333","25.011935","6500400","永和區"
"234026","9371-KE","2018/11/30 19:19:37","新北市永和區安樂路104巷1號","121.514483333333","24.99967","6500400","永和區"
"234011","9373-KE","2018/11/30 19:19:31","新北市永和區保福路二段9巷15弄5號","121.510341666667","25.01088","6500400","永和區"
"249001","173-UM","2018/11/30 19:19:41","新北市八里區中華路二段145號","121.40899","25.1525733333333","6502300","八里區"
"249003","593-UM","2018/11/30 19:19:46","新北市八里區中山路二段466巷8號","121.398796666667","25.14747","6502300","八里區"
"248016","026-BX","2018/11/30 19:19:39","新北市五股區成洲五路12號","121.4523","25.10156","6501500","五股區"
"248018","225-UY","2018/11/30 19:17:56","新北市五股區壟路11-3號","121.41558","25.08525","6501500","五股區"
"248012","655-BX","2018/11/30 19:19:35","新北市五股區中興路四段38巷11號","121.438738333333","25.0834316666667","6501500","五股區"
"248004","677-BX","2018/11/30 19:19:50","新北市五股區五福路149號","121.432015","25.091435","6501500","五股區"
"248002","678-BX","2018/11/30 19:19:38","新北市五股區凌雲路一段158巷14-1號","121.4479","25.1035333333333","6501500","五股區"
"248010","682-TV","2018/11/30 19:19:42","新北市五股區自強路90巷72號","121.430821666667","25.0713016666667","6501500","五股區"
"234077","969-R7","2018/11/30 19:19:46","新北市永和區民治街70號","121.51786","24.998255","6500400","永和區"
"234074","AAC-211","2018/11/30 19:19:47","新北市永和區竹林路94-1號","121.519568333333","25.0121983333333","6500400","永和區"
"234067","AAC-212","2018/11/30 19:19:48","新北市永和區保平路50巷8弄1號","121.511038333333","25.0075716666667","6500400","永和區"
"234003","AAC-295","2018/11/30 19:19:49","新北市永和區中山路一段105號","121.510975","25.0103183333333","6500400","永和區"
"244023","069-UM","2018/11/30 19:19:47","新北市林口區仁愛路二段383-8號","121.369563333333","25.08039","6501700","林口區"
"244017","485-VK","2018/11/30 19:19:29","新北市林口區公園路94號","121.369635","25.0705366666667","6501700","林口區"
"244011","701-TV","2018/11/30 19:19:42","新北市林口區中正路264巷31號","121.388655","25.07822","6501700","林口區"
"244025","837-TS","2018/11/30 19:19:29","新北市林口區文化三路一段555巷40號","121.369898333333","25.0769766666667","6501700","林口區"
"243010","267-VK","2018/11/30 19:19:49","新北市泰山區明志路二段32巷5號","121.429358333333","25.0534966666667","6501600","泰山區"
"243013","AAD-798","2018/11/30 19:19:32","新北市泰山區明志路三段145巷8弄2號","121.425746666667","25.0397266666667","6501600","泰山區"
"243009","297-R6","2018/11/30 19:19:49","新北市泰山區和平街15號","121.434371666667","25.064585","6501600","泰山區"
"243016","KEA-2801","2018/11/30 19:19:42","新北市泰山區明志路三段151-1號","121.424898333333","25.040125","6501600","泰山區"
"243015","421-VK","2018/11/30 19:19:48","新北市泰山區明志路二段8號","121.42997","25.0536083333333","6501600","泰山區"
"243011","KEA-2215","2018/11/30 19:19:49","新北市泰山區貴子路15巷4弄2號","121.426575","25.0422416666667","6501600","泰山區"
"243012","646-TV","2018/11/30 19:19:48","新北市泰山區仁武街31號","121.432851666667","25.0543633333333","6501600","泰山區"
"243014","680-BX","2018/11/30 19:19:40","新北市泰山區泰林路二段197號","121.433278333333","25.06135","6501600","泰山區"
"222002","016-RS","2018/11/30 19:19:38","新北市深坑區北深路一段210號","121.632606666667","25.0108983333333","6501800","深坑區"
"222003","436-BY","2018/11/30 19:19:50","新北市深坑區深南路204號","121.626648333333","25.0160783333333","6501800","深坑區"
"231041","002-UM","2018/11/30 19:19:47","新北市新店區溪園路205號","121.527155","24.9846566666667","6500600","新店區"
"231059","046-UY","2018/11/30 19:19:46","新北市新店區安和路二段193號","121.518125","24.9750366666667","6500600","新店區"
"231040","047-UY","2018/11/30 19:19:44","新北市新店區三民路35巷3號","121.53763","24.9705383333333","6500600","新店區"
"231044","106-UY","2018/11/30 19:19:42","新北市新店區中興路三段309-1號","121.54197","24.9860466666667","6500600","新店區"
"231046","107-UY","2018/11/30 19:19:35","新北市新店區華城路5-3號","121.529275","24.9578933333333","6500600","新店區"
"231053","108-UY","2018/11/30 19:19:50","新北市新店區新烏路二段200巷11號","121.547656666667","24.916595","6500600","新店區"
"231048","187-VK","2018/11/30 19:19:31","新北市新店區中興路二段57巷1號","121.54626","24.9704683333333","6500600","新店區"
"231054","KEA-2219","2018/11/30 19:19:17","新北市新店區新店路232-2號","121.537346666667","24.9569166666667","6500600","新店區"
"231042","268-BY","2018/11/30 19:19:33","新北市新店區中興路一段115號","121.54149","24.96274","6500600","新店區"
"231050","AAD-862","2018/11/30 19:19:38","新北市新店區竹林路30巷1號","121.552301666667","24.9513033333333","6500600","新店區"
"231058","3713-VJ","2018/11/30 19:19:49","新北市新店區檳榔路36巷14號","121.541158333333","24.9632666666667","6500600","新店區"
"231066","4716-K9","2018/11/30 19:19:33","新北市新店區安康路二段458號","121.494098333333","24.9539233333333","6500600","新店區"
"231056","4715-K9","2018/11/30 19:19:39","新北市新店區安康路二段414巷2號","121.49586","24.95775","6500600","新店區"
"231065","512-UM","2018/11/30 19:19:49","新北市新店區安祥路145巷2號","121.474835","24.955685","6500600","新店區"
"231049","513-UM","2018/11/30 19:19:34","新北市新店區明德路111號","121.541541666667","24.9794116666667","6500600","新店區"
"231063","616-UM","2018/11/30 19:19:32","新北市新店區達觀路14巷1-3號","121.504216666667","24.942195","6500600","新店區"
"231045","617-UM","2018/11/30 19:19:47","新北市新店區北宜路一段260號","121.545681666667","24.9527633333333","6500600","新店區"
"231061","619-UM","2018/11/30 19:19:43","新北市新店區安康路一段65號","121.530398333333","24.9610383333333","6500600","新店區"
"231064","719-UM","2018/11/30 19:19:38","新北市新店區安忠路57巷1-5號","121.513463333333","24.9594766666667","6500600","新店區"
"231051","719-UY","2018/11/30 19:19:39","新北市新店區中央路63號","121.532403333333","24.9770533333333","6500600","新店區"
"231062","720-UM","2018/11/30 19:19:42","新北市新店區安康路一段201-1號","121.526201666667","24.962915","6500600","新店區"
"231060","898-TW","2018/11/30 19:19:40","新北市新店區安康路二段102號","121.513511666667","24.9629733333333","6500600","新店區"
"231043","899-TW","2018/11/30 19:19:48","新北市新店區北新路二段150號","121.543088333333","24.97496","6500600","新店區"
"241028","022-UY","2018/11/30 19:19:44","新北市三重區重新路三段130號","121.491915","25.0597533333333","6500200","三重區"
"241022","060-VK","2018/11/30 19:19:44","新北市三重區重陽路二段46號","121.487135","25.0633116666667","6500200","三重區"
"241031","061-VK","2018/11/30 19:19:33","新北市三重區重新路四段95號","121.485948333333","25.055015","6500200","三重區"
"241017","063-VK","2018/11/30 19:19:40","新北市三重區長壽西街218號","121.491955","25.0660716666667","6500200","三重區"
"241026","066-VK","2018/11/30 19:19:39","新北市三重區正義南路68巷1號","121.498871666667","25.0580616666667","6500200","三重區"
"241009","267-UM","2018/11/30 19:19:35","新北市三重區溪尾街230巷69號","121.486106666667","25.0811766666667","6500200","三重區"
"241032","269-UM","2018/11/30 19:19:45","新北市三重區新生街96號","121.483336666667","25.0593516666667","6500200","三重區"
"241025","271-UM","2018/11/30 19:19:35","新北市三重區中正北路406號","121.475385","25.0704533333333","6500200","三重區"
"241007","398-BY","2018/11/30 19:19:47","新北市三重區慈愛街58號","121.486701666667","25.0793416666667","6500200","三重區"
"241035","462-BY","2018/11/30 19:19:45","新北市三重區信義西街138號","121.495628333333","25.0643316666667","6500200","三重區"
"241030","480-VK","2018/11/30 19:19:45","新北市三重區新興路42號","121.491476666667","25.05337","6500200","三重區"
"241020","743-BX","2018/11/30 19:11:50","新北市三重區自強路三段17號","121.487266666667","25.0722633333333","6500200","三重區"
"241006","887-TS","2018/11/30 19:19:34","新北市三重區車路頭街159號","121.483735","25.077175","6500200","三重區"
"241029","942-UM","2018/11/30 19:19:46","新北市三重區重安街23號","121.490785","25.0573433333333","6500200","三重區"
"235066","003-UY","2018/11/30 19:19:33","新北市中和區景新街2號","121.502623333333","24.99973","6500300","中和區"
"235064","005-UY","2018/11/30 19:19:30","新北市中和區泰和街4號","121.499848333333","25.0013783333333","6500300","中和區"
"235063","006-UY","2018/11/30 19:19:49","新北市中和區連城路249巷17弄2號","121.493896666667","24.9963833333333","6500300","中和區"
"235056","096-UM","2018/11/30 19:19:37","新北市中和區中正路1171號","121.481116666667","25.0095316666667","6500300","中和區"
"235039","097-UM","2018/11/30 19:19:37","新北市中和區秀峰街103巷4弄14號","121.519855","24.9902433333333","6500300","中和區"
"235065","098-UM","2018/11/30 19:19:47","新北市中和區中山路二段2巷3弄1號","121.504838333333","25.0061233333333","6500300","中和區"
"235040","150-BY","2018/11/30 19:19:47","新北市中和區保健路50巷68號","121.50913","24.9951583333333","6500300","中和區"
"235058","151-BY","2018/11/30 19:19:38","新北市中和區連城路523巷13弄13號","121.481983333333","24.9938316666667","6500300","中和區"
"235055","183-VK","2018/11/30 19:19:40","新北市中和區德光路16號","121.471183333333","25.0044716666667","6500300","中和區"
"235038","185-VK","2018/11/30 19:19:30","新北市中和區大仁街10巷52號","121.520533333333","24.9926983333333","6500300","中和區"
"235049","186-VK","2018/11/30 19:19:43","新北市中和區景新街261號","121.50876","24.994085","6500300","中和區"
"235067","255-BX","2018/11/30 19:19:45","新北市中和區中正路803號","121.484873333333","25.0010866666667","6500300","中和區"
"235044","293-VK","2018/11/30 19:19:43","新北市中和區復興路307號","121.501331666667","24.9902916666667","6500300","中和區"
"235072","301-VK","2018/11/30 19:19:30","新北市中和區連城路265號","121.491303333333","24.9962983333333","6500300","中和區"
"235043","352-BY","2018/11/30 19:19:43","新北市中和區景平路426號","121.507478333333","24.9932916666667","6500300","中和區"
"235042","KEA-2878","2018/11/30 19:19:35","新北市中和區安樂路217巷21弄16號","121.513961666667","24.9977933333333","6500300","中和區"
"235050","4979-A6","2018/11/30 19:19:47","新北市中和區景安路208巷7號","121.503565","24.9910833333333","6500300","中和區"
"235069","4980-A6","2018/11/30 19:19:30","新北市中和區福美路230號","121.49924","25.0054","6500300","中和區"
"235070","558-UM","2018/11/30 19:19:44","新北市中和區中山路二段227號","121.49843","25.0025466666667","6500300","中和區"
"235045","565-BX","2018/11/30 19:19:41","新北市中和區景新街423巷33弄8-3號","121.513745","24.9900983333333","6500300","中和區"
"235054","640-BX","2018/11/30 19:19:34","新北市中和區國光街112巷14弄1號","121.469955","25.0013283333333","6500300","中和區"
"235060","647-TV","2018/11/30 19:19:35","新北市中和區員山路292號","121.48132","25.002455","6500300","中和區"
"235047","732-UM","2018/11/30 19:19:49","新北市中和區景平路241巷55號","121.508118333333","24.992125","6500300","中和區"
"235046","733-UM","2018/11/30 19:19:31","新北市中和區忠孝街2巷2-6號","121.510068333333","24.9823516666667","6500300","中和區"
"235071","783-BX","2018/11/30 19:19:49","新北市中和區連城路469巷33號","121.483525","24.994695","6500300","中和區"
"235057","801-TS","2018/11/30 19:19:47","新北市中和區員山路423巷16號","121.480305","25.0027166666667","6500300","中和區"
"235041","802-TS","2018/11/30 19:19:38","新北市永和區中和路385號","121.508621666667","25.00002","6500300","中和區"
"235052","805-TS","2018/11/30 19:19:45","新北市中和區華新街143巷17號","121.506658333333","24.9809466666667","6500300","中和區"
"235048","896-TW","2018/11/30 19:19:48","新北市中和區忠孝街99-1號","121.51205","24.9858866666667","6500300","中和區"
"235053","900-TW","2018/11/30 19:19:40","新北市中和區華安街17巷37號","121.467705","24.9982966666667","6500300","中和區"
"235051","157-BY","2018/11/30 19:19:40","新北市中和區景新街162號","121.505765","24.997125","6500300","中和區"
"235037","AAC-213","2018/11/30 19:19:31","新北市中和區秀朗路三段10巷37弄14號","121.523566666667","24.9958633333333","6500300","中和區"
"235059","AAC-215","2018/11/30 19:19:36","新北市中和區圓通路286巷10號","121.491553333333","24.99122","6500300","中和區"
"220068","013-TV","2018/11/30 19:19:44","新北市板橋區三民路一段1巷49號","121.480805","25.024805","6500100","板橋區"
"220065","072-UY","2018/11/30 19:19:42","新北市板橋區國泰街75巷29-1號","121.467903333333","25.0054833333333","6500100","板橋區"
"220086","073-UY","2018/11/30 19:19:46","新北市板橋區中正路216巷38-1號","121.457118333333","25.0188166666667","6500100","板橋區"
"220106","075-UY","2018/11/30 19:19:48","新北市板橋區雙十路三段70巷2號","121.47033","25.0323633333333","6500100","板橋區"
"220069","AAD-861","2018/11/30 19:19:43","新北市板橋區大華街182巷2號","121.458973333333","25.003515","6500100","板橋區"
"226004","205-ST","2018/11/30 19:19:35","新北市平溪區靜安路三段86號","121.770365","25.0351333333333","6502400","平溪區"
"228002","663-BX","2018/11/30 19:19:33","新北市貢寮區龍門里復興街14號","121.926495","25.0259383333333","6502600","貢寮區"
"228001","670-TC","2018/11/30 19:19:46","新北市貢寮區真理里新港街10號","121.92552","25.0543666666667","6502600","貢寮區"
"228003","828-UM","2018/11/30 19:19:41","新北市貢寮區和美里和美街19-2號","121.912826666667","25.0826016666667","6502600","貢寮區"
"224010","AGQ-8101","2018/11/30 19:19:40","新北市瑞芳區基山街109號","121.844495","25.10859","6501200","瑞芳區"
"227011","642-TC","2018/11/30 19:19:36","新北市雙溪區新基里新基北街40號","121.868513333333","25.03801","6502500","雙溪區"
"227003","400-TW","2018/11/30 19:19:34","新北市雙溪區平林里梅竹蹊66-1號","121.860158333333","25.0358133333333","6502500","雙溪區"
"253006","032-BX","2018/11/30 19:19:48","新北市石門區楓林18號","121.536565","25.291015","6502200","石門區"
"253005","295-VK","2018/11/30 19:19:50","新北市石門區阿里荖41-1號","121.60603","25.2819716666667","6502200","石門區"
"222001","KEA-2212","2018/11/30 19:19:38","新北市深坑區北深路二段103號","121.617405","25.0032716666667","6501800","深坑區"
"208002","KEA-2872","2018/11/30 19:19:32","新北市金山區環金路336號","121.63309","25.221055","6502700","金山區"
"208003","665-BX","2018/11/30 19:19:43","新北市金山區中山路110號","121.639606666667","25.2194766666667","6502700","金山區"
"208001","761-BX","2018/11/30 19:19:35","新北市金山區金包里街1-5號","121.640091666667","25.2206633333333","6502700","金山區"
"251005","010-UM","2018/11/30 19:19:49","新北市淡水區水源街一段31-1號","121.443376666667","25.17227","6501000","淡水區"
"251001","011-UM","2018/11/30 19:19:51","新北市淡水區自強路201巷43號","121.46214","25.1268233333333","6501000","淡水區"
"251008","180-VK","2018/11/30 19:14:42","新北市淡水區中正路二段31號","121.419163333333","25.1819133333333","6501000","淡水區"
"251010","413-VK","2018/11/30 19:19:47","新北市淡水區沙崙路30號","121.42147","25.181465","6501000","淡水區"
"251006","561-UM","2018/11/30 19:19:36","新北市淡水區大信街33號","121.442015","25.17733","6501000","淡水區"
"251007","577-R6","2018/11/30 19:19:39","新北市淡水區中正東路二段161巷8弄13號","121.461835","25.1452066666667","6501000","淡水區"
"251003","673-BX","2018/11/30 19:19:49","新北市淡水區中山北路一段245號","121.444683333333","25.1800083333333","6501000","淡水區"
"207003","550-UM","2018/11/30 19:19:43","新北市萬里區大鵬里萬里加投79-3號","121.64735","25.21236","6502800","萬里區"
"207004","225-TW","2018/11/30 19:19:45","新北市萬里區萬里里成功新村63號","121.688275","25.17459","6502800","萬里區"
"252002","178-VK","2018/11/30 19:19:41","新北市三芝區淡金路二段18-1號","121.502693333333","25.25952","6502100","三芝區"
"252001","292-VK","2018/11/30 19:19:44","新北市三芝區長勤街9巷11弄3號","121.501903333333","25.25474","6502100","三芝區"
"237004","KEA-2597","2018/11/30 19:19:34","新北市三峽區有木205-1號","121.439065","24.85155","6500900","三峽區"
"237007","153-BY","2018/11/30 19:19:40","新北市三峽區二鬮路136巷20弄47號","121.357433333333","24.909955","6500900","三峽區"
"237009","210-TH","2018/11/30 19:19:31","新北市三峽區文化路152號","121.37041","24.9361433333333","6500900","三峽區"
"237013","252-BX","2018/11/30 19:19:43","新北市三峽區大同路39巷7號","121.37703","24.9279583333333","6500900","三峽區"
"237012","275-BY","2018/11/30 19:19:48","新北市三峽區三樹路98巷189號","121.38512","24.9415633333333","6500900","三峽區"
"237008","302-VK","2018/11/30 19:19:38","新北市三峽區中正路一段185號","121.372508333333","24.9279833333333","6500900","三峽區"
"237014","433-BY","2018/11/30 19:19:45","新北市三峽區中山路227號","121.363098333333","24.9371166666667","6500900","三峽區"
"237006","5529-G3","2018/11/30 19:19:39","新北市三峽區大同路41-9號","121.375911666667","24.9277683333333","6500900","三峽區"
"237011","KEA-2596","2018/11/30 19:19:48","新北市三峽區介壽路三段29號","121.395821666667","24.9368066666667","6500900","三峽區"
"237015","649-BX","2018/11/30 19:19:45","新北市三峽區成福路257號","121.427848333333","24.92353","6500900","三峽區"
"237010","706-TV","2018/11/30 19:19:36","新北市三峽區復興路89號","121.372413333333","24.9376366666667","6500900","三峽區"
"237005","AKY-6261","2018/11/30 19:19:50","新北市三峽區中山路459巷42號","121.356905","24.9371816666667","6500900","三峽區"
"236069","105-UM","2018/11/30 19:19:42","新北市土城區學成路76巷1號","121.451165","24.98828","6501300","土城區"
"236079","166-UM","2018/11/30 19:19:48","新北市土城區中州路12巷17號","121.415116666667","24.9575233333333","6501300","土城區"
"236026","269-VK","2018/11/30 19:19:48","新北市土城區中央路二段98號","121.44226","24.9785016666667","6501300","土城區"
"236014","270-VK","2018/11/30 19:19:46","新北市土城區學府路一段23巷23號","121.45768","24.9869866666667","6501300","土城區"
"236020","752-BX","2018/11/30 19:17:57","新北市土城區峰廷街3號","121.469016666667","24.9873333333333","6501300","土城區"
"236059","912-UM","2018/11/30 19:19:42","新北市土城區中央路二段223-8號","121.440551666667","24.97329","6501300","土城區"
"236048","913-UM","2018/11/30 19:19:39","新北市土城區明德路一段365-1號","121.453666666667","24.979085","6501300","土城區"
"242048","497-BY","2018/11/30 19:19:49","新北市新莊區後港一路3號","121.424128333333","25.0263233333333","6500500","新莊區"
"242032","348-TH","2018/11/30 19:19:46","新北市新莊區新泰路357巷3弄57號","121.442206666667","25.03956","6500500","新莊區"
"242005","349-TH","2018/11/30 19:19:33","新北市新莊區新泰路277巷57弄14號","121.442911666667","25.039915","6500500","新莊區"
"238015","755-BX","2018/11/30 19:19:49","新北市樹林區大安路531號","121.413616666667","24.9854016666667","6500700","樹林區"
"238023","601-UM","2018/11/30 19:19:45","新北市樹林區中正路865號","121.408818333333","25.0181566666667","6500700","樹林區"
"238019","599-UM","2018/11/30 19:19:42","新北市樹林區鎮前街347巷1弄20號","121.417143333333","24.983975","6500700","樹林區"
"238024","5061-A6","2018/11/30 19:19:38","新北市樹林區福德街17號","121.401026666667","24.9760616666667","6500700","樹林區"
"238022","KEA-2213","2018/11/30 19:19:37","新北市樹林區中華路190-6號","121.409966666667","24.980565","6500700","樹林區"
"238021","KEA-2539","2018/11/30 19:19:43","新北市樹林區柑園街二段247巷17號","121.375475","24.9505116666667","6500700","樹林區"
"238025","303-VK","2018/11/30 19:19:46","新北市樹林區中華路190-6號","121.410153333333","24.9805266666667","6500700","樹林區"
"238017","283-BY","2018/11/30 19:19:46","新北市樹林區光興街156號","121.407161666667","25.0043166666667","6500700","樹林區"
"238014","282-BY","2018/11/30 19:19:44","新北市樹林區千歲街35號","121.425116666667","24.995865","6500700","樹林區"
"238020","268-VK","2018/11/30 19:19:49","新北市樹林區俊英街121巷22號","121.423448333333","25.0100733333333","6500700","樹林區"
"238026","172-UY","2018/11/30 19:19:41","新北市樹林區佳園路二段86巷82號","121.390415","24.9589566666667","6500700","樹林區"
"238016","169-UY","2018/11/30 19:19:41","新北市樹林區中山路二段10號","121.417638333333","24.9852183333333","6500700","樹林區"
"239006","891-R6","2018/11/30 19:19:47","新北市鶯歌區永昌街204號","121.338955","24.9504966666667","6500800","鶯歌區"
"239008","527-UM","2018/11/30 19:19:40","新北市鶯歌區大湖路460巷2弄2號","121.339948333333","24.9724083333333","6500800","鶯歌區"
"239001","417-VK","2018/11/30 19:19:46","新北市鶯歌區建國路588號","121.33998","24.9524333333333","6500800","鶯歌區"
"239002","359-BY","2018/11/30 19:19:32","新北市鶯歌區大湖路185巷10號","121.343445","24.9708333333333","6500800","鶯歌區"
"221008","489-VK","2018/11/30 19:19:34","新北市汐止區康寧街302-1號","121.626251666667","25.0671133333333","6501100","汐止區"
"221036","130-UY","2018/11/30 19:19:33","新北市汐止區汐萬路一段256巷1號","121.651718333333","25.0748883333333","6501100","汐止區"
"221015","131-UY","2018/11/30 19:19:40","新北市汐止區康寧街901號","121.651556666667","25.0749616666667","6501100","汐止區"
"221010","269-BY","2018/11/30 19:19:41","新北市汐止區康寧街901號","121.651328333333","25.0751033333333","6501100","汐止區"
"221012","278-VK","2018/11/30 19:19:44","新北市汐止區汐萬路一段273號","121.650465","25.074535","6501100","汐止區"
"221027","281-BY","2018/11/30 19:19:47","新北市汐止區汐萬路一段273號","121.65046","25.074495","6501100","汐止區"
"221029","298-VK","2018/11/30 19:19:37","新北市汐止區康寧街901號","121.65161","25.07494","6501100","汐止區"
"221021","299-VK","2018/11/30 19:19:34","新北市汐止區康寧街901號","121.65148","25.07502","6501100","汐止區"
"221031","353-TW","2018/11/30 19:19:40","新北市汐止區康寧街901號","121.650821666667","25.0752983333333","6501100","汐止區"
"221002","129-UY","2018/11/30 19:19:35","新北市汐止區大同路一段341號","121.63864","25.059465","6501100","汐止區"
"221025","623-UM","2018/11/30 19:19:48","新北市汐止區康寧街901號","121.651621666667","25.075","6501100","汐止區"
"221038","646-BX","2018/11/30 19:19:47","新北市汐止區汐萬路一段312號","121.650646666667","25.075315","6501100","汐止區"
"220079","145-BY","2018/11/30 19:19:36","新北市板橋區民權路202巷24號","121.460768333333","25.016975","6500100","板橋區"
"220080","200-UY","2018/11/30 19:19:39","新北市板橋區大觀路二段3巷1號","121.447355","25.00385","6500100","板橋區"
"220082","610-BX","2018/11/30 19:19:44","新北市板橋區金門街301號","121.43003","24.9865033333333","6500100","板橋區"
"220101","245-BX","2018/11/30 19:19:44","新北市板橋區莊敬路25巷19號","121.474545","25.0269033333333","6500100","板橋區"
"224002","257-TC","2018/11/30 19:19:28","新北市瑞芳區三爪子坑路89-17號","121.812131666667","25.1073066666667","6501200","瑞芳區"
"220056","276-BY","2018/11/30 19:19:46","新北市板橋區信義路83號","121.457868333333","24.9942283333333","6500100","板橋區"
"220072","277-BY","2018/11/30 19:19:37","新北市板橋區金門街307號","121.429926666667","24.98637","6500100","板橋區"
"220071","283-VK","2018/11/30 19:19:45","新北市板橋區忠孝路48巷4弄11號","121.460476666667","25.0006216666667","6500100","板橋區"
"220094","285-UM","2018/11/30 19:19:46","新北市板橋區吳鳳路21巷2號","121.466936666667","25.0312183333333","6500100","板橋區"
"220053","285-VK","2018/11/30 19:19:35","新北市板橋區富山街5號","121.478605","25.021655","6500100","板橋區"
"220083","286-VK","2018/11/30 19:19:48","新北市板橋區大觀路二段174巷166弄16號","121.44241","25.0030816666667","6500100","板橋區"
"220081","287-VK","2018/11/30 19:19:35","新北市板橋區南雅西路一段122號","121.45269","25.0066816666667","6500100","板橋區"
"220090","288-VK","2018/11/30 19:19:48","新北市板橋區長江路一段106巷13弄3號","121.460208333333","25.0291666666667","6500100","板橋區"
"220061","295-UM","2018/11/30 19:19:49","新北市板橋區中山路二段326-1號","121.481055","25.019485","6500100","板橋區"
"220084","296-UM","2018/11/30 19:19:40","新北市板橋區滿平街136巷2弄24號","121.428051666667","24.9882816666667","6500100","板橋區"
"220092","299-UM","2018/11/30 19:19:37","新北市板橋區光武街48巷25號","121.467736666667","25.026845","6500100","板橋區"
"220075","303-R5","2018/11/30 19:19:34","新北市板橋區中正路275巷93號","121.450635","25.018015","6500100","板橋區"
"220062","305-R5","2018/11/30 19:19:44","新北市板橋區三民路二段153巷30弄35號","121.481055","25.0146183333333","6500100","板橋區"
"220098","317-R6","2018/11/30 19:19:42","新北市板橋區民有街89巷8弄1號","121.464193333333","25.027375","6500100","板橋區"
"220089","487-VK","2018/11/30 19:19:45","新北市板橋區文化路一段351號","121.466738333333","25.0209616666667","6500100","板橋區"
"220088","491-VK","2018/11/30 19:19:38","新北市板橋區雙十路一段3號","121.478135","25.0240116666667","6500100","板橋區"
"220035","560-BX","2018/11/30 19:19:37","新北市板橋區中正路431號","121.45415","25.0231633333333","6500100","板橋區"
"220103","561-BX","2018/11/30 19:19:36","新北市板橋區文化路一段188巷5弄13號","121.4675","25.0198216666667","6500100","板橋區"
"220063","609-BX","2018/11/30 19:19:44","新北市板橋區三民路一段89號","121.4796","25.0219316666667","6500100","板橋區"
"220091","637-BX","2018/11/30 19:19:41","新北市板橋區松柏街78號","121.476436666667","25.030255","6500100","板橋區"
"220057","686-BX","2018/11/30 19:19:40","新北市板橋區重慶路344號","121.464375","24.99738","6500100","板橋區"
"220077","687-BX","2018/11/30 19:19:45","新北市板橋區僑中二街88巷1號","121.446438333333","25.00926","6500100","板橋區"
"220093","689-BX","2018/11/30 19:19:42","新北市板橋區漢生西路31號","121.46315","25.0183816666667","6500100","板橋區"
"220054","741-BX","2018/11/30 19:19:50","新北市板橋區重慶路155巷35號","121.463446666667","25.00417","6500100","板橋區"
"220102","KEA-2699","2018/11/30 19:19:43","新北市板橋區大同街55號","121.478678333333","25.027675","6500100","板橋區"
"220064","806-UM","2018/11/30 19:19:35","新北市板橋區縣民大道二段3號","121.462391666667","25.0121066666667","6500100","板橋區"
"220055","827-TW","2018/11/30 19:19:45","新北市板橋區館前東路156巷38號","121.464415","25.0067666666667","6500100","板橋區"
"220067","830-TW","2018/11/30 19:19:45","新北市板橋區長安街138巷1弄54號","121.47402","25.0101383333333","6500100","板橋區"
"220096","831-TW","2018/11/30 19:19:36","新北市板橋區大同街26巷35號","121.478591666667","25.026275","6500100","板橋區"
"220074","895-R6","2018/11/30 19:19:38","新北市板橋區文化路一段27-1號","121.459913333333","25.012815","6500100","板橋區"
"220073","985-R7","2018/11/30 19:19:43","新北市板橋區新生街16號","121.45546","25.021125","6500100","板橋區"
"220097","AAC-210","2018/11/30 19:19:33","新北市板橋區幸福路60巷20號","121.460488333333","25.0213166666667","6500100","板橋區"
"220070","AAC-253","2018/11/30 19:19:46","新北市板橋區忠孝路120號","121.463006666667","25.0022966666667","6500100","板橋區"
"235068","KEA-2873","2018/11/30 19:19:26","新北市中和區連勝街38巷7號","121.497703333333","24.99789","6500300","中和區"
"235061","KEA-2875","2018/11/30 19:19:43","新北市中和區員山路143巷40弄1號","121.479038333333","24.995565","6500300","中和區"
