"lineid","car","time","location","longitude","latitude","cityid","cityname"
"234046","148-BY","2018/11/30 19:29:37","新北市永和區秀朗路二段257號","121.526336666667","24.99924","6500400","永和區"
"234007","207-UY","2018/11/30 19:29:46","新北市永和區永和路一段178號","121.514235","25.0088683333333","6500400","永和區"
"234081","298-R6","2018/11/30 19:29:32","新北市永和區林森路10巷8號","121.526125","25.00608","6500400","永和區"
"234038","336-UY","2018/11/30 19:29:43","新北市永和區民樂街28號","121.527475","25.0015683333333","6500400","永和區"
"234064","337-UY","2018/11/30 19:29:30","新北市永和區中正路368巷1弄88號","121.520476666667","25.0007483333333","6500400","永和區"
"234070","552-UM","2018/11/30 19:29:48","新北市永和區竹林路177號","121.520518333333","25.0097716666667","6500400","永和區"
"234017","745-BX","2018/11/30 19:29:38","新北市永和區環河西路一段87-1號","121.512518333333","25.01798","6500400","永和區"
"234030","746-BX","2018/11/30 19:29:47","新北市永和區民生路20號","121.522623333333","24.9974133333333","6500400","永和區"
"234054","KEA-2590","2018/11/30 19:29:37","新北市永和區竹林路37號","121.517896666667","25.0141566666667","6500400","永和區"
"234013","KEA-2591","2018/11/30 19:29:35","新北市永和區中山路一段203號","121.508968333333","25.00849","6500400","永和區"
"234061","AAD-866","2018/11/30 19:29:42","新北市永和區中正路530號","121.517331666667","25.005145","6500400","永和區"
"234086","748-BX","2018/11/30 19:29:47","新北市永和區國中路2號","121.524151666667","25.0043166666667","6500400","永和區"
"234042","862-TW","2018/11/30 19:29:45","新北市永和區水源街30巷2號","121.511403333333","25.004615","6500400","永和區"
"234050","863-TW","2018/11/30 19:29:39","新北市永和區仁愛路152號","121.510766666667","25.0129216666667","6500400","永和區"
"234023","9372-KE","2018/11/30 19:29:47","新北市永和區環河東路2段6-1號","121.521881666667","25.013425","6500400","永和區"
"234026","9371-KE","2018/11/30 19:29:42","新北市中和區安平路220號","121.513838333333","25.0000533333333","6500400","永和區"
"234011","9373-KE","2018/11/30 19:29:31","新北市永和區保福路二段163巷13弄16號","121.509203333333","25.01423","6500400","永和區"
"249003","593-UM","2018/11/30 19:29:47","新北市八里區舊城路21號","121.39985","25.1468933333333","6502300","八里區"
"248014","025-BX","2018/11/30 19:29:47","新北市五股區民義路一段183巷9-3號","121.430291666667","25.0863883333333","6501500","五股區"
"248016","026-BX","2018/11/30 19:29:39","新北市五股區凌雲路一段40號","121.451851666667","25.10079","6501500","五股區"
"248008","095-VK","2018/11/30 19:29:48","新北市五股區中興路一段95巷15號","121.466565","25.0722616666667","6501500","五股區"
"248018","225-UY","2018/11/30 19:29:35","新北市五股區外寮路1-1號","121.425828333333","25.0768083333333","6501500","五股區"
"248012","655-BX","2018/11/30 19:29:35","新北市五股區中興路四段38巷11號","121.438733333333","25.0834333333333","6501500","五股區"
"248004","677-BX","2018/11/30 19:29:30","新北市五股區五福路2號","121.433923333333","25.0872433333333","6501500","五股區"
"248002","678-BX","2018/11/30 19:29:38","新北市五股區凌雲路一段158巷20號","121.447935","25.1036633333333","6501500","五股區"
"248010","682-TV","2018/11/30 19:29:42","新北市五股區自強路90巷72號","121.430808333333","25.071275","6501500","五股區"
"234077","969-R7","2018/11/30 19:29:46","新北市永和區民族街43巷8號","121.51893","24.9983883333333","6500400","永和區"
"234074","AAC-211","2018/11/30 19:29:47","新北市永和區環河東路一段122號","121.52058","25.0156416666667","6500400","永和區"
"234067","AAC-212","2018/11/30 19:29:48","新北市永和區永貞路376號","121.509793333333","25.0070766666667","6500400","永和區"
"234003","AAC-295","2018/11/30 19:29:41","新北市永和區福和路353號","121.51462","25.0073433333333","6500400","永和區"
"244023","069-UM","2018/11/30 19:29:47","新北市林口區民富街95號","121.37025","25.0750533333333","6501700","林口區"
"243010","267-VK","2018/11/30 19:29:49","新北市泰山區民生路20號","121.430415","25.0523866666667","6501600","泰山區"
"243013","AAD-798","2018/11/30 19:29:32","新北市泰山區明志路三段62號","121.424926666667","25.0421366666667","6501600","泰山區"
"243009","297-R6","2018/11/30 19:29:49","新北市泰山區半山雅14號","121.431405","25.0674916666667","6501600","泰山區"
"243016","KEA-2801","2018/11/30 19:29:42","新北市泰山區明志路三段166號","121.42419","25.0394616666667","6501600","泰山區"
"243015","421-VK","2018/11/30 19:29:48","新北市泰山區民權街52號","121.42886","25.05054","6501600","泰山區"
"243011","KEA-2215","2018/11/30 19:29:49","新北市泰山區貴子路120號","121.42827","25.04064","6501600","泰山區"
"243012","646-TV","2018/11/30 19:29:48","新北市泰山區仁愛路6巷7弄9號","121.431405","25.0539383333333","6501600","泰山區"
"243014","680-BX","2018/11/30 19:29:40","新北市泰山區仁義路220巷53號","121.432171666667","25.0526916666667","6501600","泰山區"
"222002","016-RS","2018/11/30 19:29:38","新北市深坑區北深路一段177號","121.632598333333","25.0108916666667","6501800","深坑區"
"222003","436-BY","2018/11/30 19:29:50","新北市深坑區深南路88巷1號","121.621328333333","25.0104566666667","6501800","深坑區"
"231041","002-UM","2018/11/30 19:29:48","新北市新店區中正路545號","121.533775","24.9877133333333","6500600","新店區"
"231059","046-UY","2018/11/30 19:29:46","新北市新店區安和路三段4巷1-3號","121.518211666667","24.9805583333333","6500600","新店區"
"231040","047-UY","2018/11/30 19:29:45","新北市新店區北新路一段60號","121.541076666667","24.96649","6500600","新店區"
"231044","106-UY","2018/11/30 19:29:42","新北市新店區中興路三段135號","121.544601666667","24.979675","6500600","新店區"
"231046","107-UY","2018/11/30 19:29:35","新北市新店區中央路93號","121.531911666667","24.9759066666667","6500600","新店區"
"231053","108-UY","2018/11/30 19:29:50","新北市新店區廣興路120號","121.535941666667","24.91136","6500600","新店區"
"231048","187-VK","2018/11/30 19:29:51","新北市新店區五峰路87號","121.5462","24.96743","6500600","新店區"
"231054","KEA-2219","2018/11/30 19:29:45","新北市新店區文中路45號","121.539608333333","24.9566266666667","6500600","新店區"
"231057","256-BX","2018/11/30 19:29:45","新北市新店區花園一路二段25號","121.5513","24.9325433333333","6500600","新店區"
"231042","268-BY","2018/11/30 19:29:44","新北市新店區中興路一段49號","121.539568333333","24.960155","6500600","新店區"
"231050","AAD-862","2018/11/30 19:29:38","新北市新店區竹林路97巷10號","121.55406","24.949545","6500600","新店區"
"231058","3713-VJ","2018/11/30 19:29:29","新北市新店區北新路二段228巷2號","121.543153333333","24.9772766666667","6500600","新店區"
"231066","4716-K9","2018/11/30 19:29:33","新北市新店區安康路三段363號","121.484113333333","24.9507516666667","6500600","新店區"
"231056","4715-K9","2018/11/30 19:29:39","新北市新店區柴埕路59號","121.513556666667","24.96494","6500600","新店區"
"231065","512-UM","2018/11/30 19:29:49","新北市新店區安祥路109巷1弄2號","121.475548333333","24.9592733333333","6500600","新店區"
"231049","513-UM","2018/11/30 19:29:34","新北市新店區北新路三段65巷34弄12號","121.540078333333","24.98146","6500600","新店區"
"231063","616-UM","2018/11/30 19:29:32","新北市新店區達觀路18-1號","121.502773333333","24.94141","6500600","新店區"
"231045","617-UM","2018/11/30 19:29:47","新北市新店區北宜路二段209號","121.55319","24.9532883333333","6500600","新店區"
"231061","619-UM","2018/11/30 19:29:43","新北市新店區安康路一段222-3號","121.522723333333","24.963745","6500600","新店區"
"231064","719-UM","2018/11/30 19:29:33","新北市新店區安忠路36號","121.514423333333","24.9613266666667","6500600","新店區"
"231051","719-UY","2018/11/30 19:29:39","新北市新店區中央五街30號","121.52884","24.9747516666667","6500600","新店區"
"231062","720-UM","2018/11/30 19:29:42","新北市新店區莒光路99號","121.521895","24.953505","6500600","新店區"
"231060","898-TW","2018/11/30 19:29:44","新北市新店區安康路二段93號","121.513136666667","24.962775","6500600","新店區"
"231043","899-TW","2018/11/30 19:29:48","新北市新店區北新路二段182號","121.542908333333","24.9761966666667","6500600","新店區"
"241028","022-UY","2018/11/30 19:29:43","新北市三重區中寮街122號","121.493865","25.0575666666667","6500200","三重區"
"241008","059-VK","2018/11/30 19:29:41","新北市三重區永福街111巷35弄13號","121.477478333333","25.0769483333333","6500200","三重區"
"241022","060-VK","2018/11/30 19:29:44","新北市三重區三民街165巷11號","121.483945","25.06519","6500200","三重區"
"241031","061-VK","2018/11/30 19:29:33","新北市三重區集美街100號","121.488538333333","25.0541983333333","6500200","三重區"
"241017","063-VK","2018/11/30 19:29:40","新北市三重區大仁街10號","121.491508333333","25.0631483333333","6500200","三重區"
"241026","066-VK","2018/11/30 19:29:39","新北市三重區文化南路38-2號","121.500333333333","25.06095","6500200","三重區"
"241009","267-UM","2018/11/30 19:29:35","新北市三重區仁美街123號","121.485676666667","25.0813383333333","6500200","三重區"
"241032","269-UM","2018/11/30 19:29:45","新北市三重區三陽路39號","121.485111666667","25.058835","6500200","三重區"
"241013","270-UM","2018/11/30 19:29:50","新北市三重區仁賢街16-1號","121.495776666667","25.0749833333333","6500200","三重區"
"241025","271-UM","2018/11/30 19:29:35","新北市三重區頂崁街210巷28弄9號","121.475785","25.0671833333333","6500200","三重區"
"241007","398-BY","2018/11/30 19:29:47","新北市三重區溪尾街126巷14號","121.488971666667","25.079205","6500200","三重區"
"241035","462-BY","2018/11/30 19:29:44","新北市三重區信義西街1巷3號","121.49811","25.0650866666667","6500200","三重區"
"241030","480-VK","2018/11/30 19:29:45","新北市三重區成功路41巷3號","121.490221666667","25.0513983333333","6500200","三重區"
"241014","543-UM","2018/11/30 19:29:34","新北市三重區長興街29號","121.50031","25.0686466666667","6500200","三重區"
"241020","743-BX","2018/11/30 19:28:50","新北市三重區三和路四段16號","121.491016666667","25.0741266666667","6500200","三重區"
"241006","887-TS","2018/11/30 19:29:34","新北市三重區自強路三段72號","121.486841666667","25.07356","6500200","三重區"
"241012","941-UM","2018/11/30 19:29:49","新北市三重區河邊北街266號","121.501648333333","25.0765","6500200","三重區"
"241029","942-UM","2018/11/30 19:29:46","新北市三重區泉州街84巷20號","121.495875","25.0543533333333","6500200","三重區"
"235066","003-UY","2018/11/30 19:29:33","新北市中和區景新街49號","121.504345","24.9989966666667","6500300","中和區"
"235064","005-UY","2018/11/30 19:29:50","新北市中和區南山路81巷53號","121.503915","24.99818","6500300","中和區"
"235063","006-UY","2018/11/30 19:29:29","新北市中和區連勝街165號","121.494226666667","24.99678","6500300","中和區"
"235056","096-UM","2018/11/30 19:29:38","新北市中和區民富街34號","121.4768","25.0065216666667","6500300","中和區"
"235039","097-UM","2018/11/30 19:29:36","新北市中和區秀峰街101號","121.520711666667","24.9902883333333","6500300","中和區"
"235065","098-UM","2018/11/30 19:29:50","新北市中和區中山路二段2巷13弄9號","121.503673333333","25.0065983333333","6500300","中和區"
"235040","150-BY","2018/11/30 19:29:47","新北市中和區保健路46巷37弄2號","121.508688333333","24.9955716666667","6500300","中和區"
"235058","151-BY","2018/11/30 19:29:38","新北市中和區員山路36巷16-2號","121.485215","24.9916383333333","6500300","中和區"
"235055","183-VK","2018/11/30 19:29:40","新北市中和區國光街8巷7號","121.471641666667","25.0006883333333","6500300","中和區"
"235038","185-VK","2018/11/30 19:29:30","新北市中和區自立路115號","121.522018333333","24.9944233333333","6500300","中和區"
"235049","186-VK","2018/11/30 19:29:43","新北市中和區景新街258號","121.509515","24.99334","6500300","中和區"
"235067","255-BX","2018/11/30 19:29:45","新北市中和區連城路340巷10弄26號","121.483326666667","24.99654","6500300","中和區"
"235044","293-VK","2018/11/30 19:29:43","新北市中和區捷運路155號","121.506433333333","24.991095","6500300","中和區"
"235072","301-VK","2018/11/30 19:29:50","新北市中和區連城路263巷8弄7號","121.491785","24.995215","6500300","中和區"
"235043","352-BY","2018/11/30 19:29:43","新北市中和區景新街157號","121.5067","24.9963233333333","6500300","中和區"
"235042","KEA-2878","2018/11/30 19:29:35","新北市中和區中和路262巷35-4號","121.509685","24.99942","6500300","中和區"
"235050","4979-A6","2018/11/30 19:29:47","新北市中和區中正路454號","121.490793333333","24.994175","6500300","中和區"
"235070","558-UM","2018/11/30 19:29:44","新北市中和區景平路626巷1號","121.500336666667","24.99778","6500300","中和區"
"235045","565-BX","2018/11/30 19:29:41","新北市中和區景新街383巷30號","121.513548333333","24.990655","6500300","中和區"
"235054","640-BX","2018/11/30 19:29:34","新北市中和區國光街107巷4弄26號","121.469961666667","24.9989383333333","6500300","中和區"
"235060","647-TV","2018/11/30 19:29:35","新北市中和區員山路294巷23號","121.482246666667","25.0027033333333","6500300","中和區"
"235047","732-UM","2018/11/30 19:29:49","新北市中和區景平路259巷39號","121.506491666667","24.9927816666667","6500300","中和區"
"235046","733-UM","2018/11/30 19:29:31","新北市中和區忠孝街37巷67號","121.510563333333","24.9847816666667","6500300","中和區"
"235071","783-BX","2018/11/30 19:29:49","新北市中和區新生街260號","121.483738333333","24.9973533333333","6500300","中和區"
"235057","801-TS","2018/11/30 19:29:47","新北市中和區中山路三段8號","121.479593333333","25.006105","6500300","中和區"
"235041","802-TS","2018/11/30 19:29:38","新北市中和區中安街76號","121.512156666667","25.001995","6500300","中和區"
"235052","805-TS","2018/11/30 19:29:44","新北市中和區華新街143巷63弄2號","121.506423333333","24.979215","6500300","中和區"
"235048","896-TW","2018/11/30 19:29:48","新北市中和區忠孝街103號","121.512031666667","24.9862966666667","6500300","中和區"
"235053","900-TW","2018/11/30 19:29:40","新北市中和區華順街30巷2號","121.466776666667","24.9989166666667","6500300","中和區"
"235051","157-BY","2018/11/30 19:29:40","新北市中和區板南路132號","121.502436666667","24.992615","6500300","中和區"
"235037","AAC-213","2018/11/30 19:29:51","新北市中和區秀朗路三段10巷12弄2號","121.5255","24.9965283333333","6500300","中和區"
"235059","AAC-215","2018/11/30 19:29:36","新北市中和區圓通路252巷2-5號","121.493455","24.99139","6500300","中和區"
"220068","013-TV","2018/11/30 19:29:44","新北市板橋區翠華街6巷105號","121.48192","25.0253116666667","6500100","板橋區"
"220065","072-UY","2018/11/30 19:29:47","新北市板橋區國泰街101號","121.466798333333","25.0064316666667","6500100","板橋區"
"220086","073-UY","2018/11/30 19:29:31","新北市板橋區中正路236巷16號","121.456446666667","25.0191333333333","6500100","板橋區"
"220106","075-UY","2018/11/30 19:29:48","新北市板橋區文化路二段417巷14號","121.473981666667","25.033305","6500100","板橋區"
"220069","AAD-861","2018/11/30 19:29:48","新北市板橋區貴興路51號","121.457615","25.0032483333333","6500100","板橋區"
"220016","120-SR","2018/11/30 19:24:18","新北市板橋區新站路1號","121.467413333333","25.0110033333333","6500100","板橋區"
"247004","002-UY","2018/11/30 19:29:39","新北市蘆洲區長安街152號","121.459771666667","25.0825083333333","6501400","蘆洲區"
"226004","205-ST","2018/11/30 19:29:45","新北市平溪區十分里十分街156號","121.777936666667","25.0433966666667","6502400","平溪區"
"228001","670-TC","2018/11/30 19:29:46","新北市貢寮區真理里延平街68號","121.925386666667","25.0574266666667","6502600","貢寮區"
"228003","828-UM","2018/11/30 19:29:41","新北市貢寮區和美里和美街19-2號","121.912813333333","25.082605","6502600","貢寮區"
"224010","AGQ-8101","2018/11/30 19:29:40","新北市瑞芳區基山街171號","121.843243333333","25.1080683333333","6501200","瑞芳區"
"227011","642-TC","2018/11/30 19:29:36","新北市雙溪區新基里新基北街43號","121.868203333333","25.03973","6502500","雙溪區"
"227003","400-TW","2018/11/30 19:29:34","新北市雙溪區雙溪里光復街16號","121.86509","25.035475","6502500","雙溪區"
"253006","032-BX","2018/11/30 19:29:48","新北市石門區楓林28-2號","121.541905","25.2888183333333","6502200","石門區"
"222001","KEA-2212","2018/11/30 19:29:47","新北市深坑區深坑街10號","121.615871666667","25.0027066666667","6501800","深坑區"
"208002","KEA-2872","2018/11/30 19:29:32","新北市金山區中正路55號","121.63446","25.2219066666667","6502700","金山區"
"208003","665-BX","2018/11/30 19:29:42","新北市金山區仁愛路66號","121.635161666667","25.22119","6502700","金山區"
"208001","761-BX","2018/11/30 19:29:49","新北市金山區南勢116號","121.622545","25.2195683333333","6502700","金山區"
"251005","010-UM","2018/11/30 19:29:29","新北市淡水區水源街一段53巷12號","121.444165","25.1729533333333","6501000","淡水區"
"251001","011-UM","2018/11/30 19:29:51","新北市淡水區民權路139號","121.460085","25.1364833333333","6501000","淡水區"
"251008","180-VK","2018/11/30 19:29:43","新北市淡水區中正路一段122號","121.423225","25.1782666666667","6501000","淡水區"
"251010","413-VK","2018/11/30 19:29:27","新北市淡水區中正路二段130號","121.420605","25.1870666666667","6501000","淡水區"
"251012","441-VK","2018/11/30 19:29:40","新北市淡水區中山北路三段164號","121.445581666667","25.19669","6501000","淡水區"
"251006","561-UM","2018/11/30 19:29:36","新北市淡水區大義街44號","121.441933333333","25.1783666666667","6501000","淡水區"
"251007","577-R6","2018/11/30 19:29:38","新北市淡水區坪頂路47號","121.45764","25.1624516666667","6501000","淡水區"
"207003","550-UM","2018/11/30 19:29:43","新北市萬里區大鵬里萬里加投266號","121.644591666667","25.2161816666667","6502800","萬里區"
"207004","225-TW","2018/11/30 19:29:45","新北市萬里區萬里里瑪鋉路89號","121.688685","25.1772366666667","6502800","萬里區"
"252002","178-VK","2018/11/30 19:29:41","新北市三芝區淡金路二段18-1號","121.502696666667","25.259505","6502100","三芝區"
"252001","292-VK","2018/11/30 19:29:44","新北市三芝區長勤街63-1號","121.500128333333","25.256095","6502100","三芝區"
"237004","KEA-2597","2018/11/30 19:29:34","新北市三峽區有木206號","121.439111666667","24.85154","6500900","三峽區"
"237007","153-BY","2018/11/30 19:29:40","新北市三峽區二鬮路136巷22弄41號","121.357363333333","24.9103666666667","6500900","三峽區"
"237009","210-TH","2018/11/30 19:29:51","新北市三峽區民權街99號","121.369203333333","24.9326333333333","6500900","三峽區"
"237013","252-BX","2018/11/30 19:29:48","新北市三峽區介壽路一段316號","121.380653333333","24.9302016666667","6500900","三峽區"
"237012","275-BY","2018/11/30 19:29:42","新北市三峽區民生街3號","121.374586666667","24.93539","6500900","三峽區"
"237008","302-VK","2018/11/30 19:29:38","新北市三峽區永安街151號","121.373411666667","24.9278866666667","6500900","三峽區"
"237014","433-BY","2018/11/30 19:29:45","新北市三峽區中園街121號","121.367551666667","24.924015","6500900","三峽區"
"237006","5529-G3","2018/11/30 19:29:39","新北市三峽區中正路一段336巷15弄2號","121.369976666667","24.92494","6500900","三峽區"
"237011","KEA-2596","2018/11/30 19:29:28","新北市三峽區介壽路一段269號","121.380156666667","24.9303366666667","6500900","三峽區"
"237015","649-BX","2018/11/30 19:29:45","新北市三峽區成福路75號","121.418656666667","24.92932","6500900","三峽區"
"237005","AKY-6261","2018/11/30 19:29:30","新北市三峽區中山路184巷6號","121.364186666667","24.936925","6500900","三峽區"
"236069","105-UM","2018/11/30 19:29:42","新北市土城區裕民路185巷36弄10號","121.454406666667","24.984545","6501300","土城區"
"236042","KED-0685","2018/11/30 19:29:43","新北市土城區學府路一段239號","121.45047","24.9833816666667","6501300","土城區"
"236079","166-UM","2018/11/30 19:29:42","新北市土城區中州路49號","121.412838333333","24.9578683333333","6501300","土城區"
"236026","269-VK","2018/11/30 19:29:28","新北市土城區中央路二段61巷26號","121.443303333333","24.9787683333333","6501300","土城區"
"236020","752-BX","2018/11/30 19:25:51","新北市土城區明峰街83號","121.468918333333","24.9873333333333","6501300","土城區"
"236048","913-UM","2018/11/30 19:29:46","新北市土城區清水路202號","121.46055","24.9819483333333","6501300","土城區"
"236063","915-UM","2018/11/30 19:29:49","新北市土城區延平街8號","121.46832","24.9907516666667","6501300","土城區"
"236055","970-R7","2018/11/30 19:29:37","新北市土城區學府路一段276號","121.450195","24.9832766666667","6501300","土城區"
"242048","497-BY","2018/11/30 19:29:29","新北市新莊區後港一路3號","121.424171666667","25.0262333333333","6500500","新莊區"
"242023","362-BY","2018/11/30 19:29:45","新北市新莊區中港一街161號","121.447241666667","25.0449283333333","6500500","新莊區"
"242013","173-VK","2018/11/30 19:29:39","新北市新莊區三和路12-16號","121.442343333333","25.03742","6500500","新莊區"
"242032","348-TH","2018/11/30 19:29:46","新北市新莊區新泰路225巷22弄24號","121.444498333333","25.0392366666667","6500500","新莊區"
"242005","349-TH","2018/11/30 19:29:33","新北市新莊區復興路二段200號","121.459488333333","25.0444916666667","6500500","新莊區"
"238015","755-BX","2018/11/30 19:29:39","新北市樹林區中興街20-4號","121.420848333333","24.9900816666667","6500700","樹林區"
"238023","601-UM","2018/11/30 19:29:45","新北市樹林區三福街114號","121.406458333333","25.0163166666667","6500700","樹林區"
"238019","599-UM","2018/11/30 19:29:42","新北市樹林區鎮前街327-3號","121.416913333333","24.98446","6500700","樹林區"
"238024","5061-A6","2018/11/30 19:29:38","新北市樹林區福德街46號","121.399825","24.9749133333333","6500700","樹林區"
"238022","KEA-2213","2018/11/30 19:29:47","新北市樹林區名園街8號","121.419163333333","24.9795083333333","6500700","樹林區"
"238021","KEA-2539","2018/11/30 19:29:43","新北市樹林區佳園路三段488號","121.382598333333","24.944295","6500700","樹林區"
"238025","303-VK","2018/11/30 19:29:46","新北市樹林區中山路一段55號","121.42388","24.9921083333333","6500700","樹林區"
"238017","283-BY","2018/11/30 19:29:46","新北市樹林區光興街157巷2號","121.407865","25.0041983333333","6500700","樹林區"
"238014","282-BY","2018/11/30 19:29:44","新北市樹林區保安二街64巷3號","121.424466666667","24.9960183333333","6500700","樹林區"
"238020","268-VK","2018/11/30 19:29:38","新北市樹林區俊英街83巷1-1號","121.425788333333","25.0080083333333","6500700","樹林區"
"238026","172-UY","2018/11/30 19:29:42","新北市樹林區佳園路三段39號","121.388025","24.9538933333333","6500700","樹林區"
"238016","169-UY","2018/11/30 19:29:36","新北市樹林區復興路440號","121.413718333333","24.9842516666667","6500700","樹林區"
"239006","891-R6","2018/11/30 19:29:46","新北市鶯歌區文昌街27號","121.350468333333","24.9514466666667","6500800","鶯歌區"
"239002","359-BY","2018/11/30 19:29:32","新北市鶯歌區中山路129號","121.349425","24.956995","6500800","鶯歌區"
"221008","489-VK","2018/11/30 19:29:34","新北市汐止區康寧街145號","121.621878333333","25.066685","6501100","汐止區"
"221036","130-UY","2018/11/30 19:29:33","新北市汐止區康寧街901號","121.651761666667","25.0749316666667","6501100","汐止區"
"221015","131-UY","2018/11/30 19:29:40","新北市汐止區康寧街901號","121.651476666667","25.0750183333333","6501100","汐止區"
"221010","269-BY","2018/11/30 19:29:41","新北市汐止區連峰街7號","121.646401666667","25.077285","6501100","汐止區"
"221012","278-VK","2018/11/30 19:29:44","新北市汐止區大同路三段178號","121.674266666667","25.0747616666667","6501100","汐止區"
"221027","281-BY","2018/11/30 19:29:47","新北市汐止區忠孝東路9號","121.658305","25.0659866666667","6501100","汐止區"
"221029","298-VK","2018/11/30 19:29:37","新北市汐止區康寧街861巷1號","121.645536666667","25.0759616666667","6501100","汐止區"
"221021","299-VK","2018/11/30 19:29:34","新北市汐止區康寧街901號","121.651551666667","25.07504","6501100","汐止區"
"221031","353-TW","2018/11/30 19:29:40","新北市汐止區康寧街901號","121.650848333333","25.07527","6501100","汐止區"
"221002","129-UY","2018/11/30 19:29:35","新北市汐止區大同路一段333號","121.638378333333","25.059275","6501100","汐止區"
"221025","623-UM","2018/11/30 19:29:37","新北市汐止區新台五路二段2號","121.660043333333","25.0649316666667","6501100","汐止區"
"221038","646-BX","2018/11/30 19:29:47","新北市汐止區大同路二段362號","121.657346666667","25.0671516666667","6501100","汐止區"
"220079","145-BY","2018/11/30 19:29:45","新北市板橋區復興街24號","121.457995","25.0172983333333","6500100","板橋區"
"220080","200-UY","2018/11/30 19:29:45","新北市板橋區大觀路二段37巷160號","121.449233333333","25.0013783333333","6500100","板橋區"
"220082","610-BX","2018/11/30 19:29:44","新北市板橋區大觀路三段207號","121.431421666667","24.993085","6500100","板橋區"
"220101","245-BX","2018/11/30 19:29:49","新北市板橋區縣民大道三段133巷28號","121.477333333333","25.0237516666667","6500100","板橋區"
"224002","257-TC","2018/11/30 19:29:28","新北市瑞芳區三爪子坑路13巷281-6號","121.814555","25.1063433333333","6501200","瑞芳區"
"220056","276-BY","2018/11/30 19:29:33","新北市板橋區信義路1巷26弄41號","121.459233333333","24.9966883333333","6500100","板橋區"
"220072","277-BY","2018/11/30 19:29:37","新北市板橋區金門街253巷12號","121.432936666667","24.9882766666667","6500100","板橋區"
"220071","283-VK","2018/11/30 19:29:35","新北市板橋區四川路一段489號","121.457058333333","24.9971266666667","6500100","板橋區"
"220094","285-UM","2018/11/30 19:29:46","新北市板橋區吳鳳路50巷20號","121.469168333333","25.0302066666667","6500100","板橋區"
"220053","285-VK","2018/11/30 19:29:35","新北市板橋區永豐街126號","121.477511666667","25.021265","6500100","板橋區"
"220083","286-VK","2018/11/30 19:29:48","新北市板橋區大觀路二段174巷163弄5號","121.441451666667","25.0031783333333","6500100","板橋區"
"220081","287-VK","2018/11/30 19:29:52","新北市板橋區大觀路一段28巷1弄104號","121.451653333333","25.0059883333333","6500100","板橋區"
"220090","288-VK","2018/11/30 19:29:40","新北市板橋區裕民街60號","121.461258333333","25.0286066666667","6500100","板橋區"
"220061","295-UM","2018/11/30 19:29:49","新北市板橋區成功路6巷9號","121.475903333333","25.01705","6500100","板橋區"
"220084","296-UM","2018/11/30 19:29:31","新北市板橋區滿平街84巷120弄14號","121.426591666667","24.9858866666667","6500100","板橋區"
"220092","299-UM","2018/11/30 19:29:43","新北市板橋區光武街2巷41號","121.468461666667","25.025945","6500100","板橋區"
"220075","303-R5","2018/11/30 19:29:42","新北市板橋區大勇街10巷21號","121.453496666667","25.0174533333333","6500100","板橋區"
"220062","305-R5","2018/11/30 19:29:44","新北市板橋區三民路二段123巷22號","121.480261666667","25.0155933333333","6500100","板橋區"
"220098","317-R6","2018/11/30 19:29:42","新北市板橋區民生路三段263巷2弄16號","121.46372","25.0298383333333","6500100","板橋區"
"220089","487-VK","2018/11/30 19:29:45","新北市板橋區文化路一段109號","121.461706666667","25.014715","6500100","板橋區"
"220088","491-VK","2018/11/30 19:29:38","新北市板橋區雙十路二段95號","121.475255","25.02772","6500100","板橋區"
"220035","560-BX","2018/11/30 19:29:37","新北市板橋區中正路413巷6號","121.453776666667","25.02263","6500100","板橋區"
"220103","561-BX","2018/11/30 19:29:37","新北市板橋區文化路一段268號","121.46735","25.0208966666667","6500100","板橋區"
"220063","609-BX","2018/11/30 19:29:52","新北市板橋區萬安街53巷22號","121.483366666667","25.0237516666667","6500100","板橋區"
"220091","637-BX","2018/11/30 19:29:41","新北市板橋區文聖街149巷45號","121.4803","25.02916","6500100","板橋區"
"220057","686-BX","2018/11/30 19:29:41","新北市板橋區五權街7-1號","121.463918333333","24.9945966666667","6500100","板橋區"
"220077","687-BX","2018/11/30 19:29:45","新北市板橋區僑中二街126巷2號","121.445326666667","25.0051516666667","6500100","板橋區"
"220093","689-BX","2018/11/30 19:29:33","新北市板橋區新海路135巷5號","121.460536666667","25.0232866666667","6500100","板橋區"
"220054","741-BX","2018/11/30 19:29:50","新北市板橋區忠孝路25號","121.460568333333","25.001955","6500100","板橋區"
"220102","KEA-2699","2018/11/30 19:29:43","新北市板橋區松柏街22巷43號","121.47514","25.0288516666667","6500100","板橋區"
"220064","806-UM","2018/11/30 19:29:35","新北市板橋區中山路一段102-2號","121.46235","25.01039","6500100","板橋區"
"220055","827-TW","2018/11/30 19:29:35","新北市板橋區重慶路290巷22弄14號","121.462228333333","24.9994083333333","6500100","板橋區"
"220067","830-TW","2018/11/30 19:29:45","新北市板橋區漢生東路330-1號","121.471835","25.0078166666667","6500100","板橋區"
"220096","831-TW","2018/11/30 19:29:36","新北市板橋區雙十路二段45號","121.476616666667","25.0261683333333","6500100","板橋區"
"220074","895-R6","2018/11/30 19:29:38","新北市板橋區館前西路161號","121.455948333333","25.0080966666667","6500100","板橋區"
"220073","985-R7","2018/11/30 19:29:38","新北市板橋區國光路33號","121.457213333333","25.0176466666667","6500100","板橋區"
"220097","AAC-210","2018/11/30 19:29:32","新北市板橋區漢生西路151巷1號","121.463075","25.0222166666667","6500100","板橋區"
"220070","AAC-253","2018/11/30 19:29:34","新北市板橋區四川路一段159號","121.460016666667","25.00383","6500100","板橋區"
"235068","KEA-2873","2018/11/30 19:29:26","新北市中和區圓通路158巷16號","121.498103333333","24.996615","6500300","中和區"
"235061","KEA-2875","2018/11/30 19:29:43","新北市中和區民利街9巷2弄2號","121.48059","24.99874","6500300","中和區"
