"lineid","car","time","location","longitude","latitude","cityid","cityname"
"234046","148-BY","2018/11/30 19:49:37","新北市永和區永利路123號","121.52409","25.0027666666667","6500400","永和區"
"234007","207-UY","2018/11/30 19:49:46","新北市中和區南工路26號","121.50567","25.0008416666667","6500400","永和區"
"234081","298-R6","2018/11/30 19:49:32","新北市永和區永亨路98號","121.523038333333","25.00485","6500400","永和區"
"234038","336-UY","2018/11/30 19:49:43","新北市永和區成功路二段80號","121.526623333333","24.998975","6500400","永和區"
"234064","337-UY","2018/11/30 19:49:50","新北市永和區中正路368巷6號","121.518038333333","25.0007366666667","6500400","永和區"
"234070","552-UM","2018/11/30 19:49:48","新北市永和區竹林路81號","121.51951","25.0125583333333","6500400","永和區"
"234017","745-BX","2018/11/30 19:49:38","新北市永和區永和路二段297號","121.516098333333","25.0160633333333","6500400","永和區"
"234030","746-BX","2018/11/30 19:49:34","新北市永和區民生路67巷43號","121.524993333333","24.9974616666667","6500400","永和區"
"234054","KEA-2590","2018/11/30 19:49:42","新北市永和區竹林路58-2號","121.51802","25.0138716666667","6500400","永和區"
"234013","KEA-2591","2018/11/30 19:49:35","新北市永和區永平路306號","121.507228333333","25.0124416666667","6500400","永和區"
"234061","AAD-866","2018/11/30 19:49:42","新北市永和區中正路102號","121.514376666667","24.9958366666667","6500400","永和區"
"234086","748-BX","2018/11/30 19:49:50","新北市永和區中正路469號","121.517035","25.0061116666667","6500400","永和區"
"234042","862-TW","2018/11/30 19:49:45","新北市永和區中和路385號","121.508608333333","25.0000116666667","6500400","永和區"
"234050","863-TW","2018/11/30 19:49:39","新北市永和區保安路99號","121.508165","25.0142833333333","6500400","永和區"
"234023","9372-KE","2018/11/30 19:49:47","新北市永和區豫溪街57巷8弄6號","121.517603333333","25.0104083333333","6500400","永和區"
"234026","9371-KE","2018/11/30 19:49:37","新北市永和區保平路203巷37號","121.509833333333","25.004235","6500400","永和區"
"234011","9373-KE","2018/11/30 19:49:51","新北市永和區仁愛路352巷94號","121.501195","25.0080666666667","6500400","永和區"
"249004","303-UY","2018/11/30 19:49:39","新北市八里區仁愛路129號","121.410018333333","25.1588333333333","6502300","八里區"
"249002","305-UY","2018/11/30 19:49:45","新北市八里區頂寮五街20號","121.451311666667","25.126105","6502300","八里區"
"249003","593-UM","2018/11/30 19:49:46","新北市八里區中華路二段560巷3號","121.398576666667","25.1450783333333","6502300","八里區"
"248014","025-BX","2018/11/30 19:49:47","新北市五股區五福路32巷26號","121.435015","25.0897316666667","6501500","五股區"
"248016","026-BX","2018/11/30 19:49:39","新北市五股區成泰路三段577巷80弄7號","121.449476666667","25.10425","6501500","五股區"
"248008","095-VK","2018/11/30 19:49:48","新北市五股區四維路171巷5號","121.467488333333","25.07515","6501500","五股區"
"248018","225-UY","2018/11/30 19:49:35","新北市五股區外寮路1-5號","121.425981666667","25.0768633333333","6501500","五股區"
"248012","655-BX","2018/11/30 19:49:35","新北市五股區蓬萊路4號","121.435646666667","25.0795833333333","6501500","五股區"
"248004","677-BX","2018/11/30 19:49:50","新北市五股區成泰路一段112號","121.435645","25.072955","6501500","五股區"
"248002","678-BX","2018/11/30 19:49:38","新北市五股區成泰路三段595號","121.452506666667","25.1029833333333","6501500","五股區"
"248010","682-TV","2018/11/30 19:49:42","新北市五股區登林路貿商巷3弄15號","121.429666666667","25.06989","6501500","五股區"
"234077","969-R7","2018/11/30 19:49:46","新北市永和區民治街29號","121.519705","24.9976683333333","6500400","永和區"
"234074","AAC-211","2018/11/30 19:49:47","新北市永和區竹林路179巷25號","121.521623333333","25.0101416666667","6500400","永和區"
"234067","AAC-212","2018/11/30 19:49:48","新北市永和區永貞路353號","121.50908","25.0075283333333","6500400","永和區"
"234003","AAC-295","2018/11/30 19:49:29","新北市永和區福和路345號","121.51536","25.0071883333333","6500400","永和區"
"243010","267-VK","2018/11/30 19:49:49","新北市泰山區民生路33號","121.430671666667","25.0521866666667","6501600","泰山區"
"243013","AAD-798","2018/11/30 19:35:01","新北市泰山區應化街7號","121.423878333333","25.0437183333333","6501600","泰山區"
"243009","297-R6","2018/11/30 19:49:49","新北市泰山區美寧街69號","121.430896666667","25.064735","6501600","泰山區"
"243016","KEA-2801","2018/11/30 19:49:42","新北市泰山區明志路三段524號","121.42077","25.03052","6501600","泰山區"
"243015","421-VK","2018/11/30 19:49:48","新北市泰山區明志路二段214巷11號","121.426691666667","25.04883","6501600","泰山區"
"243011","KEA-2215","2018/11/30 19:49:49","新北市泰山區明志路三段196巷21弄27號","121.42232","25.03846","6501600","泰山區"
"243012","646-TV","2018/11/30 19:49:48","新北市泰山區全興路13號","121.432361666667","25.0589116666667","6501600","泰山區"
"243014","680-BX","2018/11/30 19:49:40","新北市泰山區泰林路二段33-9號","121.43501","25.056745","6501600","泰山區"
"222002","016-RS","2018/11/30 19:49:38","新北市深坑區北深路二段20號","121.620778333333","25.0044766666667","6501800","深坑區"
"222003","436-BY","2018/11/30 19:49:30","新北市深坑區深南路51-1號","121.621256666667","25.0097266666667","6501800","深坑區"
"231041","002-UM","2018/11/30 19:49:47","新北市新店區中央路208-1號","121.530173333333","24.97373","6500600","新店區"
"231059","046-UY","2018/11/30 19:49:46","新北市新店區安和路二段185號","121.518258333333","24.9748716666667","6500600","新店區"
"231040","047-UY","2018/11/30 19:49:45","新北市新店區中正路75巷71號","121.543146666667","24.9688166666667","6500600","新店區"
"231044","106-UY","2018/11/30 19:49:42","新北市新店區中正路602號","121.534091666667","24.9880183333333","6500600","新店區"
"231046","107-UY","2018/11/30 19:49:35","新北市新店區三民路159巷19弄44號","121.532253333333","24.973255","6500600","新店區"
"231053","108-UY","2018/11/30 19:49:30","新北市新店區新烏路三段177號","121.55056","24.90127","6500600","新店區"
"231048","187-VK","2018/11/30 19:49:50","新北市新店區中興路二段100巷1號","121.547665","24.97152","6500600","新店區"
"231054","KEA-2219","2018/11/30 19:49:37","新北市新店區光明街87號","121.53896","24.960875","6500600","新店區"
"231057","256-BX","2018/11/30 19:49:45","新北市新店區花園二路三段21-3號","121.557035","24.9317016666667","6500600","新店區"
"231042","268-BY","2018/11/30 19:49:33","新北市新店區中興路一段271號","121.545161666667","24.96802","6500600","新店區"
"231050","AAD-862","2018/11/30 19:49:38","新北市新店區郵政路4巷15號","121.556798333333","24.9516183333333","6500600","新店區"
"231058","3713-VJ","2018/11/30 19:49:49","新北市新店區華中街21巷1號","121.540203333333","24.9703966666667","6500600","新店區"
"231066","4716-K9","2018/11/30 19:49:33","新北市新店區安康路三段131號","121.490253333333","24.9517716666667","6500600","新店區"
"231056","4715-K9","2018/11/30 19:49:39","新北市新店區民權路42巷59弄1號","121.538526666667","24.983905","6500600","新店區"
"231067","4772-VM","2018/11/30 19:49:50","新北市新店區精忠路10-1號","121.532558333333","24.9591133333333","6500600","新店區"
"231065","512-UM","2018/11/30 19:49:49","新北市新店區安祥路109巷90弄42號","121.476828333333","24.9590666666667","6500600","新店區"
"231049","513-UM","2018/11/30 19:49:35","新北市新店區民權路127巷23號","121.535266666667","24.981835","6500600","新店區"
"231063","616-UM","2018/11/30 19:49:52","新北市新店區車子路109號","121.505316666667","24.9523416666667","6500600","新店區"
"231045","617-UM","2018/11/30 19:49:47","新北市新店區中生路66號","121.564588333333","24.95271","6500600","新店區"
"231061","619-UM","2018/11/30 19:49:43","新北市新店區安民街193號","121.517051666667","24.971535","6500600","新店區"
"231068","718-UY","2018/11/30 19:49:32","新北市新店區安華路28-1號","121.519453333333","24.9610066666667","6500600","新店區"
"231064","719-UM","2018/11/30 19:48:53","新北市新店區光華街8巷23號","121.518003333333","24.969895","6500600","新店區"
"231051","719-UY","2018/11/30 19:49:39","新北市新店區中央三街3-2號","121.529563333333","24.9733633333333","6500600","新店區"
"231062","720-UM","2018/11/30 19:49:42","新北市新店區永業路46號","121.531653333333","24.9536733333333","6500600","新店區"
"231060","898-TW","2018/11/30 19:49:32","新北市新店區安康路二段268號","121.508573333333","24.9587583333333","6500600","新店區"
"231043","899-TW","2018/11/30 19:49:48","新北市新店區中正路263-2號","121.538423333333","24.9738183333333","6500600","新店區"
"241011","013-R5","2018/11/30 19:49:48","新北市三重區三和路二段173巷43號","121.499241666667","25.07019","6500200","三重區"
"241028","022-UY","2018/11/30 19:49:43","新北市三重區中正南路158號","121.494248333333","25.057195","6500200","三重區"
"241008","059-VK","2018/11/30 19:49:41","新北市三重區永福街96號","121.478811666667","25.0759083333333","6500200","三重區"
"241022","060-VK","2018/11/30 19:49:44","新北市三重區新北大道一段11號","121.488603333333","25.0606083333333","6500200","三重區"
"241031","061-VK","2018/11/30 19:49:33","新北市三重區重新路四段246號","121.485768333333","25.0534766666667","6500200","三重區"
"241015","062-VK","2018/11/30 19:49:46","新北市三重區重新路一段1號","121.503818333333","25.0642166666667","6500200","三重區"
"241017","063-VK","2018/11/30 19:49:40","新北市三重區重陽路三段5巷8弄20號","121.48962","25.06652","6500200","三重區"
"241024","065-VK","2018/11/30 19:49:49","新北市三重區大勇街82巷15弄30號","121.481166666667","25.071995","6500200","三重區"
"241026","066-VK","2018/11/30 19:49:39","新北市三重區文化南路45號","121.500235","25.0613583333333","6500200","三重區"
"241003","091-VK","2018/11/30 19:49:43","新北市三重區五華街130號","121.491615","25.083485","6500200","三重區"
"241016","265-UM","2018/11/30 19:49:33","新北市三重區正德街43號","121.49574","25.06273","6500200","三重區"
"241009","267-UM","2018/11/30 19:49:34","新北市三重區三和路四段390巷61號","121.479301666667","25.0785083333333","6500200","三重區"
"241018","268-UM","2018/11/30 19:49:35","新北市三重區雙園街57巷36號","121.49437","25.06841","6500200","三重區"
"241032","269-UM","2018/11/30 19:49:45","新北市三重區重陽路一段44巷10號","121.485976666667","25.05769","6500200","三重區"
"241013","270-UM","2018/11/30 19:49:50","新北市三重區三和路三段103號","121.49446","25.072455","6500200","三重區"
"241025","271-UM","2018/11/30 19:49:35","新北市三重區忠孝路三段75巷11號","121.480046666667","25.0661316666667","6500200","三重區"
"241007","398-BY","2018/11/30 19:49:47","新北市三重區三和路四段137號","121.484548333333","25.0780116666667","6500200","三重區"
"241035","462-BY","2018/11/30 19:49:49","新北市三重區大榮街50號","121.499028333333","25.0635466666667","6500200","三重區"
"241030","480-VK","2018/11/30 19:49:45","新北市三重區集成路3號","121.488388333333","25.0517116666667","6500200","三重區"
"241014","543-UM","2018/11/30 19:49:34","新北市三重區三和路二段37-8號","121.501321666667","25.0674816666667","6500200","三重區"
"241001","547-UM","2018/11/30 19:49:38","新北市三重區仁愛街294號","121.492403333333","25.0792383333333","6500200","三重區"
"241033","557-UM","2018/11/30 19:45:18","新北市三重區五谷王南街46巷11號","121.474943333333","25.04469","6500200","三重區"
"241019","KEA-2593","2018/11/30 19:49:51","新北市三重區三張街113號","121.488625","25.070295","6500200","三重區"
"241020","743-BX","2018/11/30 19:42:50","新北市三重區後竹圍街1號","121.491545","25.07363","6500200","三重區"
"241006","887-TS","2018/11/30 19:49:34","新北市三重區力行路二段82號","121.481583333333","25.07381","6500200","三重區"
"241012","941-UM","2018/11/30 19:49:49","新北市三重區仁興街50號","121.498926666667","25.0758183333333","6500200","三重區"
"241029","942-UM","2018/11/30 19:49:26","新北市三重區重新路三段204號","121.490125","25.058485","6500200","三重區"
"235066","003-UY","2018/11/30 19:49:33","新北市中和區南工路70號","121.506603333333","25.00206","6500300","中和區"
"235063","006-UY","2018/11/30 19:49:49","新北市中和區連城路263巷11弄2號","121.492495","24.9952233333333","6500300","中和區"
"235056","096-UM","2018/11/30 19:49:37","新北市中和區中山路三段136巷10弄21號","121.473966666667","25.0077983333333","6500300","中和區"
"235039","097-UM","2018/11/30 19:49:37","新北市中和區大勇街25巷38弄9號","121.516065","24.9939333333333","6500300","中和區"
"235065","098-UM","2018/11/30 19:49:47","新北市中和區莊敬路25號","121.50012","25.00462","6500300","中和區"
"235040","150-BY","2018/11/30 19:49:47","新北市中和區安平路30號","121.509555","24.9947966666667","6500300","中和區"
"235058","151-BY","2018/11/30 19:49:38","新北市中和區員山路144號","121.481286666667","24.9965366666667","6500300","中和區"
"235055","183-VK","2018/11/30 19:49:40","新北市中和區中山路三段181巷18弄41號","121.472551666667","25.00512","6500300","中和區"
"235038","185-VK","2018/11/30 19:49:50","新北市永和區民生路42號","121.522536666667","24.9967233333333","6500300","中和區"
"235049","186-VK","2018/11/30 19:49:43","新北市中和區景平路425-1號","121.501455","24.9952","6500300","中和區"
"235067","255-BX","2018/11/30 19:49:45","新北市中和區中正路751巷3弄12號","121.48435","24.9993466666667","6500300","中和區"
"235044","293-VK","2018/11/30 19:49:43","新北市中和區南山路273號","121.503993333333","24.9924466666667","6500300","中和區"
"235072","301-VK","2018/11/30 19:49:49","新北市中和區橋和路274-1號","121.49589","25.006665","6500300","中和區"
"235043","352-BY","2018/11/30 19:49:43","新北市中和區興南路二段159巷12號","121.50509","24.982995","6500300","中和區"
"235042","KEA-2878","2018/11/30 19:49:35","新北市中和區保健路106巷71號","121.511448333333","24.9947483333333","6500300","中和區"
"235050","4979-A6","2018/11/30 19:49:47","新北市中和區景平路241巷84弄57號","121.506028333333","24.99232","6500300","中和區"
"235069","4980-A6","2018/11/30 19:49:30","新北市中和區和城路一段271巷1號","121.485431666667","24.9916266666667","6500300","中和區"
"235070","558-UM","2018/11/30 19:49:44","新北市中和區景平路477號","121.500406666667","24.9972283333333","6500300","中和區"
"235054","640-BX","2018/11/30 19:49:34","新北市中和區莒光路11號","121.471936666667","25.0058183333333","6500300","中和區"
"235060","647-TV","2018/11/30 19:49:35","新北市中和區新生街30巷1號","121.483058333333","25.0038516666667","6500300","中和區"
"235047","732-UM","2018/11/30 19:49:49","新北市中和區和平街84號","121.507588333333","24.991265","6500300","中和區"
"235046","733-UM","2018/11/30 19:49:31","新北市中和區仁愛街47號","121.511135","24.9882133333333","6500300","中和區"
"235057","801-TS","2018/11/30 19:49:47","新北市中和區員山路212號","121.481263333333","25.0008066666667","6500300","中和區"
"235041","802-TS","2018/11/30 19:49:38","新北市中和區永貞路239巷1號","121.51299","25.0034866666667","6500300","中和區"
"235052","805-TS","2018/11/30 19:49:44","新北市中和區興南路二段78號","121.505915","24.984695","6500300","中和區"
"235048","896-TW","2018/11/30 19:49:48","新北市中和區興南路一段91號","121.509706666667","24.988665","6500300","中和區"
"235053","900-TW","2018/11/30 19:49:40","新北市中和區國光街140巷2號","121.468476666667","25.0013883333333","6500300","中和區"
"235051","157-BY","2018/11/30 19:49:40","新北市中和區中興街233巷10號","121.50146","24.9894866666667","6500300","中和區"
"235037","AAC-213","2018/11/30 19:49:31","新北市中和區自立路66號","121.523908333333","24.9912866666667","6500300","中和區"
"235059","AAC-215","2018/11/30 19:49:36","新北市中和區圓通路335巷53號","121.494631666667","24.9891766666667","6500300","中和區"
"220068","013-TV","2018/11/30 19:49:43","新北市板橋區中山路二段416巷47弄18號","121.483535","25.0194283333333","6500100","板橋區"
"220065","072-UY","2018/11/30 19:49:40","新北市板橋區海山路37-1號","121.467278333333","25.0096833333333","6500100","板橋區"
"220106","075-UY","2018/11/30 19:49:48","新北市板橋區文化路二段608巷64號","121.480143333333","25.0340983333333","6500100","板橋區"
"220069","AAD-861","2018/11/30 19:49:43","新北市板橋區南雅南路二段1-1號","121.454781666667","25.00359","6500100","板橋區"
"220016","120-SR","2018/11/30 19:24:18","新北市板橋區新站路1號","121.467413333333","25.0110033333333","6500100","板橋區"
"247002","893-R6","2018/11/30 19:49:45","新北市蘆洲區永樂街38巷40號","121.458563333333","25.0900966666667","6501400","蘆洲區"
"247008","336-TH","2018/11/30 19:49:43","新北市蘆洲區中山一路50號","121.479295","25.0809283333333","6501400","蘆洲區"
"247014","053-VK","2018/11/30 19:49:42","新北市蘆洲區復興路30-7號","121.47275","25.0845416666667","6501400","蘆洲區"
"247004","002-UY","2018/11/30 19:49:39","新北市蘆洲區中原路79號","121.458311666667","25.0818983333333","6501400","蘆洲區"
"226004","205-ST","2018/11/30 19:49:35","新北市平溪區靜安路三段392巷3號","121.784536666667","25.0495683333333","6502400","平溪區"
"228001","670-TC","2018/11/30 19:49:46","新北市貢寮區真理里新港街82-2號","121.927048333333","25.0561416666667","6502600","貢寮區"
"228003","828-UM","2018/11/30 19:49:41","新北市貢寮區真理里美艷山街2-2號","121.927425","25.0599216666667","6502600","貢寮區"
"224010","AGQ-8101","2018/11/30 19:49:40","新北市瑞芳區基山街145號","121.843883333333","25.10822","6501200","瑞芳區"
"227011","642-TC","2018/11/30 19:49:36","新北市雙溪區新基里中華路76號","121.865823333333","25.0383283333333","6502500","雙溪區"
"227003","400-TW","2018/11/30 19:49:34","新北市雙溪區雙溪里內挖路47號","121.863336666667","25.03658","6502500","雙溪區"
"222001","KEA-2212","2018/11/30 19:49:18","新北市深坑區北深路三段71號","121.606726666667","25.0014616666667","6501800","深坑區"
"208002","KEA-2872","2018/11/30 19:49:32","新北市金山區中華路360號","121.63301","25.22412","6502700","金山區"
"208003","665-BX","2018/11/30 19:49:50","新北市金山區海興路22號","121.63039","25.237685","6502700","金山區"
"208001","761-BX","2018/11/30 19:49:52","新北市金山區南勢湖16號","121.621093333333","25.2192033333333","6502700","金山區"
"251005","010-UM","2018/11/30 19:49:49","新北市淡水區中正東路6號","121.44699","25.1671416666667","6501000","淡水區"
"251001","011-UM","2018/11/30 19:49:31","新北市淡水區坪頂路33號","121.456481666667","25.163175","6501000","淡水區"
"251008","180-VK","2018/11/30 19:49:43","新北市淡水區中正路一段24巷9號","121.426621666667","25.1771133333333","6501000","淡水區"
"251010","413-VK","2018/11/30 19:49:47","新北市淡水區下圭柔山91-3號","121.431003333333","25.2098316666667","6501000","淡水區"
"251012","441-VK","2018/11/30 19:49:40","新北市淡水區淡金路三段70巷1號","121.448318333333","25.20054","6501000","淡水區"
"251006","561-UM","2018/11/30 19:49:36","新北市淡水區水碓街15號","121.443478333333","25.176965","6501000","淡水區"
"251007","577-R6","2018/11/30 19:49:38","新北市淡水區竿蓁一街56號","121.453078333333","25.1663333333333","6501000","淡水區"
"251011","650-BX","2018/11/30 19:49:42","新北市淡水區淡金路二段600號","121.446461666667","25.1925216666667","6501000","淡水區"
"251003","673-BX","2018/11/30 19:49:28","新北市淡水區崁頂51-2號","121.442121666667","25.1973333333333","6501000","淡水區"
"207003","550-UM","2018/11/30 19:49:42","新北市萬里區大鵬里萬里加投45-1號","121.640816666667","25.2109333333333","6502800","萬里區"
"207004","225-TW","2018/11/30 19:49:45","新北市萬里區萬里里瑪鋉路238號","121.689216666667","25.1803783333333","6502800","萬里區"
"252002","178-VK","2018/11/30 19:49:41","新北市三芝區三民街20號","121.504485","25.2586283333333","6502100","三芝區"
"252001","292-VK","2018/11/30 19:49:44","新北市三芝區公正街66號","121.499775","25.25746","6502100","三芝區"
"237004","KEA-2597","2018/11/30 19:49:34","新北市三峽區添福285號","121.37594","24.891725","6500900","三峽區"
"237009","210-TH","2018/11/30 19:49:51","新北市三峽區民族街78巷9號","121.36877","24.92967","6500900","三峽區"
"237013","252-BX","2018/11/30 19:49:43","新北市三峽區溪北街1號","121.395983333333","24.936335","6500900","三峽區"
"237012","275-BY","2018/11/30 19:49:42","新北市三峽區中華路76-2號","121.37151","24.9290033333333","6500900","三峽區"
"237008","302-VK","2018/11/30 19:49:38","新北市三峽區中正路一段174巷4弄16號","121.372631666667","24.9290866666667","6500900","三峽區"
"237014","433-BY","2018/11/30 19:49:45","新北市三峽區添福15-9號","121.372355","24.9052033333333","6500900","三峽區"
"237006","5529-G3","2018/11/30 19:49:46","新北市三峽區中正路一段328-4號","121.371301666667","24.924695","6500900","三峽區"
"237015","649-BX","2018/11/30 19:49:45","新北市三峽區介壽路二段167號","121.394783333333","24.9360816666667","6500900","三峽區"
"237005","AKY-6261","2018/11/30 19:49:50","新北市三峽區民生街111號","121.373908333333","24.9354366666667","6500900","三峽區"
"236069","105-UM","2018/11/30 19:49:42","新北市土城區中央路二段254號","121.44145","24.974865","6501300","土城區"
"236042","KED-0685","2018/11/30 19:49:43","新北市土城區裕民路259巷8號","121.454983333333","24.9834266666667","6501300","土城區"
"236079","166-UM","2018/11/30 19:49:40","新北市土城區福安街106號","121.417225","24.9639016666667","6501300","土城區"
"236030","253-BX","2018/11/30 19:49:33","新北市土城區中央路一段318巷4弄12號","121.443228333333","24.9823533333333","6501300","土城區"
"236026","269-VK","2018/11/30 19:49:48","新北市土城區中央路二段61巷46號","121.444183333333","24.9783983333333","6501300","土城區"
"236039","271-VK","2018/11/30 19:49:37","新北市土城區國際路158巷22號","121.468571666667","24.9759333333333","6501300","土城區"
"236020","752-BX","2018/11/30 19:49:44","新北市土城區延吉街137巷2弄25號","121.470181666667","24.9854716666667","6501300","土城區"
"236059","912-UM","2018/11/30 19:49:42","新北市土城區中央路一段116號","121.446575","24.9879983333333","6501300","土城區"
"236048","913-UM","2018/11/30 19:49:44","新北市土城區青雲路145號","121.458761666667","24.9842516666667","6501300","土城區"
"236063","915-UM","2018/11/30 19:49:49","新北市土城區延和路215號","121.469911666667","24.989785","6501300","土城區"
"236055","970-R7","2018/11/30 19:49:48","新北市土城區延平街1號","121.468301666667","24.990425","6501300","土城區"
"242037","AAC-296","2018/11/30 19:49:42","新北市新莊區民安路207巷30弄1-1號","121.427715","25.0238733333333","6500500","新莊區"
"242029","612-BX","2018/11/30 19:49:42","新北市新莊區中平路359號","121.44458","25.0517766666667","6500500","新莊區"
"242048","497-BY","2018/11/30 19:49:49","新北市新莊區建安街76巷1弄15號","121.425983333333","25.0241666666667","6500500","新莊區"
"242039","415-TV","2018/11/30 19:49:41","新北市新莊區民安路299巷16號","121.429371666667","25.0229333333333","6500500","新莊區"
"242023","362-BY","2018/11/30 19:49:45","新北市新莊區化成路254號","121.465685","25.0471816666667","6500500","新莊區"
"242060","353-BY","2018/11/30 19:49:42","新北市新莊區中環路一段10號","121.442806666667","25.02583","6500500","新莊區"
"242034","135-UY","2018/11/30 19:49:33","新北市新莊區新泰路199巷19號","121.445618333333","25.0376916666667","6500500","新莊區"
"242013","173-VK","2018/11/30 19:49:39","新北市新莊區中泰街38巷14號","121.450775","25.0474666666667","6500500","新莊區"
"242017","346-TH","2018/11/30 19:49:37","新北市新莊區中華路一段226號","121.452678333333","25.0429666666667","6500500","新莊區"
"242032","348-TH","2018/11/30 19:49:49","新北市新莊區忠孝街12號","121.443945","25.0347083333333","6500500","新莊區"
"242005","349-TH","2018/11/30 19:49:33","新北市新莊區化成路63巷24弄17號","121.462686666667","25.0459966666667","6500500","新莊區"
"242021","350-TH","2018/11/30 19:49:47","新北市新莊區中正路407號","121.445003333333","25.0345216666667","6500500","新莊區"
"242015","351-TH","2018/11/30 19:49:37","新北市新莊區中平路82巷36-2號","121.44652","25.0448166666667","6500500","新莊區"
"238015","755-BX","2018/11/30 19:49:49","新北市樹林區八德街640號","121.39676","24.9693666666667","6500700","樹林區"
"238019","599-UM","2018/11/30 19:49:42","新北市樹林區民和街1號","121.385071666667","24.967815","6500700","樹林區"
"238024","5061-A6","2018/11/30 19:49:38","新北市樹林區佳園路一段80巷52號","121.391613333333","24.96955","6500700","樹林區"
"238021","KEA-2539","2018/11/30 19:49:43","新北市樹林區田尾街249號","121.397046666667","24.9488416666667","6500700","樹林區"
"238025","303-VK","2018/11/30 19:49:46","新北市樹林區八德街862-1號","121.391688333333","24.968585","6500700","樹林區"
"238017","283-BY","2018/11/30 19:49:46","新北市樹林區保安街二段37-1號","121.416285","25.0001066666667","6500700","樹林區"
"238014","282-BY","2018/11/30 19:49:44","新北市樹林區中正路22-1號","121.427795","24.9994316666667","6500700","樹林區"
"239002","359-BY","2018/11/30 19:37:32","新北市鶯歌區二甲路12-2號","121.345708333333","24.934925","6500800","鶯歌區"
"221008","489-VK","2018/11/30 19:49:34","新北市汐止區康寧街143號","121.621468333333","25.0666166666667","6501100","汐止區"
"221036","130-UY","2018/11/30 19:49:33","新北市汐止區汐萬路一段125號","121.654016666667","25.0712566666667","6501100","汐止區"
"221015","131-UY","2018/11/30 19:49:40","新北市汐止區忠孝東路424號","121.665956666667","25.07167","6501100","汐止區"
"221010","269-BY","2018/11/30 19:49:41","新北市汐止區八連路一段13號","121.648448333333","25.08051","6501100","汐止區"
"221012","278-VK","2018/11/30 19:49:44","新北市汐止區汐平路一段1號","121.680655","25.07114","6501100","汐止區"
"221032","280-BY","2018/11/30 19:49:31","新北市汐止區橫科路403巷13號","121.624831666667","25.0476616666667","6501100","汐止區"
"221027","281-BY","2018/11/30 19:49:47","新北市汐止區中正路11號","121.662926666667","25.070075","6501100","汐止區"
"221029","298-VK","2018/11/30 19:49:37","新北市汐止區康寧街901號","121.651385","25.0750216666667","6501100","汐止區"
"221021","299-VK","2018/11/30 19:49:41","新北市汐止區新興路116號","121.65788","25.061085","6501100","汐止區"
"221031","353-TW","2018/11/30 19:49:33","新北市汐止區福德三路127號","121.63368","25.06767","6501100","汐止區"
"221002","129-UY","2018/11/30 19:49:35","新北市汐止區工建路504號","121.633191666667","25.0583433333333","6501100","汐止區"
"221035","622-UM","2018/11/30 19:49:48","新北市汐止區長江街13巷5弄2號","121.654653333333","25.0716866666667","6501100","汐止區"
"221025","623-UM","2018/11/30 19:49:47","新北市汐止區秀峰路81巷37號","121.661523333333","25.064755","6501100","汐止區"
"221038","646-BX","2018/11/30 19:49:46","新北市汐止區忠孝東路415號","121.665626666667","25.0714083333333","6501100","汐止區"
"221033","647-BX","2018/11/30 19:49:45","新北市汐止區東勢街216巷24弄17號","121.634836666667","25.0389283333333","6501100","汐止區"
"221018","753-BX","2018/11/30 19:49:46","新北市汐止區大同路二段613號","121.664178333333","25.0707383333333","6501100","汐止區"
"220079","145-BY","2018/11/30 19:49:42","新北市板橋區中正路135巷12弄6號","121.45566","25.0159133333333","6500100","板橋區"
"220080","200-UY","2018/11/30 19:49:36","新北市板橋區大觀路二段79巷2弄16號","121.44741","25.0015766666667","6500100","板橋區"
"220082","610-BX","2018/11/30 19:49:44","新北市板橋區金門街171號","121.432676666667","24.990125","6500100","板橋區"
"220101","245-BX","2018/11/30 19:49:44","新北市板橋區縣民大道三段79巷8號","121.475273333333","25.0218683333333","6500100","板橋區"
"224002","257-TC","2018/11/30 19:49:48","新北市瑞芳區員山子路員山巷1號","121.816876666667","25.103675","6501200","瑞芳區"
"220056","276-BY","2018/11/30 19:49:33","新北市板橋區四川路二段23-3號","121.454716666667","24.9957066666667","6500100","板橋區"
"220072","277-BY","2018/11/30 19:49:37","新北市板橋區篤行路二段72號","121.431635","24.9921083333333","6500100","板橋區"
"220071","283-VK","2018/11/30 19:49:35","新北市板橋區和平路174巷14號","121.464225","24.9949383333333","6500100","板橋區"
"220094","285-UM","2018/11/30 19:49:46","新北市板橋區溪頭街2號","121.457468333333","25.02888","6500100","板橋區"
"220053","285-VK","2018/11/30 19:49:35","新北市板橋區中山路二段90巷18號","121.475531666667","25.01577","6500100","板橋區"
"220083","286-VK","2018/11/30 19:49:48","新北市板橋區僑中三街38號","121.445415","25.00519","6500100","板橋區"
"220081","287-VK","2018/11/30 19:49:32","新北市板橋區大觀路一段29巷4弄2號","121.450195","25.0077866666667","6500100","板橋區"
"220090","288-VK","2018/11/30 19:49:40","新北市板橋區綠堤街33-4號","121.455753333333","25.0264633333333","6500100","板橋區"
"220061","295-UM","2018/11/30 19:49:49","新北市板橋區板新路200巷14號","121.468871666667","25.0163333333333","6500100","板橋區"
"220084","296-UM","2018/11/30 19:49:46","新北市板橋區溪崑二街106巷2號","121.426396666667","24.9888933333333","6500100","板橋區"
"220092","299-UM","2018/11/30 19:49:37","新北市板橋區四維路101號","121.46555","25.02458","6500100","板橋區"
"220075","303-R5","2018/11/30 19:49:36","新北市板橋區金華街10巷48弄50號","121.458768333333","25.0201083333333","6500100","板橋區"
"220062","305-R5","2018/11/30 19:49:44","新北市板橋區光復街33巷9號","121.481878333333","25.0189783333333","6500100","板橋區"
"220098","317-R6","2018/11/30 19:49:42","新北市板橋區裕民街133巷3號","121.459261666667","25.0270766666667","6500100","板橋區"
"220089","487-VK","2018/11/30 19:49:44","新北市板橋區龍泉街108巷104號","121.455346666667","25.0255116666667","6500100","板橋區"
"242007","280-VK","2018/11/30 19:49:38","新北市新莊區思源路593巷8號","121.459141666667","25.059755","6500500","新莊區"
"220088","491-VK","2018/11/30 19:49:43","新北市板橋區仁化街88號","121.476293333333","25.0319616666667","6500100","板橋區"
"220035","560-BX","2018/11/30 19:49:40","新北市板橋區新生街87巷34號","121.456515","25.0221416666667","6500100","板橋區"
"220103","561-BX","2018/11/30 19:49:45","新北市板橋區陽明街29巷4號","121.465111666667","25.0217666666667","6500100","板橋區"
"220063","609-BX","2018/11/30 19:49:49","新北市板橋區三民路一段50-1號","121.479366666667","25.0226316666667","6500100","板橋區"
"220091","637-BX","2018/11/30 19:49:41","新北市板橋區懷德街174巷26號","121.478286666667","25.0292316666667","6500100","板橋區"
"220057","686-BX","2018/11/30 19:49:40","新北市板橋區和平路14巷38號","121.46175","24.991505","6500100","板橋區"
"220077","687-BX","2018/11/30 19:49:45","新北市板橋區僑中一街124巷18弄2號","121.446163333333","25.0137333333333","6500100","板橋區"
"220093","689-BX","2018/11/30 19:49:53","新北市板橋區長江路二段146-1號","121.46642","25.0318133333333","6500100","板橋區"
"220054","741-BX","2018/11/30 19:49:37","新北市板橋區實踐路93巷80號","121.46687","25.0047633333333","6500100","板橋區"
"220102","KEA-2699","2018/11/30 19:49:43","新北市板橋區松柏街35號","121.475273333333","25.0303316666667","6500100","板橋區"
"220064","806-UM","2018/11/30 19:49:35","新北市板橋區實踐路47號","121.463696666667","25.0068166666667","6500100","板橋區"
"220055","827-TW","2018/11/30 19:49:35","新北市板橋區國慶路149巷4弄16-4號","121.461863333333","24.99702","6500100","板橋區"
"220067","830-TW","2018/11/30 19:49:45","新北市板橋區長安街138巷1弄97號","121.474655","25.0117166666667","6500100","板橋區"
"220096","831-TW","2018/11/30 19:49:51","新北市板橋區文化路二段124巷34弄14號","121.470878333333","25.0254333333333","6500100","板橋區"
"220074","895-R6","2018/11/30 19:49:41","新北市板橋區民權路45號","121.461765","25.011255","6500100","板橋區"
"220073","985-R7","2018/11/30 19:49:38","新北市板橋區南雅西路二段206號","121.451871666667","25.0149533333333","6500100","板橋區"
"220097","AAC-210","2018/11/30 19:49:52","新北市板橋區文化路一段285巷1號","121.464416666667","25.0189233333333","6500100","板橋區"
"220070","AAC-253","2018/11/30 19:49:38","新北市板橋區民族路89號","121.466268333333","25.0084033333333","6500100","板橋區"
"235068","KEA-2873","2018/11/30 19:49:37","新北市中和區莊敬路16巷15弄9號","121.50046","25.0039083333333","6500300","中和區"
