"lineid","car","time","location","longitude","latitude","cityid","cityname"
"234030","746-BX","2018/11/30 20:59:34","新北市八里區下罟子17號","121.379746666667","25.1430883333333","6500400","永和區"
"248002","678-BX","2018/11/30 20:59:18","新北市林口區太平里180號","121.368238333333","25.134615","6501500","五股區"
"234067","AAC-212","2018/11/30 20:59:28","新北市八里區商港路120號","121.392965","25.1499083333333","6500400","永和區"
"244018","402-UM","2018/11/30 20:59:46","新北市林口區粉寮69號","121.404998333333","25.09086","6501700","林口區"
"231059","046-UY","2018/11/30 20:59:26","新北市新店區僑信路132巷1號","121.50071","24.9457683333333","6500600","新店區"
"231040","047-UY","2018/11/30 20:59:45","新北市新店區中正路148號","121.541688333333","24.9716433333333","6500600","新店區"
"231053","108-UY","2018/11/30 20:59:30","新北市新店區安康路一段228號","121.523198333333","24.96365","6500600","新店區"
"231048","187-VK","2018/11/30 20:59:31","新北市新店區寶元路一段109號","121.545676666667","24.983155","6500600","新店區"
"231054","KEA-2219","2018/11/30 20:59:38","新北市新店區北新路一段96巷23號","121.543056666667","24.9687683333333","6500600","新店區"
"231042","268-BY","2018/11/30 20:59:33","新北市新店區寶高路102巷20號","121.552553333333","24.9739983333333","6500600","新店區"
"231050","AAD-862","2018/11/30 20:59:38","新北市新店區三民路39號","121.537291666667","24.9708416666667","6500600","新店區"
"231058","3713-VJ","2018/11/30 20:59:29","新北市新店區柴埕路116號","121.505273333333","24.9601066666667","6500600","新店區"
"231066","4716-K9","2018/11/30 20:59:33","新北市新店區吉安街10號","121.51681","24.9657683333333","6500600","新店區"
"231067","4772-VM","2018/11/30 20:59:30","新北市新店區安德街53號","121.510975","24.9621666666667","6500600","新店區"
"231065","512-UM","2018/11/30 20:59:29","新北市新店區安祥路69巷54弄57號","121.48352","24.958515","6500600","新店區"
"231063","616-UM","2018/11/30 20:59:32","新北市新店區如意街97號","121.495435","24.9468866666667","6500600","新店區"
"231061","619-UM","2018/11/30 20:59:43","新北市新店區永安街107號","121.520938333333","24.9855966666667","6500600","新店區"
"231068","718-UY","2018/11/30 20:59:32","新北市新店區寶元路二段67號","121.547586666667","24.9808533333333","6500600","新店區"
"231064","719-UM","2018/11/30 20:59:33","新北市新店區安民街115巷28號","121.515166666667","24.9677533333333","6500600","新店區"
"231051","719-UY","2018/11/30 20:59:39","新北市新店區中正路663巷1弄2號","121.532913333333","24.990035","6500600","新店區"
"231062","720-UM","2018/11/30 20:59:42","新北市新店區雙城路40巷1號","121.492465","24.9499233333333","6500600","新店區"
"231060","898-TW","2018/11/30 20:59:32","新北市新店區安康路三段131號","121.489918333333","24.9517566666667","6500600","新店區"
"231043","899-TW","2018/11/30 20:59:48","新北市新店區溪園路395號","121.523571666667","24.97745","6500600","新店區"
"241011","013-R5","2018/11/30 20:59:48","新北市三重區秀江街117號","121.499748333333","25.07218","6500200","三重區"
"241028","022-UY","2018/11/30 20:59:43","新北市三重區正義南路53號","121.498228333333","25.06064","6500200","三重區"
"241008","059-VK","2018/11/30 20:59:40","新北市三重區車路頭街135-1號","121.484271666667","25.0760183333333","6500200","三重區"
"241022","060-VK","2018/11/30 20:59:44","新北市三重區中正北路20巷12號","121.488065","25.0625283333333","6500200","三重區"
"241031","061-VK","2018/11/30 20:59:33","新北市三重區重陽路一段113巷1弄1號","121.487465","25.0598433333333","6500200","三重區"
"241015","062-VK","2018/11/30 20:59:46","新北市三重區福德北路46號","121.502013333333","25.06551","6500200","三重區"
"241017","063-VK","2018/11/30 20:59:39","新北市三重區大仁街23號","121.49202","25.06461","6500200","三重區"
"241024","065-VK","2018/11/30 20:59:29","新北市三重區國道路一段58巷15號","121.481385","25.07202","6500200","三重區"
"241026","066-VK","2018/11/30 20:59:39","新北市三重區文化南路43號","121.50022","25.0614666666667","6500200","三重區"
"241002","090-VK","2018/11/30 20:59:38","新北市三重區五華街1巷2號","121.495648333333","25.0797016666667","6500200","三重區"
"241003","091-VK","2018/11/30 20:59:43","新北市三重區進安街198號","121.493851666667","25.0859633333333","6500200","三重區"
"241005","262-UM","2018/11/30 20:59:36","新北市三重區五華街167號","121.490205","25.0850733333333","6500200","三重區"
"241016","265-UM","2018/11/30 20:59:33","新北市三重區長壽西街143-3號","121.494323333333","25.066705","6500200","三重區"
"241009","267-UM","2018/11/30 20:59:34","新北市三重區三和路四段165-7號","121.483135","25.0786966666667","6500200","三重區"
"241018","268-UM","2018/11/30 20:59:35","新北市三重區雙園街134號","121.493911666667","25.0672483333333","6500200","三重區"
"241032","269-UM","2018/11/30 20:59:45","新北市三重區興華街122號","121.483356666667","25.0597383333333","6500200","三重區"
"241013","270-UM","2018/11/30 20:59:30","新北市三重區仁賢街12-1號","121.495706666667","25.0748633333333","6500200","三重區"
"241025","271-UM","2018/11/30 20:59:35","新北市三重區貴陽街14號","121.484211666667","25.0618633333333","6500200","三重區"
"241007","398-BY","2018/11/30 20:59:27","新北市三重區慈愛街1號","121.484603333333","25.0783733333333","6500200","三重區"
"241004","475-VK","2018/11/30 20:59:46","新北市三重區仁愛街423-1號","121.490413333333","25.0814383333333","6500200","三重區"
"241030","480-VK","2018/11/30 20:59:45","新北市三重區中正南路252巷5號","121.493353333333","25.0525","6500200","三重區"
"241014","543-UM","2018/11/30 20:59:33","新北市三重區長榮路75號","121.502643333333","25.0691383333333","6500200","三重區"
"241001","547-UM","2018/11/30 20:59:38","新北市三重區自強路三段87巷29號","121.48863","25.075085","6500200","三重區"
"241033","557-UM","2018/11/30 20:46:39","新北市三重區興德路103號","121.47161","25.053305","6500200","三重區"
"241019","KEA-2593","2018/11/30 20:59:31","新北市三重區三張街104號","121.487873333333","25.0699383333333","6500200","三重區"
"241020","743-BX","2018/11/30 20:59:30","新北市三重區忠孝路二段34號","121.485743333333","25.0710066666667","6500200","三重區"
"241012","941-UM","2018/11/30 20:59:29","新北市三重區仁信街27號","121.50128","25.0755383333333","6500200","三重區"
"241029","942-UM","2018/11/30 20:59:46","新北市三重區正義南路107號","121.498193333333","25.0585416666667","6500200","三重區"
"247012","KEA-2869","2018/11/30 20:59:30","新北市蘆洲區民權路8-1號","121.476691666667","25.0857666666667","6501400","蘆洲區"
"235069","4980-A6","2018/11/30 20:59:48","新北市中和區連城路469巷44弄24號","121.482726666667","24.9941933333333","6500300","中和區"
"247002","893-R6","2018/11/30 20:59:44","新北市蘆洲區永樂街38巷8號","121.458158333333","25.0887783333333","6501400","蘆洲區"
"247024","500-BY","2018/11/30 20:59:32","新北市蘆洲區長興路213號","121.461133333333","25.086345","6501400","蘆洲區"
"247006","337-TH","2018/11/30 20:59:36","新北市蘆洲區永安南路二段16巷12號","121.468061666667","25.0774883333333","6501400","蘆洲區"
"247008","336-TH","2018/11/30 20:59:43","新北市蘆洲區和平路11號","121.472821666667","25.07917","6501400","蘆洲區"
"247020","057-VK","2018/11/30 20:59:46","新北市蘆洲區民族路488號","121.471146666667","25.091295","6501400","蘆洲區"
"247010","056-VK","2018/11/30 20:59:27","新北市蘆洲區鷺江街91號","121.47687","25.0837233333333","6501400","蘆洲區"
"247014","053-VK","2018/11/30 20:59:42","新北市蘆洲區中央路56號","121.473398333333","25.0837583333333","6501400","蘆洲區"
"247018","007-UY","2018/11/30 20:59:34","新北市蘆洲區民權路146號","121.472716666667","25.0892133333333","6501400","蘆洲區"
"247004","002-UY","2018/11/30 20:59:39","新北市蘆洲區永安南路二段256號","121.459623333333","25.0803716666667","6501400","蘆洲區"
"247022","001-UY","2018/11/30 20:59:45","新北市蘆洲區中正路263巷2號","121.467321666667","25.0874733333333","6501400","蘆洲區"
"251005","010-UM","2018/11/30 20:59:29","新北市淡水區學府路51巷2弄16號","121.448051666667","25.1700516666667","6501000","淡水區"
"251001","011-UM","2018/11/30 20:59:31","新北市淡水區淡金路二段66號","121.450741666667","25.182335","6501000","淡水區"
"251002","012-UM","2018/11/30 20:59:31","新北市淡水區英專路67號","121.445641666667","25.1711583333333","6501000","淡水區"
"251008","180-VK","2018/11/30 20:56:24","新北市淡水區北投子99號","121.46514","25.1776433333333","6501000","淡水區"
"251010","413-VK","2018/11/30 20:59:47","新北市淡水區中正路一段116-3號","121.423938333333","25.1787066666667","6501000","淡水區"
"251012","441-VK","2018/11/30 20:59:40","新北市淡水區淡金路五段110號","121.456531666667","25.2367616666667","6501000","淡水區"
"251007","577-R6","2018/11/30 20:59:38","新北市淡水區仁愛街5號","121.44597","25.1705233333333","6501000","淡水區"
"251011","650-BX","2018/11/30 20:59:42","新北市淡水區新民街294號","121.435188333333","25.18203","6501000","淡水區"
"251003","673-BX","2018/11/30 20:59:28","新北市淡水區新春街103-36號","121.440981666667","25.1828016666667","6501000","淡水區"
"242037","AAC-296","2018/11/30 20:59:40","新北市五股區新五路二段2巷2-1號","121.438133333333","25.065655","6500500","新莊區"
"242011","347-TH","2018/11/30 20:59:43","新北市五股區新五路三段38號","121.444645","25.088","6500500","新莊區"
"242005","349-TH","2018/11/30 20:59:33","新北市八里區中山路三段132號","121.385148333333","25.1451283333333","6500500","新莊區"
"221027","281-BY","2018/11/30 20:59:46","新北市汐止區汐萬路一段256巷1號","121.65179","25.0749483333333","6501100","汐止區"
"221029","298-VK","2018/11/30 20:59:36","新北市汐止區康寧街901號","121.651691666667","25.0749","6501100","汐止區"
"220101","245-BX","2018/11/30 20:59:43","新北市八里區中山路三段169號","121.385095","25.141405","6500100","板橋區"
"220070","AAC-253","2018/11/30 20:59:33","新北市八里區中山路三段409號","121.368468333333","25.1349133333333","6500100","板橋區"
