"lineid","car","time","location","longitude","latitude","cityid","cityname"
"234005","207-UY","2018/11/30 21:52:42","新北市永和區福和路1號","121.526668333333","25.0101883333333","6500400","永和區"
"220016","120-SR","2018/11/30 21:56:34","新北市板橋區海山路19號","121.468658333333","25.009275","6500100","板橋區"
"251008","180-VK","2018/11/30 22:19:42","新北市淡水區學府路104號","121.44978","25.17169","6501000","淡水區"
"251010","413-VK","2018/11/30 22:19:47","新北市淡水區沙崙路200號","121.424653333333","25.1839283333333","6501000","淡水區"
"251004","443-VK","2018/11/30 22:19:33","新北市淡水區民族路33號","121.462275","25.1357566666667","6501000","淡水區"
"251007","577-R6","2018/11/30 22:19:38","新北市淡水區北新路180號","121.449498333333","25.1787933333333","6501000","淡水區"
"251011","650-BX","2018/11/30 22:19:42","新北市淡水區水碓街7號","121.443208333333","25.17708","6501000","淡水區"
