"lineid","car","time","location","longitude","latitude","cityid","cityname"
"248004","653-BX","2018/11/05 08:29:10","新北市五股區明德路12巷6號","121.433435","25.0719133333333","6501500","五股區"
"232001","290-BY","2018/11/05 08:29:21","新北市坪林區大粗坑6-1號","121.732145","24.94821","6502000","坪林區"
"232012","291-BY","2018/11/05 08:29:29","新北市坪林區金瓜寮24-3號","121.679731666667","24.908315","6502000","坪林區"
"232017","705-BZ","2018/11/05 08:25:34","新北市坪林區柑腳坑15號","121.773301666667","24.9473783333333","6502000","坪林區"
"232005","758-BX","2018/11/05 08:29:31","新北市坪林區鶯子瀨2-1號","121.708678333333","24.9129483333333","6502000","坪林區"
"244022","069-UM","2018/11/05 08:29:19","新北市林口區興林一街109巷26號","121.392273333333","25.0728016666667","6501700","林口區"
"244006","080-UY","2018/11/05 08:29:23","新北市林口區湖子14號","121.386101666667","25.08984","6501700","林口區"
"244001","248-BX","2018/11/05 08:29:16","新北市林口區下福149-1號","121.300806666667","25.1160266666667","6501700","林口區"
"244018","403-UM","2018/11/05 08:29:28","新北市林口區文化二路一段338號","121.372863333333","25.0746916666667","6501700","林口區"
"244012","KEA-2802","2018/11/05 08:29:28","新北市林口區中正路398號","121.384833333333","25.07795","6501700","林口區"
"244016","485-VK","2018/11/05 08:29:27","新北市林口區文化二路一段260巷9-1號","121.37126","25.0727483333333","6501700","林口區"
"244008","656-BX","2018/11/05 08:29:29","新北市林口區中北三街370號","121.383556666667","25.0847866666667","6501700","林口區"
"244010","701-TV","2018/11/05 08:29:22","新北市林口區竹林路1-12號","121.38644","25.0769966666667","6501700","林口區"
"244024","837-TS","2018/11/05 08:29:17","新北市林口區忠孝三路28號","121.360648333333","25.0693633333333","6501700","林口區"
"244020","838-TS","2018/11/05 08:29:19","新北市林口區中山路10號","121.396421666667","25.0787966666667","6501700","林口區"
"222005","289-BY","2018/11/05 08:29:26","新北市深坑區萬福路141號","121.610396666667","25.0163783333333","6501800","深坑區"
"231007","189-VK","2018/11/05 08:29:17","新北市新店區新潭路三段81巷10號","121.505901666667","24.9101433333333","6500600","新店區"
"231008","192-VK","2018/11/05 08:29:32","新北市新店區新烏路三段103號","121.552581666667","24.90302","6500600","新店區"
"235001","611-BX","2018/11/05 08:29:24","新北市中和區新生街114巷20-4號","121.482696666667","25.0023383333333","6500300","中和區"
"226005","5620-A6","2018/11/05 08:29:21","新北市平溪區南山里六分9號","121.796523333333","25.0496916666667","6502400","平溪區"
"226001","7418-A5","2018/11/05 08:29:12","新北市平溪區東勢里番仔坑3號","121.746996666667","25.00056","6502400","平溪區"
"226003","AGD-0702","2018/11/05 08:29:14","新北市平溪區新寮里新寮路10號","121.79299","25.0592366666667","6502400","平溪區"
"223006","022-BY","2018/11/05 08:29:23","新北市石碇區靜安路一段282號","121.687531666667","25.010085","6501900","石碇區"
"223002","KEA-2673","2018/11/05 08:29:25","新北市石碇區碇格路二段16號","121.638881666667","24.95536","6501900","石碇區"
"223003","205-TH","2018/11/05 08:29:24","新北市石碇區北宜路六段塗潭巷9號","121.647508333333","24.9321766666667","6501900","石碇區"
"223008","406-TH","2018/11/05 08:29:22","新北市石碇區串空湖9號","121.668881666667","25.00169","6501900","石碇區"
"223001","592-UM","2018/11/05 08:29:18","新北市石碇區北宜路六段塗潭巷9號","121.647428333333","24.932255","6501900","石碇區"
"223004","660-BX","2018/11/05 08:29:12","新北市石碇區碇坪路一段282號","121.6763","24.976885","6501900","石碇區"
"223005","677-TV","2018/11/05 08:29:20","新北市石碇區碇坪路一段280號","121.67619","24.976965","6501900","石碇區"
"227005","282-VK","2018/11/05 08:29:16","新北市雙溪區外柑里過溪3號","121.825006666667","25.0180483333333","6502500","雙溪區"
"252006","073-UM","2018/11/05 08:29:13","新北市三芝區蘭陽街13-1號","121.473423333333","25.2424533333333","6502100","三芝區"
"252004","249-BX","2018/11/05 08:29:25","新北市三芝區興華里車埕60號","121.498651666667","25.1969916666667","6502100","三芝區"
"237001","159-UY","2018/11/05 08:29:19","新北市三峽區三樹路250號","121.379233333333","24.9433166666667","6500900","三峽區"
"242035","AAC-296","2018/11/05 08:29:29","新北市新莊區後港一路65巷11弄1號","121.426163333333","25.0271983333333","6500500","新莊區"
"242057","986-R7","2018/11/05 08:29:21","新北市新莊區壽山路160巷21號","121.417466666667","25.0320383333333","6500500","新莊區"
"242055","751-BX","2018/11/05 08:29:23","新北市新莊區豐年街124巷22號","121.44547","25.029925","6500500","新莊區"
"242026","615-BX","2018/11/05 08:29:13","新北市新莊區思源路351號","121.459978333333","25.050385","6500500","新莊區"
"242024","613-BX","2018/11/05 08:29:16","新北市新莊區五工路99-2號","121.457038333333","25.0641583333333","6500500","新莊區"
"242028","612-BX","2018/11/05 08:29:29","新北市新莊區中平路202-1號","121.444841666667","25.0488616666667","6500500","新莊區"
"242043","566-BX","2018/11/05 08:29:30","新北市新莊區雙鳳路139號","121.41293","25.027125","6500500","新莊區"
"242047","497-BY","2018/11/05 08:29:26","新北市新莊區萬安街57巷26號","121.422521666667","25.0238166666667","6500500","新莊區"
"242006","442-UM","2018/11/05 08:29:32","新北市新莊區中華路二段163號","121.452826666667","25.0518683333333","6500500","新莊區"
"242052","441-UM","2018/11/05 08:29:30","新北市新莊區民安西路472號","121.431903333333","25.0077466666667","6500500","新莊區"
"242038","415-TV","2018/11/05 08:29:28","新北市新莊區民安西路24巷18弄1號","121.426125","25.020815","6500500","新莊區"
"242008","413-TV","2018/11/05 08:29:18","新北市新莊區中華路二段260號","121.452606666667","25.053205","6500500","新莊區"
"242022","362-BY","2018/11/05 08:29:20","新北市新莊區幸福路2號","121.45951","25.0496616666667","6500500","新莊區"
"242059","353-BY","2018/11/05 08:29:12","新北市新莊區新樹路207-7號","121.435878333333","25.023885","6500500","新莊區"
"242010","132-UY","2018/11/05 08:29:12","新北市新莊區中榮街56巷10號","121.449176666667","25.0535916666667","6500500","新莊區"
"242040","133-UY","2018/11/05 08:29:26","新北市新莊區中正路857號","121.41953","25.0281566666667","6500500","新莊區"
"242033","135-UY","2018/11/05 08:29:32","新北市新莊區新豐街65號","121.446325","25.0336633333333","6500500","新莊區"
"242049","172-VK","2018/11/05 08:29:16","新北市新莊區民本街25巷16號","121.429085","25.0193516666667","6500500","新莊區"
"242012","173-VK","2018/11/05 08:29:13","新北市新莊區中和街144號","121.44749","25.0483916666667","6500500","新莊區"
"242018","175-VK","2018/11/05 08:29:21","新北市新莊區民樂街30號","121.457648333333","25.0408516666667","6500500","新莊區"
"242016","346-TH","2018/11/05 08:29:16","新北市新莊區中華路二段3巷10號","121.4534","25.0459733333333","6500500","新莊區"
"242045","347-TH","2018/11/05 08:29:27","新北市新莊區福營路167號","121.43174","25.0311833333333","6500500","新莊區"
"242030","348-TH","2018/11/05 08:29:29","新北市新莊區新泰路277巷48號","121.443506666667","25.0401416666667","6500500","新莊區"
"242003","349-TH","2018/11/05 08:29:23","新北市新莊區自由街28號","121.455833333333","25.0468383333333","6500500","新莊區"
"242020","350-TH","2018/11/05 08:29:24","新北市新莊區建興街93號","121.449888333333","25.0392166666667","6500500","新莊區"
"242001","281-VK","2018/11/05 08:29:18","新北市新莊區新莊路145號","121.456671666667","25.0361816666667","6500500","新莊區"
"242014","280-VK","2018/11/05 08:29:15","新北市新莊區中平路129巷17號","121.44404","25.047045","6500500","新莊區"
"220011","609-BX","2018/11/05 08:29:19","新北市板橋區大觀路三段45號","121.434041666667","24.9954433333333","6500100","板橋區"
"220057","686-BX","2018/11/05 08:29:31","新北市鶯歌區中山路5號","121.35299","24.9570383333333","6500100","板橋區"
