"lineid","car","time","location","longitude","latitude","cityid","cityname"
"248004","653-BX","2018/11/05 09:39:31","新北市五股區登林路76-6號","121.430481666667","25.0694683333333","6501500","五股區"
"244022","069-UM","2018/11/05 09:39:19","新北市林口區民享路36號","121.380753333333","25.08068","6501700","林口區"
"244018","403-UM","2018/11/05 09:39:28","新北市林口區麗園二街25號","121.3798","25.0696366666667","6501700","林口區"
"244012","KEA-2802","2018/11/05 09:39:32","新北市林口區麗園一街9巷2號","121.376785","25.0709833333333","6501700","林口區"
"244016","485-VK","2018/11/05 09:39:27","新北市林口區文化二路一段68巷37號","121.366871666667","25.0690983333333","6501700","林口區"
"244008","656-BX","2018/11/05 09:39:29","新北市林口區竹林路462號","121.387778333333","25.0848466666667","6501700","林口區"
"244010","701-TV","2018/11/05 09:39:22","新北市林口區中正路264巷11號","121.389023333333","25.07822","6501700","林口區"
"222005","289-BY","2018/11/05 09:39:22","新北市深坑區北深路一段196號","121.63354","25.0107683333333","6501800","深坑區"
"231007","189-VK","2018/11/05 09:39:17","新北市新店區新潭路三段215巷25號","121.508086666667","24.9040666666667","6500600","新店區"
"231008","192-VK","2018/11/05 09:39:32","新北市新店區平廣路一段250號","121.508001666667","24.8884133333333","6500600","新店區"
"223006","022-BY","2018/11/05 09:39:33","新北市石碇區小粗坑(潭邊里)2號","121.669335","24.9828483333333","6501900","石碇區"
"223003","205-TH","2018/11/05 09:39:18","新北市石碇區北宜路四段26號","121.623133333333","24.9580066666667","6501900","石碇區"
"223008","406-TH","2018/11/05 09:37:02","新北市石碇區南勢坑2-6號","121.700666666667","24.991495","6501900","石碇區"
"223001","592-UM","2018/11/05 09:39:18","新北市石碇區北宜路四段3號","121.611468333333","24.9575966666667","6501900","石碇區"
"227005","282-VK","2018/11/05 09:39:16","新北市雙溪區泰平里溪尾寮6號","121.819903333333","24.9619333333333","6502500","雙溪區"
"252004","249-BX","2018/11/05 09:39:25","新北市三芝區福德里大水堀21號","121.512223333333","25.2199483333333","6502100","三芝區"
"252006","AAC-283","2018/11/05 09:39:22","新北市三芝區新庄里新庄子113-5號","121.517205","25.2666","6502100","三芝區"
"237001","159-UY","2018/11/05 09:39:18","新北市三峽區隆恩街166號","121.363633333333","24.9429233333333","6500900","三峽區"
"242035","AAC-296","2018/11/05 09:39:30","新北市新莊區中正路449號","121.443063333333","25.0340416666667","6500500","新莊區"
"242057","986-R7","2018/11/05 09:39:21","新北市新莊區四維路129-1號","121.42287","25.0226666666667","6500500","新莊區"
"242055","751-BX","2018/11/05 09:39:23","新北市新莊區瓊泰路157號","121.443225","25.0311133333333","6500500","新莊區"
"242043","566-BX","2018/11/05 09:39:28","新北市新莊區中正路新建巷15弄26號","121.41487","25.0218833333333","6500500","新莊區"
"242052","441-UM","2018/11/05 09:39:30","新北市新莊區民安路377-1號","121.431668333333","25.023075","6500500","新莊區"
"242038","415-TV","2018/11/05 09:39:34","新北市新莊區瓊林路204-16號","121.437003333333","25.0214766666667","6500500","新莊區"
"242059","353-BY","2018/11/05 09:39:32","新北市新莊區新樹路244巷46號","121.43131","25.0191533333333","6500500","新莊區"
"242010","132-UY","2018/11/05 09:39:32","新北市五股區成泰路一段90號","121.437431666667","25.06968","6500500","新莊區"
"242045","347-TH","2018/11/05 09:39:27","新北市新莊區富國路60號","121.41909","25.0261766666667","6500500","新莊區"
"242030","348-TH","2018/11/05 09:39:29","新北市新莊區義豐街25巷10號","121.440633333333","25.0353816666667","6500500","新莊區"
"242003","349-TH","2018/11/05 09:39:23","新北市新莊區化成路746巷39號","121.466885","25.0581216666667","6500500","新莊區"
"220011","609-BX","2018/11/05 09:39:28","新北市樹林區中華路3號","121.42483","24.9838366666667","6500100","板橋區"
