"lineid","car","time","location","longitude","latitude","cityid","cityname"
"248004","653-BX","2018/11/05 10:19:30","新北市五股區中興路三段163號","121.448705","25.07985","6501500","五股區"
"244022","069-UM","2018/11/05 10:19:19","新北市林口區民富街95號","121.37017","25.0749883333333","6501700","林口區"
"244018","403-UM","2018/11/05 10:19:28","新北市林口區寶林路106號","121.373621666667","25.0910733333333","6501700","林口區"
"231007","189-VK","2018/11/05 10:19:17","新北市新店區新潭路三段131號","121.511213333333","24.910715","6500600","新店區"
"231008","192-VK","2018/11/05 10:19:32","新北市新店區小坑一路21-1號","121.53058","24.9116766666667","6500600","新店區"
"223003","205-TH","2018/11/05 10:06:55","新北市石碇區小粗坑(潭邊里)3-1號","121.673883333333","24.9829666666667","6501900","石碇區"
"227005","282-VK","2018/11/05 10:13:56","新北市雙溪區泰平里灣潭路20-1號","121.812791666667","24.9290716666667","6502500","雙溪區"
"252006","AAC-283","2018/11/05 10:19:22","新北市三芝區新庄里番社后11號","121.502026666667","25.26942","6502100","三芝區"
"237001","159-UY","2018/11/05 10:19:18","新北市三峽區國際二街21-5號","121.373191666667","24.9436283333333","6500900","三峽區"
