"lineid","car","time","location","longitude","latitude","cityid","cityname"
"244011","701-TV","2018/11/05 10:41:59","新北市林口區粉寮路二段88巷100-12號","121.409718333333","25.090235","6501700","林口區"
"231007","189-VK","2018/11/05 11:04:17","新北市新店區新潭路一段111號","121.528076666667","24.937","6500600","新店區"
"231008","192-VK","2018/11/05 11:07:52","新北市新店區頂石厝路36號","121.536591666667","24.9173016666667","6500600","新店區"
"223003","205-TH","2018/11/05 10:52:37","新北市石碇區小粗坑(潭邊里)9-2號","121.678395","24.9857516666667","6501900","石碇區"
"224011","201-TW","2018/11/05 10:52:39","新北市瑞芳區大寮路356-1號","121.78465","25.1031933333333","6501200","瑞芳區"
"227005","282-VK","2018/11/05 11:02:35","新北市雙溪區泰平里料角坑3號","121.823153333333","24.969855","6502500","雙溪區"
