"lineid","car","time","location","longitude","latitude","cityid","cityname"
"234044","148-BY","2018/11/05 12:57:02","新北市永和區永元路40巷45號","121.523806666667","25.000715","6500400","永和區"
"234038","336-UY","2018/11/05 12:58:30","新北市永和區成功路二段199-2號","121.526523333333","24.9960166666667","6500400","永和區"
"234084","338-UY","2018/11/05 12:57:53","新北市永和區中正路179-1號","121.516845","24.9988266666667","6500400","永和區"
"234015","745-BX","2018/11/05 12:58:00","新北市永和區永和路二段314號","121.516263333333","25.0161666666667","6500400","永和區"
"234012","KEA-2591","2018/11/05 12:58:06","新北市永和區保福路二段133巷37號","121.508991666667","25.013365","6500400","永和區"
"234010","9373-KE","2018/11/05 12:55:53","新北市永和區保福路二段158巷1號","121.509081666667","25.0151466666667","6500400","永和區"
"234076","969-R7","2018/11/05 12:55:44","新北市永和區中正路2巷29弄2-2號","121.513865","24.9939733333333","6500400","永和區"
"234001","AAC-295","2018/11/05 12:57:22","新北市永和區永和路一段212號","121.514448333333","25.00944","6500400","永和區"
"231036","512-UM","2018/11/05 12:58:27","新北市新店區安一路一段1-1號","121.519151666667","24.961135","6500600","新店區"
"235029","098-UM","2018/11/05 12:53:36","新北市中和區中山路二段289號","121.496181666667","25.0022066666667","6500300","中和區"
"207001","662-BX","2018/11/05 12:58:42","新北市萬里區萬里里獅頭路15-1號","121.6975","25.1800583333333","6502800","萬里區"
"221033","647-BX","2018/11/05 12:58:47","新北市汐止區莊敬街29巷5號","121.65693","25.0608633333333","6501100","汐止區"
