"lineid","car","time","location","longitude","latitude","cityid","cityname"
"234044","148-BY","2018/11/05 13:11:42","新北市永和區秀朗路二段126巷30號","121.524633333333","25.0008816666667","6500400","永和區"
"234005","207-UY","2018/11/05 13:12:29","新北市永和區中山路一段201號","121.50897","25.0086733333333","6500400","永和區"
"234078","298-R6","2018/11/05 13:08:46","新北市永和區福和路57巷14弄1號","121.522741666667","25.0069133333333","6500400","永和區"
"234038","336-UY","2018/11/05 13:07:30","新北市永和區民樂街73巷2號","121.527376666667","24.9971216666667","6500400","永和區"
"234064","337-UY","2018/11/05 13:15:14","新北市永和區永元路58號","121.522335","25.0012683333333","6500400","永和區"
"234084","338-UY","2018/11/05 13:09:33","新北市永和區永貞路101號","121.517993333333","25.0043866666667","6500400","永和區"
"234068","552-UM","2018/11/05 13:12:26","新北市永和區豫溪街137巷2號","121.519811666667","25.0104733333333","6500400","永和區"
"234015","745-BX","2018/11/05 13:10:00","新北市永和區文化路90巷9弄2號","121.513788333333","25.0157933333333","6500400","永和區"
"234030","746-BX","2018/11/05 13:14:14","新北市永和區民生路21號","121.522891666667","24.9988916666667","6500400","永和區"
"234012","KEA-2591","2018/11/05 13:11:26","新北市永和區保福路二段55號","121.510898333333","25.0121333333333","6500400","永和區"
"234060","AAD-866","2018/11/05 13:06:53","新北市永和區安樂路308號","121.514945","25.0057233333333","6500400","永和區"
"234040","862-TW","2018/11/05 13:07:33","新北市永和區保平路111巷10號","121.511398333333","25.0061833333333","6500400","永和區"
"234025","9371-KE","2018/11/05 13:14:43","新北市永和區自強街17號","121.51477","25.008235","6500400","永和區"
"234010","9373-KE","2018/11/05 13:07:54","新北市永和區仁愛路30號","121.514581666667","25.0134816666667","6500400","永和區"
"248007","095-VK","2018/11/05 13:19:17","新北市五股區更洲路32巷8弄14號","121.459248333333","25.0796683333333","6501500","五股區"
"248019","225-UY","2018/11/05 12:49:38","新北市五股區成泰路四段17號","121.45267","25.1081566666667","6501500","五股區"
"248011","247-BX","2018/11/05 13:16:24","新北市五股區御史路2號","121.44227","25.0902466666667","6501500","五股區"
"248013","261-SL","2018/11/05 13:17:42","新北市五股區自強路9-9號","121.434556666667","25.0740316666667","6501500","五股區"
"234076","969-R7","2018/11/05 13:10:25","新北市永和區民光街5號","121.51534","24.9963116666667","6500400","永和區"
"234072","AAC-211","2018/11/05 13:11:11","新北市永和區竹林路206號","121.52063","25.0086333333333","6500400","永和區"
"234001","AAC-295","2018/11/05 13:11:23","新北市永和區和平街29號","121.513215","25.0099266666667","6500400","永和區"
"231002","002-UM","2018/11/05 13:17:05","新北市新店區安一路一段1-1號","121.519726666667","24.9614766666667","6500600","新店區"
"231027","0293-UT","2018/11/05 13:18:49","新北市新店區安康路一段50-1號","121.529681666667","24.961345","6500600","新店區"
"231028","046-UY","2018/11/05 13:17:11","新北市新店區安華路28-1號","121.519833333333","24.9607666666667","6500600","新店區"
"231011","187-VK","2018/11/05 13:18:24","新北市新店區安一路一段1-1號","121.519816666667","24.96136","6500600","新店區"
"231003","268-BY","2018/11/05 13:15:46","新北市新店區安一路一段1-1號","121.519678333333","24.9610733333333","6500600","新店區"
"231018","278-BY","2018/11/05 13:17:18","新北市新店區北新路一段2-19號","121.538608333333","24.959995","6500600","新店區"
"231014","AAD-862","2018/11/05 13:17:55","新北市新店區安康路一段52巷1號","121.529876666667","24.96131","6500600","新店區"
"231038","3712-VJ","2018/11/05 13:19:07","新北市新店區安華路28-1號","121.519125","24.9606633333333","6500600","新店區"
"231025","4715-K9","2018/11/05 13:17:58","新北市新店區中央五街55號","121.527708333333","24.9755016666667","6500600","新店區"
"231036","512-UM","2018/11/05 13:18:07","新北市新店區安忠路205巷8號","121.508855","24.9547866666667","6500600","新店區"
"231013","513-UM","2018/11/05 13:17:49","新北市新店區安一路一段1-1號","121.51973","24.961235","6500600","新店區"
"231030","619-UM","2018/11/05 13:17:48","新北市新店區安華路28-1號","121.519368333333","24.9608416666667","6500600","新店區"
"231034","641-BX","2018/11/05 13:17:29","新北市新店區安忠路57巷26弄76號","121.512513333333","24.957175","6500600","新店區"
"231024","AKT-0513","2018/11/05 13:17:45","新北市新店區安康路一段235號","121.525248333333","24.96323","6500600","新店區"
"235030","003-UY","2018/11/05 13:17:29","新北市中和區中山路二段120號","121.502691666667","25.003855","6500300","中和區"
"235028","005-UY","2018/11/05 13:11:49","新北市中和區中正路213號","121.496938333333","24.9937716666667","6500300","中和區"
"235027","006-UY","2018/11/05 13:17:45","新北市中和區員山路36巷16-2號","121.485298333333","24.9917483333333","6500300","中和區"
"235029","098-UM","2018/11/05 13:02:36","新北市中和區福祥路2號","121.499616666667","25.0027883333333","6500300","中和區"
"235004","150-BY","2018/11/05 13:04:25","新北市中和區員山路36巷16-2號","121.485201666667","24.991765","6500300","中和區"
"235031","255-BX","2018/11/05 13:15:21","新北市中和區新生街191號","121.483793333333","25.000285","6500300","中和區"
"235007","352-BY","2018/11/05 13:19:19","新北市中和區景平路383-7號","121.50283","24.9939333333333","6500300","中和區"
"235006","KEA-2878","2018/11/05 13:15:22","新北市中和區景平路159巷29弄3號","121.512973333333","24.9912433333333","6500300","中和區"
"235034","558-UM","2018/11/05 13:15:07","新北市中和區圓通路156號","121.497823333333","24.9956183333333","6500300","中和區"
"235035","783-BX","2018/11/05 13:15:42","新北市中和區板南路520巷15號","121.483673333333","25.0088066666667","6500300","中和區"
"235026","800-TS","2018/11/05 13:17:27","新北市中和區橋和路120-1號","121.492428333333","25.0058383333333","6500300","中和區"
"235005","802-TS","2018/11/05 13:17:27","新北市中和區景安路52號","121.506781666667","24.998015","6500300","中和區"
"235023","AAC-215","2018/11/05 13:18:28","新北市中和區員山路36巷16-3號","121.484805","24.991185","6500300","中和區"
"227005","282-VK","2018/11/05 13:08:57","新北市雙溪區三貂里定福路1-2號","121.850793333333","25.0635083333333","6502500","雙溪區"
"207002","749-BX","2018/11/05 13:14:44","新北市萬里區溪底里香員林路9號","121.630173333333","25.1634633333333","6502800","萬里區"
"207001","662-BX","2018/11/05 13:17:42","新北市萬里區萬里里獅頭路15-1號","121.6975","25.1800583333333","6502800","萬里區"
"242049","172-VK","2018/11/05 13:16:48","新北市新莊區四維路187巷4號","121.42241","25.0208716666667","6500500","新莊區"
"221010","269-BY","2018/11/05 13:14:51","新北市汐止區忠三街8號","121.624696666667","25.0785116666667","6501100","汐止區"
"221033","647-BX","2018/11/05 13:17:07","新北市汐止區仁愛路1號","121.65879","25.06457","6501100","汐止區"
"235032","KEA-2873","2018/11/05 13:19:22","新北市中和區員山路36巷16-3號","121.485098333333","24.991345","6500300","中和區"
