"lineid","car","time","location","longitude","latitude","cityid","cityname"
"249004","303-UY","2018/11/05 21:09:01","新北市八里區中山路二段210巷138號","121.40279","25.1546916666667","6502300","八里區"
"248004","653-BX","2018/11/05 21:07:38","新北市八里區荖阡坑路32號","121.403218333333","25.1274266666667","6501500","五股區"
"231059","046-UY","2018/11/05 21:09:11","新北市新店區僑信路42號","121.49939","24.9509533333333","6500600","新店區"
"231040","047-UY","2018/11/05 21:09:00","新北市新店區北新路一段100號","121.542056666667","24.9692933333333","6500600","新店區"
"231047","187-VK","2018/11/05 21:09:05","新北市新店區中興路三段160號","121.544541666667","24.9806783333333","6500600","新店區"
"231054","KEA-2219","2018/11/05 21:09:08","新北市新店區大新街7巷5號","121.543585","24.9683333333333","6500600","新店區"
"231042","268-BY","2018/11/05 21:09:06","新北市新店區寶興路60巷3號","121.5499","24.9717833333333","6500600","新店區"
"231051","278-BY","2018/11/05 21:09:07","新北市新店區中正路700巷82號","121.535966666667","24.9932816666667","6500600","新店區"
"231050","AAD-862","2018/11/05 21:09:00","新北市新店區中華路117巷6弄2號","121.537793333333","24.968805","6500600","新店區"
"231066","4716-K9","2018/11/05 21:08:50","新北市新店區柴埕路100-2號","121.503185","24.9593966666667","6500600","新店區"
"231065","512-UM","2018/11/05 21:09:15","新北市新店區安祥路69巷89弄6號","121.48337","24.9598333333333","6500600","新店區"
"231061","619-UM","2018/11/05 21:08:59","新北市新店區永安街6號","121.516771666667","24.9860266666667","6500600","新店區"
"231063","641-BX","2018/11/05 21:09:02","新北市新店區玫瑰路61巷2號","121.495963333333","24.94523","6500600","新店區"
"231062","720-UM","2018/11/05 21:09:17","新北市新店區雙城路60巷16弄13號","121.49175","24.9478616666667","6500600","新店區"
"231060","897-TW","2018/11/05 21:09:08","新北市新店區薏仁坑路自強巷1號","121.497388333333","24.9577866666667","6500600","新店區"
"241011","013-R5","2018/11/05 21:09:19","新北市三重區秀江街117號","121.499725","25.0722016666667","6500200","三重區"
"241028","022-UY","2018/11/05 21:09:16","新北市三重區正義南路60-1號","121.498288333333","25.0606433333333","6500200","三重區"
"241008","059-VK","2018/11/05 21:09:01","新北市三重區自強路一段62號","121.497261666667","25.0667116666667","6500200","三重區"
"241022","060-VK","2018/11/05 21:09:09","新北市三重區中正北路64巷24號","121.486088333333","25.0637533333333","6500200","三重區"
"241031","061-VK","2018/11/05 21:09:18","新北市三重區重新路五段326巷25-1號","121.477528333333","25.0460966666667","6500200","三重區"
"241015","062-VK","2018/11/05 21:09:09","新北市三重區長元街82-1號","121.501888333333","25.0664","6500200","三重區"
"241017","063-VK","2018/11/05 21:09:07","新北市三重區國隆路30號","121.492321666667","25.06439","6500200","三重區"
"241024","065-VK","2018/11/05 21:09:02","新北市三重區大勇街82巷15弄30號","121.481216666667","25.0719716666667","6500200","三重區"
"241002","090-VK","2018/11/05 21:09:16","新北市三重區五華街19號","121.494976666667","25.080425","6500200","三重區"
"241003","091-VK","2018/11/05 21:09:06","新北市三重區仁義街224號","121.494993333333","25.0846683333333","6500200","三重區"
"251014","742-BX","2018/11/05 21:09:13","新北市淡水區六塊厝2-1號","121.450161666667","25.2404483333333","6501000","淡水區"
"241005","262-UM","2018/11/05 21:09:12","新北市三重區三信路182號","121.4881","25.08608","6500200","三重區"
"241026","265-UM","2018/11/05 21:09:11","新北市三重區文化南路42號","121.500453333333","25.0602416666667","6500200","三重區"
"241016","266-UM","2018/11/05 21:09:02","新北市三重區信義西街118號","121.495808333333","25.0641933333333","6500200","三重區"
"241009","267-UM","2018/11/05 21:09:02","新北市三重區忠孝路二段124號","121.483051666667","25.068835","6500200","三重區"
"241018","268-UM","2018/11/05 21:09:01","新北市三重區正義北路332-1號","121.494373333333","25.0705933333333","6500200","三重區"
"241032","269-UM","2018/11/05 21:09:14","新北市三重區中興北街283號","121.469183333333","25.061715","6500200","三重區"
"241013","270-UM","2018/11/05 21:08:47","新北市三重區仁賢街12-1號","121.495638333333","25.0748666666667","6500200","三重區"
"241025","271-UM","2018/11/05 21:09:00","新北市三重區中正北路208巷10弄4號","121.482455","25.0669766666667","6500200","三重區"
"241007","398-BY","2018/11/05 21:08:59","新北市三重區三和路四段145巷85號","121.486441666667","25.0787416666667","6500200","三重區"
"241004","475-VK","2018/11/05 21:09:18","新北市三重區仁愛街423-1號","121.490426666667","25.0814433333333","6500200","三重區"
"241014","543-UM","2018/11/05 21:09:08","新北市三重區三和路二段37-9號","121.501371666667","25.0676383333333","6500200","三重區"
"241023","545-UM","2018/11/05 21:09:10","新北市三重區洛陽街45巷20號","121.482303333333","25.0638066666667","6500200","三重區"
"241001","547-UM","2018/11/05 21:09:10","新北市三重區自強路三段101號","121.487771666667","25.075425","6500200","三重區"
"241019","KEA-2593","2018/11/05 21:09:06","新北市三重區自強路二段74巷19號","121.487956666667","25.0699133333333","6500200","三重區"
"241006","AAD-863","2018/11/05 21:09:03","新北市三重區明志街135號","121.489303333333","25.0632516666667","6500200","三重區"
"241030","743-BX","2018/11/05 21:09:06","新北市三重區五谷王北街20巷15弄1號","121.47504","25.0485016666667","6500200","三重區"
"241020","887-TS","2018/11/05 21:09:18","新北市三重區忠孝路二段34號","121.485733333333","25.0710033333333","6500200","三重區"
"241012","941-UM","2018/11/05 21:09:12","新北市三重區龍門路300號","121.502473333333","25.07454","6500200","三重區"
"241029","942-UM","2018/11/05 21:09:18","新北市三重區正義南路111號","121.498225","25.0585583333333","6500200","三重區"
"241033","AAC-255","2018/11/05 21:09:03","新北市三重區疏洪西路399號","121.468976666667","25.0635466666667","6500200","三重區"
"247012","KEA-2869","2018/11/05 21:09:02","新北市蘆洲區民族路46號","121.476941666667","25.08432","6501400","蘆洲區"
"247002","893-R6","2018/11/05 21:09:16","新北市蘆洲區長榮路387-1號","121.459016666667","25.0898466666667","6501400","蘆洲區"
"247024","500-BY","2018/11/05 21:09:05","新北市蘆洲區長興路50巷1號","121.4638","25.08378","6501400","蘆洲區"
"247006","337-TH","2018/11/05 21:09:09","新北市蘆洲區和平路91號","121.468075","25.07866","6501400","蘆洲區"
"247008","336-TH","2018/11/05 21:09:01","新北市蘆洲區民生街113號","121.473171666667","25.07884","6501400","蘆洲區"
"247020","057-VK","2018/11/05 21:09:16","新北市蘆洲區民族路464-1號","121.471846666667","25.0917566666667","6501400","蘆洲區"
"247010","056-VK","2018/11/05 21:09:11","新北市蘆洲區鷺江街42號","121.477325","25.0831183333333","6501400","蘆洲區"
"247018","007-UY","2018/11/05 21:09:03","新北市蘆洲區民族路408巷6號","121.474776666667","25.0918166666667","6501400","蘆洲區"
"247004","002-UY","2018/11/05 21:09:00","新北市蘆洲區永安南路二段272號","121.458323333333","25.080875","6501400","蘆洲區"
"247022","001-UY","2018/11/05 21:09:04","新北市蘆洲區三民路263號","121.468156666667","25.089255","6501400","蘆洲區"
"251009","008-UM","2018/11/05 21:09:06","新北市淡水區民權路187巷74弄9號","121.462066666667","25.13439","6501000","淡水區"
"251005","010-UM","2018/11/05 21:09:14","新北市淡水區博愛街45號","121.446581666667","25.16928","6501000","淡水區"
"251013","KEA-2871","2018/11/05 21:08:58","新北市淡水區行忠路328號","121.46045","25.1996516666667","6501000","淡水區"
"251016","179-VK","2018/11/05 21:09:07","新北市淡水區前洲子3-1號","121.443846666667","25.2164166666667","6501000","淡水區"
"251015","182-VK","2018/11/05 21:09:08","新北市淡水區淡金路四段542巷60號","121.455083333333","25.2264383333333","6501000","淡水區"
"251010","413-VK","2018/11/05 21:09:07","新北市淡水區中正路一段63巷8號","121.423196666667","25.177385","6501000","淡水區"
"251012","441-VK","2018/11/05 21:09:18","新北市淡水區淡金路五段172號","121.457033333333","25.2400816666667","6501000","淡水區"
"251007","442-VK","2018/11/05 21:09:12","新北市淡水區英專路42-1號","121.445605","25.1703483333333","6501000","淡水區"
"251001","559-UM","2018/11/05 21:09:12","新北市淡水區新市一路三段101巷16弄3號","121.446628333333","25.1838316666667","6501000","淡水區"
"251011","650-BX","2018/11/05 21:09:18","新北市淡水區新民街222巷16弄15號","121.437325","25.1798066666667","6501000","淡水區"
"251002","672-BX","2018/11/05 21:09:01","新北市淡水區水源街一段141號","121.447218333333","25.1719266666667","6501000","淡水區"
"251003","766-UM","2018/11/05 21:08:58","新北市淡水區新春街97號","121.439863333333","25.1824183333333","6501000","淡水區"
"242053","441-UM","2018/11/05 21:08:19","新北市五股區中直路13-7號","121.423961666667","25.110865","6500500","新莊區"
"242023","362-BY","2018/11/05 21:09:13","新北市林口區汕頭32號","121.366356666667","25.1346333333333","6500500","新莊區"
"242042","133-UY","2018/11/05 21:09:11","新北市五股區凌雲路一段25號","121.452321666667","25.0996","6500500","新莊區"
"221029","298-VK","2018/11/05 21:07:32","新北市汐止區汐萬路一段256巷1號","121.651765","25.0747933333333","6501100","汐止區"
"220070","AAC-253","2018/11/05 21:09:06","新北市八里區中山路三段409號","121.368521666667","25.1349433333333","6500100","板橋區"
