"lineid","car","time","location","longitude","latitude","cityid","cityname"
"241011","013-R5","2018/11/05 21:58:59","新北市林口區汕頭32號","121.36644","25.134935","6500200","三重區"
"241030","743-BX","2018/11/05 21:34:46","新北市八里區下罟子17號","121.381688333333","25.1440466666667","6500200","三重區"
"247012","KEA-2869","2018/11/05 21:58:42","新北市林口區太平里180號","121.367621666667","25.1338116666667","6501400","蘆洲區"
"235010","733-UM","2018/11/05 21:48:33","新北市中和區員山路36巷13號","121.484183333333","24.9907583333333","6500300","中和區"
"251005","010-UM","2018/11/05 21:59:14","新北市淡水區鄧公路30巷1弄1號","121.452525","25.1696716666667","6501000","淡水區"
"251010","413-VK","2018/11/05 21:59:07","新北市淡水區中正路二段215號","121.42628","25.189305","6501000","淡水區"
"251007","442-VK","2018/11/05 21:59:16","新北市淡水區北新路184巷146號","121.451418333333","25.177485","6501000","淡水區"
"251004","443-VK","2018/11/05 21:59:06","新北市淡水區自強路279-1號","121.461525","25.12758","6501000","淡水區"
"251006","561-UM","2018/11/05 21:59:17","新北市淡水區中正路11巷3號","121.437838333333","25.1707616666667","6501000","淡水區"
"251011","650-BX","2018/11/05 21:59:18","新北市淡水區水碓街7號","121.443173333333","25.1771183333333","6501000","淡水區"
"251003","766-UM","2018/11/05 21:59:18","新北市淡水區新春街87號","121.438981666667","25.18259","6501000","淡水區"
"242042","133-UY","2018/11/05 21:58:51","新北市林口區太平里180號","121.36813","25.1344266666667","6500500","新莊區"
"220070","AAC-253","2018/11/05 21:55:21","新北市板橋區華東街1-9號","121.448265","24.99486","6500100","板橋區"
