"lineid","car","time","location","longitude","latitude","cityid","cityname"
"241011","013-R5","2018/11/05 22:08:59","新北市林口區太平里180號","121.366798333333","25.133775","6500200","三重區"
"241030","743-BX","2018/11/05 21:42:26","新北市林口區太平里180號","121.36845","25.1339016666667","6500200","三重區"
"247012","KEA-2869","2018/11/05 22:09:02","新北市八里區中山路三段409號","121.368705","25.134365","6501400","蘆洲區"
"235010","733-UM","2018/11/05 21:48:33","新北市中和區員山路36巷13號","121.484183333333","24.9907583333333","6500300","中和區"
"251005","010-UM","2018/11/05 22:09:14","新北市淡水區鄧公路19號","121.451405","25.1700016666667","6501000","淡水區"
"251010","413-VK","2018/11/05 22:09:07","新北市淡水區沙崙路200號","121.424675","25.183895","6501000","淡水區"
"251007","442-VK","2018/11/05 22:09:16","新北市淡水區北新路186-3號","121.449561666667","25.1786783333333","6501000","淡水區"
"251004","443-VK","2018/11/05 22:09:06","新北市淡水區民族路33號","121.462235","25.1357383333333","6501000","淡水區"
"251011","650-BX","2018/11/05 22:08:58","新北市淡水區水碓街7號","121.443173333333","25.1771866666667","6501000","淡水區"
"220070","AAC-253","2018/11/05 21:55:21","新北市板橋區華東街1-9號","121.448265","24.99486","6500100","板橋區"
