"lineid","car","time","location","longitude","latitude","cityid","cityname"
"241011","013-R5","2018/11/05 22:19:19","新北市八里區中山路三段409號","121.368641666667","25.1349033333333","6500200","三重區"
"247012","KEA-2869","2018/11/05 22:19:02","新北市林口區太平里180號","121.368145","25.1344283333333","6501400","蘆洲區"
"251010","413-VK","2018/11/05 22:19:07","新北市淡水區沙崙路200號","121.424706666667","25.1839116666667","6501000","淡水區"
"251007","442-VK","2018/11/05 22:19:16","新北市淡水區北新路186-3號","121.449538333333","25.1786983333333","6501000","淡水區"
"251004","443-VK","2018/11/05 22:19:06","新北市淡水區民族路33號","121.462161666667","25.1357866666667","6501000","淡水區"
"251011","650-BX","2018/11/05 22:19:18","新北市淡水區水碓街7號","121.443175","25.17718","6501000","淡水區"
"220070","AAC-253","2018/11/05 21:55:21","新北市板橋區華東街1-9號","121.448265","24.99486","6500100","板橋區"
