"lineid","car","time","location","longitude","latitude","cityid","cityname"
"248005","653-BX","2018/02/08 07:09:40","新北市五股區成泰路一段98巷3號","121.43662","25.072605","6501500","五股區"
"232001","290-BY","2018/02/08 07:09:33","新北市坪林區桶盤嶼8-2號","121.707186666667","24.9574583333333","6502000","坪林區"
"232014","291-BY","2018/02/08 07:09:42","新北市坪林區金瓜寮3-2號","121.681056666667","24.9185416666667","6502000","坪林區"
"232010","375-UM","2018/02/08 07:09:31","新北市坪林區水聳淒坑10號","121.724641666667","24.9282066666667","6502000","坪林區"
"232018","705-BZ","2018/02/08 07:09:33","新北市坪林區九芎坑3-2號","121.728425","24.9625466666667","6502000","坪林區"
"232007","758-BX","2018/02/08 07:09:28","新北市坪林區魚堀56-1號","121.701481666667","24.9249966666667","6502000","坪林區"
"244003","248-BX","2018/02/08 07:09:34","新北市林口區頭湖88-12號","121.367713333333","25.0824433333333","6501700","林口區"
"222006","289-BY","2018/02/08 07:09:34","新北市深坑區萬福路81號","121.602848333333","25.0094116666667","6501800","深坑區"
"235001","611-BX","2018/02/08 07:09:35","新北市中和區圓通路367巷4號","121.491336666667","24.9892383333333","6500300","中和區"
"235010","733-UM","2018/02/08 07:09:45","新北市中和區和平街29-1號","121.507421666667","24.9910766666667","6500300","中和區"
"226005","5620-A6","2018/02/08 07:09:29","新北市平溪區菁桐里菁桐街20號","121.726103333333","25.0238066666667","6502400","平溪區"
"226002","8452-VL","2018/02/08 07:09:32","新北市平溪區石底里石筍尖13號","121.734973333333","25.0255466666667","6502400","平溪區"
"226003","AGD-0702","2018/02/08 07:09:30","新北市平溪區菁桐里菁桐街30號","121.725711666667","25.023845","6502400","平溪區"
"223006","022-BY","2018/02/08 07:09:31","新北市石碇區新興坑1-1號","121.654013333333","25.0148533333333","6501900","石碇區"
"223001","205-TH","2018/02/08 07:09:42","新北市石碇區烏塗窟26號","121.657135","24.9751583333333","6501900","石碇區"
"223008","406-TH","2018/02/08 07:09:38","新北市石碇區番子坑38-7號","121.677751666667","25.010675","6501900","石碇區"
"223001","437-BY","2018/02/08 07:09:28","新北市石碇區烏塗窟16-2號","121.656851666667","24.9754766666667","6501900","石碇區"
"223007","592-UM","2018/02/08 07:09:47","新北市石碇區靜安路一段252號","121.677453333333","25.0106666666667","6501900","石碇區"
"223004","660-BX","2018/02/08 07:09:30","新北市石碇區雙溪33-7號","121.650223333333","25.0081166666667","6501900","石碇區"
"223005","677-TV","2018/02/08 07:09:33","新北市石碇區碇坪路一段2號","121.651721666667","25.0060933333333","6501900","石碇區"
"227007","282-VK","2018/02/08 07:09:41","新北市雙溪區新基里自強路5號","121.86635","25.0389933333333","6502500","雙溪區"
"252004","292-VK","2018/02/08 07:09:26","新北市三芝區福德里埔尾9-58號","121.502635","25.2427066666667","6502100","三芝區"
"252004","702-TV","2018/02/08 07:09:37","新北市三芝區中山路二段50號","121.503128333333","25.2542933333333","6502100","三芝區"
"252007","AAC-283","2018/02/08 07:09:32","新北市三芝區福德里埔尾2號","121.501681666667","25.2467866666667","6502100","三芝區"
"236009","165-UM","2018/02/08 07:09:46","新北市土城區中央路三段85-4號","121.437985","24.9680883333333","6501300","土城區"
"236003","339-SR","2018/02/08 07:09:37","新北市土城區金城路一段42號","121.441916666667","24.9700783333333","6501300","土城區"
"220064","282-UM","2018/02/08 07:09:32","新北市板橋區國光路51號","121.458101666667","25.0180016666667","6500100","板橋區"
