"lineid","car","time","location","longitude","latitude","cityid","cityname"
"248005","653-BX","2018/08/24 09:19:46","新北市五股區水碓三路63號","121.430378333333","25.0715533333333","6501500","五股區"
"244004","248-BX","2018/08/24 09:19:32","新北市林口區竹林路266號","121.389676666667","25.0807316666667","6501700","林口區"
"222005","289-BY","2018/08/24 09:19:55","新北市深坑區土庫尖路75-1號","121.631203333333","25.0181966666667","6501800","深坑區"
"231007","189-VK","2018/08/24 09:19:49","新北市新店區新潭路三段215巷25號","121.508106666667","24.9040883333333","6500600","新店區"
"231009","192-VK","2018/08/24 09:19:48","新北市新店區廣興路122號","121.53567","24.911345","6500600","新店區"
"235001","611-BX","2018/08/24 09:19:44","新北市中和區中山路三段120-15號","121.47457","25.0089","6500300","中和區"
"223003","205-TH","2018/08/24 09:19:38","新北市石碇區北宜路五段火燒樟巷9-1號","121.62739","24.954895","6501900","石碇區"
"223008","406-TH","2018/08/24 09:19:41","新北市石碇區南勢坑2-6號","121.700426666667","24.9913933333333","6501900","石碇區"
"223001","592-UM","2018/08/24 09:19:53","新北市石碇區北宜路五段火燒樟巷11號","121.625536666667","24.954395","6501900","石碇區"
"223004","660-BX","2018/08/24 09:19:45","新北市石碇區碇坪路一段226號","121.674545","24.981175","6501900","石碇區"
"223005","677-TV","2018/08/24 09:19:36","新北市石碇區碇坪路一段137號","121.675061666667","24.9808916666667","6501900","石碇區"
"227005","282-VK","2018/08/24 09:14:48","新北市雙溪區泰平里溪尾寮13號","121.820751666667","24.9605833333333","6502500","雙溪區"
"237001","159-UY","2018/08/24 09:19:49","新北市三峽區國學街2號","121.373625","24.9413816666667","6500900","三峽區"
"236010","165-UM","2018/08/24 09:19:48","新北市土城區中央路一段184巷1-1號","121.430401666667","24.9654066666667","6501300","土城區"
"236006","498-BY","2018/08/24 09:19:38","新北市土城區中央路三段126巷34號","121.434768333333","24.9678783333333","6501300","土城區"
