"lineid","car","time","location","longitude","latitude","cityid","cityname"
"248005","653-BX","2018/08/24 09:39:46","新北市五股區登林路76-10號","121.429658333333","25.069535","6501500","五股區"
"244004","248-BX","2018/08/24 09:39:52","新北市林口區竹林路266號","121.389685","25.0807616666667","6501700","林口區"
"222005","289-BY","2018/08/24 09:39:55","新北市深坑區北深路一段278巷16號","121.62913","25.0113966666667","6501800","深坑區"
"231007","189-VK","2018/08/24 09:39:49","新北市新店區新潭路三段215巷25號","121.508075","24.9041133333333","6500600","新店區"
"231009","192-VK","2018/08/24 09:36:51","新北市新店區平廣路一段256號","121.507446666667","24.8880116666667","6500600","新店區"
"235001","611-BX","2018/08/24 09:39:44","新北市中和區員山路126號","121.481098333333","24.9960166666667","6500300","中和區"
"223008","406-TH","2018/08/24 09:39:21","新北市石碇區小粗坑(潭邊里)9-2號","121.678738333333","24.9861683333333","6501900","石碇區"
"227005","282-VK","2018/08/24 09:38:08","新北市雙溪區泰平里灣潭路20-1號","121.812588333333","24.929065","6502500","雙溪區"
"237001","159-UY","2018/08/24 09:39:49","新北市樹林區中山路三段210-2號","121.380785","24.9667733333333","6500900","三峽區"
"236010","165-UM","2018/08/24 09:39:48","新北市土城區中央路四段466號","121.409998333333","24.950615","6501300","土城區"
"236006","498-BY","2018/08/24 09:39:38","新北市土城區忠承路18號","121.441381666667","24.9676833333333","6501300","土城區"
