"lineid","car","time","location","longitude","latitude","cityid","cityname"
"234044","148-BY","2018/08/24 12:59:21","新北市永和區永元路52巷36號","121.523798333333","25.0008366666667","6500400","永和區"
"234070","149-BY","2018/08/24 12:59:24","新北市永和區民生路67巷21號","121.523878333333","24.9972966666667","6500400","永和區"
"234005","207-UY","2018/08/24 12:59:18","新北市永和區中山路一段9號","121.514045","25.0104616666667","6500400","永和區"
"234078","298-R6","2018/08/24 12:59:23","新北市永和區國中路198號","121.522325","25.0062633333333","6500400","永和區"
"234036","336-UY","2018/08/24 12:59:10","新北市永和區成功路二段207號","121.526555","24.995905","6500400","永和區"
"234062","337-UY","2018/08/24 12:59:28","新北市永和區秀朗路一段144號","121.51809","25.00336","6500400","永和區"
"234084","338-UY","2018/08/24 12:59:19","新北市永和區中正路397號","121.517253333333","25.00419","6500400","永和區"
"234068","552-UM","2018/08/24 12:59:07","新北市永和區竹林路96巷21號","121.518631666667","25.011765","6500400","永和區"
"234015","745-BX","2018/08/24 12:59:24","新北市永和區永和路二段299號","121.516083333333","25.0161433333333","6500400","永和區"
"234028","746-BX","2018/08/24 12:59:18","新北市永和區秀朗路二段293號","121.526138333333","24.9978483333333","6500400","永和區"
"234052","KEA-2590","2018/08/24 12:59:09","新北市永和區竹林路66巷4號","121.518253333333","25.0133116666667","6500400","永和區"
"234012","KEA-2591","2018/08/24 12:59:23","新北市永和區信義路17巷20號","121.513276666667","25.0111483333333","6500400","永和區"
"234060","AAD-866","2018/08/24 12:59:21","新北市永和區福和路309巷1號","121.516306666667","25.0070416666667","6500400","永和區"
"234040","862-TW","2018/08/24 12:59:06","新北市永和區永貞路308號","121.511905","25.0049083333333","6500400","永和區"
"234048","863-TW","2018/08/24 12:59:24","新北市永和區保安路13號","121.510416666667","25.0168066666667","6500400","永和區"
"234025","9371-KE","2018/08/24 12:59:24","新北市永和區永和路一段23號","121.512975","25.0057183333333","6500400","永和區"
"234010","9373-KE","2018/08/24 12:59:24","新北市永和區文化路113巷21弄2號","121.513285","25.0141083333333","6500400","永和區"
"248019","225-UY","2018/08/24 12:59:12","新北市五股區中興路二段83巷26-6號","121.459836666667","25.0753516666667","6501500","五股區"
"234022","9380-KE","2018/08/24 12:59:30","新北市永和區竹林路75巷15-2號","121.519698333333","25.0136216666667","6500400","永和區"
"234076","969-R7","2018/08/24 12:59:26","新北市永和區民享街4號","121.515096666667","24.99553","6500400","永和區"
"234072","AAC-211","2018/08/24 12:59:14","新北市永和區福和路1號","121.526533333333","25.0099866666667","6500400","永和區"
"234066","AAC-212","2018/08/24 12:59:15","新北市永和區中和路625號","121.512938333333","25.0049366666667","6500400","永和區"
"234001","AAC-295","2018/08/24 12:59:27","新北市永和區永和路一段135巷2號","121.5141","25.00867","6500400","永和區"
"244004","248-BX","2018/08/24 12:59:25","新北市林口區中山路262-1號","121.384801666667","25.0799983333333","6501700","林口區"
"231005","001-UM","2018/08/24 12:59:29","新北市新店區安一路一段1-1號","121.519556666667","24.9610466666667","6500600","新店區"
"231002","002-UM","2018/08/24 12:59:15","新北市新店區安華路28-1號","121.519651666667","24.9609266666667","6500600","新店區"
"231028","046-UY","2018/08/24 12:59:28","新北市新店區安華路28-1號","121.519616666667","24.9609383333333","6500600","新店區"
"231001","047-UY","2018/08/24 12:59:27","新北市新店區安華路28-1號","121.519208333333","24.9609283333333","6500600","新店區"
"231010","107-UY","2018/08/24 12:59:08","新北市新店區安一路一段1-1號","121.519401666667","24.9611566666667","6500600","新店區"
"231022","108-UY","2018/08/24 12:59:13","新北市新店區安一路一段1-1號","121.519448333333","24.9612366666667","6500600","新店區"
"231012","187-VK","2018/08/24 12:59:15","新北市新店區安一路一段1-1號","121.519605","24.96131","6500600","新店區"
"231023","KEA-2219","2018/08/24 12:59:06","新北市新店區安華路28-1號","121.520073333333","24.9610566666667","6500600","新店區"
"231026","256-BX","2018/08/24 12:59:18","新北市新店區安一路一段1-1號","121.519666666667","24.961205","6500600","新店區"
"231003","268-BY","2018/08/24 12:59:19","新北市新店區安華路28-1號","121.519401666667","24.9607583333333","6500600","新店區"
"231018","278-BY","2018/08/24 12:59:13","新北市新店區安一路一段1-1號","121.519661666667","24.961135","6500600","新店區"
"231016","AAD-862","2018/08/24 12:59:18","新北市新店區安一路一段1-1號","121.519986666667","24.9611066666667","6500600","新店區"
"231027","3713-VJ","2018/08/24 12:59:25","新北市新店區安華路28-1號","121.519125","24.960645","6500600","新店區"
"231037","4716-K9","2018/08/24 12:59:19","新北市新店區安華路28-1號","121.519683333333","24.961025","6500600","新店區"
"231036","512-UM","2018/08/24 12:59:26","新北市新店區安一路一段1-1號","121.519355","24.9611116666667","6500600","新店區"
"231013","513-UM","2018/08/24 12:59:26","新北市新店區安一路一段1-1號","121.519633333333","24.9613566666667","6500600","新店區"
"231006","617-UM","2018/08/24 12:59:15","新北市新店區安一路一段1-1號","121.51941","24.961155","6500600","新店區"
"231030","619-UM","2018/08/24 12:59:26","新北市新店區安華路28-1號","121.519651666667","24.9607383333333","6500600","新店區"
"231034","641-BX","2018/08/24 12:59:12","新北市新店區安華路28-1號","121.519536666667","24.9606916666667","6500600","新店區"
"231039","718-UY","2018/08/24 12:58:51","新北市新店區安一路一段1-1號","121.519425","24.9612433333333","6500600","新店區"
"231035","719-UM","2018/08/24 12:59:11","新北市新店區安一路一段1-1號","121.519375","24.961385","6500600","新店區"
"231032","720-UM","2018/08/24 12:59:26","新北市新店區安一路一段1-1號","121.519328333333","24.9614033333333","6500600","新店區"
"231029","897-TW","2018/08/24 12:59:26","新北市新店區安華路28-1號","121.519601666667","24.9609466666667","6500600","新店區"
"231024","AKT-0513","2018/08/24 12:59:12","新北市新店區安華路28-1號","121.519565","24.960555","6500600","新店區"
"235028","005-UY","2018/08/24 12:59:19","新北市中和區員山路36巷16-3號","121.485086666667","24.991385","6500300","中和區"
"235029","098-UM","2018/08/24 12:59:11","新北市中和區橋和路270號","121.495756666667","25.0065916666667","6500300","中和區"
"235004","150-BY","2018/08/24 12:59:25","新北市中和區和城路一段271巷1號","121.485368333333","24.991825","6500300","中和區"
"235022","151-BY","2018/08/24 12:59:19","新北市中和區圓通路367巷4號","121.491426666667","24.9892583333333","6500300","中和區"
"235002","185-VK","2018/08/24 12:59:20","新北市中和區成功路41巷1號","121.526145","24.9933683333333","6500300","中和區"
"235031","255-BX","2018/08/24 12:59:16","新北市中和區中正路899號","121.484138333333","25.0050333333333","6500300","中和區"
"235034","558-UM","2018/08/24 12:59:22","新北市中和區員山路36巷16-3號","121.485005","24.9917283333333","6500300","中和區"
"235011","732-UM","2018/08/24 12:59:25","新北市中和區員山路36巷16-8號","121.485483333333","24.9922933333333","6500300","中和區"
"235035","783-BX","2018/08/24 12:59:22","新北市中和區新生街197號","121.483913333333","25.0001383333333","6500300","中和區"
"235026","800-TS","2018/08/24 12:59:20","新北市中和區員山路36巷16-3號","121.484905","24.9916383333333","6500300","中和區"
"235005","802-TS","2018/08/24 12:59:20","新北市中和區員山路36巷16-4號","121.485281666667","24.9918966666667","6500300","中和區"
"235016","805-TS","2018/08/24 12:59:13","新北市中和區員山路36巷13號","121.484271666667","24.9914033333333","6500300","中和區"
"235015","157-BY","2018/08/24 12:59:09","新北市中和區員山路36巷13號","121.484186666667","24.9909316666667","6500300","中和區"
"235001","AAC-213","2018/08/24 12:59:27","新北市中和區錦和路350-1號","121.490571666667","24.9935966666667","6500300","中和區"
"207002","749-BX","2018/08/24 12:59:18","新北市萬里區雙興里大坪路47-1號","121.624435","25.1718166666667","6502800","萬里區"
"207001","662-BX","2018/08/24 12:59:13","新北市萬里區萬里里獅頭路22-1號","121.692956666667","25.1782716666667","6502800","萬里區"
"236006","498-BY","2018/08/24 12:59:07","新北市土城區亞洲路14號","121.436641666667","24.9747783333333","6501300","土城區"
"221010","269-BY","2018/08/24 12:59:27","新北市汐止區忠三街8號","121.624783333333","25.078475","6501100","汐止區"
"221032","280-BY","2018/08/24 12:59:12","新北市汐止區建成路57巷1號","121.662185","25.07255","6501100","汐止區"
"235032","KEA-2873","2018/08/24 12:59:18","新北市中和區員山路36巷16-3號","121.484948333333","24.991365","6500300","中和區"
"235025","KEA-2875","2018/08/24 12:32:28","新北市中和區員山路36巷16-2號","121.485295","24.9916383333333","6500300","中和區"
