"lineid","car","time","location","longitude","latitude","cityid","cityname"
"234070","149-BY","2018/08/24 15:19:44","新北市中和區永和路220巷32號","121.49204","25.0082616666667","6500400","永和區"
"234005","207-UY","2018/08/24 15:19:38","新北市八里區商港路48號","121.394836666667","25.14459","6500400","永和區"
"244004","248-BX","2018/08/24 15:19:45","新北市林口區粉寮路一段101號","121.393606666667","25.0804766666667","6501700","林口區"
"231005","001-UM","2018/08/24 15:19:29","新北市新店區建國路112號","121.539708333333","24.978175","6500600","新店區"
"231002","002-UM","2018/08/24 15:19:35","新北市新店區中正路700巷3號","121.533518333333","24.991695","6500600","新店區"
"231028","046-UY","2018/08/24 15:19:45","新北市新店區僑信路132巷38號","121.499768333333","24.9453833333333","6500600","新店區"
"231001","047-UY","2018/08/24 15:19:27","新北市新店區北新路一段319號","121.541611666667","24.9681366666667","6500600","新店區"
"231022","108-UY","2018/08/24 15:19:32","新北市新店區永福路61號","121.557873333333","24.92906","6500600","新店區"
"231012","187-VK","2018/08/24 15:19:15","新北市新店區寶慶街66號","121.542005","24.98662","6500600","新店區"
"231023","KEA-2219","2018/08/24 15:19:29","新北市新店區行政街28巷2號","121.542838333333","24.9656216666667","6500600","新店區"
"231026","256-BX","2018/08/24 15:19:35","新北市新店區中正路247巷4弄10號","121.538483333333","24.97339","6500600","新店區"
"231003","268-BY","2018/08/24 15:19:39","新北市新店區寶橋路236號","121.551548333333","24.97888","6500600","新店區"
"231018","278-BY","2018/08/24 15:19:32","新北市新店區中央八街74號","121.527593333333","24.9769783333333","6500600","新店區"
"231016","AAD-862","2018/08/24 15:19:38","新北市新店區明山路45號","121.563551666667","24.9558283333333","6500600","新店區"
"231038","3712-VJ","2018/08/24 15:19:30","新北市新店區安華路28-1號","121.519501666667","24.96084","6500600","新店區"
"231037","4716-K9","2018/08/24 15:19:39","新北市新店區安興路56號","121.516661666667","24.9748716666667","6500600","新店區"
"231025","4715-K9","2018/08/24 15:19:46","新北市新店區環河路105-3號","121.532271666667","24.9697333333333","6500600","新店區"
"231036","512-UM","2018/08/24 15:19:26","新北市新店區安祥路69巷19號","121.481911666667","24.961315","6500600","新店區"
"231006","617-UM","2018/08/24 15:19:34","新北市新店區光明街314號","121.540878333333","24.9650816666667","6500600","新店區"
"231030","619-UM","2018/08/24 15:19:46","新北市新店區安民街339號","121.516893333333","24.9748833333333","6500600","新店區"
"231034","641-BX","2018/08/24 15:19:32","新北市新店區如意街7號","121.495341666667","24.9487033333333","6500600","新店區"
"231039","718-UY","2018/08/24 15:19:30","新北市新店區寶元路一段65號","121.542245","24.9858083333333","6500600","新店區"
"231035","719-UM","2018/08/24 15:19:31","新北市新店區永平街23巷6號","121.516761666667","24.983175","6500600","新店區"
"231032","720-UM","2018/08/24 15:19:26","新北市新店區安泰路18號","121.485693333333","24.9490166666667","6500600","新店區"
"231029","897-TW","2018/08/24 15:19:26","新北市新店區安康路三段595-1號","121.471678333333","24.94034","6500600","新店區"
"231004","899-TW","2018/08/24 15:19:14","新北市新店區博愛街13巷24號","121.54023","24.9740333333333","6500600","新店區"
"231024","AKT-0513","2018/08/24 15:19:32","新北市新店區安康路一段3-1號","121.535406666667","24.9610616666667","6500600","新店區"
"241011","013-R5","2018/08/24 15:19:27","新北市三重區重新路四段121號","121.484701666667","25.0522283333333","6500200","三重區"
"241013","270-UM","2018/08/24 15:19:39","新北市三重區重新路四段121號","121.484865","25.0525283333333","6500200","三重區"
"235030","003-UY","2018/08/24 15:19:42","新北市中和區保平路336號","121.506756666667","25.0043316666667","6500300","中和區"
"235033","4980-A6","2018/08/24 15:19:29","新北市中和區圓通路198巷2弄2號","121.496305","24.9947316666667","6500300","中和區"
"235035","783-BX","2018/08/24 15:19:42","新北市中和區中板路47巷15號","121.482223333333","25.0115516666667","6500300","中和區"
"235005","802-TS","2018/08/24 15:19:40","新北市中和區安平路59號","121.509816666667","24.9951833333333","6500300","中和區"
"235012","896-TW","2018/08/24 15:19:33","新北市中和區興南路一段1號","121.511431666667","24.9912033333333","6500300","中和區"
"235023","AAC-215","2018/08/24 15:19:46","新北市中和區圓通路320-1號","121.48552","24.9879466666667","6500300","中和區"
"220034","073-UY","2018/08/24 15:19:46","新北市八里區中山路三段380號","121.369833333333","25.1364483333333","6500100","板橋區"
"207002","749-BX","2018/08/24 15:19:44","新北市萬里區崁腳里內中福路38號","121.659241666667","25.164485","6502800","萬里區"
"207001","662-BX","2018/08/24 15:19:40","新北市萬里區大鵬里萬里加投24-2號","121.649126666667","25.2074316666667","6502800","萬里區"
"236067","105-UM","2018/08/24 15:19:30","新北市土城區裕民路185巷36弄10號","121.454313333333","24.9844716666667","6501300","土城區"
"236040","107-UM","2018/08/24 15:19:35","新北市土城區學府路一段120巷5號","121.45502","24.9880583333333","6501300","土城區"
"236077","166-UM","2018/08/24 15:19:43","新北市土城區中央路四段466號","121.410181666667","24.950655","6501300","土城區"
"236029","253-BX","2018/08/24 15:19:40","新北市土城區中央路一段248-3號","121.444365","24.9846933333333","6501300","土城區"
"236024","269-VK","2018/08/24 15:19:39","新北市土城區員林街61巷2弄15號","121.444581666667","24.9777666666667","6501300","土城區"
"236013","270-VK","2018/08/24 15:19:43","新北市土城區廣福街9號","121.457143333333","24.98887","6501300","土城區"
"236032","271-VK","2018/08/24 15:19:40","新北市土城區國際路55號","121.466366666667","24.9787766666667","6501300","土城區"
"236016","401-BY","2018/08/24 15:19:42","新北市土城區金城路三段198號","121.468496666667","24.9881233333333","6501300","土城區"
"236057","912-UM","2018/08/24 15:19:35","新北市土城區中央路二段223-5號","121.440558333333","24.973375","6501300","土城區"
"236045","913-UM","2018/08/24 15:19:44","新北市土城區明德路一段168號","121.462806666667","24.97837","6501300","土城區"
"236060","915-UM","2018/08/24 15:19:29","新北市土城區金城路三段73巷4弄1號","121.466261666667","24.98788","6501300","土城區"
"236054","AAC-216","2018/08/24 15:19:30","新北市土城區立德路22號","121.462825","24.9878666666667","6501300","土城區"
"220050","245-BX","2018/08/24 15:19:40","新北市板橋區漢生東路83巷4-1號","121.467161666667","25.016025","6500100","板橋區"
"220009","295-UM","2018/08/24 15:19:46","新北市板橋區四川路一段290號","121.458556666667","25.0007683333333","6500100","板橋區"
"220023","303-R5","2018/08/24 15:19:32","新北市八里區荖阡坑路24-11號","121.398535","25.1383016666667","6500100","板橋區"
"220031","461-BY","2018/08/24 15:19:36","新北市板橋區僑中二街108巷10號","121.445381666667","25.00742","6500100","板橋區"
"220025","687-BX","2018/08/24 15:19:43","新北市板橋區華東街1-10號","121.448668333333","24.9950216666667","6500100","板橋區"
"220042","689-BX","2018/08/24 15:19:44","新北市板橋區長江路一段1號","121.457653333333","25.028635","6500100","板橋區"
"220051","KEA-2699","2018/08/24 15:19:36","新北市板橋區文化路一段114號","121.46486","25.0184266666667","6500100","板橋區"
"220014","829-TW","2018/08/24 15:12:25","新北市板橋區民生路二段120號","121.47034","25.01977","6500100","板橋區"
"220038","833-TW","2018/08/24 15:19:34","新北市板橋區四維路137巷17號","121.464315","25.0249416666667","6500100","板橋區"
