"lineid","car","time","location","longitude","latitude","cityid","cityname"
"234070","149-BY","2018/08/24 15:50:04","新北市永和區福和路1號","121.526456666667","25.00998","6500400","永和區"
"248018","225-UY","2018/08/24 15:41:35","新北市五股區中興路二段83巷26-3號","121.460061666667","25.0754016666667","6501500","五股區"
"231046","107-UY","2018/08/24 15:50:00","新北市新店區安一路一段1-1號","121.519731666667","24.96112","6500600","新店區"
"231022","108-UY","2018/08/24 15:50:12","新北市新店區新烏路一段87巷3號","121.546163333333","24.941925","6500600","新店區"
"231012","187-VK","2018/08/24 15:49:55","新北市新店區中興路三段161號","121.544271666667","24.98043","6500600","新店區"
"231003","268-BY","2018/08/24 15:49:58","新北市新店區寶興路60巷6號","121.549778333333","24.971815","6500600","新店區"
"231018","278-BY","2018/08/24 15:50:13","新北市新店區中正路663巷1弄2號","121.532896666667","24.9900066666667","6500600","新店區"
"231016","AAD-862","2018/08/24 15:49:58","新北市新店區中華路83巷4弄15號","121.538256666667","24.9685683333333","6500600","新店區"
"231037","4716-K9","2018/08/24 15:49:59","新北市新店區安民街365巷1弄7號","121.516573333333","24.97547","6500600","新店區"
"231013","513-UM","2018/08/24 15:50:13","新北市新店區永業路81巷1弄1-1號","121.529703333333","24.9492883333333","6500600","新店區"
"231030","619-UM","2018/08/24 15:50:06","新北市新店區永安街30號","121.517716666667","24.9866216666667","6500600","新店區"
"231034","641-BX","2018/08/24 15:50:12","新北市新店區玫瑰路51巷20-1號","121.497168333333","24.9478933333333","6500600","新店區"
"231035","719-UM","2018/08/24 15:50:11","新北市新店區安興路83-3號","121.515328333333","24.97547","6500600","新店區"
"241011","013-R5","2018/08/24 15:50:07","新北市三重區文化北路222號","121.497723333333","25.0690666666667","6500200","三重區"
"241028","022-UY","2018/08/24 15:49:59","新北市三重區中正南路41巷1號","121.493821666667","25.0598866666667","6500200","三重區"
"241008","059-VK","2018/08/24 15:50:04","新北市三重區重新路四段121號","121.485133333333","25.0525266666667","6500200","三重區"
"241022","060-VK","2018/08/24 15:50:08","新北市三重區捷運路36號","121.482731666667","25.05537","6500200","三重區"
"241031","061-VK","2018/08/24 15:50:09","新北市三重區重新路四段121號","121.48457","25.052065","6500200","三重區"
"241015","062-VK","2018/08/24 15:50:10","新北市三重區重新路四段121號","121.484875","25.0524066666667","6500200","三重區"
"241017","063-VK","2018/08/24 15:50:08","新北市三重區大仁街38號","121.49161","25.0642983333333","6500200","三重區"
"241024","065-VK","2018/08/24 15:50:09","新北市三重區國道路一段70巷12號","121.480095","25.07236","6500200","三重區"
"241026","066-VK","2018/08/24 15:50:15","新北市三重區重安街170巷4號","121.496221666667","25.054615","6500200","三重區"
"241002","090-VK","2018/08/24 15:50:13","新北市三重區成功路21號","121.490161666667","25.050315","6500200","三重區"
"241003","091-VK","2018/08/24 15:50:12","新北市三重區自強路五段114號","121.496766666667","25.083725","6500200","三重區"
"241023","265-UM","2018/08/24 15:50:05","新北市三重區忠孝路三段40巷51號","121.483","25.065185","6500200","三重區"
"241016","266-UM","2018/08/24 15:50:16","新北市三重區重新路四段121號","121.484711666667","25.0524583333333","6500200","三重區"
"241009","267-UM","2018/08/24 15:50:04","新北市三重區重新路四段121號","121.484748333333","25.0521766666667","6500200","三重區"
"241018","268-UM","2018/08/24 15:50:04","新北市三重區重新路四段121號","121.484916666667","25.0527466666667","6500200","三重區"
"241013","270-UM","2018/08/24 15:49:59","新北市三重區六張街1號","121.495706666667","25.0707266666667","6500200","三重區"
"241025","271-UM","2018/08/24 15:50:04","新北市三重區新北大道一段250號","121.479951666667","25.061265","6500200","三重區"
"241007","398-BY","2018/08/24 15:50:11","新北市三重區三陽路170-1號","121.481145","25.0585216666667","6500200","三重區"
"241020","413-TH","2018/08/24 15:49:54","新北市三重區忠孝路二段54號","121.48501","25.0704183333333","6500200","三重區"
"241004","475-VK","2018/08/24 15:50:06","新北市三重區重新路四段121號","121.485008333333","25.0524916666667","6500200","三重區"
"241030","480-VK","2018/08/24 15:49:54","新北市三重區重新路四段121號","121.484975","25.0525233333333","6500200","三重區"
"241014","543-UM","2018/08/24 15:50:11","新北市三重區重新路四段121號","121.485061666667","25.052385","6500200","三重區"
"241001","547-UM","2018/08/24 15:50:03","新北市三重區重新路四段121號","121.485103333333","25.0524933333333","6500200","三重區"
"241019","KEA-2593","2018/08/24 15:50:00","新北市三重區重新路四段121號","121.484633333333","25.0523683333333","6500200","三重區"
"241006","AAD-863","2018/08/24 15:50:09","新北市三重區重新路四段121號","121.48468","25.0523583333333","6500200","三重區"
"241005","887-TS","2018/08/24 15:50:12","新北市三重區環河北路353號","121.502003333333","25.0772133333333","6500200","三重區"
"241012","941-UM","2018/08/24 15:50:15","新北市三重區文化北路132巷1號","121.49845","25.0668316666667","6500200","三重區"
"241029","942-UM","2018/08/24 15:50:18","新北市三重區大同南路246號","121.49694","25.0558033333333","6500200","三重區"
"241033","AAC-255","2018/08/24 15:50:00","新北市三重區五谷王北街46-5號","121.474103333333","25.0506933333333","6500200","三重區"
"235046","733-UM","2018/08/24 15:36:30","新北市中和區員山路36巷13號","121.4842","24.990835","6500300","中和區"
"235026","800-TS","2018/08/24 15:50:00","新北市中和區中正路764號","121.485185","24.999435","6500300","中和區"
"224007","275-VK","2018/08/24 15:49:59","新北市瑞芳區大寮路356-1號","121.784766666667","25.103225","6501200","瑞芳區"
"227003","642-TC","2018/08/24 15:50:01","新北市雙溪區平林里外平林44號","121.852905","25.036355","6502500","雙溪區"
"227011","400-TW","2018/08/24 15:50:03","新北市雙溪區新基里中華路117號","121.866086666667","25.03911","6502500","雙溪區"
"236057","912-UM","2018/08/24 15:50:15","新北市土城區中央路三段11號","121.439356666667","24.9704583333333","6501300","土城區"
"239005","526-UM","2018/08/24 15:42:19","新北市鶯歌區環河路177-3號","121.345973333333","24.9352783333333","6500800","鶯歌區"
