"lineid","car","time","location","longitude","latitude","cityid","cityname"
"234007","207-UY","2018/08/24 18:09:29","新北市永和區環河西路二段17號","121.507816666667","25.0161783333333","6500400","永和區"
"234026","9371-KE","2018/08/24 18:09:44","新北市永和區秀朗路一段10巷19號","121.513463333333","25.006165","6500400","永和區"
"249005","172-UM","2018/08/24 18:09:32","新北市八里區荖阡坑路15-40號","121.401695","25.13993","6502300","八里區"
"249001","173-UM","2018/08/24 18:09:42","新北市八里區龍米路二段30號","121.448628333333","25.1399583333333","6502300","八里區"
"249004","303-UY","2018/08/24 18:09:41","新北市八里區龍米路二段200巷3號","121.433723333333","25.158805","6502300","八里區"
"249002","305-UY","2018/08/24 18:09:42","新北市八里區龍米路一段356巷5號","121.452226666667","25.13117","6502300","八里區"
"249003","593-UM","2018/08/24 18:09:42","新北市八里區中華路二段165巷11號","121.408258333333","25.1505983333333","6502300","八里區"
"248014","025-BX","2018/08/24 18:09:41","新北市五股區成泰路一段138號","121.435058333333","25.0756216666667","6501500","五股區"
"248006","077-UY","2018/08/24 18:09:39","新北市五股區中興路二段82號","121.460816666667","25.0772966666667","6501500","五股區"
"248008","095-VK","2018/08/24 18:09:34","新北市五股區更洲路32巷15弄9號","121.458173333333","25.0804933333333","6501500","五股區"
"248018","225-UY","2018/08/24 18:09:34","新北市五股區新五路二段367號","121.44435","25.0880266666667","6501500","五股區"
"248010","272-BY","2018/08/24 18:09:42","新北市五股區新五路二段258號","121.440818333333","25.0820066666667","6501500","五股區"
"248004","677-BX","2018/08/24 18:09:39","新北市五股區工商路48號","121.439155","25.0839766666667","6501500","五股區"
"248002","678-BX","2018/08/24 18:09:32","新北市五股區中興路三段196號","121.442128333333","25.0818816666667","6501500","五股區"
"232011","375-UM","2018/08/24 18:09:44","新北市坪林區國中路1號","121.712641666667","24.9365283333333","6502000","坪林區"
"244007","080-UY","2018/08/24 18:09:35","新北市林口區林口路124巷10弄7號","121.38918","25.081615","6501700","林口區"
"244019","403-UM","2018/08/24 18:09:47","新北市林口區麗園路89號","121.37308","25.0686766666667","6501700","林口區"
"244013","KEA-2802","2018/08/24 18:09:43","新北市林口區中山路156-1號","121.390843333333","25.0787483333333","6501700","林口區"
"244023","483-VK","2018/08/24 18:09:42","新北市林口區東湖路153巷135號","121.382213333333","25.073565","6501700","林口區"
"244017","485-VK","2018/08/24 18:09:33","新北市林口區忠孝路506號","121.370776666667","25.0700483333333","6501700","林口區"
"244009","656-BX","2018/08/24 18:09:44","新北市林口區文化二路二段126號","121.380003333333","25.0828216666667","6501700","林口區"
"244011","657-BX","2018/08/24 18:09:39","新北市林口區粉寮路一段51號","121.39672","25.077795","6501700","林口區"
"244025","837-TS","2018/08/24 18:09:33","新北市林口區文化北路一段222號","121.358226666667","25.0709766666667","6501700","林口區"
"244021","838-TS","2018/08/24 18:09:36","新北市林口區自強四街1號","121.39871","25.0769066666667","6501700","林口區"
"243013","AAD-798","2018/08/24 18:09:43","新北市泰山區南林路99巷8號","121.415411666667","25.0491133333333","6501600","泰山區"
"222003","436-BY","2018/08/24 18:09:35","新北市深坑區文山路三段15號","121.612681666667","24.9980083333333","6501800","深坑區"
"222002","659-BX","2018/08/24 18:09:44","新北市深坑區文化街56號","121.618853333333","25.0017033333333","6501800","深坑區"
"231041","002-UM","2018/08/24 18:09:40","新北市新店區安華路28-1號","121.519608333333","24.9608666666667","6500600","新店區"
"231059","046-UY","2018/08/24 18:09:34","新北市新店區安華路28-1號","121.519676666667","24.9608116666667","6500600","新店區"
"231040","047-UY","2018/08/24 18:09:48","新北市新店區安一路一段1-1號","121.51894","24.9609433333333","6500600","新店區"
"231046","107-UY","2018/08/24 18:09:40","新北市新店區直潭七街60號","121.53223","24.9399183333333","6500600","新店區"
"231053","108-UY","2018/08/24 18:09:34","新北市新店區安華路28-1號","121.519488333333","24.9610133333333","6500600","新店區"
"231048","187-VK","2018/08/24 18:09:32","新北市新店區安一路一段1-1號","121.519573333333","24.9613583333333","6500600","新店區"
"231054","KEA-2219","2018/08/24 18:09:50","新北市新店區安一路一段1-1號","121.520036666667","24.9611766666667","6500600","新店區"
"231042","268-BY","2018/08/24 18:09:32","新北市新店區安華路1-1號","121.519303333333","24.96055","6500600","新店區"
"231051","278-BY","2018/08/24 18:09:35","新北市新店區安華路8號","121.52001","24.9625466666667","6500600","新店區"
"231050","AAD-862","2018/08/24 18:09:33","新北市新店區安一路一段1-1號","121.520113333333","24.9611583333333","6500600","新店區"
"231058","3713-VJ","2018/08/24 18:09:34","新北市新店區安康路一段319號","121.522163333333","24.9637216666667","6500600","新店區"
"231066","4716-K9","2018/08/24 18:09:48","新北市新店區安一路一段1-1號","121.519266666667","24.9612583333333","6500600","新店區"
"231056","4715-K9","2018/08/24 18:09:47","新北市新店區安康路一段122號","121.526993333333","24.962705","6500600","新店區"
"231061","619-UM","2018/08/24 18:09:48","新北市新店區安華路28-1號","121.519455","24.960795","6500600","新店區"
"231063","641-BX","2018/08/24 18:09:46","新北市新店區安華路28-1號","121.519653333333","24.96051","6500600","新店區"
"231064","719-UM","2018/08/24 18:09:37","新北市新店區安一路一段1-1號","121.519495","24.961425","6500600","新店區"
"231062","720-UM","2018/08/24 18:09:38","新北市新店區安一路一段1-1號","121.518776666667","24.961235","6500600","新店區"
"231060","897-TW","2018/08/24 18:09:46","新北市新店區安華路28-1號","121.519421666667","24.960845","6500600","新店區"
"231055","AKT-0513","2018/08/24 18:09:33","新北市新店區安華路1-1號","121.51938","24.960465","6500600","新店區"
"241024","065-VK","2018/08/24 18:09:29","新北市三重區中正北路193巷35弄6號","121.476166666667","25.0709666666667","6500200","三重區"
"241033","AAC-255","2018/08/24 18:09:40","新北市三重區中興北街129號","121.469545","25.0497683333333","6500200","三重區"
"235064","005-UY","2018/08/24 18:09:34","新北市中和區中正路273號","121.495695","24.9938566666667","6500300","中和區"
"235063","006-UY","2018/08/24 18:09:49","新北市中和區員山路36巷16-3號","121.485095","24.9913066666667","6500300","中和區"
"235056","096-UM","2018/08/24 18:09:46","新北市中和區連城路469巷79弄30號","121.484448333333","24.9937433333333","6500300","中和區"
"235039","097-UM","2018/08/24 18:09:34","新北市中和區和城路一段271巷1號","121.485458333333","24.9916383333333","6500300","中和區"
"235065","098-UM","2018/08/24 18:09:30","新北市中和區莊敬路49巷18號","121.501616666667","25.0061016666667","6500300","中和區"
"235058","151-BY","2018/08/24 18:09:48","新北市中和區圓通路367巷33弄15號","121.495215","24.9851083333333","6500300","中和區"
"235055","183-VK","2018/08/24 18:09:30","新北市中和區員山路36巷16-3號","121.485058333333","24.99132","6500300","中和區"
"235038","185-VK","2018/08/24 18:09:44","新北市中和區大智街2號","121.519871666667","24.99182","6500300","中和區"
"235042","KEA-2878","2018/08/24 18:09:45","新北市中和區中正路226號","121.496155","24.99389","6500300","中和區"
"235069","4980-A6","2018/08/24 18:09:41","新北市中和區圓通路186號","121.49656","24.9944216666667","6500300","中和區"
"235070","558-UM","2018/08/24 18:09:34","新北市中和區中正路408號","121.492226666667","24.9938883333333","6500300","中和區"
"235045","565-BX","2018/08/24 18:09:32","新北市中和區中正路277號","121.495228333333","24.9937716666667","6500300","中和區"
"235054","640-BX","2018/08/24 18:09:34","新北市中和區連城路518巷1號","121.476445","24.9918583333333","6500300","中和區"
"235047","732-UM","2018/08/24 18:09:33","新北市中和區復興路300號","121.501451666667","24.99034","6500300","中和區"
"235071","783-BX","2018/08/24 18:09:33","新北市中和區員山路36巷16-3號","121.485248333333","24.9911783333333","6500300","中和區"
"235062","800-TS","2018/08/24 18:09:47","新北市中和區新生街187號","121.483706666667","25.00041","6500300","中和區"
"235057","801-TS","2018/08/24 18:09:42","新北市中和區員山路36巷16-8號","121.485483333333","24.9923833333333","6500300","中和區"
"235041","802-TS","2018/08/24 18:09:30","新北市中和區中正路395號","121.489966666667","24.993665","6500300","中和區"
"235052","805-TS","2018/08/24 18:09:31","新北市中和區中正路275號","121.4955","24.9938033333333","6500300","中和區"
"235053","900-TW","2018/08/24 18:09:50","新北市中和區員山路36巷16-2號","121.48501","24.9918133333333","6500300","中和區"
"235051","157-BY","2018/08/24 18:09:37","新北市中和區復興路282號","121.502213333333","24.990375","6500300","中和區"
"235037","AAC-213","2018/08/24 18:09:32","新北市中和區景平路149號","121.513795","24.992095","6500300","中和區"
"226004","205-ST","2018/08/24 18:09:39","新北市平溪區菁桐里菁桐街165號","121.722966666667","25.0234033333333","6502400","平溪區"
"228002","663-BX","2018/08/24 18:09:39","新北市貢寮區福連里福興街39-3號","121.993185","25.012505","6502600","貢寮區"
"228001","670-TC","2018/08/24 18:09:35","新北市貢寮區真理里新港街26巷55弄2-1號","121.927361666667","25.0528683333333","6502600","貢寮區"
"228003","828-UM","2018/08/24 18:09:45","新北市貢寮區真理里美艷山街6-2號","121.928828333333","25.0607316666667","6502600","貢寮區"
"224010","AGQ-8101","2018/08/24 17:58:25","新北市瑞芳區烏勢巷145號","121.847488333333","25.1087216666667","6501200","瑞芳區"
"224006","676-BX","2018/08/24 18:09:48","新北市瑞芳區中山路76號","121.802655","25.1065233333333","6501200","瑞芳區"
"224002","639-TC","2018/08/24 18:09:36","新北市瑞芳區三爪子坑路199號","121.811446666667","25.1057816666667","6501200","瑞芳區"
"224008","285-BY","2018/08/24 18:09:33","新北市瑞芳區民享新村38號","121.817838333333","25.1064666666667","6501200","瑞芳區"
"224009","273-VK","2018/08/24 18:09:41","新北市瑞芳區金光路115號","121.853571666667","25.1062783333333","6501200","瑞芳區"
"224005","271-BY","2018/08/24 18:09:45","新北市瑞芳區深澳路6號","121.816818333333","25.1289766666667","6501200","瑞芳區"
"227003","642-TC","2018/08/24 18:09:41","新北市雙溪區共和里東榮街29號","121.866026666667","25.0335716666667","6502500","雙溪區"
"253006","295-VK","2018/08/24 18:09:48","新北市石門區老梅路52巷21號","121.546403333333","25.28856","6502200","石門區"
"222001","KEA-2212","2018/08/24 18:09:44","新北市深坑區北深路二段188號","121.613995","25.0022416666667","6501800","深坑區"
"208002","KEA-2872","2018/08/24 18:09:48","新北市金山區半嶺1號","121.619111666667","25.233135","6502700","金山區"
"208003","665-BX","2018/08/24 18:09:36","新北市金山區磺港里磺港路54號","121.64778","25.228285","6502700","金山區"
"208001","761-BX","2018/08/24 18:09:31","新北市金山區磺港里磺港路71號","121.647345","25.2268366666667","6502700","金山區"
"251005","010-UM","2018/08/24 18:09:33","新北市淡水區水源街一段139號","121.447193333333","25.171915","6501000","淡水區"
"251002","012-UM","2018/08/24 18:09:46","新北市淡水區中正東路一段127巷2號","121.455448333333","25.15946","6501000","淡水區"
"251008","181-VK","2018/08/24 18:09:35","新北市淡水區坪頂路70巷35號","121.460106666667","25.160805","6501000","淡水區"
"251010","413-VK","2018/08/24 18:09:44","新北市淡水區淡海路166號","121.420778333333","25.1834016666667","6501000","淡水區"
"251012","441-VK","2018/08/24 18:09:47","新北市淡水區北新路三段170號","121.492643333333","25.1926133333333","6501000","淡水區"
"251004","443-VK","2018/08/24 18:09:44","新北市淡水區民族路134號","121.462933333333","25.1345883333333","6501000","淡水區"
"251001","559-UM","2018/08/24 18:09:38","新北市淡水區自立路10號","121.462961666667","25.1297666666667","6501000","淡水區"
"251006","561-UM","2018/08/24 18:09:37","新北市淡水區真理街3巷21-1號","121.437781666667","25.1763466666667","6501000","淡水區"
"251009","575-R6","2018/08/24 18:09:39","新北市淡水區大忠街34巷19號","121.444013333333","25.175715","6501000","淡水區"
"251011","650-BX","2018/08/24 18:09:36","新北市淡水區三空泉9號","121.475156666667","25.16281","6501000","淡水區"
"251003","766-UM","2018/08/24 18:09:36","新北市淡水區大忠街113巷18號","121.447223333333","25.1775516666667","6501000","淡水區"
"207003","550-UM","2018/08/24 18:09:45","新北市萬里區野柳里港西路71號","121.685551666667","25.20488","6502800","萬里區"
"207004","225-TW","2018/08/24 18:09:33","新北市萬里區中幅里中福路106號","121.676846666667","25.1692883333333","6502800","萬里區"
"252002","178-VK","2018/08/24 18:09:46","新北市三芝區中山路二段40號","121.503015","25.25509","6502100","三芝區"
"252003","249-BX","2018/08/24 18:09:47","新北市三芝區埔頭里埔頭37號","121.498478333333","25.2603083333333","6502100","三芝區"
"252001","292-VK","2018/08/24 18:09:36","新北市三芝區中興街二段2號","121.498351666667","25.2565966666667","6502100","三芝區"
"237007","153-BY","2018/08/24 18:09:34","新北市三峽區中正路二段331-1號","121.36576","24.9097783333333","6500900","三峽區"
"237009","210-TH","2018/08/24 18:09:50","新北市三峽區大仁路66巷3號","121.364893333333","24.9375783333333","6500900","三峽區"
"237013","252-BX","2018/08/24 18:09:30","新北市三峽區長泰街70號","121.377141666667","24.933005","6500900","三峽區"
"237012","275-BY","2018/08/24 18:09:31","新北市三峽區民生街19巷7弄45號","121.377673333333","24.9357116666667","6500900","三峽區"
"237008","302-VK","2018/08/24 18:09:47","新北市三峽區白雞33-4號","121.3756","24.91207","6500900","三峽區"
"237014","433-BY","2018/08/24 18:09:46","新北市三峽區復興路110巷3弄2號","121.372968333333","24.9385033333333","6500900","三峽區"
"237006","5529-G3","2018/08/24 18:09:36","新北市三峽區介壽路二段138巷1弄135號","121.399365","24.9310283333333","6500900","三峽區"
"237011","KEA-2596","2018/08/24 18:09:44","新北市三峽區大同路22號","121.377733333333","24.9294933333333","6500900","三峽區"
"237015","649-BX","2018/08/24 18:09:45","新北市三峽區紫微路42-1號","121.422443333333","24.9202383333333","6500900","三峽區"
"237010","706-TV","2018/08/24 18:09:37","新北市三峽區中園街3號","121.368581666667","24.9275166666667","6500900","三峽區"
"237005","AKY-6261","2018/08/24 18:09:31","新北市三峽區民生街247號","121.370723333333","24.9347666666667","6500900","三峽區"
"236069","105-UM","2018/08/24 18:09:30","新北市土城區明德路一段361-3號","121.456228333333","24.9777833333333","6501300","土城區"
"236042","107-UM","2018/08/24 18:09:35","新北市土城區中華路一段251號","121.440666666667","24.9811483333333","6501300","土城區"
"236079","166-UM","2018/08/24 18:09:46","新北市土城區永安街53號","121.432938333333","24.9640583333333","6501300","土城區"
"236030","253-BX","2018/08/24 18:09:48","新北市土城區城林路6巷80號","121.438533333333","24.97964","6501300","土城區"
"236026","269-VK","2018/08/24 18:09:33","新北市土城區承天路18號","121.439393333333","24.9636666666667","6501300","土城區"
"236014","270-VK","2018/08/24 18:09:28","新北市土城區學府路一段239號","121.450408333333","24.9834933333333","6501300","土城區"
"236039","271-VK","2018/08/24 18:09:34","新北市土城區中正路82號","121.444813333333","24.9755633333333","6501300","土城區"
"236020","401-BY","2018/08/24 18:09:46","新北市土城區城林路6巷80號","121.438656666667","24.9796816666667","6501300","土城區"
"236059","912-UM","2018/08/24 18:09:45","新北市土城區中央路四段236號","121.415383333333","24.9570766666667","6501300","土城區"
"236048","913-UM","2018/08/24 18:09:38","新北市土城區明德路一段365-1號","121.453558333333","24.9790216666667","6501300","土城區"
"236063","915-UM","2018/08/24 18:09:43","新北市土城區中央路二段98號","121.442123333333","24.9783083333333","6501300","土城區"
"236055","AAC-216","2018/08/24 18:09:47","新北市土城區城林路6巷80號","121.438331666667","24.979965","6501300","土城區"
"242034","AAC-296","2018/08/24 18:09:33","新北市新莊區福海街24巷5號","121.445668333333","25.0341866666667","6500500","新莊區"
"242058","986-R7","2018/08/24 18:09:49","新北市新莊區新北大道七段722號","121.412523333333","25.0260183333333","6500500","新莊區"
"242054","751-BX","2018/08/24 18:09:43","新北市新莊區西盛街395巷29弄9號","121.428431666667","25.0119866666667","6500500","新莊區"
"242023","705-TV","2018/08/24 18:09:47","新北市泰山區泰林路一段2號","121.441973333333","25.047835","6500500","新莊區"
"242027","615-BX","2018/08/24 18:09:33","新北市新莊區幸福路585號","121.453715","25.04916","6500500","新莊區"
"242025","613-BX","2018/08/24 18:09:37","新北市新莊區五權一路110號","121.459946666667","25.0678933333333","6500500","新莊區"
"242041","566-BX","2018/08/24 18:09:44","新北市新莊區天祥街135巷8弄1號","121.41366","25.0294","6500500","新莊區"
"242046","497-BY","2018/08/24 18:09:48","新北市新莊區民安路46號","121.422601666667","25.0274483333333","6500500","新莊區"
"242019","442-UM","2018/08/24 18:09:33","新北市新莊區新泰路210號","121.446828333333","25.038685","6500500","新莊區"
"242050","441-UM","2018/08/24 18:09:44","新北市新莊區民本街25巷16號","121.42907","25.0194166666667","6500500","新莊區"
"242056","440-UM","2018/08/24 18:09:39","新北市新莊區豐年街豐1巷27號","121.44751","25.0313","6500500","新莊區"
"242037","415-TV","2018/08/24 18:09:34","新北市新莊區後港一路63號","121.426446666667","25.026595","6500500","新莊區"
"242007","413-TV","2018/08/24 18:09:43","新北市新莊區自強街37巷1號","121.454453333333","25.0465183333333","6500500","新莊區"
"242044","400-BY","2018/08/24 18:09:47","新北市新莊區中正路726-26號","121.414883333333","25.024335","6500500","新莊區"
"242060","353-BY","2018/08/24 18:09:40","新北市新莊區新樹路305號","121.433528333333","25.0195166666667","6500500","新莊區"
"242009","132-UY","2018/08/24 18:09:36","新北市新莊區中華路二段276號","121.453001666667","25.0537166666667","6500500","新莊區"
"242039","133-UY","2018/08/24 18:09:48","新北市新莊區民安東路145號","121.431678333333","25.02062","6500500","新莊區"
"242032","135-UY","2018/08/24 18:09:35","新北市新莊區新泰路272號","121.445893333333","25.040265","6500500","新莊區"
"242048","172-VK","2018/08/24 18:09:33","新北市新莊區民安路98巷5號","121.423708333333","25.0255766666667","6500500","新莊區"
"242011","173-VK","2018/08/24 18:09:30","新北市新莊區中信街80號","121.44793","25.0531116666667","6500500","新莊區"
"242017","175-VK","2018/08/24 18:09:46","新北市新莊區中港路303號","121.452801666667","25.0445633333333","6500500","新莊區"
"242015","346-TH","2018/08/24 18:09:43","新北市新莊區中平路152巷46號","121.446728333333","25.0473716666667","6500500","新莊區"
"242021","348-TH","2018/08/24 18:09:35","新北市新莊區新興街39號","121.450598333333","25.0384733333333","6500500","新莊區"
"242002","349-TH","2018/08/24 18:09:47","新北市新莊區新莊路48號","121.457961666667","25.03698","6500500","新莊區"
"238015","755-BX","2018/08/24 18:09:29","新北市樹林區大安路345號","121.41646","24.99076","6500700","樹林區"
"238023","601-UM","2018/08/24 18:09:36","新北市樹林區福興街17號","121.404406666667","25.0162883333333","6500700","樹林區"
"238019","599-UM","2018/08/24 18:09:45","新北市樹林區水源街32巷23號","121.425251666667","24.98096","6500700","樹林區"
"238018","571-TV","2018/08/24 18:09:42","新北市樹林區保安街一段16巷40號","121.42892","24.9945333333333","6500700","樹林區"
"238022","KEA-2213","2018/08/24 18:09:37","新北市樹林區太平路174巷4號","121.418418333333","24.9770483333333","6500700","樹林區"
"238021","KEA-2539","2018/08/24 18:09:44","新北市樹林區柑園街二段175號","121.380455","24.952915","6500700","樹林區"
"238025","303-VK","2018/08/24 18:09:37","新北市樹林區保安街二段2-9號","121.41647","24.9999033333333","6500700","樹林區"
"238014","282-BY","2018/08/24 18:09:39","新北市樹林區潭興街7號","121.424113333333","24.9977083333333","6500700","樹林區"
"238020","268-VK","2018/08/24 18:09:40","新北市樹林區三龍街134號","121.416355","25.0184266666667","6500700","樹林區"
"238026","172-UY","2018/08/24 18:09:38","新北市樹林區佳園路一段81號","121.393351666667","24.9697516666667","6500700","樹林區"
"238016","169-UY","2018/08/24 18:09:44","新北市樹林區文化街23號","121.419235","24.9875566666667","6500700","樹林區"
"239007","AAC-297","2018/08/24 18:09:42","新北市鶯歌區尖山埔路165巷3弄1號","121.346278333333","24.9502933333333","6500800","鶯歌區"
"239006","891-R6","2018/08/24 18:09:36","新北市鶯歌區鶯桃路365巷106號","121.330573333333","24.9620983333333","6500800","鶯歌區"
"239008","527-UM","2018/08/24 18:09:29","新北市鶯歌區朝陽街55號","121.337973333333","24.9782333333333","6500800","鶯歌區"
"239005","526-UM","2018/08/24 18:09:31","新北市鶯歌區鶯桃路668巷53號","121.329408333333","24.970975","6500800","鶯歌區"
"239001","417-VK","2018/08/24 18:09:34","新北市鶯歌區高職東街21號","121.340343333333","24.9413916666667","6500800","鶯歌區"
"239003","360-BY","2018/08/24 18:09:36","新北市鶯歌區福安街24號","121.33433","24.9640983333333","6500800","鶯歌區"
"239002","359-BY","2018/08/24 18:09:51","新北市鶯歌區中山路329巷3號","121.343835","24.956585","6500800","鶯歌區"
"239004","193-VK","2018/08/24 18:09:36","新北市鶯歌區尖山路174巷35弄3號","121.344335","24.9485566666667","6500800","鶯歌區"
"221008","489-VK","2018/08/24 18:09:47","新北市汐止區康寧街315號","121.626996666667","25.0677766666667","6501100","汐止區"
"221036","130-UY","2018/08/24 18:09:32","新北市汐止區大同路三段85號","121.667756666667","25.0773783333333","6501100","汐止區"
"221015","131-UY","2018/08/24 18:09:38","新北市汐止區鄉長路二段29-1號","121.6682","25.083035","6501100","汐止區"
"221010","269-BY","2018/08/24 18:09:44","新北市汐止區祥雲街2號","121.645751666667","25.0896133333333","6501100","汐止區"
"221012","278-VK","2018/08/24 18:09:31","新北市汐止區保一街67號","121.674195","25.0798833333333","6501100","汐止區"
"221023","279-VK","2018/08/24 18:09:33","新北市汐止區民族五街76號","121.627708333333","25.07021","6501100","汐止區"
"221032","280-BY","2018/08/24 18:09:48","新北市汐止區力行街10號","121.617095","25.0509666666667","6501100","汐止區"
"221027","281-BY","2018/08/24 18:09:39","新北市汐止區大同路二段585號","121.663603333333","25.0705083333333","6501100","汐止區"
"221029","298-VK","2018/08/24 18:09:45","新北市汐止區樟樹二路134號","121.63992","25.0656616666667","6501100","汐止區"
"221021","299-VK","2018/08/24 18:09:36","新北市汐止區龍安路202巷30號","121.652488333333","25.0634533333333","6501100","汐止區"
"221031","353-TW","2018/08/24 18:09:23","新北市汐止區中興路158-1號","121.632218333333","25.0651383333333","6501100","汐止區"
"221002","129-UY","2018/08/24 18:09:43","新北市汐止區福德一路201巷8號","121.635538333333","25.065415","6501100","汐止區"
"221035","622-UM","2018/08/24 18:09:28","新北市汐止區大同路二段231號","121.653136666667","25.065185","6501100","汐止區"
"221025","623-UM","2018/08/24 18:09:43","新北市汐止區勤進路3巷27號","121.661096666667","25.0616533333333","6501100","汐止區"
"221038","646-BX","2018/08/24 18:09:46","新北市汐止區秀峰路138巷31號","121.659855","25.0617633333333","6501100","汐止區"
"221033","647-BX","2018/08/24 18:09:41","新北市汐止區宜興街40巷9弄1號","121.622661666667","25.04144","6501100","汐止區"
"221018","753-BX","2018/08/24 18:09:46","新北市汐止區忠孝東路351號","121.66559","25.0705216666667","6501100","汐止區"
"220057","686-BX","2018/08/24 18:09:34","新北市板橋區華東街1-9號","121.448211666667","24.99485","6500100","板橋區"
"220073","985-R7","2018/08/24 18:09:39","新北市板橋區華東街1-10號","121.448208333333","24.9950033333333","6500100","板橋區"
"235068","KEA-2873","2018/08/24 18:09:26","新北市中和區員山路36巷16-3號","121.485123333333","24.9912533333333","6500300","中和區"
"235061","KEA-2875","2018/08/24 18:09:40","新北市中和區連城路506號","121.477458333333","24.9926","6500300","中和區"
