"lineid","car","time","location","longitude","latitude","cityid","cityname"
"234007","207-UY","2018/08/24 18:19:50","新北市永和區環河西路二段229巷3號","121.501403333333","25.0098816666667","6500400","永和區"
"234081","298-R6","2018/08/24 18:19:43","新北市永和區福和路1號","121.526336666667","25.0100116666667","6500400","永和區"
"234026","9371-KE","2018/08/24 18:19:44","新北市永和區豫溪街42巷5號","121.515553333333","25.0095416666667","6500400","永和區"
"234011","9373-KE","2018/08/24 18:19:50","新北市永和區環河東路一段126號","121.520858333333","25.0154766666667","6500400","永和區"
"249005","172-UM","2018/08/24 18:19:32","新北市八里區荖阡坑路15-30號","121.400313333333","25.1404783333333","6502300","八里區"
"249001","173-UM","2018/08/24 18:19:42","新北市八里區龍米路一段129號","121.45221","25.1266616666667","6502300","八里區"
"249004","303-UY","2018/08/24 18:19:41","新北市八里區龍米路二段232巷1弄8號","121.430576666667","25.159735","6502300","八里區"
"249002","305-UY","2018/08/24 18:19:42","新北市八里區龍形五街29號","121.449883333333","25.1334616666667","6502300","八里區"
"248014","025-BX","2018/08/24 18:19:47","新北市五股區自強路49號","121.433358333333","25.0734683333333","6501500","五股區"
"248016","026-BX","2018/08/24 18:19:36","新北市五股區成泰路三段477巷18號","121.449895","25.0988933333333","6501500","五股區"
"248006","077-UY","2018/08/24 18:19:39","新北市五股區中興路一段152號","121.464691666667","25.073825","6501500","五股區"
"248008","095-VK","2018/08/24 18:19:34","新北市五股區更洲路32巷8弄14號","121.459225","25.0796533333333","6501500","五股區"
"248018","225-UY","2018/08/24 18:19:34","新北市五股區御史路130-3號","121.434113333333","25.0988433333333","6501500","五股區"
"248012","247-BX","2018/08/24 18:19:48","新北市五股區御史路1巷101弄2號","121.440946666667","25.0912466666667","6501500","五股區"
"248010","272-BY","2018/08/24 18:19:42","新北市五股區成泰路一段194-1號","121.435593333333","25.07783","6501500","五股區"
"248004","677-BX","2018/08/24 18:19:48","新北市五股區成泰路二段101號","121.438353333333","25.0843083333333","6501500","五股區"
"248002","678-BX","2018/08/24 18:19:32","新北市五股區西雲路46號","121.443458333333","25.0909833333333","6501500","五股區"
"244007","080-UY","2018/08/24 18:19:35","新北市林口區竹林路462號","121.387796666667","25.08494","6501700","林口區"
"244019","403-UM","2018/08/24 18:19:47","新北市林口區忠孝路594巷8號","121.375928333333","25.0677916666667","6501700","林口區"
"244013","KEA-2802","2018/08/24 18:19:43","新北市林口區佳林路101巷30號","121.386851666667","25.0796883333333","6501700","林口區"
"244023","483-VK","2018/08/24 18:19:42","新北市林口區仁愛路二段8號","121.385868333333","25.0763233333333","6501700","林口區"
"244017","485-VK","2018/08/24 18:19:33","新北市林口區八德路20巷9號","121.367743333333","25.0676483333333","6501700","林口區"
"244009","656-BX","2018/08/24 18:19:44","新北市林口區文林一街115巷20號","121.378865","25.0876966666667","6501700","林口區"
"244011","657-BX","2018/08/24 18:19:39","新北市林口區仁愛路一段270號","121.3938","25.0759883333333","6501700","林口區"
"244025","837-TS","2018/08/24 18:19:33","新北市林口區文化北路一段192-100號","121.357291666667","25.0703216666667","6501700","林口區"
"244021","838-TS","2018/08/24 18:19:36","新北市林口區自強一街38號","121.399058333333","25.0776933333333","6501700","林口區"
"243013","AAD-798","2018/08/24 18:19:42","新北市泰山區錢厝坑13號","121.4162","25.0381416666667","6501600","泰山區"
"222003","436-BY","2018/08/24 18:19:35","新北市深坑區旺耽路67號","121.62626","25.0029933333333","6501800","深坑區"
"222002","659-BX","2018/08/24 18:19:44","新北市深坑區雲鄉路37號","121.622123333333","24.9995383333333","6501800","深坑區"
"231044","001-UM","2018/08/24 18:19:48","新北市新店區安華路28-1號","121.519473333333","24.96095","6500600","新店區"
"231041","002-UM","2018/08/24 18:19:40","新北市新店區安華路28-1號","121.519651666667","24.96086","6500600","新店區"
"231059","046-UY","2018/08/24 18:19:34","新北市新店區安華路28-1號","121.519676666667","24.9609383333333","6500600","新店區"
"231040","047-UY","2018/08/24 18:19:48","新北市新店區安華路28-1號","121.519036666667","24.96092","6500600","新店區"
"231046","107-UY","2018/08/24 18:19:40","新北市新店區直潭七街60號","121.53223","24.9398566666667","6500600","新店區"
"231053","108-UY","2018/08/24 18:19:34","新北市新店區秀山路14號","121.53273","24.9602316666667","6500600","新店區"
"231048","187-VK","2018/08/24 18:19:32","新北市新店區安一路一段1-1號","121.51964","24.9615566666667","6500600","新店區"
"231054","KEA-2219","2018/08/24 18:19:30","新北市新店區安一路一段1-1號","121.519978333333","24.9612183333333","6500600","新店區"
"231057","256-BX","2018/08/24 18:19:33","新北市新店區安一路一段1-1號","121.519808333333","24.9611583333333","6500600","新店區"
"231042","268-BY","2018/08/24 18:19:32","新北市新店區安華路1-1號","121.5193","24.9605433333333","6500600","新店區"
"231051","278-BY","2018/08/24 18:19:36","新北市新店區安華路28-1號","121.519861666667","24.9610183333333","6500600","新店區"
"231050","AAD-862","2018/08/24 18:19:33","新北市新店區安華路28-1號","121.519741666667","24.9610433333333","6500600","新店區"
"231058","3713-VJ","2018/08/24 18:19:34","新北市新店區環河路1-3號","121.538038333333","24.9614216666667","6500600","新店區"
"231066","4716-K9","2018/08/24 18:19:48","新北市新店區安一路一段1-1號","121.519378333333","24.9613966666667","6500600","新店區"
"231056","4715-K9","2018/08/24 18:19:46","新北市新店區中央路39號","121.53294","24.9776183333333","6500600","新店區"
"231067","4772-VM","2018/08/24 18:19:47","新北市新店區安華路1-1號","121.519115","24.9604833333333","6500600","新店區"
"231065","512-UM","2018/08/24 18:19:35","新北市新店區安一路一段1-1號","121.519331666667","24.961325","6500600","新店區"
"231049","513-UM","2018/08/24 18:19:32","新北市新店區安一路一段1-1號","121.519828333333","24.96107","6500600","新店區"
"231045","617-UM","2018/08/24 18:19:44","新北市新店區安一路一段1-1號","121.519466666667","24.9611033333333","6500600","新店區"
"231061","619-UM","2018/08/24 18:19:48","新北市新店區安華路28-1號","121.519725","24.960935","6500600","新店區"
"231063","641-BX","2018/08/24 18:19:46","新北市新店區安華路28-1號","121.519673333333","24.96052","6500600","新店區"
"231064","719-UM","2018/08/24 18:19:37","新北市新店區安一路一段1-1號","121.519643333333","24.961345","6500600","新店區"
"231062","720-UM","2018/08/24 18:19:38","新北市新店區安一路一段1-1號","121.519173333333","24.961165","6500600","新店區"
"231060","897-TW","2018/08/24 18:19:46","新北市新店區安華路28-1號","121.519538333333","24.9607616666667","6500600","新店區"
"231043","899-TW","2018/08/24 18:19:35","新北市新店區安華路28-1號","121.519223333333","24.96082","6500600","新店區"
"231055","AKT-0513","2018/08/24 18:19:33","新北市新店區環河路17號","121.537525","24.9614583333333","6500600","新店區"
"241033","AAC-255","2018/08/24 18:19:40","新北市新莊區化成路352巷29號","121.467136666667","25.0492416666667","6500200","三重區"
"235064","005-UY","2018/08/24 18:19:34","新北市中和區圓通路160-1號","121.49768","24.9954883333333","6500300","中和區"
"235063","006-UY","2018/08/24 18:19:29","新北市中和區中正路563號","121.486893333333","24.9943433333333","6500300","中和區"
"235056","096-UM","2018/08/24 18:19:46","新北市中和區新生街6號","121.483111666667","25.00462","6500300","中和區"
"235039","097-UM","2018/08/24 18:19:34","新北市中和區景平路416號","121.508111666667","24.9931516666667","6500300","中和區"
"235065","098-UM","2018/08/24 18:19:50","新北市中和區莊敬路49巷18號","121.50159","25.0060333333333","6500300","中和區"
"235040","150-BY","2018/08/24 18:18:16","新北市中和區中正路1號","121.503381666667","24.99352","6500300","中和區"
"235058","151-BY","2018/08/24 18:19:48","新北市中和區圓通路367巷17號","121.492453333333","24.9868066666667","6500300","中和區"
"235055","183-VK","2018/08/24 18:19:50","新北市中和區連城路607號","121.478303333333","24.993075","6500300","中和區"
"235038","185-VK","2018/08/24 18:19:44","新北市中和區秀朗路三段128巷7弄9號","121.524081666667","24.9926216666667","6500300","中和區"
"235049","186-VK","2018/08/24 18:19:31","新北市中和區中正路395號","121.48966","24.9935283333333","6500300","中和區"
"235072","301-VK","2018/08/24 18:19:43","新北市中和區中正路458號","121.490578333333","24.9941266666667","6500300","中和區"
"235043","352-BY","2018/08/24 18:19:34","新北市中和區中正路161巷2號","121.49826","24.99371","6500300","中和區"
"235042","KEA-2878","2018/08/24 18:19:45","新北市中和區景平路103號","121.51703","24.9920066666667","6500300","中和區"
"235069","4980-A6","2018/08/24 18:19:41","新北市中和區連城路109巷85號","121.497665","24.9975783333333","6500300","中和區"
"235070","558-UM","2018/08/24 18:19:34","新北市中和區圓通路98號","121.49959","24.9968483333333","6500300","中和區"
"235045","565-BX","2018/08/24 18:19:32","新北市中和區景安路200巷5號","121.503501666667","24.9915933333333","6500300","中和區"
"235054","640-BX","2018/08/24 18:19:34","新北市中和區莒光路203號","121.472455","24.9988","6500300","中和區"
"235060","647-TV","2018/08/24 18:19:32","新北市中和區員山路146-4號","121.481253333333","24.9970266666667","6500300","中和區"
"235047","732-UM","2018/08/24 18:19:33","新北市中和區南山路300號","121.507911666667","24.9871133333333","6500300","中和區"
"235046","733-UM","2018/08/24 18:19:42","新北市中和區員山路36巷13號","121.484165","24.9910433333333","6500300","中和區"
"235071","783-BX","2018/08/24 18:19:33","新北市中和區員山路36巷16-3號","121.485251666667","24.99119","6500300","中和區"
"235062","800-TS","2018/08/24 18:19:47","新北市中和區橋和路126號","121.493023333333","25.00599","6500300","中和區"
"235057","801-TS","2018/08/24 18:19:42","新北市中和區民享街97巷18號","121.475355","24.9998883333333","6500300","中和區"
"235041","802-TS","2018/08/24 18:19:50","新北市中和區景安路72號","121.505776666667","24.9966366666667","6500300","中和區"
"235052","805-TS","2018/08/24 18:19:31","新北市中和區興南路二段19號","121.507961666667","24.9860466666667","6500300","中和區"
"235048","896-TW","2018/08/24 18:19:31","新北市中和區中正路395號","121.489758333333","24.9935416666667","6500300","中和區"
"235053","900-TW","2018/08/24 18:19:30","新北市中和區中正路637巷52弄1號","121.4854","24.9935066666667","6500300","中和區"
"235051","157-BY","2018/08/24 18:19:37","新北市中和區興南路二段130號","121.504356666667","24.9834833333333","6500300","中和區"
"235037","AAC-213","2018/08/24 18:19:32","新北市中和區景德街141號","121.514585","24.9910266666667","6500300","中和區"
"226004","205-ST","2018/08/24 18:19:39","新北市平溪區靜安路二段10號","121.707251666667","25.0185333333333","6502400","平溪區"
"228002","663-BX","2018/08/24 18:19:39","新北市貢寮區福連里福興街39-3號","121.994063333333","25.013775","6502600","貢寮區"
"228001","670-TC","2018/08/24 18:19:35","新北市貢寮區真理里新港街26巷55弄2-1號","121.927361666667","25.0528683333333","6502600","貢寮區"
"228003","828-UM","2018/08/24 18:19:45","新北市貢寮區真理里美艷山街64-2號","121.919835","25.0724166666667","6502600","貢寮區"
"224010","AGQ-8101","2018/08/24 17:58:25","新北市瑞芳區烏勢巷145號","121.847488333333","25.1087216666667","6501200","瑞芳區"
"224006","676-BX","2018/08/24 18:19:48","新北市瑞芳區三爪子坑路106巷110號","121.808246666667","25.10447","6501200","瑞芳區"
"224002","639-TC","2018/08/24 18:19:35","新北市瑞芳區三爪子坑路149巷32號","121.811763333333","25.1067416666667","6501200","瑞芳區"
"224008","285-BY","2018/08/24 18:19:41","新北市瑞芳區逢甲路84號","121.809555","25.1087733333333","6501200","瑞芳區"
"224009","273-VK","2018/08/24 18:19:41","新北市瑞芳區五號路4號","121.854718333333","25.110385","6501200","瑞芳區"
"224005","271-BY","2018/08/24 18:19:45","新北市瑞芳區建基新村39號","121.812425","25.1295216666667","6501200","瑞芳區"
"227003","642-TC","2018/08/24 18:19:41","新北市雙溪區共和里中山路2號","121.863775","25.0338333333333","6502500","雙溪區"
"253006","295-VK","2018/08/24 18:19:48","新北市石門區老梅路49號","121.545436666667","25.2892466666667","6502200","石門區"
"222001","KEA-2212","2018/08/24 18:19:44","新北市深坑區北深路二段51號","121.618978333333","25.004055","6501800","深坑區"
"208002","KEA-2872","2018/08/24 18:19:48","新北市金山區磺港里社寮28號","121.63688","25.22926","6502700","金山區"
"208003","665-BX","2018/08/24 18:19:51","新北市金山區民生路192號","121.64653","25.2225733333333","6502700","金山區"
"208001","761-BX","2018/08/24 18:19:31","新北市金山區自強路22號","121.640355","25.2170566666667","6502700","金山區"
"251005","010-UM","2018/08/24 18:19:33","新北市淡水區水源街一段122巷37號","121.44713","25.1704933333333","6501000","淡水區"
"251002","012-UM","2018/08/24 18:19:46","新北市淡水區中正東路一段36號","121.45262","25.1623133333333","6501000","淡水區"
"251008","181-VK","2018/08/24 18:19:35","新北市淡水區水源街二段346巷1弄1號","121.46359","25.1757533333333","6501000","淡水區"
"251010","413-VK","2018/08/24 18:19:44","新北市淡水區淡海路180巷12-3號","121.420476666667","25.1845616666667","6501000","淡水區"
"251012","441-VK","2018/08/24 18:19:36","新北市淡水區北新路二段77-5號","121.480516666667","25.1855083333333","6501000","淡水區"
"251004","443-VK","2018/08/24 18:19:44","新北市淡水區民族路31巷27號","121.462285","25.136405","6501000","淡水區"
"251001","559-UM","2018/08/24 18:19:38","新北市淡水區自強路299號","121.461528333333","25.13139","6501000","淡水區"
"251006","561-UM","2018/08/24 18:19:37","新北市淡水區新民街74號","121.43865","25.1763583333333","6501000","淡水區"
"251011","650-BX","2018/08/24 18:19:36","新北市淡水區淡金路38巷33號","121.457258333333","25.1621833333333","6501000","淡水區"
"251003","766-UM","2018/08/24 18:19:36","新北市淡水區北新路180號","121.449385","25.1787533333333","6501000","淡水區"
"207003","550-UM","2018/08/24 18:19:45","新北市萬里區野柳里港東路6-4號","121.68674","25.2033116666667","6502800","萬里區"
"207004","225-TW","2018/08/24 18:19:33","新北市萬里區中幅里中福路123-1號","121.67671","25.165825","6502800","萬里區"
"252002","178-VK","2018/08/24 18:19:46","新北市三芝區中山路二段41號","121.502948333333","25.2550766666667","6502100","三芝區"
"252003","249-BX","2018/08/24 18:19:47","新北市三芝區錫板里海尾11-7號","121.47835","25.260595","6502100","三芝區"
"252001","292-VK","2018/08/24 18:19:36","新北市三芝區中興街二段2號","121.498335","25.256595","6502100","三芝區"
"237007","153-BY","2018/08/24 18:19:33","新北市三峽區中正路二段582號","121.35929","24.906015","6500900","三峽區"
"237009","210-TH","2018/08/24 18:19:30","新北市三峽區中山路146號","121.364945","24.9363783333333","6500900","三峽區"
"237013","252-BX","2018/08/24 18:19:51","新北市三峽區永安街5號","121.377838333333","24.9299883333333","6500900","三峽區"
"237012","275-BY","2018/08/24 18:19:31","新北市三峽區民生街1巷1-7號","121.377046666667","24.9370183333333","6500900","三峽區"
"237008","302-VK","2018/08/24 18:19:47","新北市三峽區白雞68-85號","121.39262","24.9086283333333","6500900","三峽區"
"237014","433-BY","2018/08/24 18:19:46","新北市三峽區文化路3號","121.373278333333","24.935515","6500900","三峽區"
"237006","5529-G3","2018/08/24 18:19:36","新北市三峽區溪東路178巷13弄13號","121.406176666667","24.9325233333333","6500900","三峽區"
"237011","KEA-2596","2018/08/24 18:19:44","新北市三峽區溪東路93號","121.401441666667","24.9346383333333","6500900","三峽區"
"237015","649-BX","2018/08/24 18:19:43","新北市三峽區紫微路42-1號","121.422293333333","24.92013","6500900","三峽區"
"237010","706-TV","2018/08/24 18:19:37","新北市三峽區民權街147號","121.368846666667","24.9316533333333","6500900","三峽區"
"237005","AKY-6261","2018/08/24 18:19:31","新北市三峽區民權街73號","121.369473333333","24.9330166666667","6500900","三峽區"
"236069","105-UM","2018/08/24 18:19:30","新北市土城區永豐路149-3號","121.467343333333","24.9824666666667","6501300","土城區"
"236042","107-UM","2018/08/24 18:19:39","新北市土城區裕生路21巷2弄32號","121.447911666667","24.986115","6501300","土城區"
"236079","166-UM","2018/08/24 18:19:46","新北市土城區中央路三段239巷24號","121.429155","24.9637433333333","6501300","土城區"
"236030","253-BX","2018/08/24 18:19:35","新北市土城區順風路27號","121.440335","24.9769083333333","6501300","土城區"
"236026","269-VK","2018/08/24 18:19:33","新北市土城區承天路18號","121.43935","24.9635016666667","6501300","土城區"
"236014","270-VK","2018/08/24 18:19:48","新北市土城區青雲路39巷7號","121.46027","24.9873633333333","6501300","土城區"
"236039","271-VK","2018/08/24 18:19:34","新北市土城區青雲路449號","121.45888","24.9750966666667","6501300","土城區"
"236020","401-BY","2018/08/24 18:19:46","新北市土城區明德路一段385-1號","121.452368333333","24.979575","6501300","土城區"
"236059","912-UM","2018/08/24 18:19:39","新北市土城區中央路四段464號","121.409925","24.9505483333333","6501300","土城區"
"236048","913-UM","2018/08/24 18:19:38","新北市土城區明德路一段288號","121.456728333333","24.9776666666667","6501300","土城區"
"236063","915-UM","2018/08/24 18:19:43","新北市土城區金城路三段182-3號","121.468091666667","24.9878833333333","6501300","土城區"
"236055","AAC-216","2018/08/24 18:19:47","新北市土城區中華路二段108號","121.437978333333","24.97419","6501300","土城區"
"242034","AAC-296","2018/08/24 18:19:33","新北市新莊區瓊林路13-3號","121.448838333333","25.0309216666667","6500500","新莊區"
"242058","986-R7","2018/08/24 18:19:38","新北市新莊區中正路806號","121.410093333333","25.0209916666667","6500500","新莊區"
"242054","751-BX","2018/08/24 18:19:43","新北市新莊區西盛街429巷32號","121.427966666667","25.01151","6500500","新莊區"
"242027","615-BX","2018/08/24 18:19:33","新北市新莊區幸福路860號","121.44372","25.0490933333333","6500500","新莊區"
"242025","613-BX","2018/08/24 18:19:46","新北市新莊區五權一路12巷9弄6號","121.45744","25.06483","6500500","新莊區"
"242041","566-BX","2018/08/24 18:19:44","新北市新莊區天祥街67號","121.415946666667","25.0290383333333","6500500","新莊區"
"242046","497-BY","2018/08/24 18:19:48","新北市新莊區中正路831-15號","121.42089","25.0277183333333","6500500","新莊區"
"242050","441-UM","2018/08/24 18:19:44","新北市新莊區民本街11巷19號","121.428581666667","25.0203933333333","6500500","新莊區"
"242056","440-UM","2018/08/24 18:19:51","新北市新莊區豐年街78號","121.446455","25.0312416666667","6500500","新莊區"
"242037","415-TV","2018/08/24 18:19:34","新北市新莊區後港一路31巷1弄2號","121.425138333333","25.0264083333333","6500500","新莊區"
"242007","413-TV","2018/08/24 18:19:43","新北市新莊區中港一街78號","121.44964","25.0454866666667","6500500","新莊區"
"242044","400-BY","2018/08/24 18:19:47","新北市新莊區雙鳳路73巷40號","121.41402","25.0265166666667","6500500","新莊區"
"242060","353-BY","2018/08/24 18:19:40","新北市新莊區新樹路40號","121.438008333333","25.0285316666667","6500500","新莊區"
"242009","132-UY","2018/08/24 18:19:36","新北市新莊區中安街7號","121.453081666667","25.0457016666667","6500500","新莊區"
"242039","133-UY","2018/08/24 18:19:48","新北市新莊區新樹路206巷4號","121.43363","25.020455","6500500","新莊區"
"242032","135-UY","2018/08/24 18:19:35","新北市新莊區新泰路277巷43弄2號","121.444053333333","25.0399683333333","6500500","新莊區"
"242048","172-VK","2018/08/24 18:19:33","新北市樹林區俊興街257號","121.418171666667","25.01663","6500500","新莊區"
"242011","173-VK","2018/08/24 18:19:50","新北市新莊區中榮街47號","121.449518333333","25.05273","6500500","新莊區"
"242021","348-TH","2018/08/24 18:19:35","新北市新莊區中正路170號","121.450775","25.0358816666667","6500500","新莊區"
"242002","349-TH","2018/08/24 18:19:41","新北市新莊區碧江街18-3號","121.455248333333","25.0345866666667","6500500","新莊區"
"238015","755-BX","2018/08/24 18:19:49","新北市樹林區文化街110號","121.416535","24.989635","6500700","樹林區"
"238023","601-UM","2018/08/24 18:19:39","新北市樹林區忠義街25號","121.409605","25.0145383333333","6500700","樹林區"
"238019","599-UM","2018/08/24 18:19:45","新北市樹林區國凱街136巷22號","121.42362","24.9797016666667","6500700","樹林區"
"238018","571-TV","2018/08/24 18:19:40","新北市樹林區保安街一段20巷8號","121.42774","24.9937133333333","6500700","樹林區"
"238025","303-VK","2018/08/24 18:19:37","新北市樹林區保安街一段118號","121.423538333333","24.9950083333333","6500700","樹林區"
"238014","282-BY","2018/08/24 18:19:39","新北市樹林區大安路111巷11號","121.423083333333","24.99772","6500700","樹林區"
"238020","268-VK","2018/08/24 18:19:40","新北市樹林區三俊街65巷42號","121.413406666667","25.0178483333333","6500700","樹林區"
"238026","172-UY","2018/08/24 18:19:38","新北市樹林區佳園路一段75巷14弄10號","121.395245","24.97001","6500700","樹林區"
"238016","169-UY","2018/08/24 18:19:44","新北市樹林區文化街28號","121.419321666667","24.9876666666667","6500700","樹林區"
"239007","AAC-297","2018/08/24 18:19:42","新北市鶯歌區尖山埔路35號","121.348816666667","24.9509983333333","6500800","鶯歌區"
"239006","891-R6","2018/08/24 18:19:36","新北市鶯歌區鶯桃路294-1號","121.335015","24.96038","6500800","鶯歌區"
"239008","527-UM","2018/08/24 18:19:49","新北市鶯歌區國際一路179號","121.336256666667","24.9764966666667","6500800","鶯歌區"
"239005","526-UM","2018/08/24 18:19:31","新北市鶯歌區鶯桃路二段48號","121.325475","24.9726083333333","6500800","鶯歌區"
"239001","417-VK","2018/08/24 18:19:34","新北市鶯歌區國中街178號","121.338285","24.9391983333333","6500800","鶯歌區"
"239003","360-BY","2018/08/24 18:19:36","新北市鶯歌區福安街58號","121.33559","24.9651883333333","6500800","鶯歌區"
"239002","359-BY","2018/08/24 18:19:31","新北市鶯歌區國慶街169-1號","121.3513","24.9529366666667","6500800","鶯歌區"
"239004","193-VK","2018/08/24 18:19:36","新北市鶯歌區中正三路曾厝巷7號","121.34186","24.9451333333333","6500800","鶯歌區"
"221008","489-VK","2018/08/24 18:19:47","新北市汐止區康寧街901號","121.650906666667","25.0752433333333","6501100","汐止區"
"221036","130-UY","2018/08/24 18:19:32","新北市汐止區長興街一段50號","121.670643333333","25.07927","6501100","汐止區"
"221015","131-UY","2018/08/24 18:19:38","新北市汐止區鄉長路二段23巷11號","121.667575","25.0826883333333","6501100","汐止區"
"221010","269-BY","2018/08/24 18:19:44","新北市汐止區汐萬路二段345號","121.644491666667","25.0910266666667","6501100","汐止區"
"221012","278-VK","2018/08/24 18:19:51","新北市汐止區保長路35巷13號","121.67326","25.08008","6501100","汐止區"
"221023","279-VK","2018/08/24 18:19:33","新北市汐止區康寧街430號","121.630873333333","25.0674716666667","6501100","汐止區"
"221032","280-BY","2018/08/24 18:19:48","新北市汐止區橫科路73巷1號","121.619261666667","25.0505683333333","6501100","汐止區"
"221027","281-BY","2018/08/24 18:19:39","新北市汐止區和平街46巷6號","121.662606666667","25.0711683333333","6501100","汐止區"
"221029","298-VK","2018/08/24 18:19:45","新北市汐止區樟樹二路330巷72-1號","121.64301","25.0699733333333","6501100","汐止區"
"221021","299-VK","2018/08/24 18:19:36","新北市汐止區新台五路一段125號","121.651731666667","25.0616533333333","6501100","汐止區"
"221031","353-TW","2018/08/24 18:19:43","新北市汐止區光復街7巷8號","121.639453333333","25.0589133333333","6501100","汐止區"
"221002","129-UY","2018/08/24 18:19:42","新北市汐止區福德一路201巷38號","121.635753333333","25.065085","6501100","汐止區"
"221035","622-UM","2018/08/24 18:19:28","新北市汐止區大同路二段179號","121.65201","25.064135","6501100","汐止區"
"221025","623-UM","2018/08/24 18:19:42","新北市汐止區勤進路12巷39號","121.659081666667","25.0627483333333","6501100","汐止區"
"221038","646-BX","2018/08/24 18:19:46","新北市汐止區忠孝東路308號","121.664345","25.0688216666667","6501100","汐止區"
"221033","647-BX","2018/08/24 18:19:40","新北市汐止區宜興街130號","121.623355","25.0434483333333","6501100","汐止區"
"221018","753-BX","2018/08/24 18:19:46","新北市汐止區茄苳路110號","121.667711666667","25.0701283333333","6501100","汐止區"
"220057","686-BX","2018/08/24 18:19:34","新北市板橋區華東街1-9號","121.448211666667","24.994875","6500100","板橋區"
"220077","687-BX","2018/08/24 18:19:32","新北市板橋區華東街1-10號","121.448311666667","24.9950233333333","6500100","板橋區"
"220054","741-BX","2018/08/24 18:19:33","新北市板橋區華東街1-9號","121.448093333333","24.9949216666667","6500100","板橋區"
"220073","985-R7","2018/08/24 18:19:39","新北市板橋區華東街1-10號","121.448228333333","24.9949966666667","6500100","板橋區"
"235068","KEA-2873","2018/08/24 18:19:26","新北市中和區員山路36巷13號","121.484156666667","24.9911533333333","6500300","中和區"
"235061","KEA-2875","2018/08/24 18:19:40","新北市中和區民德路187號","121.468381666667","24.9993","6500300","中和區"
