"lineid","car","time","location","longitude","latitude","cityid","cityname"
"234046","148-BY","2018/08/24 18:39:43","新北市永和區永元路64號","121.522555","25.0013533333333","6500400","永和區"
"234007","207-UY","2018/08/24 18:39:50","新北市永和區文化路123號","121.512211666667","25.015345","6500400","永和區"
"234081","298-R6","2018/08/24 18:39:43","新北市永和區林森路81號","121.52385","25.0039283333333","6500400","永和區"
"234038","336-UY","2018/08/24 18:39:42","新北市永和區福和路1號","121.526771666667","25.010185","6500400","永和區"
"234064","337-UY","2018/08/24 18:39:35","新北市永和區福和路1號","121.526645","25.010225","6500400","永和區"
"234086","338-UY","2018/08/24 18:39:39","新北市永和區安樂路232號","121.514903333333","25.00253","6500400","永和區"
"234070","552-UM","2018/08/24 18:39:46","新北市永和區福和路1號","121.525608333333","25.009555","6500400","永和區"
"234017","745-BX","2018/08/24 18:39:48","新北市永和區福和路1號","121.526315","25.009665","6500400","永和區"
"234030","746-BX","2018/08/24 18:39:50","新北市永和區成功路一段89號","121.52685","25.0028916666667","6500400","永和區"
"234013","KEA-2591","2018/08/24 18:39:33","新北市永和區保安路38號","121.510395","25.016985","6500400","永和區"
"234061","AAD-866","2018/08/24 18:39:38","新北市永和區福和路1號","121.526005","25.0095966666667","6500400","永和區"
"234042","862-TW","2018/08/24 18:39:32","新北市永和區永貞路306號","121.511861666667","25.0048583333333","6500400","永和區"
"234026","9371-KE","2018/08/24 18:39:44","新北市永和區自由街58號","121.513751666667","25.0059666666667","6500400","永和區"
"234011","9373-KE","2018/08/24 18:39:30","新北市永和區永和路二段233-1號","121.515295","25.01427","6500400","永和區"
"249005","172-UM","2018/08/24 18:39:32","新北市八里區中華路三段198號","121.388686666667","25.12589","6502300","八里區"
"249001","173-UM","2018/08/24 18:39:42","新北市八里區龍米路一段382號","121.4515","25.131785","6502300","八里區"
"249004","303-UY","2018/08/24 18:39:41","新北市八里區中山路一段33-2號","121.420386666667","25.1595866666667","6502300","八里區"
"249002","305-UY","2018/08/24 18:39:42","新北市八里區頂寮二街138號","121.449296666667","25.1294366666667","6502300","八里區"
"248014","025-BX","2018/08/24 18:39:41","新北市五股區成泰路一段130-1號","121.435116666667","25.0750983333333","6501500","五股區"
"248016","026-BX","2018/08/24 18:39:37","新北市五股區凌雲路一段149巷13-1號","121.448616666667","25.1008816666667","6501500","五股區"
"248008","095-VK","2018/08/24 18:39:34","新北市五股區中興路一段149號","121.46515","25.0735666666667","6501500","五股區"
"248018","225-UY","2018/08/24 18:39:34","新北市五股區民義路二段52-25號","121.409758333333","25.1050016666667","6501500","五股區"
"248012","247-BX","2018/08/24 18:39:48","新北市五股區成泰路三段2巷3號","121.440913333333","25.08637","6501500","五股區"
"248010","272-BY","2018/08/24 18:39:42","新北市五股區成泰路一段173-1號","121.435175","25.0748433333333","6501500","五股區"
"248004","677-BX","2018/08/24 18:39:49","新北市五股區民義路一段216-2號","121.430096666667","25.0893816666667","6501500","五股區"
"248002","678-BX","2018/08/24 18:39:50","新北市五股區西雲路197號","121.44789","25.0958833333333","6501500","五股區"
"234023","9380-KE","2018/08/24 18:39:41","新北市永和區福和路76巷5弄12號","121.522445","25.0084266666667","6500400","永和區"
"234077","969-R7","2018/08/24 18:39:37","新北市永和區中正路261號","121.517571666667","25.00059","6500400","永和區"
"234067","AAC-212","2018/08/24 18:39:34","新北市永和區福和路10巷1號","121.524618333333","25.008725","6500400","永和區"
"244007","080-UY","2018/08/24 18:39:35","新北市林口區湖北里60-1號","121.384881666667","25.1077533333333","6501700","林口區"
"244019","403-UM","2018/08/24 18:39:47","新北市林口區忠孝路625號","121.379645","25.069085","6501700","林口區"
"244013","KEA-2802","2018/08/24 18:39:43","新北市林口區仁愛路二段201-1號","121.377883333333","25.074675","6501700","林口區"
"244023","483-VK","2018/08/24 18:39:42","新北市林口區文化二路二段111號","121.378471666667","25.081045","6501700","林口區"
"244017","485-VK","2018/08/24 18:39:33","新北市林口區文化二路一段38號","121.364905","25.0677166666667","6501700","林口區"
"244009","656-BX","2018/08/24 18:39:44","新北市林口區竹林路326巷1號","121.391281666667","25.0826183333333","6501700","林口區"
"244011","657-BX","2018/08/24 18:39:39","新北市林口區仁愛路一段336號","121.390991666667","25.0764966666667","6501700","林口區"
"244025","837-TS","2018/08/24 18:39:33","新北市林口區南勢街280號","121.357618333333","25.0765116666667","6501700","林口區"
"244021","838-TS","2018/08/24 18:39:36","新北市林口區粉寮路一段64號","121.397003333333","25.0786433333333","6501700","林口區"
"243013","AAD-798","2018/08/24 18:28:23","新北市泰山區明志路三段206巷3號","121.423286666667","25.0379316666667","6501600","泰山區"
"243016","KEA-2801","2018/08/24 18:39:40","新北市泰山區黎明路23號","121.420898333333","25.0625416666667","6501600","泰山區"
"222003","436-BY","2018/08/24 18:39:35","新北市深坑區翠谷街17巷1號","121.626478333333","25.0084333333333","6501800","深坑區"
"222002","659-BX","2018/08/24 18:39:44","新北市深坑區雲鄉路3-1號","121.62111","25.0000466666667","6501800","深坑區"
"231044","001-UM","2018/08/24 18:39:48","新北市新店區光明街203號","121.539978333333","24.9636533333333","6500600","新店區"
"231041","002-UM","2018/08/24 18:39:40","新北市新店區安一路一段1-1號","121.519663333333","24.961515","6500600","新店區"
"231059","046-UY","2018/08/24 18:39:34","新北市新店區安華路28-1號","121.519685","24.960865","6500600","新店區"
"231040","047-UY","2018/08/24 18:39:29","新北市新店區安華路28-1號","121.519351666667","24.9608183333333","6500600","新店區"
"231046","107-UY","2018/08/24 18:39:40","新北市新店區直潭二街1號","121.535503333333","24.9431966666667","6500600","新店區"
"231053","108-UY","2018/08/24 18:39:34","新北市新店區長興路8號","121.546161666667","24.9400666666667","6500600","新店區"
"231048","187-VK","2018/08/24 18:39:32","新北市新店區安一路一段1-1號","121.519781666667","24.96217","6500600","新店區"
"231054","KEA-2219","2018/08/24 18:39:30","新北市新店區安一路一段1-1號","121.519966666667","24.9611266666667","6500600","新店區"
"231057","256-BX","2018/08/24 18:39:33","新北市新店區新烏路一段189號","121.54687","24.9327983333333","6500600","新店區"
"231042","268-BY","2018/08/24 18:39:32","新北市新店區安華路28-1號","121.519328333333","24.9605883333333","6500600","新店區"
"231051","278-BY","2018/08/24 18:39:36","新北市新店區中央路93號","121.53152","24.9755516666667","6500600","新店區"
"231050","AAD-862","2018/08/24 18:39:33","新北市新店區安一路一段1-1號","121.519925","24.9612466666667","6500600","新店區"
"231058","3713-VJ","2018/08/24 18:39:45","新北市新店區北宜路一段105巷2-1號","121.539878333333","24.9553916666667","6500600","新店區"
"231066","4716-K9","2018/08/24 18:39:48","新北市新店區安一路一段1-1號","121.519286666667","24.9611266666667","6500600","新店區"
"231056","4715-K9","2018/08/24 18:39:46","新北市新店區建國路215號","121.5376","24.980545","6500600","新店區"
"231067","4772-VM","2018/08/24 18:39:47","新北市新店區安華路28-1號","121.519213333333","24.9605966666667","6500600","新店區"
"231065","512-UM","2018/08/24 18:39:35","新北市新店區安一路一段1-1號","121.518973333333","24.9611866666667","6500600","新店區"
"231049","513-UM","2018/08/24 18:39:32","新北市新店區安一路一段1-1號","121.5198","24.9612233333333","6500600","新店區"
"231045","617-UM","2018/08/24 18:39:44","新北市新店區安華路28-1號","121.519506666667","24.9608966666667","6500600","新店區"
"231061","619-UM","2018/08/24 18:39:48","新北市新店區安華路28-1號","121.519698333333","24.9609916666667","6500600","新店區"
"231063","641-BX","2018/08/24 18:39:46","新北市新店區安華路28-1號","121.51961","24.960575","6500600","新店區"
"231039","718-UY","2018/08/24 18:39:50","新北市新店區中央路57號","121.53274","24.9773783333333","6500600","新店區"
"231064","719-UM","2018/08/24 18:38:17","新北市新店區安一路一段1-1號","121.519523333333","24.9613333333333","6500600","新店區"
"231062","720-UM","2018/08/24 18:39:38","新北市新店區安一路一段1-1號","121.519303333333","24.9611616666667","6500600","新店區"
"231060","897-TW","2018/08/24 18:39:46","新北市新店區安華路28-1號","121.519613333333","24.9608666666667","6500600","新店區"
"231043","899-TW","2018/08/24 18:39:35","新北市新店區安華路28-1號","121.519138333333","24.9609683333333","6500600","新店區"
"231055","AKT-0513","2018/08/24 18:39:33","新北市新店區華興街38巷5號","121.53707","24.9691933333333","6500600","新店區"
"235066","003-UY","2018/08/24 18:39:41","新北市中和區水源路33號","121.504286666667","25.0036216666667","6500300","中和區"
"235064","005-UY","2018/08/24 18:39:34","新北市中和區連勝街26巷8號","121.498141666667","24.9982716666667","6500300","中和區"
"235063","006-UY","2018/08/24 18:39:49","新北市中和區連城路268-7號","121.486615","24.99634","6500300","中和區"
"235056","096-UM","2018/08/24 18:39:46","新北市板橋區三民路二段220巷11號","121.47831","25.011585","6500300","中和區"
"235039","097-UM","2018/08/24 18:39:34","新北市永和區中正路9號","121.513883333333","24.9957333333333","6500300","中和區"
"235065","098-UM","2018/08/24 18:39:50","新北市中和區莊敬路33巷7號","121.500138333333","25.0065933333333","6500300","中和區"
"235040","150-BY","2018/08/24 18:39:36","新北市中和區宜安路49號","121.511795","24.9965866666667","6500300","中和區"
"235058","151-BY","2018/08/24 18:39:48","新北市中和區圓通路320號","121.486596666667","24.9878916666667","6500300","中和區"
"235055","183-VK","2018/08/24 18:39:30","新北市板橋區民族路276巷3弄15號","121.47015","25.0061966666667","6500300","中和區"
"235038","185-VK","2018/08/24 18:39:44","新北市中和區大勇街76號","121.518263333333","24.994745","6500300","中和區"
"235049","186-VK","2018/08/24 18:39:31","新北市中和區景安路132巷38號","121.503838333333","24.994605","6500300","中和區"
"235067","255-BX","2018/08/24 18:39:41","新北市中和區中山路二段479號","121.483026666667","25.0049216666667","6500300","中和區"
"235044","293-VK","2018/08/24 18:39:35","新北市中和區復興路280巷6號","121.50231","24.9910166666667","6500300","中和區"
"235072","301-VK","2018/08/24 18:39:43","新北市中和區連城路103號","121.49632","24.9995583333333","6500300","中和區"
"235043","352-BY","2018/08/24 18:39:34","新北市中和區景平路155號","121.513601666667","24.992255","6500300","中和區"
"235042","KEA-2878","2018/08/24 18:39:45","新北市中和區成功路97巷3號","121.526413333333","24.991865","6500300","中和區"
"235069","4980-A6","2018/08/24 18:39:45","新北市中和區連勝街38巷28號","121.497501666667","24.998165","6500300","中和區"
"235070","558-UM","2018/08/24 18:39:34","新北市中和區景平路463號","121.500611666667","24.9967233333333","6500300","中和區"
"235045","565-BX","2018/08/24 18:39:32","新北市中和區南山路236巷36弄15號","121.504116666667","24.987835","6500300","中和區"
"235054","640-BX","2018/08/24 18:39:34","新北市中和區莒光路70號","121.472256666667","25.0031266666667","6500300","中和區"
"235060","647-TV","2018/08/24 18:39:32","新北市中和區中山路三段6號","121.479615","25.0060766666667","6500300","中和區"
"235047","732-UM","2018/08/24 18:39:33","新北市中和區興南路二段5號","121.508033333333","24.9863466666667","6500300","中和區"
"235046","733-UM","2018/08/24 18:39:42","新北市中和區仁愛街128號","121.511838333333","24.9866916666667","6500300","中和區"
"235071","783-BX","2018/08/24 18:39:33","新北市中和區員山路36巷16-2號","121.485295","24.99114","6500300","中和區"
"235062","800-TS","2018/08/24 18:39:47","新北市中和區景平路675號","121.496588333333","25.0028","6500300","中和區"
"235057","801-TS","2018/08/24 18:39:42","新北市中和區員山路327巷1號","121.48081","25.0013","6500300","中和區"
"235041","802-TS","2018/08/24 18:39:50","新北市中和區宜安路118巷42號","121.511185","24.99912","6500300","中和區"
"235052","805-TS","2018/08/24 18:39:31","新北市中和區興南路三段91巷2號","121.490498333333","24.9734583333333","6500300","中和區"
"235048","896-TW","2018/08/24 18:39:31","新北市中和區南山路361號","121.506","24.9906516666667","6500300","中和區"
"235053","900-TW","2018/08/24 18:39:30","新北市中和區莒光路213號","121.469028333333","24.99457","6500300","中和區"
"235051","157-BY","2018/08/24 18:39:37","新北市中和區華新街143巷106弄31號","121.506743333333","24.978315","6500300","中和區"
"235037","AAC-213","2018/08/24 18:39:32","新北市中和區景平路73-2號","121.518653333333","24.9913783333333","6500300","中和區"
"235059","AAC-215","2018/08/24 18:39:47","新北市中和區錦和路354巷15號","121.489791666667","24.9915316666667","6500300","中和區"
"220065","072-UY","2018/08/24 18:39:45","新北市板橋區忠孝路172號","121.464486666667","25.0025483333333","6500100","板橋區"
"220086","073-UY","2018/08/24 18:39:39","新北市板橋區南雅西路一段39巷30號","121.452745","25.0046483333333","6500100","板橋區"
"220106","075-UY","2018/08/24 18:39:37","新北市板橋區民生路二段161巷5號","121.47018","25.019745","6500100","板橋區"
"220069","AAD-861","2018/08/24 18:39:39","新北市板橋區華東街11號","121.45128","24.9982533333333","6500100","板橋區"
"226004","205-ST","2018/08/24 18:39:39","新北市平溪區平溪里三坑路49-1號","121.731701666667","25.033635","6502400","平溪區"
"228002","663-BX","2018/08/24 18:39:39","新北市貢寮區福隆里東興街6-11號","121.950791666667","25.0210866666667","6502600","貢寮區"
"228001","670-TC","2018/08/24 18:39:35","新北市貢寮區仁理村研海街12-1號","121.923755","25.0516816666667","6502600","貢寮區"
"228003","828-UM","2018/08/24 18:39:45","新北市貢寮區和美里龍洞街12-2號","121.918245","25.1117183333333","6502600","貢寮區"
"224010","AGQ-8101","2018/08/24 18:39:45","新北市瑞芳區九份中山巷10號","121.84383","25.1075916666667","6501200","瑞芳區"
"224006","676-BX","2018/08/24 18:39:48","新北市瑞芳區明燈路三段90號","121.805446666667","25.10833","6501200","瑞芳區"
"224002","639-TC","2018/08/24 18:39:35","新北市瑞芳區三爪子坑路64-35號","121.808906666667","25.1058033333333","6501200","瑞芳區"
"224008","285-BY","2018/08/24 18:39:33","新北市瑞芳區瑞芳街119號","121.805658333333","25.1097383333333","6501200","瑞芳區"
"224009","273-VK","2018/08/24 18:39:41","新北市瑞芳區祈堂路2號","121.859701666667","25.1117083333333","6501200","瑞芳區"
"224005","271-BY","2018/08/24 18:39:45","新北市瑞芳區建基路一段40號","121.819356666667","25.121365","6501200","瑞芳區"
"227003","642-TC","2018/08/24 18:39:41","新北市雙溪區魚行里坤溪3-5號","121.876196666667","25.0208533333333","6502500","雙溪區"
"227011","400-TW","2018/08/24 18:39:31","新北市雙溪區牡丹里下坑11號","121.851016666667","25.056175","6502500","雙溪區"
"253006","295-VK","2018/08/24 18:39:48","新北市石門區崁子腳44號","121.533473333333","25.288355","6502200","石門區"
"222001","KEA-2212","2018/08/24 18:39:44","新北市深坑區北深路一段80號","121.636403333333","25.0107483333333","6501800","深坑區"
"208002","KEA-2872","2018/08/24 18:39:48","新北市金山區忠孝一路19巷17號","121.637401666667","25.217515","6502700","金山區"
"208003","665-BX","2018/08/24 18:39:36","新北市金山區中山路329號","121.635286666667","25.22406","6502700","金山區"
"208001","761-BX","2018/08/24 18:39:51","新北市金山區文化三路7號","121.6351","25.2249616666667","6502700","金山區"
"251002","012-UM","2018/08/24 18:39:46","新北市淡水區中正東路一段3巷14弄1號","121.450971666667","25.1642183333333","6501000","淡水區"
"251008","181-VK","2018/08/24 18:39:35","新北市淡水區淡金路二段66號","121.450921666667","25.1825783333333","6501000","淡水區"
"251010","413-VK","2018/08/24 18:39:44","新北市淡水區沙崙路124號","121.423376666667","25.182765","6501000","淡水區"
"251012","441-VK","2018/08/24 18:39:36","新北市淡水區北新路117號","121.44887","25.178655","6501000","淡水區"
"251004","443-VK","2018/08/24 18:39:44","新北市淡水區中正東路二段143巷6弄1號","121.461141666667","25.1473816666667","6501000","淡水區"
"251001","559-UM","2018/08/24 18:39:38","新北市淡水區自強路415巷2號","121.465466666667","25.1343833333333","6501000","淡水區"
"251006","561-UM","2018/08/24 18:39:37","新北市淡水區崁頂36號","121.438866666667","25.1946016666667","6501000","淡水區"
"251011","650-BX","2018/08/24 18:39:36","新北市淡水區鄧公路266號","121.459186666667","25.1687266666667","6501000","淡水區"
"251003","766-UM","2018/08/24 18:39:36","新北市淡水區北新路69巷30號","121.446921666667","25.1799483333333","6501000","淡水區"
"207003","550-UM","2018/08/24 18:39:45","新北市萬里區野柳里八斗60號","121.666466666667","25.2048166666667","6502800","萬里區"
"207004","225-TW","2018/08/24 18:39:33","新北市萬里區萬里里獅頭路7號","121.691953333333","25.1783233333333","6502800","萬里區"
"252002","178-VK","2018/08/24 18:39:46","新北市三芝區民生街64巷1號","121.503478333333","25.2553183333333","6502100","三芝區"
"252003","249-BX","2018/08/24 18:39:47","新北市三芝區後厝里土地公坑73號","121.460938333333","25.247625","6502100","三芝區"
"252001","292-VK","2018/08/24 18:39:36","新北市三芝區中正路三段30號","121.502218333333","25.2525216666667","6502100","三芝區"
"237007","153-BY","2018/08/24 18:39:33","新北市三峽區柑樹路6巷7號","121.362681666667","24.905055","6500900","三峽區"
"237009","210-TH","2018/08/24 18:39:44","新北市三峽區弘園街37號","121.367436666667","24.9277766666667","6500900","三峽區"
"237013","252-BX","2018/08/24 18:39:50","新北市三峽區光明路69巷25號","121.376635","24.9292516666667","6500900","三峽區"
"237012","275-BY","2018/08/24 18:39:31","新北市三峽區三樹路340號","121.383953333333","24.9433383333333","6500900","三峽區"
"237008","302-VK","2018/08/24 18:39:47","新北市三峽區白雞57-16號","121.390191666667","24.91144","6500900","三峽區"
"237014","433-BY","2018/08/24 18:39:46","新北市三峽區復興路480巷51-1號","121.360716666667","24.940535","6500900","三峽區"
"237006","5529-G3","2018/08/24 18:39:36","新北市三峽區溪東路226號","121.407973333333","24.9319016666667","6500900","三峽區"
"237011","KEA-2596","2018/08/24 18:39:44","新北市三峽區溪東路215號","121.40614","24.9328483333333","6500900","三峽區"
"237015","649-BX","2018/08/24 18:39:43","新北市三峽區成福路323號","121.431185","24.9238483333333","6500900","三峽區"
"237010","706-TV","2018/08/24 18:39:37","新北市三峽區復興路487號","121.361293333333","24.9384466666667","6500900","三峽區"
"237005","AKY-6261","2018/08/24 18:39:51","新北市三峽區新興街13號","121.372716666667","24.93569","6500900","三峽區"
"236069","105-UM","2018/08/24 18:39:50","新北市土城區永豐路157巷4號","121.468251666667","24.9814983333333","6501300","土城區"
"236042","107-UM","2018/08/24 18:39:45","新北市土城區裕民路57號","121.448938333333","24.98789","6501300","土城區"
"236079","166-UM","2018/08/24 18:39:46","新北市土城區中央路四段46巷28號","121.421936666667","24.9616483333333","6501300","土城區"
"236030","253-BX","2018/08/24 18:39:48","新北市土城區慶利街34號","121.438745","24.9744916666667","6501300","土城區"
"236026","269-VK","2018/08/24 18:39:51","新北市土城區忠義路53-2號","121.440758333333","24.96857","6501300","土城區"
"236014","270-VK","2018/08/24 18:39:48","新北市土城區清水路207巷1號","121.460068333333","24.9819683333333","6501300","土城區"
"236039","271-VK","2018/08/24 18:39:42","新北市土城區明德路一段245號","121.462603333333","24.9780316666667","6501300","土城區"
"236020","401-BY","2018/08/24 18:39:46","新北市土城區延吉街309巷6號","121.46612","24.9843666666667","6501300","土城區"
"236059","912-UM","2018/08/24 18:39:39","新北市土城區中央路三段153號","121.432105","24.9655","6501300","土城區"
"236048","913-UM","2018/08/24 18:39:38","新北市土城區金城路二段354巷4號","121.460721666667","24.9849516666667","6501300","土城區"
"236063","915-UM","2018/08/24 18:39:43","新北市土城區延壽路13巷19號","121.469935","24.9913683333333","6501300","土城區"
"236055","AAC-216","2018/08/24 18:39:47","新北市土城區裕民路41號","121.448496666667","24.988345","6501300","土城區"
"242058","986-R7","2018/08/24 18:39:49","新北市新莊區富國路1號","121.417913333333","25.0266683333333","6500500","新莊區"
"242054","751-BX","2018/08/24 18:39:43","新北市樹林區俊英街2號","121.430476666667","24.9990483333333","6500500","新莊區"
"242025","613-BX","2018/08/24 18:39:35","新北市新莊區新泰路528號","121.441956666667","25.0468966666667","6500500","新莊區"
"242050","441-UM","2018/08/24 18:39:44","新北市新莊區新樹路699巷102-1號","121.433363333333","24.99993","6500500","新莊區"
"242060","353-BY","2018/08/24 18:39:19","新北市新莊區民安路188巷5號","121.424841666667","25.023315","6500500","新莊區"
"242039","133-UY","2018/08/24 18:39:28","新北市新莊區建國二路108號","121.430853333333","25.0271766666667","6500500","新莊區"
"242011","173-VK","2018/08/24 18:36:30","新北市新莊區三和路12-21號","121.442186666667","25.0386166666667","6500500","新莊區"
"242002","349-TH","2018/08/24 18:39:35","新北市新莊區三和路16-3號","121.441415","25.03742","6500500","新莊區"
"238015","755-BX","2018/08/24 18:39:45","新北市樹林區備內街68號","121.411338333333","24.98812","6500700","樹林區"
"238023","601-UM","2018/08/24 18:39:36","新北市樹林區三福街114號","121.40646","25.0163366666667","6500700","樹林區"
"238019","599-UM","2018/08/24 18:39:35","新北市樹林區中華路190-16號","121.41175","24.980625","6500700","樹林區"
"238018","571-TV","2018/08/24 18:39:51","新北市樹林區樹新路59號","121.427371666667","24.9950033333333","6500700","樹林區"
"238024","5061-A6","2018/08/24 18:39:47","新北市樹林區太順街49巷20弄22號","121.417673333333","24.97832","6500700","樹林區"
"238022","KEA-2213","2018/08/24 18:39:37","新北市樹林區中華路379巷50號","121.413456666667","24.9782233333333","6500700","樹林區"
"238025","303-VK","2018/08/24 18:39:37","新北市樹林區中山路三段22號","121.395618333333","24.972935","6500700","樹林區"
"238014","282-BY","2018/08/24 18:39:39","新北市樹林區大安路111巷25號","121.42323","24.9976916666667","6500700","樹林區"
"238020","268-VK","2018/08/24 18:39:40","新北市樹林區俊安街29號","121.420033333333","25.0131983333333","6500700","樹林區"
"238026","172-UY","2018/08/24 18:39:38","新北市樹林區中山路三段172號","121.388943333333","24.9700016666667","6500700","樹林區"
"238016","169-UY","2018/08/24 18:39:44","新北市樹林區文化街23號","121.419298333333","24.9876383333333","6500700","樹林區"
"239007","AAC-297","2018/08/24 18:39:42","新北市鶯歌區中正一路461-2號","121.363245","24.9567483333333","6500800","鶯歌區"
"239006","891-R6","2018/08/24 18:39:36","新北市鶯歌區鶯桃路296巷113號","121.336801666667","24.96212","6500800","鶯歌區"
"239008","527-UM","2018/08/24 18:39:49","新北市鶯歌區國際一路179號","121.336258333333","24.9764966666667","6500800","鶯歌區"
"239005","526-UM","2018/08/24 18:39:31","新北市鶯歌區鳳吉一街72號","121.326675","24.974205","6500800","鶯歌區"
"239001","417-VK","2018/08/24 18:39:34","新北市鶯歌區中正三路17號","121.339276666667","24.9426583333333","6500800","鶯歌區"
"239003","360-BY","2018/08/24 18:39:36","新北市鶯歌區永和街102號","121.334316666667","24.9689583333333","6500800","鶯歌區"
"239002","359-BY","2018/08/24 18:39:51","新北市鶯歌區中山路132號","121.350223333333","24.9569816666667","6500800","鶯歌區"
"239004","193-VK","2018/08/24 18:39:36","新北市鶯歌區中正三路230巷5-6號","121.330563333333","24.9385266666667","6500800","鶯歌區"
"221008","489-VK","2018/08/24 18:39:47","新北市汐止區康寧街901號","121.651361666667","25.0749816666667","6501100","汐止區"
"221036","130-UY","2018/08/24 18:39:52","新北市汐止區忠孝東路314巷19弄14號","121.665011666667","25.068565","6501100","汐止區"
"221015","131-UY","2018/08/24 18:39:38","新北市汐止區鄉長路二段10號","121.66886","25.0808416666667","6501100","汐止區"
"221010","269-BY","2018/08/24 18:39:44","新北市汐止區汐萬路二段269號","121.646131666667","25.0888433333333","6501100","汐止區"
"221012","278-VK","2018/08/24 18:39:31","新北市汐止區長安路77巷22弄12號","121.669486666667","25.07909","6501100","汐止區"
"221023","279-VK","2018/08/24 18:39:33","新北市汐止區湖前街60號","121.63214","25.0699866666667","6501100","汐止區"
"221032","280-BY","2018/08/24 18:39:48","新北市汐止區民權街二段85號","121.619093333333","25.04774","6501100","汐止區"
"221027","281-BY","2018/08/24 18:39:38","新北市汐止區汐萬路一段256巷3號","121.65238","25.0745883333333","6501100","汐止區"
"221029","298-VK","2018/08/24 18:39:45","新北市汐止區樟樹一路131號","121.642171666667","25.065015","6501100","汐止區"
"221021","299-VK","2018/08/24 18:39:36","新北市汐止區新台五路一段159號","121.654045","25.0624966666667","6501100","汐止區"
"221031","353-TW","2018/08/24 18:39:43","新北市汐止區福德一路274號","121.632111666667","25.0639433333333","6501100","汐止區"
"221002","129-UY","2018/08/24 18:39:42","新北市汐止區中興路25號","121.636918333333","25.0596383333333","6501100","汐止區"
"221035","622-UM","2018/08/24 18:39:48","新北市汐止區大同路二段182號","121.652443333333","25.06421","6501100","汐止區"
"221025","623-UM","2018/08/24 18:39:42","新北市汐止區仁愛路119巷19號","121.662181666667","25.0642366666667","6501100","汐止區"
"221038","646-BX","2018/08/24 18:39:46","新北市汐止區康寧街901號","121.650706666667","25.0753116666667","6501100","汐止區"
"221033","647-BX","2018/08/24 18:39:40","新北市汐止區南勢街3號","121.627095","25.0374183333333","6501100","汐止區"
"221018","753-BX","2018/08/24 18:39:46","新北市汐止區茄苳路293號","121.67289","25.0674016666667","6501100","汐止區"
"220079","145-BY","2018/08/24 18:39:44","新北市板橋區大觀路一段31號","121.449831666667","25.0084566666667","6500100","板橋區"
"220080","200-UY","2018/08/24 18:39:42","新北市板橋區大觀路二段265巷76弄31號","121.441341666667","24.9967183333333","6500100","板橋區"
"220082","610-BX","2018/08/24 18:39:41","新北市板橋區大觀路三段5-4號","121.432656666667","24.9959283333333","6500100","板橋區"
"220056","276-BY","2018/08/24 18:39:39","新北市板橋區四川路二段121號","121.451196666667","24.9942016666667","6500100","板橋區"
"220072","277-BY","2018/08/24 18:39:42","新北市板橋區大觀路三段5-4號","121.432766666667","24.9959983333333","6500100","板橋區"
"220063","280-UM","2018/08/24 18:39:47","新北市板橋區民生路二段171號","121.469833333333","25.020085","6500100","板橋區"
"220071","283-VK","2018/08/24 18:39:30","新北市板橋區四川路二段2號","121.456445","24.9963916666667","6500100","板橋區"
"220094","285-UM","2018/08/24 18:39:36","新北市板橋區民生路二段161巷1號","121.470145","25.0198366666667","6500100","板橋區"
"220083","286-VK","2018/08/24 18:39:41","新北市板橋區大觀路二段101巷2號","121.446693333333","25.0014083333333","6500100","板橋區"
"220081","287-VK","2018/08/24 18:39:31","新北市板橋區大觀路一段51號","121.44776","25.0071583333333","6500100","板橋區"
"220090","288-VK","2018/08/24 18:39:34","新北市板橋區民生路二段120號","121.470445","25.0202283333333","6500100","板橋區"
"220061","295-UM","2018/08/24 18:39:40","新北市板橋區民生路二段161巷1號","121.470208333333","25.0199683333333","6500100","板橋區"
"220075","303-R5","2018/08/24 18:39:45","新北市板橋區大觀路二段111號","121.446131666667","25.0016666666667","6500100","板橋區"
"220062","305-R5","2018/08/24 18:39:32","新北市板橋區民生路二段120號","121.470438333333","25.0195666666667","6500100","板橋區"
"220098","317-R6","2018/08/24 18:39:50","新北市板橋區民生路二段120號","121.470338333333","25.0197533333333","6500100","板橋區"
"220064","486-VK","2018/08/24 18:39:35","新北市板橋區縣民大道一段106號","121.456971666667","25.0056416666667","6500100","板橋區"
"220035","560-BX","2018/08/24 18:39:46","新北市板橋區南雅西路二段145巷3號","121.451671666667","25.01157","6500100","板橋區"
"220103","561-BX","2018/08/24 18:39:40","新北市板橋區民生路二段120號","121.470395","25.0195766666667","6500100","板橋區"
"220057","686-BX","2018/08/24 18:39:34","新北市板橋區華東街11號","121.45135","24.9984116666667","6500100","板橋區"
"220077","687-BX","2018/08/24 18:39:32","新北市板橋區大觀路二段166巷5號","121.441025","24.9991466666667","6500100","板橋區"
"220054","741-BX","2018/08/24 18:39:33","新北市板橋區南雅南路二段120-23號","121.451641666667","24.9987266666667","6500100","板橋區"
"220055","827-TW","2018/08/24 18:39:35","新北市板橋區南雅南路二段120-12號","121.452148333333","24.999445","6500100","板橋區"
"220074","895-R6","2018/08/24 18:39:38","新北市板橋區南雅南路二段90號","121.453595","25.0013883333333","6500100","板橋區"
"220073","985-R7","2018/08/24 18:39:39","新北市板橋區南雅南路二段11-18號","121.454795","25.001425","6500100","板橋區"
"220070","AAC-253","2018/08/24 18:39:47","新北市板橋區華東街11號","121.451186666667","24.9981833333333","6500100","板橋區"
"235068","KEA-2873","2018/08/24 18:39:26","新北市中和區中正路213號","121.496918333333","24.9937583333333","6500300","中和區"
"235061","KEA-2875","2018/08/24 18:39:40","新北市中和區民享街114巷2號","121.474373333333","24.9992583333333","6500300","中和區"
