"lineid","car","time","location","longitude","latitude","cityid","cityname"
"234046","148-BY","2018/08/24 19:39:43","新北市永和區永元路95巷1號","121.52249","25.0019333333333","6500400","永和區"
"234007","207-UY","2018/08/24 19:39:50","新北市中和區中和路390號","121.511105","25.0024266666667","6500400","永和區"
"234081","298-R6","2018/08/24 19:39:48","新北市永和區國中路104巷8弄12號","121.525071666667","25.006545","6500400","永和區"
"234038","336-UY","2018/08/24 19:39:41","新北市永和區民樂街31巷4號","121.527776666667","25.00148","6500400","永和區"
"234064","337-UY","2018/08/24 19:39:39","新北市永和區秀朗路一段192巷6弄12號","121.519013333333","25.0023833333333","6500400","永和區"
"234086","338-UY","2018/08/24 19:39:39","新北市永和區永亨路153號","121.525686666667","25.0038933333333","6500400","永和區"
"234070","552-UM","2018/08/24 19:39:46","新北市永和區永和路二段233號","121.515618333333","25.0142183333333","6500400","永和區"
"234017","745-BX","2018/08/24 19:39:48","新北市永和區永和路二段425巷41號","121.514098333333","25.0174683333333","6500400","永和區"
"234030","746-BX","2018/08/24 19:39:31","新北市永和區民生路35號","121.522865","24.99815","6500400","永和區"
"234054","KEA-2590","2018/08/24 19:39:42","新北市永和區竹林路39巷21號","121.518985","25.0148366666667","6500400","永和區"
"234013","KEA-2591","2018/08/24 19:39:53","新北市永和區仁愛路240號","121.508275","25.0116466666667","6500400","永和區"
"234061","AAD-866","2018/08/24 19:39:38","新北市永和區中正路458號","121.517668333333","25.002995","6500400","永和區"
"234042","862-TW","2018/08/24 19:39:52","新北市永和區中和路305巷2弄2號","121.506676666667","25.0000283333333","6500400","永和區"
"234050","863-TW","2018/08/24 19:39:51","新北市永和區保安路132號","121.50892","25.0153966666667","6500400","永和區"
"234026","9371-KE","2018/08/24 19:39:47","新北市永和區中和路505號","121.51066","25.00248","6500400","永和區"
"249004","303-UY","2018/08/24 19:39:36","新北市八里區中山路一段268巷43號","121.413831666667","25.16014","6502300","八里區"
"249002","305-UY","2018/08/24 19:39:42","新北市八里區頂寮二街33-1號","121.450311666667","25.1252316666667","6502300","八里區"
"249003","593-UM","2018/08/24 19:39:42","新北市八里區中華路二段530號","121.39932","25.145765","6502300","八里區"
"248014","025-BX","2018/08/24 19:39:34","新北市五股區五福路68巷1弄7號","121.433203333333","25.0905833333333","6501500","五股區"
"248016","026-BX","2018/08/24 19:39:36","新北市五股區成泰路四段88號","121.457241666667","25.1112066666667","6501500","五股區"
"248008","095-VK","2018/08/24 19:39:34","新北市五股區四維路118巷10弄1號","121.468868333333","25.074295","6501500","五股區"
"248018","225-UY","2018/08/24 19:39:34","新北市五股區外寮路3號","121.42477","25.076885","6501500","五股區"
"248012","247-BX","2018/08/24 19:39:48","新北市五股區成泰路一段241巷7弄1號","121.436045","25.0809083333333","6501500","五股區"
"248010","272-BY","2018/08/24 19:39:51","新北市五股區自強路144號","121.432236666667","25.0707866666667","6501500","五股區"
"248004","677-BX","2018/08/24 19:39:48","新北市五股區成泰路一段231-13號","121.43547","25.0777183333333","6501500","五股區"
"248002","678-BX","2018/08/24 19:39:52","新北市五股區成泰路三段577巷45號","121.45081","25.10318","6501500","五股區"
"234077","969-R7","2018/08/24 19:39:37","新北市永和區民族街67巷20號","121.519575","24.9971133333333","6500400","永和區"
"234074","AAC-211","2018/08/24 19:39:44","新北市永和區福和路88號","121.522645","25.0079666666667","6500400","永和區"
"234067","AAC-212","2018/08/24 19:39:34","新北市永和區永貞路422號","121.508601666667","25.00821","6500400","永和區"
"234003","AAC-295","2018/08/24 19:39:45","新北市永和區自由街69號","121.513515","25.00537","6500400","永和區"
"244023","483-VK","2018/08/24 19:39:42","新北市林口區文林四街一段33巷21號","121.373803333333","25.0858883333333","6501700","林口區"
"243013","AAD-798","2018/08/24 19:39:34","新北市泰山區應化街7號","121.4239","25.0437266666667","6501600","泰山區"
"243009","297-R6","2018/08/24 19:39:53","新北市五股區成泰路一段9號","121.433548333333","25.066535","6501600","泰山區"
"243016","KEA-2801","2018/08/24 19:39:40","新北市泰山區明志路三段427號","121.42083","25.0332816666667","6501600","泰山區"
"243015","421-VK","2018/08/24 19:39:31","新北市泰山區明志路二段239號","121.427331666667","25.0480716666667","6501600","泰山區"
"243011","KEA-2215","2018/08/24 19:39:38","新北市泰山區明志路三段145巷69號","121.428293333333","25.0387066666667","6501600","泰山區"
"243010","KEA-2216","2018/08/24 19:39:45","新北市泰山區中港西路498巷36號","121.431686666667","25.05282","6501600","泰山區"
"243012","646-TV","2018/08/24 19:39:37","新北市泰山區仁愛路100巷27號","121.433451666667","25.0551","6501600","泰山區"
"243014","680-BX","2018/08/24 19:39:47","新北市泰山區泰林路二段33-7號","121.43523","25.0565316666667","6501600","泰山區"
"222003","436-BY","2018/08/24 19:31:34","新北市深坑區深南路51號","121.62107","25.0097833333333","6501800","深坑區"
"222002","659-BX","2018/08/24 19:39:44","新北市深坑區北深路一段177號","121.632553333333","25.01089","6501800","深坑區"
"231044","001-UM","2018/08/24 19:39:48","新北市新店區北新路三段179號","121.54102","24.984415","6500600","新店區"
"231041","002-UM","2018/08/24 19:39:40","新北市新店區中正路487號","121.533851666667","24.9821233333333","6500600","新店區"
"231059","046-UY","2018/08/24 19:39:35","新北市新店區安和路三段53號","121.517998333333","24.98273","6500600","新店區"
"231040","047-UY","2018/08/24 19:39:48","新北市新店區北新路一段126巷32號","121.54337","24.9689833333333","6500600","新店區"
"231046","107-UY","2018/08/24 19:39:40","新北市新店區中正路329巷1弄2號","121.535575","24.9748483333333","6500600","新店區"
"231053","108-UY","2018/08/24 19:39:34","新北市新店區新烏路二段315號","121.549585","24.9111966666667","6500600","新店區"
"231048","187-VK","2018/08/24 19:39:52","新北市新店區五峰路63巷8弄25號","121.547528333333","24.96935","6500600","新店區"
"231054","KEA-2219","2018/08/24 19:39:50","新北市新店區文中路45號","121.53965","24.956665","6500600","新店區"
"231057","256-BX","2018/08/24 19:39:48","新北市新店區橘園一路11號","121.548133333333","24.9341416666667","6500600","新店區"
"231042","268-BY","2018/08/24 19:39:32","新北市新店區中興路一段188號","121.543296666667","24.9649533333333","6500600","新店區"
"231051","278-BY","2018/08/24 19:39:36","新北市新店區中央四街40號","121.528115","24.97465","6500600","新店區"
"231050","AAD-862","2018/08/24 19:39:33","新北市新店區秀水路50號","121.555485","24.956505","6500600","新店區"
"231058","3713-VJ","2018/08/24 19:39:34","新北市新店區北新路二段2號","121.542825","24.9707366666667","6500600","新店區"
"231066","4716-K9","2018/08/24 19:39:48","新北市新店區安康路三段236號","121.487923333333","24.95181","6500600","新店區"
"231056","4715-K9","2018/08/24 19:39:46","新北市新店區安民街121巷12號","121.515388333333","24.9691516666667","6500600","新店區"
"231067","4772-VM","2018/08/24 19:39:47","新北市新店區安德街60巷19號","121.510391666667","24.9631516666667","6500600","新店區"
"231065","512-UM","2018/08/24 19:39:35","新北市新店區安祥路109巷85弄7號","121.478016666667","24.9603133333333","6500600","新店區"
"231049","513-UM","2018/08/24 19:39:52","新北市新店區大豐路65號","121.539605","24.97958","6500600","新店區"
"231045","617-UM","2018/08/24 19:39:44","新北市新店區北宜路二段431-9號","121.56099","24.954405","6500600","新店區"
"231061","619-UM","2018/08/24 19:39:48","新北市新店區吉安街30號","121.516138333333","24.9659383333333","6500600","新店區"
"231063","641-BX","2018/08/24 19:39:46","新北市新店區達觀路26號","121.501941666667","24.9405383333333","6500600","新店區"
"231064","719-UM","2018/08/24 19:39:37","新北市新店區安和路一段52巷2-1號","121.51766","24.9662566666667","6500600","新店區"
"231062","720-UM","2018/08/24 19:39:38","新北市新店區碧潭路19號","121.534398333333","24.9561983333333","6500600","新店區"
"231060","897-TW","2018/08/24 19:39:46","新北市新店區安康路二段159巷2號","121.510328333333","24.9593433333333","6500600","新店區"
"231043","899-TW","2018/08/24 19:39:35","新北市新店區北新路二段70號","121.542978333333","24.97255","6500600","新店區"
"231055","AKT-0513","2018/08/24 19:39:33","新北市新店區中華路83巷61號","121.538401666667","24.9674716666667","6500600","新店區"
"241011","013-R5","2018/08/24 19:39:47","新北市三重區秀江街211號","121.497521666667","25.0716516666667","6500200","三重區"
"241028","022-UY","2018/08/24 19:39:39","新北市三重區中正南路157號","121.493871666667","25.0561533333333","6500200","三重區"
"241008","059-VK","2018/08/24 19:39:32","新北市三重區永福街139號","121.478541666667","25.0765966666667","6500200","三重區"
"241022","060-VK","2018/08/24 19:39:32","新北市三重區中正北路166號","121.484335","25.066165","6500200","三重區"
"241031","061-VK","2018/08/24 19:39:33","新北市三重區重新路四段248號","121.486073333333","25.053475","6500200","三重區"
"241015","062-VK","2018/08/24 19:39:43","新北市三重區福德北路34號","121.502061666667","25.0651566666667","6500200","三重區"
"241017","063-VK","2018/08/24 19:39:48","新北市三重區重陽路三段5巷42號","121.491911666667","25.06498","6500200","三重區"
"241026","066-VK","2018/08/24 19:39:31","新北市三重區文化南路65巷47號","121.498756666667","25.0606433333333","6500200","三重區"
"241003","091-VK","2018/08/24 19:39:39","新北市三重區五華街93巷89號","121.493966666667","25.0849316666667","6500200","三重區"
"241023","265-UM","2018/08/24 19:39:44","新北市三重區忠孝路三段125-1號","121.479983333333","25.063625","6500200","三重區"
"241009","267-UM","2018/08/24 19:39:46","新北市三重區三和路四段406巷20號","121.480375","25.0794066666667","6500200","三重區"
"241032","269-UM","2018/08/24 19:39:41","新北市三重區重陽路一段60巷38號","121.485103333333","25.0581616666667","6500200","三重區"
"241013","270-UM","2018/08/24 19:39:49","新北市三重區仁賢街7號","121.495845","25.0746166666667","6500200","三重區"
"241025","271-UM","2018/08/24 19:39:35","新北市三重區頂崁街141號","121.47776","25.0651433333333","6500200","三重區"
"241007","398-BY","2018/08/24 19:39:38","新北市三重區仁美街62號","121.486455","25.078275","6500200","三重區"
"241035","KEA-2210","2018/08/24 19:39:51","新北市三重區正義北路63號","121.497486666667","25.06457","6500200","三重區"
"241020","413-TH","2018/08/24 19:39:46","新北市三重區三和路四段15號","121.491201666667","25.0741183333333","6500200","三重區"
"241030","480-VK","2018/08/24 19:39:34","新北市三重區新興路29號","121.492113333333","25.0534733333333","6500200","三重區"
"241014","543-UM","2018/08/24 19:39:30","新北市三重區河邊北街82號","121.504255","25.0690083333333","6500200","三重區"
"241001","547-UM","2018/08/24 19:39:40","新北市三重區仁愛街315巷21號","121.49365","25.079855","6500200","三重區"
"241019","KEA-2593","2018/08/24 19:39:34","新北市三重區六張街194巷1弄5號","121.488328333333","25.0682433333333","6500200","三重區"
"241006","AAD-863","2018/08/24 19:39:49","新北市三重區永福街291號","121.483568333333","25.0744966666667","6500200","三重區"
"241012","941-UM","2018/08/24 19:39:44","新北市三重區河邊北街256巷33號","121.500585","25.0759233333333","6500200","三重區"
"241029","942-UM","2018/08/24 19:39:36","新北市三重區重安街86號","121.492223333333","25.056545","6500200","三重區"
"235066","003-UY","2018/08/24 19:39:41","新北市中和區南華路89號","121.505671666667","24.9974583333333","6500300","中和區"
"235064","005-UY","2018/08/24 19:39:34","新北市中和區南山路127巷16號","121.503305","24.9973316666667","6500300","中和區"
"235063","006-UY","2018/08/24 19:39:49","新北市中和區中正路262號","121.49535","24.994345","6500300","中和區"
"235056","096-UM","2018/08/24 19:39:46","新北市中和區員山路581巷31弄29號","121.47658","25.0103233333333","6500300","中和區"
"235039","097-UM","2018/08/24 19:39:34","新北市中和區景平路148號","121.518408333333","24.9918416666667","6500300","中和區"
"235065","098-UM","2018/08/24 19:39:50","新北市中和區中山路二段201號","121.49977","25.0026333333333","6500300","中和區"
"235040","150-BY","2018/08/24 19:39:36","新北市中和區安平路30號","121.509558333333","24.9946666666667","6500300","中和區"
"235058","151-BY","2018/08/24 19:39:48","新北市中和區連城路372-3號","121.48153","24.995405","6500300","中和區"
"235055","183-VK","2018/08/24 19:39:50","新北市中和區中山路三段181巷2號","121.472795","25.0059516666667","6500300","中和區"
"235038","185-VK","2018/08/24 19:39:44","新北市中和區自強路27巷22號","121.521623333333","24.9932466666667","6500300","中和區"
"235049","186-VK","2018/08/24 19:39:51","新北市中和區景新街212號","121.506933333333","24.995185","6500300","中和區"
"235067","255-BX","2018/08/24 19:39:41","新北市中和區新生街288號","121.483555","24.9965633333333","6500300","中和區"
"235044","293-VK","2018/08/24 19:39:36","新北市中和區興南路一段103號","121.509438333333","24.9883166666667","6500300","中和區"
"235072","301-VK","2018/08/24 19:39:43","新北市中和區連城路265巷10弄1號","121.491646666667","24.9953316666667","6500300","中和區"
"235043","352-BY","2018/08/24 19:39:35","新北市中和區興南路一段20-1號","121.511285","24.99097","6500300","中和區"
"235042","KEA-2878","2018/08/24 19:39:45","新北市中和區景安路79巷37弄12號","121.507908333333","24.996045","6500300","中和區"
"235070","558-UM","2018/08/24 19:39:45","新北市中和區連勝街49號","121.498085","24.9972983333333","6500300","中和區"
"235045","565-BX","2018/08/24 19:39:32","新北市中和區景新街469號","121.513378333333","24.9880366666667","6500300","中和區"
"235054","640-BX","2018/08/24 19:39:34","新北市中和區國光街107巷2弄32號","121.469246666667","24.9990266666667","6500300","中和區"
"235060","647-TV","2018/08/24 19:39:32","新北市中和區中山路二段489號","121.482703333333","25.0049516666667","6500300","中和區"
"235047","732-UM","2018/08/24 19:39:44","新北市中和區南山路283巷12號","121.504658333333","24.99247","6500300","中和區"
"235046","733-UM","2018/08/24 19:39:42","新北市中和區景新街487號","121.513553333333","24.9873533333333","6500300","中和區"
"235071","783-BX","2018/08/24 19:39:53","新北市中和區新生街114巷1號","121.483451666667","25.00237","6500300","中和區"
"235057","801-TS","2018/08/24 19:39:42","新北市中和區員山路343號","121.4813","25.0016866666667","6500300","中和區"
"235041","802-TS","2018/08/24 19:39:49","新北市中和區永貞路229號","121.51337","25.0036816666667","6500300","中和區"
"235052","805-TS","2018/08/24 19:39:31","新北市中和區華新街206巷11號","121.506313333333","24.98239","6500300","中和區"
"235048","896-TW","2018/08/24 19:39:51","新北市中和區忠孝街1巷2-1號","121.509121666667","24.9830483333333","6500300","中和區"
"235053","900-TW","2018/08/24 19:39:50","新北市中和區國光街215巷8弄6號","121.466613333333","25.0009983333333","6500300","中和區"
"235051","157-BY","2018/08/24 19:39:48","新北市中和區中興街132巷1號","121.49963","24.9921633333333","6500300","中和區"
"235037","AAC-213","2018/08/24 19:39:32","新北市中和區秀朗路三段52號","121.5264","24.9954983333333","6500300","中和區"
"235059","AAC-215","2018/08/24 19:14:07","新北市中和區圓通路369巷10號","121.490636666667","24.9880833333333","6500300","中和區"
"220065","072-UY","2018/08/24 19:39:45","新北市板橋區國泰街39巷7弄3號","121.468758333333","25.00572","6500100","板橋區"
"220086","073-UY","2018/08/24 19:39:39","新北市板橋區復興街19號","121.457736666667","25.0174933333333","6500100","板橋區"
"220106","075-UY","2018/08/24 19:39:37","新北市板橋區民治街26巷8號","121.477608333333","25.0338183333333","6500100","板橋區"
"220069","AAD-861","2018/08/24 19:39:39","新北市板橋區稚暉街2巷62號","121.455453333333","25.00296","6500100","板橋區"
"247004","337-TH","2018/08/24 19:39:42","新北市蘆洲區長安街102巷61弄2號","121.462453333333","25.0822266666667","6501400","蘆洲區"
"247008","056-VK","2018/08/24 19:39:45","新北市蘆洲區中山一路165號","121.47527","25.0815266666667","6501400","蘆洲區"
"247002","002-UY","2018/08/24 19:39:34","新北市蘆洲區三民路595號","121.460913333333","25.0936766666667","6501400","蘆洲區"
"226004","205-ST","2018/08/24 19:39:39","新北市平溪區十分里十分街55號","121.775443333333","25.0413","6502400","平溪區"
"228001","670-TC","2018/08/24 19:39:35","新北市貢寮區真理里大澳街3號","121.924741666667","25.05567","6502600","貢寮區"
"228003","828-UM","2018/08/24 19:39:45","新北市貢寮區真理里美艷山街31號","121.92325","25.0690116666667","6502600","貢寮區"
"224010","AGQ-8101","2018/08/24 19:38:32","新北市瑞芳區基山街64號","121.844815","25.10851","6501200","瑞芳區"
"224002","639-TC","2018/08/24 19:39:35","新北市瑞芳區民享新村22號","121.817085","25.1054783333333","6501200","瑞芳區"
"227003","642-TC","2018/08/24 19:39:41","新北市雙溪區雙溪里太平路64號","121.865161666667","25.03592","6502500","雙溪區"
"227011","400-TW","2018/08/24 19:39:32","新北市雙溪區新基里新基北街18號","121.867171666667","25.0386566666667","6502500","雙溪區"
"222001","KEA-2212","2018/08/24 19:39:44","新北市深坑區北深路二段204號","121.612936666667","25.00155","6501800","深坑區"
"208002","KEA-2872","2018/08/24 19:39:48","新北市金山區中山路313巷8號","121.635343333333","25.2233616666667","6502700","金山區"
"208003","665-BX","2018/08/24 19:39:36","新北市金山區忠孝一路35號","121.63812","25.21964","6502700","金山區"
"208001","761-BX","2018/08/24 19:39:51","新北市金山區重和里六股林口20號","121.603043333333","25.2190116666667","6502700","金山區"
"251005","010-UM","2018/08/24 19:39:33","新北市淡水區原德路108巷2號","121.443321666667","25.1735533333333","6501000","淡水區"
"251008","181-VK","2018/08/24 19:39:34","新北市淡水區中正路32巷1號","121.430941666667","25.1752916666667","6501000","淡水區"
"251010","413-VK","2018/08/24 19:39:44","新北市淡水區崁頂三路113號","121.432371666667","25.2004833333333","6501000","淡水區"
"251012","441-VK","2018/08/24 19:39:35","新北市淡水區埤島6-10號","121.446","25.1941066666667","6501000","淡水區"
"251007","442-VK","2018/08/24 19:39:41","新北市淡水區中正東路一段111巷8號","121.454555","25.160545","6501000","淡水區"
"251001","559-UM","2018/08/24 19:39:38","新北市淡水區民權路41號","121.459738333333","25.140205","6501000","淡水區"
"251006","561-UM","2018/08/24 19:39:37","新北市淡水區中山北路一段207巷40號","121.442963333333","25.1793766666667","6501000","淡水區"
"251009","575-R6","2018/08/24 19:39:50","新北市淡水區中山北路一段196號","121.444773333333","25.1794016666667","6501000","淡水區"
"251011","650-BX","2018/08/24 19:39:36","新北市淡水區淡金路21號","121.456843333333","25.1599266666667","6501000","淡水區"
"207003","550-UM","2018/08/24 19:39:45","新北市萬里區大鵬里下社1-4號","121.647805","25.2158433333333","6502800","萬里區"
"207004","225-TW","2018/08/24 19:39:53","新北市萬里區萬里里瑪鋉路11號","121.68705","25.1752883333333","6502800","萬里區"
"252002","178-VK","2018/08/24 19:39:46","新北市三芝區三民街31號","121.504558333333","25.25857","6502100","三芝區"
"252001","292-VK","2018/08/24 19:39:36","新北市三芝區公正街9號","121.499751666667","25.2575366666667","6502100","三芝區"
"237007","153-BY","2018/08/24 19:39:33","新北市三峽區二鬮路136巷22弄3號","121.356493333333","24.91034","6500900","三峽區"
"237009","210-TH","2018/08/24 19:39:50","新北市三峽區中園街65號","121.368125","24.9257716666667","6500900","三峽區"
"237013","252-BX","2018/08/24 19:39:50","新北市三峽區橫溪路8號","121.396026666667","24.9360983333333","6500900","三峽區"
"237012","275-BY","2018/08/24 19:39:51","新北市三峽區光明路39-1號","121.374366666667","24.930025","6500900","三峽區"
"237008","302-VK","2018/08/24 19:39:46","新北市三峽區大同路147巷9號","121.37113","24.9264466666667","6500900","三峽區"
"237014","433-BY","2018/08/24 19:39:46","新北市三峽區嘉添67號","121.368668333333","24.9103916666667","6500900","三峽區"
"237006","5529-G3","2018/08/24 19:39:36","新北市三峽區中正路一段336巷15弄2號","121.369966666667","24.92494","6500900","三峽區"
"237015","649-BX","2018/08/24 19:39:42","新北市三峽區溪東路306號","121.410075","24.930585","6500900","三峽區"
"237005","AKY-6261","2018/08/24 19:39:51","新北市三峽區中山路184巷1弄1號","121.363621666667","24.93691","6500900","三峽區"
"236069","105-UM","2018/08/24 19:39:30","新北市土城區金城路一段112號","121.446288333333","24.9751366666667","6501300","土城區"
"236042","107-UM","2018/08/24 19:39:35","新北市土城區裕民路253號","121.45472","24.983045","6501300","土城區"
"236079","166-UM","2018/08/24 19:39:46","新北市土城區中央路四段278號","121.414515","24.956475","6501300","土城區"
"236030","253-BX","2018/08/24 19:39:48","新北市土城區福祥街64號","121.441591666667","24.98155","6501300","土城區"
"236026","269-VK","2018/08/24 19:39:33","新北市土城區中央路二段61巷26號","121.44331","24.9786316666667","6501300","土城區"
"236039","271-VK","2018/08/24 19:39:34","新北市土城區青雲路281巷13弄6號","121.459785","24.9804316666667","6501300","土城區"
"236020","401-BY","2018/08/24 19:39:46","新北市土城區金城路三段198號","121.468693333333","24.987815","6501300","土城區"
"236048","913-UM","2018/08/24 19:39:46","新北市土城區明德路一段178號","121.462465","24.9781466666667","6501300","土城區"
"236063","915-UM","2018/08/24 19:39:43","新北市土城區延平街69巷2號","121.4675","24.9928266666667","6501300","土城區"
"236055","AAC-216","2018/08/24 19:39:47","新北市土城區學府路一段83號","121.456636666667","24.9881566666667","6501300","土城區"
"242023","705-TV","2018/08/24 19:39:43","新北市新莊區復興路三段117號","121.464411666667","25.04453","6500500","新莊區"
"242046","497-BY","2018/08/24 19:39:37","新北市新莊區裕民街19巷4號","121.419676666667","25.02524","6500500","新莊區"
"242019","442-UM","2018/08/24 19:39:30","新北市新莊區新泰路277巷17號","121.445155","25.0402316666667","6500500","新莊區"
"242039","133-UY","2018/08/24 19:39:48","新北市新莊區建國二路83-14號","121.430793333333","25.0254666666667","6500500","新莊區"
"242032","135-UY","2018/08/24 19:39:46","新北市新莊區公園一路135號","121.446138333333","25.0381766666667","6500500","新莊區"
"242011","173-VK","2018/08/24 19:39:30","新北市新莊區三和路12-21號","121.442156666667","25.0387366666667","6500500","新莊區"
"242005","176-VK","2018/08/24 19:39:48","新北市新莊區化成路29巷61號","121.462448333333","25.0439116666667","6500500","新莊區"
"242021","348-TH","2018/08/24 19:39:42","新北市新莊區景德路233號","121.448825","25.0335916666667","6500500","新莊區"
"238015","755-BX","2018/08/24 19:39:44","新北市樹林區中山路一段96號","121.423191666667","24.9911733333333","6500700","樹林區"
"238023","601-UM","2018/08/24 19:39:36","新北市樹林區中正路675號","121.412038333333","25.0133316666667","6500700","樹林區"
"238024","5061-A6","2018/08/24 19:39:46","新北市樹林區中山路三段22號","121.395753333333","24.9730133333333","6500700","樹林區"
"238022","KEA-2213","2018/08/24 19:39:37","新北市樹林區國凱街49號","121.42085","24.9791233333333","6500700","樹林區"
"238021","KEA-2539","2018/08/24 19:39:50","新北市樹林區佳園路三段101巷38弄45號","121.391783333333","24.9501383333333","6500700","樹林區"
"238025","303-VK","2018/08/24 19:39:37","新北市樹林區中山路二段168號","121.412196666667","24.98263","6500700","樹林區"
"238014","282-BY","2018/08/24 19:39:39","新北市樹林區千歲街46巷11號","121.426703333333","24.996665","6500700","樹林區"
"239007","AAC-297","2018/08/24 19:39:41","新北市鶯歌區西湖街53巷30-1號","121.341976666667","24.960825","6500800","鶯歌區"
"239006","891-R6","2018/08/24 19:39:36","新北市鶯歌區中正一路415號","121.360476666667","24.95696","6500800","鶯歌區"
"239002","359-BY","2018/08/24 19:39:31","新北市鶯歌區中正一路460號","121.364483333333","24.95644","6500800","鶯歌區"
"221008","489-VK","2018/08/24 19:39:47","新北市汐止區康寧街61巷24號","121.61949","25.0673666666667","6501100","汐止區"
"221036","130-UY","2018/08/24 19:39:32","新北市汐止區康寧街901號","121.650888333333","25.0752683333333","6501100","汐止區"
"221015","131-UY","2018/08/24 19:39:38","新北市汐止區康寧街901號","121.651068333333","25.0751433333333","6501100","汐止區"
"221010","269-BY","2018/08/24 19:39:44","新北市汐止區汐萬路一段411號","121.649118333333","25.07948","6501100","汐止區"
"221012","278-VK","2018/08/24 19:39:51","新北市汐止區大同路三段392號","121.681525","25.0716333333333","6501100","汐止區"
"221023","279-VK","2018/08/24 19:39:32","新北市汐止區明峰街190號","121.628163333333","25.0696283333333","6501100","汐止區"
"221032","280-BY","2018/08/24 19:39:48","新北市汐止區大同路二段171號","121.651691666667","25.06485","6501100","汐止區"
"221027","281-BY","2018/08/24 19:39:38","新北市汐止區忠孝東路9號","121.658318333333","25.0660166666667","6501100","汐止區"
"221021","299-VK","2018/08/24 19:39:43","新北市汐止區南興路28號","121.652221666667","25.0613216666667","6501100","汐止區"
"221031","353-TW","2018/08/24 19:39:43","新北市汐止區康寧街901號","121.650705","25.0754116666667","6501100","汐止區"
"221002","129-UY","2018/08/24 19:39:22","新北市汐止區大同路一段219巷27號","121.63321","25.0584433333333","6501100","汐止區"
"221035","622-UM","2018/08/24 19:39:48","新北市汐止區康寧街901號","121.651536666667","25.07495","6501100","汐止區"
"221025","623-UM","2018/08/24 19:39:42","新北市汐止區福安街20巷5號","121.662471666667","25.0648983333333","6501100","汐止區"
"221038","646-BX","2018/08/24 19:39:46","新北市汐止區忠孝東路250號","121.662931666667","25.0673566666667","6501100","汐止區"
"221033","647-BX","2018/08/24 19:39:40","新北市汐止區南勢街1巷6號","121.626726666667","25.03753","6501100","汐止區"
"220079","145-BY","2018/08/24 19:39:44","新北市板橋區建國街77號","121.459288333333","25.0174016666667","6500100","板橋區"
"220080","200-UY","2018/08/24 19:39:48","新北市板橋區大觀路二段37巷50號","121.448986666667","25.00258","6500100","板橋區"
"220082","610-BX","2018/08/24 19:39:41","新北市板橋區大觀路三段236-6號","121.429193333333","24.9923533333333","6500100","板橋區"
"220101","245-BX","2018/08/24 19:39:43","新北市板橋區莊敬路254號","121.474035","25.02144","6500100","板橋區"
"220056","276-BY","2018/08/24 19:39:49","新北市板橋區四川路二段47巷6弄2號","121.454196666667","24.9945183333333","6500100","板橋區"
"220072","277-BY","2018/08/24 19:39:42","新北市板橋區金門街151巷25號","121.434168333333","24.9901583333333","6500100","板橋區"
"220063","280-UM","2018/08/24 19:39:49","新北市板橋區中山路二段531巷17弄7號","121.482596666667","25.02203","6500100","板橋區"
"220071","283-VK","2018/08/24 19:39:50","新北市板橋區五權街32巷23號","121.464078333333","24.99273","6500100","板橋區"
"220094","285-UM","2018/08/24 19:39:47","新北市板橋區宏國路77巷2弄9號","121.469658333333","25.0325216666667","6500100","板橋區"
"220053","285-VK","2018/08/24 19:39:48","新北市板橋區民享街65巷16號","121.476881666667","25.0159366666667","6500100","板橋區"
"220083","286-VK","2018/08/24 19:39:41","新北市板橋區龍興街71巷5號","121.443506666667","25.00189","6500100","板橋區"
"220081","287-VK","2018/08/24 19:39:31","新北市板橋區大觀路一段29巷91號","121.450501666667","25.00636","6500100","板橋區"
"220090","288-VK","2018/08/24 19:39:35","新北市板橋區裕民街112號","121.45944","25.0278383333333","6500100","板橋區"
"220061","295-UM","2018/08/24 19:39:40","新北市板橋區中山路一段279號","121.46939","25.0137733333333","6500100","板橋區"
"220084","296-UM","2018/08/24 19:39:48","新北市板橋區溪崑二街124巷24號","121.425286666667","24.9885716666667","6500100","板橋區"
"220075","303-R5","2018/08/24 19:39:45","新北市板橋區中正路214號","121.455906666667","25.0182433333333","6500100","板橋區"
"220062","305-R5","2018/08/24 19:39:52","新北市板橋區三民路二段83號","121.479381666667","25.01665","6500100","板橋區"
"220092","307-R5","2018/08/24 19:39:50","新北市板橋區陽明街164巷8號","121.463815","25.024455","6500100","板橋區"
"220098","317-R6","2018/08/24 19:39:30","新北市板橋區裕民街93巷6號","121.460456666667","25.0276933333333","6500100","板橋區"
"220064","486-VK","2018/08/24 19:39:35","新北市板橋區中山路一段66號","121.461471666667","25.0098116666667","6500100","板橋區"
"220088","491-VK","2018/08/24 19:39:47","新北市板橋區仁化街139號","121.477421666667","25.0329016666667","6500100","板橋區"
"220035","560-BX","2018/08/24 19:39:46","新北市板橋區新生街89巷6號","121.458025","25.0222316666667","6500100","板橋區"
"220103","561-BX","2018/08/24 19:39:40","新北市板橋區文化路一段288號","121.467393333333","25.0214716666667","6500100","板橋區"
"220091","637-BX","2018/08/24 19:39:51","新北市板橋區懷德街129號","121.479053333333","25.0306116666667","6500100","板橋區"
"220057","686-BX","2018/08/24 19:39:34","新北市板橋區和平路安樂巷35號","121.461906666667","24.993385","6500100","板橋區"
"220077","687-BX","2018/08/24 19:39:32","新北市板橋區僑中一街120號","121.446013333333","25.01179","6500100","板橋區"
"220093","689-BX","2018/08/24 19:39:51","新北市板橋區長江路一段153號","121.461093333333","25.0304766666667","6500100","板橋區"
"220054","741-BX","2018/08/24 19:39:33","新北市板橋區忠孝路204號","121.465978333333","25.00275","6500100","板橋區"
"220102","KEA-2699","2018/08/24 19:39:44","新北市板橋區松柏街36巷27號","121.475638333333","25.0292233333333","6500100","板橋區"
"220055","827-TW","2018/08/24 19:39:35","新北市板橋區國慶路149巷2弄1-4號","121.461323333333","24.9965783333333","6500100","板橋區"
"220067","829-TW","2018/08/24 19:39:39","新北市板橋區長安街259巷1-1號","121.472966666667","25.01036","6500100","板橋區"
"220068","830-TW","2018/08/24 19:39:35","新北市板橋區中山路二段422-3號","121.483258333333","25.0211966666667","6500100","板橋區"
"220096","831-TW","2018/08/24 19:39:48","新北市板橋區民生路二段250號","121.468666666667","25.0232366666667","6500100","板橋區"
"220089","833-TW","2018/08/24 19:39:49","新北市板橋區陽明街249號","121.462636666667","25.0250033333333","6500100","板橋區"
"220074","895-R6","2018/08/24 19:39:41","新北市板橋區府中路111號","121.45639","25.00958","6500100","板橋區"
"220073","985-R7","2018/08/24 19:39:39","新北市板橋區國光路69號","121.459286666667","25.018045","6500100","板橋區"
"220097","AAC-210","2018/08/24 19:39:48","新北市板橋區幸福路32巷3號","121.461483333333","25.0206183333333","6500100","板橋區"
"220070","AAC-253","2018/08/24 19:39:47","新北市板橋區民族路208號","121.46831","25.0075083333333","6500100","板橋區"
"235068","KEA-2873","2018/08/24 19:39:29","新北市中和區廟美街5號","121.500711666667","25.00145","6500300","中和區"
"235061","KEA-2875","2018/08/24 19:39:40","新北市中和區民安街2巷35弄3號","121.479803333333","25.0015383333333","6500300","中和區"
