"lineid","car","time","location","longitude","latitude","cityid","cityname"
"234046","148-BY","2018/08/24 20:09:10","新北市永和區得和路408號","121.525803333333","24.9990916666667","6500400","永和區"
"234007","207-UY","2018/08/24 20:09:10","新北市永和區保順路11號","121.504325","25.0096583333333","6500400","永和區"
"234081","298-R6","2018/08/24 20:09:23","新北市永和區國中路86巷1號","121.524651666667","25.0062233333333","6500400","永和區"
"234038","336-UY","2018/08/24 20:09:02","新北市永和區成功路一段74號","121.526695","25.00338","6500400","永和區"
"234064","337-UY","2018/08/24 20:09:15","新北市永和區永利路92號","121.520788333333","25.0037583333333","6500400","永和區"
"234086","338-UY","2018/08/24 20:09:19","新北市永和區福和路271號","121.517621666667","25.0072683333333","6500400","永和區"
"234070","552-UM","2018/08/24 20:09:06","新北市永和區福和路217號","121.519143333333","25.0075166666667","6500400","永和區"
"234017","745-BX","2018/08/24 20:09:08","新北市永和區文化路130號","121.512826666667","25.0153033333333","6500400","永和區"
"234030","746-BX","2018/08/24 20:09:10","新北市永和區民權路49巷35號","121.52192","24.9976066666667","6500400","永和區"
"234054","KEA-2590","2018/08/24 20:09:22","新北市永和區博愛街21巷1號","121.517661666667","25.0158416666667","6500400","永和區"
"234013","KEA-2591","2018/08/24 20:09:13","新北市永和區永貞路415號","121.507373333333","25.0093266666667","6500400","永和區"
"234061","AAD-866","2018/08/24 20:09:18","新北市永和區中正路129巷7號","121.51547","24.9981633333333","6500400","永和區"
"234042","862-TW","2018/08/24 20:09:12","新北市永和區雙和街3號","121.509808333333","25.00168","6500400","永和區"
"234050","863-TW","2018/08/24 20:09:11","新北市永和區環河西路二段97號","121.50656","25.014755","6500400","永和區"
"234026","9371-KE","2018/08/24 20:09:04","新北市永和區保生路55-1號","121.504778333333","25.0112733333333","6500400","永和區"
"234011","9373-KE","2018/08/24 20:09:10","新北市永和區仁愛路352巷122弄13號","121.500688333333","25.009015","6500400","永和區"
"249005","172-UM","2018/08/24 20:09:11","新北市八里區下罟子58-1號","121.38765","25.1386116666667","6502300","八里區"
"249001","173-UM","2018/08/24 20:09:08","新北市八里區中華路二段310號","121.403806666667","25.14841","6502300","八里區"
"249004","303-UY","2018/08/24 20:09:16","新北市八里區中山路一段398巷51弄12號","121.410885","25.1587833333333","6502300","八里區"
"249002","305-UY","2018/08/24 20:09:22","新北市八里區龍米路一段30巷8號","121.457146666667","25.1167316666667","6502300","八里區"
"249003","593-UM","2018/08/24 20:09:21","新北市八里區中山路二段540巷3號","121.397038333333","25.1468516666667","6502300","八里區"
"248014","025-BX","2018/08/24 20:09:14","新北市五股區新城三路61號","121.449135","25.0936283333333","6501500","五股區"
"248016","026-BX","2018/08/24 20:09:16","新北市五股區天乙路56號","121.448268333333","25.1043966666667","6501500","五股區"
"248008","095-VK","2018/08/24 20:09:14","新北市三重區中正北路560巷47-9號","121.470005","25.07043","6501500","五股區"
"248018","225-UY","2018/08/24 20:09:14","新北市五股區登林路49號","121.431021666667","25.0691933333333","6501500","五股區"
"248012","247-BX","2018/08/24 20:09:11","新北市五股區六合街118號","121.430311666667","25.090825","6501500","五股區"
"248010","272-BY","2018/08/24 20:09:20","新北市五股區成泰路一段7巷17號","121.43253","25.0670133333333","6501500","五股區"
"248004","677-BX","2018/08/24 20:09:08","新北市五股區成泰路一段239號","121.436873333333","25.080845","6501500","五股區"
"248002","678-BX","2018/08/24 20:09:12","新北市五股區成泰路三段323-1號","121.448156666667","25.09498","6501500","五股區"
"234023","9380-KE","2018/08/24 20:09:20","新北市永和區永和路二段99號","121.514896666667","25.0115966666667","6500400","永和區"
"234077","969-R7","2018/08/24 20:09:17","新北市永和區智光街115號","121.51558","24.99609","6500400","永和區"
"234074","AAC-211","2018/08/24 20:09:04","新北市永和區豫溪街185號","121.522498333333","25.0103516666667","6500400","永和區"
"234067","AAC-212","2018/08/24 20:09:14","新北市永和區保平路214巷1弄2號","121.509393333333","25.0061366666667","6500400","永和區"
"234003","AAC-295","2018/08/24 20:09:04","新北市永和區中正路618-1號","121.517013333333","25.0077516666667","6500400","永和區"
"243013","AAD-798","2018/08/24 20:09:14","新北市泰山區明志路三段74巷11號","121.424301666667","25.041605","6501600","泰山區"
"243009","297-R6","2018/08/24 20:09:13","新北市泰山區泰林路二段138號","121.43427","25.05982","6501600","泰山區"
"243016","KEA-2801","2018/08/24 20:09:20","新北市泰山區貴陽街29號","121.42241","25.03306","6501600","泰山區"
"243015","421-VK","2018/08/24 20:09:12","新北市泰山區明志路一段332號","121.431121666667","25.0588633333333","6501600","泰山區"
"243011","KEA-2215","2018/08/24 20:09:18","新北市新莊區壽山路8號","121.421191666667","25.028835","6501600","泰山區"
"243010","KEA-2216","2018/08/24 20:09:05","新北市泰山區明志路二段136巷16號","121.42677","25.0514366666667","6501600","泰山區"
"243012","646-TV","2018/08/24 20:09:17","新北市泰山區楓江路46巷11號","121.435503333333","25.0617683333333","6501600","泰山區"
"243014","680-BX","2018/08/24 20:09:17","新北市泰山區明志路一段95號","121.433505","25.0640433333333","6501600","泰山區"
"222003","436-BY","2018/08/24 20:09:14","新北市深坑區埔新街65號","121.620195","25.0023633333333","6501800","深坑區"
"222002","659-BX","2018/08/24 20:09:04","新北市深坑區北深路三段158巷28號","121.601856666667","25.0042583333333","6501800","深坑區"
"231044","001-UM","2018/08/24 20:09:08","新北市新店區寶慶街58巷4號","121.542133333333","24.9869016666667","6500600","新店區"
"231041","002-UM","2018/08/24 20:09:20","新北市新店區中正路468號","121.534016666667","24.9794283333333","6500600","新店區"
"231059","046-UY","2018/08/24 20:09:14","新北市新店區安成街24號","121.510216666667","24.9609033333333","6500600","新店區"
"231040","047-UY","2018/08/24 20:09:10","新北市新店區中正路110號","121.542946666667","24.97059","6500600","新店區"
"231053","108-UY","2018/08/24 20:09:14","新北市新店區新烏路三段寶島巷2弄1號","121.552058333333","24.89871","6500600","新店區"
"231048","187-VK","2018/08/24 20:09:16","新北市新店區寶橋路61號","121.54518","24.97509","6500600","新店區"
"231054","KEA-2219","2018/08/24 20:09:10","新北市新店區光明街314號","121.540868333333","24.965015","6500600","新店區"
"231057","256-BX","2018/08/24 20:09:08","新北市新店區花園一路一段2號","121.553168333333","24.932445","6500600","新店區"
"231042","268-BY","2018/08/24 20:09:12","新北市新店區中興路二段89號","121.54709","24.9714266666667","6500600","新店區"
"231051","278-BY","2018/08/24 20:09:16","新北市新店區中央七街10號","121.530206666667","24.9747366666667","6500600","新店區"
"231050","AAD-862","2018/08/24 20:09:13","新北市新店區北新路一段90號","121.54185","24.9685516666667","6500600","新店區"
"231058","3713-VJ","2018/08/24 20:09:14","新北市新店區安德街60巷35號","121.510995","24.96373","6500600","新店區"
"231066","4716-K9","2018/08/24 20:09:08","新北市新店區柴埕路45號","121.513776666667","24.965445","6500600","新店區"
"231056","4715-K9","2018/08/24 20:09:06","新北市新店區中正路275巷35號","121.536666666667","24.9727816666667","6500600","新店區"
"231067","4772-VM","2018/08/24 20:09:07","新北市新店區溪洲路101號","121.532615","24.9617183333333","6500600","新店區"
"231065","512-UM","2018/08/24 20:09:15","新北市新店區安祥路106巷210號","121.474006666667","24.9604983333333","6500600","新店區"
"231049","513-UM","2018/08/24 20:09:12","新北市新店區北新路二段139巷14號","121.542125","24.975715","6500600","新店區"
"231045","617-UM","2018/08/24 20:09:04","新北市新店區北宜路一段174號","121.540743333333","24.9529616666667","6500600","新店區"
"231061","619-UM","2018/08/24 20:09:08","新北市新店區安民街150號","121.516703333333","24.9698666666667","6500600","新店區"
"231063","641-BX","2018/08/24 20:09:06","新北市新店區黎明路52巷2號","121.501925","24.948885","6500600","新店區"
"231068","718-UY","2018/08/24 20:09:07","新北市新店區中興路三段1號","121.546165","24.9775483333333","6500600","新店區"
"231064","719-UM","2018/08/24 20:00:37","新北市新店區安民街32號","121.515795","24.9651766666667","6500600","新店區"
"231062","720-UM","2018/08/24 20:09:18","新北市新店區安康路二段116號","121.513181666667","24.9628966666667","6500600","新店區"
"231060","897-TW","2018/08/24 20:09:06","新北市新店區安康路三段456號","121.484326666667","24.9511833333333","6500600","新店區"
"231043","899-TW","2018/08/24 20:09:15","新北市新店區民族路164號","121.537341666667","24.9766183333333","6500600","新店區"
"231055","AKT-0513","2018/08/24 20:09:13","新北市新店區北新路一段297巷21號","121.540703333333","24.9679766666667","6500600","新店區"
"241011","013-R5","2018/08/24 20:09:07","新北市三重區三和路三段47巷14號","121.496046666667","25.071745","6500200","三重區"
"241028","022-UY","2018/08/24 20:09:19","新北市三重區仁化街125號","121.494651666667","25.0575466666667","6500200","三重區"
"241008","059-VK","2018/08/24 20:09:12","新北市三重區永福街197巷37弄3號","121.478225","25.0743366666667","6500200","三重區"
"241022","060-VK","2018/08/24 20:09:12","新北市三重區新北大道一段48號","121.487826666667","25.0614866666667","6500200","三重區"
"241031","061-VK","2018/08/24 20:09:13","新北市三重區過圳街19號","121.48865","25.06027","6500200","三重區"
"241015","062-VK","2018/08/24 20:09:03","新北市三重區福德北路24號","121.50221","25.0648783333333","6500200","三重區"
"241017","063-VK","2018/08/24 20:09:08","新北市三重區大同北路221巷62號","121.49284","25.066655","6500200","三重區"
"241024","065-VK","2018/08/24 20:09:09","新北市三重區中正北路169號","121.478773333333","25.06937","6500200","三重區"
"241026","066-VK","2018/08/24 20:09:11","新北市三重區福德南路65巷1號","121.502323333333","25.060545","6500200","三重區"
"241002","090-VK","2018/08/24 20:09:13","新北市三重區仁義街233號","121.496531666667","25.0824166666667","6500200","三重區"
"241003","091-VK","2018/08/24 20:09:19","新北市三重區富華街18號","121.489623333333","25.0825316666667","6500200","三重區"
"241023","265-UM","2018/08/24 20:09:16","新北市三重區頂崁街234巷1號","121.476853333333","25.0687183333333","6500200","三重區"
"241016","266-UM","2018/08/24 20:09:14","新北市三重區中正北路25巷14號","121.493443333333","25.063075","6500200","三重區"
"241009","267-UM","2018/08/24 20:09:06","新北市三重區永福街113號","121.47926","25.0772433333333","6500200","三重區"
"241018","268-UM","2018/08/24 20:09:03","新北市三重區正義北路256巷116號","121.493608333333","25.067845","6500200","三重區"
"241032","269-UM","2018/08/24 20:09:21","新北市三重區捷運路67號","121.483301666667","25.0555016666667","6500200","三重區"
"241013","270-UM","2018/08/24 20:09:17","新北市三重區三和路三段151巷56號","121.49383","25.0743316666667","6500200","三重區"
"241025","271-UM","2018/08/24 20:09:15","新北市三重區中正北路237號","121.475691666667","25.07081","6500200","三重區"
"241007","398-BY","2018/08/24 20:09:18","新北市三重區三和路四段111-31號","121.486698333333","25.077475","6500200","三重區"
"241035","KEA-2210","2018/08/24 20:09:15","新北市三重區平安街51號","121.4979","25.06419","6500200","三重區"
"241020","413-TH","2018/08/24 20:09:17","新北市三重區三和路三段158號","121.492836666667","25.0729466666667","6500200","三重區"
"241004","475-VK","2018/08/24 20:09:18","新北市三重區自強路四段100號","121.491276666667","25.07971","6500200","三重區"
"241030","480-VK","2018/08/24 20:09:19","新北市三重區集美街75巷27號","121.488016666667","25.053005","6500200","三重區"
"241014","543-UM","2018/08/24 20:09:10","新北市三重區長樂街101號","121.50154","25.0694783333333","6500200","三重區"
"241001","547-UM","2018/08/24 20:09:20","新北市三重區溪尾街26號","121.490838333333","25.0763233333333","6500200","三重區"
"241019","KEA-2593","2018/08/24 20:09:14","新北市三重區自強路二段46號","121.48911","25.06955","6500200","三重區"
"241006","AAD-863","2018/08/24 20:09:09","新北市三重區車路頭街139巷12號","121.48424","25.0762483333333","6500200","三重區"
"241005","887-TS","2018/08/24 20:09:12","新北市三重區溪尾街327號","121.488553333333","25.0847783333333","6500200","三重區"
"241012","941-UM","2018/08/24 20:09:04","新北市三重區仁愛街125巷28號","121.49766","25.0758766666667","6500200","三重區"
"241029","942-UM","2018/08/24 20:09:16","新北市三重區光明路32巷26號","121.491935","25.0587283333333","6500200","三重區"
"241033","AAC-255","2018/08/24 20:09:21","新北市三重區光復路一段70號","121.471863333333","25.0494416666667","6500200","三重區"
"235066","003-UY","2018/08/24 20:09:21","新北市中和區中山路二段3巷32號","121.50717","25.005055","6500300","中和區"
"235063","006-UY","2018/08/24 20:09:09","新北市中和區連城路263巷24號","121.492693333333","24.9945733333333","6500300","中和區"
"235039","097-UM","2018/08/24 20:09:14","新北市中和區大勇街25巷7號","121.516886666667","24.993135","6500300","中和區"
"235065","098-UM","2018/08/24 20:09:10","新北市中和區永和路118號","121.496513333333","25.0062666666667","6500300","中和區"
"235040","150-BY","2018/08/24 20:09:16","新北市中和區保健路44巷14號","121.508878333333","24.9968516666667","6500300","中和區"
"235067","255-BX","2018/08/24 20:09:21","新北市中和區新生街251號","121.48389","24.9985333333333","6500300","中和區"
"247010","KEA-2869","2018/08/24 20:09:12","新北市蘆洲區集賢路406號","121.479973333333","25.0819933333333","6501400","蘆洲區"
"235069","4980-A6","2018/08/24 20:09:15","新北市中和區景新街52號","121.503913333333","24.99907","6500300","中和區"
"235070","558-UM","2018/08/24 20:09:14","新北市中和區連城路337號","121.488553333333","24.996135","6500300","中和區"
"235054","640-BX","2018/08/24 20:09:14","新北市三重區五谷王北街181-1號","121.478031666667","25.0539183333333","6500300","中和區"
"235046","733-UM","2018/08/24 20:09:02","新北市中和區忠孝街46-1號","121.511071666667","24.9835033333333","6500300","中和區"
"235048","896-TW","2018/08/24 20:09:11","新北市中和區景新街368號","121.512188333333","24.9904416666667","6500300","中和區"
"235053","900-TW","2018/08/24 20:09:10","新北市板橋區文化路一段479巷42號","121.468008333333","25.0230966666667","6500300","中和區"
"235051","157-BY","2018/08/24 20:09:17","新北市中和區復興路280巷21號","121.502001666667","24.991625","6500300","中和區"
"235037","AAC-213","2018/08/24 20:09:12","新北市中和區自立路56巷2號","121.523376666667","24.9919366666667","6500300","中和區"
"220065","072-UY","2018/08/24 20:09:05","新北市板橋區懷德街201巷32號","121.482433333333","25.0306416666667","6500100","板橋區"
"220069","AAD-861","2018/08/24 20:09:19","新北市板橋區貴興路60號","121.456676666667","25.00296","6500100","板橋區"
"247024","893-R6","2018/08/24 20:09:20","新北市蘆洲區光榮路118-2號","121.464938333333","25.0889016666667","6501400","蘆洲區"
"247014","546-UM","2018/08/24 20:09:16","新北市蘆洲區中山二路265巷46-3號","121.471331666667","25.0793933333333","6501400","蘆洲區"
"247022","500-BY","2018/08/24 20:09:20","新北市蘆洲區三民路173號","121.471071666667","25.08719","6501400","蘆洲區"
"247012","339-TH","2018/08/24 20:09:03","新北市蘆洲區民族路191號","121.478653333333","25.08893","6501400","蘆洲區"
"247004","337-TH","2018/08/24 20:09:02","新北市蘆洲區長安街218號","121.458503333333","25.0846433333333","6501400","蘆洲區"
"247006","336-TH","2018/08/24 20:09:07","新北市蘆洲區永安南路二段14號","121.467641666667","25.07697","6501400","蘆洲區"
"247018","057-VK","2018/08/24 20:09:06","新北市蘆洲區民族路314巷11-2號","121.47804","25.0905666666667","6501400","蘆洲區"
"247016","007-UY","2018/08/24 20:09:20","新北市蘆洲區光華路188號","121.464765","25.08221","6501400","蘆洲區"
"247002","002-UY","2018/08/24 20:09:14","新北市蘆洲區永康街58號","121.459255","25.086105","6501400","蘆洲區"
"247020","001-UY","2018/08/24 20:09:10","新北市蘆洲區民權路106巷5弄18號","121.474468333333","25.0892033333333","6501400","蘆洲區"
"224010","AGQ-8101","2018/08/24 20:09:06","新北市瑞芳區基山街152號","121.842983333333","25.1082466666667","6501200","瑞芳區"
"222001","KEA-2212","2018/08/24 20:09:04","新北市深坑區北深路三段185號","121.601338333333","25.0035533333333","6501800","深坑區"
"208002","KEA-2872","2018/08/24 20:09:07","新北市金山區中山路16號","121.641633333333","25.21745","6502700","金山區"
"251005","010-UM","2018/08/24 20:09:13","新北市淡水區學府路87號","121.448721666667","25.1703483333333","6501000","淡水區"
"251008","181-VK","2018/08/24 20:09:15","新北市淡水區沙崙路141號","121.423265","25.182925","6501000","淡水區"
"251010","413-VK","2018/08/24 20:09:04","新北市淡水區新市三路一段306號","121.428618333333","25.1977633333333","6501000","淡水區"
"251012","441-VK","2018/08/24 20:09:17","新北市淡水區淡金路三段300號","121.448943333333","25.2076966666667","6501000","淡水區"
"251004","443-VK","2018/08/24 20:09:07","新北市淡水區民族路29巷24-1號","121.461741666667","25.1367783333333","6501000","淡水區"
"251001","559-UM","2018/08/24 20:09:18","新北市淡水區新市二路四段265號","121.44579","25.19249","6501000","淡水區"
"251006","561-UM","2018/08/24 20:09:17","新北市淡水區北新路141巷60弄11號","121.448156666667","25.179655","6501000","淡水區"
"251009","575-R6","2018/08/24 20:09:19","新北市淡水區清水街9-4號","121.444771666667","25.1702683333333","6501000","淡水區"
"251003","766-UM","2018/08/24 20:09:16","新北市淡水區中山北路二段189巷15弄29號","121.443481666667","25.184275","6501000","淡水區"
"207003","550-UM","2018/08/24 20:09:05","新北市萬里區大鵬里萬里加投186號","121.64281","25.2156316666667","6502800","萬里區"
"207004","225-TW","2018/08/24 20:09:13","新北市萬里區北基里孝七街29號","121.682455","25.1766983333333","6502800","萬里區"
"252002","178-VK","2018/08/24 20:09:06","新北市三芝區中正路一段68號","121.503901666667","25.2577716666667","6502100","三芝區"
"252001","292-VK","2018/08/24 20:09:16","新北市三芝區公正街9號","121.499756666667","25.2575316666667","6502100","三芝區"
"237006","5529-G3","2018/08/24 20:09:16","新北市三峽區嘉添64號","121.368658333333","24.9108333333333","6500900","三峽區"
"237015","649-BX","2018/08/24 20:09:03","新北市三峽區介壽路二段138巷1弄146號","121.399401666667","24.9304716666667","6500900","三峽區"
"237005","AKY-6261","2018/08/24 20:09:11","新北市三峽區三樹路42號","121.377895","24.9376583333333","6500900","三峽區"
"236069","105-UM","2018/08/24 20:09:10","新北市土城區中央路三段185-6號","121.431678333333","24.96483","6501300","土城區"
"236042","107-UM","2018/08/24 20:09:15","新北市土城區學享街79號","121.452625","24.9862266666667","6501300","土城區"
"236079","166-UM","2018/08/24 20:09:07","新北市土城區福安街54號","121.418811666667","24.9646416666667","6501300","土城區"
"236030","253-BX","2018/08/24 20:09:08","新北市土城區中央路一段118巷1弄19號","121.445648333333","24.9875283333333","6501300","土城區"
"236026","269-VK","2018/08/24 20:09:13","新北市土城區裕生路102巷10號","121.446623333333","24.9846633333333","6501300","土城區"
"236014","270-VK","2018/08/24 20:09:08","新北市土城區廣興街37巷1號","121.455205","24.9913183333333","6501300","土城區"
"236039","271-VK","2018/08/24 20:09:14","新北市土城區延吉街363巷8號","121.464131666667","24.98348","6501300","土城區"
"236020","401-BY","2018/08/24 20:09:20","新北市土城區金城路三段245號","121.471538333333","24.9899666666667","6501300","土城區"
"236059","912-UM","2018/08/24 20:09:19","新北市土城區中央路二段209號","121.441531666667","24.9743583333333","6501300","土城區"
"236055","AAC-216","2018/08/24 20:09:07","新北市土城區中華路一段201號","121.443003333333","24.9853166666667","6501300","土城區"
"242034","AAC-296","2018/08/24 20:09:14","新北市新莊區中正路318巷16號","121.446451666667","25.03586","6500500","新莊區"
"242058","986-R7","2018/08/24 20:09:11","新北市新莊區八德街163號","121.423465","25.019165","6500500","新莊區"
"242023","705-TV","2018/08/24 20:09:23","新北市新莊區化成路608號","121.466138333333","25.054645","6500500","新莊區"
"242027","615-BX","2018/08/24 20:09:10","新北市新莊區中平路202-1號","121.4449","25.048855","6500500","新莊區"
"242025","613-BX","2018/08/24 20:09:21","新北市新莊區五權一路12巷25弄12號","121.45826","25.0642666666667","6500500","新莊區"
"242041","566-BX","2018/08/24 20:09:04","新北市新莊區新北大道七段356號","121.413251666667","25.03118","6500500","新莊區"
"242046","497-BY","2018/08/24 20:09:18","新北市新莊區裕民街103巷16號","121.419013333333","25.02286","6500500","新莊區"
"242019","442-UM","2018/08/24 20:09:10","新北市新莊區博愛路5巷2號","121.456313333333","25.043345","6500500","新莊區"
"242050","441-UM","2018/08/24 20:09:05","新北市新莊區民安西路150巷5號","121.425731666667","25.0165433333333","6500500","新莊區"
"242056","440-UM","2018/08/24 20:09:17","新北市新莊區豐年街52號","121.446273333333","25.0318083333333","6500500","新莊區"
"242037","415-TV","2018/08/24 20:09:14","新北市新莊區建安街9巷6號","121.429055","25.0264333333333","6500500","新莊區"
"242007","413-TV","2018/08/24 20:09:02","新北市新莊區福壽街124巷41弄18號","121.459303333333","25.0518616666667","6500500","新莊區"
"242044","400-BY","2018/08/24 20:09:12","新北市新莊區中正路901-1號","121.411338333333","25.0215083333333","6500500","新莊區"
"242060","353-BY","2018/08/24 20:09:19","新北市新莊區瓊林路100巷1號","121.443481666667","25.0264333333333","6500500","新莊區"
"242009","132-UY","2018/08/24 20:09:00","新北市新莊區昌盛街35巷2弄2號","121.454186666667","25.0501266666667","6500500","新莊區"
"242039","133-UY","2018/08/24 20:09:19","新北市新莊區龍安路509號","121.426255","25.0178683333333","6500500","新莊區"
"242032","135-UY","2018/08/24 20:09:12","新北市新莊區義豐街23號","121.441135","25.0350833333333","6500500","新莊區"
"242048","172-VK","2018/08/24 20:09:13","新北市新莊區四維路152巷24號","121.422076666667","25.02271","6500500","新莊區"
"242011","173-VK","2018/08/24 20:08:10","新北市新莊區中和街210號","121.447963333333","25.0506966666667","6500500","新莊區"
"242017","175-VK","2018/08/24 20:09:06","新北市新莊區中港路373號","121.451726666667","25.0465766666667","6500500","新莊區"
"242005","176-VK","2018/08/24 20:09:08","新北市新莊區頭興街110號","121.462541666667","25.0536716666667","6500500","新莊區"
"242015","346-TH","2018/08/24 20:09:23","新北市新莊區中平路26巷29號","121.446315","25.0433116666667","6500500","新莊區"
"242021","348-TH","2018/08/24 20:09:12","新北市新莊區建中街17號","121.44919","25.0373266666667","6500500","新莊區"
"242002","349-TH","2018/08/24 20:09:21","新北市新莊區中正路71號","121.461205","25.0392333333333","6500500","新莊區"
"221008","489-VK","2018/08/24 20:09:07","台北市內湖區安泰街2號","121.619465","25.0734683333333","6501100","汐止區"
"221036","130-UY","2018/08/24 20:09:12","新北市汐止區新台五路二段78-2號","121.662128333333","25.0658583333333","6501100","汐止區"
"221015","131-UY","2018/08/24 20:09:18","新北市汐止區建成路37巷3號","121.663673333333","25.072705","6501100","汐止區"
"221010","269-BY","2018/08/24 20:09:20","新北市汐止區八連路一段203號","121.641046666667","25.0808933333333","6501100","汐止區"
"221012","278-VK","2018/08/24 20:09:11","新北市汐止區汐平路二段62號","121.697153333333","25.0617766666667","6501100","汐止區"
"221023","279-VK","2018/08/24 20:09:17","新北市汐止區明峰街298巷1號","121.625286666667","25.0679283333333","6501100","汐止區"
"221032","280-BY","2018/08/24 20:09:08","新北市汐止區弘道街8巷5弄7號","121.617361666667","25.0478883333333","6501100","汐止區"
"221027","281-BY","2018/08/24 20:09:18","新北市汐止區光明街28號","121.660166666667","25.0686466666667","6501100","汐止區"
"221029","298-VK","2018/08/24 20:09:17","新北市汐止區樟樹一路129巷17號","121.641265","25.0648933333333","6501100","汐止區"
"221021","299-VK","2018/08/24 20:09:16","新北市汐止區水源路一段238巷1號","121.65412","25.0603066666667","6501100","汐止區"
"221031","353-TW","2018/08/24 20:09:23","新北市汐止區原興路73巷1號","121.632065","25.0661083333333","6501100","汐止區"
"221002","129-UY","2018/08/24 20:09:22","新北市汐止區中興路62號","121.635211666667","25.0611666666667","6501100","汐止區"
"221035","622-UM","2018/08/24 20:09:08","新北市汐止區長江街79巷4號","121.657278333333","25.0725766666667","6501100","汐止區"
"221025","623-UM","2018/08/24 20:09:22","新北市汐止區連興街149號","121.654208333333","25.0613016666667","6501100","汐止區"
"221038","646-BX","2018/08/24 20:09:19","新北市汐止區忠孝東路511號","121.66664","25.0754433333333","6501100","汐止區"
"221033","647-BX","2018/08/24 20:09:20","新北市汐止區東勢街201巷102號","121.633653333333","25.04304","6501100","汐止區"
"221018","753-BX","2018/08/24 20:09:06","新北市汐止區茄苳路318號","121.673591666667","25.0665466666667","6501100","汐止區"
"220101","245-BX","2018/08/24 20:09:03","新北市板橋區莒光路165巷34號","121.474355","25.024845","6500100","板橋區"
"220083","286-VK","2018/08/24 20:09:21","新北市板橋區僑中二街88巷22號","121.445291666667","25.00963","6500100","板橋區"
"220081","287-VK","2018/08/24 20:09:11","新北市板橋區僑中一街80巷5弄20號","121.446893333333","25.0127066666667","6500100","板橋區"
"220061","295-UM","2018/08/24 20:09:20","新北市板橋區縣民大道二段200巷9號","121.469941666667","25.0173166666667","6500100","板橋區"
"242013","281-VK","2018/08/24 20:09:16","新北市新莊區幸福路694號","121.450143333333","25.0495133333333","6500500","新莊區"
"220064","486-VK","2018/08/24 20:09:15","新北市板橋區海山路51號","121.466828333333","25.0101616666667","6500100","板橋區"
"220088","491-VK","2018/08/24 20:09:07","新北市板橋區萬板路810-1號","121.482786666667","25.02734","6500100","板橋區"
"220035","560-BX","2018/08/24 20:09:06","新北市板橋區新生街33號","121.456606666667","25.0211566666667","6500100","板橋區"
"220103","561-BX","2018/08/24 20:09:20","新北市板橋區陽明街51號","121.464796666667","25.02247","6500100","板橋區"
"220093","689-BX","2018/08/24 20:09:06","新北市板橋區長江路一段114號","121.459863333333","25.0296633333333","6500100","板橋區"
"220102","KEA-2699","2018/08/24 20:09:04","新北市板橋區民治街137號","121.477638333333","25.0306916666667","6500100","板橋區"
"220055","827-TW","2018/08/24 20:09:16","新北市板橋區仁愛路86巷9號","121.461025","24.9992933333333","6500100","板橋區"
"220067","829-TW","2018/08/24 20:09:19","新北市板橋區中山路一段206巷66弄2號","121.471886666667","25.01318","6500100","板橋區"
"220068","830-TW","2018/08/24 20:09:15","新北市板橋區中山路二段362號","121.481561666667","25.0200816666667","6500100","板橋區"
"220089","833-TW","2018/08/24 20:09:08","新北市板橋區互助街30號","121.462258333333","25.0272433333333","6500100","板橋區"
"220074","895-R6","2018/08/24 20:09:18","新北市板橋區南雅南路一段1巷1弄15號","121.457175","25.00609","6500100","板橋區"
"220073","985-R7","2018/08/24 20:09:19","新北市板橋區大觀路一段25號","121.450178333333","25.0084083333333","6500100","板橋區"
"220097","AAC-210","2018/08/24 20:09:08","新北市板橋區光正街9巷2弄2號","121.4628","25.016955","6500100","板橋區"
"220070","AAC-253","2018/08/24 20:09:07","新北市板橋區德興街24號","121.453431666667","24.99414","6500100","板橋區"
"235068","KEA-2873","2018/08/24 20:08:55","新北市中和區永和路39巷14號","121.497563333333","25.0049866666667","6500300","中和區"
