"lineid","car","time","location","longitude","latitude","cityid","cityname"
"234007","207-UY","2018/08/24 20:49:19","新北市八里區中山路三段382號","121.36857","25.135905","6500400","永和區"
"234086","338-UY","2018/08/24 20:49:19","新北市五股區中興路三段1-7號","121.452291666667","25.0753183333333","6500400","永和區"
"234030","746-BX","2018/08/24 20:49:10","新北市五股區成泰路三段320號","121.450876666667","25.097565","6500400","永和區"
"249004","303-UY","2018/08/24 20:49:16","新北市八里區中山路一段63號","121.418353333333","25.1594066666667","6502300","八里區"
"248004","677-BX","2018/08/24 20:49:08","新北市林口區太平里180號","121.368448333333","25.1344333333333","6501500","五股區"
"234077","969-R7","2018/08/24 20:49:17","新北市八里區中山路三段386號","121.368476666667","25.1360033333333","6500400","永和區"
"234074","AAC-211","2018/08/24 20:49:13","新北市永和區環河東路二段20號","121.522273333333","25.0131583333333","6500400","永和區"
"222003","436-BY","2018/08/24 20:49:14","新北市深坑區文山路三段48-1號","121.609938333333","24.9985433333333","6501800","深坑區"
"222002","659-BX","2018/08/24 20:49:24","新北市深坑區北深路三段93巷35號","121.604745","25.0003166666667","6501800","深坑區"
"231044","001-UM","2018/08/24 20:49:08","新北市新店區中正路360號","121.535485","24.975855","6500600","新店區"
"231059","046-UY","2018/08/24 20:49:14","新北市新店區吉祥街15巷60號","121.499826666667","24.9451533333333","6500600","新店區"
"231040","047-UY","2018/08/24 20:49:09","新北市新店區中正路251號","121.538973333333","24.97347","6500600","新店區"
"231053","108-UY","2018/08/24 20:49:14","新北市新店區新烏路一段100-2號","121.54497","24.9367333333333","6500600","新店區"
"231048","187-VK","2018/08/24 20:49:12","新北市新店區寶慶街58巷12號","121.542096666667","24.987275","6500600","新店區"
"231054","KEA-2219","2018/08/24 20:49:10","新北市新店區中正路75巷71號","121.543086666667","24.96875","6500600","新店區"
"231057","256-BX","2018/08/24 20:49:08","新北市新店區新烏路一段87巷2號","121.546085","24.94191","6500600","新店區"
"231042","268-BY","2018/08/24 20:49:11","新北市新店區寶高路120巷1號","121.554608333333","24.976075","6500600","新店區"
"231051","278-BY","2018/08/24 20:49:16","新北市新店區中正路663巷1弄15號","121.532876666667","24.9898816666667","6500600","新店區"
"231050","AAD-862","2018/08/24 20:49:13","新北市新店區中正路247巷45號","121.53822","24.9720516666667","6500600","新店區"
"231058","3713-VJ","2018/08/24 20:49:14","新北市新店區中央路95巷2號","121.531443333333","24.9749783333333","6500600","新店區"
"231066","4716-K9","2018/08/24 20:49:07","新北市新店區安民街365巷1弄8號","121.516398333333","24.9750483333333","6500600","新店區"
"231056","4715-K9","2018/08/24 20:49:06","新北市新店區柴埕路116號","121.504901666667","24.9599483333333","6500600","新店區"
"231067","4772-VM","2018/08/24 20:49:07","新北市新店區安華路28-1號","121.519668333333","24.9608783333333","6500600","新店區"
"231065","512-UM","2018/08/24 20:49:15","新北市新店區安祥路104巷6弄46號","121.483111666667","24.9637466666667","6500600","新店區"
"231049","513-UM","2018/08/24 20:49:12","新北市新店區永業路81巷9弄1號","121.530975","24.9504","6500600","新店區"
"231061","619-UM","2018/08/24 20:49:08","新北市新店區新和街72號","121.520173333333","24.9856716666667","6500600","新店區"
"231063","641-BX","2018/08/24 20:49:06","新北市新店區如意街8-1號","121.494723333333","24.9482466666667","6500600","新店區"
"231068","718-UY","2018/08/24 20:49:07","新北市新店區中興路三段228巷28號","121.544718333333","24.9834766666667","6500600","新店區"
"231064","719-UM","2018/08/24 20:49:17","新北市新店區安民街389號","121.516136666667","24.9767033333333","6500600","新店區"
"231062","720-UM","2018/08/24 20:49:18","新北市新店區和成街19巷17號","121.487635","24.946085","6500600","新店區"
"231060","897-TW","2018/08/24 20:49:06","新北市新店區安康路三段591號","121.472258333333","24.9408583333333","6500600","新店區"
"231043","899-TW","2018/08/24 20:49:15","新北市新店區建國路95號","121.540486666667","24.976835","6500600","新店區"
"241011","013-R5","2018/08/24 20:49:07","新北市三重區龍濱路128號","121.501803333333","25.0716283333333","6500200","三重區"
"241028","022-UY","2018/08/24 20:49:19","新北市三重區中正南路46號","121.493895","25.059975","6500200","三重區"
"241008","059-VK","2018/08/24 20:49:12","新北市三重區永福街72巷11號","121.47951","25.07679","6500200","三重區"
"241022","060-VK","2018/08/24 20:49:12","新北市三重區過圳街27-5號","121.487946666667","25.0624033333333","6500200","三重區"
"241031","061-VK","2018/08/24 20:49:13","新北市三重區重陽路一段113巷2弄2號","121.487515","25.0598833333333","6500200","三重區"
"241015","062-VK","2018/08/24 20:49:23","新北市三重區自強路一段8號","121.498911666667","25.068265","6500200","三重區"
"241017","063-VK","2018/08/24 20:49:08","新北市三重區民生街14號","121.492051666667","25.0675233333333","6500200","三重區"
"241024","065-VK","2018/08/24 20:49:09","新北市三重區國道路一段58巷20號","121.481251666667","25.0720233333333","6500200","三重區"
"241026","066-VK","2018/08/24 20:49:11","新北市三重區文化南路8號","121.500071666667","25.0624916666667","6500200","三重區"
"241002","090-VK","2018/08/24 20:49:13","新北市三重區仁義街155號","121.49716","25.081065","6500200","三重區"
"241023","265-UM","2018/08/24 20:49:16","新北市三重區忠孝路三段84巷1號","121.480313333333","25.064685","6500200","三重區"
"241016","266-UM","2018/08/24 20:49:14","新北市三重區自強路一段101號","121.49568","25.0662583333333","6500200","三重區"
"241009","267-UM","2018/08/24 20:49:06","新北市三重區三和路四段388-2號","121.482068333333","25.0790266666667","6500200","三重區"
"241018","268-UM","2018/08/24 20:49:03","新北市三重區雙園街110-1號","121.494823333333","25.0675433333333","6500200","三重區"
"241032","269-UM","2018/08/24 20:49:21","新北市三重區重陽路一段120巷35號","121.48525","25.060135","6500200","三重區"
"241013","270-UM","2018/08/24 20:49:08","新北市三重區仁賢街12-1號","121.495663333333","25.0748783333333","6500200","三重區"
"241025","271-UM","2018/08/24 20:49:15","新北市三重區貴陽街14號","121.48412","25.0618033333333","6500200","三重區"
"241007","398-BY","2018/08/24 20:49:18","新北市三重區慈愛街8號","121.4845","25.0784533333333","6500200","三重區"
"241035","KEA-2210","2018/08/24 20:49:15","新北市三重區自強路一段34號","121.49794","25.06723","6500200","三重區"
"241020","413-TH","2018/08/24 20:49:14","新北市三重區忠孝路一段101號","121.489505","25.0721083333333","6500200","三重區"
"241004","475-VK","2018/08/24 20:49:06","新北市三重區分子尾街36-1號","121.489496666667","25.0809783333333","6500200","三重區"
"241030","480-VK","2018/08/24 20:49:14","新北市三重區昌隆街26號","121.492035","25.0522166666667","6500200","三重區"
"241014","543-UM","2018/08/24 20:49:12","新北市三重區萬全街61號","121.501243333333","25.0702066666667","6500200","三重區"
"241001","547-UM","2018/08/24 20:49:20","新北市三重區自強路三段97號","121.487646666667","25.075175","6500200","三重區"
"241019","KEA-2593","2018/08/24 20:49:13","新北市三重區大智街188號","121.489636666667","25.0703583333333","6500200","三重區"
"241006","AAD-863","2018/08/24 20:49:09","新北市三重區車路頭街139巷14號","121.484283333333","25.076295","6500200","三重區"
"241005","887-TS","2018/08/24 20:49:12","新北市三重區五華街141巷2號","121.49107","25.0847933333333","6500200","三重區"
"241012","941-UM","2018/08/24 20:49:04","新北市三重區仁信街29號","121.501228333333","25.07559","6500200","三重區"
"241029","942-UM","2018/08/24 20:49:16","新北市三重區重安街14號","121.490321666667","25.058215","6500200","三重區"
"241033","AAC-255","2018/08/24 20:49:21","新北市三重區光復路二段1號","121.472316666667","25.05326","6500200","三重區"
"247010","KEA-2869","2018/08/24 20:49:12","新北市蘆洲區鷺江街95號","121.47673","25.08378","6501400","蘆洲區"
"235069","4980-A6","2018/08/24 20:49:21","新北市中和區員山路359巷1弄8號","121.481018333333","25.001655","6500300","中和區"
"247024","893-R6","2018/08/24 20:49:00","新北市蘆洲區長樂路136號","121.462171666667","25.0900216666667","6501400","蘆洲區"
"247014","546-UM","2018/08/24 20:49:24","新北市蘆洲區成功路74號","121.473131666667","25.08107","6501400","蘆洲區"
"247022","500-BY","2018/08/24 20:49:00","新北市蘆洲區三民路128巷28號","121.470793333333","25.0883366666667","6501400","蘆洲區"
"247012","339-TH","2018/08/24 20:49:23","新北市蘆洲區集賢路222巷36號","121.48206","25.08739","6501400","蘆洲區"
"247004","337-TH","2018/08/24 20:49:22","新北市蘆洲區長安街101號","121.46161","25.0808283333333","6501400","蘆洲區"
"247006","336-TH","2018/08/24 20:49:10","新北市蘆洲區永安南路二段76號","121.464608333333","25.0780883333333","6501400","蘆洲區"
"247016","007-UY","2018/08/24 20:49:20","新北市蘆洲區中正路69號","121.470405","25.0827133333333","6501400","蘆洲區"
"247002","002-UY","2018/08/24 20:49:13","新北市蘆洲區永康街118號","121.457938333333","25.0852883333333","6501400","蘆洲區"
"247020","001-UY","2018/08/24 20:49:10","新北市蘆洲區仁愛街64號","121.47146","25.0939166666667","6501400","蘆洲區"
"222001","KEA-2212","2018/08/24 20:49:04","新北市深坑區北深路三段133號","121.60396","25.0024933333333","6501800","深坑區"
"251002","012-UM","2018/08/24 20:49:06","新北市淡水區中正東路6號","121.446991666667","25.1670616666667","6501000","淡水區"
"251010","413-VK","2018/08/24 20:49:04","新北市淡水區沙崙路126號","121.423491666667","25.1829533333333","6501000","淡水區"
"251012","441-VK","2018/08/24 20:49:15","新北市淡水區淡金路四段516號","121.452065","25.2258783333333","6501000","淡水區"
"251007","442-VK","2018/08/24 20:49:21","新北市淡水區鄧公路29巷20號","121.452395","25.1701783333333","6501000","淡水區"
"251001","559-UM","2018/08/24 20:49:18","新北市淡水區淡金路一段69號","121.458803333333","25.1731083333333","6501000","淡水區"
"251011","650-BX","2018/08/24 20:49:15","新北市淡水區新市一路一段240號","121.432883333333","25.1864016666667","6501000","淡水區"
"251003","766-UM","2018/08/24 20:49:16","新北市淡水區中山北路一段207巷62號","121.441988333333","25.17939","6501000","淡水區"
"242034","AAC-296","2018/08/24 20:49:14","新北市新莊區中正路317號","121.448023333333","25.0351466666667","6500500","新莊區"
"242058","986-R7","2018/08/24 20:49:11","新北市樹林區樹新路120巷12號","121.430201666667","24.997335","6500500","新莊區"
"242027","615-BX","2018/08/24 20:49:10","新北市板橋區大觀路三段59巷57號","121.435141666667","24.99418","6500500","新莊區"
"242041","566-BX","2018/08/24 20:49:04","新北市新莊區天祥街10號","121.417268333333","25.0270983333333","6500500","新莊區"
"242050","441-UM","2018/08/24 20:49:07","新北市新莊區民安西路54號","121.427393333333","25.0205566666667","6500500","新莊區"
"242056","440-UM","2018/08/24 20:49:17","新北市板橋區大觀路三段36巷54弄20號","121.435216666667","24.996995","6500500","新莊區"
"242037","415-TV","2018/08/24 20:49:20","新北市新莊區中正路449號","121.443066666667","25.0341116666667","6500500","新莊區"
"242044","400-BY","2018/08/24 20:49:12","新北市樹林區三俊街127號","121.418033333333","25.0157566666667","6500500","新莊區"
"242009","132-UY","2018/08/24 20:49:21","新北市新莊區幸福路564巷2弄2號","121.454488333333","25.0494933333333","6500500","新莊區"
"242039","133-UY","2018/08/24 20:49:08","新北市新莊區環河路502號","121.43906","25.0167683333333","6500500","新莊區"
"242048","172-VK","2018/08/24 20:49:13","新北市新莊區瓊林南路61-71號","121.43988","25.0188233333333","6500500","新莊區"
"242002","349-TH","2018/08/24 20:49:14","新北市新莊區中港路五守新村1巷7號","121.455288333333","25.0380783333333","6500500","新莊區"
"221027","281-BY","2018/08/24 20:49:18","新北市汐止區大同路二段364號","121.657536666667","25.0671133333333","6501100","汐止區"
"221002","129-UY","2018/08/24 20:49:22","新北市汐止區福德二路169號","121.630846666667","25.0651316666667","6501100","汐止區"
"221038","646-BX","2018/08/24 20:49:06","新北市汐止區汐萬路一段256巷1號","121.652043333333","25.0747216666667","6501100","汐止區"
"221033","647-BX","2018/08/24 20:49:20","新北市汐止區合順街18巷8弄5號","121.620326666667","25.0419283333333","6501100","汐止區"
"221018","753-BX","2018/08/24 20:49:06","新北市汐止區汐萬路一段81號","121.65476","25.069945","6501100","汐止區"
"220070","AAC-253","2018/08/24 20:49:07","新北市林口區太平里180號","121.367185","25.135115","6500100","板橋區"
