"lineid","car","time","location","longitude","latitude","cityid","cityname"
"235010","733-UM","2018/08/24 21:49:39","新北市中和區員山路36巷13號","121.484203333333","24.9908016666667","6500300","中和區"
"251008","181-VK","2018/08/24 22:19:14","新北市淡水區學府路104號","121.449831666667","25.171825","6501000","淡水區"
"251010","413-VK","2018/08/24 22:19:24","新北市淡水區沙崙路200號","121.424801666667","25.1839166666667","6501000","淡水區"
"251007","442-VK","2018/08/24 22:19:21","新北市淡水區北新路137號","121.449451666667","25.1788216666667","6501000","淡水區"
"251004","443-VK","2018/08/24 22:19:08","新北市淡水區民族路33號","121.462205","25.1357716666667","6501000","淡水區"
"251011","650-BX","2018/08/24 22:19:15","新北市淡水區水碓街7號","121.443176666667","25.1771316666667","6501000","淡水區"
