"lineid","car","time","location","longitude","latitude","cityid","cityname"
"248005","653-BX","2018/08/25 07:29:28","新北市五股區明德路12巷3號","121.433281666667","25.0717516666667","6501500","五股區"
"232004","290-BY","2018/08/25 07:24:08","新北市坪林區下坑子口6-15號","121.711216666667","24.9433633333333","6502000","坪林區"
"232016","291-BY","2018/08/25 07:29:16","新北市坪林區仁里13號","121.684113333333","24.9262933333333","6502000","坪林區"
"232010","375-UM","2018/08/25 07:29:22","新北市坪林區苦苓腳2號","121.714176666667","24.9361233333333","6502000","坪林區"
"232009","758-BX","2018/08/25 07:29:26","新北市坪林區北宜路七段328號","121.696793333333","24.9325566666667","6502000","坪林區"
"244005","248-BX","2018/08/25 07:29:09","新北市林口區頂福里71-89號","121.34901","25.0837033333333","6501700","林口區"
"235001","611-BX","2018/08/25 07:29:33","新北市中和區圓通路367巷6號","121.491403333333","24.989195","6500300","中和區"
"226005","5620-A6","2018/08/25 07:29:20","新北市平溪區薯榔里雙菁路42號","121.720775","25.0244416666667","6502400","平溪區"
"226007","8452-VL","2018/08/25 07:29:23","新北市平溪區南山里南山坪15號","121.7687","25.0339366666667","6502400","平溪區"
"226003","AGD-0702","2018/08/25 07:28:10","新北市平溪區望古里望古坑1-2號","121.745576666667","25.0388333333333","6502400","平溪區"
"223006","022-BY","2018/08/25 07:29:34","新北市石碇區深按6號","121.660456666667","25.0176333333333","6501900","石碇區"
"223002","KEA-2673","2018/08/25 07:23:38","新北市石碇區烏塗窟16-2號","121.65628","24.9755833333333","6501900","石碇區"
"223003","205-TH","2018/08/25 07:24:38","新北市石碇區蓬菜寮10號","121.651555","24.9736033333333","6501900","石碇區"
"223008","406-TH","2018/08/25 07:29:26","新北市石碇區頭9號","121.705201666667","25.0033616666667","6501900","石碇區"
"223001","592-UM","2018/08/25 07:29:34","新北市石碇區中楒子腳4號","121.641296666667","24.9713566666667","6501900","石碇區"
"223004","660-BX","2018/08/25 07:29:34","新北市石碇區八分寮43號","121.642306666667","25.0118566666667","6501900","石碇區"
"223007","661-BX","2018/08/25 07:29:24","新北市石碇區大溪墘16-1號","121.692891666667","25.008845","6501900","石碇區"
"223005","677-TV","2018/08/25 07:29:21","新北市石碇區八分寮55-3號","121.644638333333","25.013695","6501900","石碇區"
"227006","282-VK","2018/08/25 07:29:29","新北市雙溪區新基里自強路2號","121.866285","25.0388283333333","6502500","雙溪區"
"252004","249-BX","2018/08/25 07:29:15","新北市三芝區興華里楓子林53-5號","121.50181","25.212215","6502100","三芝區"
"252007","AAC-283","2018/08/25 07:29:32","新北市三芝區埔頭里埔頭19號","121.49161","25.26021","6502100","三芝區"
"237001","159-UY","2018/08/25 07:29:33","新北市三峽區隆恩街245號","121.357701666667","24.9408866666667","6500900","三峽區"
"236011","165-UM","2018/08/25 07:29:21","新北市土城區永豐路13巷5弄5號","121.461223333333","24.989255","6501300","土城區"
"236002","339-SR","2018/08/25 07:29:29","新北市土城區南天母路171巷15號","121.449175","24.9498383333333","6501300","土城區"
