"lineid","car","time","location","longitude","latitude","cityid","cityname"
"244018","402-UM","2018/12/17 10:19:11","","121.396951666667","25.07785","6501700","林口區"
"244022","483-VK","2018/12/17 10:19:16","","121.371728333333","25.08188","6501700","林口區"
"231007","189-VK","2018/12/17 10:18:59","","121.507288333333","24.9049483333333","6500600","新店區"
"231008","192-VK","2018/12/17 10:19:17","","121.530563333333","24.9128266666667","6500600","新店區"
"223001","592-UM","2018/12/17 10:19:14","","121.614455","24.9588583333333","6501900","石碇區"
"227005","282-VK","2018/12/17 09:56:54","","121.812735","24.9292083333333","6502500","雙溪區"
"252006","AAC-283","2018/12/17 10:19:10","","121.498485","25.27368","6502100","三芝區"
"237001","361-BY","2018/12/17 10:17:22","","121.356565","24.9411566666667","6500900","三峽區"
"237001","159-UY","2018/12/17 10:19:17","","121.373216666667","24.94361","6500900","三峽區"
"242052","442-UM","2018/12/17 10:19:01","","121.45128","25.0093716666667","6500500","新莊區"
