"lineid","car","time","location","longitude","latitude","cityid","cityname"
"244022","483-VK","2018/12/17 10:49:16","","121.374583333333","25.0851833333333","6501700","林口區"
"231007","189-VK","2018/12/17 10:49:10","","121.517","24.9251333333333","6500600","新店區"
"231008","192-VK","2018/12/17 10:34:37","","121.540783333333","24.8999383333333","6500600","新店區"
"235029","911-UM","2018/12/17 10:49:01","","121.485263333333","24.9915933333333","6500300","中和區"
"227005","282-VK","2018/12/17 10:49:14","","121.83225","24.978955","6502500","雙溪區"
"237001","361-BY","2018/12/17 10:49:02","","121.214735","25.0800366666667","6500900","三峽區"
"237001","159-UY","2018/12/17 10:49:18","","121.35711","24.94074","6500900","三峽區"
