"lineid","car","time","location","longitude","latitude","cityid","cityname"
"244019","402-UM","2018/12/17 11:20:36","","121.405046666667","25.090805","6501700","林口區"
"231007","189-VK","2018/12/17 11:29:19","新北市新店區安和路一段6號","121.517116666667","24.96477","6500600","新店區"
"231008","192-VK","2018/12/17 11:29:17","新北市新店區屈尺路161-6號","121.542173333333","24.92184","6500600","新店區"
"235029","911-UM","2018/12/17 11:29:21","新北市中和區員山路36巷16-2號","121.4854","24.9916316666667","6500300","中和區"
"220016","120-SR","2018/12/17 11:29:07","新北市板橋區海山路19號","121.468701666667","25.0092083333333","6500100","板橋區"
"227005","282-VK","2018/12/17 11:29:14","新北市雙溪區魚行里丁子蘭坑47號","121.866016666667","24.9990016666667","6502500","雙溪區"
"237001","361-BY","2018/12/17 11:26:35","新北市八里區中山路三段409號","121.368676666667","25.1346","6500900","三峽區"
