"lineid","car","time","location","longitude","latitude","cityid","cityname"
"244019","402-UM","2018/12/17 11:20:36","","121.405046666667","25.090805","6501700","林口區"
"231008","192-VK","2018/12/17 11:39:17","新北市新店區新烏路一段127-1號","121.547061666667","24.9370433333333","6500600","新店區"
"235029","911-UM","2018/12/17 11:39:01","新北市中和區和城路一段271巷1號","121.485386666667","24.9917983333333","6500300","中和區"
"220016","120-SR","2018/12/17 11:34:36","新北市板橋區海山路19號","121.468683333333","25.0092266666667","6500100","板橋區"
"227005","282-VK","2018/12/17 11:39:14","新北市雙溪區魚行里丁子蘭坑6-1號","121.871755","25.01246","6502500","雙溪區"
"237001","361-BY","2018/12/17 11:39:15","桃園市蘆竹區坑口里後壁厝42號","121.27624","25.1164683333333","6500900","三峽區"
