"lineid","car","time","location","longitude","latitude","cityid","cityname"
"249005","172-UM","2018/12/17 17:19:15","新北市八里區荖阡坑路44號","121.411545","25.124755","6502300","八里區"
"249001","173-UM","2018/12/17 17:19:22","新北市八里區中華路二段165巷3號","121.407671666667","25.150835","6502300","八里區"
"249004","303-UY","2018/12/17 17:19:12","新北市八里區賢三街79-1號","121.418116666667","25.1582766666667","6502300","八里區"
"249002","305-UY","2018/12/17 17:19:07","新北市八里區龍米路二段117巷5號","121.446683333333","25.1428766666667","6502300","八里區"
"249003","593-UM","2018/12/17 17:19:03","新北市八里區商港路48號","121.39589","25.145335","6502300","八里區"
"244007","080-UY","2018/12/17 17:19:12","新北市林口區湖子15-5號","121.386493333333","25.0906633333333","6501700","林口區"
"244019","402-UM","2018/12/17 17:19:27","新北市林口區公園路163號","121.370841666667","25.0715016666667","6501700","林口區"
"244023","483-VK","2018/12/17 17:19:24","新北市林口區隆林街71號","121.386721666667","25.0753433333333","6501700","林口區"
"244017","485-VK","2018/12/17 17:19:15","新北市林口區粉寮路一段105號","121.397985","25.080385","6501700","林口區"
"244009","656-BX","2018/12/17 17:19:15","新北市林口區文化北路二段550巷1號","121.378353333333","25.0923433333333","6501700","林口區"
"244011","701-TV","2018/12/17 17:19:10","新北市林口區粉寮路一段105號","121.39782","25.0802683333333","6501700","林口區"
"244025","837-TS","2018/12/17 17:19:14","新北市林口區文化三路一段469號","121.368988333333","25.075125","6501700","林口區"
"244021","838-TS","2018/12/17 17:19:22","新北市林口區粉寮路二段356號","121.404733333333","25.0980016666667","6501700","林口區"
"243012","646-TV","2018/12/17 17:19:19","新北市泰山區黎明路25號","121.422161666667","25.0606566666667","6501600","泰山區"
"231046","107-UY","2018/12/17 17:19:15","新北市新店區直潭路92號","121.530908333333","24.9375783333333","6500600","新店區"
"241011","013-R5","2018/12/17 17:19:16","新北市三重區河邊北街100巷18號","121.503118333333","25.0701933333333","6500200","三重區"
"241028","022-UY","2018/12/17 17:19:15","新北市三重區中正南路98號","121.494375","25.058615","6500200","三重區"
"241008","059-VK","2018/12/17 17:19:17","新北市三重區下竹圍街14號","121.480943333333","25.0758533333333","6500200","三重區"
"241022","060-VK","2018/12/17 17:19:24","新北市三重區中正北路64巷23號","121.485736666667","25.0638833333333","6500200","三重區"
"241015","062-VK","2018/12/17 17:19:22","新北市三重區長元街82-1號","121.501923333333","25.0663483333333","6500200","三重區"
"241017","063-VK","2018/12/17 17:19:27","新北市三重區大同北路44巷35號","121.494356666667","25.06288","6500200","三重區"
"241024","065-VK","2018/12/17 17:19:27","新北市三重區中正北路203號","121.476903333333","25.0700716666667","6500200","三重區"
"241002","090-VK","2018/12/17 17:19:16","新北市三重區自強路五段31號","121.493525","25.0810416666667","6500200","三重區"
"241003","091-VK","2018/12/17 17:19:24","新北市三重區五華街125號","121.491318333333","25.084055","6500200","三重區"
"251014","742-BX","2018/12/17 17:19:14","新北市淡水區公埔子43號","121.464163333333","25.229075","6501000","淡水區"
"241005","262-UM","2018/12/17 17:19:21","新北市三重區永安北路二段25巷27號","121.482706666667","25.0818283333333","6500200","三重區"
"241016","266-UM","2018/12/17 17:19:30","新北市三重區中正北路25巷22號","121.493726666667","25.0631366666667","6500200","三重區"
"241018","268-UM","2018/12/17 17:19:16","新北市三重區安慶街155號","121.494278333333","25.0687716666667","6500200","三重區"
"241032","269-UM","2018/12/17 17:19:26","新北市三重區興華街145號","121.482788333333","25.0598783333333","6500200","三重區"
"241013","270-UM","2018/12/17 17:19:23","新北市三重區仁愛街104號","121.495401666667","25.0741716666667","6500200","三重區"
"241025","271-UM","2018/12/17 17:19:18","新北市三重區中正北路392-1號","121.475938333333","25.0702766666667","6500200","三重區"
"241007","398-BY","2018/12/17 17:19:20","新北市三重區三和路四段145巷5號","121.484503333333","25.0782616666667","6500200","三重區"
"241024","KEA-2210","2018/12/17 17:19:26","新北市三重區國道路一段58巷20號","121.481105","25.0720616666667","6500200","三重區"
"241009","462-BY","2018/12/17 17:19:21","新北市三重區三和路四段231巷97號","121.4834","25.0805266666667","6500200","三重區"
"241004","475-VK","2018/12/17 17:19:17","新北市三重區碧華街343號","121.491808333333","25.0848483333333","6500200","三重區"
"241020","478-VK","2018/12/17 17:19:26","新北市三重區忠孝路一段143號","121.488223333333","25.0722166666667","6500200","三重區"
"241030","480-VK","2018/12/17 17:19:29","新北市三重區成功路73巷12號","121.489408333333","25.05188","6500200","三重區"
"241014","543-UM","2018/12/17 17:19:23","新北市三重區長榮路3號","121.500153333333","25.0684","6500200","三重區"
"241023","545-UM","2018/12/17 17:19:19","新北市三重區三民街195號","121.48206","25.06564","6500200","三重區"
"241001","547-UM","2018/12/17 17:19:24","新北市三重區仁愛街269巷27號","121.493755","25.0790866666667","6500200","三重區"
"241019","KEA-2593","2018/12/17 17:19:23","新北市三重區自強路二段100號","121.487401666667","25.0712516666667","6500200","三重區"
"241026","743-BX","2018/12/17 17:19:10","新北市三重區正義南路60-5號","121.498313333333","25.0603216666667","6500200","三重區"
"241012","941-UM","2018/12/17 17:19:08","新北市三重區仁昌街93-2號","121.499713333333","25.075015","6500200","三重區"
"241029","942-UM","2018/12/17 17:19:25","新北市三重區重新路四段65號","121.487136666667","25.0568966666667","6500200","三重區"
"235064","005-UY","2018/12/17 17:19:20","新北市中和區員山路36巷16-3號","121.485181666667","24.9913083333333","6500300","中和區"
"235036","301-VK","2018/12/17 16:56:48","新北市中和區員山路36巷12號","121.484005","24.990935","6500300","中和區"
"247012","KEA-2869","2018/12/17 17:19:18","新北市蘆洲區信義路317號","121.478341666667","25.0864033333333","6501400","蘆洲區"
"247006","KED-0682","2018/12/17 17:19:12","新北市蘆洲區永安南路二段156號","121.461703333333","25.079035","6501400","蘆洲區"
"247002","893-R6","2018/12/17 17:19:17","新北市蘆洲區永樂街38巷33弄3號","121.457931666667","25.0894633333333","6501400","蘆洲區"
"247024","500-BY","2018/12/17 17:19:10","新北市蘆洲區長榮路152號","121.46122","25.084825","6501400","蘆洲區"
"247020","057-VK","2018/12/17 17:19:22","新北市蘆洲區民族路446-5號","121.47262","25.0922383333333","6501400","蘆洲區"
"247010","056-VK","2018/12/17 17:19:12","新北市蘆洲區中山一路120巷7弄1號","121.477361666667","25.0818666666667","6501400","蘆洲區"
"247014","053-VK","2018/12/17 17:19:24","新北市蘆洲區得勝街118號","121.471053333333","25.0828183333333","6501400","蘆洲區"
"247018","007-UY","2018/12/17 17:19:21","新北市蘆洲區民權路94號","121.474178333333","25.088035","6501400","蘆洲區"
"247004","002-UY","2018/12/17 17:19:12","新北市蘆洲區永安南路二段278號","121.45807","25.081015","6501400","蘆洲區"
"247022","001-UY","2018/12/17 17:19:09","新北市蘆洲區水湳街36號","121.470636666667","25.089585","6501400","蘆洲區"
"228002","585-TW","2018/12/17 17:19:27","新北市貢寮區雙玉里下雙溪街24號","121.922953333333","25.009865","6502600","貢寮區"
"228001","670-TC","2018/12/17 17:19:16","新北市貢寮區仁理村尖山腳街18-3號","121.925485","25.0483333333333","6502600","貢寮區"
"228003","828-UM","2018/12/17 17:19:12","新北市貢寮區福隆里興隆街14號","121.94508","25.0167583333333","6502600","貢寮區"
"224006","676-BX","2018/12/17 17:19:25","新北市瑞芳區傑魚坑路322號","121.78639","25.1047366666667","6501200","瑞芳區"
"224008","285-BY","2018/12/17 17:19:25","新北市瑞芳區侯硐路246號","121.830095","25.0889316666667","6501200","瑞芳區"
"224009","273-VK","2018/12/17 17:19:25","新北市瑞芳區汽車路29號","121.844533333333","25.1098416666667","6501200","瑞芳區"
"224005","271-BY","2018/12/17 17:19:15","新北市瑞芳區鼻頭路111-1號","121.916203333333","25.1229033333333","6501200","瑞芳區"
"227001","642-TC","2018/12/17 17:19:27","新北市雙溪區上林里內平林90號","121.827575","25.0274716666667","6502500","雙溪區"
"251009","008-UM","2018/12/17 17:19:08","新北市淡水區三民街22號","121.439075","25.1717566666667","6501000","淡水區"
"251004","009-UM","2018/12/17 17:17:50","新北市淡水區中正東路二段88巷15號","121.459103333333","25.150465","6501000","淡水區"
"251005","010-UM","2018/12/17 17:19:17","新北市淡水區鄧公路19號","121.451538333333","25.1699133333333","6501000","淡水區"
"251013","KEA-2871","2018/12/17 17:19:20","新北市淡水區演戲埔腳9-1號","121.472955","25.19619","6501000","淡水區"
"251016","179-VK","2018/12/17 17:19:26","新北市淡水區鄒厝崙14號","121.461896666667","25.190635","6501000","淡水區"
"251008","181-VK","2018/12/17 17:19:16","新北市淡水區大同路243號","121.466146666667","25.1422333333333","6501000","淡水區"
"251015","182-VK","2018/12/17 17:19:23","新北市淡水區樹林口22號","121.47733","25.16987","6501000","淡水區"
"251010","413-VK","2018/12/17 17:19:08","新北市淡水區中正路二段215號","121.426193333333","25.1891783333333","6501000","淡水區"
"251012","441-VK","2018/12/17 17:19:24","新北市淡水區水碓街81號","121.445055","25.1776633333333","6501000","淡水區"
"251007","442-VK","2018/12/17 17:19:22","新北市淡水區民生路60號","121.462098333333","25.1379383333333","6501000","淡水區"
"251006","561-UM","2018/12/17 17:19:21","新北市淡水區中山路189號","121.441288333333","25.174445","6501000","淡水區"
"251011","650-BX","2018/12/17 17:19:11","新北市淡水區坪頂路128號","121.465153333333","25.1610733333333","6501000","淡水區"
"251002","672-BX","2018/12/17 17:19:24","新北市淡水區中正路二段31號","121.419371666667","25.1816283333333","6501000","淡水區"
"251003","766-UM","2018/12/17 17:19:29","新北市淡水區中正路二段31號","121.419381666667","25.18176","6501000","淡水區"
"207003","550-UM","2018/12/17 17:19:16","新北市萬里區萬里里獅頭路23號","121.693305","25.1782333333333","6502800","萬里區"
"252002","178-VK","2018/12/17 17:19:13","新北市三芝區忠孝街1-15號","121.505545","25.2539266666667","6502100","三芝區"
"237012","275-BY","2018/12/17 17:19:20","新北市三峽區中山路459巷137號","121.349995","24.9339333333333","6500900","三峽區"
"247008","KED-0683","2018/12/17 17:19:26","新北市蘆洲區信義路30巷137號","121.475371666667","25.0765466666667","6501400","蘆洲區"
"242036","AAC-296","2018/12/17 17:19:27","新北市新莊區中正路481號","121.441283333333","25.0337916666667","6500500","新莊區"
"242058","986-R7","2018/12/17 17:19:23","新北市新莊區新泰路255巷83號","121.442346666667","25.0392766666667","6500500","新莊區"
"242056","751-BX","2018/12/17 17:19:27","新北市新莊區新莊路658號","121.442406666667","25.0329183333333","6500500","新莊區"
"242027","615-BX","2018/12/17 17:19:21","新北市新莊區復興路二段176號","121.458776666667","25.0444016666667","6500500","新莊區"
"242025","613-BX","2018/12/17 17:19:24","新北市新莊區復興路一段89號","121.448561666667","25.0426833333333","6500500","新莊區"
"242029","612-BX","2018/12/17 17:19:25","新北市新莊區幸福路612號","121.451693333333","25.0492416666667","6500500","新莊區"
"242044","566-BX","2018/12/17 17:19:11","新北市新莊區中正路577號","121.43453","25.0326466666667","6500500","新莊區"
"242048","497-BY","2018/12/17 17:19:21","新北市新莊區龍安路249巷1號","121.41895","25.0205083333333","6500500","新莊區"
"242053","441-UM","2018/12/17 17:19:20","新北市新莊區瓊林南路89號","121.437086666667","25.0121183333333","6500500","新莊區"
"242002","440-UM","2018/12/17 17:19:16","新北市新莊區瓊林路19號","121.445681666667","25.0286783333333","6500500","新莊區"
"242039","415-TV","2018/12/17 17:19:18","新北市新莊區民安路318號","121.428641666667","25.02213","6500500","新莊區"
"242046","400-BY","2018/12/17 17:19:09","新北市新莊區新泰路255巷83號","121.442143333333","25.038945","6500500","新莊區"
"242023","362-BY","2018/12/17 17:19:24","新北市新莊區中環路二段392-1號","121.442466666667","25.0455583333333","6500500","新莊區"
"242060","353-BY","2018/12/17 17:19:16","新北市新莊區中正路471號","121.4419","25.0339916666667","6500500","新莊區"
"242011","132-UY","2018/12/17 17:19:16","新北市新莊區新泰路486號","121.442485","25.0456933333333","6500500","新莊區"
"242034","135-UY","2018/12/17 17:19:16","新北市新莊區中正路471號","121.44187","25.0335866666667","6500500","新莊區"
"242050","172-VK","2018/12/17 17:19:14","新北市新莊區新樹路449巷23號","121.434838333333","25.0143283333333","6500500","新莊區"
"242013","173-VK","2018/12/17 17:19:18","新北市新莊區三和路12-21號","121.44202","25.0386016666667","6500500","新莊區"
"242019","175-VK","2018/12/17 17:19:15","新北市新莊區中港一街151號","121.447658333333","25.0450116666667","6500500","新莊區"
"242007","176-VK","2018/12/17 17:19:12","新北市新莊區中平路82巷32-1號","121.44618","25.0448616666667","6500500","新莊區"
"242017","KED-0687","2018/12/17 17:19:24","新北市新莊區中平路82巷32號","121.446146666667","25.0447866666667","6500500","新莊區"
"242021","346-TH","2018/12/17 17:19:24","新北市新莊區中港路五守新村1巷7號","121.455348333333","25.0381483333333","6500500","新莊區"
"242031","348-TH","2018/12/17 17:19:26","新北市新莊區新泰路462號","121.443353333333","25.0448766666667","6500500","新莊區"
"242004","349-TH","2018/12/17 17:19:29","新北市新莊區復興路一段14號","121.445828333333","25.0415283333333","6500500","新莊區"
"242009","350-TH","2018/12/17 17:19:16","新北市新莊區中環路二段392-1號","121.442353333333","25.04576","6500500","新莊區"
"242015","351-TH","2018/12/17 17:19:15","新北市新莊區新泰路296號","121.44562","25.040835","6500500","新莊區"
"238015","755-BX","2018/12/17 17:19:26","新北市樹林區文化街120巷1號","121.41595","24.989695","6500700","樹林區"
"238019","599-UM","2018/12/17 17:19:13","新北市樹林區八德街311號","121.421528333333","24.97731","6500700","樹林區"
"238018","571-TV","2018/12/17 17:19:20","新北市樹林區鎮前街269巷37號","121.41924","24.98489","6500700","樹林區"
"238024","5061-A6","2018/12/17 17:19:17","新北市樹林區保安街一段48巷36號","121.426748333333","24.995565","6500700","樹林區"
"238022","KEA-2213","2018/12/17 17:19:26","新北市樹林區忠孝街15號","121.423381666667","24.9825983333333","6500700","樹林區"
"238021","KEA-2539","2018/12/17 17:19:30","新北市樹林區西圳街一段71號","121.400355","24.9630133333333","6500700","樹林區"
"238025","303-VK","2018/12/17 17:19:18","新北市樹林區保安二街69號","121.424596666667","24.9949833333333","6500700","樹林區"
"238017","283-BY","2018/12/17 17:19:20","新北市樹林區光武街35號","121.416575","25.0065933333333","6500700","樹林區"
"238014","282-BY","2018/12/17 17:19:12","新北市樹林區長壽街70巷19-1號","121.42184","24.9947466666667","6500700","樹林區"
"238020","268-VK","2018/12/17 17:19:08","新北市樹林區中正路22-1號","121.427841666667","24.9992883333333","6500700","樹林區"
"238026","172-UY","2018/12/17 17:19:15","新北市樹林區東大街144號","121.41001","24.97593","6500700","樹林區"
"239007","AAC-297","2018/12/17 17:19:20","新北市鶯歌區國慶街115巷21號","121.351178333333","24.9545","6500800","鶯歌區"
"239006","891-R6","2018/12/17 17:19:19","新北市鶯歌區德昌二街3巷1-1號","121.333213333333","24.9591633333333","6500800","鶯歌區"
"239008","527-UM","2018/12/17 17:19:10","新北市鶯歌區西湖街曾厝巷19號","121.33948","24.961145","6500800","鶯歌區"
"239005","526-UM","2018/12/17 17:19:30","新北市鶯歌區鶯桃路555號","121.330065","24.96785","6500800","鶯歌區"
"239001","417-VK","2018/12/17 17:19:11","新北市鶯歌區尖山路173巷31號","121.345351666667","24.9469883333333","6500800","鶯歌區"
"239003","360-BY","2018/12/17 17:19:25","新北市鶯歌區德昌二街33號","121.33332","24.9587633333333","6500800","鶯歌區"
"239002","359-BY","2018/12/17 17:19:14","新北市鶯歌區建國路156號","121.350621666667","24.953655","6500800","鶯歌區"
"239004","193-VK","2018/12/17 17:19:15","新北市鶯歌區文化路288號","121.352715","24.9469366666667","6500800","鶯歌區"
"242042","281-VK","2018/12/17 17:19:27","新北市新莊區新樹路52-25號","121.437145","25.0270316666667","6500500","新莊區"
