"lineid","car","time","location","longitude","latitude","cityid","cityname"
"234026","9371-KE","2018/12/17 17:49:26","新北市永和區中山路一段101號","121.511138333333","25.0103883333333","6500400","永和區"
"234011","9373-KE","2018/12/17 17:49:14","新北市永和區福和路1號","121.525485","25.0095433333333","6500400","永和區"
"249005","172-UM","2018/12/17 17:49:15","新北市八里區荖阡坑路34-2號","121.402373333333","25.13095","6502300","八里區"
"249001","173-UM","2018/12/17 17:49:22","新北市八里區龍米路二段131號","121.445281666667","25.1475233333333","6502300","八里區"
"249004","303-UY","2018/12/17 17:49:12","新北市八里區中華路一段309巷19-13號","121.417216666667","25.1534016666667","6502300","八里區"
"249002","305-UY","2018/12/17 17:48:27","新北市八里區頂寮二街121巷18-10號","121.44629","25.1274266666667","6502300","八里區"
"249003","593-UM","2018/12/17 17:49:23","新北市八里區中山路二段20號","121.409793333333","25.1559216666667","6502300","八里區"
"248016","026-BX","2018/12/17 17:49:19","新北市五股區中興路二段83巷26-6號","121.459986666667","25.0752566666667","6501500","五股區"
"248006","077-UY","2018/12/17 17:49:16","新北市五股區中興路二段83巷26-6號","121.459925","25.075285","6501500","五股區"
"248008","095-VK","2018/12/17 17:49:16","新北市五股區中興路二段57-6號","121.460498333333","25.0753666666667","6501500","五股區"
"248018","225-UY","2018/12/17 17:49:15","新北市五股區中興路二段83巷26-6號","121.460015","25.0752416666667","6501500","五股區"
"248002","678-BX","2018/12/17 17:49:18","新北市五股區中興路二段37巷28號","121.460438333333","25.0746633333333","6501500","五股區"
"248010","682-TV","2018/12/17 17:49:25","新北市五股區中興路二段37巷28號","121.460193333333","25.075055","6501500","五股區"
"232011","375-UM","2018/12/17 17:49:22","新北市坪林區北宜路八段246號","121.709243333333","24.93495","6502000","坪林區"
"244007","080-UY","2018/12/17 17:49:12","新北市林口區竹林路153號","121.388676666667","25.0798016666667","6501700","林口區"
"244019","402-UM","2018/12/17 17:49:27","新北市林口區文化一路一段24號","121.370276666667","25.0685916666667","6501700","林口區"
"244013","KEA-2802","2018/12/17 17:49:17","新北市林口區中正路499號","121.383428333333","25.0777433333333","6501700","林口區"
"244023","483-VK","2018/12/17 17:49:24","新北市林口區東湖路60號","121.387496666667","25.0740933333333","6501700","林口區"
"244017","485-VK","2018/12/17 17:49:16","新北市林口區文化二路一段341號","121.370458333333","25.0737266666667","6501700","林口區"
"244009","656-BX","2018/12/17 17:49:15","新北市林口區林口路303號","121.385591666667","25.0850766666667","6501700","林口區"
"244011","701-TV","2018/12/17 17:49:10","新北市林口區竹林路2號","121.38658","25.0770966666667","6501700","林口區"
"244025","837-TS","2018/12/17 17:49:14","新北市林口區忠孝三路42號","121.360121666667","25.0698016666667","6501700","林口區"
"244021","838-TS","2018/12/17 17:49:22","新北市林口區仁愛路一段83巷38號","121.397686666667","25.0706033333333","6501700","林口區"
"243016","KEA-2801","2018/12/17 17:44:20","新北市泰山區犁頭窠3-1號","121.42229","25.06058","6501600","泰山區"
"222003","436-BY","2018/12/17 17:49:13","新北市深坑區阿柔洋60-1號","121.608618333333","24.998495","6501800","深坑區"
"222002","659-BX","2018/12/17 17:49:14","新北市深坑區平埔街22巷8號","121.614995","25.0008516666667","6501800","深坑區"
"231046","107-UY","2018/12/17 17:49:17","新北市新店區康雅崙路70號","121.533536666667","24.9268766666667","6500600","新店區"
"231055","AKT-0513","2018/12/17 17:49:30","新北市新店區安華路28-1號","121.519515","24.9606833333333","6500600","新店區"
"241024","065-VK","2018/12/17 17:49:27","新北市三重區忠孝路三段26號","121.4814","25.0669816666667","6500200","三重區"
"251014","742-BX","2018/12/17 17:49:14","新北市淡水區公埔子16-6號","121.481021666667","25.224585","6501000","淡水區"
"241016","266-UM","2018/12/17 17:49:09","新北市三重區新北大道一段7號","121.489605","25.0613566666667","6500200","三重區"
"241024","KEA-2210","2018/12/17 17:49:26","新北市三重區國道路一段45號","121.48274","25.0729233333333","6500200","三重區"
"235064","005-UY","2018/12/17 17:49:28","新北市中和區員山路36巷16-3號","121.48503","24.9912966666667","6500300","中和區"
"235063","006-UY","2018/12/17 17:49:18","新北市中和區員山路36巷16-3號","121.485051666667","24.991495","6500300","中和區"
"235058","151-BY","2018/12/17 17:49:16","新北市中和區員山路36巷16-2號","121.485226666667","24.9915966666667","6500300","中和區"
"247012","KEA-2869","2018/12/17 17:49:18","新北市蘆洲區民族路193號","121.478426666667","25.0890433333333","6501400","蘆洲區"
"247006","KED-0682","2018/12/17 17:49:12","新北市蘆洲區九芎街115號","121.465546666667","25.0795416666667","6501400","蘆洲區"
"235054","640-BX","2018/12/17 17:49:25","新北市中和區員山路36巷16-5號","121.484798333333","24.991955","6500300","中和區"
"235065","911-UM","2018/12/17 17:49:22","新北市中和區連城路467-6號","121.483595","24.9959133333333","6500300","中和區"
"247002","893-R6","2018/12/17 17:49:17","新北市蘆洲區永平街32巷21弄31號","121.458061666667","25.092205","6501400","蘆洲區"
"247024","500-BY","2018/12/17 17:49:30","新北市蘆洲區長樂路233巷3號","121.461416666667","25.089985","6501400","蘆洲區"
"247020","057-VK","2018/12/17 17:49:22","新北市蘆洲區民義街71巷31號","121.47214","25.0911183333333","6501400","蘆洲區"
"247010","056-VK","2018/12/17 17:49:18","新北市蘆洲區民族路46號","121.476885","25.08447","6501400","蘆洲區"
"247014","053-VK","2018/12/17 17:49:24","新北市蘆洲區保和街69巷18號","121.46966","25.0854183333333","6501400","蘆洲區"
"247018","007-UY","2018/12/17 17:49:21","新北市蘆洲區復興路21號","121.47568","25.086975","6501400","蘆洲區"
"247004","002-UY","2018/12/17 17:49:12","新北市蘆洲區長榮路106號","121.461856666667","25.0840516666667","6501400","蘆洲區"
"247022","001-UY","2018/12/17 17:49:09","新北市蘆洲區中正路507號","121.461536666667","25.0972016666667","6501400","蘆洲區"
"228002","585-TW","2018/12/17 17:49:27","新北市貢寮區福隆里龜壽谷街13號","121.956695","25.005785","6502600","貢寮區"
"228001","670-TC","2018/12/17 17:49:16","新北市貢寮區真理里新港街26巷28-6號","121.927703333333","25.0554033333333","6502600","貢寮區"
"228003","828-UM","2018/12/17 17:49:12","新北市貢寮區真理里延平街72-5號","121.925238333333","25.0581483333333","6502600","貢寮區"
"224006","676-BX","2018/12/17 17:49:25","新北市瑞芳區傑魚坑路183號","121.78844","25.108275","6501200","瑞芳區"
"224008","285-BY","2018/12/17 17:49:25","新北市瑞芳區明燈路一段220號","121.81826","25.10866","6501200","瑞芳區"
"224009","273-VK","2018/12/17 17:49:25","新北市瑞芳區新山路143號","121.85234","25.1086716666667","6501200","瑞芳區"
"224005","271-BY","2018/12/17 17:49:15","新北市瑞芳區海濱路154號","121.829918333333","25.1220516666667","6501200","瑞芳區"
"227001","642-TC","2018/12/17 17:37:54","新北市雙溪區共和里東榮街52號","121.866328333333","25.03367","6502500","雙溪區"
"253006","032-BX","2018/12/17 17:49:23","新北市石門區中央路6號","121.566593333333","25.2913516666667","6502200","石門區"
"208002","KEA-2872","2018/12/17 17:49:21","新北市金山區磺清路135號","121.639475","25.227745","6502700","金山區"
"208001","761-BX","2018/12/17 17:49:15","新北市金山區磺清路135號","121.639256666667","25.2277833333333","6502700","金山區"
"251009","008-UM","2018/12/17 17:49:28","新北市淡水區長興街48號","121.444211666667","25.1716733333333","6501000","淡水區"
"251004","009-UM","2018/12/17 17:49:16","新北市淡水區民權一街17巷2號","121.458771666667","25.136605","6501000","淡水區"
"251005","010-UM","2018/12/17 17:49:17","新北市淡水區學府路102巷5-3號","121.450608333333","25.17191","6501000","淡水區"
"251001","011-UM","2018/12/17 17:49:12","新北市淡水區自強路279-1號","121.461531666667","25.1275333333333","6501000","淡水區"
"251013","KEA-2871","2018/12/17 17:49:20","新北市淡水區泉洲厝31號","121.479635","25.1910266666667","6501000","淡水區"
"251016","179-VK","2018/12/17 17:49:25","新北市淡水區埤島39-15號","121.452753333333","25.195875","6501000","淡水區"
"251008","181-VK","2018/12/17 17:49:16","新北市淡水區八勢路一段125-1號","121.467238333333","25.1567333333333","6501000","淡水區"
"251015","182-VK","2018/12/17 17:49:11","新北市淡水區興福寮6號","121.491838333333","25.1655716666667","6501000","淡水區"
"251010","413-VK","2018/12/17 17:49:27","新北市淡水區淡海路280巷33弄34-2號","121.41873","25.1886066666667","6501000","淡水區"
"251012","441-VK","2018/12/17 17:49:29","新北市淡水區北新路一段605號","121.4712","25.1842983333333","6501000","淡水區"
"251007","442-VK","2018/12/17 17:49:22","新北市淡水區民生路16巷31號","121.461803333333","25.1375333333333","6501000","淡水區"
"251006","561-UM","2018/12/17 17:49:21","新北市淡水區大信街1巷25號","121.440223333333","25.1767283333333","6501000","淡水區"
"251011","650-BX","2018/12/17 17:49:11","新北市淡水區吳(仔)厝70號","121.479578333333","25.1496783333333","6501000","淡水區"
"251002","672-BX","2018/12/17 17:49:24","新北市淡水區中山路50號","121.444051666667","25.17031","6501000","淡水區"
"251003","766-UM","2018/12/17 17:49:09","新北市淡水區大忠街5巷1號","121.443145","25.1764066666667","6501000","淡水區"
"207003","550-UM","2018/12/17 17:49:15","新北市萬里區野柳里東澳路66號","121.692643333333","25.2008966666667","6502800","萬里區"
"207004","225-TW","2018/12/17 17:49:27","新北市萬里區萬里里瑪鋉頂街100-1號","121.687868333333","25.180515","6502800","萬里區"
"252002","178-VK","2018/12/17 17:49:13","新北市三芝區智成街12號","121.50311","25.2566966666667","6502100","三芝區"
"237004","KEA-2597","2018/12/17 17:49:15","新北市三峽區中山路365號","121.359051666667","24.937265","6500900","三峽區"
"237009","210-TH","2018/12/17 17:49:17","新北市三峽區大勇路3巷36號","121.367495","24.9368033333333","6500900","三峽區"
"237013","252-BX","2018/12/17 17:49:17","新北市三峽區安溪路309巷3號","121.373458333333","24.9336266666667","6500900","三峽區"
"237012","275-BY","2018/12/17 17:49:20","新北市三峽區文化路122號","121.371008333333","24.9361933333333","6500900","三峽區"
"237008","302-VK","2018/12/17 17:49:21","新北市三峽區中正路二段6號","121.367808333333","24.9199183333333","6500900","三峽區"
"237014","433-BY","2018/12/17 17:49:23","新北市三峽區文化路120巷3號","121.371041666667","24.9364316666667","6500900","三峽區"
"237006","5529-G3","2018/12/17 17:49:27","新北市三峽區介壽路一段554號","121.387578333333","24.933725","6500900","三峽區"
"237015","649-BX","2018/12/17 17:49:29","新北市三峽區白雞127號","121.395296666667","24.9087066666667","6500900","三峽區"
"237010","706-TV","2018/12/17 17:49:10","新北市三峽區文化路212-3號","121.368476666667","24.935965","6500900","三峽區"
"237005","AKY-6261","2018/12/17 17:49:11","新北市三峽區中山路459巷92號","121.354446666667","24.936205","6500900","三峽區"
"236042","KED-0685","2018/12/17 17:49:23","新北市土城區城林路6巷80號","121.438496666667","24.9797766666667","6501300","土城區"
"236078","166-UM","2018/12/17 17:49:20","新北市土城區永寧路11號","121.430446666667","24.96414","6501300","土城區"
"236014","270-VK","2018/12/17 17:49:25","新北市土城區城林路6巷80號","121.438431666667","24.979595","6501300","土城區"
"236039","271-VK","2018/12/17 17:49:25","新北市土城區城林路6巷80號","121.4386","24.97967","6501300","土城區"
"247008","KED-0683","2018/12/17 17:49:26","新北市蘆洲區中山一路285號","121.471976666667","25.0795983333333","6501400","蘆洲區"
"236020","401-BY","2018/12/17 17:49:13","新北市土城區城林路6巷80號","121.438525","24.9796316666667","6501300","土城區"
"236059","912-UM","2018/12/17 17:49:20","新北市土城區中華路二段126號","121.437776666667","24.973615","6501300","土城區"
"236055","AAC-216","2018/12/17 17:49:24","新北市土城區城林路6巷80號","121.438635","24.9796833333333","6501300","土城區"
"242036","AAC-296","2018/12/17 17:49:27","新北市新莊區建福路59巷17號","121.427503333333","25.02762","6500500","新莊區"
"242058","986-R7","2018/12/17 17:49:23","新北市新莊區中正路722-1號","121.416046666667","25.0248033333333","6500500","新莊區"
"242056","751-BX","2018/12/17 17:49:27","新北市新莊區瓊林路40巷27號","121.44666","25.030155","6500500","新莊區"
"242027","615-BX","2018/12/17 17:49:21","新北市新莊區福壽街143號","121.458028333333","25.0527816666667","6500500","新莊區"
"242025","613-BX","2018/12/17 17:49:05","新北市三重區新北大道二段137號","121.465901666667","25.061345","6500500","新莊區"
"242029","612-BX","2018/12/17 17:49:25","新北市新莊區新泰路310號","121.445463333333","25.0414533333333","6500500","新莊區"
"242044","566-BX","2018/12/17 17:49:22","新北市新莊區雙鳳路11號","121.417128333333","25.0268","6500500","新莊區"
"242048","497-BY","2018/12/17 17:49:23","新北市新莊區萬安街102巷11號","121.420055","25.022195","6500500","新莊區"
"242053","441-UM","2018/12/17 17:49:20","新北市新莊區民安西路470-1號","121.431711666667","25.0078333333333","6500500","新莊區"
"242002","440-UM","2018/12/17 17:49:15","新北市新莊區景德路93號","121.45186","25.0347433333333","6500500","新莊區"
"242039","415-TV","2018/12/17 17:49:18","新北市新莊區富國路204號","121.424853333333","25.0241816666667","6500500","新莊區"
"242046","400-BY","2018/12/17 17:49:09","新北市新莊區建國一路76號","121.434401666667","25.0304733333333","6500500","新莊區"
"242023","362-BY","2018/12/17 17:49:24","新北市新莊區福樂街76號","121.457691666667","25.0467016666667","6500500","新莊區"
"242060","353-BY","2018/12/17 17:49:27","新北市新莊區新樹路607號","121.433411666667","25.00558","6500500","新莊區"
"242011","132-UY","2018/12/17 17:49:16","新北市新莊區中港路668號","121.450786666667","25.0562183333333","6500500","新莊區"
"242034","135-UY","2018/12/17 17:49:16","新北市新莊區新莊路692號","121.440636666667","25.0327266666667","6500500","新莊區"
"242050","172-VK","2018/12/17 17:49:24","新北市新莊區西盛街257巷15號","121.42868","25.0159366666667","6500500","新莊區"
"242013","173-VK","2018/12/17 17:49:18","新北市新莊區中誠街164號","121.448155","25.0474116666667","6500500","新莊區"
"242019","175-VK","2018/12/17 17:49:31","新北市新莊區新央街35號","121.456596666667","25.0402616666667","6500500","新莊區"
"242007","176-VK","2018/12/17 17:49:19","新北市新莊區福樂街156巷12弄9號","121.456691666667","25.0488516666667","6500500","新莊區"
"242017","KED-0687","2018/12/17 17:49:24","新北市新莊區永安街1號","121.452351666667","25.0448366666667","6500500","新莊區"
"242021","346-TH","2018/12/17 17:49:24","新北市新莊區永寧街32巷2號","121.452885","25.0392316666667","6500500","新莊區"
"242031","348-TH","2018/12/17 17:49:26","新北市新莊區新泰路357巷3弄21號","121.442435","25.04073","6500500","新莊區"
"242004","349-TH","2018/12/17 17:49:09","新北市新莊區自立街237號","121.45817","25.0455333333333","6500500","新莊區"
"242009","350-TH","2018/12/17 17:49:16","新北市新莊區昌明街70號","121.455365","25.0522116666667","6500500","新莊區"
"242015","351-TH","2018/12/17 17:49:15","新北市新莊區新泰路442號","121.443345","25.044775","6500500","新莊區"
"238015","755-BX","2018/12/17 17:49:25","新北市樹林區樹德街42巷5號","121.420995","24.992255","6500700","樹林區"
"238019","599-UM","2018/12/17 17:49:13","新北市樹林區太元街51號","121.41865","24.979215","6500700","樹林區"
"238018","571-TV","2018/12/17 17:49:20","新北市樹林區樹新路59號","121.42741","24.9950866666667","6500700","樹林區"
"238022","KEA-2213","2018/12/17 17:49:26","新北市樹林區太順街71號","121.416858333333","24.9784466666667","6500700","樹林區"
"238021","KEA-2539","2018/12/17 17:49:15","新北市樹林區柑園街一段68號","121.402265","24.9602883333333","6500700","樹林區"
"238025","303-VK","2018/12/17 17:49:14","新北市樹林區三俊街81巷2號","121.415641666667","25.01544","6500700","樹林區"
"238017","283-BY","2018/12/17 17:49:24","新北市樹林區俊德街3號","121.41492","25.0149","6500700","樹林區"
"238014","282-BY","2018/12/17 17:49:12","新北市樹林區保安街一段227號","121.420306666667","24.9964266666667","6500700","樹林區"
"238020","268-VK","2018/12/17 17:49:28","新北市樹林區俊英街276號","121.42411","25.01273","6500700","樹林區"
"238026","172-UY","2018/12/17 17:49:15","新北市樹林區新興街19巷11號","121.400806666667","24.9731816666667","6500700","樹林區"
"238016","169-UY","2018/12/17 17:36:41","新北市樹林區育英街176號","121.418281666667","24.9896133333333","6500700","樹林區"
"239007","AAC-297","2018/12/17 17:49:20","新北市鶯歌區永利街22號","121.339216666667","24.9548383333333","6500800","鶯歌區"
"239006","891-R6","2018/12/17 17:49:19","新北市鶯歌區永和街115巷1號","121.333541666667","24.9688133333333","6500800","鶯歌區"
"239008","527-UM","2018/12/17 17:49:29","新北市鶯歌區國際一路167號","121.335873333333","24.97817","6500800","鶯歌區"
"239005","526-UM","2018/12/17 17:49:23","新北市鶯歌區鳳吉五街21號","121.327065","24.97257","6500800","鶯歌區"
"239001","417-VK","2018/12/17 17:49:11","新北市鶯歌區中正三路387號","121.326775","24.9344983333333","6500800","鶯歌區"
"239003","360-BY","2018/12/17 17:49:25","新北市鶯歌區鶯桃路204號","121.33728","24.9590466666667","6500800","鶯歌區"
"239002","359-BY","2018/12/17 17:49:13","新北市鶯歌區光明街107號","121.344413333333","24.955805","6500800","鶯歌區"
"239004","193-VK","2018/12/17 17:49:15","新北市鶯歌區文化路369-1號","121.352388333333","24.950955","6500800","鶯歌區"
"221008","489-VK","2018/12/17 17:49:17","新北市汐止區康寧街901號","121.651418333333","25.0750483333333","6501100","汐止區"
"221036","130-UY","2018/12/17 17:49:19","新北市汐止區鄉長路一段289號","121.66906","25.079035","6501100","汐止區"
"221012","278-VK","2018/12/17 17:49:18","新北市汐止區長江街3號","121.65429","25.0711466666667","6501100","汐止區"
"221023","279-VK","2018/12/17 17:49:27","新北市汐止區康寧街607號","121.635793333333","25.070945","6501100","汐止區"
"221032","280-BY","2018/12/17 17:49:28","新北市汐止區大同路一段142-1號","121.631321666667","25.0553816666667","6501100","汐止區"
"221027","281-BY","2018/12/17 17:49:17","新北市汐止區汐萬路一段244-1號","121.651463333333","25.0733233333333","6501100","汐止區"
"221010","297-VK","2018/12/17 17:49:18","新北市汐止區汐萬路二段98巷2號","121.64837","25.0838","6501100","汐止區"
"221029","298-VK","2018/12/17 17:49:15","新北市汐止區康寧街901號","121.651716666667","25.0749583333333","6501100","汐止區"
"221021","299-VK","2018/12/17 17:49:20","新北市汐止區汐萬路一段5號","121.656065","25.0673683333333","6501100","汐止區"
"221031","353-TW","2018/12/17 17:49:12","新北市汐止區中興路96巷16號","121.635533333333","25.0625116666667","6501100","汐止區"
"221035","622-UM","2018/12/17 17:49:31","新北市汐止區汐萬路一段211巷12-1號","121.651555","25.07222","6501100","汐止區"
"221025","623-UM","2018/12/17 17:49:24","新北市汐止區大同路二段187巷7號","121.65188","25.0647683333333","6501100","汐止區"
"221038","646-BX","2018/12/17 17:49:30","新北市汐止區汐萬路一段186號","121.652315","25.0720283333333","6501100","汐止區"
"221018","753-BX","2018/12/17 17:49:25","新北市汐止區忠孝東路348號","121.665533333333","25.0697683333333","6501100","汐止區"
"242042","281-VK","2018/12/17 17:49:27","新北市泰山區中山路二段841號","121.425855","25.0354383333333","6500500","新莊區"
"235061","KEA-2875","2018/12/17 17:24:03","新北市中和區員山路36巷16-2號","121.485353333333","24.9917483333333","6500300","中和區"
