"lineid","car","time","location","longitude","latitude","cityid","cityname"
"234046","148-BY","2018/12/17 19:19:18","新北市永和區得和路373巷16弄1號","121.525076666667","25.0002833333333","6500400","永和區"
"234081","298-R6","2018/12/17 19:19:31","新北市永和區福和路38號","121.523763333333","25.0082933333333","6500400","永和區"
"234038","336-UY","2018/12/17 19:19:21","新北市永和區民樂街55巷2號","121.527448333333","24.9984783333333","6500400","永和區"
"234064","337-UY","2018/12/17 19:19:28","新北市永和區永元路17巷6弄4號","121.52138","25.0005983333333","6500400","永和區"
"234070","552-UM","2018/12/17 19:19:23","新北市永和區豫溪街55號","121.517276666667","25.0099333333333","6500400","永和區"
"234017","745-BX","2018/12/17 19:19:19","新北市永和區文化路144巷27號","121.512438333333","25.0167","6500400","永和區"
"234030","746-BX","2018/12/17 19:19:25","新北市永和區厚德街82號","121.523728333333","24.99891","6500400","永和區"
"234054","KEA-2590","2018/12/17 19:19:26","新北市永和區中興街20號","121.516046666667","25.0118633333333","6500400","永和區"
"234007","839-RS","2018/12/17 19:19:22","新北市永和區中山路一段238號","121.507353333333","25.007625","6500400","永和區"
"234013","KEA-2591","2018/12/17 19:19:10","新北市永和區信義路60號","121.51285","25.0126533333333","6500400","永和區"
"234061","AAD-866","2018/12/17 19:19:18","新北市永和區秀朗路一段175號","121.517085","25.0036666666667","6500400","永和區"
"234086","748-BX","2018/12/17 19:19:16","新北市永和區中正路530號","121.51737","25.0051866666667","6500400","永和區"
"234042","862-TW","2018/12/17 19:19:32","新北市永和區保平路151巷13號","121.510471666667","25.0052233333333","6500400","永和區"
"234050","863-TW","2018/12/17 19:19:13","新北市永和區保福路二段78號","121.51047","25.013355","6500400","永和區"
"234026","9371-KE","2018/12/17 19:19:26","新北市永和區安樂路144巷15號","121.514651666667","25.0001966666667","6500400","永和區"
"234011","9373-KE","2018/12/17 19:19:13","新北市永和區保福路二段23巷19號","121.510113333333","25.0111516666667","6500400","永和區"
"249005","172-UM","2018/12/17 19:19:15","新北市八里區中華路三段120-2號","121.392728333333","25.1377216666667","6502300","八里區"
"249003","593-UM","2018/12/17 19:19:25","新北市八里區中山路二段466巷3號","121.398786666667","25.1473383333333","6502300","八里區"
"248016","026-BX","2018/12/17 19:19:18","新北市五股區成洲五路12號","121.452318333333","25.10156","6501500","五股區"
"248008","095-VK","2018/12/17 19:19:16","新北市五股區中興路二段57-6號","121.460426666667","25.0754783333333","6501500","五股區"
"248018","225-UY","2018/12/17 19:19:15","新北市五股區民義路一段255-6號","121.426088333333","25.0914616666667","6501500","五股區"
"248012","247-BX","2018/12/17 19:19:20","新北市五股區中興路四段48巷16號","121.438625","25.0834316666667","6501500","五股區"
"248004","677-BX","2018/12/17 19:19:20","新北市五股區五福路144號","121.432086666667","25.091395","6501500","五股區"
"248002","678-BX","2018/12/17 19:09:38","新北市五股區凌雲路一段158巷1號","121.447615","25.1029516666667","6501500","五股區"
"248010","682-TV","2018/12/17 19:19:25","新北市五股區水碓一路23號","121.430621666667","25.0712483333333","6501500","五股區"
"234023","9380-KE","2018/12/17 19:18:37","新北市永和區竹林路118號","121.519671666667","25.0113233333333","6500400","永和區"
"234077","969-R7","2018/12/17 19:19:12","新北市永和區民族街42號","121.518425","24.9988016666667","6500400","永和區"
"234074","AAC-211","2018/12/17 19:19:28","新北市永和區竹林路126號","121.519968333333","25.0112216666667","6500400","永和區"
"234067","AAC-212","2018/12/17 19:19:27","新北市永和區保平路30巷4號","121.511895","25.0074133333333","6500400","永和區"
"234003","AAC-295","2018/12/17 19:19:29","新北市永和區中山路一段131號","121.510538333333","25.009915","6500400","永和區"
"244019","402-UM","2018/12/17 19:19:27","新北市林口區嘉溪雅坑6號","121.34185","25.1042216666667","6501700","林口區"
"244023","483-VK","2018/12/17 19:19:24","新北市林口區文化三路一段617巷88號","121.37044","25.0783133333333","6501700","林口區"
"244017","485-VK","2018/12/17 19:19:15","新北市林口區湖南里70-9號","121.375938333333","25.0897266666667","6501700","林口區"
"244011","701-TV","2018/12/17 19:19:30","新北市林口區中山路97巷14號","121.389238333333","25.0781816666667","6501700","林口區"
"243013","AAD-798","2018/12/17 19:19:21","新北市泰山區明志路三段145巷2弄8號","121.425123333333","25.0397366666667","6501600","泰山區"
"243009","297-R6","2018/12/17 19:19:26","新北市泰山區和平街13巷9號","121.434361666667","25.065095","6501600","泰山區"
"243016","KEA-2801","2018/12/17 19:19:28","新北市泰山區工專路20號","121.423721666667","25.039655","6501600","泰山區"
"243015","421-VK","2018/12/17 19:19:20","新北市泰山區公園路6號","121.429875","25.0540866666667","6501600","泰山區"
"243011","KEA-2215","2018/12/17 19:19:32","新北市泰山區中央路36巷1號","121.426276666667","25.0427216666667","6501600","泰山區"
"243010","KEA-2216","2018/12/17 19:19:14","新北市泰山區明志路一段492巷7號","121.42997","25.0547633333333","6501600","泰山區"
"243012","646-TV","2018/12/17 19:19:21","新北市泰山區仁愛路100巷18號","121.433163333333","25.0545883333333","6501600","泰山區"
"243014","680-BX","2018/12/17 19:19:32","新北市泰山區泰林路二段47號","121.435481666667","25.0576066666667","6501600","泰山區"
"222003","436-BY","2018/12/17 19:19:33","新北市深坑區深南路204號","121.626675","25.0160466666667","6501800","深坑區"
"222002","659-BX","2018/12/17 19:19:13","新北市深坑區北深路一段177號","121.632561666667","25.0108733333333","6501800","深坑區"
"231041","002-UM","2018/12/17 19:19:16","新北市新店區溪園路247號","121.52558","24.9834933333333","6500600","新店區"
"231059","046-UY","2018/12/17 19:19:19","新北市新店區安和路二段166-10號","121.519095","24.9741516666667","6500600","新店區"
"231040","047-UY","2018/12/17 19:19:25","新北市新店區三民路38號","121.536341666667","24.9715066666667","6500600","新店區"
"231044","106-UY","2018/12/17 19:19:30","新北市新店區中興路三段311號","121.541908333333","24.98608","6500600","新店區"
"231046","107-UY","2018/12/17 19:19:15","新北市新店區華城路12-1號","121.52925","24.957905","6500600","新店區"
"231052","108-UY","2018/12/17 19:19:24","新北市新店區新烏路二段200巷11號","121.547681666667","24.9166666666667","6500600","新店區"
"231047","187-VK","2018/12/17 19:19:28","新北市新店區中興路二段57巷11號","121.54593","24.970675","6500600","新店區"
"231065","188-VK","2018/12/17 19:19:27","新北市新店區安祥路109巷2號","121.475338333333","24.9586416666667","6500600","新店區"
"231042","268-BY","2018/12/17 19:19:31","新北市新店區中興路一段113號","121.541338333333","24.9627266666667","6500600","新店區"
"231051","278-BY","2018/12/17 19:19:29","新北市新店區中央路133巷1號","121.530691666667","24.9737066666667","6500600","新店區"
"231050","AAD-862","2018/12/17 19:19:13","新北市新店區竹林路30巷1號","121.552265","24.9513333333333","6500600","新店區"
"231058","3713-VJ","2018/12/17 19:19:24","新北市新店區檳榔路36巷20號","121.540895","24.9629433333333","6500600","新店區"
"231066","4716-K9","2018/12/17 19:19:18","新北市新店區安康路三段410號","121.48558","24.9515466666667","6500600","新店區"
"231056","4715-K9","2018/12/17 19:19:17","新北市新店區安康路二段414巷2號","121.495843333333","24.9578166666667","6500600","新店區"
"231049","513-UM","2018/12/17 19:19:17","新北市新店區明德路64號","121.541576666667","24.9794183333333","6500600","新店區"
"231045","617-UM","2018/12/17 19:19:19","新北市新店區北宜路一段260號","121.545706666667","24.9527466666667","6500600","新店區"
"231061","619-UM","2018/12/17 19:19:27","新北市新店區安康路一段46巷4號","121.53067","24.9610583333333","6500600","新店區"
"231063","641-BX","2018/12/17 19:19:16","新北市新店區達觀路8巷3-4號","121.503801666667","24.943165","6500600","新店區"
"231064","719-UM","2018/12/17 19:19:23","新北市新店區安忠路38號","121.513103333333","24.95951","6500600","新店區"
"231054","719-UY","2018/12/17 19:19:17","新北市新店區國校路6-2號","121.537911666667","24.9562033333333","6500600","新店區"
"231062","720-UM","2018/12/17 19:19:19","新北市新店區安康路一段227號","121.525643333333","24.96308","6500600","新店區"
"231060","897-TW","2018/12/17 19:19:25","新北市新店區安康路二段61號","121.514063333333","24.9631983333333","6500600","新店區"
"231043","899-TW","2018/12/17 19:19:26","新北市新店區寶橋路31號","121.54434","24.974255","6500600","新店區"
"241011","013-R5","2018/12/17 19:19:28","新北市三重區河邊北街110巷31號","121.503223333333","25.0707233333333","6500200","三重區"
"241022","060-VK","2018/12/17 19:19:09","新北市三重區重陽路二段68號","121.487345","25.0637883333333","6500200","三重區"
"241031","061-VK","2018/12/17 19:19:29","新北市三重區重新路四段246號","121.48571","25.0534933333333","6500200","三重區"
"241017","063-VK","2018/12/17 19:19:27","新北市三重區大同北路217號","121.491603333333","25.0660383333333","6500200","三重區"
"251014","742-BX","2018/12/17 19:19:14","新北市淡水區小中寮19-7號","121.484733333333","25.2295883333333","6501000","淡水區"
"241025","271-UM","2018/12/17 19:19:11","新北市三重區中正北路406號","121.475383333333","25.0704416666667","6500200","三重區"
"241007","398-BY","2018/12/17 19:19:19","新北市三重區慈愛街58號","121.486661666667","25.0793466666667","6500200","三重區"
"241035","KEA-2210","2018/12/17 19:19:26","新北市三重區信義西街138號","121.495486666667","25.0643283333333","6500200","三重區"
"241009","462-BY","2018/12/17 19:19:24","新北市三重區溪尾街230巷42-1號","121.486166666667","25.08116","6500200","三重區"
"241020","478-VK","2018/12/17 19:19:16","新北市三重區忠孝路一段87號","121.489911666667","25.0721533333333","6500200","三重區"
"241030","480-VK","2018/12/17 19:19:29","新北市三重區新興路42號","121.49145","25.05329","6500200","三重區"
"241006","AAD-863","2018/12/17 19:19:16","新北市三重區車路頭街182號","121.483696666667","25.0772316666667","6500200","三重區"
"241026","743-BX","2018/12/17 19:19:10","新北市三重區正義南路171號","121.499055","25.057285","6500200","三重區"
"241029","942-UM","2018/12/17 19:19:24","新北市三重區重安街26號","121.490425","25.0579366666667","6500200","三重區"
"235066","003-UY","2018/12/17 19:19:31","新北市中和區中和路137號","121.501855","24.9998616666667","6500300","中和區"
"235064","005-UY","2018/12/17 19:19:28","新北市中和區連城路4號","121.499228333333","25.0023483333333","6500300","中和區"
"235063","006-UY","2018/12/17 19:19:17","新北市中和區連城路249巷21弄2號","121.494071666667","24.99599","6500300","中和區"
"235056","096-UM","2018/12/17 19:19:19","新北市中和區員山路527號","121.479721666667","25.0068983333333","6500300","中和區"
"235039","097-UM","2018/12/17 19:19:15","新北市中和區秀峰街119巷2弄1號","121.519831666667","24.9904483333333","6500300","中和區"
"235040","150-BY","2018/12/17 19:19:29","新北市中和區安平路59號","121.509715","24.9952333333333","6500300","中和區"
"235058","151-BY","2018/12/17 19:19:16","新北市中和區連城路469巷22弄5號","121.483181666667","24.9951416666667","6500300","中和區"
"235055","183-VK","2018/12/17 19:19:17","新北市中和區德光路50號","121.469895","25.004005","6500300","中和區"
"235038","185-VK","2018/12/17 19:19:26","新北市中和區大仁街10巷52號","121.520605","24.9927183333333","6500300","中和區"
"235049","186-VK","2018/12/17 19:19:25","新北市中和區景新街235號","121.508085","24.9945666666667","6500300","中和區"
"235067","255-BX","2018/12/17 19:19:18","新北市中和區民樂路81號","121.484738333333","25.0013566666667","6500300","中和區"
"235044","293-VK","2018/12/17 19:19:33","新北市中和區復興路308號","121.501233333333","24.9903216666667","6500300","中和區"
"235072","301-VK","2018/12/17 19:19:30","新北市中和區連城路265巷8弄1號","121.491515","24.9955766666667","6500300","中和區"
"235042","KEA-2878","2018/12/17 19:19:19","新北市中和區安樂路217巷21弄16號","121.514006666667","24.9977933333333","6500300","中和區"
"235050","4979-A6","2018/12/17 19:19:28","新北市中和區景安路208巷42號","121.502396666667","24.9919983333333","6500300","中和區"
"235069","4980-A6","2018/12/17 19:19:17","新北市中和區福祥路90巷3號","121.499393333333","25.00573","6500300","中和區"
"235070","558-UM","2018/12/17 19:19:20","新北市中和區中山路二段205號","121.499558333333","25.00253","6500300","中和區"
"235045","565-BX","2018/12/17 19:19:26","新北市中和區景新街383巷38號","121.513831666667","24.9907183333333","6500300","中和區"
"235054","640-BX","2018/12/17 19:19:25","新北市中和區國光街107巷2弄28號","121.469473333333","24.9993483333333","6500300","中和區"
"235060","647-TV","2018/12/17 19:19:23","新北市中和區新生街114巷35號","121.482466666667","25.0022983333333","6500300","中和區"
"235047","732-UM","2018/12/17 19:19:16","新北市中和區景平路241巷29號","121.508828333333","24.9922783333333","6500300","中和區"
"235046","733-UM","2018/12/17 19:19:21","新北市中和區華新街133號","121.506691666667","24.9818883333333","6500300","中和區"
"235071","783-BX","2018/12/17 19:19:17","新北市中和區中正路635號","121.485295","24.9953283333333","6500300","中和區"
"235057","801-TS","2018/12/17 19:19:14","新北市中和區員山路423巷9號","121.480531666667","25.0031266666667","6500300","中和區"
"235041","802-TS","2018/12/17 19:19:22","新北市永和區中和路381號","121.508476666667","24.9998583333333","6500300","中和區"
"235052","805-TS","2018/12/17 19:19:28","新北市中和區興南路二段159巷1-1號","121.505145","24.9834666666667","6500300","中和區"
"235048","896-TW","2018/12/17 19:19:32","新北市中和區忠孝街112號","121.512188333333","24.9852616666667","6500300","中和區"
"235053","900-TW","2018/12/17 19:19:31","新北市中和區民德路218號","121.468158333333","24.9978683333333","6500300","中和區"
"235065","911-UM","2018/12/17 19:19:22","新北市中和區中山路二段64巷8號","121.50371","25.0050316666667","6500300","中和區"
"235051","157-BY","2018/12/17 19:19:16","新北市中和區和平街2巷4弄2號","121.50999","24.99053","6500300","中和區"
"235037","AAC-213","2018/12/17 19:19:25","新北市中和區秀朗路三段10巷37弄4號","121.524043333333","24.995865","6500300","中和區"
"235059","AAC-215","2018/12/17 19:19:20","新北市中和區錦和路396號","121.490931666667","24.9901133333333","6500300","中和區"
"220055","015-TV","2018/12/17 19:19:33","新北市板橋區新民街37號","121.463918333333","25.0104866666667","6500100","板橋區"
"220065","072-UY","2018/12/17 19:19:31","新北市板橋區國泰街70-4號","121.467523333333","25.0066","6500100","板橋區"
"220086","073-UY","2018/12/17 19:19:16","新北市板橋區中正路216巷4弄10號","121.456751666667","25.0182616666667","6500100","板橋區"
"220106","075-UY","2018/12/17 19:19:16","新北市板橋區長江路三段62號","121.473645","25.0338333333333","6500100","板橋區"
"220069","AAD-861","2018/12/17 19:19:14","新北市板橋區大明街20巷19弄24號","121.457635","25.0032616666667","6500100","板橋區"
"220016","120-SR","2018/12/17 19:12:28","新北市板橋區海山路19號","121.468691666667","25.0093066666667","6500100","板橋區"
"226004","312-R5","2018/12/17 19:19:22","新北市平溪區南山里南山坪21號","121.772876666667","25.037395","6502400","平溪區"
"228002","585-TW","2018/12/17 19:19:27","新北市貢寮區雙玉里田寮洋街22號","121.928925","25.02176","6502600","貢寮區"
"228001","670-TC","2018/12/17 19:19:16","新北市貢寮區真理里新港街10號","121.92556","25.0543583333333","6502600","貢寮區"
"228003","828-UM","2018/12/17 19:19:32","新北市貢寮區和美里和美街19-2號","121.912801666667","25.08261","6502600","貢寮區"
"224010","AGQ-8101","2018/12/17 19:19:20","新北市瑞芳區基山街115號","121.844336666667","25.1085866666667","6501200","瑞芳區"
"224008","285-BY","2018/12/17 19:19:25","新北市瑞芳區一坑路317-2號","121.80147","25.1089933333333","6501200","瑞芳區"
"227001","642-TC","2018/12/17 19:19:18","新北市雙溪區平林里梅竹蹊66-1號","121.860163333333","25.0358166666667","6502500","雙溪區"
"227008","400-TW","2018/12/17 19:19:30","新北市雙溪區新基里新基北街40號","121.868516666667","25.0380266666667","6502500","雙溪區"
"253006","032-BX","2018/12/17 19:19:23","新北市石門區楓林19號","121.536608333333","25.2909133333333","6502200","石門區"
"253005","295-VK","2018/12/17 19:19:16","新北市石門區阿里荖13號","121.608446666667","25.2802283333333","6502200","石門區"
"222001","KEA-2212","2018/12/17 19:19:11","新北市深坑區北深路二段84號","121.617451666667","25.003515","6501800","深坑區"
"208002","KEA-2872","2018/12/17 19:19:21","新北市金山區中華路132-1號","121.633148333333","25.2209816666667","6502700","金山區"
"208003","665-BX","2018/12/17 19:19:23","新北市金山區忠孝一路3號","121.639395","25.2190933333333","6502700","金山區"
"208001","761-BX","2018/12/17 19:19:14","新北市金山區民生路69號","121.64015","25.2196816666667","6502700","金山區"
"251009","008-UM","2018/12/17 19:19:27","新北市淡水區中正路38-1號","121.443723333333","25.16928","6501000","淡水區"
"251005","010-UM","2018/12/17 19:19:17","新北市淡水區水源街一段29號","121.443208333333","25.1723366666667","6501000","淡水區"
"251001","011-UM","2018/12/17 19:19:12","新北市淡水區自強路201巷39號","121.462133333333","25.12678","6501000","淡水區"
"251013","KEA-2871","2018/12/17 19:19:20","新北市淡水區安子內12-1號","121.481531666667","25.2191116666667","6501000","淡水區"
"251016","179-VK","2018/12/17 19:19:25","新北市淡水區下圭柔山119-51號","121.450713333333","25.2085066666667","6501000","淡水區"
"251015","182-VK","2018/12/17 19:19:23","新北市淡水區北新路三段12號","121.482851666667","25.185475","6501000","淡水區"
"251010","413-VK","2018/12/17 19:19:27","新北市淡水區沙崙路27號","121.421496666667","25.18154","6501000","淡水區"
"251007","442-VK","2018/12/17 19:19:27","新北市淡水區民生路184號","121.465481666667","25.1386833333333","6501000","淡水區"
"251006","561-UM","2018/12/17 19:19:21","新北市淡水區大信街33號","121.442081666667","25.1773283333333","6501000","淡水區"
"251003","766-UM","2018/12/17 19:19:28","新北市淡水區中山北路一段210號","121.444625","25.1796983333333","6501000","淡水區"
"207003","550-UM","2018/12/17 19:19:15","新北市萬里區大鵬里萬里加投79-3號","121.64732","25.212345","6502800","萬里區"
"207004","225-TW","2018/12/17 19:19:17","新北市萬里區萬里里成功新村65號","121.688318333333","25.1745766666667","6502800","萬里區"
"252002","178-VK","2018/12/17 19:19:13","新北市三芝區淡金路二段18-1號","121.502688333333","25.2594966666667","6502100","三芝區"
"252001","292-VK","2018/12/17 19:19:27","新北市三芝區長勤街9巷11弄3號","121.501895","25.25469","6502100","三芝區"
"237004","KEA-2597","2018/12/17 19:19:15","新北市三峽區有木206號","121.439145","24.8514533333333","6500900","三峽區"
"237007","153-BY","2018/12/17 19:19:27","新北市三峽區二鬮路83號","121.359538333333","24.9069816666667","6500900","三峽區"
"237009","210-TH","2018/12/17 19:19:17","新北市三峽區民生街231號","121.371141666667","24.9347433333333","6500900","三峽區"
"237013","252-BX","2018/12/17 19:19:17","新北市三峽區光明路75巷34-1號","121.37784","24.92846","6500900","三峽區"
"237012","275-BY","2018/12/17 19:19:20","新北市三峽區三樹路98巷189號","121.385071666667","24.941505","6500900","三峽區"
"237008","302-VK","2018/12/17 19:19:20","新北市三峽區光明路106巷70號","121.374883333333","24.9266133333333","6500900","三峽區"
"237014","433-BY","2018/12/17 19:19:14","新北市三峽區中山路257巷20-1號","121.362066666667","24.9365316666667","6500900","三峽區"
"237006","5529-G3","2018/12/17 19:19:27","新北市三峽區橫溪路95號","121.398415","24.9354633333333","6500900","三峽區"
"237011","KEA-2596","2018/12/17 19:19:11","新北市三峽區介壽路三段163-1號","121.40108","24.94335","6500900","三峽區"
"237015","649-BX","2018/12/17 19:19:29","新北市三峽區建安22號","121.446115","24.9274483333333","6500900","三峽區"
"237010","706-TV","2018/12/17 19:19:30","新北市三峽區國光街20號","121.375281666667","24.9372333333333","6500900","三峽區"
"237005","AKY-6261","2018/12/17 19:19:11","新北市鶯歌區三鶯路5號","121.356918333333","24.9406866666667","6500900","三峽區"
"236069","105-UM","2018/12/17 19:19:13","新北市土城區學成路76巷1號","121.451151666667","24.98831","6501300","土城區"
"236078","166-UM","2018/12/17 19:19:20","新北市土城區龍泉路8號","121.409433333333","24.94989","6501300","土城區"
"236026","269-VK","2018/12/17 19:19:23","新北市土城區中央路二段145號","121.442073333333","24.9767083333333","6501300","土城區"
"236014","270-VK","2018/12/17 19:19:25","新北市土城區廣福街5號","121.457258333333","24.9887933333333","6501300","土城區"
"236020","401-BY","2018/12/17 19:19:13","新北市土城區峰廷街3號","121.469078333333","24.9873166666667","6501300","土城區"
"236059","912-UM","2018/12/17 19:19:20","新北市土城區中央路二段99號","121.442108333333","24.9776916666667","6501300","土城區"
"236048","913-UM","2018/12/17 19:19:22","新北市土城區明德路一段365-1號","121.453618333333","24.9790633333333","6501300","土城區"
"242013","173-VK","2018/12/17 19:19:18","新北市新莊區三和路12-21號","121.442048333333","25.038735","6500500","新莊區"
"242031","348-TH","2018/12/17 19:19:28","新北市新莊區新泰路255巷83號","121.442263333333","25.0390866666667","6500500","新莊區"
"238015","755-BX","2018/12/17 19:19:23","新北市樹林區大安路502-2號","121.413753333333","24.9863983333333","6500700","樹林區"
"238019","599-UM","2018/12/17 19:19:13","新北市樹林區鎮前街347巷1弄20號","121.417105","24.983935","6500700","樹林區"
"238024","5061-A6","2018/12/17 19:19:17","新北市樹林區福德街7號","121.401026666667","24.9756916666667","6500700","樹林區"
"238022","KEA-2213","2018/12/17 19:19:26","新北市樹林區中山路二段230號","121.409131666667","24.9802366666667","6500700","樹林區"
"238021","KEA-2539","2018/12/17 19:19:19","新北市樹林區柑園街二段247巷18號","121.375093333333","24.9501866666667","6500700","樹林區"
"238025","303-VK","2018/12/17 19:19:14","新北市樹林區中山路二段167號","121.406053333333","24.9786233333333","6500700","樹林區"
"238017","283-BY","2018/12/17 19:19:20","新北市樹林區光興街306號","121.40747","25.00541","6500700","樹林區"
"238014","282-BY","2018/12/17 19:19:21","新北市樹林區保安二街40巷25號","121.42587","24.994455","6500700","樹林區"
"238020","268-VK","2018/12/17 19:19:28","新北市樹林區俊英街123巷38號","121.423446666667","25.0105416666667","6500700","樹林區"
"238026","172-UY","2018/12/17 19:19:14","新北市樹林區佳園路一段39號","121.393233333333","24.97075","6500700","樹林區"
"238016","169-UY","2018/12/17 19:00:22","新北市樹林區復興路335巷16號","121.418598333333","24.98728","6500700","樹林區"
"239007","AAC-297","2018/12/17 19:19:20","新北市鶯歌區西湖街53巷30號","121.341925","24.960555","6500800","鶯歌區"
"239006","891-R6","2018/12/17 19:19:18","新北市鶯歌區鶯桃路296巷94弄28號","121.33756","24.9615766666667","6500800","鶯歌區"
"239008","527-UM","2018/12/17 19:19:29","新北市鶯歌區大湖路468巷1號","121.339471666667","24.97198","6500800","鶯歌區"
"239005","526-UM","2018/12/17 19:19:22","新北市鶯歌區中湖街23號","121.34713","24.97301","6500800","鶯歌區"
"239001","417-VK","2018/12/17 19:19:21","新北市鶯歌區建國路596巷10號","121.340321666667","24.95179","6500800","鶯歌區"
"239003","360-BY","2018/12/17 19:19:25","新北市鶯歌區文化路122號","121.35203","24.9519166666667","6500800","鶯歌區"
"239004","193-VK","2018/12/17 19:19:15","新北市鶯歌區中正三路289-7號","121.329716666667","24.936005","6500800","鶯歌區"
"221008","489-VK","2018/12/17 19:19:29","新北市汐止區康寧街307巷1弄9號","121.626756666667","25.0675183333333","6501100","汐止區"
"221036","130-UY","2018/12/17 19:19:19","新北市汐止區康寧街901號","121.651096666667","25.0751216666667","6501100","汐止區"
"221015","131-UY","2018/12/17 19:19:10","新北市汐止區汐萬路一段288號","121.650735","25.07434","6501100","汐止區"
"221012","278-VK","2018/12/17 19:19:18","新北市汐止區汐萬路一段160號","121.6526","25.071495","6501100","汐止區"
"221023","279-VK","2018/12/17 19:19:20","新北市汐止區汐萬路一段256巷1號","121.651651666667","25.0748333333333","6501100","汐止區"
"221027","281-BY","2018/12/17 19:19:17","新北市汐止區汐萬路一段312號","121.650545","25.0754066666667","6501100","汐止區"
"221010","297-VK","2018/12/17 19:19:18","新北市汐止區康寧街901號","121.651443333333","25.0750616666667","6501100","汐止區"
"221029","298-VK","2018/12/17 19:19:15","新北市汐止區康寧街901號","121.65162","25.0749366666667","6501100","汐止區"
"221021","299-VK","2018/12/17 19:19:20","新北市汐止區康寧街901號","121.651471666667","25.0750366666667","6501100","汐止區"
"221031","353-TW","2018/12/17 19:19:32","新北市汐止區康寧街901號","121.651195","25.075075","6501100","汐止區"
"221025","623-UM","2018/12/17 19:19:24","新北市汐止區康寧街901號","121.651085","25.0751516666667","6501100","汐止區"
"221038","646-BX","2018/12/17 19:19:10","新北市汐止區康寧街901號","121.650718333333","25.0753183333333","6501100","汐止區"
"221002","707-TV","2018/12/17 19:19:27","新北市汐止區大同路一段398-1號","121.640088333333","25.0599816666667","6501100","汐止區"
"221018","753-BX","2018/12/17 19:19:24","新北市汐止區康寧街901號","121.650905","25.0752733333333","6501100","汐止區"
"220079","145-BY","2018/12/17 19:19:25","新北市板橋區民權路202巷9弄4號","121.460291666667","25.01543","6500100","板橋區"
"220080","200-UY","2018/12/17 19:19:26","新北市板橋區大觀路二段19巷111號","121.450283333333","25.0026733333333","6500100","板橋區"
"220082","610-BX","2018/12/17 19:19:24","新北市板橋區篤行路三段玉平巷68弄15號","121.427206666667","24.9862583333333","6500100","板橋區"
"220101","245-BX","2018/12/17 19:19:10","新北市板橋區縣民大道三段133巷10號","121.477523333333","25.0235633333333","6500100","板橋區"
"220056","276-BY","2018/12/17 19:19:25","新北市板橋區廣權路2號","121.460256666667","24.990545","6500100","板橋區"
"220072","277-BY","2018/12/17 19:19:23","新北市板橋區篤行路二段161巷18-1號","121.429785","24.98732","6500100","板橋區"
"220071","283-VK","2018/12/17 19:19:26","新北市板橋區重慶路327巷19弄3-2號","121.464751666667","24.9988116666667","6500100","板橋區"
"220094","285-UM","2018/12/17 19:19:22","新北市板橋區吳鳳路50巷18號","121.469023333333","25.0302433333333","6500100","板橋區"
"220053","285-VK","2018/12/17 19:19:33","新北市板橋區富山街83號","121.476733333333","25.0218683333333","6500100","板橋區"
"220083","286-VK","2018/12/17 19:19:19","新北市板橋區大觀路二段174巷165弄2號","121.441893333333","25.0033733333333","6500100","板橋區"
"220081","287-VK","2018/12/17 19:19:17","新北市板橋區南雅西路二段2-1號","121.45321","25.0087516666667","6500100","板橋區"
"220090","288-VK","2018/12/17 19:19:27","新北市板橋區裕民街91號","121.46037","25.0279816666667","6500100","板橋區"
"220061","293-UM","2018/12/17 19:19:19","新北市板橋區中山路二段255巷7號","121.477011666667","25.01794","6500100","板橋區"
"220062","295-UM","2018/12/17 19:19:18","新北市板橋區三民路二段153巷36弄2號","121.481143333333","25.014145","6500100","板橋區"
"220084","296-UM","2018/12/17 19:19:33","新北市板橋區溪北路73巷5號","121.428321666667","24.9899183333333","6500100","板橋區"
"220092","299-UM","2018/12/17 19:19:21","新北市板橋區光武街2巷15號","121.468423333333","25.0252933333333","6500100","板橋區"
"220075","303-R5","2018/12/17 19:19:19","新北市板橋區中正路275巷43號","121.453335","25.0180466666667","6500100","板橋區"
"220098","317-R6","2018/12/17 19:19:12","新北市板橋區四維路130號","121.465285","25.0251783333333","6500100","板橋區"
"220089","487-VK","2018/12/17 19:19:24","新北市板橋區陽明街259號","121.462666666667","25.0254066666667","6500100","板橋區"
"220088","491-VK","2018/12/17 19:19:28","新北市板橋區雙十路二段10-3號","121.476413333333","25.0268333333333","6500100","板橋區"
"220035","560-BX","2018/12/17 19:19:22","新北市板橋區中正路360巷22號","121.455351666667","25.0234483333333","6500100","板橋區"
"220103","561-BX","2018/12/17 19:19:27","新北市板橋區文化路一段220號","121.466783333333","25.0206133333333","6500100","板橋區"
"220063","609-BX","2018/12/17 19:19:18","新北市板橋區三民路一段1巷35號","121.480255","25.02472","6500100","板橋區"
"220091","637-BX","2018/12/17 19:19:18","新北市板橋區縣民大道三段251號","121.481623333333","25.0261916666667","6500100","板橋區"
"220057","686-BX","2018/12/17 19:19:13","新北市中和區壽德街26-1號","121.466395","24.99441","6500100","板橋區"
"220077","687-BX","2018/12/17 19:19:31","新北市板橋區大觀路一段35巷1號","121.449603333333","25.0084816666667","6500100","板橋區"
"220093","689-BX","2018/12/17 19:19:17","新北市板橋區英士路76號","121.460183333333","25.02432","6500100","板橋區"
"220054","741-BX","2018/12/17 19:19:22","新北市板橋區重慶路155巷41號","121.463633333333","25.0041883333333","6500100","板橋區"
"220102","KEA-2699","2018/12/17 19:19:24","新北市板橋區松柏街22巷18-3號","121.47474","25.0294133333333","6500100","板橋區"
"220067","829-TW","2018/12/17 19:19:13","新北市板橋區漢生東路313巷2弄62號","121.472793333333","25.0080066666667","6500100","板橋區"
"220068","830-TW","2018/12/17 19:19:21","新北市板橋區萬安街105號","121.483478333333","25.0247566666667","6500100","板橋區"
"220074","895-R6","2018/12/17 19:19:27","新北市板橋區中正路自強新村68-1號","121.45482","25.0130866666667","6500100","板橋區"
"220073","985-R7","2018/12/17 19:19:26","新北市板橋區新生街68號","121.457773333333","25.02107","6500100","板橋區"
"220097","AAC-210","2018/12/17 19:19:25","新北市板橋區幸福路32巷4號","121.461585","25.0205616666667","6500100","板橋區"
"220064","AAC-253","2018/12/17 19:19:23","新北市板橋區重慶路29號","121.461153333333","25.0078","6500100","板橋區"
"235068","KEA-2873","2018/12/17 19:19:24","新北市中和區圓通路158巷1弄9號","121.497188333333","24.9960616666667","6500300","中和區"
"235061","KEA-2875","2018/12/17 19:19:16","新北市中和區連城路428巷11號","121.479895","24.9955066666667","6500300","中和區"
