"lineid","car","time","location","longitude","latitude","cityid","cityname"
"248008","095-VK","2018/12/17 20:49:16","新北市五股區中興路二段182巷50號","121.454658333333","25.0811016666667","6501500","五股區"
"248004","677-BX","2018/12/17 20:49:20","新北市林口區太平里180號","121.366453333333","25.1345133333333","6501500","五股區"
"234074","AAC-211","2018/12/17 20:49:28","新北市永和區環河東路二段36號","121.522763333333","25.0124133333333","6500400","永和區"
"244007","657-BX","2018/12/17 20:20:09","新北市林口區粉寮69號","121.404988333333","25.0908916666667","6501700","林口區"
"222003","436-BY","2018/12/17 20:49:13","新北市深坑區文山路三段48-1號","121.609991666667","24.9985233333333","6501800","深坑區"
"222002","659-BX","2018/12/17 20:49:13","新北市深坑區北深路三段93巷57號","121.604126666667","25.0006266666667","6501800","深坑區"
"231041","002-UM","2018/12/17 20:49:16","新北市新店區安興路56號","121.516145","24.9745983333333","6500600","新店區"
"231059","046-UY","2018/12/17 20:49:19","新北市新店區僑愛一路1號","121.499825","24.9450216666667","6500600","新店區"
"231040","047-UY","2018/12/17 20:49:25","新北市新店區中正路253號","121.538843333333","24.9733666666667","6500600","新店區"
"231044","106-UY","2018/12/17 20:49:22","新北市新店區中正路385號","121.534641666667","24.977035","6500600","新店區"
"231052","108-UY","2018/12/17 20:49:24","新北市新店區新烏路一段50-20號","121.545985","24.9477883333333","6500600","新店區"
"231047","187-VK","2018/12/17 20:49:29","新北市新店區寶元路二段1巷2號","121.550741666667","24.9840483333333","6500600","新店區"
"231065","188-VK","2018/12/17 20:49:22","新北市新店區安祥路104巷6弄20號","121.48219","24.9627433333333","6500600","新店區"
"231057","256-BX","2018/12/17 20:49:24","新北市新店區新烏路一段58-2號","121.54614","24.945745","6500600","新店區"
"231042","268-BY","2018/12/17 20:49:31","新北市新店區寶高路120巷1號","121.554578333333","24.9760816666667","6500600","新店區"
"231051","278-BY","2018/12/17 20:49:29","新北市新店區溪園路247號","121.526008333333","24.9832783333333","6500600","新店區"
"231050","AAD-862","2018/12/17 20:49:13","新北市新店區三民路34號","121.53658","24.97127","6500600","新店區"
"231058","3713-VJ","2018/12/17 20:49:25","新北市新店區平等街39號","121.536535","24.9732983333333","6500600","新店區"
"231066","4716-K9","2018/12/17 20:49:18","新北市新店區安興路112號","121.51463","24.9776683333333","6500600","新店區"
"231067","4772-VM","2018/12/17 20:49:22","新北市新店區安華路28-1號","121.519798333333","24.9608583333333","6500600","新店區"
"231049","513-UM","2018/12/17 20:49:17","新北市新店區華潭街6號","121.529765","24.952035","6500600","新店區"
"231045","617-UM","2018/12/17 20:49:19","新北市新店區北新路一段103號","121.53918","24.9621566666667","6500600","新店區"
"231061","619-UM","2018/12/17 20:49:13","新北市新店區新和街97號","121.521158333333","24.98657","6500600","新店區"
"231063","641-BX","2018/12/17 20:49:16","新北市新店區如意街11-3號","121.494955","24.948285","6500600","新店區"
"231068","718-UY","2018/12/17 20:49:20","新北市新店區寶元路一段84巷1號","121.54453","24.9837133333333","6500600","新店區"
"231064","719-UM","2018/12/17 20:49:18","新北市新店區安民街365巷8號","121.516115","24.9756583333333","6500600","新店區"
"231054","719-UY","2018/12/17 20:49:17","新北市新店區北新路一段96巷23號","121.542993333333","24.9687833333333","6500600","新店區"
"231062","720-UM","2018/12/17 20:49:19","新北市新店區和成街17-1號","121.487628333333","24.9466","6500600","新店區"
"231060","897-TW","2018/12/17 20:49:18","新北市新店區安康路三段591號","121.472111666667","24.9407366666667","6500600","新店區"
"231043","899-TW","2018/12/17 20:49:26","新北市新店區建國路94號","121.54005","24.9775833333333","6500600","新店區"
"241011","013-R5","2018/12/17 20:49:28","新北市三重區環河北路一段350號","121.502946666667","25.072525","6500200","三重區"
"241028","022-UY","2018/12/17 20:49:15","新北市三重區中正南路44號","121.493828333333","25.0600216666667","6500200","三重區"
"241008","059-VK","2018/12/17 20:49:20","新北市三重區永福街72巷11號","121.47945","25.07679","6500200","三重區"
"241022","060-VK","2018/12/17 20:49:29","新北市三重區中正北路20巷12號","121.487943333333","25.0624466666667","6500200","三重區"
"241031","061-VK","2018/12/17 20:49:29","新北市三重區重陽路一段113巷2弄2號","121.487493333333","25.0598466666667","6500200","三重區"
"241015","062-VK","2018/12/17 20:49:14","新北市三重區自強路一段8號","121.498903333333","25.0682316666667","6500200","三重區"
"241017","063-VK","2018/12/17 20:49:27","新北市三重區民生街27號","121.491585","25.0669333333333","6500200","三重區"
"241024","065-VK","2018/12/17 20:49:26","新北市三重區忠孝路三段2號","121.48204","25.067705","6500200","三重區"
"241002","090-VK","2018/12/17 20:49:16","新北市三重區仁義街167巷41號","121.4984","25.08218","6500200","三重區"
"241003","091-VK","2018/12/17 20:49:15","新北市三重區集賢路87-1號","121.493631666667","25.086855","6500200","三重區"
"251014","742-BX","2018/12/17 20:49:14","新北市淡水區公埔子32-8號","121.461666666667","25.2323716666667","6501000","淡水區"
"241005","262-UM","2018/12/17 20:49:21","新北市三重區五華街141巷58號","121.493555","25.0867483333333","6500200","三重區"
"241016","266-UM","2018/12/17 20:49:29","新北市三重區長壽西街143-1號","121.494668333333","25.0665083333333","6500200","三重區"
"241018","268-UM","2018/12/17 20:49:15","新北市三重區正義北路261號","121.495553333333","25.06975","6500200","三重區"
"241032","269-UM","2018/12/17 20:49:29","新北市三重區重陽路一段120巷46號","121.485088333333","25.0601633333333","6500200","三重區"
"241013","270-UM","2018/12/17 20:49:32","新北市三重區三和路四段42號","121.490325","25.07449","6500200","三重區"
"241025","271-UM","2018/12/17 20:49:31","新北市三重區貴陽街20號","121.484248333333","25.0620266666667","6500200","三重區"
"241007","398-BY","2018/12/17 20:49:19","新北市三重區三和路四段109號","121.486291666667","25.0770033333333","6500200","三重區"
"241035","KEA-2210","2018/12/17 20:49:26","新北市三重區三和路三段29號","121.495928333333","25.07093","6500200","三重區"
"241009","462-BY","2018/12/17 20:49:28","新北市三重區碧華街51號","121.484613333333","25.0814416666667","6500200","三重區"
"241004","475-VK","2018/12/17 20:49:17","新北市三重區分子尾街36-1號","121.489485","25.08101","6500200","三重區"
"241020","478-VK","2018/12/17 20:49:15","新北市三重區忠孝路一段101號","121.489463333333","25.0721833333333","6500200","三重區"
"241030","480-VK","2018/12/17 20:49:29","新北市三重區昌隆街26號","121.492001666667","25.0522283333333","6500200","三重區"
"241014","543-UM","2018/12/17 20:49:23","新北市三重區萬全街74號","121.501371666667","25.0702116666667","6500200","三重區"
"241023","545-UM","2018/12/17 20:49:19","新北市三重區三民街146巷3弄2號","121.48164","25.06461","6500200","三重區"
"241001","547-UM","2018/12/17 20:49:21","新北市三重區自強路三段78號","121.486928333333","25.0742933333333","6500200","三重區"
"241019","KEA-2593","2018/12/17 20:49:35","新北市三重區自強路二段74巷5號","121.488271666667","25.07018","6500200","三重區"
"241006","AAD-863","2018/12/17 20:49:16","新北市三重區車路頭街139巷12號","121.48423","25.0762216666667","6500200","三重區"
"241026","743-BX","2018/12/17 20:49:30","新北市三重區文化南路25巷1-2號","121.499968333333","25.06198","6500200","三重區"
"241012","941-UM","2018/12/17 20:49:27","新北市三重區龍門路274巷45號","121.501093333333","25.0755233333333","6500200","三重區"
"241029","942-UM","2018/12/17 20:49:24","新北市三重區重安街14號","121.490171666667","25.0581866666667","6500200","三重區"
"247012","KEA-2869","2018/12/17 20:49:29","新北市蘆洲區集賢路226-1號","121.482418333333","25.08638","6501400","蘆洲區"
"247006","KED-0682","2018/12/17 20:49:23","新北市蘆洲區永安南路二段16巷8號","121.467765","25.0772266666667","6501400","蘆洲區"
"235069","4980-A6","2018/12/17 20:49:14","新北市中和區員山路375號","121.480946666667","25.0022616666667","6500300","中和區"
"247002","893-R6","2018/12/17 20:49:17","新北市蘆洲區長安街240號","121.457708333333","25.08576","6501400","蘆洲區"
"247016","546-UM","2018/12/17 20:49:31","新北市蘆洲區中正路57號","121.47062","25.082795","6501400","蘆洲區"
"247024","500-BY","2018/12/17 20:49:25","新北市蘆洲區長樂路235號","121.462088333333","25.0901666666667","6501400","蘆洲區"
"247020","057-VK","2018/12/17 20:49:27","新北市蘆洲區仁愛街64號","121.471478333333","25.09393","6501400","蘆洲區"
"247010","056-VK","2018/12/17 20:49:21","新北市蘆洲區鷺江街76號","121.47701","25.0838883333333","6501400","蘆洲區"
"247014","053-VK","2018/12/17 20:49:15","新北市蘆洲區三民路95號","121.473956666667","25.084915","6501400","蘆洲區"
"247004","002-UY","2018/12/17 20:49:32","新北市蘆洲區長安街100號","121.461671666667","25.0808766666667","6501400","蘆洲區"
"247022","001-UY","2018/12/17 20:49:20","新北市蘆洲區民權路131巷10號","121.471303333333","25.0898533333333","6501400","蘆洲區"
"222001","KEA-2212","2018/12/17 20:49:31","新北市深坑區北深路三段125號","121.604671666667","25.0022083333333","6501800","深坑區"
"251001","011-UM","2018/12/17 20:49:32","新北市淡水區淡金路218號","121.460471666667","25.1672116666667","6501000","淡水區"
"251013","KEA-2871","2018/12/17 20:49:20","新北市淡水區行忠路146號","121.45447","25.1990316666667","6501000","淡水區"
"251016","179-VK","2018/12/17 20:49:25","新北市淡水區淡金路四段205號","121.451711666667","25.2220283333333","6501000","淡水區"
"251015","182-VK","2018/12/17 20:49:14","新北市淡水區淡金路四段542巷17號","121.452735","25.2271016666667","6501000","淡水區"
"251010","413-VK","2018/12/17 20:49:27","新北市淡水區沙崙路126號","121.42342","25.1829333333333","6501000","淡水區"
"251012","441-VK","2018/12/17 20:49:24","新北市淡水區淡金路四段514號","121.452028333333","25.225725","6501000","淡水區"
"251007","442-VK","2018/12/17 20:49:22","新北市淡水區鄧公路29巷26號","121.452763333333","25.1702383333333","6501000","淡水區"
"251011","650-BX","2018/12/17 20:49:20","新北市淡水區新民街一段13號","121.432873333333","25.1845916666667","6501000","淡水區"
"251002","672-BX","2018/12/17 20:49:23","新北市淡水區中正東路6號","121.446995","25.1671016666667","6501000","淡水區"
"251003","766-UM","2018/12/17 20:49:28","新北市淡水區中山北路一段247巷78號","121.442641666667","25.17945","6501000","淡水區"
"236042","KED-0685","2018/12/17 20:49:23","新北市樹林區環河路600-1號","121.404668333333","24.9684666666667","6501300","土城區"
"247008","KED-0683","2018/12/17 20:49:29","新北市蘆洲區集賢路269巷3號","121.481583333333","25.0836333333333","6501400","蘆洲區"
"242036","AAC-296","2018/12/17 20:49:21","新北市新莊區後港一路173號","121.432401666667","25.028225","6500500","新莊區"
"242058","986-R7","2018/12/17 20:49:22","新北市新莊區四維路95號","121.423356666667","25.0238","6500500","新莊區"
"242027","615-BX","2018/12/17 20:49:26","新北市五股區五工一路101號","121.459068333333","25.0690733333333","6500500","新莊區"
"242029","612-BX","2018/12/17 20:49:24","新北市新莊區化成路360號","121.465828333333","25.0493316666667","6500500","新莊區"
"242044","566-BX","2018/12/17 20:49:19","新北市新莊區福營路376號","121.420755","25.02643","6500500","新莊區"
"242053","441-UM","2018/12/17 20:49:14","新北市新莊區西盛街245巷27弄13號","121.429345","25.0165183333333","6500500","新莊區"
"242002","440-UM","2018/12/17 20:49:27","新北市新莊區中港路五守新村1巷5號","121.455381666667","25.0382066666667","6500500","新莊區"
"242039","415-TV","2018/12/17 20:49:25","新北市新莊區瓊林路59-17號","121.442105","25.0250666666667","6500500","新莊區"
"242023","362-BY","2018/12/17 20:49:24","新北市新莊區新北大道二段207號","121.46318","25.06074","6500500","新莊區"
"242011","132-UY","2018/12/17 20:49:16","新北市新莊區新北大道四段217號","121.443793333333","25.0570416666667","6500500","新莊區"
"242034","135-UY","2018/12/17 20:49:26","新北市新莊區中正路309號","121.448176666667","25.035155","6500500","新莊區"
"242050","172-VK","2018/12/17 20:49:27","新北市新莊區民安東路134號","121.431095","25.02049","6500500","新莊區"
"242021","346-TH","2018/12/17 20:49:21","新北市五股區成泰路一段8巷9-9號","121.437758333333","25.0678783333333","6500500","新莊區"
"242031","348-TH","2018/12/17 20:49:28","新北市新莊區中正路587號","121.43433","25.0324733333333","6500500","新莊區"
"242004","349-TH","2018/12/17 20:49:29","新北市八里區荖阡坑路41-3號","121.399876666667","25.1324583333333","6500500","新莊區"
"242009","350-TH","2018/12/17 20:49:19","新北市新莊區幸福路4號","121.459418333333","25.0497016666667","6500500","新莊區"
"221023","279-VK","2018/12/17 20:49:20","新北市汐止區民族二街7-1號","121.635093333333","25.0717066666667","6501100","汐止區"
"221027","281-BY","2018/12/17 20:49:17","新北市汐止區汐萬路一段81號","121.654781666667","25.0699033333333","6501100","汐止區"
"221029","298-VK","2018/12/17 20:22:54","新北市汐止區樟樹二路105號","121.639603333333","25.06424","6501100","汐止區"
"221035","622-UM","2018/12/17 20:49:31","新北市汐止區汐萬路一段256巷1號","121.652006666667","25.0747783333333","6501100","汐止區"
"221025","623-UM","2018/12/17 20:49:24","新北市汐止區大同路二段267號","121.652221666667","25.06642","6501100","汐止區"
"221038","646-BX","2018/12/17 20:49:30","新北市汐止區汐萬路一段256巷1號","121.652035","25.074795","6501100","汐止區"
"221033","647-BX","2018/12/17 20:49:15","新北市汐止區合順街18巷8弄5號","121.620338333333","25.0419416666667","6501100","汐止區"
"221002","707-TV","2018/12/17 20:49:27","新北市汐止區中興路135號","121.63161","25.0653633333333","6501100","汐止區"
"220081","287-VK","2018/12/17 20:49:17","新北市樹林區中山路三段214號","121.379868333333","24.967535","6500100","板橋區"
"242042","281-VK","2018/12/17 20:49:27","新北市新莊區中正路516號","121.433475","25.0323066666667","6500500","新莊區"
"220064","AAC-253","2018/12/17 20:49:23","新北市八里區荖阡坑路4-31號","121.398271666667","25.1420283333333","6500100","板橋區"
