"lineid","car","time","location","longitude","latitude","cityid","cityname"
"251014","742-BX","2018/12/17 21:39:34","新北市淡水區下圭柔山431-1號","121.449965","25.2113266666667","6501000","淡水區"
"241005","262-UM","2018/12/17 21:39:21","新北市三重區碧華街3號","121.483635","25.0811683333333","6500200","三重區"
"220016","120-SR","2018/12/17 21:38:12","新北市板橋區海山路19號","121.468698333333","25.00921","6500100","板橋區"
"251009","008-UM","2018/12/17 21:39:27","新北市淡水區民族路31巷52號","121.462728333333","25.1366933333333","6501000","淡水區"
"251004","009-UM","2018/12/17 21:39:29","新北市淡水區民權路99-5號","121.46018","25.1378116666667","6501000","淡水區"
"251005","010-UM","2018/12/17 21:39:17","新北市淡水區鄧公路19-1號","121.450273333333","25.1699816666667","6501000","淡水區"
"251001","011-UM","2018/12/17 21:39:32","新北市淡水區崁頂二路250號","121.435835","25.19681","6501000","淡水區"
"251016","179-VK","2018/12/17 21:39:25","新北市淡水區崁頂59-2號","121.441525","25.1983933333333","6501000","淡水區"
"251008","181-VK","2018/12/17 21:39:16","新北市淡水區水源街二段76號","121.451195","25.1741983333333","6501000","淡水區"
"251010","413-VK","2018/12/17 21:39:27","新北市淡水區沙崙路216巷15號","121.426115","25.18408","6501000","淡水區"
"251012","441-VK","2018/12/17 21:39:24","新北市淡水區淡金路四段215號","121.451685","25.2222416666667","6501000","淡水區"
"251006","561-UM","2018/12/17 21:39:15","新北市淡水區中正路11巷4號","121.438885","25.1702366666667","6501000","淡水區"
"251011","650-BX","2018/12/17 21:39:28","新北市淡水區新民街322巷1號","121.435605","25.183775","6501000","淡水區"
"251002","672-BX","2018/12/17 21:39:23","新北市淡水區學府路152號","121.44641","25.17424","6501000","淡水區"
"251003","766-UM","2018/12/17 21:39:28","新北市淡水區新春街32號","121.436968333333","25.1814033333333","6501000","淡水區"
"220010","305-R5","2018/12/17 21:32:48","新北市板橋區民生路二段161巷5號","121.470205","25.0197066666667","6500100","板橋區"
"220064","AAC-253","2018/12/17 21:25:55","新北市板橋區華東街1-10號","121.44838","24.9949283333333","6500100","板橋區"
