"lineid","car","time","location","longitude","latitude","cityid","cityname"
"235010","733-UM","2018/12/17 21:43:11","新北市中和區員山路36巷13號","121.484158333333","24.990805","6500300","中和區"
"220016","120-SR","2018/12/17 21:54:12","新北市板橋區海山路19號","121.46866","25.0092016666667","6500100","板橋區"
"251004","009-UM","2018/12/17 21:59:29","新北市淡水區民權路119號","121.460231666667","25.1367633333333","6501000","淡水區"
"251005","010-UM","2018/12/17 21:59:17","新北市淡水區鄧公路30巷2弄42號","121.454265","25.1691716666667","6501000","淡水區"
"251008","181-VK","2018/12/17 21:59:36","新北市淡水區學府路104號","121.449881666667","25.1718433333333","6501000","淡水區"
"251010","413-VK","2018/12/17 21:59:27","新北市淡水區中正路二段208號","121.426271666667","25.18926","6501000","淡水區"
"251007","577-R6","2018/12/17 21:59:29","新北市淡水區水源街二段177巷20號","121.454545","25.1764616666667","6501000","淡水區"
"251011","650-BX","2018/12/17 21:59:20","新北市淡水區水碓街7號","121.443166666667","25.1771116666667","6501000","淡水區"
"251003","766-UM","2018/12/17 21:59:28","新北市淡水區新春街83號","121.438838333333","25.1824066666667","6501000","淡水區"
"220010","305-R5","2018/12/17 21:32:48","新北市板橋區民生路二段161巷5號","121.470205","25.0197066666667","6500100","板橋區"
"220064","AAC-253","2018/12/17 21:57:16","新北市板橋區華東街1-10號","121.448373333333","24.9949333333333","6500100","板橋區"
