"lineid","car","time","location","longitude","latitude","cityid","cityname"
"222004","289-BY","2018/12/18 07:39:19","新北市深坑區文化街39巷13號","121.618951666667","25.0011183333333","6501800","深坑區"
"231009","192-VK","2018/12/18 07:39:32","新北市新店區安一路一段1-1號","121.51944","24.9613366666667","6500600","新店區"
"235042","KEA-2878","2018/12/18 07:39:21","新北市中和區捷運路58-9號","121.507351666667","24.9909083333333","6500300","中和區"
"235001","611-BX","2018/12/18 07:39:19","新北市中和區圓通路367巷4號","121.491385","24.9892933333333","6500300","中和區"
"226005","5620-A6","2018/12/18 07:39:30","新北市平溪區靜安路二段300號","121.735803333333","25.0238883333333","6502400","平溪區"
"226002","7418-A5","2018/12/18 07:39:36","新北市平溪區平湖里大湖19-1號","121.780631666667","25.0231383333333","6502400","平溪區"
"226006","AGD-0702","2018/12/18 07:29:32","新北市平溪區嶺腳里嶺腳寮83-2號","121.75067","25.035165","6502400","平溪區"
"223006","022-BY","2018/12/18 07:39:28","新北市坪林區北宜路八段422號","121.708141666667","24.9254266666667","6501900","石碇區"
"223002","KEA-2673","2018/12/18 07:39:36","新北市石碇區北宜路六段塗潭巷11號","121.653753333333","24.9257933333333","6501900","石碇區"
"223003","205-TH","2018/12/18 07:27:01","新北市石碇區蓬菜寮17號","121.649131666667","24.97208","6501900","石碇區"
"223008","406-TH","2018/12/18 07:38:37","新北市石碇區靜安路一段337號","121.698753333333","25.0146666666667","6501900","石碇區"
"223001","592-UM","2018/12/18 07:37:24","新北市石碇區中楒子腳1號","121.646351666667","24.9712666666667","6501900","石碇區"
"223004","660-BX","2018/12/18 07:39:37","新北市石碇區八分寮47-1號","121.64212","25.01367","6501900","石碇區"
"223007","661-BX","2018/12/18 07:39:35","新北市石碇區靜安路一段339號","121.698323333333","25.0148866666667","6501900","石碇區"
"223005","677-TV","2018/12/18 07:39:20","新北市石碇區八分寮47號","121.642165","25.013795","6501900","石碇區"
"227006","282-VK","2018/12/18 07:39:24","新北市雙溪區雙溪里太平路54號","121.864821666667","25.035465","6502500","雙溪區"
"252004","249-BX","2018/12/18 07:39:30","新北市三芝區店子里店子65號","121.502146666667","25.2049083333333","6502100","三芝區"
"252007","AAC-283","2018/12/18 07:39:29","新北市三芝區古庄里四棧橋48-1號","121.48274","25.2642083333333","6502100","三芝區"
