"lineid","car","time","location","longitude","latitude","cityid","cityname"
"222004","289-BY","2018/12/18 07:49:39","新北市深坑區文化街45號","121.616871666667","25.0017366666667","6501800","深坑區"
"231007","189-VK","2018/12/18 07:49:23","新北市新店區安一路一段1-1號","121.519645","24.9611066666667","6500600","新店區"
"231009","192-VK","2018/12/18 07:49:32","新北市新店區安一路一段1-1號","121.519431666667","24.9613466666667","6500600","新店區"
"235042","KEA-2878","2018/12/18 07:49:21","新北市中和區和平街29-1號","121.507466666667","24.9909633333333","6500300","中和區"
"235001","611-BX","2018/12/18 07:49:39","新北市中和區圓通路367巷4號","121.49135","24.9893183333333","6500300","中和區"
"226005","5620-A6","2018/12/18 07:49:30","新北市平溪區嶺腳里中華街51號","121.739131666667","25.024785","6502400","平溪區"
"226002","7418-A5","2018/12/18 07:49:36","新北市平溪區南山里南山坪94號","121.777133333333","25.041285","6502400","平溪區"
"226006","AGD-0702","2018/12/18 07:49:32","新北市平溪區新寮里頂寮子40號","121.774241666667","25.0514466666667","6502400","平溪區"
"223006","022-BY","2018/12/18 07:48:19","新北市坪林區北宜路八段558號","121.716958333333","24.909435","6501900","石碇區"
"223002","KEA-2673","2018/12/18 07:49:36","新北市石碇區北宜路六段塗潭巷2號","121.644463333333","24.9370883333333","6501900","石碇區"
"223003","205-TH","2018/12/18 07:46:01","新北市石碇區烏塗窟46-1號","121.655878333333","24.972745","6501900","石碇區"
"223008","406-TH","2018/12/18 07:38:37","新北市石碇區靜安路一段337號","121.698753333333","25.0146666666667","6501900","石碇區"
"223001","592-UM","2018/12/18 07:46:24","新北市石碇區烏塗窟37號","121.657063333333","24.971205","6501900","石碇區"
"223004","660-BX","2018/12/18 07:49:37","新北市深坑區文山路一段10號","121.643146666667","25.0086733333333","6501900","石碇區"
"223007","661-BX","2018/12/18 07:47:10","新北市石碇區靜安路一段337號","121.698865","25.0145166666667","6501900","石碇區"
"223005","677-TV","2018/12/18 07:49:20","新北市石碇區楓子林1-2號","121.642505","25.0089033333333","6501900","石碇區"
"227006","282-VK","2018/12/18 07:49:24","新北市雙溪區雙溪里太平路54號","121.864813333333","25.0354666666667","6502500","雙溪區"
"252004","249-BX","2018/12/18 07:49:30","新北市三芝區興華里車埕36-21號","121.505781666667","25.1931183333333","6502100","三芝區"
"252007","AAC-283","2018/12/18 07:49:29","新北市三芝區海景一街47號","121.475246666667","25.2467883333333","6502100","三芝區"
