"lineid","car","time","location","longitude","latitude","cityid","cityname"
"248004","653-BX","2018/11/05 07:39:31","新北市五股區明德路12巷6號","121.433438333333","25.071915","6501500","五股區"
"232001","290-BY","2018/11/05 07:39:21","新北市坪林區上坑子口1-1號","121.698041666667","24.9574433333333","6502000","坪林區"
"232012","291-BY","2018/11/05 07:39:29","新北市坪林區金瓜寮12號","121.681658333333","24.9160533333333","6502000","坪林區"
"232010","375-UM","2018/11/05 07:39:18","新北市坪林區苦苓腳2號","121.714046666667","24.9364016666667","6502000","坪林區"
"232017","705-BZ","2018/11/05 07:39:28","新北市平溪區東勢里芊蓁坑29號","121.73238","24.9758133333333","6502000","坪林區"
"232005","758-BX","2018/11/05 07:39:31","新北市坪林區魚堀49號","121.701428333333","24.9298483333333","6502000","坪林區"
"244001","248-BX","2018/11/05 07:38:36","新北市林口區頂福里79號","121.335515","25.095425","6501700","林口區"
"222005","289-BY","2018/11/05 07:39:22","新北市深坑區文化街39巷13號","121.618938333333","25.0009633333333","6501800","深坑區"
"231007","189-VK","2018/11/05 07:39:17","新北市新店區安一路一段1-1號","121.51968","24.9614716666667","6500600","新店區"
"231008","192-VK","2018/11/05 07:39:12","新北市新店區安一路一段1-1號","121.51932","24.961495","6500600","新店區"
"235001","611-BX","2018/11/05 07:39:24","新北市中和區圓通路367巷6號","121.491501666667","24.9892533333333","6500300","中和區"
"235010","733-UM","2018/11/05 07:39:27","新北市中和區和平街29-1號","121.507555","24.9910083333333","6500300","中和區"
"226005","5620-A6","2018/11/05 07:39:21","新北市平溪區靜安路二段271號","121.726901666667","25.02198","6502400","平溪區"
"226001","7418-A5","2018/11/05 07:39:12","新北市平溪區靜安路三段238號","121.77581","25.03983","6502400","平溪區"
"226003","AGD-0702","2018/11/05 07:34:54","新北市平溪區嶺腳里嶺腳寮83-2號","121.749826666667","25.0354","6502400","平溪區"
"223006","022-BY","2018/11/05 07:39:23","新北市石碇區楓子林1-2號","121.642508333333","25.0089316666667","6501900","石碇區"
"223002","KEA-2673","2018/11/05 07:39:29","新北市石碇區北宜路五段大湖巷2號","121.63031","24.9485116666667","6501900","石碇區"
"223003","205-TH","2018/11/05 07:34:16","新北市石碇區中楒子腳2-5號","121.637533333333","24.9725616666667","6501900","石碇區"
"223001","592-UM","2018/11/05 07:39:18","新北市石碇區中楒子腳3-3號","121.640328333333","24.9714566666667","6501900","石碇區"
"223004","660-BX","2018/11/05 07:39:32","新北市石碇區八分寮49-1號","121.642698333333","25.014325","6501900","石碇區"
"223007","661-BX","2018/11/05 07:39:25","新北市石碇區大溪墘6號","121.697685","25.007535","6501900","石碇區"
"223005","677-TV","2018/11/05 07:39:17","新北市石碇區八分寮47-1號","121.642038333333","25.0135283333333","6501900","石碇區"
"227005","282-VK","2018/11/05 07:39:16","新北市雙溪區雙溪里太平路56號","121.864838333333","25.0356083333333","6502500","雙溪區"
"252006","073-UM","2018/11/05 07:39:32","新北市三芝區古庄里古庄76號","121.490973333333","25.2658433333333","6502100","三芝區"
"252004","249-BX","2018/11/05 07:39:25","新北市三芝區店子里菜公坑75號","121.50967","25.206115","6502100","三芝區"
"242055","751-BX","2018/11/05 07:39:23","新北市新莊區新泰路357巷3弄49號","121.441876666667","25.0401316666667","6500500","新莊區"
"242026","615-BX","2018/11/05 07:39:13","新北市新莊區新泰路357巷3弄57號","121.442043333333","25.0392683333333","6500500","新莊區"
"242024","613-BX","2018/11/05 07:39:15","新北市新莊區新泰路357巷3弄57號","121.442121666667","25.0391116666667","6500500","新莊區"
"242028","612-BX","2018/11/05 07:39:29","新北市新莊區新泰路357巷3弄57號","121.44214","25.03918","6500500","新莊區"
"242043","566-BX","2018/11/05 07:39:28","新北市新莊區三和路12-21號","121.442236666667","25.0383883333333","6500500","新莊區"
"242047","497-BY","2018/11/05 07:39:26","新北市新莊區福營路102號","121.436491666667","25.0329366666667","6500500","新莊區"
"242006","442-UM","2018/11/05 07:39:11","新北市新莊區新泰路357巷3弄57號","121.442086666667","25.0391383333333","6500500","新莊區"
"242052","441-UM","2018/11/05 07:39:30","新北市新莊區新泰路255巷83號","121.442258333333","25.0387416666667","6500500","新莊區"
"242038","415-TV","2018/11/05 07:39:28","新北市泰山區磚雅厝3號","121.44189","25.0418066666667","6500500","新莊區"
"242008","413-TV","2018/11/05 07:39:18","新北市新莊區新泰路357巷3弄57號","121.442061666667","25.03949","6500500","新莊區"
"242022","362-BY","2018/11/05 07:39:20","新北市新莊區三和路12-20號","121.442111666667","25.037795","6500500","新莊區"
"242059","353-BY","2018/11/05 07:39:32","新北市新莊區新泰路357巷3弄57號","121.44209","25.0391583333333","6500500","新莊區"
"242040","133-UY","2018/11/05 07:39:26","新北市新莊區新泰路255巷83號","121.442081666667","25.03884","6500500","新莊區"
"242033","135-UY","2018/11/05 07:39:32","新北市新莊區三和路12-21號","121.44194","25.0387816666667","6500500","新莊區"
"242049","172-VK","2018/11/05 07:39:16","新北市新莊區新樹路67巷5號","121.442016666667","25.031015","6500500","新莊區"
"242012","173-VK","2018/11/05 07:39:13","新北市新莊區三和路12-21號","121.442006666667","25.0387033333333","6500500","新莊區"
"242018","175-VK","2018/11/05 07:39:22","新北市新莊區三和路12-21號","121.441946666667","25.038695","6500500","新莊區"
"242016","346-TH","2018/11/05 07:39:16","新北市新莊區三和路12-21號","121.442221666667","25.0381233333333","6500500","新莊區"
"242003","349-TH","2018/11/05 07:39:23","新北市新莊區三和路12-21號","121.442326666667","25.0382516666667","6500500","新莊區"
"242001","281-VK","2018/11/05 07:39:18","新北市新莊區三和路12-21號","121.441955","25.03836","6500500","新莊區"
"242014","280-VK","2018/11/05 07:39:15","新北市新莊區三和路12-21號","121.441988333333","25.0382283333333","6500500","新莊區"
