"lineid","car","time","location","longitude","latitude","cityid","cityname"
"248005","653-BX","2018/03/05 06:49:38","新北市五股區中興路二段83巷26-6號","121.459945","25.0751233333333","6501500","五股區"
"232001","290-BY","2018/03/05 06:49:47","新北市坪林區坪雙路一段53號","121.71276","24.94338","6502000","坪林區"
"232012","291-BY","2018/03/05 06:49:53","新北市坪林區北宜路八段176號","121.70766","24.9345966666667","6502000","坪林區"
"232017","705-BZ","2018/03/05 06:49:40","新北市坪林區坪林街26號","121.71232","24.9367916666667","6502000","坪林區"
"232006","758-BX","2018/03/05 06:49:41","新北市坪林區魚堀51號","121.704826666667","24.9322016666667","6502000","坪林區"
"244001","248-BX","2018/03/05 06:49:40","新北市林口區粉寮路二段20號","121.4024","25.0859866666667","6501700","林口區"
"222005","289-BY","2018/03/05 06:49:43","新北市深坑區深坑街75號","121.614715","25.0012733333333","6501800","深坑區"
"235001","611-BX","2018/03/05 06:49:43","新北市中和區圓通路307號","121.493355","24.9908866666667","6500300","中和區"
"223006","022-BY","2018/03/05 06:49:47","新北市石碇區新興坑29-1號","121.646431666667","25.0153833333333","6501900","石碇區"
"223001","205-TH","2018/03/05 06:49:45","新北市石碇區湳窟34-2號","121.665043333333","24.9939816666667","6501900","石碇區"
"223008","406-TH","2018/03/05 06:49:48","新北市石碇區雙溪84-1號","121.661233333333","25.0089166666667","6501900","石碇區"
"223001","592-UM","2018/03/05 06:49:38","新北市石碇區湳窟30號","121.663548333333","24.992255","6501900","石碇區"
"223004","660-BX","2018/03/05 06:49:49","新北市石碇區碇坪路一段89號","121.662161666667","24.9903966666667","6501900","石碇區"
"223007","661-BX","2018/03/05 06:49:22","新北市深坑區文山路一段8號","121.644288333333","25.0087416666667","6501900","石碇區"
"223005","677-TV","2018/03/05 06:49:51","新北市石碇區碇坪路一段89號","121.662155","24.9903216666667","6501900","石碇區"
"227005","282-VK","2018/03/05 06:49:43","新北市雙溪區新基里自強路5號","121.866338333333","25.0390566666667","6502500","雙溪區"
"236007","165-UM","2018/03/05 06:49:48","新北市土城區永平街51號","121.427991666667","24.9591816666667","6501300","土城區"
"220057","282-UM","2018/03/05 06:49:36","新北市板橋區國光路67巷14號","121.458973333333","25.01873","6500100","板橋區"
