"lineid","car","time","location","longitude","latitude","cityid","cityname"
"248005","653-BX","2018/03/05 07:19:18","新北市五股區明德路12巷16號","121.4333","25.07185","6501500","五股區"
"232001","290-BY","2018/03/05 07:19:07","新北市坪林區桶盤嶼8-2號","121.706568333333","24.9565683333333","6502000","坪林區"
"232012","291-BY","2018/03/05 07:19:13","新北市坪林區仁里14-2號","121.6889","24.92871","6502000","坪林區"
"232010","375-UM","2018/03/05 07:19:07","新北市坪林區水聳淒坑7-11號","121.717508333333","24.9246716666667","6502000","坪林區"
"232017","705-BZ","2018/03/05 07:19:21","新北市坪林區九芎坑2-2號","121.722601666667","24.9655483333333","6502000","坪林區"
"232005","758-BX","2018/03/05 07:19:21","新北市坪林區魚堀38-1號","121.69844","24.9315166666667","6502000","坪林區"
"244001","248-BX","2018/03/05 07:19:20","新北市林口區頂福里71-78號","121.353191666667","25.0813166666667","6501700","林口區"
"222005","289-BY","2018/03/05 07:19:19","新北市深坑區埔新街100號","121.61865","25.002175","6501800","深坑區"
"235001","611-BX","2018/03/05 07:19:23","新北市中和區圓通路367巷4號","121.491331666667","24.9892533333333","6500300","中和區"
"226005","5620-A6","2018/03/05 07:18:53","新北市平溪區菁桐里二坑路5號","121.721176666667","25.0243066666667","6502400","平溪區"
"226001","7418-A5","2018/03/05 07:19:23","新北市平溪區望古里灰3-1號","121.754445","25.0280883333333","6502400","平溪區"
"226003","AGD-0702","2018/03/05 07:19:17","新北市平溪區嶺腳里嶺腳寮65號","121.74785","25.031435","6502400","平溪區"
"223006","022-BY","2018/03/05 07:19:27","新北市石碇區新興坑28-2號","121.65183","25.01475","6501900","石碇區"
"223001","205-TH","2018/03/05 07:19:22","新北市石碇區烏塗窟21號","121.656821666667","24.975085","6501900","石碇區"
"223008","406-TH","2018/03/05 07:19:08","新北市石碇區番子坑23號","121.674511666667","25.0019333333333","6501900","石碇區"
"223001","592-UM","2018/03/05 07:19:17","新北市石碇區烏塗窟3號","121.65449","24.9765533333333","6501900","石碇區"
"223004","660-BX","2018/03/05 07:19:09","新北市石碇區新興坑1-1號","121.65471","25.0133766666667","6501900","石碇區"
"223007","661-BX","2018/03/05 07:19:10","新北市石碇區番子坑14號","121.680026666667","25.000315","6501900","石碇區"
"223005","677-TV","2018/03/05 07:19:11","新北市石碇區碇坪路一段2號","121.651636666667","25.0061216666667","6501900","石碇區"
"227005","282-VK","2018/03/05 07:19:22","新北市雙溪區新基里自強路5號","121.86636","25.0390533333333","6502500","雙溪區"
"252006","073-UM","2018/03/05 07:19:22","新北市三芝區錫板里海尾13-3號","121.478793333333","25.2577116666667","6502100","三芝區"
"252004","249-BX","2018/03/05 07:19:13","新北市三芝區福德里大湖10號","121.504621666667","25.223275","6502100","三芝區"
"237001","159-UY","2018/03/05 07:19:14","新北市三峽區中山路459巷36號","121.357273333333","24.93757","6500900","三峽區"
"236007","165-UM","2018/03/05 07:19:08","新北市板橋區四川路二段285巷1號","121.450086666667","24.9926583333333","6501300","土城區"
"236001","339-SR","2018/03/05 07:19:20","新北市土城區和平路99-2號","121.44872","24.9692616666667","6501300","土城區"
"242049","751-BX","2018/03/05 07:18:47","新北市新莊區新泰路255巷83號","121.442241666667","25.03879","6500500","新莊區"
"242059","362-BY","2018/03/05 07:19:06","新北市新莊區三和路12-21號","121.442083333333","25.0387816666667","6500500","新莊區"
"242010","351-TH","2018/03/05 07:19:25","新北市新莊區新泰路357巷3弄57號","121.442073333333","25.0394983333333","6500500","新莊區"
"220057","282-UM","2018/03/05 07:19:16","新北市板橋區國光路51號","121.45808","25.0179966666667","6500100","板橋區"
