"lineid","car","time","location","longitude","latitude","cityid","cityname"
"248005","653-BX","2018/10/11 07:18:53","新北市五股區明德路10號","121.433368333333","25.071775","6501500","五股區"
"232001","290-BY","2018/10/11 07:18:50","新北市坪林區桶盤嶼10-1號","121.706593333333","24.9584366666667","6502000","坪林區"
"232014","291-BY","2018/10/11 07:18:42","新北市坪林區金瓜寮7-7號","121.681195","24.9151516666667","6502000","坪林區"
"232010","375-UM","2018/10/11 07:17:17","新北市坪林區水聳淒坑15-2號","121.722295","24.9300416666667","6502000","坪林區"
"232018","705-BZ","2018/10/11 07:18:47","新北市坪林區樟空子5-1號","121.727271666667","24.9674566666667","6502000","坪林區"
"232007","758-BX","2018/10/11 07:18:44","新北市坪林區北宜路七段328號","121.696936666667","24.9325316666667","6502000","坪林區"
"222006","289-BY","2018/10/11 07:18:47","新北市深坑區深坑街75號","121.614686666667","25.0011533333333","6501800","深坑區"
"235044","293-VK","2018/10/11 07:18:35","新北市中和區和平街88號","121.50746","24.99114","6500300","中和區"
"235001","611-BX","2018/10/11 07:18:35","新北市中和區圓通路367巷2號","121.49127","24.9892566666667","6500300","中和區"
"226005","5620-A6","2018/10/11 07:18:51","新北市平溪區靜安路二段119號","121.721341666667","25.02393","6502400","平溪區"
"226007","7418-A5","2018/10/11 07:18:54","新北市平溪區望古里灰3號","121.75928","25.0306683333333","6502400","平溪區"
"226003","AGD-0702","2018/10/11 07:18:46","新北市平溪區嶺腳里嶺腳寮70號","121.748493333333","25.0315616666667","6502400","平溪區"
"223006","022-BY","2018/10/11 07:18:40","新北市石碇區深按10號","121.658006666667","25.0184083333333","6501900","石碇區"
"223002","KEA-2673","2018/10/11 07:18:50","新北市石碇區北宜路五段坑內巷14號","121.633901666667","24.9560516666667","6501900","石碇區"
"223008","406-TH","2018/10/11 07:18:37","新北市石碇區蚯蚓坑11-10號","121.689625","25.0062766666667","6501900","石碇區"
"223004","437-BY","2018/10/11 07:18:38","新北市石碇區新興坑4號","121.653616666667","25.01675","6501900","石碇區"
"223001","592-UM","2018/10/11 07:18:47","新北市石碇區蓬菜寮5-1號","121.652035","24.9738433333333","6501900","石碇區"
"223007","661-BX","2018/10/11 07:18:51","新北市石碇區蚯蚓坑18-1號","121.691696666667","25.0042733333333","6501900","石碇區"
"223005","677-TV","2018/10/11 07:18:47","新北市石碇區新興坑4-1號","121.653828333333","25.0166566666667","6501900","石碇區"
"227007","282-VK","2018/10/11 07:18:32","新北市雙溪區新基里自強路5-1號","121.866313333333","25.0391266666667","6502500","雙溪區"
"252004","249-BX","2018/10/11 07:18:37","新北市三芝區福德里大湖8-5號","121.50115","25.227535","6502100","三芝區"
"252007","AAC-283","2018/10/11 07:18:44","新北市三芝區錫板里海尾13-5號","121.479946666667","25.2574433333333","6502100","三芝區"
"242055","751-BX","2018/10/11 07:18:38","新北市新莊區新泰路255巷83號","121.442243333333","25.0388666666667","6500500","新莊區"
"242026","615-BX","2018/10/11 07:18:46","新北市新莊區新泰路357巷3弄57號","121.442","25.0391516666667","6500500","新莊區"
"242022","362-BY","2018/10/11 07:18:45","新北市新莊區三和路18-23號","121.441695","25.0389483333333","6500500","新莊區"
