"lineid","car","time","location","longitude","latitude","cityid","cityname"
"248005","653-BX","2018/10/18 07:29:10","新北市五股區明德路12巷3號","121.43332","25.07182","6501500","五股區"
"232001","290-BY","2018/10/18 07:29:22","新北市坪林區上坑子口3號","121.6995","24.9582233333333","6502000","坪林區"
"232014","291-BY","2018/10/18 07:29:25","新北市坪林區金瓜寮34-1號","121.677745","24.9070783333333","6502000","坪林區"
"232010","375-UM","2018/10/18 07:29:10","新北市坪林區苦苓腳2號","121.714196666667","24.9371766666667","6502000","坪林區"
"232018","705-BZ","2018/10/18 07:29:21","新北市坪林區樟空子5-1號","121.729486666667","24.9669716666667","6502000","坪林區"
"232007","758-BX","2018/10/18 07:29:10","新北市坪林區魚堀37-17號","121.69974","24.9274233333333","6502000","坪林區"
"244003","248-BX","2018/10/18 07:29:06","新北市林口區南福路69號","121.356288333333","25.0784","6501700","林口區"
"222005","289-BY","2018/10/18 07:29:17","新北市深坑區文化街86號","121.617658333333","25.00197","6501800","深坑區"
"235001","611-BX","2018/10/18 07:29:23","新北市中和區圓通路367巷4號","121.491358333333","24.9892883333333","6500300","中和區"
"226005","5620-A6","2018/10/18 07:29:14","新北市平溪區白石里中埔132號","121.723363333333","25.0225366666667","6502400","平溪區"
"226007","8452-VL","2018/10/18 07:22:40","新北市平溪區望古里灰4-2號","121.76322","25.0295966666667","6502400","平溪區"
"226003","AGD-0702","2018/10/18 07:27:45","新北市平溪區嶺腳里嶺腳寮94號","121.745821666667","25.0386733333333","6502400","平溪區"
"223006","022-BY","2018/10/18 07:29:09","新北市石碇區靜安路一段16號","121.642083333333","25.0113633333333","6501900","石碇區"
"223002","KEA-2673","2018/10/18 07:29:13","新北市石碇區北宜路五段大湖巷2號","121.63007","24.9481283333333","6501900","石碇區"
"223004","437-BY","2018/10/18 07:29:21","新北市石碇區八分寮55-5號","121.645128333333","25.0169683333333","6501900","石碇區"
"223001","592-UM","2018/10/18 07:29:12","新北市石碇區中楒子腳2-10號","121.638918333333","24.9717283333333","6501900","石碇區"
"223007","661-BX","2018/10/18 07:29:26","新北市石碇區大溪墘9-1號","121.698085","25.008405","6501900","石碇區"
"223005","677-TV","2018/10/18 07:29:18","新北市石碇區八分寮55-5號","121.645448333333","25.01673","6501900","石碇區"
"227007","282-VK","2018/10/18 07:29:10","新北市雙溪區新基里自強路5號","121.86636","25.0389883333333","6502500","雙溪區"
"252005","073-UM","2018/10/18 07:29:18","新北市三芝區中正路三段3號","121.503093333333","25.2543216666667","6502100","三芝區"
"252004","249-BX","2018/10/18 07:29:18","新北市三芝區興華里楓子林55-1號","121.500815","25.214125","6502100","三芝區"
"252007","AAC-283","2018/10/18 07:29:26","新北市三芝區古庄里四棧橋20號","121.488708333333","25.261355","6502100","三芝區"
"237001","159-UY","2018/10/18 07:29:11","新北市三峽區隆恩街245號","121.357696666667","24.94094","6500900","三峽區"
"242035","AAC-296","2018/10/18 07:29:10","新北市新莊區新泰路357巷3弄57號","121.442178333333","25.0396183333333","6500500","新莊區"
"242055","751-BX","2018/10/18 07:29:23","新北市新莊區新泰路255巷83號","121.442355","25.0386016666667","6500500","新莊區"
"242026","705-TV","2018/10/18 07:29:24","新北市新莊區新泰路357巷3弄57號","121.442111666667","25.0391916666667","6500500","新莊區"
"242024","613-BX","2018/10/18 07:29:16","新北市新莊區新泰路255巷83號","121.442171666667","25.039095","6500500","新莊區"
"242028","612-BX","2018/10/18 07:29:20","新北市新莊區新泰路357巷3弄57號","121.442191666667","25.0392116666667","6500500","新莊區"
"242014","442-UM","2018/10/18 07:29:25","新北市新莊區新泰路255巷83號","121.442045","25.0388783333333","6500500","新莊區"
"242033","413-TV","2018/10/18 07:29:17","新北市新莊區新泰路357巷3弄57號","121.442101666667","25.0394183333333","6500500","新莊區"
"242045","400-BY","2018/10/18 07:29:27","新北市新莊區新泰路357巷3弄57號","121.44225","25.0395733333333","6500500","新莊區"
"242022","362-BY","2018/10/18 07:29:13","新北市新莊區新泰路255巷83號","121.442088333333","25.0389933333333","6500500","新莊區"
"242018","175-VK","2018/10/18 07:29:20","新北市新莊區三和路12-21號","121.442076666667","25.0386666666667","6500500","新莊區"
"242001","233-RS","2018/10/18 07:29:13","新北市新莊區中港路301號","121.452918333333","25.04453","6500500","新莊區"
"242017","346-TH","2018/10/18 07:29:19","新北市新莊區三和路12-21號","121.44224","25.0381483333333","6500500","新莊區"
"242030","348-TH","2018/10/18 07:29:21","新北市新莊區新泰路357巷3弄57號","121.442251666667","25.039475","6500500","新莊區"
"242001","281-VK","2018/10/18 07:29:23","新北市新莊區三和路12-21號","121.442236666667","25.0383016666667","6500500","新莊區"
