"lineid","car","time","location","longitude","latitude","cityid","cityname"
"248005","653-BX","2018/05/14 08:09:09","新北市五股區明德路12巷6號","121.433386666667","25.071825","6501500","五股區"
"232001","290-BY","2018/05/14 08:08:32","新北市坪林區下坑子口12號","121.719671666667","24.9407566666667","6502000","坪林區"
"232012","291-BY","2018/05/14 08:09:05","新北市坪林區九芎根2-1號","121.667163333333","24.8873616666667","6502000","坪林區"
"232017","705-BZ","2018/05/14 08:09:04","新北市坪林區坪雙路二段162號","121.763653333333","24.9631633333333","6502000","坪林區"
"232005","758-BX","2018/05/14 08:09:22","新北市坪林區鶯子瀨1-2號","121.708576666667","24.917885","6502000","坪林區"
"244012","069-UM","2018/05/14 08:09:23","新北市林口區粉寮路二段16號","121.402231666667","25.0858333333333","6501700","林口區"
"244006","080-UY","2018/05/14 08:09:15","新北市林口區林口路296號","121.38607","25.0854483333333","6501700","林口區"
"244001","248-BX","2018/05/14 08:09:10","新北市林口區嘉寶里67-5號","121.337768333333","25.1088783333333","6501700","林口區"
"244018","403-UM","2018/05/14 08:09:13","新北市林口區文化一路一段190巷7弄2-2號","121.37993","25.0746433333333","6501700","林口區"
"244008","410-SL","2018/05/14 08:09:21","新北市林口區林口路296號","121.386265","25.0853666666667","6501700","林口區"
"244022","483-VK","2018/05/14 08:09:14","新北市林口區中山路2號","121.396763333333","25.0783333333333","6501700","林口區"
"244016","485-VK","2018/05/14 08:09:19","新北市林口區粉寮路一段105號","121.398021666667","25.0803516666667","6501700","林口區"
"244010","657-BX","2018/05/14 08:09:15","新北市林口區仁愛路一段338-1號","121.390875","25.0765216666667","6501700","林口區"
"244024","837-TS","2018/05/14 08:09:09","新北市林口區粉寮路一段77-1號","121.397075","25.079235","6501700","林口區"
"244020","838-TS","2018/05/14 08:09:15","新北市林口區粉寮路二段160巷18號","121.40564","25.0927833333333","6501700","林口區"
"222005","289-BY","2018/05/14 08:01:58","新北市深坑區文化街94號","121.617208333333","25.0020016666667","6501800","深坑區"
"231007","189-VK","2018/05/14 08:09:18","新北市新店區永業路101號","121.528723333333","24.9486616666667","6500600","新店區"
"231008","192-VK","2018/05/14 08:09:09","新北市新店區環河路1-5號","121.538293333333","24.96159","6500600","新店區"
"235001","611-BX","2018/05/14 08:09:14","新北市中和區圓通路367巷33弄96號","121.494821666667","24.9837716666667","6500300","中和區"
"226005","5620-A6","2018/05/14 08:09:14","新北市平溪區望古里灰3-1號","121.75631","25.02932","6502400","平溪區"
"226001","7418-A5","2018/05/14 08:09:25","新北市平溪區十分里姜仔坑12號","121.769116666667","25.0381016666667","6502400","平溪區"
"226003","AGD-0702","2018/05/14 08:09:16","新北市平溪區新寮里頂寮子40號","121.774713333333","25.0516783333333","6502400","平溪區"
"223006","022-BY","2018/05/14 08:09:13","新北市石碇區蚯蚓坑22-1號","121.688136666667","25.0072783333333","6501900","石碇區"
"223002","KEA-2673","2018/05/14 08:09:22","新北市石碇區北宜路五段80號","121.646546666667","24.9517633333333","6501900","石碇區"
"223001","205-TH","2018/05/14 08:09:14","新北市石碇區北宜路五段80號","121.64637","24.95171","6501900","石碇區"
"223008","406-TH","2018/05/14 08:09:21","新北市石碇區靜安路一段262號","121.681296666667","25.0105433333333","6501900","石碇區"
"223001","592-UM","2018/05/14 08:09:11","新北市石碇區北宜路五段80號","121.646346666667","24.9516716666667","6501900","石碇區"
"223004","660-BX","2018/05/14 08:09:08","新北市石碇區外按8號","121.65119","24.9965016666667","6501900","石碇區"
"223005","677-TV","2018/05/14 08:09:21","新北市石碇區外按6-1號","121.64889","24.995035","6501900","石碇區"
"227005","282-VK","2018/05/14 08:09:27","新北市雙溪區上林里內平林120-2號","121.824373333333","25.0262166666667","6502500","雙溪區"
"252006","073-UM","2018/05/14 08:09:25","新北市三芝區後厝里大片頭74-13號","121.459096666667","25.2457133333333","6502100","三芝區"
"252004","249-BX","2018/05/14 08:09:12","新北市三芝區興華里車埕15-3號","121.502043333333","25.1967433333333","6502100","三芝區"
"237001","159-UY","2018/05/14 08:09:12","新北市三峽區學成路269號","121.375695","24.942995","6500900","三峽區"
"236007","165-UM","2018/05/14 08:09:14","新北市土城區石門路62號","121.456918333333","24.95908","6501300","土城區"
"236001","339-SR","2018/05/14 08:09:21","新北市土城區龍泉路79-1號","121.429945","24.9425233333333","6501300","土城區"
"236005","498-BY","2018/05/14 08:09:23","新北市土城區永平街72號","121.427376666667","24.9591283333333","6501300","土城區"
"242033","AAC-296","2018/05/14 08:09:20","新北市新莊區新莊路532號","121.445643333333","25.0329066666667","6500500","新莊區"
"242057","986-R7","2018/05/14 08:09:22","新北市新莊區中正路726-9號","121.415491666667","25.0239666666667","6500500","新莊區"
"242052","751-BX","2018/05/14 08:09:27","新北市新莊區樹新路120巷23號","121.430418333333","24.9963966666667","6500500","新莊區"
"242022","705-TV","2018/05/14 08:09:22","新北市新莊區民樂街58號","121.457956666667","25.041845","6500500","新莊區"
"242026","615-BX","2018/05/14 08:09:25","新北市新莊區福壽街126號","121.457758333333","25.051295","6500500","新莊區"
"242024","613-BX","2018/05/14 08:09:10","新北市新莊區思源路413號","121.459681666667","25.052335","6500500","新莊區"
"242028","612-BX","2018/05/14 08:09:13","新北市新莊區復興路一段101號","121.448968333333","25.0429216666667","6500500","新莊區"
"242040","566-BX","2018/05/14 08:09:11","新北市泰山區漢口街32號","121.425921666667","25.0354016666667","6500500","新莊區"
"242045","497-BY","2018/05/14 08:09:09","新北市新莊區建國一路61號","121.434678333333","25.0299816666667","6500500","新莊區"
"242043","442-UM","2018/05/14 08:09:23","新北市新莊區富國路65巷8號","121.41989","25.0264283333333","6500500","新莊區"
"242049","441-UM","2018/05/14 08:09:20","新北市新莊區西盛街311巷4號","121.428351666667","25.01523","6500500","新莊區"
"242055","440-UM","2018/05/14 08:09:26","新北市新莊區泰豐街30巷12號","121.44879","25.03195","6500500","新莊區"
"242006","413-TV","2018/05/14 08:09:18","新北市新莊區福樂街122號","121.456968333333","25.047825","6500500","新莊區"
"242059","353-BY","2018/05/14 08:09:17","新北市新莊區新樹路605號","121.433418333333","25.00562","6500500","新莊區"
"242038","133-UY","2018/05/14 08:09:19","新北市新莊區民安東路1號","121.427458333333","25.0211733333333","6500500","新莊區"
"242030","135-UY","2018/05/14 08:09:26","新北市新莊區新泰路321巷3弄2號","121.444506666667","25.0413","6500500","新莊區"
"242047","172-VK","2018/05/14 08:09:22","新北市新莊區萬安街110號","121.420516666667","25.0221966666667","6500500","新莊區"
"242016","175-VK","2018/05/14 08:09:10","新北市新莊區復興路一段99號","121.448921666667","25.0428366666667","6500500","新莊區"
"242003","176-VK","2018/05/14 08:09:21","新北市新莊區自立街216號","121.457201666667","25.0453483333333","6500500","新莊區"
"242014","346-TH","2018/05/14 08:09:18","新北市新莊區新泰路338號","121.44477","25.0421233333333","6500500","新莊區"
"242020","348-TH","2018/05/14 08:09:25","新北市新莊區中華路一段180號","121.452731666667","25.0418983333333","6500500","新莊區"
"242018","350-TH","2018/05/14 08:09:22","新北市新莊區中港路151號","121.455116666667","25.0409433333333","6500500","新莊區"
"242012","351-TH","2018/05/14 08:09:22","新北市新莊區中誠街143號","121.448898333333","25.0474283333333","6500500","新莊區"
"242001","KEA-2550","2018/05/14 08:09:15","新北市新莊區新泰路47號","121.449531666667","25.033635","6500500","新莊區"
"242008","281-VK","2018/05/14 08:09:19","新北市新莊區昌明街14巷5弄2號","121.457308333333","25.0533333333333","6500500","新莊區"
"242035","280-VK","2018/05/14 08:09:20","新北市新莊區建福路59巷28號","121.428038333333","25.0275716666667","6500500","新莊區"
