"lineid","car","time","location","longitude","latitude","cityid","cityname"
"248005","653-BX","2018/05/14 08:29:09","新北市五股區明德路12巷6號","121.43346","25.0718266666667","6501500","五股區"
"232001","290-BY","2018/05/14 08:29:12","新北市坪林區大粗坑6-1號","121.731215","24.9481166666667","6502000","坪林區"
"232012","291-BY","2018/05/14 08:29:25","新北市坪林區金瓜寮35號","121.672968333333","24.8993116666667","6502000","坪林區"
"232017","705-BZ","2018/05/14 08:27:44","新北市坪林區柑腳坑15號","121.7733","24.9473116666667","6502000","坪林區"
"232005","758-BX","2018/05/14 08:29:22","新北市坪林區鶯子瀨12號","121.710821666667","24.9142166666667","6502000","坪林區"
"244012","069-UM","2018/05/14 08:29:23","新北市林口區中正路525巷17號","121.383331666667","25.076845","6501700","林口區"
"244006","080-UY","2018/05/14 08:29:15","新北市林口區湖子14號","121.38595","25.0899566666667","6501700","林口區"
"244001","248-BX","2018/05/14 08:29:10","新北市林口區下福147-11號","121.299843333333","25.116655","6501700","林口區"
"244018","403-UM","2018/05/14 08:29:17","新北市林口區公園路151號","121.370306666667","25.0712866666667","6501700","林口區"
"244008","410-SL","2018/05/14 08:29:22","新北市林口區文化一路二段285-1號","121.384741666667","25.0846733333333","6501700","林口區"
"244022","483-VK","2018/05/14 08:29:14","新北市林口區隆林街2號","121.38972","25.075225","6501700","林口區"
"244016","485-VK","2018/05/14 08:29:19","新北市林口區文化二路一段260巷4號","121.371185","25.0731566666667","6501700","林口區"
"244010","657-BX","2018/05/14 08:29:14","新北市林口區中正路180號","121.391976666667","25.0775183333333","6501700","林口區"
"244024","837-TS","2018/05/14 08:29:09","新北市林口區忠孝三路5號","121.361268333333","25.069125","6501700","林口區"
"244020","838-TS","2018/05/14 08:29:15","新北市林口區自強五街21號","121.399291666667","25.07619","6501700","林口區"
"222005","289-BY","2018/05/14 08:29:09","新北市深坑區萬福路141號","121.609935","25.0164083333333","6501800","深坑區"
"231007","189-VK","2018/05/14 08:29:18","新北市新店區新潭路二段140巷1號","121.512401666667","24.92136","6500600","新店區"
"231008","192-VK","2018/05/14 08:29:09","新北市新店區新烏路161號","121.545208333333","24.933105","6500600","新店區"
"235001","611-BX","2018/05/14 08:29:14","新北市中和區新生街115號","121.483508333333","25.0017633333333","6500300","中和區"
"226005","5620-A6","2018/05/14 08:28:48","新北市平溪區南山里六分9號","121.796483333333","25.049645","6502400","平溪區"
"226001","7418-A5","2018/05/14 08:29:25","新北市平溪區東勢里芊蓁林60號","121.751273333333","25.0061366666667","6502400","平溪區"
"226003","AGD-0702","2018/05/14 08:29:16","新北市平溪區十分里十分街264號","121.778346666667","25.0453566666667","6502400","平溪區"
"223006","022-BY","2018/05/14 08:29:13","新北市石碇區靜安路一段61號","121.648065","25.01024","6501900","石碇區"
"223002","KEA-2673","2018/05/14 08:29:22","新北市石碇區碇格路二段2號","121.647528333333","24.9586","6501900","石碇區"
"223001","205-TH","2018/05/14 08:29:14","新北市石碇區北宜路六段塗潭巷25號","121.649833333333","24.933795","6501900","石碇區"
"223008","406-TH","2018/05/14 08:29:21","新北市石碇區十八重溪6號","121.678","25.0112133333333","6501900","石碇區"
"223001","592-UM","2018/05/14 08:29:11","新北市石碇區北宜路六段塗潭巷52號","121.65221","24.935015","6501900","石碇區"
"223004","660-BX","2018/05/14 08:29:08","新北市石碇區石碇東街12號","121.661781666667","24.99073","6501900","石碇區"
"223005","677-TV","2018/05/14 08:29:23","新北市石碇區石碇東街12號","121.66169","24.9907566666667","6501900","石碇區"
"227005","282-VK","2018/05/14 08:29:27","新北市雙溪區外柑里三叉坑7號","121.825736666667","25.0125366666667","6502500","雙溪區"
"252006","073-UM","2018/05/14 08:29:10","新北市三芝區蘭陽街13-1號","121.47353","25.242455","6502100","三芝區"
"252004","249-BX","2018/05/14 08:29:13","新北市三芝區興華里楓子林45-2號","121.501573333333","25.2046466666667","6502100","三芝區"
"237001","159-UY","2018/05/14 08:29:12","新北市三峽區大德路85號","121.377188333333","24.94326","6500900","三峽區"
"236007","165-UM","2018/05/14 08:29:14","新北市土城區石門路54號","121.457238333333","24.95979","6501300","土城區"
"236001","339-SR","2018/05/14 08:29:21","新北市土城區中央路四段159-1號","121.41533","24.956925","6501300","土城區"
"236005","498-BY","2018/05/14 08:29:23","新北市土城區大暖路19號","121.422861666667","24.961095","6501300","土城區"
"242033","AAC-296","2018/05/14 08:29:20","新北市新莊區福海街8號","121.445286666667","25.0334183333333","6500500","新莊區"
"242057","986-R7","2018/05/14 08:29:22","新北市新莊區新北大道七段848號","121.413805","25.0236333333333","6500500","新莊區"
"242052","751-BX","2018/05/14 08:29:27","新北市新莊區民安西路470-1號","121.431665","25.0077966666667","6500500","新莊區"
"242022","705-TV","2018/05/14 08:29:21","新北市新莊區幸福東路53號","121.465235","25.0493666666667","6500500","新莊區"
"242026","615-BX","2018/05/14 08:29:27","新北市新莊區思源路357號","121.459955","25.0506933333333","6500500","新莊區"
"242024","613-BX","2018/05/14 08:29:10","新北市新莊區五權一路3-9號","121.457661666667","25.0657","6500500","新莊區"
"242028","612-BX","2018/05/14 08:29:13","新北市新莊區幸福路860號","121.443748333333","25.0490833333333","6500500","新莊區"
"242040","566-BX","2018/05/14 08:29:11","新北市新莊區天祥街53號","121.414916666667","25.0304066666667","6500500","新莊區"
"242045","497-BY","2018/05/14 08:29:09","新北市新莊區福營路227巷27號","121.430241666667","25.029185","6500500","新莊區"
"242043","442-UM","2018/05/14 08:29:23","新北市新莊區雙鳳路137號","121.412908333333","25.0272183333333","6500500","新莊區"
"242049","441-UM","2018/05/14 08:29:20","新北市新莊區民本街25巷15號","121.429095","25.0195583333333","6500500","新莊區"
"242055","440-UM","2018/05/14 08:29:13","新北市新莊區豐年街57-1號","121.446528333333","25.029805","6500500","新莊區"
"242006","413-TV","2018/05/14 08:29:18","新北市新莊區中華路二段141號","121.452933333333","25.0509966666667","6500500","新莊區"
"242059","353-BY","2018/05/14 08:29:17","新北市新莊區新樹路225號","121.435196666667","25.02263","6500500","新莊區"
"242038","133-UY","2018/05/14 08:29:19","新北市新莊區民安西路24巷21號","121.426031666667","25.0206016666667","6500500","新莊區"
"242030","135-UY","2018/05/14 08:29:26","新北市新莊區新泰路277巷56號","121.443168333333","25.0400783333333","6500500","新莊區"
"242047","172-VK","2018/05/14 08:29:22","新北市新莊區後港二路16號","121.422671666667","25.0238166666667","6500500","新莊區"
"242010","173-VK","2018/05/14 08:29:12","新北市新莊區中港路中慶巷41號","121.449008333333","25.0537483333333","6500500","新莊區"
"242016","175-VK","2018/05/14 08:29:22","新北市新莊區永樂街63號","121.451088333333","25.044965","6500500","新莊區"
"242003","176-VK","2018/05/14 08:29:21","新北市新莊區自由街36號","121.45582","25.0464966666667","6500500","新莊區"
"242014","346-TH","2018/05/14 08:29:18","新北市新莊區中和街59巷10弄14號","121.446846666667","25.047235","6500500","新莊區"
"242020","348-TH","2018/05/14 08:29:25","新北市新莊區建興街60巷1號","121.449993333333","25.0389833333333","6500500","新莊區"
"242018","350-TH","2018/05/14 08:29:22","新北市新莊區明中街43巷9號","121.457548333333","25.0389466666667","6500500","新莊區"
"242012","351-TH","2018/05/14 08:29:22","新北市新莊區中泰街102號","121.448981666667","25.04672","6500500","新莊區"
"242001","KEA-2550","2018/05/14 08:29:20","新北市新莊區思明街2-3號","121.455521666667","25.03522","6500500","新莊區"
"242008","281-VK","2018/05/14 08:29:19","新北市新莊區中華路二段294號","121.452461666667","25.0538766666667","6500500","新莊區"
"242035","280-VK","2018/05/14 08:29:20","新北市新莊區後港一路63號","121.42646","25.0265716666667","6500500","新莊區"
