"lineid","car","time","location","longitude","latitude","cityid","cityname"
"248005","653-BX","2018/05/14 09:48:49","新北市五股區成泰路一段9號","121.433503333333","25.0666633333333","6501500","五股區"
"244012","069-UM","2018/05/14 09:49:23","新北市林口區麗園一街11巷11號","121.378736666667","25.0705533333333","6501700","林口區"
"244001","248-BX","2018/05/14 09:49:10","新北市林口區太平里2-5號","121.361273333333","25.13276","6501700","林口區"
"244018","403-UM","2018/05/14 09:49:13","新北市林口區麗園二街62號","121.381391666667","25.068315","6501700","林口區"
"244022","483-VK","2018/05/14 09:49:14","新北市林口區民權路106號","121.373743333333","25.08281","6501700","林口區"
"244016","485-VK","2018/05/14 09:49:19","新北市林口區粉寮路一段90號","121.398536666667","25.08064","6501700","林口區"
"222005","289-BY","2018/05/14 09:45:05","新北市深坑區昇高坑路50號","121.628628333333","24.99807","6501800","深坑區"
"231007","189-VK","2018/05/14 09:49:18","新北市新店區新潭路三段215巷25號","121.508098333333","24.9040933333333","6500600","新店區"
"231008","192-VK","2018/05/14 09:47:29","新北市新店區平廣路一段256號","121.507615","24.8881566666667","6500600","新店區"
"223001","205-TH","2018/05/14 09:49:14","新北市石碇區蓬菜寮17號","121.649421666667","24.9718716666667","6501900","石碇區"
"227005","282-VK","2018/05/14 09:34:47","新北市雙溪區泰平里溪尾寮6號","121.819818333333","24.9618783333333","6502500","雙溪區"
"252004","249-BX","2018/05/14 09:49:12","新北市三芝區福德里大水堀15號","121.515188333333","25.2221166666667","6502100","三芝區"
"252006","AAC-283","2018/05/14 09:49:20","新北市三芝區新庄里新庄子95-9號","121.514021666667","25.2743066666667","6502100","三芝區"
"237001","159-UY","2018/05/14 09:49:12","新北市三峽區國學街36號","121.373055","24.9423116666667","6500900","三峽區"
"236001","339-SR","2018/05/14 09:49:24","新北市土城區明德路二段66號","121.447663333333","24.983335","6501300","土城區"
"236005","498-BY","2018/05/14 09:49:23","新北市土城區中央路二段390巷8號","121.43823","24.97223","6501300","土城區"
"242043","442-UM","2018/05/14 09:49:25","新北市新莊區中正路新建巷2號","121.4138","25.0227216666667","6500500","新莊區"
"242059","353-BY","2018/05/14 09:49:17","新北市新莊區新樹路258巷1-1號","121.432203333333","25.0155266666667","6500500","新莊區"
"242038","133-UY","2018/05/14 09:49:19","新北市新莊區瓊林路59-11號","121.441618333333","25.0241816666667","6500500","新莊區"
"242030","135-UY","2018/05/14 09:49:25","新北市新莊區中正路508巷5弄19號","121.435161666667","25.0337333333333","6500500","新莊區"
"242035","280-VK","2018/05/14 09:49:20","新北市新莊區中正路449-1號","121.443051666667","25.0340516666667","6500500","新莊區"
