"lineid","car","time","location","longitude","latitude","cityid","cityname"
"248005","653-BX","2018/05/14 10:29:09","新北市五股區中興路二段37巷24號","121.460653333333","25.075075","6501500","五股區"
"244022","483-VK","2018/05/14 10:29:14","新北市林口區文化北路二段499號","121.372068333333","25.0844933333333","6501700","林口區"
"231007","189-VK","2018/05/14 10:29:18","新北市新店區新潭路三段87號","121.503938333333","24.91067","6500600","新店區"
"231008","192-VK","2018/05/14 10:26:09","新北市新店區小坑一路71號","121.531406666667","24.9083616666667","6500600","新店區"
"227005","282-VK","2018/05/14 10:07:07","新北市雙溪區泰平里灣潭路20-1號","121.812868333333","24.9291066666667","6502500","雙溪區"
"252006","AAC-283","2018/05/14 10:29:20","新北市三芝區新庄里番社后24-1號","121.500751666667","25.272345","6502100","三芝區"
