"lineid","car","time","location","longitude","latitude","cityid","cityname"
"234044","148-BY","2018/05/14 12:59:10","新北市永和區得和路373巷16弄3號","121.525248333333","25.00022","6500400","永和區"
"234005","207-UY","2018/05/14 12:59:17","新北市永和區永和路二段70號","121.514928333333","25.0111066666667","6500400","永和區"
"234078","298-R6","2018/05/14 12:59:15","新北市永和區永亨路59號","121.521008333333","25.0060733333333","6500400","永和區"
"234036","336-UY","2018/05/14 12:59:15","新北市中和區秀朗路三段93號","121.526635","24.99537","6500400","永和區"
"234062","337-UY","2018/05/14 12:59:14","新北市永和區秀朗路一段164號","121.518495","25.0033133333333","6500400","永和區"
"234084","338-UY","2018/05/14 12:59:13","新北市永和區永寧街131巷1號","121.518135","25.005265","6500400","永和區"
"234068","552-UM","2018/05/14 12:59:14","新北市永和區中興街98號","121.518906666667","25.0121216666667","6500400","永和區"
"234015","745-BX","2018/05/14 12:59:17","新北市永和區永和路二段297號","121.516086666667","25.0159766666667","6500400","永和區"
"234028","746-BX","2018/05/14 12:59:23","新北市永和區四維街38號","121.525473333333","24.9981216666667","6500400","永和區"
"234052","KEA-2590","2018/05/14 12:59:08","新北市永和區竹林路64號","121.51825","25.013455","6500400","永和區"
"234012","KEA-2591","2018/05/14 12:59:16","新北市永和區信義路17巷9弄1號","121.513861666667","25.011645","6500400","永和區"
"234060","AAD-866","2018/05/14 12:59:20","新北市永和區福和路309巷3號","121.51645","25.0070016666667","6500400","永和區"
"234040","862-TW","2018/05/14 12:59:10","新北市永和區永貞路267號","121.511823333333","25.0048","6500400","永和區"
"234048","863-TW","2018/05/14 12:59:12","新北市永和區文化路147號","121.510733333333","25.0161983333333","6500400","永和區"
"234025","9371-KE","2018/05/14 12:59:05","新北市永和區永和路一段45-1號","121.51288","25.006255","6500400","永和區"
"234010","9373-KE","2018/05/14 12:59:10","新北市永和區文化路113巷21弄2號","121.513265","25.0140566666667","6500400","永和區"
"248013","025-BX","2018/05/14 12:59:24","新北市五股區更洲路47號","121.456875","25.0790266666667","6501500","五股區"
"248015","026-BX","2018/05/14 12:59:14","新北市五股區中興路二段161號","121.45778","25.0772366666667","6501500","五股區"
"248005","077-UY","2018/05/14 12:59:09","新北市五股區中興路二段83巷26-6號","121.460003333333","25.07503","6501500","五股區"
"248007","095-VK","2018/05/14 12:59:22","新北市五股區更洲路10號","121.458291666667","25.0788466666667","6501500","五股區"
"248019","225-UY","2018/05/14 12:59:16","新北市五股區中興路二段83巷26-6號","121.460021666667","25.0752766666667","6501500","五股區"
"248009","272-BY","2018/05/14 12:59:20","新北市五股區中興路二段83巷26-6號","121.459878333333","25.0753366666667","6501500","五股區"
"248003","677-BX","2018/05/14 12:59:04","新北市五股區中興路二段63巷17號","121.46024","25.075265","6501500","五股區"
"248001","678-BX","2018/05/14 12:59:04","新北市五股區中興路二段37巷28號","121.460246666667","25.0750216666667","6501500","五股區"
"248012","682-TV","2018/05/14 12:59:18","新北市五股區中興路二段83巷26-6號","121.459061666667","25.0750833333333","6501500","五股區"
"234022","9380-KE","2018/05/14 12:59:21","新北市永和區竹林路91巷55弄1號","121.5219","25.01372","6500400","永和區"
"234076","969-R7","2018/05/14 12:59:24","新北市永和區智光街126號","121.515078333333","24.99564","6500400","永和區"
"234072","AAC-211","2018/05/14 12:59:23","新北市永和區環河東路二段98號","121.524118333333","25.0103366666667","6500400","永和區"
"234066","AAC-212","2018/05/14 12:59:14","新北市永和區中和路625號","121.512988333333","25.0049166666667","6500400","永和區"
"234001","AAC-295","2018/05/14 12:59:09","新北市永和區永平路24號","121.513335","25.0087783333333","6500400","永和區"
"244001","248-BX","2018/05/14 12:59:10","新北市林口區中山路572-1號","121.377005","25.084485","6501700","林口區"
"231027","0293-UT","2018/05/14 12:59:16","新北市新店區安華路28-1號","121.519383333333","24.960785","6500600","新店區"
"231028","046-UY","2018/05/14 12:59:17","新北市新店區安一路一段1-1號","121.519511666667","24.9611766666667","6500600","新店區"
"231001","047-UY","2018/05/14 12:59:21","新北市新店區安華路28-1號","121.519308333333","24.960905","6500600","新店區"
"231005","106-UY","2018/05/14 12:59:09","新北市新店區安華路28-1號","121.519635","24.9609616666667","6500600","新店區"
"231010","107-UY","2018/05/14 12:59:17","新北市新店區安一路一段1-1號","121.519435","24.961345","6500600","新店區"
"231019","108-UY","2018/05/14 12:59:22","新北市新店區安一路一段1-1號","121.519463333333","24.9612716666667","6500600","新店區"
"231011","187-VK","2018/05/14 12:59:15","新北市新店區安一路一段1-1號","121.519496666667","24.9612416666667","6500600","新店區"
"231003","268-BY","2018/05/14 12:59:06","新北市新店區安華路28-1號","121.519343333333","24.960565","6500600","新店區"
"231014","AAD-862","2018/05/14 12:59:20","新北市新店區安一路一段1-1號","121.519753333333","24.9611366666667","6500600","新店區"
"231025","4715-K9","2018/05/14 12:59:13","新北市新店區安華路28-1號","121.519186666667","24.9606216666667","6500600","新店區"
"231036","512-UM","2018/05/14 12:59:02","新北市新店區安一路一段1-1號","121.518943333333","24.9610833333333","6500600","新店區"
"231013","513-UM","2018/05/14 12:59:20","新北市新店區安一路一段1-1號","121.51963","24.9613166666667","6500600","新店區"
"231034","616-UM","2018/05/14 12:59:11","新北市新店區安華路1-1號","121.51945","24.9605083333333","6500600","新店區"
"231035","719-UM","2018/05/14 12:59:23","新北市新店區安一路一段1-1號","121.519578333333","24.9613033333333","6500600","新店區"
"231031","720-UM","2018/05/14 12:59:15","新北市新店區安一路一段1-1號","121.519291666667","24.9611716666667","6500600","新店區"
"231029","897-TW","2018/05/14 12:59:04","新北市新店區安華路28-1號","121.519563333333","24.9606483333333","6500600","新店區"
"231006","898-TW","2018/05/14 12:59:05","新北市新店區安華路28-1號","121.51931","24.96094","6500600","新店區"
"231004","899-TW","2018/05/14 12:59:15","新北市新店區安華路28-1號","121.519333333333","24.9608533333333","6500600","新店區"
"231024","AKT-0513","2018/05/14 12:59:05","新北市新店區安華路28-1號","121.519311666667","24.9606816666667","6500600","新店區"
"235028","005-UY","2018/05/14 12:59:21","新北市中和區員山路36巷16-3號","121.485093333333","24.9913233333333","6500300","中和區"
"235027","006-UY","2018/05/14 12:59:11","新北市中和區員山路36巷16-3號","121.484963333333","24.99134","6500300","中和區"
"235004","150-BY","2018/05/14 12:59:17","新北市中和區員山路36巷16-6號","121.485348333333","24.9921316666667","6500300","中和區"
"235022","151-BY","2018/05/14 12:59:12","新北市中和區圓通路367巷4號","121.491411666667","24.9893183333333","6500300","中和區"
"235002","185-VK","2018/05/14 12:59:14","新北市中和區景平路361號","121.504551666667","24.99356","6500300","中和區"
"235031","255-BX","2018/05/14 12:59:12","新北市中和區新生街13巷3號","121.483446666667","25.004355","6500300","中和區"
"235025","378-QA","2018/05/14 12:49:26","新北市中和區和城路一段271巷1號","121.48537","24.99211","6500300","中和區"
"235001","611-BX","2018/05/14 12:59:07","新北市中和區中山路三段136巷75號","121.473626666667","25.0078516666667","6500300","中和區"
"235071","783-BX","2018/05/14 12:59:19","新北市中和區連城路308號","121.483633333333","24.99634","6500300","中和區"
"235021","801-TS","2018/05/14 12:59:17","新北市中和區員山路36巷16-2號","121.48511","24.9917383333333","6500300","中和區"
"235016","805-TS","2018/05/14 12:59:06","新北市中和區員山路36巷16號","121.484538333333","24.9914933333333","6500300","中和區"
"235017","900-TW","2018/05/14 12:59:25","新北市中和區員山路36巷16-3號","121.48492","24.9918116666667","6500300","中和區"
"235015","157-BY","2018/05/14 12:59:08","新北市中和區員山路36巷16-2號","121.485333333333","24.991745","6500300","中和區"
"235001","AAC-213","2018/05/14 12:59:18","新北市中和區錦和路350-1號","121.49047","24.9935933333333","6500300","中和區"
"235029","251-BX","2018/05/14 12:59:05","新北市中和區錦和路91號","121.489951666667","24.9958316666667","6500300","中和區"
"253001","6251-TK","2018/05/14 12:59:06","新北市石門區中央路6號","121.566556666667","25.291385","6502200","石門區"
"253004","8270-PC","2018/05/14 12:59:21","新北市石門區中山路63號","121.567575","25.2914216666667","6502200","石門區"
"207002","749-BX","2018/05/14 12:59:26","新北市萬里區雙興里大坪路23號","121.633355","25.1685966666667","6502800","萬里區"
"252005","073-UM","2018/05/14 12:59:22","新北市三芝區埔坪里埔頭坑43號","121.504591666667","25.26175","6502100","三芝區"
"207001","662-BX","2018/05/14 12:59:14","新北市萬里區萬里里獅頭路23號","121.693735","25.1782133333333","6502800","萬里區"
"236005","498-BY","2018/05/14 12:59:20","新北市土城區亞洲路6號","121.436748333333","24.9749683333333","6501300","土城區"
"221032","280-BY","2018/05/14 12:59:11","新北市汐止區建成路20號","121.664886666667","25.07255","6501100","汐止區"
"220030","AAC-253","2018/05/14 12:59:07","新北市板橋區華東街1-9號","121.448266666667","24.9948816666667","6500100","板橋區"
