"lineid","car","time","location","longitude","latitude","cityid","cityname"
"234044","148-BY","2018/05/14 13:29:10","新北市永和區秀朗路二段117號","121.523806666667","25.00181","6500400","永和區"
"234005","207-UY","2018/05/14 13:29:19","新北市永和區中山路一段240號","121.507456666667","25.007785","6500400","永和區"
"234078","298-R6","2018/05/14 13:29:15","新北市永和區環河東路三段60號","121.52685","25.0058383333333","6500400","永和區"
"234036","336-UY","2018/05/14 13:29:15","新北市永和區民樂街28號","121.527511666667","25.001505","6500400","永和區"
"234062","337-UY","2018/05/14 13:29:14","新北市永和區得和路243巷41號","121.520895","25.0017333333333","6500400","永和區"
"234084","338-UY","2018/05/14 13:29:11","新北市永和區林森路99號","121.523345","25.0036383333333","6500400","永和區"
"234068","552-UM","2018/05/14 13:29:13","新北市永和區警光街5-1號","121.519746666667","25.009525","6500400","永和區"
"234015","745-BX","2018/05/14 13:29:17","新北市永和區環河西路一段9號","121.514711666667","25.01806","6500400","永和區"
"234028","746-BX","2018/05/14 13:29:14","新北市永和區民生路69號","121.522631666667","24.99721","6500400","永和區"
"234052","KEA-2590","2018/05/14 13:29:08","新北市永和區復興街19巷9號","121.51608","25.0131766666667","6500400","永和區"
"234012","KEA-2591","2018/05/14 13:29:16","新北市永和區中山路一段175-1號","121.509471666667","25.0090783333333","6500400","永和區"
"234060","AAD-866","2018/05/14 13:29:21","新北市永和區永貞路135號","121.516626666667","25.0041616666667","6500400","永和區"
"234040","862-TW","2018/05/14 13:29:07","新北市永和區中和路601號","121.512308333333","25.00446","6500400","永和區"
"234048","863-TW","2018/05/14 13:29:12","新北市永和區信義路79號","121.512436666667","25.0133833333333","6500400","永和區"
"234025","9371-KE","2018/05/14 13:29:05","新北市永和區中正路655號","121.515008333333","25.0102066666667","6500400","永和區"
"234010","9373-KE","2018/05/14 13:29:10","新北市永和區仁愛路141巷9號","121.51167","25.0118666666667","6500400","永和區"
"248013","025-BX","2018/05/14 13:29:05","新北市五股區成泰路一段104號","121.435756666667","25.07162","6501500","五股區"
"248015","026-BX","2018/05/14 13:29:14","新北市五股區凌雲路一段133巷13號","121.449268333333","25.1015983333333","6501500","五股區"
"248005","077-UY","2018/05/14 13:29:09","新北市五股區四維路60號","121.467328333333","25.0722266666667","6501500","五股區"
"248007","095-VK","2018/05/14 13:29:22","新北市五股區更洲路32巷8弄35-9號","121.459965","25.0794316666667","6501500","五股區"
"248019","225-UY","2018/05/14 13:29:16","新北市五股區孝義路80號","121.449538333333","25.1148716666667","6501500","五股區"
"248009","272-BY","2018/05/14 13:29:20","新北市五股區自強路89號","121.432518333333","25.07184","6501500","五股區"
"248003","677-BX","2018/05/14 13:29:04","新北市五股區民義路一段152號","121.433131666667","25.0874483333333","6501500","五股區"
"248001","678-BX","2018/05/14 13:29:04","新北市五股區西雲路116-6號","121.444705","25.0936466666667","6501500","五股區"
"248011","682-TV","2018/05/14 13:29:18","新北市五股區御成路143號","121.441103333333","25.0941583333333","6501500","五股區"
"234022","9380-KE","2018/05/14 13:29:01","新北市永和區竹林路91巷18號","121.520423333333","25.0123433333333","6500400","永和區"
"234076","969-R7","2018/05/14 13:29:04","新北市永和區中正路286巷7號","121.517703333333","24.9986383333333","6500400","永和區"
"234072","AAC-211","2018/05/14 13:29:03","新北市永和區永和路二段105號","121.514986666667","25.011815","6500400","永和區"
"234066","AAC-212","2018/05/14 13:29:16","新北市永和區永貞路360巷6號","121.510618333333","25.0067616666667","6500400","永和區"
"234001","AAC-295","2018/05/14 13:29:08","新北市永和區永和路一段118號","121.513926666667","25.0078383333333","6500400","永和區"
"244001","248-BX","2018/05/14 13:29:10","新北市林口區竹林路267號","121.389603333333","25.0808483333333","6501700","林口區"
"243005","AAD-798","2018/05/14 13:27:36","新北市泰山區明志路三段206巷3號","121.423301666667","25.0379466666667","6501600","泰山區"
"243008","380-SR","2018/05/14 13:29:18","新北市泰山區犁頭窠3-1號","121.422115","25.0604933333333","6501600","泰山區"
"243004","646-TV","2018/05/14 13:29:16","新北市泰山區黎明路25號","121.42193","25.06068","6501600","泰山區"
"231002","002-UM","2018/05/14 13:29:13","新北市新店區環河路62號","121.537018333333","24.9626566666667","6500600","新店區"
"231027","0293-UT","2018/05/14 13:29:16","新北市新店區北新路一段43號","121.538101666667","24.9594633333333","6500600","新店區"
"231028","046-UY","2018/05/14 13:29:17","新北市新店區安康路一段319號","121.522186666667","24.963605","6500600","新店區"
"231001","047-UY","2018/05/14 13:29:01","新北市新店區中央路153號","121.529926666667","24.9731216666667","6500600","新店區"
"231005","106-UY","2018/05/14 13:29:10","新北市新店區北新路一段88巷1號","121.541613333333","24.96774","6500600","新店區"
"231010","107-UY","2018/05/14 13:29:16","新北市新店區百忍街90號","121.53268","24.9771816666667","6500600","新店區"
"231019","108-UY","2018/05/14 13:29:02","新北市新店區新烏路一段159號","121.54476","24.9354733333333","6500600","新店區"
"231011","187-VK","2018/05/14 13:29:16","新北市新店區北新路一段343號","121.541985","24.9689533333333","6500600","新店區"
"231026","188-VK","2018/05/14 13:29:15","新北市新店區安康路一段85號","121.529345","24.9614483333333","6500600","新店區"
"231023","KEA-2219","2018/05/14 13:29:03","新北市新店區新店路13號","121.540291666667","24.9528533333333","6500600","新店區"
"231003","268-BY","2018/05/14 13:29:10","新北市新店區北新路一段72號","121.54133","24.96707","6500600","新店區"
"231018","278-BY","2018/05/14 13:29:12","新北市新店區中央路59號","121.532805","24.97731","6500600","新店區"
"231014","AAD-862","2018/05/14 13:29:20","新北市新店區北宜路二段56巷3弄2號","121.549013333333","24.9508166666667","6500600","新店區"
"231030","355-BY","2018/05/14 13:29:07","新北市新店區安華路28-1號","121.519305","24.96093","6500600","新店區"
"231038","3712-VJ","2018/05/14 13:29:07","新北市新店區安華路28-1號","121.519345","24.960855","6500600","新店區"
"231037","4716-K9","2018/05/14 13:29:04","新北市新店區安豐路24號","121.500731666667","24.95663","6500600","新店區"
"231025","4715-K9","2018/05/14 13:29:13","新北市新店區中央六街56號","121.527873333333","24.9757316666667","6500600","新店區"
"231036","512-UM","2018/05/14 13:29:02","新北市新店區安祥路109巷151弄6號","121.478725","24.9576566666667","6500600","新店區"
"231013","513-UM","2018/05/14 13:29:00","新北市新店區安康路一段24巷2號","121.532826666667","24.96034","6500600","新店區"
"231034","616-UM","2018/05/14 13:29:11","新北市新店區安華路30巷1號","121.519433333333","24.9596533333333","6500600","新店區"
"231035","719-UM","2018/05/14 13:29:03","新北市新店區安一路一段1-1號","121.51953","24.9612666666667","6500600","新店區"
"231031","720-UM","2018/05/14 13:29:15","新北市新店區安豐路60-1號","121.49782","24.9536166666667","6500600","新店區"
"231029","897-TW","2018/05/14 13:29:04","新北市新店區安華路30巷1號","121.519443333333","24.95954","6500600","新店區"
"231006","898-TW","2018/05/14 13:29:05","新北市新店區安康路一段81號","121.529758333333","24.961275","6500600","新店區"
"231004","899-TW","2018/05/14 13:29:15","新北市新店區安康路一段241號","121.524973333333","24.963245","6500600","新店區"
"231024","AKT-0513","2018/05/14 13:29:05","新北市新店區北新路二段29巷1弄20號","121.541971666667","24.972255","6500600","新店區"
"235028","005-UY","2018/05/14 13:29:01","新北市中和區連城路139巷65號","121.496921666667","24.9970716666667","6500300","中和區"
"235027","006-UY","2018/05/14 13:29:11","新北市中和區連城路347巷1弄2號","121.48823","24.9956466666667","6500300","中和區"
"235011","031-BX","2018/05/14 13:29:09","新北市中和區南山路300號","121.507876666667","24.987155","6500300","中和區"
"235020","096-UM","2018/05/14 13:29:16","新北市中和區中山路二段594號","121.482286666667","25.005425","6500300","中和區"
"235003","097-UM","2018/05/14 13:29:20","新北市中和區安平路10-1號","121.509115","24.9939766666667","6500300","中和區"
"235004","150-BY","2018/05/14 13:29:18","新北市中和區保健路50巷66號","121.509331666667","24.9952233333333","6500300","中和區"
"235022","151-BY","2018/05/14 13:29:12","新北市中和區圓通路369巷72號","121.49015","24.982215","6500300","中和區"
"235019","183-VK","2018/05/14 13:29:00","新北市中和區民享街245號","121.47206","24.996205","6500300","中和區"
"235002","185-VK","2018/05/14 13:29:22","新北市中和區立人街14巷49號","121.519011666667","24.99556","6500300","中和區"
"235013","186-VK","2018/05/14 13:29:03","新北市中和區景安路92-3號","121.505561666667","24.9958266666667","6500300","中和區"
"235031","255-BX","2018/05/14 13:29:12","新北市中和區新生街220巷4號","121.482875","24.99858","6500300","中和區"
"235036","301-VK","2018/05/14 13:29:03","新北市中和區連城路209號","121.494568333333","24.9978433333333","6500300","中和區"
"235007","352-BY","2018/05/14 13:29:09","新北市中和區景平路281號","121.50749","24.9930783333333","6500300","中和區"
"235032","377-QA","2018/05/14 13:29:16","新北市中和區錦和路350-1號","121.490533333333","24.9935366666667","6500300","中和區"
"235025","378-QA","2018/05/14 13:29:19","新北市中和區民享街97巷22號","121.475238333333","25.0000283333333","6500300","中和區"
"235014","4979-A6","2018/05/14 13:29:10","新北市中和區景新街362巷8號","121.51201","24.9903633333333","6500300","中和區"
"235033","4980-A6","2018/05/14 13:29:00","新北市中和區連城路127巷21號","121.496878333333","24.9979866666667","6500300","中和區"
"235006","551-UM","2018/05/14 13:29:15","新北市中和區景平路64巷20號","121.52231","24.9913833333333","6500300","中和區"
"235034","558-UM","2018/05/14 13:29:04","新北市中和區南華路39-2號","121.503355","24.9962666666667","6500300","中和區"
"235009","565-BX","2018/05/14 13:29:14","新北市中和區南山路236巷22弄20號","121.504993333333","24.98931","6500300","中和區"
"235018","640-BX","2018/05/14 13:29:11","新北市中和區民享街89巷2弄1號","121.474813333333","25.0016483333333","6500300","中和區"
"235024","647-TV","2018/05/14 13:29:19","新北市中和區員山路168號","121.481295","24.9998116666667","6500300","中和區"
"235035","783-BX","2018/05/14 13:28:59","新北市中和區環中路120號","121.481943333333","25.0123683333333","6500300","中和區"
"235026","800-TS","2018/05/14 13:29:17","新北市中和區景平路754號","121.49637","25.0045816666667","6500300","中和區"
"235021","801-TS","2018/05/14 13:29:17","新北市中和區民享街97巷21號","121.475336666667","24.999525","6500300","中和區"
"235005","802-TS","2018/05/14 13:29:03","新北市中和區中和路324巷6弄2號","121.50967","25.00048","6500300","中和區"
"235016","805-TS","2018/05/14 13:29:07","新北市中和區興南路二段133號","121.505226666667","24.9841833333333","6500300","中和區"
"235012","896-TW","2018/05/14 13:29:05","新北市中和區員山路36巷16-2號","121.485263333333","24.9917766666667","6500300","中和區"
"235017","900-TW","2018/05/14 13:29:04","新北市土城區金城路三段257號","121.471808333333","24.9900483333333","6500300","中和區"
"235030","911-UM","2018/05/14 13:29:12","新北市中和區中山路二段120號","121.502806666667","25.00379","6500300","中和區"
"235015","157-BY","2018/05/14 13:29:08","新北市中和區興南路二段142巷18-9號","121.502598333333","24.9843783333333","6500300","中和區"
"235001","AAC-213","2018/05/14 13:29:17","新北市中和區景新街383巷50號","121.514465","24.9909116666667","6500300","中和區"
"235023","AAC-215","2018/05/14 13:29:03","新北市中和區員山路36巷16-3號","121.484958333333","24.991305","6500300","中和區"
"220022","015-TV","2018/05/14 13:29:07","新北市板橋區華東街1-10號","121.448628333333","24.9948983333333","6500100","板橋區"
"220013","072-UY","2018/05/14 13:29:15","新北市板橋區南雅南路二段1-1號","121.454795","25.00373","6500100","板橋區"
"220017","AAD-861","2018/05/14 13:29:17","新北市板橋區華東街1-10號","121.448623333333","24.9949833333333","6500100","板橋區"
"235029","251-BX","2018/05/14 13:29:06","新北市中和區莊敬路49巷10弄15號","121.502325","25.0055883333333","6500300","中和區"
"253003","6232-TK","2018/05/14 13:29:10","新北市石門區石崩山20-2號","121.566985","25.2724216666667","6502200","石門區"
"253001","6251-TK","2018/05/14 13:29:06","新北市石門區崁子腳13號","121.533236666667","25.2884033333333","6502200","石門區"
"253002","637-UY","2018/05/14 13:29:20","新北市石門區九芎林5-3號","121.559555","25.2685916666667","6502200","石門區"
"253004","8270-PC","2018/05/14 13:28:21","新北市石門區竹子湖13號","121.617218333333","25.2558516666667","6502200","石門區"
"207002","749-BX","2018/05/14 13:29:05","新北市萬里區溪底里香員林路17號","121.63604","25.1607833333333","6502800","萬里區"
"252005","073-UM","2018/05/14 13:29:02","新北市三芝區福德里土地公埔65號","121.51794","25.2257716666667","6502100","三芝區"
"207001","662-BX","2018/05/14 13:27:54","新北市萬里區龜吼里石角路19-1號","121.683995","25.1918183333333","6502800","萬里區"
"236005","498-BY","2018/05/14 13:29:20","新北市土城區亞洲路11巷3弄14號","121.435666666667","24.9713616666667","6501300","土城區"
"221032","280-BY","2018/05/14 13:29:11","新北市汐止區龍安路28巷10號","121.654856666667","25.0642316666667","6501100","汐止區"
"220018","282-UM","2018/05/14 13:29:18","新北市板橋區華東街1-10號","121.448216666667","24.9950016666667","6500100","板橋區"
"220029","287-VK","2018/05/14 13:29:12","新北市板橋區華東街1-9號","121.448141666667","24.994925","6500100","板橋區"
"220023","303-R5","2018/05/14 13:29:07","新北市板橋區華東街1-9號","121.448136666667","24.994895","6500100","板橋區"
"220012","486-VK","2018/05/14 13:29:19","新北市板橋區華東街11號","121.450631666667","24.9976966666667","6500100","板橋區"
"220028","568-UM","2018/05/14 13:29:16","新北市板橋區華東街1-9號","121.448101666667","24.9948933333333","6500100","板橋區"
"220003","630-UY","2018/05/14 13:29:11","新北市板橋區華東街1-10號","121.448311666667","24.9949383333333","6500100","板橋區"
"220005","686-BX","2018/05/14 13:29:09","新北市板橋區華東街1-9號","121.448213333333","24.994925","6500100","板橋區"
"220025","687-BX","2018/05/14 13:29:12","新北市板橋區篤行路一段37號","121.431943333333","24.9939533333333","6500100","板橋區"
"220002","741-BX","2018/05/14 13:29:16","新北市板橋區華東街1-9號","121.448151666667","24.9948516666667","6500100","板橋區"
"220014","829-TW","2018/05/14 13:29:19","新北市板橋區民生路二段161巷1號","121.470235","25.0198833333333","6500100","板橋區"
"220021","985-R7","2018/05/14 13:29:13","新北市板橋區華東街1-10號","121.44832","24.99495","6500100","板橋區"
"220030","AAC-253","2018/05/14 13:29:07","新北市板橋區華東街1-9號","121.448275","24.9948783333333","6500100","板橋區"
