"lineid","car","time","location","longitude","latitude","cityid","cityname"
"234044","148-BY","2018/05/14 13:39:11","新北市永和區成功路二段28號","121.526615","25.000735","6500400","永和區"
"234005","207-UY","2018/05/14 13:38:56","新北市永和區中山路一段56號","121.513008333333","25.0107366666667","6500400","永和區"
"234078","298-R6","2018/05/14 13:39:02","新北市永和區國中路104巷8弄17號","121.52532","25.0064316666667","6500400","永和區"
"234036","336-UY","2018/05/14 13:38:58","新北市永和區民樂街39巷13號","121.528255","25.0004283333333","6500400","永和區"
"234062","337-UY","2018/05/14 13:38:54","新北市永和區秀朗路二段24巷41號","121.520061666667","25.0019083333333","6500400","永和區"
"234084","338-UY","2018/05/14 13:39:13","新北市永和區永亨路165巷1-6號","121.526066666667","25.0039466666667","6500400","永和區"
"234068","552-UM","2018/05/14 13:38:54","新北市永和區永和路二段216號","121.51561","25.0141","6500400","永和區"
"234015","745-BX","2018/05/14 13:38:57","新北市永和區永和路二段405巷2號","121.515321666667","25.017345","6500400","永和區"
"234028","746-BX","2018/05/14 13:39:07","新北市永和區民權路1巷18號","121.521283333333","24.9982566666667","6500400","永和區"
"234052","KEA-2590","2018/05/14 13:39:08","新北市永和區竹林路39巷3號","121.518201666667","25.0144083333333","6500400","永和區"
"234012","KEA-2591","2018/05/14 13:38:56","新北市永和區永平路226巷14號","121.509046666667","25.0112716666667","6500400","永和區"
"234060","AAD-866","2018/05/14 13:39:00","新北市永和區中正路356號","121.517695","25.0006083333333","6500400","永和區"
"234040","862-TW","2018/05/14 13:39:07","新北市永和區永貞路265號","121.511803333333","25.004695","6500400","永和區"
"234048","863-TW","2018/05/14 13:39:12","新北市永和區保安路82號","121.509726666667","25.0162933333333","6500400","永和區"
"234025","9371-KE","2018/05/14 13:39:04","新北市永和區和平街95巷19號","121.511203333333","25.0091383333333","6500400","永和區"
"234010","9373-KE","2018/05/14 13:39:10","新北市永和區保福路二段9巷9號","121.5106","25.010905","6500400","永和區"
"248013","025-BX","2018/05/14 13:39:05","新北市五股區中興路四段70號","121.437003333333","25.0834433333333","6501500","五股區"
"248015","026-BX","2018/05/14 13:39:14","新北市五股區凌雲路一段149巷13-1號","121.448606666667","25.100875","6501500","五股區"
"248005","077-UY","2018/05/14 13:39:09","新北市五股區中興路一段13號","121.46943","25.0723033333333","6501500","五股區"
"248007","095-VK","2018/05/14 13:39:02","新北市五股區中興路一段150巷6號","121.464663333333","25.074205","6501500","五股區"
"248019","225-UY","2018/05/14 13:38:56","新北市五股區孝義路98號","121.446538333333","25.1193083333333","6501500","五股區"
"248009","272-BY","2018/05/14 13:39:00","新北市五股區水碓七路168號","121.43088","25.0739716666667","6501500","五股區"
"248003","677-BX","2018/05/14 13:39:04","新北市五股區民義路一段236-6號","121.427468333333","25.091265","6501500","五股區"
"248001","678-BX","2018/05/14 13:39:04","新北市五股區西雲路205號","121.448646666667","25.096525","6501500","五股區"
"248011","682-TV","2018/05/14 13:38:57","新北市五股區成泰路三段2巷1-20號","121.441196666667","25.08671","6501500","五股區"
"234022","9380-KE","2018/05/14 13:39:01","新北市永和區竹林路91巷43弄2號","121.521295","25.01282","6500400","永和區"
"234076","969-R7","2018/05/14 13:39:04","新北市永和區得和路233-1號","121.52008","25.000205","6500400","永和區"
"234072","AAC-211","2018/05/14 13:39:03","新北市永和區竹林路213巷44號","121.523301666667","25.0091066666667","6500400","永和區"
"234066","AAC-212","2018/05/14 13:38:54","新北市永和區永貞路406巷26號","121.509711666667","25.0079716666667","6500400","永和區"
"234001","AAC-295","2018/05/14 13:39:08","新北市永和區秀朗路一段6號","121.513721666667","25.0071266666667","6500400","永和區"
"244001","248-BX","2018/05/14 13:38:50","新北市林口區竹林路267號","121.389606666667","25.0808566666667","6501700","林口區"
"243005","AAD-798","2018/05/14 13:27:36","新北市泰山區明志路三段206巷3號","121.423301666667","25.0379466666667","6501600","泰山區"
"243008","380-SR","2018/05/14 13:38:58","新北市泰山區犁頭窠3-1號","121.422145","25.0604366666667","6501600","泰山區"
"243003","KEA-2215","2018/05/14 13:39:03","新北市泰山區黎明路31號","121.421848333333","25.0605833333333","6501600","泰山區"
"243004","646-TV","2018/05/14 13:38:56","新北市泰山區福興三街9號","121.43464","25.0578433333333","6501600","泰山區"
"231002","002-UM","2018/05/14 13:39:13","新北市新店區中央三街127號","121.524016666667","24.9768633333333","6500600","新店區"
"231027","0293-UT","2018/05/14 13:38:56","新北市新店區北宜路一段170號","121.540538333333","24.95294","6500600","新店區"
"231028","046-UY","2018/05/14 13:38:57","新北市新店區安和路一段52巷2-1號","121.517608333333","24.9662883333333","6500600","新店區"
"231001","047-UY","2018/05/14 13:39:01","新北市新店區中正路402號","121.534523333333","24.9775216666667","6500600","新店區"
"231005","106-UY","2018/05/14 13:39:09","新北市新店區寶中路72號","121.547873333333","24.9805833333333","6500600","新店區"
"231010","107-UY","2018/05/14 13:39:02","新北市新店區三民路98-5號","121.53418","24.9733066666667","6500600","新店區"
"231019","108-UY","2018/05/14 13:39:02","新北市新店區永興路132號","121.544021666667","24.9316983333333","6500600","新店區"
"231011","187-VK","2018/05/14 13:39:08","新北市新店區德正街23巷2號","121.544188333333","24.97193","6500600","新店區"
"231026","188-VK","2018/05/14 13:38:55","新北市新店區北新路一段32號","121.54091","24.9659733333333","6500600","新店區"
"231023","KEA-2219","2018/05/14 13:39:03","新北市新店區新店路121號","121.537128333333","24.95421","6500600","新店區"
"231003","268-BY","2018/05/14 13:39:06","新北市新店區中興路一段285-1號","121.545516666667","24.9685833333333","6500600","新店區"
"231018","278-BY","2018/05/14 13:38:52","新北市新店區百忍街36號","121.533753333333","24.9758183333333","6500600","新店區"
"231014","AAD-862","2018/05/14 13:39:00","新北市新店區竹林路26巷42號","121.551073333333","24.95085","6500600","新店區"
"231030","355-BY","2018/05/14 13:39:07","新北市新店區安康路一段299-1號","121.522303333333","24.96371","6500600","新店區"
"231038","3712-VJ","2018/05/14 13:39:07","新北市新店區安華路30巷3號","121.51953","24.9592283333333","6500600","新店區"
"231037","4716-K9","2018/05/14 13:39:04","新北市新店區薏仁坑路57號","121.490641666667","24.9640566666667","6500600","新店區"
"231025","4715-K9","2018/05/14 13:38:53","新北市新店區中央六街56號","121.527913333333","24.9757483333333","6500600","新店區"
"231036","512-UM","2018/05/14 13:39:04","新北市新店區安祥路142號","121.474413333333","24.9554733333333","6500600","新店區"
"231013","513-UM","2018/05/14 13:39:00","新北市新店區中正路450號","121.534395","24.979055","6500600","新店區"
"231034","616-UM","2018/05/14 13:39:11","新北市新店區車子路136號","121.504475","24.9483716666667","6500600","新店區"
"231035","719-UM","2018/05/14 13:39:09","新北市新店區安忠路38號","121.513153333333","24.959565","6500600","新店區"
"231031","720-UM","2018/05/14 13:38:55","新北市新店區安康路一段144號","121.526471666667","24.9628916666667","6500600","新店區"
"231029","897-TW","2018/05/14 13:39:04","新北市新店區安康路二段295-5號","121.503318333333","24.9576716666667","6500600","新店區"
"231006","898-TW","2018/05/14 13:39:05","新北市新店區北宜路一段94號","121.53893","24.9555933333333","6500600","新店區"
"231004","899-TW","2018/05/14 13:38:55","新北市新店區北新路二段1號","121.542701666667","24.9712516666667","6500600","新店區"
"231024","AKT-0513","2018/05/14 13:39:05","新北市新店區中華路47巷2弄1號","121.539713333333","24.9675833333333","6500600","新店區"
"235028","005-UY","2018/05/14 13:39:01","新北市中和區連城路111號","121.496481666667","24.9993116666667","6500300","中和區"
"235027","006-UY","2018/05/14 13:38:51","新北市中和區連城路347巷6弄38號","121.486638333333","24.99543","6500300","中和區"
"235011","031-BX","2018/05/14 13:39:09","新北市中和區南山路320巷10弄11號","121.506835","24.9866433333333","6500300","中和區"
"235020","096-UM","2018/05/14 13:39:04","新北市中和區員山路466巷17弄14號","121.480525","25.007385","6500300","中和區"
"235003","097-UM","2018/05/14 13:39:00","新北市中和區大勇街27巷1號","121.517308333333","24.9935183333333","6500300","中和區"
"235004","150-BY","2018/05/14 13:38:58","新北市中和區安平路59號","121.5096","24.99517","6500300","中和區"
"235022","151-BY","2018/05/14 13:38:53","新北市中和區圓通路332號","121.484235","24.985985","6500300","中和區"
"235019","183-VK","2018/05/14 13:39:00","新北市中和區莒光路120巷17弄1號","121.471681666667","25.0010333333333","6500300","中和區"
"235002","185-VK","2018/05/14 13:38:54","新北市中和區立人街24-5號","121.51884","24.9942216666667","6500300","中和區"
"235013","186-VK","2018/05/14 13:39:03","新北市中和區明義街6號","121.505078333333","24.9949433333333","6500300","中和區"
"235031","255-BX","2018/05/14 13:38:52","新北市中和區新生街220巷4號","121.482883333333","24.9986483333333","6500300","中和區"
"235008","293-VK","2018/05/14 13:38:57","新北市中和區復興路261號","121.50283","24.990355","6500300","中和區"
"235036","301-VK","2018/05/14 13:39:03","新北市中和區中山路二段191號","121.500018333333","25.0026566666667","6500300","中和區"
"235007","352-BY","2018/05/14 13:39:08","新北市中和區景德街88號","121.516091666667","24.9918666666667","6500300","中和區"
"235032","377-QA","2018/05/14 13:38:57","新北市中和區中正路211巷13弄5號","121.497096666667","24.9930983333333","6500300","中和區"
"235025","378-QA","2018/05/14 13:38:59","新北市中和區民享街95-4號","121.474983333333","25.0001266666667","6500300","中和區"
"235014","4979-A6","2018/05/14 13:38:50","新北市中和區景新街496巷28弄37號","121.512755","24.9859216666667","6500300","中和區"
"235033","4980-A6","2018/05/14 13:39:00","新北市中和區連城路87號","121.496868333333","25.0003533333333","6500300","中和區"
"235006","551-UM","2018/05/14 13:39:10","新北市中和區成功路97巷7號","121.52654","24.99176","6500300","中和區"
"235034","558-UM","2018/05/14 13:39:04","新北市中和區景平路435號","121.500975","24.9959316666667","6500300","中和區"
"235009","565-BX","2018/05/14 13:38:54","新北市中和區南山路236巷53號","121.504865","24.9882766666667","6500300","中和區"
"235018","640-BX","2018/05/14 13:39:11","新北市中和區民享街32巷10號","121.473396666667","25.003225","6500300","中和區"
"235024","647-TV","2018/05/14 13:38:59","新北市中和區中山路二段553號","121.481018333333","25.00553","6500300","中和區"
"235035","783-BX","2018/05/14 13:38:59","新北市中和區環河西路三段123號","121.488988333333","25.0108533333333","6500300","中和區"
"235026","800-TS","2018/05/14 13:38:57","新北市中和區中山路二段289號","121.496273333333","25.002225","6500300","中和區"
"235021","801-TS","2018/05/14 13:38:57","新北市中和區員山路327巷102號","121.479196666667","25.002385","6500300","中和區"
"235005","802-TS","2018/05/14 13:39:03","新北市中和區中安街76號","121.512296666667","25.00192","6500300","中和區"
"235016","805-TS","2018/05/14 13:39:07","新北市中和區興南路三段46號","121.495738333333","24.9767066666667","6500300","中和區"
"235012","896-TW","2018/05/14 13:39:05","新北市中和區中正路83號","121.5006","24.99341","6500300","中和區"
"235017","900-TW","2018/05/14 13:39:04","新北市土城區延壽路111巷2號","121.46915","24.9938166666667","6500300","中和區"
"235030","911-UM","2018/05/14 13:38:52","新北市中和區水源路31號","121.504186666667","25.0035866666667","6500300","中和區"
"235015","157-BY","2018/05/14 13:39:08","新北市中和區華新街143巷106弄7號","121.506101666667","24.97885","6500300","中和區"
"235001","AAC-213","2018/05/14 13:38:57","新北市中和區景平路111巷51號","121.515468333333","24.990345","6500300","中和區"
"235023","AAC-215","2018/05/14 13:39:03","新北市中和區中正路571巷1弄2號","121.486666666667","24.99354","6500300","中和區"
"220022","015-TV","2018/05/14 13:39:07","新北市板橋區南雅東路1號","121.45543","25.0056716666667","6500100","板橋區"
"220013","072-UY","2018/05/14 13:38:56","新北市板橋區漢生東路282號","121.47122","25.009","6500100","板橋區"
"220034","073-UY","2018/05/14 13:39:10","新北市板橋區南雅西路一段140號","121.452176666667","25.0074116666667","6500100","板橋區"
"220105","075-UY","2018/05/14 13:38:55","新北市板橋區民生路二段120號","121.470751666667","25.0198566666667","6500100","板橋區"
"220017","AAD-861","2018/05/14 13:38:57","新北市板橋區華東街1-10號","121.448643333333","24.9949866666667","6500100","板橋區"
"247007","056-VK","2018/05/14 13:39:04","新北市五股區四維路183號","121.467778333333","25.0754833333333","6501400","蘆洲區"
"247019","001-UY","2018/05/14 13:38:57","新北市五股區成泰路三段544-1號","121.455088333333","25.100895","6501400","蘆洲區"
"235029","251-BX","2018/05/14 13:39:05","新北市中和區莊敬路49巷29弄6-6號","121.501473333333","25.006415","6500300","中和區"
"253003","6232-TK","2018/05/14 13:39:10","新北市石門區尖子鹿5-1號","121.571835","25.2811666666667","6502200","石門區"
"253001","6251-TK","2018/05/14 13:39:06","新北市石門區白沙灣別墅31號","121.510963333333","25.2775483333333","6502200","石門區"
"253002","637-UY","2018/05/14 13:39:00","新北市石門區九芎林15號","121.565218333333","25.2614183333333","6502200","石門區"
"253004","8270-PC","2018/05/14 13:38:54","新北市石門區五爪崙8-4號","121.605931666667","25.2631516666667","6502200","石門區"
"207002","749-BX","2018/05/14 13:39:05","新北市萬里區溪底里香員林路17號","121.636086666667","25.1608183333333","6502800","萬里區"
"252005","073-UM","2018/05/14 13:39:04","新北市三芝區圓山里木屐寮40號","121.531768333333","25.2237216666667","6502100","三芝區"
"207001","662-BX","2018/05/14 13:38:54","新北市萬里區大鵬里萬里加投64號","121.641518333333","25.2128483333333","6502800","萬里區"
"236064","105-UM","2018/05/14 13:39:06","新北市土城區城林路6巷80號","121.43865","24.979655","6501300","土城區"
"236040","107-UM","2018/05/14 13:39:01","新北市土城區城林路6巷80號","121.438495","24.9797716666667","6501300","土城區"
"236074","166-UM","2018/05/14 13:39:09","新北市土城區中華路二段2號","121.439538333333","24.9795","6501300","土城區"
"236012","270-VK","2018/05/14 13:39:06","新北市土城區城林路6巷80號","121.438521666667","24.9797666666667","6501300","土城區"
"236005","498-BY","2018/05/14 13:39:00","新北市土城區慶祥街45號","121.436206666667","24.97342","6501300","土城區"
"236060","915-UM","2018/05/14 13:39:09","新北市土城區城林路6巷80號","121.43845","24.9797583333333","6501300","土城區"
"221032","280-BY","2018/05/14 13:39:11","新北市汐止區水源路一段56號","121.657486666667","25.0656283333333","6501100","汐止區"
"220027","145-BY","2018/05/14 13:39:08","新北市板橋區南雅西路二段192巷3號","121.452041666667","25.0144116666667","6500100","板橋區"
"220004","276-BY","2018/05/14 13:39:07","新北市土城區廣興街38號","121.453431666667","24.9914483333333","6500100","板橋區"
"220020","277-BY","2018/05/14 13:39:00","新北市板橋區大觀路三段62巷2號","121.433243333333","24.995155","6500100","板橋區"
"220018","282-UM","2018/05/14 13:38:58","新北市板橋區南雅南路二段120-7號","121.452195","24.9994916666667","6500100","板橋區"
"220043","285-UM","2018/05/14 13:38:56","新北市板橋區民生路二段161巷3號","121.470135","25.019815","6500100","板橋區"
"220031","286-VK","2018/05/14 13:39:05","新北市板橋區合安一路51號","121.447453333333","24.999075","6500100","板橋區"
"220029","287-VK","2018/05/14 13:38:52","新北市板橋區合宜路117號","121.447911666667","24.9988916666667","6500100","板橋區"
"220032","296-UM","2018/05/14 13:39:01","新北市板橋區合安一路51號","121.447395","24.9990833333333","6500100","板橋區"
"220023","303-R5","2018/05/14 13:39:07","新北市板橋區華東街310號","121.452718333333","25.0029766666667","6500100","板橋區"
"220010","305-R5","2018/05/14 13:38:53","新北市板橋區民生路二段161巷3號","121.470235","25.0198566666667","6500100","板橋區"
"220012","486-VK","2018/05/14 13:38:59","新北市板橋區民生路二段121號","121.47085","25.0182033333333","6500100","板橋區"
"220037","491-VK","2018/05/14 13:39:09","新北市板橋區民生路二段179號","121.469861666667","25.0203833333333","6500100","板橋區"
"220052","561-BX","2018/05/14 13:38:58","新北市板橋區民生路二段120號","121.470768333333","25.0195666666667","6500100","板橋區"
"220028","568-UM","2018/05/14 13:38:56","新北市板橋區大觀路二段265巷7-6號","121.442825","24.994825","6500100","板橋區"
"220011","609-BX","2018/05/14 13:38:58","新北市板橋區民生路二段188號","121.470161666667","25.020365","6500100","板橋區"
"220003","630-UY","2018/05/14 13:39:11","新北市板橋區華東街1-10號","121.448315","24.9949266666667","6500100","板橋區"
"220005","686-BX","2018/05/14 13:39:09","新北市板橋區華東街1-9號","121.448221666667","24.9949033333333","6500100","板橋區"
"220025","687-BX","2018/05/14 13:38:53","新北市板橋區沙崙街37號","121.430478333333","24.994475","6500100","板橋區"
"220002","741-BX","2018/05/14 13:38:57","新北市板橋區華東街1-8號","121.447846666667","24.9948066666667","6500100","板橋區"
"220014","829-TW","2018/05/14 13:38:59","新北市板橋區民生路二段175號","121.469866666667","25.020275","6500100","板橋區"
"220021","985-R7","2018/05/14 13:38:53","新北市板橋區華東街270號","121.452656666667","25.001745","6500100","板橋區"
"220030","AAC-253","2018/05/14 13:39:12","新北市板橋區篤行路一段18號","121.43207","24.9950083333333","6500100","板橋區"
