"lineid","car","time","location","longitude","latitude","cityid","cityname"
"234044","148-BY","2018/05/14 13:58:51","新北市永和區永利路125號","121.524073333333","25.0027983333333","6500400","永和區"
"234005","207-UY","2018/05/14 13:58:56","新北市中和區中和路380號","121.510703333333","25.00213","6500400","永和區"
"234078","298-R6","2018/05/14 13:58:55","新北市永和區國中路1號","121.523836666667","25.004455","6500400","永和區"
"234036","336-UY","2018/05/14 13:58:55","新北市永和區成功路二段193號","121.526555","24.9964466666667","6500400","永和區"
"234062","337-UY","2018/05/14 13:59:02","新北市永和區中正路368巷1弄45號","121.519235","25.0010633333333","6500400","永和區"
"234084","338-UY","2018/05/14 13:58:52","新北市永和區福和路152號","121.521783333333","25.007925","6500400","永和區"
"234068","552-UM","2018/05/14 13:58:54","新北市永和區國光路39-1號","121.519088333333","25.0081533333333","6500400","永和區"
"234015","745-BX","2018/05/14 13:58:57","新北市永和區文化路32號","121.51511","25.0150716666667","6500400","永和區"
"234028","746-BX","2018/05/14 13:58:59","新北市永和區民生路47巷58號","121.525698333333","24.9978333333333","6500400","永和區"
"234052","KEA-2590","2018/05/14 13:58:48","新北市永和區竹林路66巷2-3號","121.517978333333","25.0137116666667","6500400","永和區"
"234012","KEA-2591","2018/05/14 13:58:56","新北市永和區保生路55號","121.504678333333","25.0106116666667","6500400","永和區"
"234060","AAD-866","2018/05/14 13:59:00","新北市永和區中正路283巷53弄2號","121.515921666667","24.9992833333333","6500400","永和區"
"234040","862-TW","2018/05/14 13:58:55","新北市永和區中和路335巷18弄30號","121.508093333333","25.0004933333333","6500400","永和區"
"234048","863-TW","2018/05/14 13:58:52","新北市永和區保安路248號","121.506441666667","25.0126483333333","6500400","永和區"
"234025","9371-KE","2018/05/14 13:58:45","新北市永和區秀朗路一段10巷21號","121.513295","25.0062383333333","6500400","永和區"
"234010","9373-KE","2018/05/14 13:58:50","新北市永和區仁愛路352巷114號","121.500526666667","25.0082583333333","6500400","永和區"
"248015","026-BX","2018/05/14 13:58:54","新北市五股區成泰路三段543巷12弄11號","121.451325","25.1024283333333","6501500","五股區"
"248007","095-VK","2018/05/14 13:58:41","新北市五股區中興路一段128巷18號","121.465728333333","25.0746733333333","6501500","五股區"
"248019","225-UY","2018/05/14 13:58:56","新北市五股區凌雲路三段85-3號","121.423116666667","25.1245","6501500","五股區"
"248009","272-BY","2018/05/14 13:59:00","新北市五股區水碓二路1號","121.430568333333","25.0712966666667","6501500","五股區"
"248003","677-BX","2018/05/14 13:58:43","新北市五股區民義路二段60號","121.406035","25.1074066666667","6501500","五股區"
"248001","678-BX","2018/05/14 13:58:55","新北市五股區天乙路1號","121.448588333333","25.1027016666667","6501500","五股區"
"248011","682-TV","2018/05/14 13:58:57","新北市五股區成泰路二段195巷1號","121.440408333333","25.0873716666667","6501500","五股區"
"234076","969-R7","2018/05/14 13:58:45","新北市永和區民治街35號","121.519231666667","24.9977416666667","6500400","永和區"
"234072","AAC-211","2018/05/14 13:58:43","新北市永和區豫溪街185號","121.522468333333","25.010375","6500400","永和區"
"234066","AAC-212","2018/05/14 13:58:54","新北市永和區中山路一段277號","121.507011666667","25.00705","6500400","永和區"
"234001","AAC-295","2018/05/14 13:58:48","新北市永和區福和路319號","121.515925","25.0072616666667","6500400","永和區"
"244001","248-BX","2018/05/14 13:58:50","新北市林口區竹林路267號","121.3896","25.0808616666667","6501700","林口區"
"243005","AAD-798","2018/05/14 13:58:51","新北市泰山區明志路三段206巷12號","121.423065","25.03805","6501600","泰山區"
"243001","297-R6","2018/05/14 13:58:47","新北市泰山區泰林路二段362號","121.428758333333","25.0636566666667","6501600","泰山區"
"243008","380-SR","2018/05/14 13:58:58","新北市泰山區明志路二段135號","121.427711666667","25.05075","6501600","泰山區"
"243007","421-VK","2018/05/14 13:58:48","新北市泰山區泰林路二段290號","121.431063333333","25.0626316666667","6501600","泰山區"
"243003","KEA-2215","2018/05/14 13:58:43","新北市泰山區明志路二段228號","121.427171666667","25.048235","6501600","泰山區"
"243002","KEA-2216","2018/05/14 13:58:29","新北市泰山區辭修路30號","121.428956666667","25.058215","6501600","泰山區"
"243004","646-TV","2018/05/14 13:58:56","新北市泰山區同義街13巷29號","121.4322","25.0573083333333","6501600","泰山區"
"243006","680-BX","2018/05/14 13:59:00","新北市泰山區黎明路2-5號","121.420813333333","25.0626333333333","6501600","泰山區"
"231002","002-UM","2018/05/14 13:58:53","新北市新店區溪園路75號","121.5293","24.9872116666667","6500600","新店區"
"231027","0293-UT","2018/05/14 13:58:56","新北市新店區北宜路一段39巷20號","121.539053333333","24.95839","6500600","新店區"
"231028","046-UY","2018/05/14 13:58:57","新北市新店區安和路三段46號","121.517995","24.9819233333333","6500600","新店區"
"231001","047-UY","2018/05/14 13:58:41","新北市新店區三民路45號","121.537091666667","24.9708816666667","6500600","新店區"
"231005","106-UY","2018/05/14 13:59:01","新北市新店區中興路三段214號","121.543611666667","24.9824466666667","6500600","新店區"
"231010","107-UY","2018/05/14 13:58:56","新北市新店區環河路121號","121.529795","24.9714716666667","6500600","新店區"
"231019","108-UY","2018/05/14 13:58:42","新北市新店區櫻花街6號","121.546566666667","24.926825","6500600","新店區"
"231011","187-VK","2018/05/14 13:58:56","新北市新店區中興路二段79巷20號","121.546076666667","24.971515","6500600","新店區"
"231026","188-VK","2018/05/14 13:58:55","新北市新店區環河路106號","121.5368","24.9642166666667","6500600","新店區"
"231023","KEA-2219","2018/05/14 13:58:43","新北市新店區文中路51-5號","121.540416666667","24.9567616666667","6500600","新店區"
"231003","268-BY","2018/05/14 13:58:46","新北市新店區中興路一段103巷2號","121.541143333333","24.9623933333333","6500600","新店區"
"231018","278-BY","2018/05/14 13:58:52","新北市新店區中央路208-1號","121.530153333333","24.9737533333333","6500600","新店區"
"231014","AAD-862","2018/05/14 13:59:00","新北市新店區郵政路95號","121.55454","24.9514166666667","6500600","新店區"
"231030","355-BY","2018/05/14 13:58:47","新北市新店區吉安街33號","121.515918333333","24.96599","6500600","新店區"
"231038","3712-VJ","2018/05/14 13:58:47","新北市新店區溪洲路8巷66號","121.533065","24.9624466666667","6500600","新店區"
"231037","4716-K9","2018/05/14 13:58:44","新北市新店區安康路三段355巷35號","121.484975","24.9496933333333","6500600","新店區"
"231025","4715-K9","2018/05/14 13:58:53","新北市新店區中正路328巷10號","121.53732","24.975375","6500600","新店區"
"231036","512-UM","2018/05/14 13:59:02","新北市新店區安祥路110巷27號","121.473548333333","24.9564133333333","6500600","新店區"
"231013","513-UM","2018/05/14 13:58:40","新北市新店區明德路111號","121.541515","24.9794583333333","6500600","新店區"
"231034","616-UM","2018/05/14 13:58:51","新北市新店區達觀路12號","121.504888333333","24.94122","6500600","新店區"
"231035","719-UM","2018/05/14 13:58:43","新北市新店區安康路二段1-3號","121.516888333333","24.96385","6500600","新店區"
"231031","720-UM","2018/05/14 13:58:55","新北市新店區莒光路87巷15號","121.525838333333","24.953465","6500600","新店區"
"231029","897-TW","2018/05/14 13:58:44","新北市新店區安康路二段4號","121.516376666667","24.9637633333333","6500600","新店區"
"231006","898-TW","2018/05/14 13:58:45","新北市新店區北宜路二段211號","121.5532","24.9533166666667","6500600","新店區"
"231004","899-TW","2018/05/14 13:58:58","新北市新店區北新路二段167號","121.542816666667","24.976345","6500600","新店區"
"231024","AKT-0513","2018/05/14 13:58:45","新北市新店區環河路182-3號","121.533888333333","24.9700966666667","6500600","新店區"
"235028","005-UY","2018/05/14 13:58:41","新北市中和區泰和街28號","121.499406666667","25.0005683333333","6500300","中和區"
"235027","006-UY","2018/05/14 13:58:51","新北市中和區中正路534號","121.487613333333","24.994455","6500300","中和區"
"235011","031-BX","2018/05/14 13:58:49","新北市中和區興南路二段34巷8號","121.506761666667","24.98571","6500300","中和區"
"235020","096-UM","2018/05/14 13:58:53","新北市中和區中正路1220巷4號","121.479803333333","25.011135","6500300","中和區"
"235003","097-UM","2018/05/14 13:59:00","新北市中和區大仁街10巷52號","121.520588333333","24.9927166666667","6500300","中和區"
"235004","150-BY","2018/05/14 13:58:58","新北市中和區保健路50巷52號","121.509426666667","24.99594","6500300","中和區"
"235022","151-BY","2018/05/14 13:58:53","新北市中和區員山路77巷7號","121.48027","24.9941166666667","6500300","中和區"
"235019","183-VK","2018/05/14 13:59:00","新北市板橋區民族路276巷3弄15號","121.47019","25.0062083333333","6500300","中和區"
"235002","185-VK","2018/05/14 13:58:54","新北市中和區立人街24-5號","121.51887","24.9941883333333","6500300","中和區"
"235013","186-VK","2018/05/14 13:59:01","新北市中和區景新街176號","121.506156666667","24.996405","6500300","中和區"
"235031","255-BX","2018/05/14 13:58:52","新北市中和區新生街176巷18號","121.48279","24.999935","6500300","中和區"
"235008","293-VK","2018/05/14 13:58:57","新北市中和區中興街161巷5弄21號","121.500671666667","24.9914216666667","6500300","中和區"
"235036","301-VK","2018/05/14 13:59:03","新北市中和區中山路二段161號","121.501546666667","25.00277","6500300","中和區"
"235007","352-BY","2018/05/14 13:58:49","新北市中和區秀朗路三段95號","121.526541666667","24.9951683333333","6500300","中和區"
"235032","377-QA","2018/05/14 13:58:57","新北市中和區圓通路162巷14號","121.496648333333","24.995635","6500300","中和區"
"235025","378-QA","2018/05/14 13:58:59","新北市中和區民治街23巷1號","121.475385","25.0021533333333","6500300","中和區"
"235014","4979-A6","2018/05/14 13:58:50","新北市中和區華新街50巷10號","121.507568333333","24.98391","6500300","中和區"
"235033","4980-A6","2018/05/14 13:59:00","新北市中和區景平路479號","121.500373333333","24.9973033333333","6500300","中和區"
"235006","551-UM","2018/05/14 13:58:50","新北市中和區秀朗路三段18號","121.52625","24.99634","6500300","中和區"
"235034","558-UM","2018/05/14 13:58:44","新北市中和區中和路279號","121.505798333333","24.99979","6500300","中和區"
"235009","565-BX","2018/05/14 13:58:54","新北市中和區景新街467巷20弄84號","121.514501666667","24.987565","6500300","中和區"
"235018","640-BX","2018/05/14 13:58:54","新北市中和區中山路三段147號","121.473691666667","25.00605","6500300","中和區"
"235024","647-TV","2018/05/14 13:58:59","新北市中和區民治街7巷1-1號","121.47507","25.0047683333333","6500300","中和區"
"235010","733-UM","2018/05/14 13:58:55","新北市中和區興南路二段11號","121.508226666667","24.9861683333333","6500300","中和區"
"235035","783-BX","2018/05/14 13:58:59","新北市中和區立德街98巷81號","121.488356666667","25.00878","6500300","中和區"
"235026","800-TS","2018/05/14 13:58:57","新北市中和區中山路二段340巷63號","121.492828333333","25.0047966666667","6500300","中和區"
"235021","801-TS","2018/05/14 13:58:57","新北市中和區民利街28號","121.479933333333","24.9991066666667","6500300","中和區"
"235005","802-TS","2018/05/14 13:59:03","新北市中和區中安街32號","121.513145","25.0029","6500300","中和區"
"235016","805-TS","2018/05/14 13:58:47","新北市中和區興南路二段131-10號","121.50406","24.9808183333333","6500300","中和區"
"235012","896-TW","2018/05/14 13:58:45","新北市中和區華新街34號","121.507895","24.984355","6500300","中和區"
"235017","900-TW","2018/05/14 13:58:45","新北市中和區壽德街20-1號","121.466088333333","24.994775","6500300","中和區"
"235030","911-UM","2018/05/14 13:58:53","新北市中和區中山路二段131巷5弄14號","121.503341666667","25.0031416666667","6500300","中和區"
"235015","157-BY","2018/05/14 13:58:48","新北市中和區忠孝街11巷1號","121.509868333333","24.9830733333333","6500300","中和區"
"235001","AAC-213","2018/05/14 13:58:57","新北市中和區自立路99巷16號","121.522795","24.99476","6500300","中和區"
"235023","AAC-215","2018/05/14 13:58:44","新北市中和區圓通路367巷20弄31號","121.491236666667","24.9879883333333","6500300","中和區"
"220022","015-TV","2018/05/14 13:58:47","新北市板橋區南雅南路一段121號","121.45519","25.0047583333333","6500100","板橋區"
"220013","072-UY","2018/05/14 13:58:56","新北市板橋區漢生東路330-1號","121.471748333333","25.00787","6500100","板橋區"
"220034","073-UY","2018/05/14 13:58:50","新北市板橋區中正路236巷32號","121.456971666667","25.019185","6500100","板橋區"
"220105","075-UY","2018/05/14 13:58:55","新北市板橋區文化路二段124巷24號","121.471148333333","25.02568","6500100","板橋區"
"220017","AAD-861","2018/05/14 13:58:57","新北市板橋區華興街73-1號","121.457073333333","25.0050316666667","6500100","板橋區"
"247013","546-UM","2018/05/14 13:59:02","新北市蘆洲區中正路131號","121.469471666667","25.0845566666667","6501400","蘆洲區"
"247009","341-TH","2018/05/14 13:58:58","新北市蘆洲區集賢路370號","121.480651666667","25.083305","6501400","蘆洲區"
"247011","339-TH","2018/05/14 13:58:46","新北市蘆洲區民族路152號","121.479518333333","25.0861416666667","6501400","蘆洲區"
"247003","337-TH","2018/05/14 13:58:59","新北市蘆洲區長榮路63號","121.462483333333","25.08339","6501400","蘆洲區"
"247005","336-TH","2018/05/14 13:58:52","新北市蘆洲區永安南路二段64號","121.465038333333","25.078015","6501400","蘆洲區"
"247017","057-VK","2018/05/14 13:59:00","新北市蘆洲區民族路227巷22弄17號","121.476238333333","25.0893266666667","6501400","蘆洲區"
"247007","056-VK","2018/05/14 13:58:44","新北市蘆洲區永安北路二段10號","121.481163333333","25.0806533333333","6501400","蘆洲區"
"247015","007-UY","2018/05/14 13:59:00","新北市蘆洲區光華路40號","121.468983333333","25.0832366666667","6501400","蘆洲區"
"247019","001-UY","2018/05/14 13:58:57","新北市蘆洲區民族路422巷33弄1號","121.473356666667","25.0934033333333","6501400","蘆洲區"
"235029","251-BX","2018/05/14 13:58:45","新北市中和區福祥路136號","121.498903333333","25.0068883333333","6500300","中和區"
"253003","6232-TK","2018/05/14 13:58:50","新北市石門區尖子鹿51-1號","121.576811666667","25.27511","6502200","石門區"
"253001","6251-TK","2018/05/14 13:58:46","新北市石門區下員坑42-2號","121.517533333333","25.2770983333333","6502200","石門區"
"253002","637-UY","2018/05/14 13:59:00","新北市石門區尖山湖18號","121.558945","25.2470083333333","6502200","石門區"
"253004","8270-PC","2018/05/14 13:58:54","新北市石門區坪林21號","121.593178333333","25.268695","6502200","石門區"
"207002","749-BX","2018/05/14 13:58:45","新北市萬里區溪底里富士坪路16-1號","121.62124","25.1539916666667","6502800","萬里區"
"252005","073-UM","2018/05/14 13:57:42","新北市三芝區圓山里二坪頂67號","121.538681666667","25.2346533333333","6502100","三芝區"
"207001","662-BX","2018/05/14 13:58:54","新北市萬里區磺潭里清水18號","121.637986666667","25.1976283333333","6502800","萬里區"
"236064","105-UM","2018/05/14 13:58:46","新北市土城區明德路一段369-2號","121.45332","24.9793316666667","6501300","土城區"
"236040","107-UM","2018/05/14 13:58:41","新北市土城區中央路二段280號","121.440891666667","24.9741016666667","6501300","土城區"
"236074","166-UM","2018/05/14 13:58:49","新北市土城區永寧路32巷10弄21號","121.428943333333","24.961025","6501300","土城區"
"236029","253-BX","2018/05/14 13:58:58","新北市土城區城林路6巷80號","121.438443333333","24.9797133333333","6501300","土城區"
"236024","269-VK","2018/05/14 13:58:48","新北市土城區承天路1號","121.435881666667","24.966605","6501300","土城區"
"236012","270-VK","2018/05/14 13:58:46","新北市土城區城林路6巷80號","121.438546666667","24.9797716666667","6501300","土城區"
"236032","271-VK","2018/05/14 13:58:54","新北市土城區城林路6巷80號","121.438415","24.9797616666667","6501300","土城區"
"236016","401-BY","2018/05/14 13:58:45","新北市土城區城林路6巷80號","121.438596666667","24.979745","6501300","土城區"
"236005","498-BY","2018/05/14 13:59:00","新北市土城區中央路一段365巷21號","121.446253333333","24.9800383333333","6501300","土城區"
"236057","912-UM","2018/05/14 13:58:49","新北市土城區中央路三段278號","121.426735","24.9637433333333","6501300","土城區"
"236045","913-UM","2018/05/14 13:58:44","新北市土城區中央路二段215號","121.44121","24.9741183333333","6501300","土城區"
"236060","915-UM","2018/05/14 13:58:49","新北市土城區城林路6巷80號","121.438448333333","24.9797716666667","6501300","土城區"
"236054","AAC-216","2018/05/14 13:58:48","新北市土城區中央路二段215號","121.441206666667","24.9741383333333","6501300","土城區"
"220027","145-BY","2018/05/14 13:58:48","新北市板橋區民權路202巷4弄1號","121.45962","25.01417","6500100","板橋區"
"220050","245-BX","2018/05/14 13:58:47","新北市板橋區文化路二段182巷1弄2號","121.471041666667","25.0273683333333","6500100","板橋區"
"220004","276-BY","2018/05/14 13:58:47","新北市板橋區信義路52-2號","121.457225","24.99421","6500100","板橋區"
"220020","277-BY","2018/05/14 13:58:55","新北市板橋區大觀路三段50巷59號","121.431835","24.996085","6500100","板橋區"
"220018","282-UM","2018/05/14 13:58:57","新北市板橋區四川路一段338號","121.456781666667","24.9967333333333","6500100","板橋區"
"220043","285-UM","2018/05/14 13:58:56","新北市板橋區文化路二段76號","121.469386666667","25.025085","6500100","板橋區"
"220001","285-VK","2018/05/14 13:58:46","新北市板橋區縣民大道三段32號","121.47155","25.0186233333333","6500100","板橋區"
"220031","286-VK","2018/05/14 13:58:45","新北市板橋區大觀路一段38巷158號","121.4423","25.0045233333333","6500100","板橋區"
"220029","287-VK","2018/05/14 13:58:53","新北市板橋區光華街19巷36號","121.453221666667","25.0119833333333","6500100","板橋區"
"220039","288-VK","2018/05/14 13:58:52","新北市板橋區四維路177巷4弄2號","121.463913333333","25.0262116666667","6500100","板橋區"
"220009","293-UM","2018/05/14 13:58:47","新北市板橋區永豐街120巷3號","121.476603333333","25.0205733333333","6500100","板橋區"
"220032","296-UM","2018/05/14 13:59:01","新北市板橋區大觀路三段59巷17弄6-1號","121.435861666667","24.9955316666667","6500100","板橋區"
"220023","303-R5","2018/05/14 13:58:47","新北市板橋區館前西路211號","121.454606666667","25.0084066666667","6500100","板橋區"
"220010","305-R5","2018/05/14 13:58:53","新北市板橋區三民路二段253-1號","121.478975","25.0116716666667","6500100","板橋區"
"220041","307-R5","2018/05/14 13:58:51","新北市板橋區文化路一段104巷1弄20號","121.465465","25.0179183333333","6500100","板橋區"
"220047","317-R6","2018/05/14 13:58:46","新北市板橋區民有街18號","121.46623","25.0249316666667","6500100","板橋區"
"220012","486-VK","2018/05/14 13:58:59","新北市板橋區板新路157號","121.469815","25.01571","6500100","板橋區"
"220037","491-VK","2018/05/14 13:58:49","新北市板橋區民生路二段208號","121.469508333333","25.0211083333333","6500100","板橋區"
"220035","560-BX","2018/05/14 13:58:56","新北市板橋區中正路341巷8號","121.454526666667","25.0203416666667","6500100","板橋區"
"220052","561-BX","2018/05/14 13:58:58","新北市板橋區民生路二段121號","121.470716666667","25.0183633333333","6500100","板橋區"
"220028","568-UM","2018/05/14 13:58:56","新北市板橋區大觀路二段265巷1弄26號","121.444005","24.99835","6500100","板橋區"
"220011","609-BX","2018/05/14 13:58:58","新北市板橋區中山路二段163號","121.475888333333","25.0167416666667","6500100","板橋區"
"220003","630-UY","2018/05/14 13:58:51","新北市板橋區新站路3號","121.467183333333","25.0113316666667","6500100","板橋區"
"220040","637-BX","2018/05/14 13:58:44","新北市板橋區莒光路167-4號","121.474171666667","25.02375","6500100","板橋區"
"220005","686-BX","2018/05/14 13:58:49","新北市板橋區重慶路95號","121.462115","25.0056883333333","6500100","板橋區"
"220025","687-BX","2018/05/14 13:58:56","新北市板橋區大觀路二段174巷166弄2號","121.441876666667","25.0031733333333","6500100","板橋區"
"220042","689-BX","2018/05/14 13:58:58","新北市板橋區民生路三段120-2號","121.466233333333","25.0267066666667","6500100","板橋區"
"220002","741-BX","2018/05/14 13:59:00","新北市板橋區重慶路139巷12號","121.462728333333","25.0045033333333","6500100","板橋區"
"220051","KEA-2699","2018/05/14 13:58:50","新北市板橋區雙十路一段44巷36號","121.477168333333","25.0248666666667","6500100","板橋區"
"220014","829-TW","2018/05/14 13:58:59","新北市板橋區三民路二段正隆巷12弄21號","121.477436666667","25.01363","6500100","板橋區"
"220016","830-TW","2018/05/14 13:58:46","新北市板橋區中山路二段465巷25號","121.481335","25.0210483333333","6500100","板橋區"
"220045","831-TW","2018/05/14 13:58:50","新北市板橋區莒光路75號","121.47158","25.0241783333333","6500100","板橋區"
"220038","833-TW","2018/05/14 13:59:00","新北市板橋區仁化街45號","121.474901666667","25.0316766666667","6500100","板橋區"
"220021","985-R7","2018/05/14 13:58:53","新北市板橋區西門街55巷13號","121.454261666667","25.0097616666667","6500100","板橋區"
"220046","AAC-210","2018/05/14 13:58:57","新北市板橋區文化路一段88號","121.464525","25.0176583333333","6500100","板橋區"
"220030","AAC-253","2018/05/14 13:58:47","新北市板橋區篤行路二段139號","121.429865","24.98831","6500100","板橋區"
