"lineid","car","time","location","longitude","latitude","cityid","cityname"
"243009","297-R6","2018/05/14 15:47:10","新北市泰山區黎明路25號","121.421918333333","25.061055","6501600","泰山區"
"243014","680-BX","2018/05/14 15:38:27","新北市泰山區犁頭窠3-1號","121.422015","25.0605916666667","6501600","泰山區"
"231019","108-UY","2018/05/14 15:49:02","新北市新店區新烏路一段85巷2-1號","121.548706666667","24.9424283333333","6500600","新店區"
"231011","187-VK","2018/05/14 15:48:56","新北市新店區中興路三段160號","121.544558333333","24.9807083333333","6500600","新店區"
"231026","188-VK","2018/05/14 15:49:08","新北市新店區中正路374號","121.535076666667","24.9763333333333","6500600","新店區"
"231023","KEA-2219","2018/05/14 15:49:03","新北市新店區中興路一段175號","121.542878333333","24.964665","6500600","新店區"
"231003","268-BY","2018/05/14 15:49:05","新北市新店區寶興路60巷4號","121.549845","24.9718566666667","6500600","新店區"
"231018","278-BY","2018/05/14 15:48:52","新北市新店區中正路663巷1弄2號","121.53295","24.9900566666667","6500600","新店區"
"231014","AAD-862","2018/05/14 15:49:00","新北市新店區中華路117巷2弄1號","121.5383","24.9689833333333","6500600","新店區"
"231030","355-BY","2018/05/14 15:49:07","新北市新店區永安街22-1號","121.51742","24.9865383333333","6500600","新店區"
"231037","4716-K9","2018/05/14 15:49:04","新北市新店區安民街365巷1弄8號","121.516346666667","24.975095","6500600","新店區"
"231013","513-UM","2018/05/14 15:49:10","新北市新店區華潭街26巷1弄1號","121.529418333333","24.9535533333333","6500600","新店區"
"231034","616-UM","2018/05/14 15:48:51","新北市新店區吉祥街15巷1號","121.497755","24.9455966666667","6500600","新店區"
"231035","719-UM","2018/05/14 15:49:03","新北市新店區安興路92號","121.515103333333","24.976175","6500600","新店區"
"231031","720-UM","2018/05/14 15:48:55","新北市新店區雙城路175-2號","121.494538333333","24.94495","6500600","新店區"
"231029","897-TW","2018/05/14 15:49:04","新北市新店區薏仁坑路自強巷1號","121.497548333333","24.95779","6500600","新店區"
"241011","013-R5","2018/05/14 15:48:51","新北市三重區文化北路246號","121.49749","25.06987","6500200","三重區"
"241028","022-UY","2018/05/14 15:48:58","新北市三重區中正南路46號","121.493955","25.0600066666667","6500200","三重區"
"241008","059-VK","2018/05/14 15:48:59","新北市三重區重新路四段121號","121.48495","25.0519033333333","6500200","三重區"
"241009","060-VK","2018/05/14 15:48:51","新北市三重區重新路四段121號","121.484943333333","25.051935","6500200","三重區"
"241015","062-VK","2018/05/14 15:48:51","新北市三重區重新路四段121號","121.485158333333","25.0520266666667","6500200","三重區"
"241017","063-VK","2018/05/14 15:49:04","新北市三重區大仁街38號","121.491628333333","25.06432","6500200","三重區"
"241024","065-VK","2018/05/14 15:49:03","新北市三重區重新路四段101-30號","121.483723333333","25.053375","6500200","三重區"
"241026","066-VK","2018/05/14 15:49:03","新北市三重區光興街57號","121.498895","25.0602016666667","6500200","三重區"
"241002","090-VK","2018/05/14 15:48:56","新北市三重區重新路四段121號","121.484928333333","25.0518516666667","6500200","三重區"
"241005","262-UM","2018/05/14 15:49:00","新北市三重區長元街105號","121.504625","25.066995","6500200","三重區"
"241013","265-UM","2018/05/14 15:48:59","新北市三重區六張街25號","121.495198333333","25.0705966666667","6500200","三重區"
"241016","266-UM","2018/05/14 15:49:09","新北市三重區重新路四段121號","121.48482","25.0520016666667","6500200","三重區"
"241022","267-UM","2018/05/14 15:49:02","新北市三重區重新路四段121號","121.484495","25.0517483333333","6500200","三重區"
"241018","268-UM","2018/05/14 15:49:02","新北市三重區重新路四段121號","121.485013333333","25.0524366666667","6500200","三重區"
"241025","271-UM","2018/05/14 15:49:08","新北市三重區捷運路36號","121.482856666667","25.0552083333333","6500200","三重區"
"241007","398-BY","2018/05/14 15:48:51","新北市三重區重新路四段121號","121.48483","25.0517166666667","6500200","三重區"
"241004","475-VK","2018/05/14 15:49:06","新北市三重區重新路四段121號","121.484896666667","25.0518283333333","6500200","三重區"
"241020","478-VK","2018/05/14 15:49:00","新北市三重區忠孝路二段52號","121.485083333333","25.0704316666667","6500200","三重區"
"241014","543-UM","2018/05/14 15:49:10","新北市三重區重新路四段121號","121.485168333333","25.0518866666667","6500200","三重區"
"241023","545-UM","2018/05/14 15:48:51","新北市三重區忠孝路三段84巷3號","121.480718333333","25.0646716666667","6500200","三重區"
"241001","547-UM","2018/05/14 15:49:05","新北市三重區重新路四段121號","121.48461","25.0522533333333","6500200","三重區"
"241006","AAD-863","2018/05/14 15:49:02","新北市三重區重新路四段138號","121.486355","25.0564333333333","6500200","三重區"
"241030","743-BX","2018/05/14 15:49:01","新北市三重區重新路四段121號","121.484758333333","25.05244","6500200","三重區"
"241012","941-UM","2018/05/14 15:48:56","新北市三重區自強路一段61號","121.497773333333","25.0672133333333","6500200","三重區"
"241029","942-UM","2018/05/14 15:49:05","新北市三重區大同南路242號","121.496875","25.0559116666667","6500200","三重區"
"241033","AAC-255","2018/05/14 15:48:58","新北市三重區光復路一段80號","121.471998333333","25.05017","6500200","三重區"
"235033","4980-A6","2018/05/14 15:49:00","新北市中和區連城路308號","121.483696666667","24.9963","6500300","中和區"
"235026","800-TS","2018/05/14 15:49:08","新北市中和區橋和路107號","121.491003333333","25.0056933333333","6500300","中和區"
"235023","AAC-215","2018/05/14 15:49:03","新北市中和區員山路49-13號","121.479418333333","24.9907533333333","6500300","中和區"
"224007","275-VK","2018/05/14 15:49:09","新北市瑞芳區大寮路356-1號","121.784773333333","25.1032133333333","6501200","瑞芳區"
"227008","642-TC","2018/05/14 15:49:00","新北市雙溪區牡丹里中正路59號","121.86579","25.04083","6502500","雙溪區"
"227001","400-TW","2018/05/14 15:48:59","新北市雙溪區平林里外平林44號","121.8529","25.03634","6502500","雙溪區"
"236064","105-UM","2018/05/14 15:49:06","新北市土城區中山路67號","121.426338333333","24.96507","6501300","土城區"
"236074","166-UM","2018/05/14 15:48:49","新北市土城區民族街22巷5號","121.41926","24.9634","6501300","土城區"
"236024","269-VK","2018/05/14 15:48:48","新北市土城區中央路一段211巷6弄4號","121.44629","24.98625","6501300","土城區"
"236012","270-VK","2018/05/14 15:49:06","新北市土城區廣明街86號","121.454863333333","24.994165","6501300","土城區"
"236057","912-UM","2018/05/14 15:49:09","新北市土城區中央路一段245號","121.445405","24.9860733333333","6501300","土城區"
"236045","913-UM","2018/05/14 15:48:50","新北市土城區金城路三段6號","121.464225","24.9859216666667","6501300","土城區"
"236054","AAC-216","2018/05/14 15:48:55","新北市土城區中華路一段236號","121.439893333333","24.9800033333333","6501300","土城區"
"238002","755-BX","2018/05/14 15:48:58","新北市樹林區樹德街97號","121.420155","24.9922616666667","6500700","樹林區"
"238010","601-UM","2018/05/14 15:49:09","新北市樹林區龍興街31巷29號","121.40406","25.016185","6500700","樹林區"
"238006","599-UM","2018/05/14 15:48:59","新北市樹林區水源街74號","121.425813333333","24.9806666666667","6500700","樹林區"
"238005","571-TV","2018/05/14 15:48:53","新北市樹林區博愛街198號","121.424791666667","24.9893583333333","6500700","樹林區"
"238011","5061-A6","2018/05/14 15:49:00","新北市樹林區山佳街57-1號","121.392936666667","24.9724833333333","6500700","樹林區"
"238008","KEA-2217","2018/05/14 15:49:02","新北市樹林區柑園街二段176號","121.381336666667","24.9538833333333","6500700","樹林區"
"238009","KEA-2213","2018/05/14 15:48:56","新北市樹林區太順街62巷3弄22號","121.416853333333","24.9794583333333","6500700","樹林區"
"238012","303-VK","2018/05/14 15:48:53","新北市樹林區保安二街27號","121.424643333333","24.9935066666667","6500700","樹林區"
"238001","283-BY","2018/05/14 15:49:04","新北市樹林區保安街二段167巷32號","121.41397","25.00279","6500700","樹林區"
"238001","282-BY","2018/05/14 15:48:55","新北市樹林區千歲街6巷26號","121.425741666667","24.9950866666667","6500700","樹林區"
"238007","268-VK","2018/05/14 15:48:59","新北市樹林區三俊街213-1號","121.420768333333","25.0152883333333","6500700","樹林區"
"238013","172-UY","2018/05/14 15:48:53","新北市樹林區佳園路一段32號","121.392851666667","24.97098","6500700","樹林區"
"238003","169-UY","2018/05/14 15:48:52","新北市樹林區啟智街173巷10號","121.416056666667","24.9872116666667","6500700","樹林區"
"220018","282-UM","2018/05/14 15:48:57","新北市樹林區中山路三段214號","121.379743333333","24.9676283333333","6500100","板橋區"
