"lineid","car","time","location","longitude","latitude","cityid","cityname"
"249005","172-UM","2018/05/14 16:59:07","新北市八里區渡船頭1號","121.43411","25.1519833333333","6502300","八里區"
"249001","173-UM","2018/05/14 16:58:59","新北市八里區中山路三段109號","121.390353333333","25.142005","6502300","八里區"
"249004","303-UY","2018/05/14 16:59:08","新北市八里區挖子尾街62號","121.415366666667","25.166315","6502300","八里區"
"249003","759-BX","2018/05/14 16:59:15","新北市八里區中山路二段289號","121.401531666667","25.1487016666667","6502300","八里區"
"244007","080-UY","2018/05/14 16:59:09","新北市林口區湖子16號","121.385336666667","25.0900933333333","6501700","林口區"
"244019","403-UM","2018/05/14 16:59:07","新北市林口區中山路202號","121.388541666667","25.07903","6501700","林口區"
"244023","483-VK","2018/05/14 16:59:13","新北市林口區中山路1號","121.397023333333","25.0778783333333","6501700","林口區"
"244017","485-VK","2018/05/14 16:59:05","新北市林口區粉寮69號","121.404986666667","25.0908733333333","6501700","林口區"
"244021","838-TS","2018/05/14 16:59:10","新北市林口區粉寮69號","121.404818333333","25.0908316666667","6501700","林口區"
"231046","107-UY","2018/05/14 16:59:04","新北市新店區永業路81巷60號","121.529078333333","24.9477716666667","6500600","新店區"
"241011","013-R5","2018/05/14 16:59:16","新北市三重區仁愛街55巷33號","121.498986666667","25.0727566666667","6500200","三重區"
"241028","022-UY","2018/05/14 16:58:58","新北市三重區中正南路50號","121.493933333333","25.0599083333333","6500200","三重區"
"241008","059-VK","2018/05/14 16:59:06","新北市三重區永福街179巷38號","121.477601666667","25.0747883333333","6500200","三重區"
"241009","060-VK","2018/05/14 16:59:11","新北市三重區溪尾街218巷56號","121.485911666667","25.0807633333333","6500200","三重區"
"241031","061-VK","2018/05/14 16:59:00","新北市三重區三寧街22號","121.48973","25.060045","6500200","三重區"
"241015","062-VK","2018/05/14 16:59:11","新北市三重區福德北路82號","121.501596666667","25.0663266666667","6500200","三重區"
"241017","063-VK","2018/05/14 16:59:04","新北市三重區大同北路112號","121.493225","25.06394","6500200","三重區"
"241024","065-VK","2018/05/14 16:59:03","新北市三重區國道路一段58巷18號","121.480995","25.0720316666667","6500200","三重區"
"241026","066-VK","2018/05/14 16:59:03","新北市三重區文化南路42號","121.500356666667","25.060255","6500200","三重區"
"241002","090-VK","2018/05/14 16:59:16","新北市三重區仁義街101巷2號","121.497578333333","25.0802616666667","6500200","三重區"
"241003","091-VK","2018/05/14 16:59:04","新北市三重區集賢路87-1號","121.493623333333","25.0868416666667","6500200","三重區"
"241005","262-UM","2018/05/14 16:59:00","新北市三重區仁華街63號","121.484206666667","25.08273","6500200","三重區"
"241013","265-UM","2018/05/14 16:59:19","新北市三重區仁壽街45號","121.49717","25.07348","6500200","三重區"
"241016","266-UM","2018/05/14 16:59:09","新北市三重區大智街12號","121.495221666667","25.06449","6500200","三重區"
"241022","267-UM","2018/05/14 16:59:02","新北市三重區貴陽街42號","121.48422","25.062635","6500200","三重區"
"241018","268-UM","2018/05/14 16:59:02","新北市三重區民生東街15號","121.49317","25.06897","6500200","三重區"
"241032","269-UM","2018/05/14 16:59:12","新北市三重區重陽路一段130巷26號","121.485715","25.0604033333333","6500200","三重區"
"241025","271-UM","2018/05/14 16:59:13","新北市三重區中正北路510號","121.472726666667","25.0714916666667","6500200","三重區"
"241007","398-BY","2018/05/14 16:59:11","新北市三重區溪尾街126巷15號","121.488883333333","25.07936","6500200","三重區"
"241004","475-VK","2018/05/14 16:59:05","新北市三重區五華街98巷2號","121.492513333333","25.0822066666667","6500200","三重區"
"241020","478-VK","2018/05/14 16:59:00","新北市三重區後竹圍街175巷2弄1號","121.485856666667","25.0721066666667","6500200","三重區"
"241014","543-UM","2018/05/14 16:59:10","新北市三重區三和路二段173巷143號","121.501025","25.0706383333333","6500200","三重區"
"241023","545-UM","2018/05/14 16:59:11","新北市三重區忠孝路三段99巷4號","121.480166666667","25.0642666666667","6500200","三重區"
"241001","547-UM","2018/05/14 16:59:05","新北市三重區仁愛街172巷8號","121.4937","25.0764916666667","6500200","三重區"
"241019","KEA-2593","2018/05/14 16:59:11","新北市三重區自強路二段74巷21號","121.487955","25.069895","6500200","三重區"
"241006","AAD-863","2018/05/14 16:59:16","新北市三重區車路頭街119號","121.484416666667","25.075365","6500200","三重區"
"241030","743-BX","2018/05/14 16:59:01","新北市三重區昌隆街64號","121.491115","25.051035","6500200","三重區"
"241012","941-UM","2018/05/14 16:59:16","新北市三重區仁壽街200號","121.501063333333","25.074915","6500200","三重區"
"241029","942-UM","2018/05/14 16:59:04","新北市三重區集美街257號","121.492406666667","25.055565","6500200","三重區"
"241033","AAC-255","2018/05/14 16:59:17","新北市三重區中興北街271號","121.469166666667","25.0605616666667","6500200","三重區"
"247024","893-R6","2018/05/14 16:59:05","新北市蘆洲區長興路202號","121.46054","25.0875033333333","6501400","蘆洲區"
"247014","546-UM","2018/05/14 16:59:11","新北市蘆洲區中山二路36巷42-1號","121.473995","25.083575","6501400","蘆洲區"
"247022","500-BY","2018/05/14 16:59:04","新北市蘆洲區三民路128巷87號","121.468303333333","25.0925666666667","6501400","蘆洲區"
"247010","341-TH","2018/05/14 16:59:03","新北市蘆洲區信義路170號","121.479348333333","25.0838783333333","6501400","蘆洲區"
"247004","337-TH","2018/05/14 16:59:08","新北市蘆洲區長安街108巷5弄2號","121.46132","25.0818516666667","6501400","蘆洲區"
"247006","336-TH","2018/05/14 16:59:04","新北市蘆洲區長安街99巷31號","121.46071","25.0797433333333","6501400","蘆洲區"
"247018","057-VK","2018/05/14 16:59:05","新北市蘆洲區民族路235號","121.477313333333","25.0899083333333","6501400","蘆洲區"
"247008","056-VK","2018/05/14 16:59:08","新北市蘆洲區信義路52號","121.475208333333","25.0796133333333","6501400","蘆洲區"
"247016","007-UY","2018/05/14 16:58:59","新北市蘆洲區正和街15號","121.470271666667","25.0825466666667","6501400","蘆洲區"
"247020","001-UY","2018/05/14 16:59:17","新北市蘆洲區民族路422巷84-1號","121.473655","25.0937883333333","6501400","蘆洲區"
"228003","097-TW","2018/05/14 16:59:03","新北市貢寮區福隆里興隆街36號","121.941755","25.016875","6502600","貢寮區"
"228002","585-TW","2018/05/14 16:59:18","新北市貢寮區貢寮里朝陽街142號","121.905968333333","25.0230733333333","6502600","貢寮區"
"228001","670-TC","2018/05/14 16:59:01","新北市貢寮區貢寮里朝陽街1-2號","121.912306666667","25.0212833333333","6502600","貢寮區"
"224008","285-BY","2018/05/14 16:59:02","新北市瑞芳區明燈路一段195號","121.818721666667","25.1077833333333","6501200","瑞芳區"
"224007","275-VK","2018/05/14 16:59:09","新北市瑞芳區頂埔巷17號","121.76595","25.1030183333333","6501200","瑞芳區"
"224007","273-VK","2018/05/14 16:59:11","新北市瑞芳區濱二路31號","121.834048333333","25.111425","6501200","瑞芳區"
"224005","271-BY","2018/05/14 16:59:16","新北市瑞芳區南雅路87-1號","121.88685","25.1213166666667","6501200","瑞芳區"
"227008","642-TC","2018/05/14 16:59:00","新北市雙溪區牡丹里聖南31-1號","121.855428333333","25.054475","6502500","雙溪區"
"227001","400-TW","2018/05/14 16:58:59","新北市雙溪區長源里柑腳41-2號","121.802321666667","25.0126583333333","6502500","雙溪區"
"251009","008-UM","2018/05/14 16:59:08","新北市淡水區中正路354號","121.434285","25.174005","6501000","淡水區"
"251005","010-UM","2018/05/14 16:59:03","新北市淡水區中正路二段31號","121.419155","25.181805","6501000","淡水區"
"251013","KEA-2871","2018/05/14 16:59:13","新北市淡水區泉洲厝32號","121.489301666667","25.1925733333333","6501000","淡水區"
"251014","180-VK","2018/05/14 16:59:18","新北市淡水區淡金路四段472巷24號","121.452936666667","25.223985","6501000","淡水區"
"251008","181-VK","2018/05/14 16:59:01","新北市淡水區樹梅坑9號","121.472776666667","25.1426866666667","6501000","淡水區"
"251015","182-VK","2018/05/14 16:59:10","新北市淡水區鄧公路35巷29號","121.453253333333","25.1715883333333","6501000","淡水區"
"251010","413-VK","2018/05/14 16:59:00","新北市淡水區沙崙路141-1號","121.423343333333","25.18295","6501000","淡水區"
"251012","441-VK","2018/05/14 16:58:56","新北市淡水區中正路一段22巷100號","121.426715","25.1856566666667","6501000","淡水區"
"251007","442-VK","2018/05/14 16:59:03","新北市淡水區中山路46號","121.444183333333","25.1700766666667","6501000","淡水區"
"251006","561-UM","2018/05/14 16:59:00","新北市淡水區中正路二段31號","121.419185","25.18202","6501000","淡水區"
"251016","575-R6","2018/05/14 16:58:59","新北市淡水區瓦坑3號","121.477666666667","25.180845","6501000","淡水區"
"251011","650-BX","2018/05/14 16:59:13","新北市淡水區中山路38號","121.444278333333","25.1699316666667","6501000","淡水區"
"252002","178-VK","2018/05/14 16:59:20","新北市三芝區忠孝街173號","121.50541","25.261395","6502100","三芝區"
"252001","292-VK","2018/05/14 16:59:10","新北市三芝區淡金路二段89號","121.503946666667","25.26075","6502100","三芝區"
"242053","751-BX","2018/05/14 16:59:05","新北市新莊區新泰路357巷3弄57號","121.442103333333","25.0390816666667","6500500","新莊區"
"242029","612-BX","2018/05/14 16:59:08","新北市新莊區新泰路255巷83號","121.442221666667","25.0391616666667","6500500","新莊區"
"242042","566-BX","2018/05/14 16:59:07","新北市新莊區新泰路357巷3弄57號","121.44215","25.039145","6500500","新莊區"
"242023","362-BY","2018/05/14 16:59:13","新北市新莊區三和路12-21號","121.442208333333","25.03869","6500500","新莊區"
"242011","173-VK","2018/05/14 16:59:07","新北市新莊區三和路12-21號","121.441881666667","25.03876","6500500","新莊區"
"242015","346-TH","2018/05/14 16:59:07","新北市新莊區三和路12-16號","121.442131666667","25.03746","6500500","新莊區"
"238005","571-TV","2018/05/14 16:59:08","新北市樹林區育德街78-1號","121.388251666667","24.9680666666667","6500700","樹林區"
"238017","283-BY","2018/05/14 16:59:04","新北市樹林區保安街二段82號","121.415053333333","25.0041566666667","6500700","樹林區"
"238001","282-BY","2018/05/14 16:59:15","新北市樹林區中正路22-1號","121.427818333333","24.9995416666667","6500700","樹林區"
"239006","891-R6","2018/05/14 16:59:17","新北市鶯歌區二甲路171-1號","121.344748333333","24.9359533333333","6500800","鶯歌區"
"239005","526-UM","2018/05/14 16:59:13","新北市鶯歌區二甲路171-1號","121.343391666667","24.9359933333333","6500800","鶯歌區"
"239001","417-VK","2018/05/14 16:59:02","新北市鶯歌區二甲路13號","121.343928333333","24.93533","6500800","鶯歌區"
"239002","359-BY","2018/05/14 16:59:00","新北市鶯歌區二甲路9-2號","121.347033333333","24.937425","6500800","鶯歌區"
"242002","KEA-2550","2018/05/14 16:59:15","新北市新莊區三和路12-18號","121.442263333333","25.0376116666667","6500500","新莊區"
