"lineid","car","time","location","longitude","latitude","cityid","cityname"
"234046","148-BY","2018/05/14 19:59:11","新北市永和區永元路107號","121.522625","25.002345","6500400","永和區"
"234007","207-UY","2018/05/14 19:59:15","新北市中和區中山路二段65號","121.504143333333","25.0044966666667","6500400","永和區"
"234081","298-R6","2018/05/14 19:59:31","新北市永和區國中路92號","121.524476666667","25.0062366666667","6500400","永和區"
"234038","336-UY","2018/05/14 19:59:18","新北市永和區成功路二段171號","121.526603333333","24.9969466666667","6500400","永和區"
"234064","337-UY","2018/05/14 19:59:10","新北市永和區中正路412巷20弄7號","121.518545","25.0019566666667","6500400","永和區"
"234086","338-UY","2018/05/14 19:59:19","新北市永和區福和路152號","121.52167","25.0078266666667","6500400","永和區"
"234070","552-UM","2018/05/14 19:59:15","新北市永和區國光路8號","121.519385","25.00857","6500400","永和區"
"234017","745-BX","2018/05/14 19:59:15","新北市永和區文化路69號","121.514018333333","25.0150783333333","6500400","永和區"
"234030","746-BX","2018/05/14 19:59:17","新北市永和區民生路67巷13號","121.523255","24.9972366666667","6500400","永和區"
"234054","KEA-2590","2018/05/14 19:59:10","新北市永和區環河東路一段122號","121.520735","25.0156133333333","6500400","永和區"
"234013","KEA-2591","2018/05/14 19:59:12","新北市永和區保生路55號","121.504726666667","25.0105783333333","6500400","永和區"
"234061","AAD-866","2018/05/14 19:59:12","新北市永和區中正路283巷11號","121.516931666667","25.0005616666667","6500400","永和區"
"234042","862-TW","2018/05/14 19:59:10","新北市永和區雙和街15號","121.509436666667","25.0018783333333","6500400","永和區"
"234050","863-TW","2018/05/14 19:59:19","新北市永和區保安路250號","121.506373333333","25.012595","6500400","永和區"
"234026","9371-KE","2018/05/14 19:59:26","新北市永和區水源街21巷14弄4號","121.511375","25.0038533333333","6500400","永和區"
"234011","9373-KE","2018/05/14 19:59:29","新北市永和區仁愛路310號","121.502985","25.0074916666667","6500400","永和區"
"249005","172-UM","2018/05/14 19:59:27","新北市八里區楓林路3-4號","121.382323333333","25.12964","6502300","八里區"
"249004","303-UY","2018/05/14 19:59:13","新北市八里區中華路一段333-1號","121.413306666667","25.153835","6502300","八里區"
"249002","305-UY","2018/05/14 19:59:28","新北市八里區頂寮二街1號","121.451006666667","25.1238133333333","6502300","八里區"
"249003","759-BX","2018/05/14 19:59:23","新北市八里區中華路二段562號","121.39885","25.1448666666667","6502300","八里區"
"248014","025-BX","2018/05/14 19:59:21","新北市五股區五福路14巷10號","121.43489","25.0887016666667","6501500","五股區"
"248008","095-VK","2018/05/14 19:59:25","新北市五股區四維路30巷17號","121.467913333333","25.0715383333333","6501500","五股區"
"248018","225-UY","2018/05/14 19:58:10","新北市五股區登林路101號","121.411703333333","25.0777183333333","6501500","五股區"
"248016","261-SL","2018/05/14 19:59:16","新北市五股區成泰路三段577巷80弄25號","121.449538333333","25.1046383333333","6501500","五股區"
"248010","272-BY","2018/05/14 19:59:24","新北市五股區登林路92-5號","121.428506666667","25.0697216666667","6501500","五股區"
"248004","677-BX","2018/05/14 19:59:20","新北市五股區成泰路一段32巷62號","121.435035","25.0669933333333","6501500","五股區"
"248002","678-BX","2018/05/14 19:59:20","新北市五股區成泰路三段487號","121.450758333333","25.0992883333333","6501500","五股區"
"248012","682-TV","2018/05/14 19:59:15","新北市五股區民義路一段59號","121.435911666667","25.084865","6501500","五股區"
"234077","969-R7","2018/05/14 19:59:13","新北市永和區民有街23巷1號","121.516805","24.9963716666667","6500400","永和區"
"234074","AAC-211","2018/05/14 19:59:27","新北市永和區豫溪街207巷2號","121.52386","25.0096433333333","6500400","永和區"
"234067","AAC-212","2018/05/14 19:59:24","新北市永和區永貞路374號","121.509981666667","25.0069866666667","6500400","永和區"
"234003","AAC-295","2018/05/14 19:59:26","新北市永和區中正路696-1號","121.51651","25.0097333333333","6500400","永和區"
"243013","AAD-798","2018/05/14 19:38:20","新北市泰山區應化街7號","121.423873333333","25.04371","6501600","泰山區"
"243009","297-R6","2018/05/14 19:59:15","新北市泰山區楓江路16巷10號","121.433846666667","25.0619766666667","6501600","泰山區"
"243016","380-SR","2018/05/14 19:59:16","新北市泰山區貴鳳街2號","121.421121666667","25.0313933333333","6501600","泰山區"
"243015","421-VK","2018/05/14 19:59:21","新北市泰山區明志路二段214巷16弄13號","121.426783333333","25.0496","6501600","泰山區"
"243011","KEA-2215","2018/05/14 19:59:07","新北市泰山區明志路三段182巷13號","121.423495","25.0390616666667","6501600","泰山區"
"243010","KEA-2216","2018/05/14 19:59:27","新北市泰山區中華街9號","121.427726666667","25.05243","6501600","泰山區"
"243012","646-TV","2018/05/14 19:59:23","新北市泰山區明志路一段289號","121.43202","25.0595983333333","6501600","泰山區"
"243014","680-BX","2018/05/14 19:59:26","新北市泰山區泰林路二段171號","121.433716666667","25.0606516666667","6501600","泰山區"
"222003","436-BY","2018/05/14 19:59:18","新北市深坑區埔新街14號","121.620758333333","25.00394","6501800","深坑區"
"222002","659-BX","2018/05/14 19:59:14","新北市深坑區北深路二段55巷12弄8號","121.61889","25.0033583333333","6501800","深坑區"
"231041","002-UM","2018/05/14 19:59:16","新北市新店區中正路354號","121.53578","24.9756666666667","6500600","新店區"
"231059","046-UY","2018/05/14 19:59:26","新北市新店區安和路一段49號","121.517416666667","24.96592","6500600","新店區"
"231040","047-UY","2018/05/14 19:59:16","新北市新店區中正路75巷71號","121.54319","24.9688566666667","6500600","新店區"
"231044","106-UY","2018/05/14 19:59:25","新北市新店區復興路27號","121.538925","24.98668","6500600","新店區"
"231046","107-UY","2018/05/14 19:59:24","新北市新店區中央路133巷15弄29號","121.531795","24.9747283333333","6500600","新店區"
"231052","108-UY","2018/05/14 19:59:10","新北市新店區新烏路三段251號","121.546296666667","24.8953183333333","6500600","新店區"
"231047","187-VK","2018/05/14 19:59:11","新北市新店區寶宏路3號","121.549118333333","24.9769533333333","6500600","新店區"
"231057","188-VK","2018/05/14 19:59:21","新北市新店區花園二路一段11號","121.555503333333","24.932485","6500600","新店區"
"231054","KEA-2219","2018/05/14 19:59:11","新北市新店區光明街131號","121.539405","24.961895","6500600","新店區"
"231042","268-BY","2018/05/14 19:59:16","新北市新店區中正路5號","121.54578","24.9691","6500600","新店區"
"231051","278-BY","2018/05/14 19:59:25","新北市新店區中央一街22號","121.528058333333","24.97329","6500600","新店區"
"231050","AAD-862","2018/05/14 19:59:19","新北市新店區北宜路二段579巷4號","121.565213333333","24.9538966666667","6500600","新店區"
"231061","355-BY","2018/05/14 19:59:18","新北市新店區安民街307號","121.517585","24.9739166666667","6500600","新店區"
"231056","4715-K9","2018/05/14 19:59:23","新北市新店區民權路72號","121.538185","24.9830583333333","6500600","新店區"
"231067","4772-VM","2018/05/14 19:59:08","新北市新店區秀山路45巷23號","121.53096","24.9597516666667","6500600","新店區"
"231065","512-UM","2018/05/14 19:59:18","新北市新店區安祥路109巷151弄8號","121.478263333333","24.958995","6500600","新店區"
"231049","513-UM","2018/05/14 19:59:15","新北市新店區民權路91號","121.537515","24.9828916666667","6500600","新店區"
"231063","616-UM","2018/05/14 19:59:10","新北市新店區車子路11號","121.503045","24.9519533333333","6500600","新店區"
"231068","718-UY","2018/05/14 19:59:09","新北市新店區安一路一段1-1號","121.519793333333","24.9617566666667","6500600","新店區"
"231064","719-UM","2018/05/14 19:59:20","新北市新店區光華街5巷16號","121.517681666667","24.96843","6500600","新店區"
"231062","720-UM","2018/05/14 19:59:24","新北市新店區華城路36巷1-2號","121.527518333333","24.9555016666667","6500600","新店區"
"231060","897-TW","2018/05/14 19:59:16","新北市新店區安康路二段454號","121.494405","24.954235","6500600","新店區"
"231045","898-TW","2018/05/14 19:59:17","新北市新店區北宜路二段271號","121.554785","24.95361","6500600","新店區"
"231043","899-TW","2018/05/14 19:59:14","新北市新店區中正路282-11號","121.538575","24.9740216666667","6500600","新店區"
"231055","AKT-0513","2018/05/14 19:59:20","新北市新店區中華路83巷67號","121.538365","24.9673183333333","6500600","新店區"
"241011","013-R5","2018/05/14 19:59:11","新北市三重區三和路二段119號","121.498953333333","25.06914","6500200","三重區"
"241028","022-UY","2018/05/14 19:59:28","新北市三重區中正南路32號","121.493671666667","25.0601466666667","6500200","三重區"
"241008","059-VK","2018/05/14 19:59:14","新北市三重區永福街179巷13號","121.478403333333","25.074995","6500200","三重區"
"241009","060-VK","2018/05/14 19:59:11","新北市三重區三和路四段390巷20號","121.481141666667","25.0787683333333","6500200","三重區"
"241031","061-VK","2018/05/14 19:59:20","新北市三重區重新路四段144巷20號","121.487153333333","25.055365","6500200","三重區"
"241015","062-VK","2018/05/14 19:59:09","新北市三重區三和路二段19號","121.501191666667","25.06699","6500200","三重區"
"241017","063-VK","2018/05/14 19:59:24","新北市三重區自強路一段308號","121.491261666667","25.0684033333333","6500200","三重區"
"241024","065-VK","2018/05/14 19:59:24","新北市三重區力行路一段277號","121.482245","25.0716133333333","6500200","三重區"
"241026","066-VK","2018/05/14 19:59:23","新北市三重區中央南路9號","121.50113","25.0628533333333","6500200","三重區"
"241003","091-VK","2018/05/14 19:59:14","新北市三重區仁愛街445巷13號","121.490418333333","25.0826266666667","6500200","三重區"
"241005","262-UM","2018/05/14 19:59:20","新北市三重區溪尾街325巷21號","121.488508333333","25.083425","6500200","三重區"
"241013","265-UM","2018/05/14 19:59:25","新北市三重區三和路三段127號","121.492676666667","25.0732983333333","6500200","三重區"
"241016","266-UM","2018/05/14 19:59:29","新北市三重區正義北路28巷37號","121.496241666667","25.0631266666667","6500200","三重區"
"241022","267-UM","2018/05/14 19:59:25","新北市三重區過圳街31巷2號","121.489241666667","25.0606116666667","6500200","三重區"
"241018","268-UM","2018/05/14 19:59:21","新北市三重區自強路一段167號","121.493125","25.0673733333333","6500200","三重區"
"241032","269-UM","2018/05/14 19:59:28","新北市三重區朝陽街26巷1弄18號","121.483066666667","25.05686","6500200","三重區"
"241025","271-UM","2018/05/14 19:59:24","新北市三重區頂崁街210巷16號","121.476505","25.0677783333333","6500200","三重區"
"241007","398-BY","2018/05/14 19:59:11","新北市三重區慈愛街115號","121.488196666667","25.0797416666667","6500200","三重區"
"241035","KEA-2210","2018/05/14 19:59:21","新北市三重區大榮街9號","121.498221666667","25.0631966666667","6500200","三重區"
"241004","475-VK","2018/05/14 19:59:25","新北市三重區仁愛街397巷116號","121.492985","25.0823716666667","6500200","三重區"
"241020","478-VK","2018/05/14 19:59:15","新北市三重區忠孝路一段101號","121.489553333333","25.0721116666667","6500200","三重區"
"241014","543-UM","2018/05/14 19:59:29","新北市三重區三和路二段115號","121.499178333333","25.0687316666667","6500200","三重區"
"241023","545-UM","2018/05/14 19:59:11","新北市三重區頂崁街187巷10號","121.478061666667","25.0662916666667","6500200","三重區"
"241001","547-UM","2018/05/14 19:59:22","新北市三重區仁愛街283巷21號","121.49374","25.0794566666667","6500200","三重區"
"241019","KEA-2593","2018/05/14 19:59:11","新北市三重區重陽路四段11號","121.491101666667","25.0690983333333","6500200","三重區"
"241006","AAD-863","2018/05/14 19:59:16","新北市三重區力行路二段138-1號","121.48242","25.0757916666667","6500200","三重區"
"241030","743-BX","2018/05/14 19:59:21","新北市三重區成功路173號","121.485796666667","25.0525966666667","6500200","三重區"
"241012","941-UM","2018/05/14 19:59:16","新北市三重區仁厚街58號","121.500386666667","25.076585","6500200","三重區"
"241029","942-UM","2018/05/14 19:59:24","新北市三重區重新路三段204號","121.490138333333","25.0582783333333","6500200","三重區"
"241033","AAC-255","2018/05/14 19:59:26","新北市三重區中興北街49號","121.469543333333","25.047205","6500200","三重區"
"235064","005-UY","2018/05/14 19:59:27","新北市中和區圓通路33號","121.501033333333","24.99777","6500300","中和區"
"235047","031-BX","2018/05/14 19:59:25","新北市中和區和平街72號","121.507908333333","24.991005","6500300","中和區"
"235056","096-UM","2018/05/14 19:59:27","新北市中和區中山路三段166號","121.473001666667","25.00655","6500300","中和區"
"235039","097-UM","2018/05/14 19:59:19","新北市中和區大勇街25巷38弄1號","121.515806666667","24.9937116666667","6500300","中和區"
"235040","150-BY","2018/05/14 19:59:24","新北市中和區保健路21-1號","121.508221666667","24.9982566666667","6500300","中和區"
"235058","151-BY","2018/05/14 19:59:19","新北市中和區員山路150巷2弄39號","121.481786666667","24.9974483333333","6500300","中和區"
"235055","183-VK","2018/05/14 19:59:24","新北市中和區民生街33號","121.470326666667","25.005315","6500300","中和區"
"235049","186-VK","2018/05/14 19:59:26","新北市中和區南華路15號","121.502493333333","24.99564","6500300","中和區"
"235067","255-BX","2018/05/14 19:59:21","新北市中和區新生街222號","121.483705","24.998515","6500300","中和區"
"235044","293-VK","2018/05/14 19:59:17","新北市中和區南山路148號","121.504055","24.9922783333333","6500300","中和區"
"235043","352-BY","2018/05/14 19:59:14","新北市中和區興南路二段159巷1-2號","121.505258333333","24.9834583333333","6500300","中和區"
"235068","377-QA","2018/05/14 19:59:28","新北市中和區莊敬路18號","121.49994","25.0043466666667","6500300","中和區"
"235061","378-QA","2018/05/14 19:59:23","新北市中和區民樂路12號","121.482151666667","25.0011883333333","6500300","中和區"
"235050","4979-A6","2018/05/14 19:59:19","新北市中和區景平路183號","121.511715","24.992545","6500300","中和區"
"235069","4980-A6","2018/05/14 19:59:22","新北市中和區圓通路78號","121.500061666667","24.9970966666667","6500300","中和區"
"235042","551-UM","2018/05/14 19:59:08","新北市中和區宜安路78號","121.511166666667","24.9973966666667","6500300","中和區"
"235070","558-UM","2018/05/14 19:59:12","新北市中和區圓通路144號","121.498181666667","24.9957133333333","6500300","中和區"
"235054","640-BX","2018/05/14 19:59:11","新北市中和區莒光路49號","121.472148333333","25.00465","6500300","中和區"
"235046","733-UM","2018/05/14 19:59:23","新北市中和區興南路一段105巷20弄16號","121.510353333333","24.98549","6500300","中和區"
"235057","801-TS","2018/05/14 19:59:15","新北市中和區員山路130號","121.481196666667","24.9962566666667","6500300","中和區"
"235041","802-TS","2018/05/14 19:59:10","新北市中和區中安街226號","121.5122","24.9986483333333","6500300","中和區"
"235052","805-TS","2018/05/14 19:59:20","新北市中和區華新街192巷22弄23號","121.506985","24.983425","6500300","中和區"
"235048","896-TW","2018/05/14 19:59:21","新北市中和區景新街433號","121.51302","24.9889783333333","6500300","中和區"
"235053","900-TW","2018/05/14 19:59:09","新北市中和區民德路276號","121.46812","24.9963366666667","6500300","中和區"
"235066","911-UM","2018/05/14 19:59:25","新北市中和區中山路二段63號","121.504295","25.0045766666667","6500300","中和區"
"235051","157-BY","2018/05/14 19:59:14","新北市中和區中興街180巷33號","121.498333333333","24.989155","6500300","中和區"
"235037","AAC-213","2018/05/14 19:59:15","新北市中和區自立路99巷22弄5號","121.523428333333","24.9942633333333","6500300","中和區"
"235059","AAC-215","2018/05/14 19:59:18","新北市中和區圓通路305巷5弄50號","121.494978333333","24.9899333333333","6500300","中和區"
"220074","015-TV","2018/05/14 19:59:25","新北市板橋區縣民大道一段295號","121.460885","25.0105183333333","6500100","板橋區"
"220065","072-UY","2018/05/14 19:59:16","新北市板橋區民族路69巷2弄1號","121.465595","25.0091283333333","6500100","板橋區"
"220086","073-UY","2018/05/14 19:59:25","新北市板橋區大觀路三段52號","121.432426666667","24.9959733333333","6500100","板橋區"
"220106","075-UY","2018/05/14 19:59:17","新北市板橋區民治街42巷28號","121.478006666667","25.0329483333333","6500100","板橋區"
"220069","AAD-861","2018/05/14 19:59:25","新北市板橋區大明街25巷4弄5號","121.457835","25.0020183333333","6500100","板橋區"
"247024","893-R6","2018/05/14 19:59:21","新北市蘆洲區光榮路120巷12號","121.465591666667","25.0883433333333","6501400","蘆洲區"
"247014","546-UM","2018/05/14 19:59:22","新北市蘆洲區成功路108號","121.472406666667","25.0822733333333","6501400","蘆洲區"
"247010","341-TH","2018/05/14 19:59:17","新北市蘆洲區集賢路200號","121.483653333333","25.0877483333333","6501400","蘆洲區"
"247012","339-TH","2018/05/14 19:59:20","新北市蘆洲區民族路224號","121.479618333333","25.0879933333333","6501400","蘆洲區"
"247004","337-TH","2018/05/14 19:59:29","新北市蘆洲區永康街49號","121.456915","25.085185","6501400","蘆洲區"
"247006","336-TH","2018/05/14 19:59:11","新北市蘆洲區九芎街119號","121.465606666667","25.0793883333333","6501400","蘆洲區"
"247008","056-VK","2018/05/14 19:59:22","新北市蘆洲區信義路107號","121.478223333333","25.0800283333333","6501400","蘆洲區"
"247016","007-UY","2018/05/14 19:59:13","新北市蘆洲區光華路2號","121.469936666667","25.0836233333333","6501400","蘆洲區"
"247002","002-UY","2018/05/14 19:59:12","新北市蘆洲區永樂街31巷7-1號","121.458178333333","25.0873033333333","6501400","蘆洲區"
"247020","001-UY","2018/05/14 19:59:19","新北市蘆洲區民義街62號","121.472815","25.0896633333333","6501400","蘆洲區"
"235065","251-BX","2018/05/14 19:59:14","新北市中和區福美路267號","121.49832","25.0050616666667","6500300","中和區"
"228003","097-TW","2018/05/14 19:59:23","新北市貢寮區仁理村仁和路258號","121.924138333333","25.0541783333333","6502600","貢寮區"
"224010","AGQ-8101","2018/05/14 19:59:10","新北市瑞芳區輕便路348號","121.83963","25.1088233333333","6501200","瑞芳區"
"227008","642-TC","2018/05/14 19:59:19","新北市雙溪區新基里新基南街25號","121.866245","25.038185","6502500","雙溪區"
"227001","400-TW","2018/05/14 19:59:18","新北市雙溪區雙溪里長安街16號","121.864998333333","25.0347133333333","6502500","雙溪區"
"222001","KEA-2212","2018/05/14 19:59:22","新北市深坑區北深路三段164號","121.602353333333","25.0034316666667","6501800","深坑區"
"208002","KEA-2872","2018/05/14 19:59:27","新北市金山區中華路364號","121.633256666667","25.2244316666667","6502700","金山區"
"208003","665-BX","2018/05/14 19:59:25","新北市金山區海興路188號","121.633208333333","25.2405516666667","6502700","金山區"
"208001","761-BX","2018/05/14 19:59:22","新北市金山區重和里六股林口4-1號","121.600005","25.2121466666667","6502700","金山區"
"251009","008-UM","2018/05/14 19:59:28","新北市淡水區英專路28巷3號","121.445893333333","25.1699316666667","6501000","淡水區"
"251004","009-UM","2018/05/14 19:59:12","新北市淡水區民權路177巷7號","121.460815","25.13556","6501000","淡水區"
"251005","010-UM","2018/05/14 19:59:23","新北市淡水區學府路136巷29號","121.451535","25.172745","6501000","淡水區"
"251001","011-UM","2018/05/14 19:59:13","新北市淡水區淡金路一段567號","121.453121666667","25.1806966666667","6501000","淡水區"
"251013","KEA-2871","2018/05/14 19:59:13","新北市淡水區下圭柔山63-7號","121.45177","25.2061683333333","6501000","淡水區"
"251014","180-VK","2018/05/14 19:59:18","新北市淡水區石頭厝14-53號","121.464148333333","25.23667","6501000","淡水區"
"251008","181-VK","2018/05/14 19:59:21","新北市淡水區淡海路72巷21號","121.424345","25.1812733333333","6501000","淡水區"
"251015","182-VK","2018/05/14 19:59:09","新北市淡水區商工路308號","121.462898333333","25.18599","6501000","淡水區"
"251012","441-VK","2018/05/14 19:58:16","新北市淡水區下圭柔山100-1號","121.437503333333","25.2103783333333","6501000","淡水區"
"251007","442-VK","2018/05/14 19:59:23","新北市淡水區竿蓁二街103巷1號","121.456343333333","25.16498","6501000","淡水區"
"251006","561-UM","2018/05/14 19:59:20","新北市淡水區北新路10號","121.444518333333","25.1773933333333","6501000","淡水區"
"251016","575-R6","2018/05/14 19:59:19","新北市淡水區淡金路四段542號","121.45193","25.22699","6501000","淡水區"
"251011","650-BX","2018/05/14 19:59:19","新北市淡水區崁頂57-9號","121.44279","25.197255","6501000","淡水區"
"251003","766-UM","2018/05/14 19:59:19","新北市淡水區中山北路二段375號","121.443323333333","25.1870933333333","6501000","淡水區"
"207003","550-UM","2018/05/14 19:59:10","新北市萬里區大鵬里萬里加投59號","121.642383333333","25.2124683333333","6502800","萬里區"
"207004","225-TW","2018/05/14 19:59:14","新北市萬里區北基里忠二街35號","121.685641666667","25.1757666666667","6502800","萬里區"
"252002","178-VK","2018/05/14 19:59:20","新北市三芝區忠孝街112-3號","121.505526666667","25.2576716666667","6502100","三芝區"
"252001","292-VK","2018/05/14 19:59:10","新北市三芝區公正街9號","121.499791666667","25.2575066666667","6502100","三芝區"
"237004","KEA-2597","2018/05/14 19:59:16","新北市三峽區添福21-5號","121.372811666667","24.9042316666667","6500900","三峽區"
"237007","153-BY","2018/05/14 19:59:21","新北市三峽區麻園46號","121.363805","24.921505","6500900","三峽區"
"237009","210-TH","2018/05/14 19:59:16","新北市三峽區民族街78巷18號","121.36821","24.929575","6500900","三峽區"
"237012","275-BY","2018/05/14 19:59:29","新北市三峽區光明路2號","121.373125","24.9311833333333","6500900","三峽區"
"237008","302-VK","2018/05/14 19:59:22","新北市三峽區中正路一段108巷9號","121.37361","24.9299933333333","6500900","三峽區"
"237014","433-BY","2018/05/14 19:59:18","新北市三峽區添福59-11號","121.373841666667","24.9033433333333","6500900","三峽區"
"237006","5529-G3","2018/05/14 19:59:20","新北市三峽區中正路二段168號","121.365903333333","24.9157383333333","6500900","三峽區"
"237015","649-BX","2018/05/14 19:59:25","新北市三峽區橫溪路99巷30號","121.400103333333","24.9365583333333","6500900","三峽區"
"237005","AKY-6261","2018/05/14 19:59:22","新北市三峽區民生街1巷29-7號","121.381921666667","24.9326433333333","6500900","三峽區"
"236069","105-UM","2018/05/14 19:59:19","新北市土城區忠義路77號","121.443111666667","24.9649683333333","6501300","土城區"
"236078","166-UM","2018/05/14 19:59:30","新北市土城區福安街57號","121.418466666667","24.964475","6501300","土城區"
"236030","253-BX","2018/05/14 19:59:27","新北市土城區中央路一段250巷15號","121.443628333333","24.9848616666667","6501300","土城區"
"236026","269-VK","2018/05/14 19:59:21","新北市土城區學府路二段259號","121.445025","24.97747","6501300","土城區"
"236014","270-VK","2018/05/14 19:59:23","新北市土城區廣福街123號","121.456205","24.992845","6501300","土城區"
"236039","271-VK","2018/05/14 19:59:26","新北市土城區國際路60號","121.466585","24.9775916666667","6501300","土城區"
"236020","401-BY","2018/05/14 19:59:28","新北市土城區延吉街32號","121.471981666667","24.98725","6501300","土城區"
"236059","912-UM","2018/05/14 19:59:16","新北市土城區中央路一段269-3號","121.444886666667","24.9851883333333","6501300","土城區"
"236048","913-UM","2018/05/14 19:59:26","新北市土城區金城路三段198號","121.468481666667","24.9880933333333","6501300","土城區"
"236063","915-UM","2018/05/14 19:59:08","新北市土城區金城路三段181巷6號","121.469106666667","24.98941","6501300","土城區"
"236055","AAC-216","2018/05/14 19:59:14","新北市土城區立德路25號","121.461935","24.9879683333333","6501300","土城區"
"242034","AAC-296","2018/05/14 19:59:25","新北市新莊區建中街116巷3弄1號","121.445586666667","25.0368616666667","6500500","新莊區"
"242058","986-R7","2018/05/14 19:59:24","新北市新莊區八德街31號","121.424933333333","25.022285","6500500","新莊區"
"242025","613-BX","2018/05/14 19:59:21","新北市新莊區五工二路86巷50號","121.460841666667","25.06742","6500500","新莊區"
"242029","612-BX","2018/05/14 19:59:11","新北市新莊區中榮街152巷18號","121.446078333333","25.053385","6500500","新莊區"
"242044","442-UM","2018/05/14 19:59:22","新北市新莊區中正路891-20號","121.41265","25.022345","6500500","新莊區"
"242050","441-UM","2018/05/14 19:59:23","新北市新莊區西盛街131號","121.428273333333","25.0186383333333","6500500","新莊區"
"242056","440-UM","2018/05/14 19:59:22","新北市新莊區新豐街30號","121.447911666667","25.0342483333333","6500500","新莊區"
"242007","413-TV","2018/05/14 19:59:18","新北市新莊區思源路593巷20號","121.45835","25.0597333333333","6500500","新莊區"
"242023","362-BY","2018/05/14 19:59:15","新北市新莊區化成路374號","121.465858333333","25.0498166666667","6500500","新莊區"
"242060","353-BY","2018/05/14 19:59:22","新北市新莊區瓊泰路42號","121.443871666667","25.0286416666667","6500500","新莊區"
"242039","133-UY","2018/05/14 19:59:16","新北市新莊區民安路287-3號","121.42886","25.0230183333333","6500500","新莊區"
"242031","135-UY","2018/05/14 19:59:21","新北市新莊區公園一路68號","121.443153333333","25.0364166666667","6500500","新莊區"
"242048","172-VK","2018/05/14 19:59:17","新北市新莊區富國路109巷1號","121.42372","25.02513","6500500","新莊區"
"242011","173-VK","2018/05/14 19:59:14","新北市新莊區中義街21號","121.450653333333","25.0510383333333","6500500","新莊區"
"242017","175-VK","2018/05/14 19:59:26","新北市新莊區中華路二段45巷5號","121.45304","25.04646","6500500","新莊區"
"242004","176-VK","2018/05/14 19:59:12","新北市新莊區頭前路82號","121.46619","25.052385","6500500","新莊區"
"242015","346-TH","2018/05/14 19:59:14","新北市新莊區泰安街46號","121.447","25.0424033333333","6500500","新莊區"
"242021","348-TH","2018/05/14 19:59:25","新北市新莊區建中街32巷2號","121.448953333333","25.0376783333333","6500500","新莊區"
"242019","350-TH","2018/05/14 19:59:17","新北市新莊區民生街13號","121.455815","25.0420716666667","6500500","新莊區"
"242013","351-TH","2018/05/14 19:59:12","新北市新莊區幸福路670巷2弄1號","121.451095","25.0495733333333","6500500","新莊區"
"238015","755-BX","2018/05/14 19:58:14","新北市樹林區中山路三段210-2號","121.38078","24.967775","6500700","樹林區"
"238023","601-UM","2018/05/14 19:59:23","新北市樹林區中正路247號","121.422325","25.00425","6500700","樹林區"
"238021","KEA-2217","2018/05/14 19:59:11","新北市樹林區田尾街208號","121.398326666667","24.94761","6500700","樹林區"
"239006","891-R6","2018/05/14 19:59:16","新北市鶯歌區文化路72-11號","121.354385","24.9534966666667","6500800","鶯歌區"
"221008","489-VK","2018/05/14 19:59:29","新北市汐止區忠一街9巷7號","121.620556666667","25.0732","6501100","汐止區"
"221036","130-UY","2018/05/14 19:59:11","新北市汐止區新台五路二段85巷14號","121.664398333333","25.0673666666667","6501100","汐止區"
"221015","131-UY","2018/05/14 19:59:21","新北市汐止區大同路三段21號","121.666371666667","25.0761266666667","6501100","汐止區"
"221010","269-BY","2018/05/14 19:59:22","新北市汐止區八連路一段86巷2號","121.645055","25.0806533333333","6501100","汐止區"
"221012","278-VK","2018/05/14 19:59:19","新北市汐止區大同路三段262號","121.67638","25.0720283333333","6501100","汐止區"
"221023","279-VK","2018/05/14 19:59:13","新北市汐止區明峰街198號","121.627851666667","25.069525","6501100","汐止區"
"221032","280-BY","2018/05/14 19:59:12","新北市汐止區橫科路18巷9弄1號","121.618006666667","25.0507783333333","6501100","汐止區"
"221027","281-BY","2018/05/14 19:59:13","新北市汐止區信義路21號","121.661546666667","25.069485","6501100","汐止區"
"221029","298-VK","2018/05/14 19:59:21","新北市汐止區樟樹一路137巷26號","121.640995","25.0659866666667","6501100","汐止區"
"221021","299-VK","2018/05/14 19:59:30","新北市汐止區水源路一段143號","121.655975","25.062275","6501100","汐止區"
"221031","353-TW","2018/05/14 19:59:27","新北市汐止區福德一路176巷2號","121.635763333333","25.066135","6501100","汐止區"
"221035","622-UM","2018/05/14 19:59:26","新北市汐止區長江街43號","121.655683333333","25.0713116666667","6501100","汐止區"
"221025","623-UM","2018/05/14 19:59:12","新北市汐止區福安街20巷20號","121.66206","25.0646433333333","6501100","汐止區"
"221038","646-BX","2018/05/14 19:59:25","新北市汐止區忠孝東路444號","121.666051666667","25.07254","6501100","汐止區"
"221033","647-BX","2018/05/14 19:59:25","新北市汐止區東勢街201巷90號","121.633933333333","25.0433516666667","6501100","汐止區"
"221018","753-BX","2018/05/14 19:59:26","新北市汐止區茄苳路255號","121.671973333333","25.0682283333333","6501100","汐止區"
"220079","145-BY","2018/05/14 19:59:27","新北市板橋區中正路135巷30號","121.454913333333","25.01535","6500100","板橋區"
"242002","KEA-2550","2018/05/14 19:59:15","新北市新莊區中正路170號","121.451105","25.0358916666667","6500500","新莊區"
"220101","245-BX","2018/05/14 19:59:13","新北市板橋區縣民大道三段37號","121.473888333333","25.0208666666667","6500100","板橋區"
"220072","277-BY","2018/05/14 19:59:16","新北市板橋區篤行路二段31巷8號","121.432281666667","24.9925966666667","6500100","板橋區"
"220089","280-UM","2018/05/14 19:59:18","新北市板橋區新海路403巷18號","121.457796666667","25.0263916666667","6500100","板橋區"
"220071","283-VK","2018/05/14 19:59:28","新北市板橋區和平路174巷1弄3號","121.464025","24.9953083333333","6500100","板橋區"
"220094","285-UM","2018/05/14 19:59:15","新北市板橋區文德路5號","121.462786666667","25.0244616666667","6500100","板橋區"
"220053","285-VK","2018/05/14 19:59:16","新北市板橋區中山路二段88號","121.475213333333","25.0163533333333","6500100","板橋區"
"220083","286-VK","2018/05/14 19:59:19","新北市板橋區僑中二街10巷8號","121.446696666667","25.011005","6500100","板橋區"
"220081","287-VK","2018/05/14 19:59:17","新北市板橋區大觀路一段28巷107號","121.449956666667","25.0120616666667","6500100","板橋區"
"220090","288-VK","2018/05/14 19:59:13","新北市板橋區龍泉街133號","121.457618333333","25.0238183333333","6500100","板橋區"
"220061","293-UM","2018/05/14 19:59:13","新北市板橋區觀光街4號","121.472105","25.015655","6500100","板橋區"
"220084","296-UM","2018/05/14 19:59:19","新北市樹林區博愛街179號","121.424961666667","24.9892633333333","6500100","板橋區"
"220075","303-R5","2018/05/14 19:59:10","新北市板橋區金華街10巷100號","121.458601666667","25.02046","6500100","板橋區"
"220062","305-R5","2018/05/14 19:59:15","新北市板橋區光復街35號","121.481655","25.0189183333333","6500100","板橋區"
"220092","307-R5","2018/05/14 19:59:15","新北市板橋區四維路259巷60-2號","121.460686666667","25.0267916666667","6500100","板橋區"
"220098","317-R6","2018/05/14 19:59:17","新北市板橋區新海路135巷2號","121.459936666667","25.0232666666667","6500100","板橋區"
"220064","486-VK","2018/05/14 19:59:09","新北市板橋區區運路61號","121.466806666667","25.0105533333333","6500100","板橋區"
"242036","280-VK","2018/05/14 19:59:12","新北市新莊區民安路207巷38號","121.42876","25.0248133333333","6500500","新莊區"
"220088","491-VK","2018/05/14 19:59:26","新北市板橋區大同街89號","121.479883333333","25.02821","6500100","板橋區"
"220035","560-BX","2018/05/14 19:59:10","新北市板橋區新生街87巷8號","121.457771666667","25.021875","6500100","板橋區"
"220103","561-BX","2018/05/14 19:59:25","新北市板橋區自由路15號","121.46549","25.0227583333333","6500100","板橋區"
"220080","568-UM","2018/05/14 19:59:14","新北市板橋區大觀路二段79巷2弄16號","121.447395","25.0015933333333","6500100","板橋區"
"220055","630-UY","2018/05/14 19:59:24","新北市板橋區仁愛路62巷17弄1號","121.460048333333","24.9982616666667","6500100","板橋區"
"220091","637-BX","2018/05/14 19:59:21","新北市板橋區文聖街101巷12號","121.478215","25.0296916666667","6500100","板橋區"
"220093","689-BX","2018/05/14 19:59:24","新北市板橋區長江路三段120號","121.47517","25.0343783333333","6500100","板橋區"
"220054","741-BX","2018/05/14 19:59:25","新北市板橋區忠孝路201巷39號","121.464833333333","25.0036533333333","6500100","板橋區"
"220102","KEA-2699","2018/05/14 19:59:27","新北市板橋區仁化街45號","121.474973333333","25.0317183333333","6500100","板橋區"
"220082","806-UM","2018/05/14 19:59:24","新北市板橋區篤行路二段131巷25號","121.431831666667","24.9902883333333","6500100","板橋區"
"220067","829-TW","2018/05/14 19:59:20","新北市板橋區漢生東路193巷46號","121.472565","25.01164","6500100","板橋區"
"220068","830-TW","2018/05/14 19:59:15","新北市板橋區光復街180號","121.485376666667","25.0195516666667","6500100","板橋區"
"220096","831-TW","2018/05/14 19:59:25","新北市板橋區莒光路9號","121.469835","25.0247983333333","6500100","板橋區"
"220073","985-R7","2018/05/14 19:59:28","新北市板橋區南雅西路二段2-2號","121.45314","25.0090733333333","6500100","板橋區"
"220097","AAC-210","2018/05/14 19:59:14","新北市板橋區光正街40號","121.461961666667","25.017375","6500100","板橋區"
"220070","AAC-253","2018/05/14 19:59:17","新北市板橋區成都街51號","121.461501666667","25.0049033333333","6500100","板橋區"
