"lineid","car","time","location","longitude","latitude","cityid","cityname"
"231047","187-VK","2018/05/14 21:28:51","新北市新店區柴埕路52巷1-6號","121.51305","24.96482","6500600","新店區"
"231063","616-UM","2018/05/14 21:28:50","新北市新店區吉祥街5巷1號","121.497246666667","24.9478583333333","6500600","新店區"
"241011","013-R5","2018/05/14 21:28:51","新北市三重區龍濱路285號","121.501135","25.07334","6500200","三重區"
"241017","063-VK","2018/05/14 21:29:04","新北市三重區中正北路25巷2號","121.493158333333","25.0626883333333","6500200","三重區"
"241024","065-VK","2018/05/14 21:29:04","新北市三重區中正北路145巷14號","121.484123333333","25.0678033333333","6500200","三重區"
"241003","091-VK","2018/05/14 21:28:55","新北市三重區仁義街317號","121.495538333333","25.0841833333333","6500200","三重區"
"241005","262-UM","2018/05/14 21:29:00","新北市三重區仁華街118巷6號","121.485708333333","25.0829983333333","6500200","三重區"
"241016","266-UM","2018/05/14 21:28:49","新北市三重區信義西街138號","121.495563333333","25.0643133333333","6500200","三重區"
"241018","268-UM","2018/05/14 21:29:01","新北市五股區中興路三段1-7號","121.452341666667","25.0752833333333","6500200","三重區"
"241007","398-BY","2018/05/14 21:28:51","新北市三重區正義北路113號","121.496893333333","25.0657966666667","6500200","三重區"
"241019","KEA-2593","2018/05/14 21:28:51","新北市五股區成泰路一段98巷77號","121.450163333333","25.0782533333333","6500200","三重區"
"247024","893-R6","2018/05/14 21:27:41","新北市五股區中直路15-2號","121.423256666667","25.1111016666667","6501400","蘆洲區"
"247022","500-BY","2018/05/14 21:29:05","新北市蘆洲區環堤大道170號","121.456123333333","25.08988","6501400","蘆洲區"
"247010","341-TH","2018/05/14 21:28:57","新北市蘆洲區三民路24號","121.475771666667","25.0825666666667","6501400","蘆洲區"
"247012","339-TH","2018/05/14 21:29:00","新北市蘆洲區民族路422巷82弄38-1號","121.472496666667","25.0978416666667","6501400","蘆洲區"
"251009","008-UM","2018/05/14 21:28:48","新北市淡水區民族路33巷16-3號","121.463446666667","25.1360066666667","6501000","淡水區"
"251004","009-UM","2018/05/14 21:28:52","新北市淡水區民族路7號","121.460281666667","25.1371016666667","6501000","淡水區"
"251005","010-UM","2018/05/14 21:29:03","新北市淡水區水源街一段34巷8號","121.443158333333","25.1718183333333","6501000","淡水區"
"251001","011-UM","2018/05/14 21:28:53","新北市淡水區濱海路一段308號","121.44119","25.1893733333333","6501000","淡水區"
"251013","KEA-2871","2018/05/14 21:28:53","新北市淡水區埤島60-1號","121.459185","25.1952316666667","6501000","淡水區"
"251014","180-VK","2018/05/14 21:28:58","新北市淡水區六塊厝2-1號","121.450146666667","25.24049","6501000","淡水區"
"251008","181-VK","2018/05/14 21:28:57","新北市淡水區水源街二段138-1號","121.45361","25.1748333333333","6501000","淡水區"
"251010","413-VK","2018/05/14 21:28:59","新北市淡水區中正路二段32巷30號","121.420731666667","25.1826233333333","6501000","淡水區"
"251012","441-VK","2018/05/14 21:28:56","新北市淡水區淡金路五段35巷46號","121.452498333333","25.234795","6501000","淡水區"
"251006","561-UM","2018/05/14 21:29:00","新北市淡水區公明街70號","121.443735","25.16842","6501000","淡水區"
"251016","575-R6","2018/05/14 21:28:59","新北市淡水區前洲子28號","121.441178333333","25.2191966666667","6501000","淡水區"
"251011","650-BX","2018/05/14 21:28:58","新北市淡水區新民街158號","121.43716","25.1783266666667","6501000","淡水區"
"251003","766-UM","2018/05/14 21:28:59","新北市淡水區崁頂15-5號","121.439013333333","25.1858733333333","6501000","淡水區"
"220070","AAC-253","2018/05/14 21:28:57","新北市五股區成泰路三段358號","121.450801666667","25.0977966666667","6500100","板橋區"
