"lineid","car","time","location","longitude","latitude","cityid","cityname"
"248005","653-BX","2018/05/15 07:25:34","新北市五股區明德路12巷3號","121.43329","25.07176","6501500","五股區"
"232003","290-BY","2018/05/15 07:38:58","新北市坪林區下坑子口6-15號","121.71133","24.943335","6502000","坪林區"
"244002","248-BX","2018/05/15 07:38:43","新北市林口區頂福里101號","121.326291666667","25.0965733333333","6501700","林口區"
"222004","289-BY","2018/05/15 07:22:52","新北市深坑區文化街39巷13號","121.618915","25.0010883333333","6501800","深坑區"
"231007","189-VK","2018/05/15 07:39:00","新北市新店區安一路一段1-1號","121.519728333333","24.9614616666667","6500600","新店區"
"235001","611-BX","2018/05/15 07:38:51","新北市中和區圓通路367巷4號","121.491468333333","24.989345","6500300","中和區"
"226005","5620-A6","2018/05/15 07:39:04","新北市平溪區石底里公園街22號","121.737548333333","25.024975","6502400","平溪區"
"226002","7418-A5","2018/05/15 07:39:01","新北市平溪區平湖里大厝1號","121.780063333333","25.03879","6502400","平溪區"
"226006","AGD-0702","2018/05/15 07:29:45","新北市平溪區嶺腳里嶺腳寮83-2號","121.75015","25.0349983333333","6502400","平溪區"
"223006","022-BY","2018/05/15 07:39:04","新北市坪林區北宜路八段363號","121.709675","24.932885","6501900","石碇區"
"223002","KEA-2673","2018/05/15 07:38:56","新北市石碇區北宜路六段塗潭巷9號","121.64797","24.931895","6501900","石碇區"
"223001","205-TH","2018/05/15 07:38:03","新北市石碇區蛇舌子11-2號","121.659983333333","24.9704783333333","6501900","石碇區"
"223008","406-TH","2018/05/15 07:27:51","新北市石碇區靜安路一段337號","121.698771666667","25.014695","6501900","石碇區"
"223001","592-UM","2018/05/15 07:39:02","新北市石碇區蛇舌子6-2號","121.664341666667","24.9695933333333","6501900","石碇區"
"223004","660-BX","2018/05/15 07:38:57","新北市石碇區八分寮47號","121.642141666667","25.013755","6501900","石碇區"
"223007","661-BX","2018/05/15 07:36:34","新北市石碇區靜安路一段337號","121.698841666667","25.0144816666667","6501900","石碇區"
"223005","677-TV","2018/05/15 07:38:53","新北市石碇區八分寮47號","121.642193333333","25.0138","6501900","石碇區"
"227006","282-VK","2018/05/15 07:38:55","新北市雙溪區雙溪里太平路54號","121.864791666667","25.0355433333333","6502500","雙溪區"
"252005","073-UM","2018/05/15 07:38:56","新北市三芝區中山路二段50號","121.503123333333","25.254325","6502100","三芝區"
"252004","249-BX","2018/05/15 07:38:50","新北市三芝區興華里車埕23號","121.501873333333","25.196525","6502100","三芝區"
"252007","AAC-283","2018/05/15 07:38:56","新北市三芝區後厝里北勢子12號","121.475088333333","25.2556","6502100","三芝區"
"237001","159-UY","2018/05/15 07:39:04","新北市三峽區國慶路144號","121.375643333333","24.9398466666667","6500900","三峽區"
"236008","165-UM","2018/05/15 07:38:47","新北市土城區金城路三段281號","121.473311666667","24.990615","6501300","土城區"
"236002","339-SR","2018/05/15 07:39:05","新北市土城區龍泉路114號","121.447693333333","24.9432616666667","6501300","土城區"
"220018","282-UM","2018/05/15 07:39:04","新北市板橋區國光路1號","121.456646666667","25.0173333333333","6500100","板橋區"
