"lineid","car","time","location","longitude","latitude","cityid","cityname"
"248005","653-BX","2018/06/18 08:09:28","新北市五股區明德路10號","121.433363333333","25.0717516666667","6501500","五股區"
"232001","290-BY","2018/06/18 08:09:28","新北市坪林區大粗坑6-1號","121.732085","24.9481466666667","6502000","坪林區"
"232012","291-BY","2018/06/18 08:09:29","新北市坪林區九芎根2-1號","121.667905","24.8879","6502000","坪林區"
"232017","705-BZ","2018/06/18 08:09:33","新北市坪林區坪雙路二段162號","121.76524","24.9630183333333","6502000","坪林區"
"232005","758-BX","2018/06/18 08:09:43","新北市坪林區鶯子瀨2-1號","121.70866","24.91295","6502000","坪林區"
"244006","080-UY","2018/06/18 08:09:29","新北市林口區林口路296號","121.385925","25.085505","6501700","林口區"
"244001","248-BX","2018/06/18 08:09:26","新北市林口區下福里139-3號","121.30053","25.1173783333333","6501700","林口區"
"244018","403-UM","2018/06/18 08:09:38","新北市林口區中山路158號","121.39077","25.0787983333333","6501700","林口區"
"244012","742-UY","2018/06/18 08:09:27","新北市林口區中山路305號","121.383795","25.0804633333333","6501700","林口區"
"244022","483-VK","2018/06/18 08:09:32","新北市林口區仁愛路一段665號","121.387773333333","25.0764533333333","6501700","林口區"
"244016","485-VK","2018/06/18 08:09:44","新北市林口區粉寮路一段149-5號","121.399361666667","25.0815166666667","6501700","林口區"
"244010","657-BX","2018/06/18 08:09:31","新北市林口區仁愛路一段285巷116號","121.395251666667","25.0758566666667","6501700","林口區"
"244024","837-TS","2018/06/18 08:09:38","新北市林口區中山路319號","121.383563333333","25.0805516666667","6501700","林口區"
"244020","838-TS","2018/06/18 08:09:44","新北市林口區粉寮路二段160巷38號","121.405758333333","25.09158","6501700","林口區"
"222005","289-BY","2018/06/18 08:09:43","新北市深坑區萬福路161號","121.612455","25.0155116666667","6501800","深坑區"
"231007","189-VK","2018/06/18 08:09:35","新北市新店區新潭路一段1-1號","121.523186666667","24.9438383333333","6500600","新店區"
"231008","192-VK","2018/06/18 08:09:47","新北市新店區新烏路一段60號","121.546091666667","24.94814","6500600","新店區"
"235001","611-BX","2018/06/18 08:09:31","新北市中和區圓通路367巷33弄96號","121.494775","24.9837033333333","6500300","中和區"
"226005","5620-A6","2018/06/18 08:09:40","新北市平溪區靜安路二段550號","121.747196666667","25.0251466666667","6502400","平溪區"
"226001","7418-A5","2018/06/18 08:09:27","新北市平溪區望古里石灼坑6-2號","121.768028333333","25.0357333333333","6502400","平溪區"
"226003","AGD-0702","2018/06/18 08:09:27","新北市平溪區十分里十分街293號","121.775726666667","25.0468716666667","6502400","平溪區"
"223006","022-BY","2018/06/18 08:09:43","新北市石碇區靜安路一段107號","121.663068333333","25.0073166666667","6501900","石碇區"
"223002","KEA-2673","2018/06/18 08:09:26","新北市石碇區北宜路五段80號","121.646583333333","24.9518066666667","6501900","石碇區"
"223003","205-TH","2018/06/18 08:09:33","新北市石碇區北宜路五段80號","121.646381666667","24.9517266666667","6501900","石碇區"
"223008","406-TH","2018/06/18 08:09:48","新北市石碇區靜安路一段266號","121.684081666667","25.0090683333333","6501900","石碇區"
"223001","592-UM","2018/06/18 08:09:35","新北市石碇區北宜路五段80號","121.646351666667","24.9516566666667","6501900","石碇區"
"223004","660-BX","2018/06/18 08:09:33","新北市石碇區外按16-1號","121.650626666667","24.9975633333333","6501900","石碇區"
"223007","661-BX","2018/06/18 08:08:40","新北市石碇區蚯蚓坑29-2號","121.686236666667","25.0103733333333","6501900","石碇區"
"223005","677-TV","2018/06/18 08:09:40","新北市石碇區外按8-1號","121.651375","24.9955183333333","6501900","石碇區"
"227005","282-VK","2018/06/18 08:09:32","新北市雙溪區上林里大瀨10號","121.822303333333","25.022205","6502500","雙溪區"
"252006","073-UM","2018/06/18 08:09:36","新北市三芝區後厝里大片頭88號","121.457438333333","25.2457016666667","6502100","三芝區"
"252004","249-BX","2018/06/18 08:09:03","新北市三芝區興華里車埕23號","121.501831666667","25.1963866666667","6502100","三芝區"
"236007","165-UM","2018/06/18 08:09:29","新北市土城區石門路54號","121.45681","24.9594716666667","6501300","土城區"
"236001","339-SR","2018/06/18 08:09:38","新北市土城區龍泉路79-1號","121.430016666667","24.9425066666667","6501300","土城區"
"236005","498-BY","2018/06/18 08:09:31","新北市土城區永平街51號","121.427728333333","24.95914","6501300","土城區"
"242033","AAC-296","2018/06/18 08:09:47","新北市新莊區新莊路621號","121.44566","25.032845","6500500","新莊區"
"242057","986-R7","2018/06/18 08:09:31","新北市新莊區中正路730號","121.414846666667","25.0235933333333","6500500","新莊區"
"242052","751-BX","2018/06/18 08:09:40","新北市新莊區樹新路120巷51號","121.43005","24.9958783333333","6500500","新莊區"
"242026","615-BX","2018/06/18 08:09:38","新北市新莊區福壽街126號","121.457713333333","25.0512483333333","6500500","新莊區"
"242028","612-BX","2018/06/18 08:09:45","新北市新莊區復興路一段109號","121.449248333333","25.0430166666667","6500500","新莊區"
"242040","566-BX","2018/06/18 08:09:48","新北市泰山區中山路二段760號","121.424625","25.0345783333333","6500500","新莊區"
"242045","497-BY","2018/06/18 08:09:38","新北市新莊區建國一路52號","121.43412","25.0310333333333","6500500","新莊區"
"242049","441-UM","2018/06/18 08:09:43","新北市新莊區西盛街257巷22號","121.428895","25.0157283333333","6500500","新莊區"
"242055","440-UM","2018/06/18 08:09:42","新北市新莊區瓊林路34號","121.448926666667","25.03105","6500500","新莊區"
"242035","415-TV","2018/06/18 08:09:43","新北市新莊區建福路59巷28號","121.427996666667","25.0275666666667","6500500","新莊區"
"242006","413-TV","2018/06/18 08:09:42","新北市新莊區福樂街156巷12弄1號","121.456155","25.0487816666667","6500500","新莊區"
"242043","400-BY","2018/06/18 08:09:37","新北市新莊區中正路871巷9弄6號","121.418801666667","25.0270266666667","6500500","新莊區"
"242022","362-BY","2018/06/18 08:09:46","新北市新莊區民樂街109號","121.457775","25.044185","6500500","新莊區"
"242059","353-BY","2018/06/18 08:09:41","新北市新莊區新樹路601號","121.43319","25.0058383333333","6500500","新莊區"
"242008","132-UY","2018/06/18 08:09:34","新北市新莊區福壽街169巷1弄12號","121.457553333333","25.0533566666667","6500500","新莊區"
"242038","133-UY","2018/06/18 08:09:32","新北市新莊區民全街2號","121.429006666667","25.021005","6500500","新莊區"
"242047","172-VK","2018/06/18 08:09:45","新北市新莊區萬安街149巷1號","121.420583333333","25.021665","6500500","新莊區"
"242016","175-VK","2018/06/18 08:09:32","新北市新莊區復興路一段95號","121.448848333333","25.0428783333333","6500500","新莊區"
"242003","176-VK","2018/06/18 08:09:41","新北市新莊區自立街214巷3號","121.457165","25.0451766666667","6500500","新莊區"
"242014","346-TH","2018/06/18 08:09:34","新北市新莊區中平路37號","121.444586666667","25.043935","6500500","新莊區"
"242020","348-TH","2018/06/18 08:09:43","新北市新莊區中港路281號","121.453181666667","25.0437983333333","6500500","新莊區"
"242001","349-TH","2018/06/18 08:09:29","新北市新莊區新莊路421號","121.45065","25.0336183333333","6500500","新莊區"
"242018","350-TH","2018/06/18 08:09:36","新北市新莊區中港路201號","121.454866666667","25.0418883333333","6500500","新莊區"
"242012","351-TH","2018/06/18 08:09:48","新北市新莊區中誠街128號","121.449145","25.0475683333333","6500500","新莊區"
"220018","282-UM","2018/06/18 07:53:03","新北市板橋區華東街1-9號","121.44818","24.994835","6500100","板橋區"
"242030","280-VK","2018/06/18 08:09:28","新北市新莊區新泰路369巷7號","121.443415","25.043325","6500500","新莊區"
