"lineid","car","time","location","longitude","latitude","cityid","cityname"
"248005","653-BX","2018/06/18 08:59:28","新北市五股區明德路12巷6號","121.433376666667","25.071825","6501500","五股區"
"232001","290-BY","2018/06/18 08:59:28","新北市坪林區虎寮潭1號","121.74091","24.95058","6502000","坪林區"
"232012","291-BY","2018/06/18 08:59:29","新北市坪林區北宜路七段338號","121.69681","24.9348583333333","6502000","坪林區"
"232005","758-BX","2018/06/18 08:59:43","新北市坪林區鶯子瀨12-1號","121.713236666667","24.9118883333333","6502000","坪林區"
"244006","080-UY","2018/06/18 08:59:29","新北市林口區林口路124巷10弄1號","121.389031666667","25.08183","6501700","林口區"
"244018","403-UM","2018/06/18 08:59:38","新北市林口區文化一路一段36號","121.370885","25.0692366666667","6501700","林口區"
"244012","742-UY","2018/06/18 08:59:47","新北市林口區文化一路二段192號","121.382831666667","25.08031","6501700","林口區"
"244022","483-VK","2018/06/18 08:59:32","新北市林口區東湖路105巷60號","121.384476666667","25.07148","6501700","林口區"
"244016","485-VK","2018/06/18 08:59:44","新北市林口區公園路8號","121.366231666667","25.0664083333333","6501700","林口區"
"244008","656-BX","2018/06/18 08:59:33","新北市林口區民生路102-2號","121.377543333333","25.0883533333333","6501700","林口區"
"244010","657-BX","2018/06/18 08:59:31","新北市林口區中正路98號","121.39412","25.077355","6501700","林口區"
"244024","837-TS","2018/06/18 08:59:18","新北市林口區南勢街202號","121.359933333333","25.0748666666667","6501700","林口區"
"244020","838-TS","2018/06/18 08:59:43","新北市林口區工六路98號","121.40114","25.0766733333333","6501700","林口區"
"222005","289-BY","2018/06/18 08:47:15","新北市深坑區土庫尖路75-1號","121.631131666667","25.0181333333333","6501800","深坑區"
"231007","189-VK","2018/06/18 08:59:29","新北市新店區新潭路三段215巷25號","121.508101666667","24.904075","6500600","新店區"
"231008","192-VK","2018/06/18 08:59:42","新北市新店區廣興路30-1號","121.540225","24.9118816666667","6500600","新店區"
"235001","611-BX","2018/06/18 08:59:31","新北市中和區莒光路185號","121.47267","24.9990233333333","6500300","中和區"
"226001","7418-A5","2018/06/18 08:45:27","新北市平溪區東勢里番仔坑16號","121.755291666667","24.99137","6502400","平溪區"
"226003","AGD-0702","2018/06/18 08:59:47","新北市平溪區十分里十分街244號","121.777796666667","25.0443766666667","6502400","平溪區"
"223003","205-TH","2018/06/18 08:59:33","新北市石碇區北宜路五段坑內巷1號","121.636703333333","24.953205","6501900","石碇區"
"223008","406-TH","2018/06/18 08:54:55","新北市石碇區光明路13號","121.680103333333","25.0336466666667","6501900","石碇區"
"223001","592-UM","2018/06/18 08:59:35","新北市石碇區北宜路四段30號","121.623981666667","24.9559766666667","6501900","石碇區"
"223004","660-BX","2018/06/18 08:59:33","新北市石碇區碇坪路二段71號","121.685476666667","24.9653366666667","6501900","石碇區"
"223007","661-BX","2018/06/18 08:59:40","新北市石碇區光明路2號","121.673846666667","25.0270616666667","6501900","石碇區"
"223005","677-TV","2018/06/18 08:59:46","新北市石碇區碇坪路二段71號","121.685541666667","24.9652466666667","6501900","石碇區"
"227005","282-VK","2018/06/18 08:59:32","新北市雙溪區泰平里料角坑13-1號","121.816715","24.9732","6502500","雙溪區"
"252006","073-UM","2018/06/18 08:59:37","新北市三芝區古庄里四棧橋20號","121.489041666667","25.2612083333333","6502100","三芝區"
"252004","249-BX","2018/06/18 08:59:44","新北市三芝區興華里田心子31號","121.488773333333","25.200455","6502100","三芝區"
"237001","159-UY","2018/06/18 08:57:16","新北市樹林區中山路三段210-2號","121.380611666667","24.9678133333333","6500900","三峽區"
"236007","165-UM","2018/06/18 08:59:48","新北市土城區中央路三段185號","121.430973333333","24.96516","6501300","土城區"
"236001","339-SR","2018/06/18 08:59:48","新北市土城區興城路2號","121.442808333333","24.97352","6501300","土城區"
"236005","498-BY","2018/06/18 08:59:41","新北市土城區中央路三段76巷31號","121.435818333333","24.96817","6501300","土城區"
"242033","AAC-296","2018/06/18 08:59:47","新北市新莊區建中街90巷3弄19號","121.445755","25.0369266666667","6500500","新莊區"
"242057","986-R7","2018/06/18 08:59:31","新北市新莊區八德街135號","121.423793333333","25.02021","6500500","新莊區"
"242052","751-BX","2018/06/18 08:59:30","新北市新莊區西盛街416巷2號","121.427253333333","25.0122116666667","6500500","新莊區"
"242026","615-BX","2018/06/18 08:59:38","新北市新莊區中和街174號","121.447365","25.0492233333333","6500500","新莊區"
"242024","613-BX","2018/06/18 08:59:38","新北市新莊區五工二路70巷2號","121.460326666667","25.0658583333333","6500500","新莊區"
"242028","612-BX","2018/06/18 08:59:38","新北市新莊區中原路231號","121.449806666667","25.0543116666667","6500500","新莊區"
"242040","566-BX","2018/06/18 08:59:41","新北市新莊區青山路一段46號","121.410073333333","25.02764","6500500","新莊區"
"242045","497-BY","2018/06/18 08:59:38","新北市新莊區裕民街37巷7號","121.419456666667","25.0248366666667","6500500","新莊區"
"242049","441-UM","2018/06/18 08:59:36","新北市新莊區民安西路252巷5號","121.425421666667","25.01356","6500500","新莊區"
"242055","440-UM","2018/06/18 08:59:42","新北市新莊區瓊林路13-3號","121.448766666667","25.0309316666667","6500500","新莊區"
"242035","415-TV","2018/06/18 08:59:43","新北市新莊區建安街71巷17號","121.428238333333","25.0245416666667","6500500","新莊區"
"242006","413-TV","2018/06/18 08:59:42","新北市新莊區思源路333號","121.459761666667","25.049725","6500500","新莊區"
"242043","400-BY","2018/06/18 08:59:37","新北市新莊區中正路758號","121.412361666667","25.0221866666667","6500500","新莊區"
"242022","362-BY","2018/06/18 08:59:31","新北市新莊區化成路610號","121.466135","25.0547583333333","6500500","新莊區"
"242059","353-BY","2018/06/18 08:59:40","新北市新莊區瓊泰路3號","121.444913333333","25.028655","6500500","新莊區"
"242008","132-UY","2018/06/18 08:59:46","新北市新莊區昌隆街84號","121.455866666667","25.0509133333333","6500500","新莊區"
"242038","133-UY","2018/06/18 08:59:32","新北市新莊區民安西路85號","121.427023333333","25.019245","6500500","新莊區"
"242047","172-VK","2018/06/18 08:59:45","新北市新莊區富國路113號","121.423623333333","25.02478","6500500","新莊區"
"242010","173-VK","2018/06/18 08:59:37","新北市新莊區中和街218巷1號","121.448448333333","25.0509516666667","6500500","新莊區"
"242016","175-VK","2018/06/18 08:59:44","新北市新莊區中港三街33號","121.450096666667","25.0463483333333","6500500","新莊區"
"242003","176-VK","2018/06/18 08:59:38","新北市新莊區化成路314巷18號","121.466963333333","25.0482416666667","6500500","新莊區"
"242014","346-TH","2018/06/18 08:59:32","新北市新莊區中平路26巷49號","121.44718","25.043625","6500500","新莊區"
"242020","348-TH","2018/06/18 08:59:46","新北市新莊區建中街48巷6弄2號","121.448408333333","25.03768","6500500","新莊區"
"242001","349-TH","2018/06/18 08:59:29","新北市三重區重新路五段629號","121.467616666667","25.044045","6500500","新莊區"
"242018","350-TH","2018/06/18 08:59:38","新北市新莊區博愛路4巷2號","121.456445","25.0430266666667","6500500","新莊區"
"242012","351-TH","2018/06/18 08:59:48","新北市新莊區中和街155巷2號","121.44736","25.04992","6500500","新莊區"
"242030","280-VK","2018/06/18 08:59:48","新北市新莊區新泰路277巷36號","121.444158333333","25.0402283333333","6500500","新莊區"
