"lineid","car","time","location","longitude","latitude","cityid","cityname"
"248005","653-BX","2018/06/18 09:39:28","新北市五股區成泰路一段87-1號","121.435155","25.0689416666667","6501500","五股區"
"244018","403-UM","2018/06/18 09:39:38","新北市林口區麗園二街39巷2號","121.38074","25.0692416666667","6501700","林口區"
"244012","742-UY","2018/06/18 09:39:45","新北市林口區文化一路一段126號","121.375476666667","25.0721416666667","6501700","林口區"
"244022","483-VK","2018/06/18 09:39:32","新北市林口區信義路279-1號","121.376686666667","25.081355","6501700","林口區"
"244016","485-VK","2018/06/18 09:39:44","新北市林口區公園路133-1號","121.36914","25.0705033333333","6501700","林口區"
"244008","656-BX","2018/06/18 09:39:33","新北市林口區竹林路323號","121.389701666667","25.0821566666667","6501700","林口區"
"244010","657-BX","2018/06/18 09:39:31","新北市林口區中正路345巷1弄1號","121.38791","25.07729","6501700","林口區"
"244020","838-TS","2018/06/18 09:28:14","新北市林口區粉寮路二段160巷28號","121.405223333333","25.0907683333333","6501700","林口區"
"222005","289-BY","2018/06/18 09:39:40","新北市深坑區北深路一段278巷22號","121.62884","25.0119116666667","6501800","深坑區"
"231007","189-VK","2018/06/18 09:39:29","新北市新店區新潭路三段215巷25號","121.5081","24.9041016666667","6500600","新店區"
"231008","192-VK","2018/06/18 09:30:27","新北市新店區平廣路一段216號","121.512391666667","24.888595","6500600","新店區"
"223008","406-TH","2018/06/18 09:39:30","新北市石碇區西勢坑5-3號","121.68864","24.9871216666667","6501900","石碇區"
"223007","661-BX","2018/06/18 09:38:20","新北市石碇區小粗坑(潭邊里)15-8號","121.68822","24.9861416666667","6501900","石碇區"
"224010","AGQ-8101","2018/06/18 09:38:10","新北市瑞芳區民權街3-1號","121.809445","25.108255","6501200","瑞芳區"
"227005","282-VK","2018/06/18 09:31:12","新北市雙溪區泰平里溪尾寮6號","121.820041666667","24.961705","6502500","雙溪區"
"252004","249-BX","2018/06/18 09:39:44","新北市三芝區福德里大湖13-1號","121.515248333333","25.2236733333333","6502100","三芝區"
"252006","AAC-283","2018/06/18 09:39:41","新北市三芝區新庄里新庄子113-2號","121.518565","25.2665183333333","6502100","三芝區"
"237001","159-UY","2018/06/18 09:39:36","新北市三峽區國際二街77號","121.370683333333","24.9422016666667","6500900","三峽區"
"236005","498-BY","2018/06/18 09:39:31","新北市土城區中央路二段98號","121.442183333333","24.978265","6501300","土城區"
"242033","AAC-296","2018/06/18 09:39:47","新北市新莊區華興街17號","121.445968333333","25.0358216666667","6500500","新莊區"
"242057","986-R7","2018/06/18 09:39:36","新北市新莊區四維路16-1號","121.42356","25.0241333333333","6500500","新莊區"
"242052","751-BX","2018/06/18 09:39:30","新北市新莊區民安西路218號","121.42589","25.0147","6500500","新莊區"
"242024","613-BX","2018/06/18 09:39:37","新北市新莊區新泰路357巷3弄57號","121.442143333333","25.0392716666667","6500500","新莊區"
"242055","440-UM","2018/06/18 09:39:41","新北市新莊區新莊路751巷87號","121.442815","25.0307166666667","6500500","新莊區"
"242035","415-TV","2018/06/18 09:39:43","新北市新莊區建國一路7號","121.433856666667","25.03186","6500500","新莊區"
"242043","400-BY","2018/06/18 09:39:37","新北市新莊區龍安路108號","121.418348333333","25.02048","6500500","新莊區"
"242047","172-VK","2018/06/18 09:39:45","新北市新莊區中正路475號","121.441638333333","25.033745","6500500","新莊區"
"242010","173-VK","2018/06/18 09:39:29","新北市土城區城林路6巷80號","121.438238333333","24.980085","6500500","新莊區"
"242001","349-TH","2018/06/18 09:39:49","新北市新莊區瓊林路108號","121.442273333333","25.0262966666667","6500500","新莊區"
"242030","280-VK","2018/06/18 09:39:48","新北市新莊區忠孝街29巷9號","121.443555","25.0357383333333","6500500","新莊區"
