"lineid","car","time","location","longitude","latitude","cityid","cityname"
"244019","403-UM","2018/06/18 12:02:32","新北市林口區粉寮69號","121.405105","25.0908333333333","6501700","林口區"
"231008","192-VK","2018/06/18 12:19:47","新北市新店區安康路一段3-1號","121.535488333333","24.9610966666667","6500600","新店區"
"235029","098-UM","2018/06/18 12:19:48","新北市中和區員山路36巷16-3號","121.48499","24.99123","6500300","中和區"
"237001","159-UY","2018/06/18 12:19:36","新北市樹林區學勤路199號","121.376863333333","24.947685","6500900","三峽區"
"235025","KEA-2875","2018/06/18 12:19:48","新北市中和區員山路36巷13號","121.484125","24.99136","6500300","中和區"
