"lineid","car","time","location","longitude","latitude","cityid","cityname"
"234044","148-BY","2018/06/18 13:09:31","新北市永和區永元路18巷16號","121.523053333333","25.00023","6500400","永和區"
"234005","207-UY","2018/06/18 13:09:48","新北市永和區永平路194號","121.51029","25.0095116666667","6500400","永和區"
"234078","298-R6","2018/06/18 13:09:49","新北市永和區永亨路75號","121.521608333333","25.0057683333333","6500400","永和區"
"234036","336-UY","2018/06/18 13:09:52","新北市永和區民樂街90巷1號","121.527333333333","24.9973683333333","6500400","永和區"
"234062","337-UY","2018/06/18 13:09:46","新北市永和區秀朗路二段33號","121.521263333333","25.0024566666667","6500400","永和區"
"234084","338-UY","2018/06/18 13:09:41","新北市永和區永貞路53號","121.519345","25.0044316666667","6500400","永和區"
"234068","552-UM","2018/06/18 13:09:51","新北市永和區豫溪街137巷1弄2號","121.519656666667","25.01053","6500400","永和區"
"234015","745-BX","2018/06/18 13:09:49","新北市永和區文化路90巷15號","121.513768333333","25.0161266666667","6500400","永和區"
"234028","746-BX","2018/06/18 13:09:43","新北市永和區民生路23號","121.522876666667","24.998855","6500400","永和區"
"234052","KEA-2590","2018/06/18 13:09:42","新北市永和區中興街133巷12號","121.51852","25.0125766666667","6500400","永和區"
"234012","KEA-2591","2018/06/18 13:09:49","新北市永和區保福路二段10號","121.510981666667","25.0112083333333","6500400","永和區"
"234060","AAD-866","2018/06/18 13:09:52","新北市永和區安樂路304巷6號","121.51456","25.0050516666667","6500400","永和區"
"234040","862-TW","2018/06/18 13:09:48","新北市永和區永和路一段49巷3弄99號","121.511795","25.0060616666667","6500400","永和區"
"234048","863-TW","2018/06/18 13:09:42","新北市永和區保福路二段150巷18號","121.510363333333","25.015035","6500400","永和區"
"234025","9371-KE","2018/06/18 13:09:43","新北市永和區秀朗路一段10巷19號","121.513506666667","25.006115","6500400","永和區"
"234010","9373-KE","2018/06/18 13:09:50","新北市永和區永和路二段231巷19號","121.514596666667","25.0139966666667","6500400","永和區"
"248013","025-BX","2018/06/18 13:09:44","新北市五股區成泰路一段189巷27號","121.433658333333","25.0762983333333","6501500","五股區"
"248015","026-BX","2018/06/18 13:09:51","新北市五股區成泰路三段221巷18號","121.445728333333","25.0934683333333","6501500","五股區"
"248005","077-UY","2018/06/18 13:09:43","新北市五股區中興路二段82號","121.460758333333","25.0772833333333","6501500","五股區"
"248007","095-VK","2018/06/18 13:09:51","新北市五股區更洲路32巷8弄17號","121.4595","25.0795366666667","6501500","五股區"
"248017","225-UY","2018/06/18 13:09:43","新北市五股區成泰路三段590-3號","121.45284","25.1059933333333","6501500","五股區"
"248011","247-BX","2018/06/18 13:09:50","新北市五股區新城一路12號","121.441311666667","25.0832266666667","6501500","五股區"
"248009","272-BY","2018/06/18 13:09:51","新北市五股區新五路二段131號","121.438831666667","25.0799916666667","6501500","五股區"
"248003","677-BX","2018/06/18 13:09:48","新北市五股區中興路四段56號","121.43789","25.0830683333333","6501500","五股區"
"248001","678-BX","2018/06/18 13:09:33","新北市五股區新五路二段373號","121.444453333333","25.088535","6501500","五股區"
"234022","9380-KE","2018/06/18 13:09:48","新北市永和區中興街10巷40號","121.515841666667","25.0111533333333","6500400","永和區"
"234076","969-R7","2018/06/18 13:09:52","新北市永和區民光街3號","121.515291666667","24.99637","6500400","永和區"
"234072","AAC-211","2018/06/18 13:09:47","新北市永和區竹林路211號","121.520626666667","25.008855","6500400","永和區"
"234066","AAC-212","2018/06/18 13:09:45","新北市永和區永和路一段93號","121.513376666667","25.0076016666667","6500400","永和區"
"234001","AAC-295","2018/06/18 13:09:33","新北市永和區中山路一段147號","121.510185","25.009635","6500400","永和區"
"244001","248-BX","2018/06/18 13:09:31","新北市林口區嘉溪雅坑5-4號","121.34735","25.09974","6501700","林口區"
"243005","AAD-798","2018/06/18 13:09:52","新北市泰山區南林路99巷1-1號","121.415486666667","25.0511433333333","6501600","泰山區"
"231002","002-UM","2018/06/18 13:09:39","新北市新店區安華路28-1號","121.519738333333","24.9608133333333","6500600","新店區"
"231027","0293-UT","2018/06/18 13:09:39","新北市新店區安華路28-1號","121.51959","24.9606433333333","6500600","新店區"
"231028","046-UY","2018/06/18 13:09:46","新北市新店區安華路28-1號","121.519561666667","24.9607733333333","6500600","新店區"
"231001","047-UY","2018/06/18 13:09:38","新北市新店區安華路28-1號","121.51895","24.9609266666667","6500600","新店區"
"231005","106-UY","2018/06/18 13:09:39","新北市新店區安華路28-1號","121.519671666667","24.9607983333333","6500600","新店區"
"231019","108-UY","2018/06/18 13:09:35","新北市新店區安一路一段1-1號","121.519646666667","24.9613533333333","6500600","新店區"
"231011","187-VK","2018/06/18 13:09:50","新北市新店區安一路一段1-1號","121.519618333333","24.9612066666667","6500600","新店區"
"231010","188-VK","2018/06/18 13:09:39","新北市新店區安一路一段1-1號","121.519465","24.9612083333333","6500600","新店區"
"231023","KEA-2219","2018/06/18 13:09:40","新北市新店區安一路一段1-1號","121.519658333333","24.96133","6500600","新店區"
"231026","256-BX","2018/06/18 13:09:43","新北市新店區安一路一段1-1號","121.519726666667","24.961125","6500600","新店區"
"231003","268-BY","2018/06/18 13:09:32","新北市新店區安華路28-1號","121.519345","24.9605783333333","6500600","新店區"
"231018","278-BY","2018/06/18 13:09:46","新北市新店區安一路一段1-1號","121.519723333333","24.9610883333333","6500600","新店區"
"231014","AAD-862","2018/06/18 13:09:45","新北市新店區安一路一段1-1號","121.519808333333","24.9611366666667","6500600","新店區"
"231037","4716-K9","2018/06/18 13:09:37","新北市新店區安華路28-1號","121.51963","24.960935","6500600","新店區"
"231025","4715-K9","2018/06/18 13:09:47","新北市新店區安華路1-1號","121.519546666667","24.9604716666667","6500600","新店區"
"231036","512-UM","2018/06/18 13:09:38","新北市新店區安一路一段1-1號","121.519415","24.9614483333333","6500600","新店區"
"231013","513-UM","2018/06/18 13:09:50","新北市新店區安一路一段1-1號","121.51973","24.9611716666667","6500600","新店區"
"231030","619-UM","2018/06/18 13:09:35","新北市新店區安一路一段1-1號","121.5196","24.9610966666667","6500600","新店區"
"231034","641-BX","2018/06/18 13:09:51","新北市新店區安華路28-1號","121.519566666667","24.96054","6500600","新店區"
"231035","719-UM","2018/06/18 13:09:44","新北市新店區安一路一段1-1號","121.5196","24.9612116666667","6500600","新店區"
"231031","720-UM","2018/06/18 13:09:39","新北市新店區安一路一段1-1號","121.519116666667","24.961115","6500600","新店區"
"231029","897-TW","2018/06/18 13:09:52","新北市新店區安華路28-1號","121.519706666667","24.9607583333333","6500600","新店區"
"231006","898-TW","2018/06/18 13:09:50","新北市新店區安華路28-1號","121.51935","24.960845","6500600","新店區"
"231004","899-TW","2018/06/18 13:09:36","新北市新店區安一路一段1-1號","121.518785","24.9610433333333","6500600","新店區"
"231024","AKT-0513","2018/06/18 13:09:49","新北市新店區安華路28-1號","121.519533333333","24.96056","6500600","新店區"
"235028","005-UY","2018/06/18 13:09:43","新北市中和區中正路130號","121.499495","24.993745","6500300","中和區"
"235027","006-UY","2018/06/18 13:09:43","新北市中和區員山路36巷16-3號","121.484971666667","24.9913633333333","6500300","中和區"
"235003","097-UM","2018/06/18 13:09:36","新北市中和區和城路一段271巷1號","121.48575","24.99203","6500300","中和區"
"235029","098-UM","2018/06/18 13:09:48","新北市中和區莊敬路49巷20弄22號","121.502695","25.005805","6500300","中和區"
"235058","151-BY","2018/06/18 13:09:48","新北市中和區圓通路367巷62-1號","121.49261","24.982985","6500300","中和區"
"235019","183-VK","2018/06/18 13:09:32","新北市中和區員山路36巷16-3號","121.485016666667","24.9913933333333","6500300","中和區"
"235002","185-VK","2018/06/18 13:09:34","新北市中和區大仁街19巷8號","121.517275","24.9932566666667","6500300","中和區"
"235031","255-BX","2018/06/18 13:09:47","新北市中和區新生街195號","121.48392","25.0002366666667","6500300","中和區"
"235006","KEA-2878","2018/06/18 13:09:37","新北市中和區中正路275號","121.495463333333","24.99369","6500300","中和區"
"235034","558-UM","2018/06/18 13:09:34","新北市中和區圓通路207號","121.497143333333","24.9944466666667","6500300","中和區"
"235009","565-BX","2018/06/18 13:09:33","新北市中和區員山路36巷13號","121.48423","24.99092","6500300","中和區"
"235018","640-BX","2018/06/18 13:09:49","新北市中和區莒光路213號","121.46906","24.9946783333333","6500300","中和區"
"235011","732-UM","2018/06/18 13:09:43","新北市中和區中正路273號","121.49563","24.9937633333333","6500300","中和區"
"235035","783-BX","2018/06/18 13:09:38","新北市中和區板南路520巷8號","121.48403","25.008775","6500300","中和區"
"235026","800-TS","2018/06/18 13:09:49","新北市中和區橋和路60號","121.489546666667","25.0051483333333","6500300","中和區"
"235005","802-TS","2018/06/18 13:09:50","新北市中和區中正路277-6號","121.495208333333","24.9937083333333","6500300","中和區"
"235016","805-TS","2018/06/18 13:09:38","新北市中和區錦和路350-1號","121.490536666667","24.9936166666667","6500300","中和區"
"235012","896-TW","2018/06/18 13:09:50","新北市中和區員山路36巷16-2號","121.485078333333","24.9918016666667","6500300","中和區"
"235017","900-TW","2018/06/18 13:09:33","新北市中和區員山路36巷16-2號","121.485048333333","24.9917516666667","6500300","中和區"
"235015","157-BY","2018/06/18 13:09:53","新北市中和區捷運路3號","121.50962","24.9893966666667","6500300","中和區"
"235001","AAC-213","2018/06/18 13:09:35","新北市中和區景平路149號","121.513873333333","24.9920616666667","6500300","中和區"
"235023","AAC-215","2018/06/18 13:09:41","新北市中和區員山路36巷16-3號","121.48514","24.9913516666667","6500300","中和區"
"247007","056-VK","2018/06/18 13:09:46","新北市五股區中興路三段2巷10號","121.449183333333","25.081055","6501400","蘆洲區"
"253003","6232-TK","2018/06/18 13:09:39","新北市石門區石崩山24號","121.564186666667","25.2800833333333","6502200","石門區"
"253001","6251-TK","2018/06/18 13:09:33","新北市石門區老梅路43-2號","121.545393333333","25.2895616666667","6502200","石門區"
"253002","637-UY","2018/06/18 13:09:38","新北市石門區老崩山33號","121.557678333333","25.2767916666667","6502200","石門區"
"253004","8270-PC","2018/06/18 13:09:39","新北市石門區阿里荖42-1號","121.602871666667","25.2856883333333","6502200","石門區"
"207002","749-BX","2018/06/18 13:09:46","新北市萬里區崁腳里內崁路2-3號","121.638758333333","25.1605183333333","6502800","萬里區"
"252005","073-UM","2018/06/18 13:09:42","新北市三芝區八賢里八連溪18號","121.51082","25.2421866666667","6502100","三芝區"
"207001","662-BX","2018/06/18 13:09:40","新北市萬里區萬里里瑪鋉路85-2號","121.688875","25.177045","6502800","萬里區"
"236005","498-BY","2018/06/18 13:09:51","新北市土城區亞洲路21號","121.434058333333","24.971985","6501300","土城區"
"221032","280-BY","2018/06/18 13:09:47","新北市汐止區大同路二段435號","121.659341666667","25.0673983333333","6501100","汐止區"
"235032","KEA-2873","2018/06/18 13:09:32","新北市中和區員山路36巷16-3號","121.484905","24.9912083333333","6500300","中和區"
"235025","KEA-2875","2018/06/18 13:09:27","新北市中和區民享街468-1號","121.469481666667","24.99239","6500300","中和區"
