"lineid","car","time","location","longitude","latitude","cityid","cityname"
"234044","148-BY","2018/06/18 13:29:31","新北市永和區秀朗路二段151號","121.52487","25.0015883333333","6500400","永和區"
"234005","207-UY","2018/06/18 13:29:48","新北市永和區中山路一段195號","121.509095","25.00886","6500400","永和區"
"234078","298-R6","2018/06/18 13:29:49","新北市永和區環河東路三段60號","121.526815","25.005795","6500400","永和區"
"234036","336-UY","2018/06/18 13:29:37","新北市永和區民樂街38號","121.527556666667","25.0007183333333","6500400","永和區"
"234062","337-UY","2018/06/18 13:29:52","新北市永和區得和路243巷28弄1號","121.520845","25.0013666666667","6500400","永和區"
"234084","338-UY","2018/06/18 13:29:41","新北市永和區林森路62號","121.524015","25.0041416666667","6500400","永和區"
"234068","552-UM","2018/06/18 13:29:52","新北市永和區竹林路178號","121.520448333333","25.00992","6500400","永和區"
"234015","745-BX","2018/06/18 13:29:49","新北市永和區環河西路一段51巷1號","121.514348333333","25.018095","6500400","永和區"
"234028","746-BX","2018/06/18 13:29:43","新北市永和區四維街121號","121.523098333333","24.9983733333333","6500400","永和區"
"234052","KEA-2590","2018/06/18 13:29:43","新北市永和區復興街15號","121.515998333333","25.0129533333333","6500400","永和區"
"234012","KEA-2591","2018/06/18 13:29:44","新北市永和區中山路一段93號","121.511425","25.0107283333333","6500400","永和區"
"234060","AAD-866","2018/06/18 13:29:52","新北市永和區中正路520號","121.517235","25.0048833333333","6500400","永和區"
"234040","862-TW","2018/06/18 13:29:54","新北市永和區中和路519巷6號","121.51095","25.0030516666667","6500400","永和區"
"234048","863-TW","2018/06/18 13:29:42","新北市永和區仁愛路96號","121.512308333333","25.01315","6500400","永和區"
"234025","9371-KE","2018/06/18 13:29:43","新北市永和區中正路657號","121.51487","25.0101466666667","6500400","永和區"
"234010","9373-KE","2018/06/18 13:29:50","新北市永和區信義路25巷30弄9號","121.512326666667","25.0120433333333","6500400","永和區"
"248013","025-BX","2018/06/18 13:29:44","新北市五股區成泰路一段118號","121.435393333333","25.0736966666667","6501500","五股區"
"248015","026-BX","2018/06/18 13:29:51","新北市五股區凌雲路一段83巷15號","121.449133333333","25.1010316666667","6501500","五股區"
"248005","077-UY","2018/06/18 13:29:43","新北市五股區四維路44號","121.467345","25.0719366666667","6501500","五股區"
"248007","095-VK","2018/06/18 13:29:51","新北市五股區四維路185巷36號","121.464435","25.0778033333333","6501500","五股區"
"248017","225-UY","2018/06/18 13:29:43","新北市五股區天乙路112號","121.44714","25.1125183333333","6501500","五股區"
"248011","247-BX","2018/06/18 13:29:50","新北市五股區御成路146號","121.440933333333","25.094445","6501500","五股區"
"248009","272-BY","2018/06/18 13:29:51","新北市五股區明德路12巷16號","121.433291666667","25.07199","6501500","五股區"
"248003","677-BX","2018/06/18 13:29:48","新北市五股區六合街2號","121.432371666667","25.0882683333333","6501500","五股區"
"248001","678-BX","2018/06/18 13:29:33","新北市五股區西雲路116-6號","121.444826666667","25.0935166666667","6501500","五股區"
"234022","9380-KE","2018/06/18 13:29:48","新北市永和區竹林路91巷43弄2號","121.521285","25.0128366666667","6500400","永和區"
"234076","969-R7","2018/06/18 13:29:51","新北市永和區智光街26號","121.51793","24.99899","6500400","永和區"
"234072","AAC-211","2018/06/18 13:29:47","新北市永和區光復街60巷20弄2號","121.51774","25.0175333333333","6500400","永和區"
"234066","AAC-212","2018/06/18 13:29:37","新北市永和區永貞路370巷6號","121.510388333333","25.0070416666667","6500400","永和區"
"234001","AAC-295","2018/06/18 13:29:33","新北市永和區永平路152巷7號","121.511485","25.009035","6500400","永和區"
"244001","248-BX","2018/06/18 13:29:51","新北市林口區嘉寶里42號","121.333976666667","25.122095","6501700","林口區"
"243005","AAD-798","2018/06/18 13:29:52","新北市泰山區明志路三段206巷3號","121.423313333333","25.03792","6501600","泰山區"
"243004","646-TV","2018/06/18 13:29:53","新北市泰山區泰林路二段597號","121.421571666667","25.0634683333333","6501600","泰山區"
"231002","002-UM","2018/06/18 13:29:39","新北市新店區環河路82號","121.53705","24.9634883333333","6500600","新店區"
"231027","0293-UT","2018/06/18 13:29:39","新北市新店區環河路19巷27號","121.537725","24.9596283333333","6500600","新店區"
"231028","046-UY","2018/06/18 13:29:46","新北市新店區安華路28-1號","121.519576666667","24.9607433333333","6500600","新店區"
"231001","047-UY","2018/06/18 13:29:38","新北市新店區環河路29巷1號","121.536493333333","24.96127","6500600","新店區"
"231005","106-UY","2018/06/18 13:29:39","新北市新店區光明街129號","121.539278333333","24.9619233333333","6500600","新店區"
"231019","108-UY","2018/06/18 13:29:35","新北市新店區安康路一段3-1號","121.535661666667","24.9609883333333","6500600","新店區"
"231011","187-VK","2018/06/18 13:29:50","新北市新店區北新路二段98號","121.543033333333","24.973195","6500600","新店區"
"231010","188-VK","2018/06/18 13:29:39","新北市新店區中央路17號","121.533316666667","24.9782833333333","6500600","新店區"
"231023","KEA-2219","2018/06/18 13:29:40","新北市新店區新店路13號","121.540306666667","24.95286","6500600","新店區"
"231026","256-BX","2018/06/18 13:29:43","新北市新店區環河路29巷1號","121.537166666667","24.9613666666667","6500600","新店區"
"231003","268-BY","2018/06/18 13:29:52","新北市新店區北新路一段309號","121.541553333333","24.9678416666667","6500600","新店區"
"231018","278-BY","2018/06/18 13:29:46","新北市新店區中央路17號","121.533333333333","24.9782366666667","6500600","新店區"
"231014","AAD-862","2018/06/18 13:29:45","新北市新店區新烏路一段11巷21號","121.54799","24.95087","6500600","新店區"
"231038","3712-VJ","2018/06/18 13:29:47","新北市新店區安華路28-1號","121.519191666667","24.9606266666667","6500600","新店區"
"231037","4716-K9","2018/06/18 13:29:36","新北市新店區安康路二段382號","121.500418333333","24.9571166666667","6500600","新店區"
"231025","4715-K9","2018/06/18 13:29:47","新北市新店區中央六街56號","121.527883333333","24.9757133333333","6500600","新店區"
"231036","512-UM","2018/06/18 13:29:38","新北市新店區建業路47-1號","121.478655","24.9550183333333","6500600","新店區"
"231013","513-UM","2018/06/18 13:29:50","新北市新店區中央路167-3號","121.533665","24.97025","6500600","新店區"
"231030","619-UM","2018/06/18 13:29:35","新北市新店區安一路一段1-1號","121.519666666667","24.9610916666667","6500600","新店區"
"231034","641-BX","2018/06/18 13:29:51","新北市新店區安華路1-1號","121.519516666667","24.96049","6500600","新店區"
"231035","719-UM","2018/06/18 13:29:44","新北市新店區安華路8號","121.519756666667","24.96245","6500600","新店區"
"231031","720-UM","2018/06/18 13:29:35","新北市新店區安豐路58號","121.498816666667","24.9541716666667","6500600","新店區"
"231029","897-TW","2018/06/18 13:29:52","新北市新店區安豐路48號","121.500278333333","24.9541066666667","6500600","新店區"
"231006","898-TW","2018/06/18 13:29:50","新北市新店區安康路一段3-1號","121.534258333333","24.96064","6500600","新店區"
"231004","899-TW","2018/06/18 13:29:36","新北市新店區安康路一段94-2號","121.52778","24.962085","6500600","新店區"
"231024","AKT-0513","2018/06/18 13:29:29","新北市新店區三民路21巷1號","121.539248333333","24.9717433333333","6500600","新店區"
"235028","005-UY","2018/06/18 13:29:40","新北市中和區連城路139巷40號","121.496566666667","24.9977","6500300","中和區"
"235027","006-UY","2018/06/18 13:29:43","新北市中和區連城路347巷2弄1號","121.488118333333","24.9958333333333","6500300","中和區"
"235020","096-UM","2018/06/18 13:29:48","新北市中和區新民街128號","121.479911666667","25.0081383333333","6500300","中和區"
"235003","097-UM","2018/06/18 13:29:36","新北市中和區景平路172號","121.516998333333","24.9925766666667","6500300","中和區"
"235029","098-UM","2018/06/18 13:29:48","新北市中和區莊敬路49巷25號","121.501461666667","25.0059483333333","6500300","中和區"
"235004","150-BY","2018/06/18 13:29:45","新北市中和區安平路59號","121.509448333333","24.9950983333333","6500300","中和區"
"235058","151-BY","2018/06/18 13:29:48","新北市中和區圓通路369巷66號","121.490488333333","24.9824616666667","6500300","中和區"
"235019","183-VK","2018/06/18 13:29:51","新北市中和區莒光路82號","121.472181666667","25.00274","6500300","中和區"
"235002","185-VK","2018/06/18 13:29:54","新北市中和區秀朗路三段128巷19弄8號","121.523435","24.9933433333333","6500300","中和區"
"235013","186-VK","2018/06/18 13:29:53","新北市中和區景安路123號","121.505735","24.9962616666667","6500300","中和區"
"235031","255-BX","2018/06/18 13:29:47","新北市中和區新生街220巷15弄11-2號","121.482928333333","24.997925","6500300","中和區"
"235008","293-VK","2018/06/18 13:29:42","新北市中和區復興路301巷2弄1號","121.50149","24.9899233333333","6500300","中和區"
"235007","352-BY","2018/06/18 13:29:45","新北市中和區景平路281號","121.50751","24.993045","6500300","中和區"
"235006","KEA-2878","2018/06/18 13:29:37","新北市中和區大仁街20巷25弄20號","121.51932","24.9935866666667","6500300","中和區"
"235014","4979-A6","2018/06/18 13:29:48","新北市中和區興南路一段1號","121.511606666667","24.9912383333333","6500300","中和區"
"235033","4980-A6","2018/06/18 13:29:50","新北市中和區連城路127巷13號","121.496613333333","24.9984033333333","6500300","中和區"
"235034","558-UM","2018/06/18 13:29:34","新北市中和區南華路62號","121.504595","24.99717","6500300","中和區"
"235009","565-BX","2018/06/18 13:29:53","新北市中和區南山路236巷24弄21號","121.504876666667","24.988955","6500300","中和區"
"235018","640-BX","2018/06/18 13:29:49","新北市中和區民享街87號","121.474301666667","25.0015783333333","6500300","中和區"
"235024","647-TV","2018/06/18 13:29:36","新北市中和區員山路176號","121.48129","25.0000883333333","6500300","中和區"
"235011","732-UM","2018/06/18 13:29:43","新北市中和區南山路300號","121.507885","24.987135","6500300","中和區"
"235035","783-BX","2018/06/18 13:29:38","新北市中和區中山路二段486號","121.487681666667","25.0051833333333","6500300","中和區"
"235026","800-TS","2018/06/18 13:29:49","新北市中和區景平路720號","121.496813333333","25.0029716666667","6500300","中和區"
"235021","801-TS","2018/06/18 13:29:35","新北市中和區民安街41號","121.479948333333","25.00029","6500300","中和區"
"235005","802-TS","2018/06/18 13:29:50","新北市中和區中和路318號","121.509446666667","25.0006166666667","6500300","中和區"
"235016","805-TS","2018/06/18 13:29:43","新北市中和區興南路二段104號","121.504851666667","24.984005","6500300","中和區"
"235012","896-TW","2018/06/18 13:29:31","新北市中和區員山路36巷16-8號","121.485418333333","24.9922966666667","6500300","中和區"
"235017","900-TW","2018/06/18 13:29:32","新北市中和區中正路637巷52弄1號","121.485471666667","24.9934966666667","6500300","中和區"
"235030","911-UM","2018/06/18 13:29:47","新北市中和區中山路二段120號","121.502673333333","25.0038566666667","6500300","中和區"
"235015","157-BY","2018/06/18 13:29:53","新北市中和區興南路二段142巷25弄34號","121.502536666667","24.98439","6500300","中和區"
"235001","AAC-213","2018/06/18 13:29:35","新北市中和區景德街95號","121.515828333333","24.99134","6500300","中和區"
"235023","AAC-215","2018/06/18 13:29:41","新北市中和區員山路36巷16-3號","121.485158333333","24.9912433333333","6500300","中和區"
"220013","072-UY","2018/06/18 13:29:41","新北市板橋區華興街91巷4號","121.456471666667","25.0051366666667","6500100","板橋區"
"220034","073-UY","2018/06/18 13:29:38","新北市板橋區華東街1-10號","121.448695","24.9950066666667","6500100","板橋區"
"220017","AAD-861","2018/06/18 13:29:45","新北市板橋區華東街1-10號","121.44872","24.994985","6500100","板橋區"
"247007","056-VK","2018/06/18 13:29:46","新北市五股區中興路四段17號","121.440413333333","25.0822466666667","6501400","蘆洲區"
"247019","001-UY","2018/06/18 13:29:38","新北市五股區中興路三段163號","121.448995","25.0807816666667","6501400","蘆洲區"
"253003","6232-TK","2018/06/18 13:29:39","新北市石門區內石門45-1號","121.572686666667","25.264585","6502200","石門區"
"253001","6251-TK","2018/06/18 13:29:53","新北市石門區下員坑21-1號","121.511355","25.2768716666667","6502200","石門區"
"253002","637-UY","2018/06/18 13:29:38","新北市石門區九芎林6-1號","121.561138333333","25.2669733333333","6502200","石門區"
"253004","8270-PC","2018/06/18 13:28:26","新北市石門區竹子湖11號","121.618216666667","25.25738","6502200","石門區"
"207002","749-BX","2018/06/18 13:29:46","新北市萬里區崁腳里崁腳路166號","121.6451","25.1558133333333","6502800","萬里區"
"252005","073-UM","2018/06/18 13:29:42","新北市三芝區圓山里八連溪頭3號","121.524693333333","25.2228283333333","6502100","三芝區"
"207001","662-BX","2018/06/18 13:29:40","新北市萬里區野柳里八斗60號","121.66453","25.2056533333333","6502800","萬里區"
"236074","166-UM","2018/06/18 13:29:45","新北市土城區城林路6巷80號","121.438578333333","24.97971","6501300","土城區"
"236005","498-BY","2018/06/18 13:29:51","新北市土城區慶祥街58號","121.436576666667","24.9740083333333","6501300","土城區"
"221032","280-BY","2018/06/18 13:29:47","新北市汐止區龍安路28巷12號","121.654675","25.0644216666667","6501100","汐止區"
"220027","145-BY","2018/06/18 13:29:41","新北市板橋區華東街1-8號","121.447925","24.9948233333333","6500100","板橋區"
"220028","200-UY","2018/06/18 13:29:41","新北市板橋區華東街1-9號","121.448133333333","24.9948683333333","6500100","板橋區"
"220030","610-BX","2018/06/18 13:29:36","新北市板橋區華東街1-9號","121.448246666667","24.994925","6500100","板橋區"
"220019","283-VK","2018/06/18 13:29:32","新北市板橋區華東街1-9號","121.448066666667","24.9948866666667","6500100","板橋區"
"220031","286-VK","2018/06/18 13:29:36","新北市板橋區華東街1-10號","121.448316666667","24.995085","6500100","板橋區"
"220010","295-UM","2018/06/18 13:29:47","新北市板橋區民生路二段120號","121.47046","25.019675","6500100","板橋區"
"220032","296-UM","2018/06/18 13:29:40","新北市板橋區華東街1-9號","121.448143333333","24.9949533333333","6500100","板橋區"
"220023","303-R5","2018/06/18 13:29:37","新北市板橋區華東街1-10號","121.448268333333","24.9949516666667","6500100","板橋區"
"220012","486-VK","2018/06/18 13:29:32","新北市板橋區南雅南路二段116號","121.452473333333","25.0003333333333","6500100","板橋區"
"220104","560-BX","2018/06/18 13:29:34","新北市板橋區南雅東路1號","121.455525","25.005485","6500100","板橋區"
"220025","687-BX","2018/06/18 13:29:45","新北市板橋區篤行路一段48號","121.431891666667","24.9936816666667","6500100","板橋區"
"220014","829-TW","2018/06/18 13:29:48","新北市板橋區民生路二段120號","121.470328333333","25.0199316666667","6500100","板橋區"
"220022","895-R6","2018/06/18 13:29:43","新北市板橋區華東街1-9號","121.448188333333","24.9949433333333","6500100","板橋區"
"220021","985-R7","2018/06/18 13:29:50","新北市板橋區華東街1-10號","121.448335","24.9949566666667","6500100","板橋區"
"235032","KEA-2873","2018/06/18 13:29:32","新北市中和區中正路271-5號","121.495856666667","24.9933266666667","6500300","中和區"
"235025","KEA-2875","2018/06/18 13:29:26","新北市中和區民享街93巷8號","121.475521666667","25.000695","6500300","中和區"
