"lineid","car","time","location","longitude","latitude","cityid","cityname"
"234044","148-BY","2018/06/18 13:39:51","新北市永和區秀朗路二段68號","121.522816666667","25.0016166666667","6500400","永和區"
"234005","207-UY","2018/06/18 13:39:48","新北市永和區永和路一段104號","121.513436666667","25.0071816666667","6500400","永和區"
"234078","298-R6","2018/06/18 13:39:52","新北市永和區國中路104巷8弄23號","121.525485","25.0062066666667","6500400","永和區"
"234036","336-UY","2018/06/18 13:39:52","新北市永和區民樂街29號","121.527788333333","25.0015033333333","6500400","永和區"
"234062","337-UY","2018/06/18 13:39:46","新北市永和區秀朗路二段24巷45號","121.52","25.0018966666667","6500400","永和區"
"234084","338-UY","2018/06/18 13:39:41","新北市永和區林森路41巷31號","121.526195","25.0042466666667","6500400","永和區"
"234068","552-UM","2018/06/18 13:39:51","新北市永和區永和路二段216號","121.515648333333","25.0140416666667","6500400","永和區"
"234015","745-BX","2018/06/18 13:39:49","新北市永和區永和路二段425巷58號","121.51384","25.0174766666667","6500400","永和區"
"234028","746-BX","2018/06/18 13:39:43","新北市永和區民權路29巷19號","121.52108","24.9980766666667","6500400","永和區"
"234052","KEA-2590","2018/06/18 13:39:42","新北市永和區竹林路39巷26號","121.519083333333","25.0145833333333","6500400","永和區"
"234012","KEA-2591","2018/06/18 13:39:44","新北市永和區永平路226巷26號","121.509105","25.01129","6500400","永和區"
"234060","AAD-866","2018/06/18 13:39:52","新北市永和區中正路446號","121.51744","25.0027833333333","6500400","永和區"
"234040","862-TW","2018/06/18 13:39:37","新北市永和區中和路603號","121.512425","25.004215","6500400","永和區"
"234048","863-TW","2018/06/18 13:39:42","新北市永和區保福路二段157號","121.50944","25.01468","6500400","永和區"
"234025","9371-KE","2018/06/18 13:39:43","新北市永和區和平街95巷19號","121.51116","25.0092","6500400","永和區"
"234010","9373-KE","2018/06/18 13:39:50","新北市永和區保福路二段23巷19號","121.510083333333","25.0111783333333","6500400","永和區"
"248013","025-BX","2018/06/18 13:39:44","新北市五股區中興路四段70號","121.436961666667","25.0833966666667","6501500","五股區"
"248015","026-BX","2018/06/18 13:39:51","新北市五股區凌雲路一段149巷13-1號","121.448596666667","25.1008816666667","6501500","五股區"
"248005","077-UY","2018/06/18 13:39:43","新北市五股區中興路一段32號","121.468671666667","25.0724466666667","6501500","五股區"
"248007","095-VK","2018/06/18 13:39:31","新北市五股區中興路一段151巷9號","121.465226666667","25.0727366666667","6501500","五股區"
"248017","225-UY","2018/06/18 13:38:03","新北市五股區孝義路102號","121.445276666667","25.119685","6501500","五股區"
"248011","247-BX","2018/06/18 13:39:50","新北市五股區御史路52巷2號","121.442046666667","25.0935283333333","6501500","五股區"
"248009","272-BY","2018/06/18 13:39:51","新北市五股區水碓七路168號","121.430866666667","25.0739666666667","6501500","五股區"
"248003","677-BX","2018/06/18 13:39:49","新北市五股區民義路一段236-5號","121.427313333333","25.0913433333333","6501500","五股區"
"248001","678-BX","2018/06/18 13:39:33","新北市五股區西雲路199號","121.448056666667","25.095995","6501500","五股區"
"234022","9380-KE","2018/06/18 13:39:48","新北市永和區保生路55-1號","121.504753333333","25.0109783333333","6500400","永和區"
"234076","969-R7","2018/06/18 13:39:52","新北市永和區民權路46號","121.520211666667","24.9985916666667","6500400","永和區"
"234072","AAC-211","2018/06/18 13:39:52","新北市永和區竹林路213巷6號","121.521223333333","25.0088066666667","6500400","永和區"
"234066","AAC-212","2018/06/18 13:39:46","新北市永和區中山路一段191巷7弄5號","121.509448333333","25.0085383333333","6500400","永和區"
"234001","AAC-295","2018/06/18 13:39:53","新北市永和區秀朗路一段42號","121.514571666667","25.0065966666667","6500400","永和區"
"244001","248-BX","2018/06/18 13:39:51","新北市林口區瑞平里7鄰52號","121.34161","25.1242416666667","6501700","林口區"
"243005","AAD-798","2018/06/18 13:29:56","新北市泰山區明志路三段206巷3號","121.423313333333","25.03792","6501600","泰山區"
"243002","KEA-2216","2018/06/18 13:39:37","新北市泰山區黎明路31號","121.421603333333","25.0606916666667","6501600","泰山區"
"243004","646-TV","2018/06/18 13:39:33","新北市泰山區泰林路二段47號","121.435363333333","25.0573383333333","6501600","泰山區"
"231002","002-UM","2018/06/18 13:39:39","新北市新店區溪園路397號","121.523661666667","24.97769","6500600","新店區"
"231027","0293-UT","2018/06/18 13:39:39","新北市新店區國校路68號","121.538613333333","24.9531233333333","6500600","新店區"
"231028","046-UY","2018/06/18 13:39:46","新北市新店區吉安街2號","121.51738","24.9655966666667","6500600","新店區"
"231001","047-UY","2018/06/18 13:39:38","新北市新店區中正路397號","121.53457","24.9773033333333","6500600","新店區"
"231005","106-UY","2018/06/18 13:39:39","新北市新店區寶中路72號","121.547871666667","24.9806133333333","6500600","新店區"
"231019","108-UY","2018/06/18 13:39:55","新北市新店區新烏路一段171號","121.545003333333","24.934935","6500600","新店區"
"231011","187-VK","2018/06/18 13:39:50","新北市新店區德正街29號","121.544635","24.9714066666667","6500600","新店區"
"231010","188-VK","2018/06/18 13:39:49","新北市新店區平等街46巷15號","121.535733333333","24.9734566666667","6500600","新店區"
"231023","KEA-2219","2018/06/18 13:39:40","新北市新店區新店路104號","121.537165","24.9545633333333","6500600","新店區"
"231026","256-BX","2018/06/18 13:39:44","新北市新店區中正路348號","121.536226666667","24.9752733333333","6500600","新店區"
"231003","268-BY","2018/06/18 13:39:52","新北市新店區中興路一段282號","121.545755","24.96837","6500600","新店區"
"231018","278-BY","2018/06/18 13:39:46","新北市新店區百忍街23號","121.533953333333","24.9757233333333","6500600","新店區"
"231014","AAD-862","2018/06/18 13:39:45","新北市新店區竹林路2巷27弄1號","121.550238333333","24.950915","6500600","新店區"
"231038","3712-VJ","2018/06/18 13:39:47","新北市新店區安華路30巷1號","121.519555","24.9592466666667","6500600","新店區"
"231037","4716-K9","2018/06/18 13:39:17","新北市新店區薏仁坑路57號","121.490676666667","24.9639266666667","6500600","新店區"
"231025","4715-K9","2018/06/18 13:39:47","新北市新店區中央六街56號","121.527881666667","24.9757366666667","6500600","新店區"
"231036","512-UM","2018/06/18 13:39:38","新北市新店區安祥路142號","121.474251666667","24.9554816666667","6500600","新店區"
"231013","513-UM","2018/06/18 13:39:50","新北市新店區中正路454-5號","121.534463333333","24.97906","6500600","新店區"
"231030","619-UM","2018/06/18 13:39:35","新北市新店區安康路一段231號","121.525395","24.9631483333333","6500600","新店區"
"231034","641-BX","2018/06/18 13:39:51","新北市新店區車子路121號","121.505223333333","24.9503216666667","6500600","新店區"
"231035","719-UM","2018/06/18 13:39:44","新北市新店區安忠路56巷6號","121.51288","24.9594233333333","6500600","新店區"
"231031","720-UM","2018/06/18 13:39:55","新北市新店區莒光路36號","121.52339","24.95893","6500600","新店區"
"231029","897-TW","2018/06/18 13:39:32","新北市新店區安康路二段196-2號","121.510886666667","24.959835","6500600","新店區"
"231006","898-TW","2018/06/18 13:39:50","新北市新店區北宜路一段122號","121.539325","24.955095","6500600","新店區"
"231004","899-TW","2018/06/18 13:39:36","新北市新店區北新路二段12號","121.542815","24.9712183333333","6500600","新店區"
"231024","AKT-0513","2018/06/18 13:39:49","新北市新店區中華路47巷2弄2號","121.539755","24.9675883333333","6500600","新店區"
"235028","005-UY","2018/06/18 13:39:40","新北市中和區連城路75巷3弄5號","121.497966666667","24.9995983333333","6500300","中和區"
"235027","006-UY","2018/06/18 13:39:43","新北市中和區連城路365號","121.487488333333","24.9962533333333","6500300","中和區"
"235020","096-UM","2018/06/18 13:39:48","新北市中和區新民街94巷8號","121.481328333333","25.0085966666667","6500300","中和區"
"235003","097-UM","2018/06/18 13:39:36","新北市中和區大勇街25巷15弄21-3號","121.515181666667","24.9936033333333","6500300","中和區"
"235029","098-UM","2018/06/18 13:39:48","新北市中和區莊敬路33巷44號","121.500325","25.0068983333333","6500300","中和區"
"235004","150-BY","2018/06/18 13:39:45","新北市中和區安平路59號","121.509693333333","24.9951483333333","6500300","中和區"
"235058","151-BY","2018/06/18 13:39:48","新北市中和區員山路71號","121.48082","24.9938583333333","6500300","中和區"
"235019","183-VK","2018/06/18 13:39:51","新北市中和區國光街102巷2號","121.470268333333","25.000385","6500300","中和區"
"235002","185-VK","2018/06/18 13:39:34","新北市中和區立人街14巷4號","121.519445","24.9949","6500300","中和區"
"235013","186-VK","2018/06/18 13:39:32","新北市中和區明義街6號","121.505038333333","24.994975","6500300","中和區"
"235031","255-BX","2018/06/18 13:39:47","新北市中和區新生街220巷4號","121.482953333333","24.9986283333333","6500300","中和區"
"235008","293-VK","2018/06/18 13:39:42","新北市中和區復興路265號","121.502806666667","24.9902483333333","6500300","中和區"
"235007","352-BY","2018/06/18 13:39:45","新北市中和區景平路111巷2號","121.516631666667","24.9918016666667","6500300","中和區"
"235006","KEA-2878","2018/06/18 13:39:37","新北市中和區自立路56巷13號","121.522931666667","24.99168","6500300","中和區"
"235014","4979-A6","2018/06/18 13:39:48","新北市中和區忠孝街119號","121.512428333333","24.988055","6500300","中和區"
"235033","4980-A6","2018/06/18 13:39:49","新北市中和區連城路99巷1號","121.496786666667","24.9995333333333","6500300","中和區"
"235034","558-UM","2018/06/18 13:39:34","新北市中和區景平路590號","121.501078333333","24.9960283333333","6500300","中和區"
"235009","565-BX","2018/06/18 13:39:53","新北市中和區南山路236巷63弄17號","121.504316666667","24.9878033333333","6500300","中和區"
"235018","640-BX","2018/06/18 13:39:49","新北市中和區莒光路95號","121.472463333333","25.0030933333333","6500300","中和區"
"235024","647-TV","2018/06/18 13:39:36","新北市中和區中山路二段505號","121.482283333333","25.0050283333333","6500300","中和區"
"235011","732-UM","2018/06/18 13:39:43","新北市中和區南山路320巷3號","121.507671666667","24.98654","6500300","中和區"
"235035","783-BX","2018/06/18 13:39:38","新北市中和區立德街98巷79號","121.488281666667","25.009015","6500300","中和區"
"235026","800-TS","2018/06/18 13:39:49","新北市中和區中山路二段312巷33弄15號","121.49484","25.0037766666667","6500300","中和區"
"235021","801-TS","2018/06/18 13:39:35","新北市中和區員山路327巷52號","121.480238333333","25.0018133333333","6500300","中和區"
"235005","802-TS","2018/06/18 13:39:50","新北市中和區中和路400巷27號","121.511765","25.0022166666667","6500300","中和區"
"235016","805-TS","2018/06/18 13:39:38","新北市中和區興南路三段52-4號","121.4938","24.9754983333333","6500300","中和區"
"235012","896-TW","2018/06/18 13:39:50","新北市中和區中正路81號","121.500701666667","24.9934083333333","6500300","中和區"
"235017","900-TW","2018/06/18 13:39:52","新北市土城區延壽路118-4號","121.469095","24.994355","6500300","中和區"
"235030","911-UM","2018/06/18 13:39:47","新北市中和區水源路34巷2號","121.504743333333","25.0035066666667","6500300","中和區"
"235015","157-BY","2018/06/18 13:39:53","新北市中和區華新街143巷106弄30號","121.50612","24.9786933333333","6500300","中和區"
"235001","AAC-213","2018/06/18 13:39:35","新北市中和區景德街52號","121.517568333333","24.9914383333333","6500300","中和區"
"235023","AAC-215","2018/06/18 13:39:41","新北市中和區中正路637巷52弄1號","121.485515","24.9935","6500300","中和區"
"220013","072-UY","2018/06/18 13:39:41","新北市板橋區漢生東路282號","121.471225","25.0089933333333","6500100","板橋區"
"220034","073-UY","2018/06/18 13:39:38","新北市板橋區南雅西路二段123巷1號","121.45176","25.01063","6500100","板橋區"
"220017","AAD-861","2018/06/18 13:39:45","新北市板橋區華東街1-10號","121.448701666667","24.994985","6500100","板橋區"
"220039","120-SR","2018/06/18 13:39:39","新北市板橋區民生路二段120號","121.470315","25.0198916666667","6500100","板橋區"
"247007","056-VK","2018/06/18 13:39:45","新北市蘆洲區國道路二段101號","121.471108333333","25.0748166666667","6501400","蘆洲區"
"253003","6232-TK","2018/06/18 13:39:39","新北市石門區內石門21-1號","121.57154","25.2735","6502200","石門區"
"253001","6251-TK","2018/06/18 13:39:53","新北市石門區下員坑16-7號","121.507926666667","25.27948","6502200","石門區"
"253002","637-UY","2018/06/18 13:39:38","新北市石門區九芎林32號","121.56533","25.25861","6502200","石門區"
"253004","8270-PC","2018/06/18 13:39:39","新北市石門區阿里荖60-1號","121.607693333333","25.2700283333333","6502200","石門區"
"207002","749-BX","2018/06/18 13:39:46","新北市萬里區崁腳里崁腳路166號","121.645108333333","25.1558416666667","6502800","萬里區"
"252005","073-UM","2018/06/18 13:39:22","新北市三芝區圓山里內柑宅25號","121.538818333333","25.21892","6502100","三芝區"
"207001","662-BX","2018/06/18 13:39:40","新北市萬里區磺潭里公館崙30號","121.6351","25.2112233333333","6502800","萬里區"
"236064","105-UM","2018/06/18 13:39:35","新北市土城區城林路6巷80號","121.438595","24.9796716666667","6501300","土城區"
"236040","107-UM","2018/06/18 13:39:35","新北市土城區城林路6巷80號","121.438531666667","24.97969","6501300","土城區"
"236074","166-UM","2018/06/18 13:39:45","新北市土城區城林路6巷80號","121.438591666667","24.9797083333333","6501300","土城區"
"236016","401-BY","2018/06/18 13:39:40","新北市土城區城林路6巷80號","121.43841","24.979825","6501300","土城區"
"236005","498-BY","2018/06/18 13:39:51","新北市土城區中央路二段69號","121.44243","24.97873","6501300","土城區"
"221032","280-BY","2018/06/18 13:39:47","新北市汐止區忠孝東路9號","121.658641666667","25.0660766666667","6501100","汐止區"
"220027","145-BY","2018/06/18 13:39:41","新北市板橋區南雅西路二段180巷15號","121.45274","25.01394","6500100","板橋區"
"220028","200-UY","2018/06/18 13:39:41","新北市板橋區大觀路二段265巷76弄33-1號","121.441295","24.9967283333333","6500100","板橋區"
"220030","610-BX","2018/06/18 13:39:35","新北市板橋區篤行路一段33號","121.432011666667","24.9943083333333","6500100","板橋區"
"220004","276-BY","2018/06/18 13:39:35","新北市板橋區四川路二段140巷20號","121.44902","24.993475","6500100","板橋區"
"220020","277-BY","2018/06/18 13:39:50","新北市板橋區板城路407號","121.446828333333","24.995555","6500100","板橋區"
"220019","283-VK","2018/06/18 13:39:52","新北市板橋區四川路二段140巷2號","121.449983333333","24.9931316666667","6500100","板橋區"
"220043","285-UM","2018/06/18 13:39:46","新北市板橋區民生路二段161巷1號","121.469951666667","25.0197483333333","6500100","板橋區"
"220001","285-VK","2018/06/18 13:39:43","新北市板橋區民生路二段161巷1號","121.47023","25.0198766666667","6500100","板橋區"
"220031","286-VK","2018/06/18 13:39:36","新北市板橋區大觀路二段101巷23號","121.447035","25.0013566666667","6500100","板橋區"
"220029","287-VK","2018/06/18 13:39:33","新北市板橋區板城路421號","121.447988333333","24.9963266666667","6500100","板橋區"
"220010","295-UM","2018/06/18 13:39:47","新北市板橋區民生路二段120號","121.470486666667","25.0197516666667","6500100","板橋區"
"220032","296-UM","2018/06/18 13:39:40","新北市板橋區大觀路二段251號","121.443343333333","24.99919","6500100","板橋區"
"220023","303-R5","2018/06/18 13:39:36","新北市板橋區華東街328號","121.452786666667","25.0033516666667","6500100","板橋區"
"220047","317-R6","2018/06/18 13:39:41","新北市板橋區民生路二段120號","121.470371666667","25.0196816666667","6500100","板橋區"
"220012","486-VK","2018/06/18 13:39:52","新北市板橋區民生路二段36-1號","121.472113333333","25.0167816666667","6500100","板橋區"
"220104","560-BX","2018/06/18 13:39:54","新北市板橋區南雅西路二段145巷10號","121.451605","25.011905","6500100","板橋區"
"220052","561-BX","2018/06/18 13:39:46","新北市板橋區民生路二段161巷5號","121.470161666667","25.0197166666667","6500100","板橋區"
"220011","609-BX","2018/06/18 13:39:50","新北市板橋區民生路二段161巷1號","121.469891666667","25.020085","6500100","板橋區"
"220005","686-BX","2018/06/18 13:39:41","新北市板橋區華東街1-9號","121.448238333333","24.9948833333333","6500100","板橋區"
"220025","687-BX","2018/06/18 13:39:46","新北市板橋區篤行路一段28號","121.431473333333","24.9942866666667","6500100","板橋區"
"220002","741-BX","2018/06/18 13:39:36","新北市板橋區華東街1-9號","121.448111666667","24.99491","6500100","板橋區"
"220014","829-TW","2018/06/18 13:39:48","新北市板橋區民生路二段120號","121.470325","25.0198566666667","6500100","板橋區"
"220022","895-R6","2018/06/18 13:39:43","新北市板橋區南雅南路一段51號","121.456028333333","25.00611","6500100","板橋區"
"220021","985-R7","2018/06/18 13:39:50","新北市板橋區南雅南路二段3號","121.454463333333","25.0030716666667","6500100","板橋區"
"220018","AAC-253","2018/06/18 13:39:42","新北市板橋區華東街1-9號","121.44827","24.99487","6500100","板橋區"
"235032","KEA-2873","2018/06/18 13:39:32","新北市中和區中正路211巷36弄3號","121.497526666667","24.9927333333333","6500300","中和區"
"235025","KEA-2875","2018/06/18 13:39:27","新北市中和區民享街114巷17號","121.473875","24.9994166666667","6500300","中和區"
