"lineid","car","time","location","longitude","latitude","cityid","cityname"
"234062","337-UY","2018/06/18 14:39:46","新北市永和區光復街13號","121.51652","25.0172633333333","6500400","永和區"
"234028","746-BX","2018/06/18 14:39:43","新北市永和區民權路55號","121.519961666667","24.9969333333333","6500400","永和區"
"234052","KEA-2590","2018/06/18 14:39:42","新北市永和區博愛街47巷6號","121.519435","25.01628","6500400","永和區"
"234040","862-TW","2018/06/18 14:39:37","新北市永和區永和路一段115-1號","121.513791666667","25.0081466666667","6500400","永和區"
"234048","863-TW","2018/06/18 14:39:42","新北市永和區保安路73號","121.508691666667","25.01498","6500400","永和區"
"234025","9371-KE","2018/06/18 14:39:43","新北市永和區中和路515號","121.51094","25.0025616666667","6500400","永和區"
"248013","025-BX","2018/06/18 14:39:33","新北市五股區五福路52巷11弄4號","121.434046666667","25.09002","6501500","五股區"
"248015","026-BX","2018/06/18 14:39:51","新北市五股區成泰路四段22巷43號","121.456041666667","25.1089033333333","6501500","五股區"
"248007","095-VK","2018/06/18 14:39:51","新北市五股區四維路173號","121.46794","25.0750383333333","6501500","五股區"
"248017","225-UY","2018/06/18 14:39:43","新北市五股區中直路32-13號","121.42327","25.1126366666667","6501500","五股區"
"248011","247-BX","2018/06/18 14:39:50","新北市五股區民義路一段26號","121.437191666667","25.083735","6501500","五股區"
"248009","272-BY","2018/06/18 14:39:51","新北市五股區登林路74-2號","121.430913333333","25.0693683333333","6501500","五股區"
"248003","677-BX","2018/06/18 14:39:48","新北市五股區成泰路二段182號","121.43846","25.08439","6501500","五股區"
"248001","678-BX","2018/06/18 14:39:54","新北市五股區成泰路三段289號","121.447263333333","25.0943633333333","6501500","五股區"
"234022","9380-KE","2018/06/18 14:39:48","新北市永和區竹林路14號","121.5164","25.0148733333333","6500400","永和區"
"234072","AAC-211","2018/06/18 14:39:51","新北市永和區環河東路二段54號","121.523276666667","25.01162","6500400","永和區"
"234001","AAC-295","2018/06/18 14:39:53","新北市永和區中正路549號","121.516821666667","25.0081083333333","6500400","永和區"
"243005","AAD-798","2018/06/18 14:39:42","新北市泰山區應化街13號","121.423823333333","25.04364","6501600","泰山區"
"243001","297-R6","2018/06/18 14:39:51","新北市泰山區明志路一段122巷21號","121.432835","25.0635916666667","6501600","泰山區"
"243008","380-SR","2018/06/18 14:39:45","新北市泰山區貴鳳街2號","121.421166666667","25.0313733333333","6501600","泰山區"
"243007","421-VK","2018/06/18 14:39:46","新北市泰山區明志路二段228號","121.427123333333","25.048215","6501600","泰山區"
"243003","KEA-2215","2018/06/18 14:39:47","新北市泰山區明志路三段209號","121.42401","25.0383666666667","6501600","泰山區"
"243002","KEA-2216","2018/06/18 14:39:37","新北市泰山區明志路二段136巷48號","121.42611","25.0519766666667","6501600","泰山區"
"243004","646-TV","2018/06/18 14:39:53","新北市泰山區明志路一段293號","121.43187","25.0596","6501600","泰山區"
"243006","680-BX","2018/06/18 14:39:49","新北市泰山區明志路一段180號","121.43308","25.0623683333333","6501600","泰山區"
"231002","002-UM","2018/06/18 14:39:39","新北市新店區中正路468號","121.534","24.979485","6500600","新店區"
"231027","0293-UT","2018/06/18 14:39:39","新北市新店區中正路328巷3號","121.536945","24.9753583333333","6500600","新店區"
"231028","046-UY","2018/06/18 14:39:46","新北市新店區安成街34-1號","121.51007","24.961115","6500600","新店區"
"231001","047-UY","2018/06/18 14:39:38","新北市新店區中正路74號","121.543923333333","24.9702333333333","6500600","新店區"
"231005","106-UY","2018/06/18 14:39:39","新北市新店區復興路44-2號","121.538561666667","24.9867366666667","6500600","新店區"
"231019","108-UY","2018/06/18 14:39:35","新北市新店區桂山路81巷1號","121.567395","24.8992133333333","6500600","新店區"
"231011","187-VK","2018/06/18 14:39:50","新北市新店區寶宏路3號","121.549166666667","24.9769133333333","6500600","新店區"
"231023","KEA-2219","2018/06/18 14:39:40","新北市新店區檳榔路23號","121.541615","24.9637783333333","6500600","新店區"
"231003","268-BY","2018/06/18 14:39:52","新北市新店區中興路一段292號","121.545885","24.96912","6500600","新店區"
"231018","278-BY","2018/06/18 14:39:46","新北市新店區中央路226號","121.5294","24.9728883333333","6500600","新店區"
"231014","AAD-862","2018/06/18 14:39:45","新北市新店區北宜路三段221號","121.59238","24.9532316666667","6500600","新店區"
"231038","3712-VJ","2018/06/18 14:39:47","新北市新店區安華路28-1號","121.519598333333","24.9609666666667","6500600","新店區"
"231037","4716-K9","2018/06/18 14:39:36","新北市新店區安德街148巷37號","121.507451666667","24.9612583333333","6500600","新店區"
"231036","512-UM","2018/06/18 14:39:38","新北市新店區安祥路109巷151弄8號","121.478408333333","24.9588816666667","6500600","新店區"
"231013","513-UM","2018/06/18 14:39:50","新北市新店區明德路30號","121.541491666667","24.9777966666667","6500600","新店區"
"231030","619-UM","2018/06/18 14:39:35","新北市新店區安民街179號","121.516763333333","24.9706666666667","6500600","新店區"
"231034","641-BX","2018/06/18 14:39:51","新北市新店區黎明路51巷2號","121.501995","24.9490183333333","6500600","新店區"
"231039","718-UY","2018/06/18 14:39:47","新北市新店區寶橋路78巷3號","121.546898333333","24.9751566666667","6500600","新店區"
"231035","719-UM","2018/06/18 14:39:44","新北市新店區安民街3巷6弄2號","121.514825","24.9642533333333","6500600","新店區"
"231029","897-TW","2018/06/18 14:39:52","新北市新店區錦秀路1-3號","121.479108333333","24.9455133333333","6500600","新店區"
"231006","898-TW","2018/06/18 14:39:50","新北市新店區北宜路二段80巷2弄14號","121.552005","24.9531983333333","6500600","新店區"
"231004","899-TW","2018/06/18 14:39:36","新北市新店區中正路293號","121.537243333333","24.974555","6500600","新店區"
"231024","AKT-0513","2018/06/18 14:39:49","新北市新店區力行路14巷14弄1號","121.539198333333","24.965255","6500600","新店區"
"235028","005-UY","2018/06/18 14:39:40","新北市中和區圓通路39號","121.500886666667","24.997605","6500300","中和區"
"235027","006-UY","2018/06/18 14:39:43","新北市中和區連城路261-4號","121.492181666667","24.9965583333333","6500300","中和區"
"235020","096-UM","2018/06/18 14:39:48","新北市中和區員山路581巷31弄1號","121.477275","25.0102433333333","6500300","中和區"
"235003","097-UM","2018/06/18 14:39:36","新北市中和區秀峰街103巷7弄4號","121.519438333333","24.9888766666667","6500300","中和區"
"235029","098-UM","2018/06/18 14:39:48","新北市中和區福美路230號","121.499208333333","25.0052783333333","6500300","中和區"
"235004","150-BY","2018/06/18 14:39:45","新北市中和區宜安路11巷32號","121.51261","24.9949716666667","6500300","中和區"
"235022","151-BY","2018/06/18 14:39:48","新北市中和區員山路148巷44弄5號","121.482593333333","24.99672","6500300","中和區"
"235019","183-VK","2018/06/18 14:39:51","新北市中和區德光路15巷4號","121.471228333333","25.0041066666667","6500300","中和區"
"235002","185-VK","2018/06/18 14:39:55","新北市中和區自立路141巷4號","121.522461666667","24.993505","6500300","中和區"
"235013","186-VK","2018/06/18 14:39:53","新北市中和區明禮街24號","121.50448","24.996185","6500300","中和區"
"235008","293-VK","2018/06/18 14:39:22","新北市中和區捷運路6號","121.5101","24.9894216666667","6500300","中和區"
"235007","352-BY","2018/06/18 14:39:45","新北市中和區南華路39-2號","121.503313333333","24.9962483333333","6500300","中和區"
"235006","KEA-2878","2018/06/18 14:39:37","新北市中和區保健路2巷30號","121.507026666667","24.9975233333333","6500300","中和區"
"235014","4979-A6","2018/06/18 14:39:48","新北市中和區錦和路350-1號","121.49058","24.9935466666667","6500300","中和區"
"235034","558-UM","2018/06/18 14:39:54","新北市中和區景平路634-9號","121.498661666667","24.9995","6500300","中和區"
"235009","565-BX","2018/06/18 14:39:53","新北市中和區景平路296號","121.513193333333","24.9926","6500300","中和區"
"235018","640-BX","2018/06/18 14:39:49","新北市中和區國光街102巷8號","121.470408333333","25.00043","6500300","中和區"
"235024","647-TV","2018/06/18 14:39:36","新北市中和區員山路314巷7弄2號","121.482203333333","25.00306","6500300","中和區"
"235011","732-UM","2018/06/18 14:39:43","新北市中和區南山路283巷8號","121.504566666667","24.9923266666667","6500300","中和區"
"235010","733-UM","2018/06/18 14:39:47","新北市中和區忠孝街136號","121.512048333333","24.98672","6500300","中和區"
"235026","800-TS","2018/06/18 14:39:49","新北市中和區中山路二段361號","121.48786","25.004685","6500300","中和區"
"235021","801-TS","2018/06/18 14:39:35","新北市中和區員山路150-26號","121.481403333333","24.998125","6500300","中和區"
"235005","802-TS","2018/06/18 14:39:50","新北市中和區宜安路135號","121.509586666667","24.99829","6500300","中和區"
"235016","805-TS","2018/06/18 14:39:38","新北市中和區華新街206巷9號","121.506356666667","24.9823533333333","6500300","中和區"
"235012","896-TW","2018/06/18 14:39:50","新北市中和區仁愛街95號","121.51186","24.98672","6500300","中和區"
"235017","900-TW","2018/06/18 14:39:32","新北市中和區國光街215巷40號","121.467356666667","25.0000633333333","6500300","中和區"
"235030","911-UM","2018/06/18 14:39:47","新北市中和區景新街137號","121.506033333333","24.9969383333333","6500300","中和區"
"235015","157-BY","2018/06/18 14:39:33","新北市中和區中興街127號","121.500013333333","24.9916633333333","6500300","中和區"
"235001","AAC-213","2018/06/18 14:39:35","新北市中和區秀朗路三段103號","121.526485","24.9947316666667","6500300","中和區"
"235023","AAC-215","2018/06/18 14:39:41","新北市中和區圓通路317號","121.492828333333","24.9907583333333","6500300","中和區"
"220013","072-UY","2018/06/18 14:39:41","新北市板橋區民族路222巷15號","121.46875","25.0067266666667","6500100","板橋區"
"220034","073-UY","2018/06/18 14:39:38","新北市板橋區中正路216巷150弄11號","121.460918333333","25.0189066666667","6500100","板橋區"
"220105","075-UY","2018/06/18 14:39:35","新北市板橋區文化路二段548巷25號","121.476743333333","25.0337983333333","6500100","板橋區"
"220017","AAD-861","2018/06/18 14:39:45","新北市板橋區稚暉街13號","121.456413333333","25.0043616666667","6500100","板橋區"
"220039","120-SR","2018/06/18 14:39:39","新北市板橋區長江路一段48巷3弄1號","121.459185","25.0286266666667","6500100","板橋區"
"247023","893-R6","2018/06/18 14:39:55","新北市蘆洲區正和街63巷12號","121.469023333333","25.0808433333333","6501400","蘆洲區"
"247013","546-UM","2018/06/18 14:39:56","新北市蘆洲區中山二路105號","121.47261","25.081815","6501400","蘆洲區"
"247021","500-BY","2018/06/18 14:39:44","新北市蘆洲區民義街7號","121.471188333333","25.0887083333333","6501400","蘆洲區"
"247009","341-TH","2018/06/18 14:39:44","新北市蘆洲區信義路222巷25號","121.479786666667","25.0854016666667","6501400","蘆洲區"
"247011","339-TH","2018/06/18 14:39:55","新北市蘆洲區集賢路224巷46弄60-1號","121.480825","25.0881316666667","6501400","蘆洲區"
"247003","337-TH","2018/06/18 14:39:36","新北市蘆洲區長安街267巷7弄2號","121.458121666667","25.08354","6501400","蘆洲區"
"247005","336-TH","2018/06/18 14:39:52","新北市蘆洲區長安街46巷10號","121.463825","25.0800666666667","6501400","蘆洲區"
"247017","057-VK","2018/06/18 14:39:44","新北市蘆洲區民族路273號","121.475878333333","25.0906833333333","6501400","蘆洲區"
"247007","056-VK","2018/06/18 14:39:45","新北市蘆洲區成功路50號","121.473151666667","25.0797566666667","6501400","蘆洲區"
"247015","007-UY","2018/06/18 14:39:46","新北市蘆洲區光華路71號","121.468125","25.0824683333333","6501400","蘆洲區"
"247001","002-UY","2018/06/18 14:39:37","新北市蘆洲區永樂街38巷45弄16號","121.457538333333","25.0900566666667","6501400","蘆洲區"
"247019","001-UY","2018/06/18 14:39:38","新北市蘆洲區民權路137巷5號","121.471451666667","25.090075","6501400","蘆洲區"
"253003","6232-TK","2018/06/18 14:39:39","新北市石門區尖子鹿47號","121.580433333333","25.26841","6502200","石門區"
"253001","6251-TK","2018/06/18 14:38:33","新北市石門區崁子腳84號","121.533841666667","25.2774133333333","6502200","石門區"
"253002","637-UY","2018/06/18 14:39:38","新北市三芝區橫山里橫山39-3號","121.545726666667","25.2546866666667","6502200","石門區"
"253004","8270-PC","2018/06/18 14:39:46","新北市石門區內阿里磅25號","121.591723333333","25.2436433333333","6502200","石門區"
"207002","749-BX","2018/06/18 14:33:46","新北市萬里區溪底里福德坑路2號","121.625558333333","25.1562933333333","6502800","萬里區"
"252005","073-UM","2018/06/18 14:38:22","新北市三芝區埔坪里埔頭坑91-3號","121.508333333333","25.25229","6502100","三芝區"
"207001","662-BX","2018/06/18 14:39:40","新北市萬里區雙興里達天路20號","121.639738333333","25.1809933333333","6502800","萬里區"
"236064","105-UM","2018/06/18 14:39:54","新北市土城區永豐路153巷1號","121.467135","24.9818583333333","6501300","土城區"
"236040","107-UM","2018/06/18 14:39:35","新北市土城區學成路108巷11號","121.450173333333","24.9896916666667","6501300","土城區"
"236074","166-UM","2018/06/18 14:39:45","新北市土城區中央路四段52巷50號","121.418578333333","24.9602183333333","6501300","土城區"
"236029","253-BX","2018/06/18 14:39:43","新北市土城區中華路二段209號","121.437833333333","24.9736666666667","6501300","土城區"
"236024","269-VK","2018/06/18 14:39:42","新北市土城區千歲路13號","121.440925","24.9695416666667","6501300","土城區"
"236012","270-VK","2018/06/18 14:39:47","新北市土城區清水路234巷15弄3號","121.461693333333","24.9822266666667","6501300","土城區"
"236032","271-VK","2018/06/18 14:39:52","新北市土城區明德路一段313巷26號","121.459636666667","24.9761483333333","6501300","土城區"
"236016","401-BY","2018/06/18 14:39:40","新北市土城區永豐路10號","121.465628333333","24.98463","6501300","土城區"
"236057","912-UM","2018/06/18 14:39:53","新北市土城區中央路三段141-7號","121.433148333333","24.96534","6501300","土城區"
"236045","913-UM","2018/06/18 14:39:40","新北市土城區青雲路98號","121.459316666667","24.9865233333333","6501300","土城區"
"236060","915-UM","2018/06/18 14:39:51","新北市土城區延壽路55巷9弄3號","121.469861666667","24.991485","6501300","土城區"
"236054","AAC-216","2018/06/18 14:39:48","新北市土城區裕民路24號","121.447725","24.98861","6501300","土城區"
"220027","145-BY","2018/06/18 14:39:41","新北市板橋區中正路142號","121.456973333333","25.0160416666667","6500100","板橋區"
"220028","200-UY","2018/06/18 14:39:41","新北市板橋區大觀路二段37巷198號","121.449546666667","25.00149","6500100","板橋區"
"220030","610-BX","2018/06/18 14:39:35","新北市板橋區大觀路三段236-6號","121.429278333333","24.9922066666667","6500100","板橋區"
"220050","245-BX","2018/06/18 14:39:52","新北市板橋區萬板路48號","121.47217","25.0227166666667","6500100","板橋區"
"220003","256-TC","2018/06/18 14:39:55","新北市板橋區國慶路149巷13弄13號","121.460428333333","24.9969966666667","6500100","板橋區"
"220004","276-BY","2018/06/18 14:39:54","新北市板橋區四川路二段47巷6弄1-2號","121.454295","24.9943566666667","6500100","板橋區"
"220020","277-BY","2018/06/18 14:39:50","新北市板橋區金門街253巷17弄5號","121.433363333333","24.98887","6500100","板橋區"
"220019","283-VK","2018/06/18 14:39:52","新北市板橋區信義路279巷23號","121.464981666667","24.9903916666667","6500100","板橋區"
"220043","285-UM","2018/06/18 14:39:45","新北市板橋區宏國路97-3號","121.469795","25.032265","6500100","板橋區"
"220001","285-VK","2018/06/18 14:39:49","新北市板橋區富山街53巷1弄96號","121.477848333333","25.0199083333333","6500100","板橋區"
"220031","286-VK","2018/06/18 14:39:55","新北市板橋區龍興街63巷49號","121.441663333333","25.0018966666667","6500100","板橋區"
"220029","287-VK","2018/06/18 14:39:52","新北市板橋區大觀路一段29巷155號","121.449345","25.00546","6500100","板橋區"
"220009","293-UM","2018/06/18 14:39:47","新北市板橋區漢生東路113巷9號","121.467696666667","25.0153966666667","6500100","板橋區"
"220010","295-UM","2018/06/18 14:39:47","新北市板橋區三民路二段35巷21-2號","121.480726666667","25.01777","6500100","板橋區"
"220032","296-UM","2018/06/18 14:39:40","新北市板橋區滿平二街4號","121.425523333333","24.98636","6500100","板橋區"
"220023","303-R5","2018/06/18 14:39:42","新北市板橋區中正路253巷23號","121.454363333333","25.017735","6500100","板橋區"
"220041","307-R5","2018/06/18 14:39:37","新北市板橋區光武街2巷23號","121.468606666667","25.0255216666667","6500100","板橋區"
"220047","317-R6","2018/06/18 14:39:43","新北市板橋區四維路279巷64號","121.46055","25.0275166666667","6500100","板橋區"
"220012","486-VK","2018/06/18 14:39:51","新北市板橋區中山路一段76號","121.461755","25.0099666666667","6500100","板橋區"
"220037","491-VK","2018/06/18 14:39:47","新北市板橋區雙十路二段143號","121.474861666667","25.0280966666667","6500100","板橋區"
"220104","560-BX","2018/06/18 14:39:34","新北市板橋區中正路330號","121.454361666667","25.0217433333333","6500100","板橋區"
"220052","561-BX","2018/06/18 14:39:46","新北市板橋區文化路一段220號","121.466741666667","25.020635","6500100","板橋區"
"220011","609-BX","2018/06/18 14:39:50","新北市板橋區三民路二段140-3號","121.479006666667","25.0158433333333","6500100","板橋區"
"220040","637-BX","2018/06/18 14:39:47","新北市板橋區懷德街201巷20號","121.481678333333","25.0296066666667","6500100","板橋區"
"220005","686-BX","2018/06/18 14:39:47","新北市板橋區國慶路124號","121.460536666667","24.9958833333333","6500100","板橋區"
"220025","687-BX","2018/06/18 14:39:45","新北市板橋區僑中二街108巷1號","121.445876666667","25.0071133333333","6500100","板橋區"
"220042","689-BX","2018/06/18 14:39:37","新北市板橋區新海路407號","121.458393333333","25.026955","6500100","板橋區"
"220002","741-BX","2018/06/18 14:39:56","新北市中和區德光路99號","121.468433333333","25.0032983333333","6500100","板橋區"
"220051","KEA-2699","2018/06/18 14:39:41","新北市板橋區雙十路二段46巷45號","121.475773333333","25.0291833333333","6500100","板橋區"
"220014","829-TW","2018/06/18 14:39:48","新北市板橋區漢生東路279巷8號","121.471798333333","25.00917","6500100","板橋區"
"220016","830-TW","2018/06/18 14:39:37","新北市板橋區中山路二段416巷3弄1號","121.483483333333","25.020555","6500100","板橋區"
"220045","831-TW","2018/06/18 14:39:46","新北市板橋區民生路二段210-1號","121.469333333333","25.0213883333333","6500100","板橋區"
"220038","833-TW","2018/06/18 14:39:39","新北市板橋區英士路13號","121.461908333333","25.0251783333333","6500100","板橋區"
"220022","895-R6","2018/06/18 14:39:50","新北市板橋區明德街20號","121.460051666667","25.0106866666667","6500100","板橋區"
"220021","985-R7","2018/06/18 14:39:50","新北市板橋區中正路232號","121.45578","25.01868","6500100","板橋區"
"220046","AAC-210","2018/06/18 14:39:41","新北市板橋區幸福路32巷14號","121.46147","25.020885","6500100","板橋區"
"220018","AAC-253","2018/06/18 14:39:52","新北市板橋區民族路87號","121.466008333333","25.0083633333333","6500100","板橋區"
"235032","KEA-2873","2018/06/18 14:39:32","新北市中和區福美路301巷42號","121.497826666667","25.0034916666667","6500300","中和區"
"235025","KEA-2875","2018/06/18 14:39:56","新北市中和區民樂路4號","121.48163","25.001025","6500300","中和區"
