"lineid","car","time","location","longitude","latitude","cityid","cityname"
"234028","746-BX","2018/06/18 14:49:43","新北市永和區民有街3-2號","121.515881666667","24.9972333333333","6500400","永和區"
"234025","9371-KE","2018/06/18 14:49:43","新北市永和區雙和街4號","121.509855","25.00181","6500400","永和區"
"248013","025-BX","2018/06/18 14:49:33","新北市五股區五福路22巷6號","121.434633333333","25.08903","6501500","五股區"
"248015","026-BX","2018/06/18 14:49:51","新北市五股區成泰路三段577巷75號","121.449906666667","25.1036366666667","6501500","五股區"
"248007","095-VK","2018/06/18 14:49:51","新北市五股區四維路155巷36弄16號","121.466878333333","25.0751266666667","6501500","五股區"
"248017","225-UY","2018/06/18 14:49:43","新北市五股區凌雲路三段19-1號","121.430645","25.1091516666667","6501500","五股區"
"248011","247-BX","2018/06/18 14:49:50","新北市五股區民義路一段212號","121.430536666667","25.089485","6501500","五股區"
"248009","272-BY","2018/06/18 14:49:51","新北市五股區成泰路一段2號","121.433821666667","25.0667","6501500","五股區"
"248003","677-BX","2018/06/18 14:49:48","新北市五股區成泰路一段142-1號","121.435061666667","25.0760833333333","6501500","五股區"
"248001","678-BX","2018/06/18 14:49:52","新北市五股區成泰路三段145號","121.444785","25.0913683333333","6501500","五股區"
"234022","9380-KE","2018/06/18 14:49:48","新北市永和區仁愛路289號","121.505446666667","25.00936","6500400","永和區"
"234072","AAC-211","2018/06/18 14:49:47","新北市中和區勝利路2號","121.498725","25.008765","6500400","永和區"
"243005","AAD-798","2018/06/18 14:49:42","新北市泰山區明志路三段74巷7號","121.424481666667","25.0416266666667","6501600","泰山區"
"243001","297-R6","2018/06/18 14:49:51","新北市泰山區泰林路二段142巷5號","121.43475","25.0601366666667","6501600","泰山區"
"243008","380-SR","2018/06/18 14:49:45","新北市泰山區中山路二段841號","121.425681666667","25.0354983333333","6501600","泰山區"
"243007","421-VK","2018/06/18 14:49:46","新北市泰山區明志路二段6號","121.430101666667","25.0537366666667","6501600","泰山區"
"243003","KEA-2215","2018/06/18 14:49:47","新北市泰山區明志路三段196巷52號","121.421795","25.0399466666667","6501600","泰山區"
"243002","KEA-2216","2018/06/18 14:49:37","新北市泰山區明志路二段246巷4號","121.426455","25.04834","6501600","泰山區"
"243004","646-TV","2018/06/18 14:49:53","新北市泰山區楓江路110號","121.438363333333","25.063935","6501600","泰山區"
"243006","680-BX","2018/06/18 14:49:47","新北市泰山區泰林路二段332-1號","121.429755","25.0632866666667","6501600","泰山區"
"231002","002-UM","2018/06/18 14:49:39","新北市新店區民權路46-1號","121.540061666667","24.9830833333333","6500600","新店區"
"231027","0293-UT","2018/06/18 14:49:39","新北市新店區安民街65巷11號","121.515435","24.9664866666667","6500600","新店區"
"231028","046-UY","2018/06/18 14:49:46","新北市新店區安德街106號","121.509175","24.96084","6500600","新店區"
"231001","047-UY","2018/06/18 14:49:38","新北市新店區三民路122號","121.53451","24.9743916666667","6500600","新店區"
"231005","106-UY","2018/06/18 14:49:39","新北市新店區復興路2號","121.532466666667","24.98823","6500600","新店區"
"231019","108-UY","2018/06/18 14:49:55","新北市新店區桂山路61巷2號","121.565406666667","24.9012666666667","6500600","新店區"
"231011","187-VK","2018/06/18 14:49:50","新北市新店區永華街59號","121.544741666667","24.9756683333333","6500600","新店區"
"231023","KEA-2219","2018/06/18 14:49:40","新北市新店區檳榔路109號","121.54447","24.9616933333333","6500600","新店區"
"231026","256-BX","2018/06/18 14:49:49","新北市新店區安康路一段52巷1號","121.529808333333","24.9613333333333","6500600","新店區"
"231003","268-BY","2018/06/18 14:49:52","新北市新店區中興路二段55號","121.546565","24.9702933333333","6500600","新店區"
"231018","278-BY","2018/06/18 14:49:46","新北市新店區中央路137號","121.530263333333","24.97363","6500600","新店區"
"231014","AAD-862","2018/06/18 14:49:45","新北市新店區北宜路二段406號","121.567185","24.952935","6500600","新店區"
"231038","3712-VJ","2018/06/18 14:49:47","新北市新店區安華路28-1號","121.519663333333","24.9609666666667","6500600","新店區"
"231037","4716-K9","2018/06/18 14:49:36","新北市新店區柴埕路52巷17號","121.51147","24.9652","6500600","新店區"
"231036","512-UM","2018/06/18 14:49:38","新北市新店區安祥路104-10號","121.479158333333","24.9621216666667","6500600","新店區"
"231013","513-UM","2018/06/18 14:49:50","新北市新店區北新路二段97巷10弄2號","121.542225","24.97453","6500600","新店區"
"231030","619-UM","2018/06/18 14:49:55","新北市新店區安民街271號","121.517485","24.9730783333333","6500600","新店區"
"231034","641-BX","2018/06/18 14:49:51","新北市新店區安康路二段330號","121.503725","24.9578366666667","6500600","新店區"
"231039","718-UY","2018/06/18 14:49:47","新北市新店區中興路三段6號","121.546488333333","24.9770816666667","6500600","新店區"
"231035","719-UM","2018/06/18 14:49:44","新北市新店區安樂街16號","121.5208","24.9732783333333","6500600","新店區"
"231031","720-UM","2018/06/18 14:49:35","新北市新店區薏仁坑路6-1號","121.499953333333","24.9583983333333","6500600","新店區"
"231029","897-TW","2018/06/18 14:49:52","新北市新店區錦秀路18號","121.479331666667","24.9446633333333","6500600","新店區"
"231006","898-TW","2018/06/18 14:49:50","新北市新店區北宜路一段152號","121.54028","24.9538416666667","6500600","新店區"
"231004","899-TW","2018/06/18 14:49:36","新北市新店區民族路100號","121.53923","24.9780983333333","6500600","新店區"
"231024","AKT-0513","2018/06/18 14:49:49","新北市新店區力行路5號","121.539395","24.9646083333333","6500600","新店區"
"235020","096-UM","2018/06/18 14:49:48","新北市中和區中山路三段114巷26弄1號","121.47589","25.0070666666667","6500300","中和區"
"235003","097-UM","2018/06/18 14:49:36","新北市中和區安平路110號","121.511663333333","24.9974416666667","6500300","中和區"
"235029","098-UM","2018/06/18 14:49:48","新北市中和區永和路90巷2弄1號","121.497351666667","25.0058016666667","6500300","中和區"
"235004","150-BY","2018/06/18 14:49:45","新北市中和區安平路59號","121.509635","24.994925","6500300","中和區"
"235022","151-BY","2018/06/18 14:49:51","新北市中和區員山路150巷2弄57號","121.481821666667","24.9973816666667","6500300","中和區"
"235019","183-VK","2018/06/18 14:49:51","新北市中和區民生街71號","121.469318333333","25.004955","6500300","中和區"
"235002","185-VK","2018/06/18 14:49:54","新北市永和區民生路42號","121.522508333333","24.996685","6500300","中和區"
"235013","186-VK","2018/06/18 14:49:53","新北市中和區景平路552號","121.502308333333","24.99478","6500300","中和區"
"235008","293-VK","2018/06/18 14:49:42","新北市中和區南山路399巷11號","121.506943333333","24.990455","6500300","中和區"
"235007","352-BY","2018/06/18 14:49:45","新北市中和區景平路177號","121.511945","24.992515","6500300","中和區"
"235006","KEA-2878","2018/06/18 14:49:37","新北市中和區宜安路1巷28弄18號","121.512088333333","24.99444","6500300","中和區"
"235014","4979-A6","2018/06/18 14:49:48","新北市中和區景平路241巷82弄41號","121.506095","24.9925333333333","6500300","中和區"
"235033","4980-A6","2018/06/18 14:49:49","新北市中和區中正路589巷15號","121.485911666667","24.99367","6500300","中和區"
"235034","558-UM","2018/06/18 14:49:54","新北市中和區連勝街39號","121.498143333333","24.99764","6500300","中和區"
"235018","640-BX","2018/06/18 14:49:49","新北市中和區莒光路137號","121.472636666667","25.0016416666667","6500300","中和區"
"235024","647-TV","2018/06/18 14:49:56","新北市中和區中山路二段523巷10弄2號","121.481573333333","25.0046","6500300","中和區"
"235011","732-UM","2018/06/18 14:49:43","新北市中和區和平街66號","121.508148333333","24.9909483333333","6500300","中和區"
"235010","733-UM","2018/06/18 14:49:47","新北市中和區仁愛街28號","121.510671666667","24.988585","6500300","中和區"
"235026","800-TS","2018/06/18 14:49:49","新北市中和區橋和路116-3號","121.491598333333","25.0053316666667","6500300","中和區"
"235021","801-TS","2018/06/18 14:49:35","新北市中和區中正路808-1號","121.484918333333","25.00256","6500300","中和區"
"235005","802-TS","2018/06/18 14:49:50","新北市中和區景新街368號","121.512088333333","24.990535","6500300","中和區"
"235016","805-TS","2018/06/18 14:49:38","新北市中和區興南路二段79巷7號","121.50678","24.984615","6500300","中和區"
"235012","896-TW","2018/06/18 14:49:30","新北市中和區忠孝街129號","121.512698333333","24.9880766666667","6500300","中和區"
"235017","900-TW","2018/06/18 14:49:32","新北市中和區國光街215巷4弄1號","121.466345","25.0018266666667","6500300","中和區"
"235030","911-UM","2018/06/18 14:49:47","新北市中和區南工路6號","121.505465","25.0002366666667","6500300","中和區"
"235015","157-BY","2018/06/18 14:49:53","新北市中和區中興街233巷10號","121.501506666667","24.98945","6500300","中和區"
"235001","AAC-213","2018/06/18 14:49:35","新北市中和區自立路76號","121.524005","24.9913233333333","6500300","中和區"
"235023","AAC-215","2018/06/18 14:49:41","新北市中和區圓通路305巷26號","121.49537","24.9889","6500300","中和區"
"220013","072-UY","2018/06/18 14:49:50","新北市板橋區國泰街39巷7弄4號","121.46879","25.0056616666667","6500100","板橋區"
"220034","073-UY","2018/06/18 14:49:38","新北市板橋區南雅西路二段2號","121.453363333333","25.008845","6500100","板橋區"
"220105","075-UY","2018/06/18 14:49:44","新北市板橋區民治街57巷26號","121.480048333333","25.0338983333333","6500100","板橋區"
"220017","AAD-861","2018/06/18 14:49:45","新北市板橋區貴興路88-3號","121.456041666667","25.0032466666667","6500100","板橋區"
"220039","120-SR","2018/06/18 14:49:51","新北市板橋區龍泉街54巷8弄10號","121.457341666667","25.0268266666667","6500100","板橋區"
"247013","546-UM","2018/06/18 14:49:36","新北市蘆洲區中央路30號","121.473548333333","25.082935","6501400","蘆洲區"
"247021","500-BY","2018/06/18 14:49:44","新北市蘆洲區仁愛街212巷38號","121.464193333333","25.0944916666667","6501400","蘆洲區"
"247009","341-TH","2018/06/18 14:49:44","新北市蘆洲區中山二路309號","121.46909","25.0770366666667","6501400","蘆洲區"
"247005","336-TH","2018/06/18 14:49:52","新北市蘆洲區中華街28號","121.46275","25.0812033333333","6501400","蘆洲區"
"247007","056-VK","2018/06/18 14:49:45","新北市蘆洲區中山一路135巷8號","121.475765","25.08114","6501400","蘆洲區"
"247015","007-UY","2018/06/18 14:49:46","新北市蘆洲區正和街96巷30號","121.46781","25.08143","6501400","蘆洲區"
"247001","002-UY","2018/06/18 14:48:57","新北市蘆洲區長安街345號","121.457161666667","25.0870266666667","6501400","蘆洲區"
"253003","6232-TK","2018/06/18 14:49:19","新北市石門區尖子鹿87號","121.57904","25.2914083333333","6502200","石門區"
"253001","6251-TK","2018/06/18 14:49:53","新北市石門區崁子腳53-3號","121.536313333333","25.2822116666667","6502200","石門區"
"253002","637-UY","2018/06/18 14:49:38","新北市石門區七股14號","121.546568333333","25.2676616666667","6502200","石門區"
"253004","8270-PC","2018/06/18 14:49:46","新北市石門區茂林社區227號","121.591933333333","25.2704866666667","6502200","石門區"
"207002","749-BX","2018/06/18 14:49:46","新北市萬里區崁腳里崁腳路73號","121.647616666667","25.1595716666667","6502800","萬里區"
"252005","073-UM","2018/06/18 14:46:42","新北市三芝區埔坪里埔頭坑138號","121.514511666667","25.246995","6502100","三芝區"
"207001","662-BX","2018/06/18 14:49:52","新北市萬里區雙興里太和路27號","121.65493","25.17593","6502800","萬里區"
"236064","105-UM","2018/06/18 14:49:34","新北市土城區明德路二段99巷2弄2號","121.45033","24.9810616666667","6501300","土城區"
"236040","107-UM","2018/06/18 14:49:55","新北市土城區裕民路92巷25弄7號","121.449953333333","24.985825","6501300","土城區"
"236074","166-UM","2018/06/18 14:49:46","新北市土城區中央路四段67巷38號","121.417888333333","24.9570833333333","6501300","土城區"
"236029","253-BX","2018/06/18 14:49:43","新北市土城區忠義路36巷15號","121.439901666667","24.9696166666667","6501300","土城區"
"236024","269-VK","2018/06/18 14:49:22","新北市土城區慶安街78號","121.440693333333","24.972785","6501300","土城區"
"236012","270-VK","2018/06/18 14:49:52","新北市土城區金城路二段354巷10號","121.460881666667","24.9843883333333","6501300","土城區"
"236032","271-VK","2018/06/18 14:49:39","新北市土城區明德路一段195巷3弄5號","121.464273333333","24.9785533333333","6501300","土城區"
"236016","401-BY","2018/06/18 14:49:40","新北市土城區延吉街251號","121.46771","24.984825","6501300","土城區"
"236057","912-UM","2018/06/18 14:49:44","新北市土城區明德路一段385-1號","121.452995","24.9803366666667","6501300","土城區"
"236045","913-UM","2018/06/18 14:49:50","新北市土城區青雲路189號","121.459233333333","24.982425","6501300","土城區"
"236060","915-UM","2018/06/18 14:49:51","新北市土城區延壽路13巷6號","121.470898333333","24.9906183333333","6501300","土城區"
"236054","AAC-216","2018/06/18 14:49:48","新北市土城區學府路一段169號","121.45272","24.9854583333333","6501300","土城區"
"238008","KEA-2539","2018/06/18 14:49:43","新北市樹林區育德街78-1號","121.387838333333","24.968215","6500700","樹林區"
"221002","707-TV","2018/06/18 14:49:37","新北市汐止區莊敬街21號","121.657315","25.0614616666667","6501100","汐止區"
"220027","145-BY","2018/06/18 14:49:53","新北市板橋區復興街128號","121.460866666667","25.0179616666667","6500100","板橋區"
"220028","200-UY","2018/06/18 14:49:41","新北市板橋區大觀路二段37巷39號","121.448678333333","25.0027383333333","6500100","板橋區"
"220030","610-BX","2018/06/18 14:49:35","新北市板橋區溪崑一街39號","121.430245","24.991205","6500100","板橋區"
"220050","245-BX","2018/06/18 14:49:52","新北市板橋區縣民大道三段93巷14號","121.475363333333","25.0222866666667","6500100","板橋區"
"220003","256-TC","2018/06/18 14:49:35","新北市板橋區仁愛路78號","121.460623333333","24.9994883333333","6500100","板橋區"
"220020","277-BY","2018/06/18 14:49:50","新北市板橋區金門街215巷39號","121.433333333333","24.9896933333333","6500100","板橋區"
"220019","283-VK","2018/06/18 14:49:52","新北市板橋區五權街30巷24弄15號","121.46384","24.9934016666667","6500100","板橋區"
"220043","285-UM","2018/06/18 14:49:45","新北市板橋區新海路423號","121.458218333333","25.0273666666667","6500100","板橋區"
"220001","285-VK","2018/06/18 14:49:43","新北市板橋區民享街91號","121.477011666667","25.0159866666667","6500100","板橋區"
"220031","286-VK","2018/06/18 14:49:36","新北市板橋區僑中二街8巷33號","121.445545","25.0113883333333","6500100","板橋區"
"220029","287-VK","2018/06/18 14:49:32","新北市板橋區大觀路一段29巷33號","121.450238333333","25.0075516666667","6500100","板橋區"
"220009","293-UM","2018/06/18 14:49:47","新北市板橋區觀光街1巷2號","121.472071666667","25.0155116666667","6500100","板橋區"
"220010","295-UM","2018/06/18 14:49:47","新北市板橋區中山路二段416巷53號","121.483121666667","25.01913","6500100","板橋區"
"220032","296-UM","2018/06/18 14:49:46","新北市板橋區溪崑二街92巷18號","121.42619","24.9896916666667","6500100","板橋區"
"220023","303-R5","2018/06/18 14:49:56","新北市板橋區大勇街12號","121.454648333333","25.017335","6500100","板橋區"
"220041","307-R5","2018/06/18 14:49:51","新北市板橋區自由路51巷24弄7號","121.464423333333","25.02335","6500100","板橋區"
"220047","317-R6","2018/06/18 14:49:41","新北市板橋區新海路385巷24號","121.457963333333","25.02555","6500100","板橋區"
"220012","486-VK","2018/06/18 14:49:51","新北市板橋區實踐路81號","121.463995","25.0057133333333","6500100","板橋區"
"220037","491-VK","2018/06/18 14:49:44","新北市板橋區民治街22號","121.477703333333","25.0342533333333","6500100","板橋區"
"220104","560-BX","2018/06/18 14:49:54","新北市板橋區新生街88巷11號","121.458468333333","25.0214083333333","6500100","板橋區"
"220052","561-BX","2018/06/18 14:49:46","新北市板橋區陽明街29巷19號","121.464496666667","25.0221716666667","6500100","板橋區"
"220011","609-BX","2018/06/18 14:49:53","新北市板橋區三民路一段31巷51號","121.481088333333","25.023345","6500100","板橋區"
"220040","637-BX","2018/06/18 14:49:47","新北市板橋區懷德街129號","121.479115","25.030615","6500100","板橋區"
"220005","686-BX","2018/06/18 14:49:41","新北市板橋區廣和街65號","121.46261","24.9928816666667","6500100","板橋區"
"220025","687-BX","2018/06/18 14:49:48","新北市板橋區僑中三街39號","121.445041666667","25.0046566666667","6500100","板橋區"
"220042","689-BX","2018/06/18 14:49:37","新北市板橋區長江路二段59號","121.464576666667","25.031475","6500100","板橋區"
"220002","741-BX","2018/06/18 14:49:36","新北市板橋區實踐路59號","121.463838333333","25.006565","6500100","板橋區"
"220051","KEA-2699","2018/06/18 14:49:41","新北市板橋區松柏街33巷1號","121.47514","25.0303683333333","6500100","板橋區"
"220014","829-TW","2018/06/18 14:49:48","新北市板橋區長安街259巷8號","121.473088333333","25.010715","6500100","板橋區"
"220016","830-TW","2018/06/18 14:49:37","新北市板橋區光復街105號","121.484245","25.0192516666667","6500100","板橋區"
"220045","831-TW","2018/06/18 14:49:52","新北市板橋區莒光路40巷20號","121.4702","25.0234583333333","6500100","板橋區"
"220038","833-TW","2018/06/18 14:49:39","新北市板橋區龍泉街114號","121.456943333333","25.0244333333333","6500100","板橋區"
"220022","895-R6","2018/06/18 14:49:43","新北市板橋區文化路一段46巷37號","121.46111","25.0109783333333","6500100","板橋區"
"220021","985-R7","2018/06/18 14:49:51","新北市板橋區南雅西路二段202號","121.451783333333","25.0148433333333","6500100","板橋區"
"220046","AAC-210","2018/06/18 14:49:41","新北市板橋區文化路一段285巷57號","121.463181666667","25.0198","6500100","板橋區"
"220018","AAC-253","2018/06/18 14:49:42","新北市板橋區民族路215號","121.469438333333","25.007235","6500100","板橋區"
"235032","KEA-2873","2018/06/18 14:49:32","新北市中和區福祥路85巷2弄2號","121.49878","25.005825","6500300","中和區"
