"lineid","car","time","location","longitude","latitude","cityid","cityname"
"234025","9371-KE","2018/06/18 15:09:43","新北市永和區永貞路175號","121.515085","25.003845","6500400","永和區"
"248015","026-BX","2018/06/18 15:09:51","新北市五股區凌雲路一段158巷39弄12號","121.446515","25.10406","6501500","五股區"
"248017","225-UY","2018/06/18 15:09:43","新北市五股區中興路二段182巷50號","121.453448333333","25.08206","6501500","五股區"
"248003","677-BX","2018/06/18 15:09:48","新北市五股區成泰路一段149-7號","121.43534","25.0736933333333","6501500","五股區"
"234022","9380-KE","2018/06/18 15:00:10","新北市永和區保生路55-1號","121.50453","25.0109266666667","6500400","永和區"
"243001","297-R6","2018/06/18 15:09:51","新北市泰山區忠孝街40巷3號","121.42843","25.065355","6501600","泰山區"
"243008","380-SR","2018/06/18 15:09:45","新北市泰山區明志路二段311號","121.426581666667","25.046325","6501600","泰山區"
"243007","421-VK","2018/06/18 15:09:46","新北市泰山區仁德路69號","121.434146666667","25.0567233333333","6501600","泰山區"
"243003","KEA-2215","2018/06/18 15:09:47","新北市泰山區貴陽街16巷5弄1號","121.422416666667","25.03232","6501600","泰山區"
"243002","KEA-2216","2018/06/18 15:09:37","新北市泰山區公園路54號","121.428275","25.0547333333333","6501600","泰山區"
"243004","646-TV","2018/06/18 15:09:53","新北市泰山區忠孝街19巷3-1號","121.427436666667","25.0657616666667","6501600","泰山區"
"243006","680-BX","2018/06/18 15:09:47","新北市泰山區泰林路三段745巷145號","121.405545","25.0676916666667","6501600","泰山區"
"231002","002-UM","2018/06/18 15:09:39","新北市新店區中正路695巷2號","121.533881666667","24.9906483333333","6500600","新店區"
"231028","046-UY","2018/06/18 15:09:46","新北市新店區僑信路119號","121.500753333333","24.9459233333333","6500600","新店區"
"231001","047-UY","2018/06/18 15:09:40","新北市新店區中正路191號","121.540525","24.97241","6500600","新店區"
"231005","106-UY","2018/06/18 15:09:39","新北市新店區北新路三段126號","121.541596666667","24.9817916666667","6500600","新店區"
"231019","108-UY","2018/06/18 15:09:35","新北市新店區屈尺路2號","121.549386666667","24.9224383333333","6500600","新店區"
"231011","187-VK","2018/06/18 15:09:50","新北市新店區寶元路一段65號","121.542238333333","24.985805","6500600","新店區"
"231023","KEA-2219","2018/06/18 15:09:40","新北市新店區檳榔路109號","121.544566666667","24.9616366666667","6500600","新店區"
"231026","256-BX","2018/06/18 15:09:49","新北市新店區建安街15巷1號","121.539806666667","24.9753816666667","6500600","新店區"
"231003","268-BY","2018/06/18 15:09:54","新北市新店區寶橋路156-4號","121.548685","24.977055","6500600","新店區"
"231018","278-BY","2018/06/18 15:09:46","新北市新店區中央七街113號","121.525508333333","24.9777666666667","6500600","新店區"
"231014","AAD-862","2018/06/18 15:09:45","新北市新店區明山路45號","121.563841666667","24.9558633333333","6500600","新店區"
"231038","3712-VJ","2018/06/18 15:09:47","新北市新店區安華路28-1號","121.519638333333","24.9609","6500600","新店區"
"231025","4715-K9","2018/06/18 15:09:47","新北市新店區二十張路46巷37弄7號","121.536223333333","24.9818716666667","6500600","新店區"
"231036","512-UM","2018/06/18 15:09:38","新北市新店區安祥路102號","121.483258333333","24.9600833333333","6500600","新店區"
"231030","619-UM","2018/06/18 15:09:55","新北市新店區安民街341-1號","121.516793333333","24.9749383333333","6500600","新店區"
"231034","641-BX","2018/06/18 15:09:51","新北市新店區玫瑰路4-1號","121.493628333333","24.9514316666667","6500600","新店區"
"231039","718-UY","2018/06/18 15:09:47","新北市新店區寶元路一段61號","121.542166666667","24.9860466666667","6500600","新店區"
"231035","719-UM","2018/06/18 15:09:44","新北市新店區安和路三段120巷14號","121.517555","24.9857366666667","6500600","新店區"
"231031","720-UM","2018/06/18 15:09:35","新北市新店區安泰路45巷17號","121.485728333333","24.94667","6500600","新店區"
"231029","897-TW","2018/06/18 15:09:32","新北市新店區安康路三段738號","121.473866666667","24.9419933333333","6500600","新店區"
"231006","898-TW","2018/06/18 15:09:50","新北市新店區新坡一街18巷5弄8-1號","121.550746666667","24.961845","6500600","新店區"
"231004","899-TW","2018/06/18 15:09:40","新北市新店區建國路41號","121.540551666667","24.975005","6500600","新店區"
"231024","AKT-0513","2018/06/18 15:09:49","新北市新店區中華路42巷10號","121.540403333333","24.9684866666667","6500600","新店區"
"235003","097-UM","2018/06/18 15:09:36","新北市中和區安樂路143巷9弄2號","121.513808333333","24.9969333333333","6500300","中和區"
"235029","098-UM","2018/06/18 15:09:48","新北市中和區景平路763-2號","121.496006666667","25.0051183333333","6500300","中和區"
"235004","150-BY","2018/06/18 15:09:45","新北市中和區景安路79巷21號","121.50704","24.9968216666667","6500300","中和區"
"235031","255-BX","2018/06/18 15:09:47","新北市中和區新生街186巷1弄14號","121.483328333333","24.9991383333333","6500300","中和區"
"235007","352-BY","2018/06/18 15:09:45","新北市中和區興南路二段159巷1-1號","121.505118333333","24.9834733333333","6500300","中和區"
"235014","4979-A6","2018/06/18 15:09:48","新北市中和區安樂路62號","121.512198333333","24.99321","6500300","中和區"
"235033","4980-A6","2018/06/18 15:09:49","新北市中和區景新街64巷11弄9號","121.50456","24.998235","6500300","中和區"
"235034","558-UM","2018/06/18 15:09:52","新北市中和區中正路226號","121.49621","24.99398","6500300","中和區"
"235018","640-BX","2018/06/18 15:09:49","新北市中和區自治街18號","121.474548333333","25.0030716666667","6500300","中和區"
"235026","800-TS","2018/06/18 15:09:49","新北市中和區建八路152巷1號","121.489986666667","24.99826","6500300","中和區"
"235012","896-TW","2018/06/18 15:09:50","新北市中和區華新街13號","121.507523333333","24.9850783333333","6500300","中和區"
"235030","911-UM","2018/06/18 15:09:47","新北市中和區中山路二段3巷54號","121.50753","25.0047766666667","6500300","中和區"
"235001","AAC-213","2018/06/18 15:09:55","新北市中和區立人街33-3號","121.521066666667","24.99419","6500300","中和區"
"235023","AAC-215","2018/06/18 15:09:41","新北市中和區圓通路335巷5弄2號","121.492956666667","24.989825","6500300","中和區"
"220017","AAD-861","2018/06/18 15:09:48","新北市板橋區貴興路57號","121.45739","25.0031183333333","6500100","板橋區"
"220039","120-SR","2018/06/18 15:09:39","新北市板橋區幸福路32巷4弄7號","121.461143333333","25.02151","6500100","板橋區"
"247021","500-BY","2018/06/18 15:09:47","新北市五股區中興路三段2巷10號","121.44924","25.0808533333333","6501400","蘆洲區"
"247009","341-TH","2018/06/18 15:09:44","新北市八里區中山路三段372號","121.368856666667","25.1359916666667","6501400","蘆洲區"
"253003","6232-TK","2018/06/18 15:09:39","新北市石門區小坑12號","121.593155","25.2870866666667","6502200","石門區"
"253001","6251-TK","2018/06/18 15:09:53","新北市石門區尖子鹿104-3號","121.579696666667","25.2966666666667","6502200","石門區"
"253002","637-UY","2018/06/18 15:09:38","新北市石門區海園路37號","121.557738333333","25.29112","6502200","石門區"
"253004","8270-PC","2018/06/18 15:09:46","新北市石門區小坑24號","121.594836666667","25.2773183333333","6502200","石門區"
"207002","749-BX","2018/06/18 15:09:46","新北市萬里區崁腳里內中福路80號","121.656988333333","25.167335","6502800","萬里區"
"207001","662-BX","2018/06/18 15:09:40","新北市萬里區磺潭里員潭路16-9號","121.645061666667","25.1958","6502800","萬里區"
"236064","105-UM","2018/06/18 15:09:54","新北市土城區學成路126號","121.449313333333","24.9895816666667","6501300","土城區"
"236040","107-UM","2018/06/18 15:09:35","新北市土城區學士路31號","121.452921666667","24.98229","6501300","土城區"
"236074","166-UM","2018/06/18 15:09:45","新北市土城區中州路12巷4號","121.414946666667","24.9573283333333","6501300","土城區"
"236029","253-BX","2018/06/18 15:09:43","新北市土城區福祥街53號","121.44087","24.9800633333333","6501300","土城區"
"236024","269-VK","2018/06/18 15:09:50","新北市土城區中央路二段177巷3弄4號","121.442863333333","24.9761633333333","6501300","土城區"
"236012","270-VK","2018/06/18 15:09:44","新北市土城區學府路一段77號","121.45691","24.98823","6501300","土城區"
"236032","271-VK","2018/06/18 15:09:52","新北市土城區青雲路281巷13弄4號","121.459848333333","24.9802916666667","6501300","土城區"
"236016","401-BY","2018/06/18 15:09:40","新北市土城區延峰街33巷1號","121.469663333333","24.9847666666667","6501300","土城區"
"236057","912-UM","2018/06/18 15:09:44","新北市土城區金城路一段131號","121.444808333333","24.9737266666667","6501300","土城區"
"236045","913-UM","2018/06/18 15:09:20","新北市土城區清水路262號","121.461598333333","24.98324","6501300","土城區"
"236060","915-UM","2018/06/18 15:09:51","新北市土城區延平街10號","121.468378333333","24.9907966666667","6501300","土城區"
"236054","AAC-216","2018/06/18 15:09:48","新北市土城區學府路一段276號","121.449928333333","24.982965","6501300","土城區"
"238006","599-UM","2018/06/18 15:09:48","新北市樹林區八德街170號","121.421718333333","24.97812","6500700","樹林區"
"238005","571-TV","2018/06/18 15:09:45","新北市板橋區大觀路三段59巷17弄5-1號","121.435216666667","24.99497","6500700","樹林區"
"238009","KEA-2213","2018/06/18 15:09:53","新北市樹林區八德街251巷10弄10號","121.422298333333","24.9793283333333","6500700","樹林區"
"238008","KEA-2539","2018/06/18 15:09:43","新北市樹林區西圳街一段165巷20弄11號","121.395643333333","24.9601716666667","6500700","樹林區"
"238012","303-VK","2018/06/18 15:09:48","新北市樹林區中山路一段249號","121.420411666667","24.9864266666667","6500700","樹林區"
"238001","283-BY","2018/06/18 15:09:39","新北市樹林區大安路537巷8號","121.412805","24.98451","6500700","樹林區"
"238001","282-BY","2018/06/18 15:09:42","新北市樹林區大安路541號","121.412596666667","24.98418","6500700","樹林區"
"238007","268-VK","2018/06/18 15:09:36","新北市樹林區環河路10號","121.426928333333","24.9779683333333","6500700","樹林區"
"238013","172-UY","2018/06/18 15:09:48","新北市樹林區東大街166號","121.409371666667","24.9757733333333","6500700","樹林區"
"238003","169-UY","2018/06/18 15:09:09","新北市樹林區中山路二段222-2號","121.410361666667","24.9806","6500700","樹林區"
"220027","145-BY","2018/06/18 15:09:57","新北市板橋區南雅西路二段145巷1號","121.45201","25.0116266666667","6500100","板橋區"
"220028","200-UY","2018/06/18 15:09:44","新北市板橋區大觀路二段179巷7號","121.445141666667","25.0000466666667","6500100","板橋區"
"220050","245-BX","2018/06/18 15:09:52","新北市板橋區莒光路171巷1弄18-1號","121.474606666667","25.0246916666667","6500100","板橋區"
"220003","256-TC","2018/06/18 15:09:35","新北市板橋區仁愛路30號","121.458891666667","24.99938","6500100","板橋區"
"220020","277-BY","2018/06/18 15:09:50","新北市板橋區金門街109巷35號","121.434161666667","24.991265","6500100","板橋區"
"220001","285-VK","2018/06/18 15:09:43","新北市板橋區永豐街82號","121.475421666667","25.020165","6500100","板橋區"
"220031","286-VK","2018/06/18 15:09:36","新北市板橋區僑中二街92巷27號","121.444885","25.009075","6500100","板橋區"
"220029","287-VK","2018/06/18 15:09:52","新北市板橋區僑中一街124巷18弄6號","121.446348333333","25.013685","6500100","板橋區"
"220009","293-UM","2018/06/18 15:09:47","新北市板橋區中山路一段36號","121.460668333333","25.0085583333333","6500100","板橋區"
"220023","303-R5","2018/06/18 15:09:47","新北市板橋區金華街10巷106號","121.45887","25.020445","6500100","板橋區"
"220041","307-R5","2018/06/18 15:09:45","新北市板橋區裕民街135號","121.459066666667","25.0273266666667","6500100","板橋區"
"220047","317-R6","2018/06/18 15:09:43","新北市板橋區新海路72巷5弄36號","121.46159","25.0230566666667","6500100","板橋區"
"220037","491-VK","2018/06/18 15:09:38","新北市板橋區懷德街127巷1號","121.478958333333","25.0308716666667","6500100","板橋區"
"220104","560-BX","2018/06/18 15:09:54","新北市板橋區新生街53巷1弄10號","121.456968333333","25.0215233333333","6500100","板橋區"
"220052","561-BX","2018/06/18 15:09:46","新北市板橋區雨農路28號","121.46145","25.024415","6500100","板橋區"
"220011","609-BX","2018/06/18 15:09:50","新北市板橋區中山路二段318巷12號","121.480355","25.0189533333333","6500100","板橋區"
"220042","689-BX","2018/06/18 15:09:37","新北市板橋區長江路二段212號","121.467765","25.0322383333333","6500100","板橋區"
"220002","741-BX","2018/06/18 15:09:36","新北市板橋區忠孝路201巷103號","121.464568333333","25.005185","6500100","板橋區"
"220051","KEA-2699","2018/06/18 15:09:41","新北市板橋區懷德街76巷8號","121.477598333333","25.0317566666667","6500100","板橋區"
"220014","829-TW","2018/06/18 15:09:48","新北市板橋區中山路一段262號","121.471733333333","25.014675","6500100","板橋區"
"220016","830-TW","2018/06/18 15:09:37","新北市板橋區光復街230號","121.484778333333","25.021425","6500100","板橋區"
"220045","831-TW","2018/06/18 15:09:46","新北市板橋區莒光路133巷11號","121.472191666667","25.0246","6500100","板橋區"
"220038","833-TW","2018/06/18 15:09:39","新北市板橋區新海路401號","121.458568333333","25.0266883333333","6500100","板橋區"
"220046","AAC-210","2018/06/18 15:09:41","新北市板橋區光正街18巷9號","121.462608333333","25.0176066666667","6500100","板橋區"
"220018","AAC-253","2018/06/18 15:09:42","新北市板橋區四川路一段147號","121.459813333333","25.0042783333333","6500100","板橋區"
