"lineid","car","time","location","longitude","latitude","cityid","cityname"
"231046","188-VK","2018/06/18 16:39:42","新北市新店區灣潭路60-1號","121.540015","24.942255","6500600","新店區"
"231036","719-UY","2018/06/18 16:39:44","新北市新店區安祥路65號","121.483611666667","24.9601483333333","6500600","新店區"
"241011","013-R5","2018/06/18 16:39:48","新北市三重區仁愛街41號","121.496786666667","25.07166","6500200","三重區"
"241028","022-UY","2018/06/18 16:39:46","新北市三重區重新路三段82號","121.493105","25.0610366666667","6500200","三重區"
"241008","059-VK","2018/06/18 16:39:49","新北市三重區永安北路一段27巷10號","121.476976666667","25.07555","6500200","三重區"
"241009","060-VK","2018/06/18 16:39:52","新北市三重區三和路四段203巷86號","121.48408","25.0800983333333","6500200","三重區"
"241031","061-VK","2018/06/18 16:39:49","新北市三重區重新路四段41巷5弄2號","121.487243333333","25.0586116666667","6500200","三重區"
"241015","062-VK","2018/06/18 16:39:49","新北市三重區文化北路37-2號","121.498948333333","25.0650916666667","6500200","三重區"
"241017","063-VK","2018/06/18 16:39:57","新北市三重區中正北路25巷17號","121.492965","25.0625083333333","6500200","三重區"
"241024","065-VK","2018/06/18 16:39:46","新北市三重區中正北路315巷6弄31號","121.475733333333","25.0720666666667","6500200","三重區"
"241026","066-VK","2018/06/18 16:39:46","新北市三重區和平街22號","121.500995","25.0626","6500200","三重區"
"241002","090-VK","2018/06/18 16:39:42","新北市三重區仁義街239號","121.496356666667","25.08261","6500200","三重區"
"241005","262-UM","2018/06/18 16:39:55","新北市三重區仁華街117號","121.486873333333","25.08301","6500200","三重區"
"241003","265-UM","2018/06/18 16:39:54","新北市三重區五華街71巷42號","121.493271666667","25.0833216666667","6500200","三重區"
"241016","266-UM","2018/06/18 16:39:55","新北市三重區大智街17號","121.494476666667","25.06523","6500200","三重區"
"241022","267-UM","2018/06/18 16:39:43","新北市三重區三民街86號","121.485366666667","25.0627316666667","6500200","三重區"
"241032","269-UM","2018/06/18 16:39:46","新北市三重區新北大道一段33號","121.486041666667","25.0613333333333","6500200","三重區"
"241013","270-UM","2018/06/18 16:39:51","新北市三重區三和路三段103號","121.494543333333","25.07258","6500200","三重區"
"241025","271-UM","2018/06/18 16:39:52","新北市三重區中正北路448號","121.473898333333","25.0714283333333","6500200","三重區"
"241007","398-BY","2018/06/18 16:39:54","新北市三重區三和路四段167巷86號","121.485285","25.0795083333333","6500200","三重區"
"241004","475-VK","2018/06/18 16:39:48","新北市三重區五福街17號","121.492693333333","25.0814766666667","6500200","三重區"
"241020","478-VK","2018/06/18 16:39:39","新北市三重區車路頭街68號","121.484236666667","25.072835","6500200","三重區"
"241030","480-VK","2018/06/18 16:39:34","新北市三重區環河南路286號","121.488883333333","25.0489783333333","6500200","三重區"
"241014","543-UM","2018/06/18 16:39:51","新北市三重區龍濱路22號","121.502911666667","25.0678216666667","6500200","三重區"
"241023","545-UM","2018/06/18 16:39:54","新北市三重區忠孝路三段50巷45號","121.482906666667","25.0643383333333","6500200","三重區"
"241001","547-UM","2018/06/18 16:39:37","新北市三重區仁愛街262號","121.492875","25.07816","6500200","三重區"
"241019","KEA-2593","2018/06/18 16:39:49","新北市三重區重陽路三段128號","121.48901","25.06663","6500200","三重區"
"241006","AAD-863","2018/06/18 16:39:54","新北市三重區力行路二段123巷14號","121.483736666667","25.0763866666667","6500200","三重區"
"241018","743-BX","2018/06/18 16:37:27","新北市三重區正義北路332號","121.494493333333","25.07063","6500200","三重區"
"241012","941-UM","2018/06/18 16:39:52","新北市三重區仁興街3巷4號","121.50005","25.0739083333333","6500200","三重區"
"241029","942-UM","2018/06/18 16:39:41","新北市三重區集美街112巷13號","121.489455","25.0541616666667","6500200","三重區"
"241033","AAC-255","2018/06/18 16:39:42","新北市三重區光復路一段134號","121.472035","25.0522966666667","6500200","三重區"
"247006","336-TH","2018/06/18 16:39:51","新北市五股區工商路8號","121.440566666667","25.0825033333333","6501400","蘆洲區"
"247008","056-VK","2018/06/18 16:39:44","新北市蘆洲區中山一路182號","121.474076666667","25.08107","6501400","蘆洲區"
"247020","001-UY","2018/06/18 16:39:45","新北市五股區成洲五路38號","121.453525","25.101325","6501400","蘆洲區"
"224007","275-VK","2018/06/18 16:39:42","新北市瑞芳區中央路13號","121.761976666667","25.103645","6501200","瑞芳區"
"224009","273-VK","2018/06/18 16:39:43","新北市瑞芳區大寮路356-1號","121.784661666667","25.10327","6501200","瑞芳區"
"224005","271-BY","2018/06/18 16:39:44","新北市瑞芳區明里路75號","121.862601666667","25.1232933333333","6501200","瑞芳區"
"227001","642-TC","2018/06/18 16:39:52","新北市雙溪區外柑里外柑腳36號","121.808936666667","25.0201583333333","6502500","雙溪區"
"227008","400-TW","2018/06/18 16:39:39","新北市雙溪區牡丹里中正路74號","121.86367","25.0451816666667","6502500","雙溪區"
"251013","KEA-2871","2018/06/18 16:39:55","新北市淡水區楓樹湖12-7號","121.498455","25.1881083333333","6501000","淡水區"
"251016","179-VK","2018/06/18 16:39:36","新北市淡水區淡金路一段571號","121.452805","25.1807116666667","6501000","淡水區"
"251014","180-VK","2018/06/18 16:39:42","新北市淡水區淡金路四段478號","121.452413333333","25.2239466666667","6501000","淡水區"
"251008","181-VK","2018/06/18 16:39:40","新北市淡水區樹梅坑14號","121.470733333333","25.1428116666667","6501000","淡水區"
"251011","650-BX","2018/06/18 16:39:43","新北市淡水區中正路二段31號","121.419408333333","25.1817116666667","6501000","淡水區"
"252002","178-VK","2018/06/18 16:39:36","新北市三芝區觀海街2號","121.510188333333","25.2582383333333","6502100","三芝區"
"242023","362-BY","2018/06/18 16:39:49","新北市新莊區三和路12-21號","121.442156666667","25.0384866666667","6500500","新莊區"
"238021","KEA-2539","2018/06/18 16:11:30","新北市樹林區中山路三段204號","121.386803333333","24.9682466666667","6500700","樹林區"
"238012","303-VK","2018/06/18 16:39:35","新北市樹林區中正路22-1號","121.427775","24.9994016666667","6500700","樹林區"
"238001","283-BY","2018/06/18 16:39:38","新北市樹林區中正路433-2號","121.41477","25.0083083333333","6500700","樹林區"
"238001","282-BY","2018/06/18 16:39:42","新北市樹林區大慶街99-1號","121.427735","24.99984","6500700","樹林區"
"220038","833-TW","2018/06/18 16:39:39","新北市板橋區民生路三段105號","121.466646666667","25.0250883333333","6500100","板橋區"
