"lineid","car","time","location","longitude","latitude","cityid","cityname"
"234046","148-BY","2018/06/18 18:29:16","新北市永和區福和路1號","121.526416666667","25.0098083333333","6500400","永和區"
"234081","298-R6","2018/06/18 18:29:29","新北市永和區福和路7巷11弄16號","121.52595","25.0076916666667","6500400","永和區"
"234017","745-BX","2018/06/18 18:29:20","新北市永和區福和路1號","121.526426666667","25.00952","6500400","永和區"
"234013","KEA-2591","2018/06/18 18:29:14","新北市永和區保安路32號","121.510508333333","25.017025","6500400","永和區"
"234042","862-TW","2018/06/18 18:29:15","新北市永和區福和路1號","121.525465","25.0095333333333","6500400","永和區"
"234026","9371-KE","2018/06/18 18:29:25","新北市永和區永貞路417巷31號","121.505756666667","25.0089683333333","6500400","永和區"
"234011","9373-KE","2018/06/18 18:29:22","新北市永和區保安路60號","121.510088333333","25.0165716666667","6500400","永和區"
"249005","172-UM","2018/06/18 18:29:15","新北市八里區中華路三段134號","121.391918333333","25.1339383333333","6502300","八里區"
"249001","173-UM","2018/06/18 18:29:12","新北市八里區龍米路一段92號","121.454005","25.1239266666667","6502300","八里區"
"249004","303-UY","2018/06/18 18:29:09","新北市八里區忠孝路51號","121.42819","25.1601383333333","6502300","八里區"
"249002","305-UY","2018/06/18 18:29:14","新北市八里區龍形三街6巷2號","121.450253333333","25.1320433333333","6502300","八里區"
"248014","025-BX","2018/06/18 18:29:28","新北市五股區明德路7巷22號","121.434616666667","25.07086","6501500","五股區"
"248016","026-BX","2018/06/18 18:29:16","新北市五股區凌雲路一段83巷13弄2號","121.449221666667","25.1010116666667","6501500","五股區"
"248006","077-UY","2018/06/18 18:29:16","新北市五股區四維路44號","121.467373333333","25.0718916666667","6501500","五股區"
"248008","095-VK","2018/06/18 18:29:10","新北市五股區四維路185巷42弄1號","121.463446666667","25.0768566666667","6501500","五股區"
"248018","225-UY","2018/06/18 18:29:19","新北市五股區民義路二段52巷27號","121.4109","25.1137216666667","6501500","五股區"
"248012","247-BX","2018/06/18 18:29:09","新北市五股區御成路145號","121.440971666667","25.09429","6501500","五股區"
"248010","272-BY","2018/06/18 18:29:09","新北市五股區水碓路3-1號","121.433756666667","25.072195","6501500","五股區"
"248004","677-BX","2018/06/18 18:26:38","新北市五股區工商路142號","121.434715","25.0866866666667","6501500","五股區"
"248002","678-BX","2018/06/18 18:29:23","新北市五股區西雲路163號","121.446155","25.0943833333333","6501500","五股區"
"244007","080-UY","2018/06/18 18:29:24","新北市林口區後湖13號","121.387773333333","25.09794","6501700","林口區"
"244019","403-UM","2018/06/18 18:29:28","新北市林口區忠孝路616巷15號","121.377233333333","25.067685","6501700","林口區"
"244013","742-UY","2018/06/18 18:29:24","新北市林口區中山路285號","121.384351666667","25.0800666666667","6501700","林口區"
"244023","483-VK","2018/06/18 18:29:22","新北市林口區四維路245巷8號","121.381801666667","25.0749183333333","6501700","林口區"
"244017","485-VK","2018/06/18 18:29:20","新北市林口區八德路78號","121.365526666667","25.0654833333333","6501700","林口區"
"244009","656-BX","2018/06/18 18:29:25","新北市林口區竹林路326巷20-1號","121.39242","25.08207","6501700","林口區"
"244011","657-BX","2018/06/18 18:29:20","新北市林口區中原街23號","121.392798333333","25.0782133333333","6501700","林口區"
"244025","837-TS","2018/06/18 18:29:16","新北市林口區南勢四街328號","121.357421666667","25.07626","6501700","林口區"
"244021","838-TS","2018/06/18 18:29:13","新北市林口區自強二街47號","121.398908333333","25.0773533333333","6501700","林口區"
"243013","AAD-798","2018/06/18 18:24:46","新北市泰山區明志路三段206巷3號","121.423285","25.03793","6501600","泰山區"
"243011","KEA-2215","2018/06/18 18:09:07","新北市泰山區黎明路25號","121.422003333333","25.0607816666667","6501600","泰山區"
"243012","646-TV","2018/06/18 18:29:29","新北市泰山區泰林路二段567號","121.422513333333","25.063605","6501600","泰山區"
"222003","436-BY","2018/06/18 18:29:13","新北市深坑區旺耽路8號","121.630765","25.00536","6501800","深坑區"
"222002","659-BX","2018/06/18 18:29:19","新北市深坑區雲鄉路169號","121.621903333333","24.99795","6501800","深坑區"
"231041","002-UM","2018/06/18 18:29:11","新北市新店區安華路28-1號","121.51988","24.960625","6500600","新店區"
"231059","046-UY","2018/06/18 18:29:18","新北市新店區安華路28-1號","121.519648333333","24.9609483333333","6500600","新店區"
"231040","047-UY","2018/06/18 18:29:13","新北市新店區安華路28-1號","121.519028333333","24.9608533333333","6500600","新店區"
"231044","106-UY","2018/06/18 18:29:11","新北市新店區安華路28-1號","121.519665","24.9606683333333","6500600","新店區"
"231052","108-UY","2018/06/18 18:29:13","新北市新店區新烏路一段17巷5號","121.546445","24.9508916666667","6500600","新店區"
"231047","187-VK","2018/06/18 18:29:16","新北市新店區安一路一段1-1號","121.519603333333","24.961225","6500600","新店區"
"231046","188-VK","2018/06/18 18:29:22","新北市新店區直潭七街60號","121.53227","24.9398066666667","6500600","新店區"
"231054","KEA-2219","2018/06/18 18:29:23","新北市新店區安一路一段1-1號","121.519975","24.9610883333333","6500600","新店區"
"231057","256-BX","2018/06/18 18:29:22","新北市新店區環河路29巷1號","121.537258333333","24.9613716666667","6500600","新店區"
"231042","268-BY","2018/06/18 18:29:19","新北市新店區安華路1-1號","121.519336666667","24.9605016666667","6500600","新店區"
"231051","278-BY","2018/06/18 18:29:10","新北市新店區安康路一段355號","121.519855","24.96331","6500600","新店區"
"231050","AAD-862","2018/06/18 18:29:20","新北市新店區安一路一段1-1號","121.52025","24.961125","6500600","新店區"
"231058","3713-VJ","2018/06/18 18:29:22","新北市新店區新店後街113-1號","121.537758333333","24.955995","6500600","新店區"
"231066","4716-K9","2018/06/18 18:29:23","新北市新店區安一路一段1-1號","121.51916","24.96114","6500600","新店區"
"231056","4715-K9","2018/06/18 18:29:13","新北市新店區二十張路129巷5弄1號","121.536526666667","24.9787066666667","6500600","新店區"
"231067","4772-VM","2018/06/18 18:29:16","新北市新店區安華路3號","121.519223333333","24.9601633333333","6500600","新店區"
"231049","513-UM","2018/06/18 18:29:19","新北市新店區安一路一段1-1號","121.51967","24.9611133333333","6500600","新店區"
"231061","619-UM","2018/06/18 18:29:16","新北市新店區安華路28-1號","121.519453333333","24.96059","6500600","新店區"
"231063","641-BX","2018/06/18 18:29:19","新北市新店區安華路1-1號","121.519625","24.9603666666667","6500600","新店區"
"231064","719-UM","2018/06/18 18:29:25","新北市新店區安一路一段1-1號","121.51951","24.9612083333333","6500600","新店區"
"231065","719-UY","2018/06/18 18:29:14","新北市新店區安一路一段1-1號","121.5193","24.9613666666667","6500600","新店區"
"231062","720-UM","2018/06/18 18:29:12","新北市新店區安一路一段1-1號","121.519095","24.961225","6500600","新店區"
"231060","897-TW","2018/06/18 18:29:18","新北市新店區安華路1-1號","121.519536666667","24.9603416666667","6500600","新店區"
"231045","898-TW","2018/06/18 18:29:26","新北市新店區安華路28-1號","121.519241666667","24.9608533333333","6500600","新店區"
"231043","899-TW","2018/06/18 18:29:20","新北市新店區安華路28-1號","121.51921","24.960815","6500600","新店區"
"231055","AKT-0513","2018/06/18 18:29:23","新北市新店區中正路189巷24號","121.539371666667","24.971855","6500600","新店區"
"241030","480-VK","2018/06/18 18:29:13","新北市五股區五工二路136號","121.454468333333","25.0728283333333","6500200","三重區"
"235064","005-UY","2018/06/18 18:29:27","新北市中和區安邦街132號","121.497361666667","24.9957016666667","6500300","中和區"
"235063","006-UY","2018/06/18 18:29:07","新北市中和區連城路347巷4弄37號","121.486618333333","24.9955416666667","6500300","中和區"
"235056","096-UM","2018/06/18 18:29:24","新北市中和區員山路611巷1號","121.47784","25.0113233333333","6500300","中和區"
"235039","097-UM","2018/06/18 18:29:17","新北市中和區宜安路66號","121.511406666667","24.9970933333333","6500300","中和區"
"235065","098-UM","2018/06/18 18:29:27","新北市中和區莊敬路49巷10弄34號","121.503003333333","25.005555","6500300","中和區"
"235040","150-BY","2018/06/18 18:29:21","新北市中和區安平路61號","121.509658333333","24.9955266666667","6500300","中和區"
"235058","151-BY","2018/06/18 18:29:15","新北市中和區圓通路369巷30弄58號","121.48861","24.984735","6500300","中和區"
"235055","183-VK","2018/06/18 18:29:11","新北市中和區民生街91號","121.468571666667","25.0047916666667","6500300","中和區"
"235038","185-VK","2018/06/18 18:29:20","新北市中和區秀朗路三段128巷19弄8號","121.523423333333","24.993335","6500300","中和區"
"235049","186-VK","2018/06/18 18:29:21","新北市中和區景平路361號","121.50454","24.99326","6500300","中和區"
"235043","352-BY","2018/06/18 18:29:08","新北市中和區景平路329巷2弄2號","121.505778333333","24.99301","6500300","中和區"
"235042","KEA-2878","2018/06/18 18:29:11","新北市中和區自立路64巷12號","121.523271666667","24.9911","6500300","中和區"
"235050","4979-A6","2018/06/18 18:29:19","新北市中和區景新街410巷18弄24號","121.511918333333","24.9900916666667","6500300","中和區"
"235069","4980-A6","2018/06/18 18:29:27","新北市中和區連城路127巷25號","121.49706","24.997755","6500300","中和區"
"235070","558-UM","2018/06/18 18:29:09","新北市中和區南華路63號","121.50447","24.9971266666667","6500300","中和區"
"235045","565-BX","2018/06/18 18:29:25","新北市中和區南山路236巷24弄22號","121.50491","24.989135","6500300","中和區"
"235054","640-BX","2018/06/18 18:29:14","新北市中和區民享街89巷5號","121.474708333333","25.0016816666667","6500300","中和區"
"235060","647-TV","2018/06/18 18:29:18","新北市中和區員山路437-3號","121.480696666667","25.0040233333333","6500300","中和區"
"235047","732-UM","2018/06/18 18:29:23","新北市中和區南山路272號","121.507963333333","24.98803","6500300","中和區"
"235046","733-UM","2018/06/18 18:29:09","新北市中和區板南路100號","121.503866666667","24.99235","6500300","中和區"
"235062","800-TS","2018/06/18 18:29:25","新北市中和區景平路677巷2弄1號","121.496126666667","25.0027866666667","6500300","中和區"
"235057","801-TS","2018/06/18 18:29:25","新北市中和區民安街43號","121.479886666667","25.00024","6500300","中和區"
"235041","802-TS","2018/06/18 18:29:19","新北市中和區景安路100號","121.505506666667","24.99555","6500300","中和區"
"235052","805-TS","2018/06/18 18:29:09","新北市中和區興南路二段96號","121.50497","24.9840083333333","6500300","中和區"
"235048","896-TW","2018/06/18 18:29:19","新北市中和區中正路83號","121.500653333333","24.9934833333333","6500300","中和區"
"235053","900-TW","2018/06/18 18:29:16","新北市中和區民享街457號","121.470431666667","24.993135","6500300","中和區"
"235066","911-UM","2018/06/18 18:29:25","新北市中和區中山路二段121號","121.502728333333","25.0035883333333","6500300","中和區"
"235051","157-BY","2018/06/18 18:29:19","新北市中和區興南路二段142巷18-9號","121.502675","24.9843333333333","6500300","中和區"
"235037","AAC-213","2018/06/18 18:29:11","新北市中和區景德街86號","121.516336666667","24.9914866666667","6500300","中和區"
"235059","AAC-215","2018/06/18 18:29:26","新北市中和區員山路36巷16-3號","121.484958333333","24.991325","6500300","中和區"
"220065","072-UY","2018/06/18 18:29:20","新北市板橋區四川路一段2號","121.459375","25.0070016666667","6500100","板橋區"
"220086","073-UY","2018/06/18 18:29:18","新北市板橋區四川路二段130巷25弄8-1號","121.449098333333","24.994445","6500100","板橋區"
"226004","312-R5","2018/06/18 18:29:21","新北市平溪區石底里石底街93-1號","121.732136666667","25.023055","6502400","平溪區"
"228003","097-TW","2018/06/18 18:29:25","新北市貢寮區和美里和美街36-1號","121.912248333333","25.0856416666667","6502600","貢寮區"
"228001","212-TW","2018/06/18 18:29:26","新北市貢寮區仁理村仁和路60號","121.92287","25.0498183333333","6502600","貢寮區"
"228002","585-TW","2018/06/18 18:29:16","新北市貢寮區福連里福興街13號","121.990403333333","25.012035","6502600","貢寮區"
"224006","676-BX","2018/06/18 18:29:19","新北市瑞芳區明燈路三段22號","121.808521666667","25.10758","6501200","瑞芳區"
"224002","639-TC","2018/06/18 18:29:17","新北市瑞芳區三爪子坑路69巷34號","121.812456666667","25.10629","6501200","瑞芳區"
"224009","273-VK","2018/06/18 18:29:23","新北市瑞芳區五號路4號","121.854796666667","25.1103933333333","6501200","瑞芳區"
"224008","272-VK","2018/06/18 18:29:09","新北市瑞芳區三爪子坑路110號","121.807581666667","25.1051133333333","6501200","瑞芳區"
"224005","271-BY","2018/06/18 18:29:24","新北市瑞芳區建基路一段32號","121.820058333333","25.1219583333333","6501200","瑞芳區"
"227001","642-TC","2018/06/18 18:29:12","新北市雙溪區魚行里坤溪25號","121.870538333333","25.030085","6502500","雙溪區"
"227008","400-TW","2018/06/18 18:29:19","新北市雙溪區牡丹里牡丹133號","121.85101","25.05907","6502500","雙溪區"
"253005","032-BX","2018/06/18 18:29:07","新北市石門區老崩山11-13號","121.551846666667","25.2905483333333","6502200","石門區"
"253006","295-VK","2018/06/18 18:29:17","新北市石門區公地8號","121.54534","25.2900466666667","6502200","石門區"
"222001","KEA-2212","2018/06/18 18:29:22","新北市深坑區北深路一段201巷1號","121.630378333333","25.0088816666667","6501800","深坑區"
"208002","KEA-2872","2018/06/18 18:29:21","新北市金山區磺港里磺港路169號","121.643075","25.22459","6502700","金山區"
"208003","665-BX","2018/06/18 18:29:10","新北市金山區民生路51巷1-2號","121.641766666667","25.2189033333333","6502700","金山區"
"208001","761-BX","2018/06/18 18:29:27","新北市金山區中山路210號","121.637506666667","25.2217416666667","6502700","金山區"
"251009","008-UM","2018/06/18 18:29:27","新北市淡水區重建街226號","121.441396666667","25.17499","6501000","淡水區"
"251004","009-UM","2018/06/18 18:29:07","新北市淡水區民族路31巷60號","121.462978333333","25.1367783333333","6501000","淡水區"
"251013","KEA-2871","2018/06/18 18:29:15","新北市淡水區椿子林20號","121.479958333333","25.2038316666667","6501000","淡水區"
"251016","179-VK","2018/06/18 18:29:16","新北市淡水區下圭柔山115-5號","121.446486666667","25.20984","6501000","淡水區"
"251014","180-VK","2018/06/18 18:29:22","新北市淡水區南平28號","121.49237","25.21505","6501000","淡水區"
"251008","181-VK","2018/06/18 18:29:13","新北市淡水區北投子87-3號","121.469091666667","25.1785333333333","6501000","淡水區"
"251015","182-VK","2018/06/18 18:29:16","新北市淡水區興福寮88巷216號","121.485991666667","25.1665566666667","6501000","淡水區"
"251010","413-VK","2018/06/18 18:29:16","新北市淡水區沙崙路181巷1號","121.424096666667","25.1841816666667","6501000","淡水區"
"251012","441-VK","2018/06/18 18:29:25","新北市淡水區北新路一段140號","121.458945","25.1822333333333","6501000","淡水區"
"251005","443-VK","2018/06/18 18:29:24","新北市淡水區博愛街60號","121.44693","25.1687416666667","6501000","淡水區"
"251001","559-UM","2018/06/18 18:29:14","新北市淡水區自強路118號","121.46383","25.13266","6501000","淡水區"
"251006","561-UM","2018/06/18 18:29:15","新北市淡水區大信街32號","121.442071666667","25.17706","6501000","淡水區"
"251011","650-BX","2018/06/18 18:29:23","新北市淡水區學府路32巷95號","121.44813","25.1674833333333","6501000","淡水區"
"251002","672-BX","2018/06/18 18:29:23","新北市淡水區竿蓁二街17號","121.453195","25.1630083333333","6501000","淡水區"
"251003","673-BX","2018/06/18 18:29:13","新北市淡水區北新路169巷16號","121.449776666667","25.1801466666667","6501000","淡水區"
"207003","550-UM","2018/06/18 18:29:20","新北市萬里區野柳里港東路88-3號","121.687998333333","25.20382","6502800","萬里區"
"207004","225-TW","2018/06/18 18:29:20","新北市萬里區萬里里瑪鋉路21號","121.68739","25.1753883333333","6502800","萬里區"
"252002","178-VK","2018/06/18 18:29:16","新北市三芝區中山路二段39號","121.502931666667","25.2551433333333","6502100","三芝區"
"252003","249-BX","2018/06/18 18:29:12","新北市三芝區後厝里北勢子20-8號","121.473548333333","25.2541716666667","6502100","三芝區"
"252001","292-VK","2018/06/18 18:29:19","新北市三芝區中興街二段2號","121.498458333333","25.25668","6502100","三芝區"
"237004","KEA-2597","2018/06/18 18:29:14","新北市三峽區五寮82號","121.365983333333","24.8639383333333","6500900","三峽區"
"237007","153-BY","2018/06/18 18:29:19","新北市三峽區中正路三段70巷15號","121.355808333333","24.90462","6500900","三峽區"
"237009","210-TH","2018/06/18 18:29:30","新北市三峽區民族街27號","121.369598333333","24.93046","6500900","三峽區"
"237013","252-BX","2018/06/18 18:29:12","新北市三峽區光明路69巷25號","121.376663333333","24.929235","6500900","三峽區"
"237012","275-BY","2018/06/18 18:29:30","新北市三峽區三樹路76號","121.378105","24.9384083333333","6500900","三峽區"
"237008","302-VK","2018/06/18 18:29:27","新北市三峽區白雞115-7號","121.400708333333","24.9067033333333","6500900","三峽區"
"237014","433-BY","2018/06/18 18:29:13","新北市三峽區文化路41-1號","121.372603333333","24.9360083333333","6500900","三峽區"
"237006","5529-G3","2018/06/18 18:29:22","新北市三峽區溪東路231號","121.406433333333","24.932645","6500900","三峽區"
"237011","KEA-2596","2018/06/18 18:29:20","新北市三峽區溪東路58號","121.401385","24.934555","6500900","三峽區"
"237015","649-BX","2018/06/18 18:29:26","新北市三峽區竹崙路144號","121.435108333333","24.90894","6500900","三峽區"
"237010","706-TV","2018/06/18 18:29:16","新北市三峽區復興路449號","121.362606666667","24.9385083333333","6500900","三峽區"
"237005","AKY-6261","2018/06/18 18:29:13","新北市三峽區清水街351號","121.370101666667","24.9330066666667","6500900","三峽區"
"236069","105-UM","2018/06/18 18:29:24","新北市土城區永豐路255巷23弄2號","121.475226666667","24.9732583333333","6501300","土城區"
"236078","166-UM","2018/06/18 18:29:26","新北市土城區中央路四段27巷10弄1號","121.424621666667","24.9620766666667","6501300","土城區"
"236030","253-BX","2018/06/18 18:29:28","新北市土城區福仁街50巷16號","121.439413333333","24.97532","6501300","土城區"
"236026","269-VK","2018/06/18 18:29:16","新北市土城區南天母路137-10號","121.448553333333","24.95398","6501300","土城區"
"236014","270-VK","2018/06/18 18:29:21","新北市土城區青雲路39巷7號","121.460353333333","24.9875233333333","6501300","土城區"
"236039","271-VK","2018/06/18 18:29:28","新北市土城區青雲路453號","121.458855","24.9745816666667","6501300","土城區"
"236020","401-BY","2018/06/18 18:29:11","新北市土城區永豐路202巷14號","121.466378333333","24.9835083333333","6501300","土城區"
"236042","752-BX","2018/06/18 18:29:17","新北市土城區學成路99巷11號","121.449956666667","24.9883283333333","6501300","土城區"
"236059","912-UM","2018/06/18 18:29:15","新北市土城區中央路四段187號","121.4149","24.9566733333333","6501300","土城區"
"236048","913-UM","2018/06/18 18:29:09","新北市土城區明德路一段253號","121.4624","24.9781","6501300","土城區"
"236063","915-UM","2018/06/18 18:29:11","新北市土城區延壽路77巷6弄9號","121.468491666667","24.99272","6501300","土城區"
"236055","AAC-216","2018/06/18 18:29:13","新北市土城區中華路一段245號","121.440945","24.98178","6501300","土城區"
"242058","986-R7","2018/06/18 18:29:19","新北市新莊區中正路891-44號","121.41388","25.0229233333333","6500500","新莊區"
"242053","751-BX","2018/06/18 18:29:25","新北市新莊區新樹路446號","121.431523333333","25.0012716666667","6500500","新莊區"
"242025","613-BX","2018/06/18 18:29:19","新北市新莊區中央路232號","121.454536666667","25.0591466666667","6500500","新莊區"
"242042","566-BX","2018/06/18 18:29:12","新北市新莊區天祥街53號","121.414943333333","25.030385","6500500","新莊區"
"242046","497-BY","2018/06/18 18:29:11","新北市新莊區中正路803巷55號","121.422095","25.027635","6500500","新莊區"
"242050","441-UM","2018/06/18 18:29:28","新北市新莊區新樹路501-1號","121.432666666667","25.01139","6500500","新莊區"
"242056","440-UM","2018/06/18 18:29:26","新北市新莊區中環路一段30號","121.442643333333","25.0273316666667","6500500","新莊區"
"242044","400-BY","2018/06/18 18:29:11","新北市新莊區中正路新旺巷26號","121.416008333333","25.0229983333333","6500500","新莊區"
"242009","132-UY","2018/06/18 18:29:09","新北市新莊區中華路二段58號","121.454086666667","25.0460966666667","6500500","新莊區"
"242011","173-VK","2018/06/18 18:28:52","新北市新莊區中港路615巷5號","121.450925","25.05334","6500500","新莊區"
"242002","349-TH","2018/06/18 18:29:17","新北市新莊區瓊林路18號","121.449338333333","25.0314916666667","6500500","新莊區"
"238015","755-BX","2018/06/18 18:29:12","新北市樹林區啟智街187巷2號","121.415141666667","24.987225","6500700","樹林區"
"238023","601-UM","2018/06/18 18:29:24","新北市樹林區三福街114號","121.406438333333","25.0162766666667","6500700","樹林區"
"238019","599-UM","2018/06/18 18:29:28","新北市樹林區中華路190-16號","121.411723333333","24.9806516666667","6500700","樹林區"
"238018","571-TV","2018/06/18 18:29:20","新北市樹林區樹新路50巷5弄5號","121.42948","24.9969833333333","6500700","樹林區"
"238024","5061-A6","2018/06/18 18:29:10","新北市樹林區後站街6巷29號","121.42412","24.9916516666667","6500700","樹林區"
"238025","303-VK","2018/06/18 18:29:15","新北市樹林區中山路二段230號","121.409013333333","24.9802783333333","6500700","樹林區"
"238014","282-BY","2018/06/18 18:08:02","新北市樹林區潭興街22號","121.425241666667","24.998895","6500700","樹林區"
"238020","268-VK","2018/06/18 18:29:16","新北市樹林區三龍街124號","121.415695","25.0184683333333","6500700","樹林區"
"238026","172-UY","2018/06/18 18:29:21","新北市樹林區八德街1236號","121.390816666667","24.9690483333333","6500700","樹林區"
"238016","169-UY","2018/06/18 18:28:48","新北市樹林區文化街24號","121.419503333333","24.987725","6500700","樹林區"
"239007","AAC-297","2018/06/18 18:29:10","新北市鶯歌區南雅路439號","121.346898333333","24.954075","6500800","鶯歌區"
"239008","527-UM","2018/06/18 18:29:25","新北市鶯歌區國際一路14號","121.336201666667","24.97654","6500800","鶯歌區"
"239001","417-VK","2018/06/18 18:29:24","新北市鶯歌區國中街195號","121.338303333333","24.939175","6500800","鶯歌區"
"239003","360-BY","2018/06/18 18:29:15","新北市鶯歌區福安街58號","121.33555","24.9652366666667","6500800","鶯歌區"
"239002","359-BY","2018/06/18 18:29:24","新北市鶯歌區中正一路461-5號","121.363015","24.95649","6500800","鶯歌區"
"239004","193-VK","2018/06/18 18:29:17","新北市鶯歌區黃厝街7巷26號","121.344166666667","24.9461216666667","6500800","鶯歌區"
"221008","489-VK","2018/06/18 18:29:25","新北市汐止區康寧街901號","121.651425","25.0749033333333","6501100","汐止區"
"221036","130-UY","2018/06/18 18:29:12","新北市汐止區大同路二段713號","121.665243333333","25.07342","6501100","汐止區"
"221015","131-UY","2018/06/18 18:29:14","新北市汐止區鄉友街46號","121.669021666667","25.0816033333333","6501100","汐止區"
"221010","269-BY","2018/06/18 18:29:27","新北市汐止區祥雲街22號","121.64667","25.0900066666667","6501100","汐止區"
"221012","278-VK","2018/06/18 18:29:25","新北市汐止區保長路19巷3號","121.672328333333","25.0799933333333","6501100","汐止區"
"221023","279-VK","2018/06/18 18:29:17","新北市汐止區康寧街520-1號","121.633778333333","25.06867","6501100","汐止區"
"221032","280-BY","2018/06/18 18:29:25","新北市汐止區民權街二段79號","121.619156666667","25.0480083333333","6501100","汐止區"
"221027","281-BY","2018/06/18 18:29:19","新北市汐止區和平街46巷24號","121.662575","25.071975","6501100","汐止區"
"221029","298-VK","2018/06/18 18:29:24","新北市汐止區樟樹一路272-6號","121.642783333333","25.0688066666667","6501100","汐止區"
"221021","299-VK","2018/06/18 18:29:11","新北市汐止區新台五路一段159號","121.654138333333","25.0624616666667","6501100","汐止區"
"221031","353-TW","2018/06/18 18:29:13","新北市汐止區光復街7巷34號","121.640701666667","25.0598666666667","6501100","汐止區"
"221035","622-UM","2018/06/18 18:29:12","新北市汐止區大同路二段33號","121.647563333333","25.0629633333333","6501100","汐止區"
"221025","623-UM","2018/06/18 18:29:10","新北市汐止區秀峰路160號","121.66032","25.062185","6501100","汐止區"
"221038","646-BX","2018/06/18 18:29:08","新北市汐止區秀峰路9號","121.659235","25.0660916666667","6501100","汐止區"
"221033","647-BX","2018/06/18 18:29:09","新北市汐止區宜興街59巷13號","121.621761666667","25.0426333333333","6501100","汐止區"
"221002","707-TV","2018/06/18 18:29:11","新北市汐止區福德一路146號","121.636733333333","25.0670266666667","6501100","汐止區"
"221018","753-BX","2018/06/18 18:29:19","新北市汐止區茄苳路212號","121.670666666667","25.0688116666667","6501100","汐止區"
"220080","200-UY","2018/06/18 18:29:09","新北市板橋區華東街1-9號","121.448126666667","24.994835","6500100","板橋區"
"220082","610-BX","2018/06/18 18:29:20","新北市板橋區華東街1-9號","121.448256666667","24.9948916666667","6500100","板橋區"
"220071","283-VK","2018/06/18 18:29:19","新北市板橋區華東街1-9號","121.44807","24.9948833333333","6500100","板橋區"
"220083","286-VK","2018/06/18 18:29:24","新北市板橋區華東街1-10號","121.448325","24.9950683333333","6500100","板橋區"
"220081","287-VK","2018/06/18 18:29:10","新北市板橋區華東街1-9號","121.44823","24.9949216666667","6500100","板橋區"
"220084","296-UM","2018/06/18 18:29:18","新北市板橋區華東街1-9號","121.44814","24.994985","6500100","板橋區"
"220075","303-R5","2018/06/18 18:29:29","新北市板橋區華東街1-9號","121.448216666667","24.9949783333333","6500100","板橋區"
"220064","486-VK","2018/06/18 18:29:22","新北市板橋區南雅南路二段144巷60號","121.4503","24.9974383333333","6500100","板橋區"
"242031","280-VK","2018/06/18 18:29:16","新北市新莊區新泰路277巷57弄12號","121.44303","25.03986","6500500","新莊區"
"220035","560-BX","2018/06/18 18:29:27","新北市板橋區南雅南路二段1-1號","121.45468","25.00368","6500100","板橋區"
"220057","686-BX","2018/06/18 18:29:13","新北市板橋區華東街1-9號","121.448231666667","24.9949433333333","6500100","板橋區"
"220077","687-BX","2018/06/18 18:29:09","新北市板橋區華東街1-10號","121.448328333333","24.994905","6500100","板橋區"
"220074","895-R6","2018/06/18 18:29:20","新北市板橋區華東街1-10號","121.44827","24.9949966666667","6500100","板橋區"
"220073","985-R7","2018/06/18 18:29:25","新北市板橋區華東街1-10號","121.448333333333","24.99496","6500100","板橋區"
"235068","KEA-2873","2018/06/18 18:29:18","新北市中和區中正路273-5號","121.495653333333","24.9932483333333","6500300","中和區"
"235061","KEA-2875","2018/06/18 18:29:01","新北市中和區民享街92號","121.474851666667","24.9998766666667","6500300","中和區"
