"lineid","car","time","location","longitude","latitude","cityid","cityname"
"234046","148-BY","2018/06/18 18:39:16","新北市永和區永元路68號","121.52261","25.0015633333333","6500400","永和區"
"234081","298-R6","2018/06/18 18:39:09","新北市永和區林森路81號","121.523901666667","25.00391","6500400","永和區"
"234064","337-UY","2018/06/18 18:39:20","新北市永和區福和路1號","121.526561666667","25.010045","6500400","永和區"
"234086","338-UY","2018/06/18 18:39:16","新北市永和區永貞路99號","121.518131666667","25.0043483333333","6500400","永和區"
"234070","552-UM","2018/06/18 18:39:15","新北市永和區福和路1號","121.525611666667","25.009755","6500400","永和區"
"234017","745-BX","2018/06/18 18:39:20","新北市永和區福和路1號","121.526378333333","25.0095083333333","6500400","永和區"
"234030","746-BX","2018/06/18 18:39:09","新北市永和區得和路324號","121.52317","24.99944","6500400","永和區"
"234054","KEA-2590","2018/06/18 18:39:16","新北市永和區福和路1號","121.526413333333","25.009385","6500400","永和區"
"234013","KEA-2591","2018/06/18 18:39:14","新北市永和區保福路二段88巷29號","121.511946666667","25.0137366666667","6500400","永和區"
"234061","AAD-866","2018/06/18 18:39:09","新北市永和區福和路1號","121.526256666667","25.009555","6500400","永和區"
"234042","862-TW","2018/06/18 18:39:15","新北市永和區永貞路306號","121.511901666667","25.004875","6500400","永和區"
"234050","863-TW","2018/06/18 18:39:28","新北市永和區福和路1號","121.526131666667","25.00966","6500400","永和區"
"234026","9371-KE","2018/06/18 18:39:25","新北市永和區保生路55號","121.50454","25.010855","6500400","永和區"
"234011","9373-KE","2018/06/18 18:39:22","新北市永和區文化路9巷22弄12號","121.514933333333","25.01463","6500400","永和區"
"249005","172-UM","2018/06/18 18:39:15","新北市八里區中華路三段196號","121.388136666667","25.1255633333333","6502300","八里區"
"249001","173-UM","2018/06/18 18:39:12","新北市八里區龍米路一段366號","121.451516666667","25.1314633333333","6502300","八里區"
"249004","303-UY","2018/06/18 18:39:29","新北市八里區忠八街2號","121.420851666667","25.1593933333333","6502300","八里區"
"249002","305-UY","2018/06/18 18:39:14","新北市八里區龍形一街12巷2號","121.44993","25.1305266666667","6502300","八里區"
"248014","025-BX","2018/06/18 18:39:22","新北市五股區蓬萊路24號","121.434133333333","25.0798216666667","6501500","五股區"
"248016","026-BX","2018/06/18 18:39:16","新北市五股區凌雲路一段149巷42號","121.448583333333","25.1009033333333","6501500","五股區"
"248008","095-VK","2018/06/18 18:39:30","新北市五股區中興路一段151巷1弄1號","121.465078333333","25.0731866666667","6501500","五股區"
"248018","225-UY","2018/06/18 18:36:59","新北市五股區民義路二段122號","121.404521666667","25.113835","6501500","五股區"
"248012","247-BX","2018/06/18 18:39:29","新北市五股區御史路52巷2號","121.44198","25.0934733333333","6501500","五股區"
"248010","272-BY","2018/06/18 18:39:09","新北市五股區水碓三路120號","121.431778333333","25.0735583333333","6501500","五股區"
"248004","677-BX","2018/06/18 18:39:18","新北市五股區民義路一段245-2號","121.429058333333","25.0904733333333","6501500","五股區"
"248002","678-BX","2018/06/18 18:39:23","新北市五股區西雲路205號","121.448601666667","25.0965216666667","6501500","五股區"
"234023","9380-KE","2018/06/18 18:39:16","新北市永和區新生路2-7號","121.50935","25.017035","6500400","永和區"
"234077","969-R7","2018/06/18 18:39:23","新北市永和區中正路338號","121.517681666667","25.00004","6500400","永和區"
"234067","AAC-212","2018/06/18 18:39:26","新北市中和區永貞路264號","121.513776666667","25.0036216666667","6500400","永和區"
"234003","AAC-295","2018/06/18 18:39:26","新北市永和區福和路1號","121.526531666667","25.009935","6500400","永和區"
"244007","080-UY","2018/06/18 18:39:24","新北市林口區後湖14鄰49號","121.386113333333","25.0998633333333","6501700","林口區"
"244019","403-UM","2018/06/18 18:39:08","新北市林口區忠孝路646巷42號","121.379238333333","25.0670666666667","6501700","林口區"
"244013","742-UY","2018/06/18 18:39:24","新北市林口區文化一路二段92號","121.381898333333","25.0785966666667","6501700","林口區"
"244023","483-VK","2018/06/18 18:39:22","新北市林口區文化二路二段72號","121.378393333333","25.0804783333333","6501700","林口區"
"244017","485-VK","2018/06/18 18:39:20","新北市林口區文化二路一段66-1號","121.365655","25.06881","6501700","林口區"
"244009","656-BX","2018/06/18 18:39:25","新北市林口區竹林路358巷2-1號","121.391991666667","25.0841333333333","6501700","林口區"
"244011","657-BX","2018/06/18 18:39:20","新北市林口區興林路17巷5弄1號","121.390393333333","25.0770316666667","6501700","林口區"
"244025","837-TS","2018/06/18 18:39:16","新北市林口區南勢六街248-1號","121.35602","25.0749416666667","6501700","林口區"
"244021","838-TS","2018/06/18 18:39:12","新北市林口區工六路19號","121.400488333333","25.0772283333333","6501700","林口區"
"243013","AAD-798","2018/06/18 18:24:46","新北市泰山區明志路三段206巷3號","121.423285","25.03793","6501600","泰山區"
"243009","297-R6","2018/06/18 18:39:14","新北市泰山區泰林路二段206號","121.433288333333","25.0614333333333","6501600","泰山區"
"243016","380-SR","2018/06/18 18:33:58","新北市泰山區黎明路25號","121.422285","25.0609233333333","6501600","泰山區"
"243011","KEA-2215","2018/06/18 18:39:25","新北市泰山區黎明路25號","121.421841666667","25.0607083333333","6501600","泰山區"
"243012","646-TV","2018/06/18 18:39:09","新北市泰山區泰林路二段203號","121.433093333333","25.061535","6501600","泰山區"
"243014","680-BX","2018/06/18 18:39:09","新北市泰山區黎明路25號","121.421925","25.060715","6501600","泰山區"
"222003","436-BY","2018/06/18 18:39:13","新北市深坑區翠谷街39號","121.626713333333","25.00949","6501800","深坑區"
"222002","659-BX","2018/06/18 18:39:26","新北市深坑區雲鄉路56號","121.621951666667","24.9995266666667","6501800","深坑區"
"231041","002-UM","2018/06/18 18:39:11","新北市新店區安華路28-1號","121.519686666667","24.96068","6500600","新店區"
"231059","046-UY","2018/06/18 18:39:18","新北市新店區安華路3號","121.519188333333","24.9596733333333","6500600","新店區"
"231040","047-UY","2018/06/18 18:39:12","新北市新店區安一路一段1-1號","121.51897","24.9611483333333","6500600","新店區"
"231044","106-UY","2018/06/18 18:39:11","新北市新店區安康路一段164號","121.52607","24.9629966666667","6500600","新店區"
"231052","108-UY","2018/06/18 18:39:13","新北市新店區永興路41號","121.543356666667","24.9385716666667","6500600","新店區"
"231047","187-VK","2018/06/18 18:39:16","新北市新店區安康路一段92-1號","121.527831666667","24.9620083333333","6500600","新店區"
"231046","188-VK","2018/06/18 18:39:22","新北市新店區直潭一街1號","121.535643333333","24.9432116666667","6500600","新店區"
"231054","KEA-2219","2018/06/18 18:39:23","新北市新店區安一路一段1-1號","121.519941666667","24.96117","6500600","新店區"
"231057","256-BX","2018/06/18 18:39:29","新北市新店區新烏路一段215號","121.54915","24.9314333333333","6500600","新店區"
"231042","268-BY","2018/06/18 18:39:19","新北市新店區安華路1-1號","121.519341666667","24.96046","6500600","新店區"
"231051","278-BY","2018/06/18 18:39:17","新北市新店區環河路120號","121.536605","24.9682966666667","6500600","新店區"
"231050","AAD-862","2018/06/18 18:39:21","新北市新店區安一路一段1-1號","121.519911666667","24.9610933333333","6500600","新店區"
"231058","3713-VJ","2018/06/18 18:39:22","新北市新店區新店後街8號","121.537846666667","24.9530933333333","6500600","新店區"
"231066","4716-K9","2018/06/18 18:39:23","新北市新店區安一路一段1-1號","121.51908","24.961135","6500600","新店區"
"231056","4715-K9","2018/06/18 18:39:13","新北市新店區建國路138號","121.53899","24.9790066666667","6500600","新店區"
"231067","4772-VM","2018/06/18 18:39:16","新北市新店區安康路一段76巷20號","121.528396666667","24.9629733333333","6500600","新店區"
"231049","513-UM","2018/06/18 18:39:19","新北市新店區安一路一段1-1號","121.519691666667","24.9610816666667","6500600","新店區"
"231061","619-UM","2018/06/18 18:39:16","新北市新店區安華路28-1號","121.519498333333","24.9606433333333","6500600","新店區"
"231063","641-BX","2018/06/18 18:39:19","新北市新店區安華路1-1號","121.51962","24.96036","6500600","新店區"
"231064","719-UM","2018/06/18 18:39:25","新北市新店區安一路一段1-1號","121.519381666667","24.9610433333333","6500600","新店區"
"231065","719-UY","2018/06/18 18:39:14","新北市新店區安一路一段1-1號","121.519163333333","24.9612283333333","6500600","新店區"
"231062","720-UM","2018/06/18 18:39:12","新北市新店區安一路一段1-1號","121.519026666667","24.9612133333333","6500600","新店區"
"231060","897-TW","2018/06/18 18:39:18","新北市新店區安華路1-1號","121.519463333333","24.9604416666667","6500600","新店區"
"231045","898-TW","2018/06/18 18:39:06","新北市新店區安華路28-1號","121.519331666667","24.960945","6500600","新店區"
"231043","899-TW","2018/06/18 18:39:20","新北市新店區安華路28-1號","121.519256666667","24.9607433333333","6500600","新店區"
"231055","AKT-0513","2018/06/18 18:39:23","新北市新店區新生街35號","121.539461666667","24.9668433333333","6500600","新店區"
"241013","270-UM","2018/06/18 18:39:11","新北市三重區仁福街40號","121.497206666667","25.0746283333333","6500200","三重區"
"241030","480-VK","2018/06/18 18:39:13","新北市三重區環河南路261號","121.49025","25.049645","6500200","三重區"
"235064","005-UY","2018/06/18 18:39:27","新北市中和區連城路109巷39號","121.496953333333","24.9984166666667","6500300","中和區"
"235063","006-UY","2018/06/18 18:39:27","新北市中和區連城路393號","121.486448333333","24.9961866666667","6500300","中和區"
"235056","096-UM","2018/06/18 18:39:24","新北市中和區員山路611巷1號","121.47791","25.0112916666667","6500300","中和區"
"235039","097-UM","2018/06/18 18:39:17","新北市永和區中正路101號","121.515005","24.99784","6500300","中和區"
"235065","098-UM","2018/06/18 18:39:27","新北市中和區莊敬路49巷27號","121.501453333333","25.0060433333333","6500300","中和區"
"235040","150-BY","2018/06/18 18:39:25","新北市中和區宜安路41號","121.511821666667","24.99643","6500300","中和區"
"235058","151-BY","2018/06/18 18:39:15","新北市中和區員山路28-25號","121.480961666667","24.9866666666667","6500300","中和區"
"235055","183-VK","2018/06/18 18:39:11","新北市中和區民生街12巷1號","121.470581666667","25.0055783333333","6500300","中和區"
"235038","185-VK","2018/06/18 18:39:20","新北市中和區立人街14巷3號","121.51933","24.9947316666667","6500300","中和區"
"235049","186-VK","2018/06/18 18:39:21","新北市中和區景平路480號","121.505123333333","24.993655","6500300","中和區"
"235067","255-BX","2018/06/18 18:39:28","新北市中和區新生街6號","121.483151666667","25.0046666666667","6500300","中和區"
"235043","352-BY","2018/06/18 18:39:08","新北市中和區景平路182號","121.51634","24.9920016666667","6500300","中和區"
"235042","KEA-2878","2018/06/18 18:39:11","新北市中和區成功路97巷18弄9號","121.52694","24.9914116666667","6500300","中和區"
"235050","4979-A6","2018/06/18 18:39:19","新北市中和區忠孝街124巷8號","121.512675","24.985975","6500300","中和區"
"235069","4980-A6","2018/06/18 18:39:21","新北市中和區景平路597號","121.49701","25.000535","6500300","中和區"
"235070","558-UM","2018/06/18 18:39:09","新北市中和區南華路5號","121.502038333333","24.995485","6500300","中和區"
"235045","565-BX","2018/06/18 18:39:25","新北市中和區南山路236巷63弄1號","121.503813333333","24.9875716666667","6500300","中和區"
"235054","640-BX","2018/06/18 18:39:14","新北市中和區民享街32巷26號","121.472575","25.0031583333333","6500300","中和區"
"235060","647-TV","2018/06/18 18:39:12","新北市中和區中山路三段2號","121.479908333333","25.00609","6500300","中和區"
"235047","732-UM","2018/06/18 18:39:23","新北市中和區南山路320巷10弄23號","121.506665","24.9866933333333","6500300","中和區"
"235046","733-UM","2018/06/18 18:39:09","新北市中和區忠孝街126-1號","121.512228333333","24.9863133333333","6500300","中和區"
"235062","800-TS","2018/06/18 18:39:25","新北市中和區中山路二段312巷13號","121.495555","25.0032666666667","6500300","中和區"
"235057","801-TS","2018/06/18 18:39:25","新北市中和區民安街4號","121.480891666667","25.00112","6500300","中和區"
"235041","802-TS","2018/06/18 18:39:19","新北市中和區宜安路118巷24號","121.510978333333","24.9988183333333","6500300","中和區"
"235052","805-TS","2018/06/18 18:39:09","新北市中和區興南路三段52巷2-5號","121.494685","24.9760183333333","6500300","中和區"
"235048","896-TW","2018/06/18 18:39:19","新北市中和區南山路325號","121.505065","24.9912533333333","6500300","中和區"
"235053","900-TW","2018/06/18 18:39:16","新北市土城區延壽路113巷1號","121.469148333333","24.99394","6500300","中和區"
"235066","911-UM","2018/06/18 18:39:25","新北市中和區水源路31號","121.504191666667","25.0036183333333","6500300","中和區"
"235051","157-BY","2018/06/18 18:39:17","新北市中和區華新街232巷24號","121.505576666667","24.9825716666667","6500300","中和區"
"235037","AAC-213","2018/06/18 18:39:11","新北市中和區景德街34號","121.518128333333","24.9914","6500300","中和區"
"235059","AAC-215","2018/06/18 18:39:26","新北市中和區錦和路354巷15號","121.48975","24.9915483333333","6500300","中和區"
"220065","072-UY","2018/06/18 18:39:20","新北市板橋區民族路247巷5弄42號","121.470293333333","25.008505","6500100","板橋區"
"220086","073-UY","2018/06/18 18:39:18","新北市板橋區南雅西路二段192巷1弄1號","121.451993333333","25.0144416666667","6500100","板橋區"
"220069","AAD-861","2018/06/18 18:39:19","新北市板橋區華東街1-10號","121.448288333333","24.99497","6500100","板橋區"
"226004","312-R5","2018/06/18 18:39:01","新北市平溪區平溪里三坑路50號","121.733955","25.0308666666667","6502400","平溪區"
"228003","097-TW","2018/06/18 18:39:25","新北市貢寮區和美里龍洞街41號","121.912633333333","25.1132266666667","6502600","貢寮區"
"228001","212-TW","2018/06/18 18:39:26","新北市貢寮區仁理村研海街12-1號","121.923778333333","25.0516566666667","6502600","貢寮區"
"228002","585-TW","2018/06/18 18:39:16","新北市貢寮區福隆里桂安街17號","121.966648333333","25.0228683333333","6502600","貢寮區"
"224010","AGQ-8101","2018/06/18 18:38:07","新北市瑞芳區崙頂路105號","121.844485","25.1070316666667","6501200","瑞芳區"
"224006","676-BX","2018/06/18 18:39:22","新北市瑞芳區明燈路三段39-3號","121.806856666667","25.1078633333333","6501200","瑞芳區"
"224002","639-TC","2018/06/18 18:39:17","新北市瑞芳區三爪子坑路29巷40號","121.813698333333","25.1067566666667","6501200","瑞芳區"
"224009","273-VK","2018/06/18 18:39:23","新北市瑞芳區五號路126號","121.854961666667","25.11087","6501200","瑞芳區"
"224008","272-VK","2018/06/18 18:39:29","新北市瑞芳區逢甲路63號","121.807941666667","25.1093383333333","6501200","瑞芳區"
"224005","271-BY","2018/06/18 18:39:24","新北市瑞芳區建基路一段30號","121.819503333333","25.12115","6501200","瑞芳區"
"227001","642-TC","2018/06/18 18:39:12","新北市雙溪區魚行里坤溪3-5號","121.876185","25.0208316666667","6502500","雙溪區"
"227008","400-TW","2018/06/18 18:39:19","新北市雙溪區牡丹里牡丹217號","121.850933333333","25.057545","6502500","雙溪區"
"253005","032-BX","2018/06/18 18:39:27","新北市石門區石門街41號","121.566353333333","25.2904133333333","6502200","石門區"
"253006","295-VK","2018/06/18 18:39:17","新北市石門區楓林26-16號","121.542793333333","25.2906483333333","6502200","石門區"
"222001","KEA-2212","2018/06/18 18:39:22","新北市深坑區北深路一段98號","121.635751666667","25.0107016666667","6501800","深坑區"
"208002","KEA-2872","2018/06/18 18:39:21","新北市金山區忠孝一路19巷17號","121.637421666667","25.217535","6502700","金山區"
"208003","665-BX","2018/06/18 18:39:30","新北市金山區中山路192號","121.637831666667","25.2215416666667","6502700","金山區"
"208001","761-BX","2018/06/18 18:39:30","新北市金山區文化三路9號","121.635325","25.2248416666667","6502700","金山區"
"251009","008-UM","2018/06/18 18:39:07","新北市淡水區重建街226號","121.441396666667","25.17499","6501000","淡水區"
"251004","009-UM","2018/06/18 18:39:27","新北市淡水區大同路2號","121.461606666667","25.1406966666667","6501000","淡水區"
"251013","KEA-2871","2018/06/18 18:39:15","新北市淡水區椿子林10號","121.486835","25.2033016666667","6501000","淡水區"
"251016","179-VK","2018/06/18 18:39:16","新北市淡水區下圭柔山76-13號","121.445016666667","25.2055133333333","6501000","淡水區"
"251014","180-VK","2018/06/18 18:39:22","新北市淡水區崙頂12-8號","121.49557","25.2172216666667","6501000","淡水區"
"251008","181-VK","2018/06/18 18:39:13","新北市淡水區北投子20號","121.45402","25.18372","6501000","淡水區"
"251015","182-VK","2018/06/18 18:39:16","新北市淡水區興福寮66巷301號","121.485666666667","25.1617583333333","6501000","淡水區"
"251010","413-VK","2018/06/18 18:39:16","新北市淡水區沙崙路143-4號","121.423191666667","25.1832333333333","6501000","淡水區"
"251012","441-VK","2018/06/18 18:39:25","新北市淡水區北新路117號","121.448881666667","25.1786833333333","6501000","淡水區"
"251001","559-UM","2018/06/18 18:39:14","新北市淡水區自強路415巷2號","121.465533333333","25.1342416666667","6501000","淡水區"
"251006","561-UM","2018/06/18 18:39:15","新北市淡水區崁頂37-11號","121.438665","25.194265","6501000","淡水區"
"251011","650-BX","2018/06/18 18:39:24","新北市淡水區鄧公路266號","121.459198333333","25.1687366666667","6501000","淡水區"
"251002","672-BX","2018/06/18 18:39:23","新北市淡水區中正東路一段3巷14弄1號","121.45091","25.16403","6501000","淡水區"
"251003","673-BX","2018/06/18 18:39:13","新北市淡水區北新路69巷26號","121.446645","25.1800133333333","6501000","淡水區"
"207003","550-UM","2018/06/18 18:39:12","新北市萬里區野柳里港西路80-1號","121.683878333333","25.2060333333333","6502800","萬里區"
"207004","225-TW","2018/06/18 18:39:20","新北市萬里區萬里里瑪鋉下街47-2號","121.691045","25.1798333333333","6502800","萬里區"
"252002","178-VK","2018/06/18 18:39:21","新北市三芝區中正路二段31號","121.504108333333","25.2549333333333","6502100","三芝區"
"252003","249-BX","2018/06/18 18:39:12","新北市三芝區後厝里土地公坑54-5號","121.466845","25.2499666666667","6502100","三芝區"
"252001","292-VK","2018/06/18 18:39:19","新北市三芝區中興街二段260號","121.501875","25.2528766666667","6502100","三芝區"
"237004","KEA-2597","2018/06/18 18:39:14","新北市三峽區插角42號","121.40482","24.8722683333333","6500900","三峽區"
"237007","153-BY","2018/06/18 18:39:19","新北市三峽區中正路二段594號","121.359086666667","24.9057833333333","6500900","三峽區"
"237009","210-TH","2018/06/18 18:39:10","新北市三峽區大同路240巷45弄6號","121.36532","24.9262116666667","6500900","三峽區"
"237013","252-BX","2018/06/18 18:39:12","新北市三峽區光明路69巷31號","121.376938333333","24.9292616666667","6500900","三峽區"
"237012","275-BY","2018/06/18 18:39:10","新北市三峽區三樹路212-2號","121.379215","24.942475","6500900","三峽區"
"237008","302-VK","2018/06/18 18:39:27","新北市三峽區白雞33-61號","121.370935","24.9130966666667","6500900","三峽區"
"237014","433-BY","2018/06/18 18:39:13","新北市三峽區和平街99號","121.370298333333","24.9379383333333","6500900","三峽區"
"237006","5529-G3","2018/06/18 18:39:22","新北市三峽區溪東路238巷11號","121.408076666667","24.9311466666667","6500900","三峽區"
"237011","KEA-2596","2018/06/18 18:39:20","新北市三峽區溪東路311號","121.410271666667","24.93046","6500900","三峽區"
"237015","649-BX","2018/06/18 18:39:26","新北市三峽區竹崙路43號","121.429905","24.9224733333333","6500900","三峽區"
"237010","706-TV","2018/06/18 18:39:16","新北市三峽區復興路291號","121.365863333333","24.938855","6500900","三峽區"
"237005","AKY-6261","2018/06/18 18:39:13","新北市三峽區復興路17號","121.37416","24.936145","6500900","三峽區"
"236069","105-UM","2018/06/18 18:39:10","新北市土城區永豐路157巷29弄6-1號","121.468323333333","24.9814783333333","6501300","土城區"
"236078","166-UM","2018/06/18 18:39:26","新北市土城區中央路四段52巷10號","121.419998333333","24.9608333333333","6501300","土城區"
"236030","253-BX","2018/06/18 18:39:28","新北市土城區福仁街55號","121.43961","24.9747683333333","6501300","土城區"
"236026","269-VK","2018/06/18 18:39:28","新北市土城區忠義路49號","121.440443333333","24.969175","6501300","土城區"
"236014","270-VK","2018/06/18 18:39:26","新北市土城區清水路207巷25號","121.459666666667","24.98263","6501300","土城區"
"236039","271-VK","2018/06/18 18:39:12","新北市土城區明德路一段291巷5號","121.460311666667","24.9769016666667","6501300","土城區"
"236020","401-BY","2018/06/18 18:39:23","新北市土城區延吉街253巷1號","121.467625","24.9846783333333","6501300","土城區"
"236042","752-BX","2018/06/18 18:39:20","新北市土城區學成路108巷3號","121.450026666667","24.9894883333333","6501300","土城區"
"236059","912-UM","2018/06/18 18:39:15","新北市土城區中央路三段217號","121.429543333333","24.9645033333333","6501300","土城區"
"236048","913-UM","2018/06/18 18:39:09","新北市土城區青雲路44號","121.45985","24.9881316666667","6501300","土城區"
"236063","915-UM","2018/06/18 18:39:26","新北市土城區延壽路55巷9弄2號","121.469535","24.9916283333333","6501300","土城區"
"236055","AAC-216","2018/06/18 18:39:16","新北市土城區裕民路42號","121.448188333333","24.9883366666667","6501300","土城區"
"242058","986-R7","2018/06/18 18:39:19","新北市新莊區中正路879號","121.418015","25.0268233333333","6500500","新莊區"
"242053","751-BX","2018/06/18 18:39:25","新北市板橋區大觀路三段50巷69號","121.43157","24.9962316666667","6500500","新莊區"
"242025","613-BX","2018/06/18 18:36:59","新北市新莊區立信一街39號","121.442008333333","25.049365","6500500","新莊區"
"242002","349-TH","2018/06/18 18:39:17","新北市新莊區瓊林南路77-41號","121.437701666667","25.0125333333333","6500500","新莊區"
"238023","601-UM","2018/06/18 18:39:24","新北市樹林區三福街114號","121.40648","25.0162716666667","6500700","樹林區"
"238019","599-UM","2018/06/18 18:39:08","新北市樹林區中華路190-16號","121.41168","24.98062","6500700","樹林區"
"238018","571-TV","2018/06/18 18:39:20","新北市樹林區鎮前街17號","121.426028333333","24.9926016666667","6500700","樹林區"
"238024","5061-A6","2018/06/18 18:39:10","新北市樹林區大安路593號","121.41181","24.98293","6500700","樹林區"
"238022","KEA-2213","2018/06/18 18:39:12","新北市樹林區中華路190-6號","121.41071","24.98053","6500700","樹林區"
"238025","303-VK","2018/06/18 18:39:15","新北市樹林區中山路三段22號","121.395568333333","24.9728933333333","6500700","樹林區"
"238020","268-VK","2018/06/18 18:39:16","新北市樹林區俊英街282號","121.423751666667","25.0133266666667","6500700","樹林區"
"238026","172-UY","2018/06/18 18:39:21","新北市樹林區信和街2巷3號","121.389733333333","24.971","6500700","樹林區"
"238016","169-UY","2018/06/18 18:38:48","新北市樹林區文化街29號","121.419031666667","24.98772","6500700","樹林區"
"239007","AAC-297","2018/06/18 18:39:30","新北市鶯歌區中正一路461-2號","121.363215","24.9567466666667","6500800","鶯歌區"
"239008","527-UM","2018/06/18 18:39:25","新北市鶯歌區國際一路179號","121.336218333333","24.9765333333333","6500800","鶯歌區"
"239001","417-VK","2018/06/18 18:39:24","新北市鶯歌區高職南街13號","121.337441666667","24.9392433333333","6500800","鶯歌區"
"239003","360-BY","2018/06/18 18:39:15","新北市鶯歌區福安街58號","121.335553333333","24.9651833333333","6500800","鶯歌區"
"239002","359-BY","2018/06/18 18:39:24","新北市鶯歌區中山路315號","121.343943333333","24.9569283333333","6500800","鶯歌區"
"239004","193-VK","2018/06/18 18:39:16","新北市鶯歌區尖山路338號","121.341046666667","24.94357","6500800","鶯歌區"
"221008","489-VK","2018/06/18 18:39:25","新北市汐止區汐萬路一段278巷5號","121.651221666667","25.0747366666667","6501100","汐止區"
"221036","130-UY","2018/06/18 18:39:12","新北市汐止區忠孝東路346號","121.665226666667","25.0697566666667","6501100","汐止區"
"221015","131-UY","2018/06/18 18:39:14","新北市汐止區吉祥街26號","121.667813333333","25.0810466666667","6501100","汐止區"
"221010","269-BY","2018/06/18 18:39:26","新北市汐止區汐萬路三段246號","121.642135","25.0975933333333","6501100","汐止區"
"221012","278-VK","2018/06/18 18:39:25","新北市汐止區保長路149號","121.676776666667","25.076315","6501100","汐止區"
"221023","279-VK","2018/06/18 18:39:17","新北市汐止區康寧街543號","121.634448333333","25.0692266666667","6501100","汐止區"
"221032","280-BY","2018/06/18 18:39:25","新北市汐止區福山街62巷6號","121.618098333333","25.0466183333333","6501100","汐止區"
"221027","281-BY","2018/06/18 18:39:18","新北市汐止區和平街3-1號","121.663528333333","25.07051","6501100","汐止區"
"221029","298-VK","2018/06/18 18:39:24","新北市汐止區樟樹一路131號","121.642161666667","25.0650416666667","6501100","汐止區"
"221021","299-VK","2018/06/18 18:39:11","新北市汐止區復興路71號","121.657316666667","25.0619116666667","6501100","汐止區"
"221031","353-TW","2018/06/18 18:39:13","新北市汐止區福德一路270號","121.632183333333","25.06398","6501100","汐止區"
"221035","622-UM","2018/06/18 18:39:12","新北市汐止區大同路二段298號","121.655245","25.0665316666667","6501100","汐止區"
"221025","623-UM","2018/06/18 18:39:10","新北市汐止區福安街45號","121.663031666667","25.0644833333333","6501100","汐止區"
"221038","646-BX","2018/06/18 18:39:28","新北市汐止區汐萬路一段256巷3號","121.653336666667","25.07462","6501100","汐止區"
"221033","647-BX","2018/06/18 18:39:29","新北市汐止區宜興街6號","121.621175","25.0413433333333","6501100","汐止區"
"221002","707-TV","2018/06/18 18:39:11","新北市汐止區中興路25號","121.636883333333","25.05958","6501100","汐止區"
"221018","753-BX","2018/06/18 18:39:19","新北市汐止區茄苳路250巷17號","121.671718333333","25.0676966666667","6501100","汐止區"
"220079","145-BY","2018/06/18 18:39:27","新北市板橋區林園街7-1號","121.454001666667","25.0091383333333","6500100","板橋區"
"220080","200-UY","2018/06/18 18:39:09","新北市板橋區大觀路二段265巷76弄37號","121.44104","24.9967716666667","6500100","板橋區"
"220082","610-BX","2018/06/18 18:39:20","新北市板橋區大觀路三段50巷49號","121.432243333333","24.9957716666667","6500100","板橋區"
"220056","276-BY","2018/06/18 18:39:23","新北市板橋區四川路二段橋頭6號","121.448316666667","24.9940366666667","6500100","板橋區"
"220072","277-BY","2018/06/18 18:39:28","新北市板橋區大觀路三段133巷8號","121.433085","24.9939733333333","6500100","板橋區"
"220071","283-VK","2018/06/18 18:39:19","新北市板橋區四川路二段121號","121.451148333333","24.9941","6500100","板橋區"
"220094","285-UM","2018/06/18 18:39:10","新北市板橋區民生路二段161巷5號","121.47009","25.019635","6500100","板橋區"
"220083","286-VK","2018/06/18 18:39:24","新北市板橋區大觀路二段107號","121.446258333333","25.00163","6500100","板橋區"
"220081","287-VK","2018/06/18 18:39:10","新北市板橋區大觀路一段51號","121.44768","25.0067933333333","6500100","板橋區"
"220061","293-UM","2018/06/18 18:39:12","新北市板橋區民生路二段120號","121.47034","25.01988","6500100","板橋區"
"220084","296-UM","2018/06/18 18:39:18","新北市板橋區大觀路二段108號","121.444331666667","24.999525","6500100","板橋區"
"220075","303-R5","2018/06/18 18:39:09","新北市板橋區華東街308號","121.452735","25.0030466666667","6500100","板橋區"
"220064","486-VK","2018/06/18 18:39:22","新北市板橋區縣民大道二段68-1號","121.463301666667","25.0128766666667","6500100","板橋區"
"220035","560-BX","2018/06/18 18:39:27","新北市板橋區南雅西路二段177號","121.45181","25.01254","6500100","板橋區"
"220103","561-BX","2018/06/18 18:39:14","新北市板橋區民生路二段161巷9號","121.470285","25.0196033333333","6500100","板橋區"
"220063","609-BX","2018/06/18 18:39:17","新北市板橋區民生路二段171號","121.469803333333","25.0200833333333","6500100","板橋區"
"220057","686-BX","2018/06/18 18:39:13","新北市板橋區華東街1-9號","121.448243333333","24.9949433333333","6500100","板橋區"
"220077","687-BX","2018/06/18 18:39:29","新北市板橋區大觀路二段174巷116弄2號","121.441041666667","25.0017233333333","6500100","板橋區"
"220067","829-TW","2018/06/18 18:39:21","新北市板橋區民生路二段120號","121.470403333333","25.0197","6500100","板橋區"
"220074","895-R6","2018/06/18 18:39:20","新北市板橋區南雅南路二段1-1號","121.454711666667","25.0037783333333","6500100","板橋區"
"220073","985-R7","2018/06/18 18:39:25","新北市板橋區館前西路68號","121.457666666667","25.0070833333333","6500100","板橋區"
"220070","AAC-253","2018/06/18 18:39:25","新北市板橋區南雅南路二段144巷42號","121.449768333333","24.9969333333333","6500100","板橋區"
"235068","KEA-2873","2018/06/18 18:39:19","新北市中和區中正路211巷13弄7號","121.497038333333","24.9931966666667","6500300","中和區"
"235061","KEA-2875","2018/06/18 18:39:26","新北市中和區民享街114巷19號","121.47376","24.9994616666667","6500300","中和區"
