"lineid","car","time","location","longitude","latitude","cityid","cityname"
"234046","148-BY","2018/06/18 18:59:16","新北市永和區得和路373巷16弄3號","121.525256666667","25.0001433333333","6500400","永和區"
"234007","207-UY","2018/06/18 18:59:28","新北市永和區永和路二段62號","121.514923333333","25.0109866666667","6500400","永和區"
"234081","298-R6","2018/06/18 18:59:29","新北市永和區國中路200號","121.522331666667","25.006165","6500400","永和區"
"234038","336-UY","2018/06/18 18:59:15","新北市永和區成功路二段207號","121.52661","24.9959183333333","6500400","永和區"
"234064","337-UY","2018/06/18 18:59:20","新北市永和區秀朗路一段180號","121.51892","25.0033766666667","6500400","永和區"
"234086","338-UY","2018/06/18 18:59:16","新北市永和區中正路393號","121.517276666667","25.00404","6500400","永和區"
"234070","552-UM","2018/06/18 18:59:15","新北市永和區中興街52巷1弄36號","121.51762","25.0114316666667","6500400","永和區"
"234017","745-BX","2018/06/18 18:59:20","新北市永和區永和路二段299號","121.516008333333","25.0160816666667","6500400","永和區"
"234030","746-BX","2018/06/18 18:59:29","新北市永和區秀朗路二段276號","121.52594","24.9979","6500400","永和區"
"234054","KEA-2590","2018/06/18 18:59:26","新北市永和區竹林路66巷2號","121.518386666667","25.0133333333333","6500400","永和區"
"234013","KEA-2591","2018/06/18 18:59:14","新北市永和區中山路一段102號","121.511146666667","25.0107183333333","6500400","永和區"
"234061","AAD-866","2018/06/18 18:59:09","新北市永和區中正路509巷4號","121.516513333333","25.0071083333333","6500400","永和區"
"234042","862-TW","2018/06/18 18:59:15","新北市永和區永貞路273號","121.511483333333","25.00505","6500400","永和區"
"234050","863-TW","2018/06/18 18:59:28","新北市永和區保安路2號","121.510871666667","25.0174683333333","6500400","永和區"
"234026","9371-KE","2018/06/18 18:59:29","新北市永和區安樂路469巷1號","121.514131666667","25.0054983333333","6500400","永和區"
"234011","9373-KE","2018/06/18 18:59:21","新北市永和區忠孝街34巷15號","121.514608333333","25.0165716666667","6500400","永和區"
"249005","172-UM","2018/06/18 18:59:15","新北市八里區長道坑6號","121.396998333333","25.123585","6502300","八里區"
"249001","173-UM","2018/06/18 18:59:12","新北市八里區渡船頭街3-1號","121.434388333333","25.15832","6502300","八里區"
"248016","026-BX","2018/06/18 18:59:16","新北市五股區成泰路三段543巷16號","121.450943333333","25.10223","6501500","五股區"
"248006","077-UY","2018/06/18 18:59:16","新北市五股區中興路一段39號","121.468593333333","25.07237","6501500","五股區"
"248008","095-VK","2018/06/18 18:59:24","新北市五股區中興路一段118巷6弄3號","121.466225","25.07414","6501500","五股區"
"248018","225-UY","2018/06/18 18:59:19","新北市五股區民義路二段22巷30號","121.424296666667","25.0996833333333","6501500","五股區"
"248012","247-BX","2018/06/18 18:59:09","新北市五股區工商路36巷18號","121.439856666667","25.0842916666667","6501500","五股區"
"248010","272-BY","2018/06/18 18:59:25","新北市五股區水碓二路1號","121.430625","25.07126","6501500","五股區"
"248004","677-BX","2018/06/18 18:59:18","新北市五股區民義路二段70號","121.405475","25.1086066666667","6501500","五股區"
"248002","678-BX","2018/06/18 18:59:23","新北市五股區凌雲路一段163號","121.448886666667","25.1025666666667","6501500","五股區"
"234023","9380-KE","2018/06/18 18:59:16","新北市永和區竹林路91巷62號","121.52169","25.012955","6500400","永和區"
"234077","969-R7","2018/06/18 18:59:22","新北市永和區智光街20號","121.517906666667","24.9993883333333","6500400","永和區"
"234074","AAC-211","2018/06/18 18:59:21","新北市永和區環河東路二段100號","121.524128333333","25.0103266666667","6500400","永和區"
"234067","AAC-212","2018/06/18 18:59:26","新北市永和區自由街58號","121.513788333333","25.005805","6500400","永和區"
"234003","AAC-295","2018/06/18 18:59:26","新北市永和區和平街29號","121.51321","25.009895","6500400","永和區"
"232011","076-UY","2018/06/18 18:59:11","新北市坪林區坪林街13號","121.712241666667","24.9359266666667","6502000","坪林區"
"244007","080-UY","2018/06/18 18:59:24","新北市林口區太平里5鄰28號","121.376171666667","25.1190316666667","6501700","林口區"
"244019","403-UM","2018/06/18 18:59:28","新北市林口區麗園二街87號","121.382678333333","25.0667933333333","6501700","林口區"
"244013","742-UY","2018/06/18 18:59:24","新北市林口區麗園一街11巷1號","121.376923333333","25.0703566666667","6501700","林口區"
"244023","483-VK","2018/06/18 18:59:22","新北市林口區民權路19號","121.371341666667","25.0801966666667","6501700","林口區"
"244017","485-VK","2018/06/18 18:59:19","新北市林口區文化二路一段68巷11號","121.366431666667","25.068855","6501700","林口區"
"244011","657-BX","2018/06/18 18:59:20","新北市林口區仁愛路一段285巷112號","121.395608333333","25.0755383333333","6501700","林口區"
"244025","837-TS","2018/06/18 18:59:16","新北市林口區文化北路一段396-1號","121.363633333333","25.0754016666667","6501700","林口區"
"243013","AAD-798","2018/06/18 18:59:20","新北市泰山區明志路三段239號","121.423548333333","25.0377533333333","6501600","泰山區"
"243009","297-R6","2018/06/18 18:59:26","新北市泰山區泰林路二段365號","121.427911666667","25.063705","6501600","泰山區"
"243016","380-SR","2018/06/18 18:59:19","新北市泰山區民權街4號","121.427896666667","25.0509933333333","6501600","泰山區"
"243015","421-VK","2018/06/18 18:59:15","新北市泰山區美寧街3號","121.430085","25.0634116666667","6501600","泰山區"
"243011","KEA-2215","2018/06/18 18:59:25","新北市泰山區明志路二段246-1號","121.427038333333","25.04815","6501600","泰山區"
"243010","KEA-2216","2018/06/18 18:59:26","新北市泰山區辭修路24號","121.429111666667","25.0583033333333","6501600","泰山區"
"243012","646-TV","2018/06/18 18:59:29","新北市泰山區福興一街91號","121.431966666667","25.057675","6501600","泰山區"
"243014","680-BX","2018/06/18 18:59:30","新北市泰山區泰林路二段572號","121.422573333333","25.063685","6501600","泰山區"
"222003","436-BY","2018/06/18 18:59:13","新北市深坑區深南路51-1號","121.62136","25.0101283333333","6501800","深坑區"
"222002","659-BX","2018/06/18 18:59:19","新北市深坑區文山路一段31巷2號","121.629898333333","25.0033116666667","6501800","深坑區"
"231041","002-UM","2018/06/18 18:59:11","新北市新店區環河路66號","121.536938333333","24.9628433333333","6500600","新店區"
"231059","046-UY","2018/06/18 18:59:18","新北市新店區安華路28-1號","121.51968","24.96103","6500600","新店區"
"231040","047-UY","2018/06/18 18:59:12","新北市新店區中正路401號","121.5344","24.9775016666667","6500600","新店區"
"231044","106-UY","2018/06/18 18:59:11","新北市新店區寶中路72號","121.54788","24.98059","6500600","新店區"
"231052","108-UY","2018/06/18 18:59:13","新北市新店區新烏路二段50巷1號","121.547111666667","24.928455","6500600","新店區"
"231047","187-VK","2018/06/18 18:59:16","新北市新店區德正街25巷2號","121.544355","24.9715816666667","6500600","新店區"
"231046","188-VK","2018/06/18 18:59:22","新北市新店區直潭四街38-1號","121.533551666667","24.9415216666667","6500600","新店區"
"231054","KEA-2219","2018/06/18 18:59:23","新北市新店區新店路13號","121.540261666667","24.9528283333333","6500600","新店區"
"231042","268-BY","2018/06/18 18:59:19","新北市新店區中正路28號","121.54526","24.9696416666667","6500600","新店區"
"231051","278-BY","2018/06/18 18:59:17","新北市新店區百忍街17巷2號","121.534176666667","24.9756483333333","6500600","新店區"
"231050","AAD-862","2018/06/18 18:59:20","新北市新店區新烏路一段11巷7號","121.547318333333","24.9512","6500600","新店區"
"231058","3713-VJ","2018/06/18 18:59:22","新北市新店區中興路一段138號","121.542283333333","24.9636116666667","6500600","新店區"
"231066","4716-K9","2018/06/18 18:59:23","新北市新店區安豐路22巷1號","121.501385","24.9560883333333","6500600","新店區"
"231056","4715-K9","2018/06/18 18:59:13","新北市新店區建國路210-1號","121.53785","24.9810266666667","6500600","新店區"
"231067","4772-VM","2018/06/18 18:59:16","新北市新店區安康路一段207巷6弄4號","121.525778333333","24.96258","6500600","新店區"
"231049","513-UM","2018/06/18 18:59:19","新北市新店區中央路11號","121.533391666667","24.9785183333333","6500600","新店區"
"231061","619-UM","2018/06/18 18:59:16","新北市新店區安華路28-1號","121.519355","24.9607183333333","6500600","新店區"
"231063","641-BX","2018/06/18 18:59:19","新北市新店區安忠路205巷8號","121.509811666667","24.9552466666667","6500600","新店區"
"231064","719-UM","2018/06/18 18:59:25","新北市新店區安華路8號","121.519828333333","24.96265","6500600","新店區"
"231065","719-UY","2018/06/18 18:59:14","新北市新店區安祥路147巷86號","121.475558333333","24.955375","6500600","新店區"
"231062","720-UM","2018/06/18 18:59:12","新北市新店區安豐路60號","121.498403333333","24.953955","6500600","新店區"
"231060","897-TW","2018/06/18 18:59:18","新北市新店區安華路16號","121.517376666667","24.9581183333333","6500600","新店區"
"231045","898-TW","2018/06/18 18:59:26","新北市新店區北新路一段2-17號","121.538516666667","24.9600316666667","6500600","新店區"
"231043","899-TW","2018/06/18 18:59:20","新北市新店區北新路二段3號","121.54258","24.971285","6500600","新店區"
"231055","AKT-0513","2018/06/18 18:59:23","新北市新店區力行路5號","121.53942","24.9646033333333","6500600","新店區"
"241026","066-VK","2018/06/18 18:59:18","新北市三重區泉州街106號","121.494881666667","25.0537066666667","6500200","三重區"
"241013","270-UM","2018/06/18 18:59:11","新北市三重區仁賢街12-1號","121.495695","25.0749016666667","6500200","三重區"
"241035","462-BY","2018/06/18 18:59:18","新北市三重區重新路四段121號","121.484978333333","25.0519633333333","6500200","三重區"
"241030","480-VK","2018/06/18 18:59:13","新北市三重區中正南路269號","121.49325","25.05233","6500200","三重區"
"241029","942-UM","2018/06/18 18:59:21","新北市三重區重安街14號","121.490335","25.058175","6500200","三重區"
"235064","005-UY","2018/06/18 18:59:08","新北市中和區泰和街44巷38號","121.498238333333","25.00114","6500300","中和區"
"235063","006-UY","2018/06/18 18:59:27","新北市中和區中正路590號","121.485961666667","24.9951366666667","6500300","中和區"
"235056","096-UM","2018/06/18 18:59:24","新北市中和區新民街92號","121.481295","25.0081666666667","6500300","中和區"
"235039","097-UM","2018/06/18 18:59:26","新北市中和區安樂路217巷24號","121.51374","24.9984833333333","6500300","中和區"
"235065","098-UM","2018/06/18 18:59:27","新北市中和區福祥路136號","121.498743333333","25.0070233333333","6500300","中和區"
"235040","150-BY","2018/06/18 18:59:21","新北市中和區宜安路28號","121.512961666667","24.9959616666667","6500300","中和區"
"235058","151-BY","2018/06/18 18:59:15","新北市中和區連城路378號","121.480845","24.9950333333333","6500300","中和區"
"235055","183-VK","2018/06/18 18:59:11","新北市中和區德光路77巷9號","121.469838333333","25.0035066666667","6500300","中和區"
"235038","185-VK","2018/06/18 18:59:20","新北市中和區大勇街31巷5號","121.5172","24.9942583333333","6500300","中和區"
"235049","186-VK","2018/06/18 18:59:21","新北市中和區景安路167巷15號","121.50616","24.9949016666667","6500300","中和區"
"235067","255-BX","2018/06/18 18:59:28","新北市中和區民樂路78號","121.484453333333","25.001265","6500300","中和區"
"235044","293-VK","2018/06/18 18:59:18","新北市中和區中興街115巷6號","121.500325","24.992","6500300","中和區"
"235043","352-BY","2018/06/18 18:59:28","新北市中和區成功路36號","121.52607","24.9932316666667","6500300","中和區"
"235042","KEA-2878","2018/06/18 18:59:11","新北市中和區秀朗路三段60巷46號","121.524826666667","24.995035","6500300","中和區"
"235050","4979-A6","2018/06/18 18:59:18","新北市中和區忠孝街2號","121.508835","24.9829466666667","6500300","中和區"
"235069","4980-A6","2018/06/18 18:59:21","新北市中和區景平路459巷1弄2號","121.500288333333","24.9963383333333","6500300","中和區"
"235070","558-UM","2018/06/18 18:59:29","新北市中和區安和路159號","121.506318333333","24.997265","6500300","中和區"
"235045","565-BX","2018/06/18 18:59:24","新北市中和區景新街467巷20弄7號","121.514341666667","24.9880116666667","6500300","中和區"
"235054","640-BX","2018/06/18 18:59:14","新北市中和區中山路三段145號","121.47384","25.0058933333333","6500300","中和區"
"235060","647-TV","2018/06/18 18:59:12","新北市中和區民治街11巷1號","121.475181666667","25.0042866666667","6500300","中和區"
"235047","732-UM","2018/06/18 18:59:23","新北市中和區興南路二段34巷57弄17號","121.505693333333","24.9857666666667","6500300","中和區"
"235046","733-UM","2018/06/18 18:59:09","新北市中和區興南路二段3巷17號","121.50883","24.9864433333333","6500300","中和區"
"235057","801-TS","2018/06/18 18:59:25","新北市中和區民利街73號","121.478491666667","24.9983083333333","6500300","中和區"
"235041","802-TS","2018/06/18 18:59:19","新北市中和區安平路102號","121.51157","24.9972533333333","6500300","中和區"
"235052","805-TS","2018/06/18 18:59:28","新北市中和區興南路二段114巷4號","121.504221666667","24.98427","6500300","中和區"
"235048","896-TW","2018/06/18 18:59:19","新北市中和區華新街109巷16號","121.508748333333","24.9810316666667","6500300","中和區"
"235053","900-TW","2018/06/18 18:59:16","新北市中和區民德路360號","121.466218333333","24.9938016666667","6500300","中和區"
"235066","911-UM","2018/06/18 18:59:25","新北市中和區中山路二段131巷5弄1號","121.502791666667","25.0027966666667","6500300","中和區"
"235051","157-BY","2018/06/18 18:59:17","新北市中和區忠孝街11巷1號","121.509905","24.9831183333333","6500300","中和區"
"235037","AAC-213","2018/06/18 18:59:10","新北市中和區秀朗路三段10巷14弄41-5號","121.524113333333","24.9963966666667","6500300","中和區"
"235059","AAC-215","2018/06/18 18:59:26","新北市中和區圓通路367巷20弄23號","121.491435","24.9883166666667","6500300","中和區"
"220065","072-UY","2018/06/18 18:59:20","新北市板橋區民族路287巷12號","121.471161666667","25.0071466666667","6500100","板橋區"
"220086","073-UY","2018/06/18 18:59:18","新北市板橋區中正路107號","121.456285","25.0148066666667","6500100","板橋區"
"220106","075-UY","2018/06/18 18:59:23","新北市板橋區文化路二段124巷28-2號","121.471228333333","25.025665","6500100","板橋區"
"220069","AAD-861","2018/06/18 18:59:19","新北市板橋區華興街73-1號","121.457055","25.0050266666667","6500100","板橋區"
"226004","312-R5","2018/06/18 18:59:21","新北市平溪區嶺腳里嶺腳寮1-6號","121.74601","25.0285","6502400","平溪區"
"228003","097-TW","2018/06/18 18:59:25","新北市貢寮區和美里龍洞街64號","121.916311666667","25.1176483333333","6502600","貢寮區"
"228001","212-TW","2018/06/18 18:59:26","新北市貢寮區仁理村研海街12-1號","121.923756666667","25.0516233333333","6502600","貢寮區"
"228002","585-TW","2018/06/18 18:59:16","新北市貢寮區福隆里東興街18-1號","121.950036666667","25.0181616666667","6502600","貢寮區"
"224010","AGQ-8101","2018/06/18 18:58:07","新北市瑞芳區基山街27號","121.845455","25.1092966666667","6501200","瑞芳區"
"224006","676-BX","2018/06/18 18:59:18","新北市瑞芳區民權街21-1號","121.807908333333","25.1065716666667","6501200","瑞芳區"
"224002","639-TC","2018/06/18 18:59:17","新北市瑞芳區靜安路四段35巷1號","121.795526666667","25.0976283333333","6501200","瑞芳區"
"224009","273-VK","2018/06/18 18:59:23","新北市瑞芳區祈堂路53-1號","121.85956","25.1108766666667","6501200","瑞芳區"
"224008","272-VK","2018/06/18 18:59:29","新北市瑞芳區瑞芳街119號","121.805646666667","25.1097183333333","6501200","瑞芳區"
"224005","271-BY","2018/06/18 18:59:24","新北市瑞芳區豎崎路32-5號","121.824303333333","25.121025","6501200","瑞芳區"
"227001","642-TC","2018/06/18 18:59:12","新北市雙溪區平林里康福家園17號","121.858836666667","25.037395","6502500","雙溪區"
"227008","400-TW","2018/06/18 18:59:19","新北市雙溪區牡丹里中正路58巷23號","121.86648","25.04162","6502500","雙溪區"
"253005","032-BX","2018/06/18 18:59:27","新北市石門區中山路35號","121.56685","25.291115","6502200","石門區"
"253006","295-VK","2018/06/18 18:59:17","新北市石門區下員坑42-2號","121.517458333333","25.2772016666667","6502200","石門區"
"222001","KEA-2212","2018/06/18 18:59:29","新北市深坑區北深路一段60巷1號","121.636918333333","25.0107883333333","6501800","深坑區"
"208002","KEA-2872","2018/06/18 18:59:21","新北市金山區信義路32號","121.635223333333","25.21962","6502700","金山區"
"208003","665-BX","2018/06/18 18:59:10","新北市金山區中山路305號","121.635786666667","25.2235816666667","6502700","金山區"
"208001","761-BX","2018/06/18 18:59:07","新北市金山區中山路91號","121.640103333333","25.2188116666667","6502700","金山區"
"251009","008-UM","2018/06/18 18:59:27","新北市淡水區重建街50號","121.43992","25.1715383333333","6501000","淡水區"
"251013","KEA-2871","2018/06/18 18:59:15","新北市淡水區安子內3號","121.487566666667","25.215595","6501000","淡水區"
"251016","179-VK","2018/06/18 18:59:16","新北市淡水區淡金路三段331巷2-2號","121.448556666667","25.2062166666667","6501000","淡水區"
"251014","180-VK","2018/06/18 18:59:26","新北市淡水區小中寮22號","121.489333333333","25.2293533333333","6501000","淡水區"
"251015","182-VK","2018/06/18 18:59:16","新北市淡水區糞箕湖62號","121.485183333333","25.1721716666667","6501000","淡水區"
"251010","413-VK","2018/06/18 18:59:16","新北市淡水區沙崙路97號","121.422173333333","25.1824816666667","6501000","淡水區"
"251007","442-VK","2018/06/18 18:59:26","新北市淡水區民生路113巷1弄39號","121.463018333333","25.13864","6501000","淡水區"
"251001","559-UM","2018/06/18 18:59:14","新北市淡水區自強路58-2號","121.463336666667","25.1276183333333","6501000","淡水區"
"251002","672-BX","2018/06/18 18:59:23","新北市淡水區學府路12號","121.44748","25.1679316666667","6501000","淡水區"
"251003","673-BX","2018/06/18 18:59:13","新北市淡水區中山北路一段149巷24號","121.443008333333","25.1779816666667","6501000","淡水區"
"207003","550-UM","2018/06/18 18:59:12","新北市萬里區大鵬里頂社29號","121.656558333333","25.2107566666667","6502800","萬里區"
"207004","225-TW","2018/06/18 18:59:20","新北市萬里區萬里里獅頭路23號","121.693616666667","25.1781516666667","6502800","萬里區"
"252002","178-VK","2018/06/18 18:59:15","新北市三芝區中正路一段82號","121.504166666667","25.2572283333333","6502100","三芝區"
"252003","249-BX","2018/06/18 18:59:12","新北市三芝區後厝里北勢子45-3號","121.469608333333","25.2504566666667","6502100","三芝區"
"252001","292-VK","2018/06/18 18:59:19","新北市三芝區中興街二段260號","121.501743333333","25.2530266666667","6502100","三芝區"
"237004","KEA-2597","2018/06/18 18:59:14","新北市三峽區有木206號","121.439086666667","24.851555","6500900","三峽區"
"237007","153-BY","2018/06/18 18:59:19","新北市三峽區中正路二段334號","121.365941666667","24.9105116666667","6500900","三峽區"
"237009","210-TH","2018/06/18 18:59:10","新北市三峽區中山路459巷137號","121.349986666667","24.9337416666667","6500900","三峽區"
"237013","252-BX","2018/06/18 18:59:12","新北市三峽區光明路69巷31號","121.376971666667","24.929205","6500900","三峽區"
"237012","275-BY","2018/06/18 18:59:10","新北市三峽區三樹路222巷196-1號","121.388881666667","24.942655","6500900","三峽區"
"237008","302-VK","2018/06/18 18:59:27","新北市三峽區中正路一段207號","121.372195","24.92754","6500900","三峽區"
"237014","433-BY","2018/06/18 18:59:13","新北市三峽區隆恩街158巷68號","121.364803333333","24.9447316666667","6500900","三峽區"
"237006","5529-G3","2018/06/18 18:59:22","新北市三峽區溪東路315巷48弄2號","121.411785","24.9308616666667","6500900","三峽區"
"237011","KEA-2596","2018/06/18 18:59:20","新北市三峽區橫溪路140號","121.399138333333","24.935205","6500900","三峽區"
"237015","649-BX","2018/06/18 18:59:26","新北市三峽區建安158號","121.467963333333","24.9101683333333","6500900","三峽區"
"237010","706-TV","2018/06/18 18:59:16","新北市三峽區國光街322號","121.372051666667","24.9393883333333","6500900","三峽區"
"237005","AKY-6261","2018/06/18 18:59:13","新北市三峽區中山路459巷163-3號","121.348656666667","24.932905","6500900","三峽區"
"236069","105-UM","2018/06/18 18:59:10","新北市土城區金城路二段211號","121.454525","24.9817316666667","6501300","土城區"
"236078","166-UM","2018/06/18 18:59:26","新北市土城區中央路四段218號","121.415676666667","24.9572716666667","6501300","土城區"
"236030","253-BX","2018/06/18 18:59:29","新北市土城區中央路三段1號","121.439766666667","24.97075","6501300","土城區"
"236026","269-VK","2018/06/18 18:59:08","新北市土城區光明街4號","121.441998333333","24.9745566666667","6501300","土城區"
"236014","270-VK","2018/06/18 18:59:21","新北市土城區延和路13巷14號","121.463665","24.9884583333333","6501300","土城區"
"236039","271-VK","2018/06/18 18:59:21","新北市土城區仁愛路17巷1號","121.460536666667","24.9805516666667","6501300","土城區"
"236020","401-BY","2018/06/18 18:59:11","新北市土城區延吉街170號","121.468351666667","24.9853083333333","6501300","土城區"
"236042","752-BX","2018/06/18 18:59:26","新北市土城區學府路一段229巷11號","121.451843333333","24.9838233333333","6501300","土城區"
"236059","912-UM","2018/06/18 18:59:15","新北市土城區金城路二段208號","121.455241666667","24.9819883333333","6501300","土城區"
"236048","913-UM","2018/06/18 18:59:29","新北市土城區明德路一段365-1號","121.45367","24.9790816666667","6501300","土城區"
"236063","915-UM","2018/06/18 18:59:11","新北市土城區延和路41巷2弄2號","121.466021666667","24.9897083333333","6501300","土城區"
"236055","AAC-216","2018/06/18 18:59:18","新北市土城區學成路63號","121.451798333333","24.9878316666667","6501300","土城區"
"242002","349-TH","2018/06/18 18:59:17","新北市新莊區瓊林南路77-41號","121.437681666667","25.012515","6500500","新莊區"
"238023","601-UM","2018/06/18 18:59:24","新北市樹林區大慶街156號","121.39688","25.0130366666667","6500700","樹林區"
"238019","599-UM","2018/06/18 18:59:24","新北市樹林區東榮街91巷1弄1號","121.416141666667","24.9824116666667","6500700","樹林區"
"238018","571-TV","2018/06/18 18:59:20","新北市樹林區大同街3號","121.418876666667","24.9827816666667","6500700","樹林區"
"238024","5061-A6","2018/06/18 18:59:30","新北市樹林區育德街78-1號","121.387495","24.968115","6500700","樹林區"
"238022","KEA-2213","2018/06/18 18:59:12","新北市樹林區中山路二段151巷15弄5號","121.408145","24.97704","6500700","樹林區"
"238021","KEA-2539","2018/06/18 18:59:15","新北市樹林區柑園街二段276巷28號","121.372191666667","24.953405","6500700","樹林區"
"238025","303-VK","2018/06/18 18:58:55","新北市樹林區民和街67號","121.380868333333","24.971435","6500700","樹林區"
"238017","283-BY","2018/06/18 18:59:18","新北市樹林區東佳路8-7號","121.402453333333","24.9773233333333","6500700","樹林區"
"238020","268-VK","2018/06/18 18:59:16","新北市樹林區俊英街79號","121.426093333333","25.007555","6500700","樹林區"
"238026","172-UY","2018/06/18 18:59:21","新北市樹林區中和街14巷1號","121.391005","24.97338","6500700","樹林區"
"238016","169-UY","2018/06/18 18:59:29","新北市樹林區文化街25巷13號","121.418446666667","24.9866666666667","6500700","樹林區"
"239007","AAC-297","2018/06/18 18:59:10","新北市鶯歌區中正一路333-2號","121.356545","24.9577933333333","6500800","鶯歌區"
"239006","891-R6","2018/06/18 18:59:25","新北市鶯歌區鶯桃路296巷84弄17號","121.337196666667","24.9615516666667","6500800","鶯歌區"
"239008","527-UM","2018/06/18 18:59:25","新北市鶯歌區國際一路122巷2號","121.336885","24.9756766666667","6500800","鶯歌區"
"239001","417-VK","2018/06/18 18:59:25","新北市鶯歌區永明街55號","121.339538333333","24.9561066666667","6500800","鶯歌區"
"239003","360-BY","2018/06/18 18:59:15","新北市鶯歌區鶯桃路550號","121.33102","24.9673716666667","6500800","鶯歌區"
"239002","359-BY","2018/06/18 18:59:24","新北市鶯歌區中正一路255號","121.35474","24.957075","6500800","鶯歌區"
"239004","193-VK","2018/06/18 18:58:57","新北市鶯歌區中正三路230巷12號","121.330468333333","24.9395466666667","6500800","鶯歌區"
"221008","489-VK","2018/06/18 18:59:25","新北市汐止區翠峰街21巷3弄16號","121.644241666667","25.0757683333333","6501100","汐止區"
"221036","130-UY","2018/06/18 18:59:12","新北市汐止區忠孝東路286號","121.663833333333","25.0682583333333","6501100","汐止區"
"221015","131-UY","2018/06/18 18:59:14","新北市汐止區鄉長路一段39號","121.665326666667","25.0749666666667","6501100","汐止區"
"221010","269-BY","2018/06/18 18:59:27","新北市汐止區汐萬路二段23巷2號","121.649536666667","25.0810566666667","6501100","汐止區"
"221012","278-VK","2018/06/18 18:59:05","新北市汐止區康寧街901號","121.650795","25.075245","6501100","汐止區"
"221023","279-VK","2018/06/18 18:59:17","新北市汐止區康寧街901號","121.650965","25.07519","6501100","汐止區"
"221032","280-BY","2018/06/18 18:59:24","新北市汐止區民權街二段28號","121.619521666667","25.05004","6501100","汐止區"
"221027","281-BY","2018/06/18 18:59:18","新北市汐止區康寧街901號","121.651451666667","25.07499","6501100","汐止區"
"221029","298-VK","2018/06/18 18:59:24","新北市汐止區樟樹一路254號","121.642416666667","25.06719","6501100","汐止區"
"221021","299-VK","2018/06/18 18:59:11","新北市汐止區康寧街901號","121.65141","25.0751133333333","6501100","汐止區"
"221031","353-TW","2018/06/18 18:59:13","新北市汐止區福德二路156巷27號","121.629996666667","25.0654983333333","6501100","汐止區"
"221035","622-UM","2018/06/18 18:59:12","新北市汐止區汐萬路一段256巷3號","121.653413333333","25.0745483333333","6501100","汐止區"
"221025","623-UM","2018/06/18 18:59:10","新北市汐止區汐萬路一段81號","121.654713333333","25.070065","6501100","汐止區"
"221038","646-BX","2018/06/18 18:59:28","新北市汐止區汐萬路一段312號","121.650663333333","25.07527","6501100","汐止區"
"221033","647-BX","2018/06/18 18:59:29","新北市汐止區南勢街1巷1號","121.627038333333","25.0373916666667","6501100","汐止區"
"221002","707-TV","2018/06/18 18:59:11","新北市汐止區大同路一段2號","121.621051666667","25.0550583333333","6501100","汐止區"
"221018","753-BX","2018/06/18 18:59:19","新北市汐止區茄苳路3號","121.664656666667","25.0708366666667","6501100","汐止區"
"220079","145-BY","2018/06/18 18:59:27","新北市板橋區民權路202巷11弄2號","121.46054","25.0157583333333","6500100","板橋區"
"220080","200-UY","2018/06/18 18:59:18","新北市板橋區大觀路二段文和巷79號","121.444158333333","24.99834","6500100","板橋區"
"220082","610-BX","2018/06/18 18:59:20","新北市板橋區滿平街72號","121.427368333333","24.9892483333333","6500100","板橋區"
"220101","245-BX","2018/06/18 18:59:22","新北市板橋區文化路二段182巷27號","121.472446666667","25.0264283333333","6500100","板橋區"
"220055","256-TC","2018/06/18 18:59:27","新北市板橋區中山路一段158巷11號","121.466321666667","25.0115216666667","6500100","板橋區"
"220056","276-BY","2018/06/18 18:59:23","新北市板橋區信義路147號","121.458143333333","24.9928533333333","6500100","板橋區"
"220072","277-BY","2018/06/18 18:59:09","新北市板橋區溪北路152號","121.430361666667","24.9883066666667","6500100","板橋區"
"220071","283-VK","2018/06/18 18:59:19","新北市板橋區忠孝路154巷34-2號","121.46415","25.0016483333333","6500100","板橋區"
"220094","285-UM","2018/06/18 18:59:30","新北市板橋區文化路二段28號","121.469383333333","25.0248533333333","6500100","板橋區"
"220053","285-VK","2018/06/18 18:59:13","新北市板橋區中山路二段68號","121.474348333333","25.0159583333333","6500100","板橋區"
"220083","286-VK","2018/06/18 18:59:24","新北市板橋區大觀路二段20巷22號","121.444753333333","25.0040566666667","6500100","板橋區"
"220081","287-VK","2018/06/18 18:59:22","新北市板橋區光華街19巷6號","121.453721666667","25.0121916666667","6500100","板橋區"
"220090","288-VK","2018/06/18 18:59:19","新北市板橋區四維路174-3號","121.46449","25.02647","6500100","板橋區"
"220061","293-UM","2018/06/18 18:59:25","新北市板橋區富山街109巷70號","121.475326666667","25.0213166666667","6500100","板橋區"
"220062","295-UM","2018/06/18 18:59:10","新北市板橋區三民路二段202-29號","121.478773333333","25.01258","6500100","板橋區"
"220084","296-UM","2018/06/18 18:59:18","新北市板橋區龍興街8號","121.442851666667","24.9996283333333","6500100","板橋區"
"220075","303-R5","2018/06/18 18:59:09","新北市板橋區府中路123號","121.45614","25.0094316666667","6500100","板橋區"
"220092","307-R5","2018/06/18 18:59:26","新北市板橋區文化路一段104巷1弄18號","121.46538","25.01789","6500100","板橋區"
"220098","317-R6","2018/06/18 18:59:18","新北市板橋區民有街18號","121.466238333333","25.024935","6500100","板橋區"
"220064","486-VK","2018/06/18 18:59:22","新北市板橋區縣民大道二段101號","121.466661666667","25.0153466666667","6500100","板橋區"
"220088","491-VK","2018/06/18 18:59:25","新北市板橋區民生路二段216號","121.4693","25.0215216666667","6500100","板橋區"
"220035","560-BX","2018/06/18 18:59:27","新北市板橋區中正路375巷30號","121.453545","25.020715","6500100","板橋區"
"220103","561-BX","2018/06/18 18:59:14","新北市板橋區民生路二段121號","121.470731666667","25.0184433333333","6500100","板橋區"
"220063","609-BX","2018/06/18 18:59:24","新北市板橋區中山路二段179號","121.47622","25.0169733333333","6500100","板橋區"
"220091","637-BX","2018/06/18 18:59:28","新北市板橋區雙十路二段47巷52號","121.475006666667","25.025465","6500100","板橋區"
"220057","686-BX","2018/06/18 18:59:13","新北市板橋區重慶路97號","121.462168333333","25.00563","6500100","板橋區"
"220077","687-BX","2018/06/18 18:59:09","新北市板橋區大觀路二段142-1號","121.44263","24.99909","6500100","板橋區"
"220093","689-BX","2018/06/18 18:59:20","新北市板橋區民生路三段66-3號","121.466911666667","25.02581","6500100","板橋區"
"220054","741-BX","2018/06/18 18:59:27","新北市板橋區成都街69號","121.46221","25.00498","6500100","板橋區"
"220102","KEA-2699","2018/06/18 18:59:30","新北市板橋區萬板路706號","121.481653333333","25.027365","6500100","板橋區"
"220067","829-TW","2018/06/18 18:59:21","新北市板橋區三民路2段正泰3巷18-1號","121.477981666667","25.014255","6500100","板橋區"
"220068","830-TW","2018/06/18 18:59:16","新北市板橋區三民路一段31巷36弄1號","121.481055","25.0229883333333","6500100","板橋區"
"220096","831-TW","2018/06/18 18:59:27","新北市板橋區莒光路103號","121.472681666667","25.0240083333333","6500100","板橋區"
"220089","833-TW","2018/06/18 18:59:17","新北市板橋區文化路二段410巷2號","121.474033333333","25.0315816666667","6500100","板橋區"
"220074","895-R6","2018/06/18 18:59:20","新北市板橋區府中路98號","121.456041666667","25.0096316666667","6500100","板橋區"
"220073","985-R7","2018/06/18 18:59:25","新北市板橋區民權路258-8號","121.457866666667","25.0152783333333","6500100","板橋區"
"220097","AAC-210","2018/06/18 18:59:24","新北市板橋區國光路206號","121.46189","25.0185016666667","6500100","板橋區"
"220070","AAC-253","2018/06/18 18:59:25","新北市板橋區四川路一段489號","121.457133333333","24.99715","6500100","板橋區"
"235068","KEA-2873","2018/06/18 18:59:18","新北市中和區中正路271-5號","121.495766666667","24.9932833333333","6500300","中和區"
"235061","KEA-2875","2018/06/18 18:59:26","新北市中和區民享街1號","121.473848333333","25.0058033333333","6500300","中和區"
