"lineid","car","time","location","longitude","latitude","cityid","cityname"
"234046","148-BY","2018/06/18 19:29:16","新北市永和區秀朗路二段171號","121.525553333333","25.0016316666667","6500400","永和區"
"234007","207-UY","2018/06/18 19:29:27","新北市永和區永和路一段112-1號","121.513506666667","25.00732","6500400","永和區"
"234081","298-R6","2018/06/18 19:29:29","新北市永和區環河東路三段54號","121.526873333333","25.0062416666667","6500400","永和區"
"234038","336-UY","2018/06/18 19:29:15","新北市永和區成功路二段65號","121.527398333333","25.0001183333333","6500400","永和區"
"234064","337-UY","2018/06/18 19:29:20","新北市永和區中正路368巷1弄86號","121.520415","25.0007183333333","6500400","永和區"
"234086","338-UY","2018/06/18 19:29:28","新北市永和區永元路124號","121.52281","25.002855","6500400","永和區"
"234070","552-UM","2018/06/18 19:29:20","新北市永和區警光街20號","121.519333333333","25.0094733333333","6500400","永和區"
"234017","745-BX","2018/06/18 19:29:20","新北市永和區環河西路一段63號","121.513408333333","25.0181083333333","6500400","永和區"
"234030","746-BX","2018/06/18 19:29:29","新北市永和區民生路55號","121.522688333333","24.997655","6500400","永和區"
"234054","KEA-2590","2018/06/18 19:29:16","新北市永和區復興街1巷4號","121.515805","25.0129083333333","6500400","永和區"
"234013","KEA-2591","2018/06/18 19:29:14","新北市永和區中山路一段138-1號","121.510248333333","25.00982","6500400","永和區"
"234061","AAD-866","2018/06/18 19:29:29","新北市永和區中正路532號","121.517206666667","25.005165","6500400","永和區"
"234042","862-TW","2018/06/18 19:29:15","新北市永和區水源街39巷15號","121.510643333333","25.003705","6500400","永和區"
"234050","863-TW","2018/06/18 19:29:28","新北市永和區信義路126號","121.51236","25.0148116666667","6500400","永和區"
"234026","9371-KE","2018/06/18 19:29:25","新北市永和區安樂路94號","121.51427","24.9990566666667","6500400","永和區"
"234011","9373-KE","2018/06/18 19:29:21","新北市永和區保福路二段163巷13弄16號","121.509193333333","25.01429","6500400","永和區"
"249003","593-UM","2018/06/18 19:29:16","新北市八里區商港路52巷1弄2號","121.395461666667","25.1482333333333","6502300","八里區"
"248014","025-BX","2018/06/18 19:29:30","新北市五股區民義路一段183巷9-3號","121.430225","25.0865033333333","6501500","五股區"
"248008","095-VK","2018/06/18 19:29:10","新北市五股區中興路一段95巷16號","121.466513333333","25.072345","6501500","五股區"
"248018","225-UY","2018/06/18 19:25:59","新北市五股區壟路14-9號","121.415338333333","25.0862033333333","6501500","五股區"
"248012","247-BX","2018/06/18 19:29:09","新北市五股區成泰路二段87號","121.438278333333","25.0840883333333","6501500","五股區"
"248010","272-BY","2018/06/18 19:29:09","新北市五股區水碓二路1號","121.430626666667","25.071255","6501500","五股區"
"248004","677-BX","2018/06/18 19:29:18","新北市五股區五福路39號","121.433363333333","25.0895","6501500","五股區"
"248002","678-BX","2018/06/18 19:29:23","新北市五股區凌雲路一段158巷14號","121.447865","25.1034183333333","6501500","五股區"
"234023","9380-KE","2018/06/18 19:29:16","新北市永和區竹林路91巷38號","121.520991666667","25.0125066666667","6500400","永和區"
"234077","969-R7","2018/06/18 19:29:22","新北市永和區民權路56號","121.51989","24.9982233333333","6500400","永和區"
"234074","AAC-211","2018/06/18 19:29:21","新北市永和區環河東路一段120號","121.520443333333","25.01578","6500400","永和區"
"234067","AAC-212","2018/06/18 19:29:28","新北市永和區永貞路335號","121.509621666667","25.0070416666667","6500400","永和區"
"234003","AAC-295","2018/06/18 19:29:26","新北市永和區福和路385號","121.514218333333","25.0075766666667","6500400","永和區"
"244019","403-UM","2018/06/18 19:29:28","新北市林口區菁湖里70-1號","121.372223333333","25.09184","6501700","林口區"
"244023","483-VK","2018/06/18 19:29:22","新北市林口區仁愛路二段265號","121.373551666667","25.0774766666667","6501700","林口區"
"243013","AAD-798","2018/06/18 19:29:20","新北市泰山區貴子路36巷10號","121.425893333333","25.0413966666667","6501600","泰山區"
"243009","297-R6","2018/06/18 19:29:26","新北市五股區成泰路一段7巷50號","121.432388333333","25.0672683333333","6501600","泰山區"
"243016","380-SR","2018/06/18 19:29:19","新北市泰山區明志路三段197號","121.42411","25.0386316666667","6501600","泰山區"
"243015","421-VK","2018/06/18 19:29:15","新北市泰山區明志路二段136巷1-1號","121.427278333333","25.0511716666667","6501600","泰山區"
"243011","KEA-2215","2018/06/18 19:29:25","新北市泰山區貴子路19-1號","121.428151666667","25.0407666666667","6501600","泰山區"
"243010","KEA-2216","2018/06/18 19:29:24","新北市泰山區民族街10巷1號","121.429191666667","25.051795","6501600","泰山區"
"243012","646-TV","2018/06/18 19:29:29","新北市泰山區全興路214號","121.434385","25.0556383333333","6501600","泰山區"
"243014","680-BX","2018/06/18 19:29:30","新北市泰山區仁愛路41號","121.432278333333","25.0550766666667","6501600","泰山區"
"222003","436-BY","2018/06/18 19:29:13","新北市深坑區深南路88巷1號","121.621038333333","25.0118066666667","6501800","深坑區"
"222002","659-BX","2018/06/18 19:29:19","新北市深坑區北深路一段177號","121.632535","25.01085","6501800","深坑區"
"231041","002-UM","2018/06/18 19:29:11","新北市新店區中正路614號","121.5341","24.988565","6500600","新店區"
"231059","046-UY","2018/06/18 19:29:18","新北市新店區安和路三段7號","121.51821","24.98046","6500600","新店區"
"231040","047-UY","2018/06/18 19:29:17","新北市新店區北新路一段14號","121.540755","24.965675","6500600","新店區"
"231044","106-UY","2018/06/18 19:29:11","新北市新店區中興路三段173號","121.544121666667","24.9806266666667","6500600","新店區"
"231052","108-UY","2018/06/18 19:29:13","新北市新店區新烏路二段202號","121.54751","24.9165266666667","6500600","新店區"
"231047","187-VK","2018/06/18 19:29:16","新北市新店區中興路一段282-5號","121.546293333333","24.96818","6500600","新店區"
"231046","188-VK","2018/06/18 19:29:22","新北市新店區光明街129號","121.539175","24.9619366666667","6500600","新店區"
"231054","KEA-2219","2018/06/18 19:29:23","新北市新店區文中路45號","121.539563333333","24.9565866666667","6500600","新店區"
"231057","256-BX","2018/06/18 19:27:46","新北市新店區花園一路三段36號","121.550075","24.9330033333333","6500600","新店區"
"231042","268-BY","2018/06/18 19:29:19","新北市新店區北宜路一段7號","121.538453333333","24.9582833333333","6500600","新店區"
"231051","278-BY","2018/06/18 19:29:17","新北市新店區中央五街55號","121.527715","24.9754866666667","6500600","新店區"
"231050","AAD-862","2018/06/18 19:29:20","新北市新店區竹林路151號","121.555925","24.948625","6500600","新店區"
"231058","3713-VJ","2018/06/18 19:29:22","新北市新店區寶橋路85巷35號","121.545243333333","24.9762866666667","6500600","新店區"
"231066","4716-K9","2018/06/18 19:29:23","新北市新店區安康路三段355巷19號","121.484863333333","24.950305","6500600","新店區"
"231067","4772-VM","2018/06/18 19:29:16","新北市新店區精忠路10-1號","121.532663333333","24.95907","6500600","新店區"
"231049","513-UM","2018/06/18 19:29:19","新北市新店區北新路三段65巷12弄20號","121.540816666667","24.98151","6500600","新店區"
"231061","619-UM","2018/06/18 19:29:16","新北市新店區安康路二段18號","121.516035","24.96375","6500600","新店區"
"231063","641-BX","2018/06/18 19:29:19","新北市新店區達觀路16號","121.503088333333","24.94085","6500600","新店區"
"231064","719-UM","2018/06/18 19:29:25","新北市新店區安康路二段87號","121.51343","24.9628483333333","6500600","新店區"
"231065","719-UY","2018/06/18 19:29:21","新北市新店區安祥路109巷1弄5號","121.47572","24.9595466666667","6500600","新店區"
"231062","720-UM","2018/06/18 19:29:12","新北市新店區莒光路27號","121.524635","24.9595883333333","6500600","新店區"
"231060","897-TW","2018/06/18 19:29:28","新北市新店區安康路二段64號","121.514815","24.9636883333333","6500600","新店區"
"231045","898-TW","2018/06/18 19:29:26","新北市新店區北宜路二段211號","121.553205","24.9534066666667","6500600","新店區"
"231043","899-TW","2018/06/18 19:29:20","新北市新店區北新路二段198號","121.542981666667","24.9766283333333","6500600","新店區"
"231055","AKT-0513","2018/06/18 19:29:23","新北市新店區環河路121-2號","121.530043333333","24.9713933333333","6500600","新店區"
"241028","022-UY","2018/06/18 19:29:25","新北市三重區中寮街70號","121.493111666667","25.0583716666667","6500200","三重區"
"241008","059-VK","2018/06/18 19:29:20","新北市三重區永福街135巷32弄7號","121.477143333333","25.0770616666667","6500200","三重區"
"241009","060-VK","2018/06/18 19:29:11","新北市三重區溪尾街242巷67號","121.486088333333","25.081505","6500200","三重區"
"241031","061-VK","2018/06/18 19:29:09","新北市三重區集美街65-3號","121.488476666667","25.0541016666667","6500200","三重區"
"241017","063-VK","2018/06/18 19:29:17","新北市三重區大同北路60巷24號","121.493575","25.0636766666667","6500200","三重區"
"241026","066-VK","2018/06/18 19:29:18","新北市三重區文化南路47巷45號","121.49898","25.061125","6500200","三重區"
"241022","267-UM","2018/06/18 19:29:14","新北市三重區三民街151號","121.484226666667","25.0642733333333","6500200","三重區"
"241032","269-UM","2018/06/18 19:29:19","新北市三重區重陽路一段104巷5號","121.486068333333","25.0592666666667","6500200","三重區"
"241025","271-UM","2018/06/18 19:29:25","新北市三重區頂崁街210巷28弄4號","121.475745","25.0676816666667","6500200","三重區"
"241007","398-BY","2018/06/18 19:29:14","新北市三重區溪尾街130號","121.489306666667","25.0795483333333","6500200","三重區"
"241035","462-BY","2018/06/18 19:29:18","新北市三重區信義西街1號","121.498081666667","25.0648833333333","6500200","三重區"
"241020","478-VK","2018/06/18 19:29:26","新北市三重區三和路四段22號","121.490933333333","25.0741","6500200","三重區"
"241030","480-VK","2018/06/18 19:29:13","新北市三重區成功路41巷14號","121.490361666667","25.0516833333333","6500200","三重區"
"241014","543-UM","2018/06/18 19:29:30","新北市三重區長興街29號","121.500308333333","25.06866","6500200","三重區"
"241023","545-UM","2018/06/18 19:29:14","新北市三重區頂崁街183號","121.478048333333","25.0637783333333","6500200","三重區"
"241006","AAD-863","2018/06/18 19:29:14","新北市三重區自強路三段72號","121.486796666667","25.0736433333333","6500200","三重區"
"241029","942-UM","2018/06/18 19:29:21","新北市三重區中正南路214號","121.493898333333","25.0551283333333","6500200","三重區"
"235064","005-UY","2018/06/18 19:29:27","新北市中和區南山路66號","121.502441666667","24.9962166666667","6500300","中和區"
"235063","006-UY","2018/06/18 19:29:27","新北市中和區連城路203巷10弄2號","121.495066666667","24.9973916666667","6500300","中和區"
"235056","096-UM","2018/06/18 19:29:24","新北市中和區民富街9號","121.476591666667","25.0072783333333","6500300","中和區"
"235039","097-UM","2018/06/18 19:29:17","新北市中和區秀峰街119巷6弄13號","121.519195","24.9901633333333","6500300","中和區"
"235065","098-UM","2018/06/18 19:29:27","新北市中和區中山路二段2巷13弄37號","121.502471666667","25.0064516666667","6500300","中和區"
"235040","150-BY","2018/06/18 19:29:21","新北市中和區景安路79巷50號","121.507893333333","24.995565","6500300","中和區"
"235058","151-BY","2018/06/18 19:29:15","新北市中和區連城路469巷20號","121.48354","24.9951583333333","6500300","中和區"
"235055","183-VK","2018/06/18 19:29:11","新北市中和區民享街1號","121.47386","25.0057733333333","6500300","中和區"
"235038","185-VK","2018/06/18 19:29:19","新北市中和區立人街33-3號","121.52086","24.99421","6500300","中和區"
"235049","186-VK","2018/06/18 19:29:21","新北市中和區景新街285巷15號","121.510305","24.9935983333333","6500300","中和區"
"235067","255-BX","2018/06/18 19:29:28","新北市中和區連城路340巷10弄13號","121.483063333333","24.9966133333333","6500300","中和區"
"235044","293-VK","2018/06/18 19:29:18","新北市中和區中興街237巷2號","121.500555","24.9892866666667","6500300","中和區"
"235043","352-BY","2018/06/18 19:29:28","新北市中和區景新街153號","121.506576666667","24.9965166666667","6500300","中和區"
"235042","KEA-2878","2018/06/18 19:29:31","新北市中和區中安街230號","121.512293333333","24.99865","6500300","中和區"
"235050","4979-A6","2018/06/18 19:29:18","新北市中和區中正路446號","121.491011666667","24.994115","6500300","中和區"
"235070","558-UM","2018/06/18 19:29:25","新北市中和區景平路634-1號","121.500255","24.9981816666667","6500300","中和區"
"235045","565-BX","2018/06/18 19:29:24","新北市中和區景新街399巷7號","121.512886666667","24.9898683333333","6500300","中和區"
"235054","640-BX","2018/06/18 19:29:14","新北市中和區國光街112巷11弄1號","121.469715","25.00163","6500300","中和區"
"235060","647-TV","2018/06/18 19:29:11","新北市中和區新生街114巷37弄12號","121.482333333333","25.001865","6500300","中和區"
"235047","732-UM","2018/06/18 19:29:23","新北市中和區景平路241巷64弄2號","121.507721666667","24.9924783333333","6500300","中和區"
"235046","733-UM","2018/06/18 19:29:09","新北市中和區忠孝街37巷44號","121.510598333333","24.984805","6500300","中和區"
"235071","783-BX","2018/06/18 19:29:22","新北市中和區連城路467-5號","121.483605","24.9959733333333","6500300","中和區"
"235057","801-TS","2018/06/18 19:29:25","新北市中和區中山路三段13號","121.479636666667","25.005985","6500300","中和區"
"235041","802-TS","2018/06/18 19:29:19","新北市中和區中安街80號","121.512245","25.001835","6500300","中和區"
"235052","805-TS","2018/06/18 19:29:29","新北市中和區華新街143巷67弄35號","121.507576666667","24.9792866666667","6500300","中和區"
"235048","896-TW","2018/06/18 19:29:19","新北市中和區忠孝街146號","121.512486666667","24.9872816666667","6500300","中和區"
"235053","900-TW","2018/06/18 19:29:16","新北市中和區華順街2巷6號","121.467576666667","24.99889","6500300","中和區"
"235066","911-UM","2018/06/18 19:29:25","新北市中和區中和路140號","121.503985","24.9994816666667","6500300","中和區"
"235051","157-BY","2018/06/18 19:29:17","新北市中和區景新街134號","121.505173333333","24.9979483333333","6500300","中和區"
"235037","AAC-213","2018/06/18 19:29:10","新北市中和區秀朗路三段10巷14弄6號","121.52522","24.996585","6500300","中和區"
"235059","AAC-215","2018/06/18 19:29:26","新北市中和區圓通路252巷29弄10號","121.49271","24.991865","6500300","中和區"
"220065","072-UY","2018/06/18 19:29:20","新北市板橋區國泰街111巷11號","121.466103333333","25.006095","6500100","板橋區"
"220086","073-UY","2018/06/18 19:29:18","新北市板橋區中正路216巷10號","121.456371666667","25.018405","6500100","板橋區"
"220106","075-UY","2018/06/18 19:29:23","新北市板橋區江寧路三段131巷2號","121.473705","25.033375","6500100","板橋區"
"220069","AAD-861","2018/06/18 19:29:19","新北市板橋區大明街20巷43號","121.458041666667","25.0037366666667","6500100","板橋區"
"226004","312-R5","2018/06/18 19:29:21","新北市平溪區靜安路三段392巷3號","121.784385","25.0495433333333","6502400","平溪區"
"228003","097-TW","2018/06/18 19:29:25","新北市貢寮區和美里和美街19-2號","121.912821666667","25.0825966666667","6502600","貢寮區"
"228001","212-TW","2018/06/18 19:29:26","新北市貢寮區真理里大澳街60號","121.925475","25.0568316666667","6502600","貢寮區"
"228002","585-TW","2018/06/18 19:29:16","新北市貢寮區龍門里龍門街2-1號","121.932688333333","25.0254516666667","6502600","貢寮區"
"224010","AGQ-8101","2018/06/18 19:29:27","新北市瑞芳區基山街145號","121.843916666667","25.1082166666667","6501200","瑞芳區"
"224008","272-VK","2018/06/18 19:29:29","新北市瑞芳區瑞芳街112巷2號","121.801548333333","25.1109016666667","6501200","瑞芳區"
"227001","642-TC","2018/06/18 19:29:23","新北市雙溪區雙溪里光復街8號","121.864986666667","25.0352","6502500","雙溪區"
"227008","400-TW","2018/06/18 19:29:19","新北市雙溪區新基里新基北街43號","121.868168333333","25.0396866666667","6502500","雙溪區"
"253005","032-BX","2018/06/18 19:29:27","新北市石門區小坑9號","121.594353333333","25.2886633333333","6502200","石門區"
"253006","295-VK","2018/06/18 19:29:17","新北市石門區楓林23-10號","121.53871","25.2912","6502200","石門區"
"222001","KEA-2212","2018/06/18 19:29:22","新北市深坑區深坑街10號","121.615821666667","25.0028","6501800","深坑區"
"208002","KEA-2872","2018/06/18 19:29:21","新北市金山區中華路154號","121.63301","25.221375","6502700","金山區"
"208003","665-BX","2018/06/18 19:29:30","新北市金山區忠孝一路42號","121.637885","25.2200783333333","6502700","金山區"
"208001","761-BX","2018/06/18 19:29:27","新北市金山區民生路67號","121.640308333333","25.219945","6502700","金山區"
"251013","KEA-2871","2018/06/18 19:29:15","新北市淡水區大牛稠6號","121.470976666667","25.2191933333333","6501000","淡水區"
"251016","179-VK","2018/06/18 19:29:16","新北市淡水區下圭柔山119-51號","121.450783333333","25.20851","6501000","淡水區"
"251014","180-VK","2018/06/18 19:29:22","新北市淡水區小中寮15-3號","121.485256666667","25.23024","6501000","淡水區"
"251008","181-VK","2018/06/18 19:29:13","新北市淡水區中正路一段55號","121.424311666667","25.1775883333333","6501000","淡水區"
"251015","182-VK","2018/06/18 19:29:16","新北市淡水區山子頂22-1號","121.49233","25.19028","6501000","淡水區"
"251010","413-VK","2018/06/18 19:29:17","新北市淡水區淡海路242號","121.420146666667","25.18672","6501000","淡水區"
"251012","441-VK","2018/06/18 19:29:25","新北市淡水區崁頂106號","121.433435","25.2040866666667","6501000","淡水區"
"251007","442-VK","2018/06/18 19:29:26","新北市淡水區中正東路二段143巷6弄1號","121.461161666667","25.1472866666667","6501000","淡水區"
"251005","443-VK","2018/06/18 19:29:24","新北市淡水區學府路104號","121.449826666667","25.1717783333333","6501000","淡水區"
"251001","559-UM","2018/06/18 19:29:26","新北市淡水區民權路155號","121.460023333333","25.13617","6501000","淡水區"
"251006","561-UM","2018/06/18 19:29:15","新北市淡水區大義街44號","121.441975","25.178375","6501000","淡水區"
"251011","650-BX","2018/06/18 19:29:22","新北市淡水區中正東路二段143巷2弄1號","121.46058","25.14731","6501000","淡水區"
"207003","550-UM","2018/06/18 19:29:21","新北市萬里區大鵬里萬里加投197號","121.644008333333","25.2150266666667","6502800","萬里區"
"207004","225-TW","2018/06/18 19:29:20","新北市萬里區萬里里瑪鋉路87-1號","121.68868","25.17721","6502800","萬里區"
"252002","178-VK","2018/06/18 19:29:15","新北市三芝區淡金路二段18-1號","121.502705","25.25951","6502100","三芝區"
"252001","292-VK","2018/06/18 19:29:19","新北市三芝區長勤街63-4號","121.500116666667","25.2559516666667","6502100","三芝區"
"237004","KEA-2597","2018/06/18 19:29:14","新北市三峽區有木206號","121.439078333333","24.8515866666667","6500900","三峽區"
"237007","153-BY","2018/06/18 19:29:19","新北市三峽區二鬮路136巷18弄35號","121.358723333333","24.9087933333333","6500900","三峽區"
"237009","210-TH","2018/06/18 19:29:10","新北市三峽區民權街37號","121.369781666667","24.9336733333333","6500900","三峽區"
"237013","252-BX","2018/06/18 19:29:12","新北市三峽區介壽路一段276巷88弄23號","121.378805","24.928525","6500900","三峽區"
"237012","275-BY","2018/06/18 19:29:10","新北市三峽區民生街28號","121.375876666667","24.9366833333333","6500900","三峽區"
"237008","302-VK","2018/06/18 19:29:27","新北市三峽區大同路154號","121.373108333333","24.9267883333333","6500900","三峽區"
"237014","433-BY","2018/06/18 19:29:13","新北市三峽區中山路257巷1號","121.362508333333","24.9373316666667","6500900","三峽區"
"237006","5529-G3","2018/06/18 19:29:22","新北市三峽區溪東路205巷14號","121.40504","24.9339233333333","6500900","三峽區"
"237011","KEA-2596","2018/06/18 19:29:20","新北市三峽區介壽路一段271號","121.380226666667","24.9302716666667","6500900","三峽區"
"237015","649-BX","2018/06/18 19:29:26","新北市三峽區成福路295號","121.428803333333","24.923575","6500900","三峽區"
"237010","706-TV","2018/06/18 19:29:16","新北市三峽區復興路75號","121.372693333333","24.9374483333333","6500900","三峽區"
"237005","AKY-6261","2018/06/18 19:29:13","新北市三峽區復興路367巷1弄17號","121.364246666667","24.9378216666667","6500900","三峽區"
"236069","105-UM","2018/06/18 19:29:30","新北市土城區學府路一段159號","121.453248333333","24.985805","6501300","土城區"
"236078","166-UM","2018/06/18 19:29:30","新北市土城區中州路1-5號","121.414513333333","24.957235","6501300","土城區"
"236026","269-VK","2018/06/18 19:29:28","新北市土城區中央路二段61巷22號","121.443196666667","24.978835","6501300","土城區"
"236020","401-BY","2018/06/18 19:29:11","新北市土城區金城路三段200-5號","121.468776666667","24.987655","6501300","土城區"
"236042","752-BX","2018/06/18 19:28:57","新北市土城區學府路一段276號","121.45014","24.98309","6501300","土城區"
"236059","912-UM","2018/06/18 19:29:15","新北市土城區中央路二段63號","121.442698333333","24.9789233333333","6501300","土城區"
"236048","913-UM","2018/06/18 19:29:27","新北市土城區清水路224號","121.460898333333","24.9823","6501300","土城區"
"242023","362-BY","2018/06/18 19:29:26","新北市新莊區三和路12-10號","121.442328333333","25.0367533333333","6500500","新莊區"
"242048","172-VK","2018/06/18 19:29:30","新北市新莊區後港一路3號","121.424121666667","25.026305","6500500","新莊區"
"242004","176-VK","2018/06/18 19:29:27","新北市新莊區化成路11巷68號","121.462255","25.0435583333333","6500500","新莊區"
"242021","348-TH","2018/06/18 19:29:26","新北市新莊區新泰路357巷3弄57號","121.442186666667","25.0395883333333","6500500","新莊區"
"242002","349-TH","2018/06/18 19:29:17","新北市新莊區瓊林南路77-41號","121.437688333333","25.0124966666667","6500500","新莊區"
"238015","755-BX","2018/06/18 19:29:25","新北市樹林區復興路205號","121.420426666667","24.9915116666667","6500700","樹林區"
"238023","601-UM","2018/06/18 19:29:24","新北市樹林區三福街13號","121.40885","25.016785","6500700","樹林區"
"238019","599-UM","2018/06/18 19:29:28","新北市樹林區鎮前街313號","121.4174","24.9847266666667","6500700","樹林區"
"238024","5061-A6","2018/06/18 19:29:30","新北市樹林區福德街3號","121.401518333333","24.9755633333333","6500700","樹林區"
"238022","KEA-2213","2018/06/18 19:29:12","新北市樹林區名園街21號","121.419361666667","24.97927","6500700","樹林區"
"238021","KEA-2539","2018/06/18 19:29:15","新北市三峽區大義路380號","121.376543333333","24.9485266666667","6500700","樹林區"
"238025","303-VK","2018/06/18 19:29:15","新北市樹林區中山路一段37號","121.424113333333","24.992525","6500700","樹林區"
"238017","283-BY","2018/06/18 19:29:18","新北市樹林區光興街78-1號","121.408005","25.0022966666667","6500700","樹林區"
"238020","268-VK","2018/06/18 19:29:16","新北市樹林區俊英街111巷8-4號","121.424278333333","25.0096583333333","6500700","樹林區"
"238026","172-UY","2018/06/18 19:29:21","新北市樹林區佳園路三段15號","121.388353333333","24.95516","6500700","樹林區"
"238016","169-UY","2018/06/18 19:29:28","新北市樹林區復興路397-1號","121.414711666667","24.98505","6500700","樹林區"
"239007","AAC-297","2018/06/18 19:29:10","新北市鶯歌區大湖路326巷7號","121.345755","24.970325","6500800","鶯歌區"
"239006","891-R6","2018/06/18 19:29:25","新北市鶯歌區建國路510號","121.340741666667","24.9507533333333","6500800","鶯歌區"
"239008","527-UM","2018/06/18 19:29:25","新北市鶯歌區國際二路6巷13號","121.338776666667","24.9738316666667","6500800","鶯歌區"
"239005","526-UM","2018/06/18 19:29:20","新北市鶯歌區東湖路30號","121.35575","24.9719633333333","6500800","鶯歌區"
"239001","417-VK","2018/06/18 19:29:24","新北市鶯歌區建國路546號","121.338408333333","24.950265","6500800","鶯歌區"
"239003","360-BY","2018/06/18 19:29:15","新北市鶯歌區八德路7-2號","121.336343333333","24.9502583333333","6500800","鶯歌區"
"239002","359-BY","2018/06/18 19:29:24","新北市鶯歌區大湖路185巷22號","121.342751666667","24.9705166666667","6500800","鶯歌區"
"239004","193-VK","2018/06/18 19:29:16","新北市鶯歌區二甲路26-3號","121.339106666667","24.9353433333333","6500800","鶯歌區"
"221008","489-VK","2018/06/18 19:29:25","新北市汐止區康寧街243號","121.624715","25.0669633333333","6501100","汐止區"
"221036","130-UY","2018/06/18 19:29:32","新北市汐止區康寧街901號","121.65074","25.07541","6501100","汐止區"
"221015","131-UY","2018/06/18 19:29:14","新北市汐止區康寧街901號","121.651351666667","25.07502","6501100","汐止區"
"221010","269-BY","2018/06/18 19:29:26","新北市汐止區連峰街1巷1號","121.646418333333","25.0761566666667","6501100","汐止區"
"221012","278-VK","2018/06/18 19:29:25","新北市汐止區大同路三段271號","121.674221666667","25.0757433333333","6501100","汐止區"
"221023","279-VK","2018/06/18 19:29:17","新北市汐止區康寧街484號","121.632558333333","25.0684283333333","6501100","汐止區"
"221027","281-BY","2018/06/18 19:29:18","新北市汐止區忠孝東路9號","121.65828","25.06597","6501100","汐止區"
"221029","298-VK","2018/06/18 19:29:24","新北市汐止區康寧街901號","121.651466666667","25.0750266666667","6501100","汐止區"
"221021","299-VK","2018/06/18 19:29:31","新北市汐止區康寧街901號","121.651388333333","25.0750283333333","6501100","汐止區"
"221031","353-TW","2018/06/18 19:29:13","新北市汐止區康寧街901號","121.650878333333","25.0753033333333","6501100","汐止區"
"221025","623-UM","2018/06/18 19:29:30","新北市汐止區新台五路二段6號","121.660228333333","25.0650133333333","6501100","汐止區"
"221038","646-BX","2018/06/18 19:29:07","新北市汐止區中正路311號","121.655918333333","25.0676366666667","6501100","汐止區"
"221033","647-BX","2018/06/18 19:29:09","新北市汐止區南勢街3號","121.627076666667","25.0373666666667","6501100","汐止區"
"221002","707-TV","2018/06/18 19:29:31","新北市汐止區大同路一段337巷11號","121.638096666667","25.0599583333333","6501100","汐止區"
"220079","145-BY","2018/06/18 19:29:27","新北市板橋區建國街3-1號","121.457213333333","25.01701","6500100","板橋區"
"220080","200-UY","2018/06/18 19:29:29","新北市板橋區大觀路二段3巷65號","121.449575","25.0034383333333","6500100","板橋區"
"220082","610-BX","2018/06/18 19:29:19","新北市板橋區金門街46號","121.433181666667","24.993215","6500100","板橋區"
"220101","245-BX","2018/06/18 19:29:17","新北市板橋區縣民大道三段127巷24號","121.476963333333","25.0237816666667","6500100","板橋區"
"220055","256-TC","2018/06/18 19:29:27","新北市板橋區重慶路290巷18號","121.462541666667","24.998855","6500100","板橋區"
"220056","276-BY","2018/06/18 19:29:23","新北市板橋區國慶路49巷1號","121.459531666667","24.995645","6500100","板橋區"
"220072","277-BY","2018/06/18 19:29:28","新北市板橋區金門街222號","121.431006666667","24.9881266666667","6500100","板橋區"
"220071","283-VK","2018/06/18 19:29:19","新北市板橋區四川路一段281號","121.459471666667","25.001765","6500100","板橋區"
"220094","285-UM","2018/06/18 19:29:30","新北市板橋區吳鳳路50號","121.46789","25.0304766666667","6500100","板橋區"
"220053","285-VK","2018/06/18 19:29:19","新北市板橋區永豐街106號","121.476056666667","25.0206633333333","6500100","板橋區"
"220083","286-VK","2018/06/18 19:29:24","新北市板橋區龍興街71巷37號","121.442235","25.002505","6500100","板橋區"
"220081","287-VK","2018/06/18 19:29:10","新北市板橋區大觀路一段75巷45號","121.449266666667","25.0040816666667","6500100","板橋區"
"220090","288-VK","2018/06/18 19:29:19","新北市板橋區裕民街92號","121.460233333333","25.02804","6500100","板橋區"
"220061","293-UM","2018/06/18 19:29:25","新北市板橋區成功路6巷23號","121.476173333333","25.017245","6500100","板橋區"
"220062","295-UM","2018/06/18 19:29:20","新北市板橋區三民路二段95巷21號","121.48053","25.0164933333333","6500100","板橋區"
"220084","296-UM","2018/06/18 19:29:27","新北市板橋區篤行路三段67號","121.427545","24.9856233333333","6500100","板橋區"
"220075","303-R5","2018/06/18 19:29:29","新北市板橋區中正路253巷27號","121.454113333333","25.017705","6500100","板橋區"
"220092","307-R5","2018/06/18 19:29:26","新北市板橋區光武街2巷37號","121.468628333333","25.02589","6500100","板橋區"
"220098","317-R6","2018/06/18 19:29:17","新北市板橋區民生路三段263巷4弄2號","121.463785","25.029655","6500100","板橋區"
"220064","486-VK","2018/06/18 19:29:22","新北市板橋區中山路一段103號","121.46181","25.0101816666667","6500100","板橋區"
"220088","491-VK","2018/06/18 19:29:29","新北市板橋區文化路二段367號","121.473143333333","25.0308783333333","6500100","板橋區"
"220035","560-BX","2018/06/18 19:29:26","新北市板橋區中正路330號","121.454355","25.02165","6500100","板橋區"
"220103","561-BX","2018/06/18 19:29:14","新北市板橋區文化路一段270巷1號","121.467463333333","25.02058","6500100","板橋區"
"220063","609-BX","2018/06/18 19:29:17","新北市板橋區萬安街73巷5號","121.483526666667","25.0239083333333","6500100","板橋區"
"220091","637-BX","2018/06/18 19:29:10","新北市板橋區文聖街149巷10號","121.47904","25.0281916666667","6500100","板橋區"
"220057","686-BX","2018/06/18 19:29:13","新北市板橋區國慶路182巷28-1號","121.463205","24.9954183333333","6500100","板橋區"
"220077","687-BX","2018/06/18 19:29:29","新北市板橋區僑中二街108巷1號","121.445748333333","25.0071633333333","6500100","板橋區"
"220093","689-BX","2018/06/18 19:29:20","新北市板橋區英士路49-1號","121.461103333333","25.0246","6500100","板橋區"
"220054","741-BX","2018/06/18 19:29:27","新北市板橋區光明街112號","121.462995","25.0029983333333","6500100","板橋區"
"220102","KEA-2699","2018/06/18 19:29:30","新北市板橋區雙十路二段96號","121.474798333333","25.0285283333333","6500100","板橋區"
"220067","829-TW","2018/06/18 19:29:21","新北市板橋區漢生東路313巷2弄1號","121.472255","25.0082166666667","6500100","板橋區"
"220068","830-TW","2018/06/18 19:29:16","新北市板橋區翠華街10巷21號","121.48199","25.0245466666667","6500100","板橋區"
"220096","831-TW","2018/06/18 19:29:14","新北市板橋區大同街23號","121.477425","25.0270383333333","6500100","板橋區"
"220089","833-TW","2018/06/18 19:29:17","新北市板橋區民權路168號","121.45971","25.013075","6500100","板橋區"
"220074","895-R6","2018/06/18 19:29:20","新北市板橋區北門街36號","121.457125","25.0109016666667","6500100","板橋區"
"220073","985-R7","2018/06/18 19:29:25","新北市板橋區國光路36號","121.457331666667","25.0175583333333","6500100","板橋區"
"220097","AAC-210","2018/06/18 19:29:24","新北市板橋區漢生西路151巷1號","121.46305","25.0222266666667","6500100","板橋區"
"220070","AAC-253","2018/06/18 19:29:25","新北市板橋區館前東路74號","121.461418333333","25.0073716666667","6500100","板橋區"
"235068","KEA-2873","2018/06/18 19:29:18","新北市中和區景平路493巷12弄9號","121.49881","24.997115","6500300","中和區"
"235061","KEA-2875","2018/06/18 19:29:30","新北市中和區民利街63號","121.47901","24.99848","6500300","中和區"
