"lineid","car","time","location","longitude","latitude","cityid","cityname"
"234046","148-BY","2018/06/18 19:39:16","新北市永和區秀朗路二段84號","121.523308333333","25.0016766666667","6500400","永和區"
"234007","207-UY","2018/06/18 19:39:28","新北市永和區中和路477號","121.510346666667","25.0019183333333","6500400","永和區"
"234081","298-R6","2018/06/18 19:39:29","新北市永和區國中路104巷6號","121.524736666667","25.0068916666667","6500400","永和區"
"234038","336-UY","2018/06/18 19:39:15","新北市永和區成功路一段127號","121.526985","25.001865","6500400","永和區"
"234064","337-UY","2018/06/18 19:39:27","新北市永和區秀朗路一段192巷6弄12號","121.51902","25.00228","6500400","永和區"
"234086","338-UY","2018/06/18 19:39:16","新北市永和區成功路一段18巷15號","121.52625","25.0050066666667","6500400","永和區"
"234070","552-UM","2018/06/18 19:39:15","新北市永和區永和路二段233號","121.515533333333","25.01413","6500400","永和區"
"234017","745-BX","2018/06/18 19:39:20","新北市永和區永和路二段425巷57弄1號","121.513626666667","25.0171916666667","6500400","永和區"
"234030","746-BX","2018/06/18 19:39:09","新北市永和區民生路39號","121.52284","24.9981133333333","6500400","永和區"
"234054","KEA-2590","2018/06/18 19:39:23","新北市永和區竹林路39巷22號","121.51889","25.0146633333333","6500400","永和區"
"234013","KEA-2591","2018/06/18 19:39:24","新北市永和區永平路230號","121.508701666667","25.0108083333333","6500400","永和區"
"234061","AAD-866","2018/06/18 19:39:28","新北市永和區中正路456號","121.517446666667","25.00291","6500400","永和區"
"234042","862-TW","2018/06/18 19:39:17","新北市永和區中和路307號","121.506621666667","24.9998333333333","6500400","永和區"
"234050","863-TW","2018/06/18 19:39:08","新北市永和區保福路二段162巷2號","121.509011666667","25.0152183333333","6500400","永和區"
"234026","9371-KE","2018/06/18 19:39:25","新北市永和區中和路501巷2號","121.510486666667","25.0025633333333","6500400","永和區"
"234011","9373-KE","2018/06/18 19:39:21","新北市永和區保生路55-1號","121.504478333333","25.01092","6500400","永和區"
"249002","305-UY","2018/06/18 19:39:14","新北市八里區頂寮二街79號","121.45014","25.1254283333333","6502300","八里區"
"249003","593-UM","2018/06/18 19:39:16","新北市八里區華峰三街23號","121.399575","25.1460433333333","6502300","八里區"
"248014","025-BX","2018/06/18 19:39:30","新北市五股區五福路68巷1弄1號","121.433538333333","25.0905083333333","6501500","五股區"
"248016","026-BX","2018/06/18 19:39:16","新北市五股區成泰路四段8號","121.453098333333","25.1065333333333","6501500","五股區"
"248008","095-VK","2018/06/18 19:39:10","新北市五股區四維路118巷13號","121.469216666667","25.0743283333333","6501500","五股區"
"248018","225-UY","2018/06/18 19:25:59","新北市五股區壟路14-9號","121.415338333333","25.0862033333333","6501500","五股區"
"248012","247-BX","2018/06/18 19:39:09","新北市五股區成泰路二段65號","121.438058333333","25.0837","6501500","五股區"
"248010","272-BY","2018/06/18 19:39:29","新北市五股區自強路148號","121.432186666667","25.07053","6501500","五股區"
"248004","677-BX","2018/06/18 19:39:18","新北市五股區成泰路二段162號","121.438456666667","25.0842533333333","6501500","五股區"
"248002","678-BX","2018/06/18 19:39:23","新北市五股區成泰路三段577巷52號","121.450748333333","25.10324","6501500","五股區"
"234077","969-R7","2018/06/18 19:39:23","新北市永和區民族街67巷9號","121.518871666667","24.9972433333333","6500400","永和區"
"234074","AAC-211","2018/06/18 19:39:21","新北市永和區福和路127號","121.521575","25.007845","6500400","永和區"
"234067","AAC-212","2018/06/18 19:39:26","新北市永和區中山路一段191巷15弄2-1號","121.509933333333","25.0079516666667","6500400","永和區"
"234003","AAC-295","2018/06/18 19:39:26","新北市永和區自由街58號","121.5138","25.00578","6500400","永和區"
"244019","403-UM","2018/06/18 19:39:08","新北市林口區嘉寶里42號","121.33345","25.1222516666667","6501700","林口區"
"244023","483-VK","2018/06/18 19:39:22","新北市林口區文化北路二段234號","121.372915","25.0855733333333","6501700","林口區"
"243013","AAD-798","2018/06/18 19:39:20","新北市泰山區應化街13號","121.423843333333","25.0437","6501600","泰山區"
"243009","297-R6","2018/06/18 19:39:26","新北市泰山區美寧街71號","121.431015","25.0647","6501600","泰山區"
"243016","380-SR","2018/06/18 19:39:19","新北市泰山區明志路三段450號","121.420973333333","25.032615","6501600","泰山區"
"243015","421-VK","2018/06/18 19:39:15","新北市泰山區文程路21號","121.42834","25.0492316666667","6501600","泰山區"
"243011","KEA-2215","2018/06/18 19:39:25","新北市泰山區中山路二段672號","121.427356666667","25.0376416666667","6501600","泰山區"
"243010","KEA-2216","2018/06/18 19:39:24","新北市泰山區明志路二段51號","121.42949","25.0527433333333","6501600","泰山區"
"243012","646-TV","2018/06/18 19:39:29","新北市泰山區仁德路105號","121.433226666667","25.0562233333333","6501600","泰山區"
"243014","680-BX","2018/06/18 19:39:10","新北市泰山區泰林路二段33-8號","121.435175","25.05656","6501600","泰山區"
"222003","436-BY","2018/06/18 19:39:13","新北市深坑區深南路51-1號","121.62132","25.009745","6501800","深坑區"
"222002","659-BX","2018/06/18 19:39:19","新北市深坑區北深路一段177號","121.632551666667","25.0108616666667","6501800","深坑區"
"231041","002-UM","2018/06/18 19:39:11","新北市新店區中正路487號","121.533866666667","24.98207","6500600","新店區"
"231059","046-UY","2018/06/18 19:39:18","新北市新店區安和路三段85號","121.51788","24.9839316666667","6500600","新店區"
"231040","047-UY","2018/06/18 19:39:12","新北市新店區北新路一段96巷23號","121.543018333333","24.9688083333333","6500600","新店區"
"231044","106-UY","2018/06/18 19:39:11","新北市新店區北新路三段129號","121.541348333333","24.9828016666667","6500600","新店區"
"231052","108-UY","2018/06/18 19:39:13","新北市新店區新烏路二段422號","121.551801666667","24.909035","6500600","新店區"
"231047","187-VK","2018/06/18 19:39:16","新北市新店區五峰路63巷8弄44號","121.548023333333","24.9685816666667","6500600","新店區"
"231046","188-VK","2018/06/18 19:39:22","新北市新店區自由街13號","121.535548333333","24.9748416666667","6500600","新店區"
"231054","KEA-2219","2018/06/18 19:39:23","新北市新店區文中路45號","121.539523333333","24.9566083333333","6500600","新店區"
"231057","256-BX","2018/06/18 19:39:16","新北市新店區橘園一路11號","121.548","24.93407","6500600","新店區"
"231042","268-BY","2018/06/18 19:39:19","新北市新店區中興路一段216號","121.54392","24.9656366666667","6500600","新店區"
"231051","278-BY","2018/06/18 19:39:17","新北市新店區中央五街30號","121.52889","24.9746033333333","6500600","新店區"
"231050","AAD-862","2018/06/18 19:39:20","新北市新店區秀水路11號","121.554868333333","24.9546966666667","6500600","新店區"
"231058","3713-VJ","2018/06/18 19:39:02","新北市新店區中正路102巷8弄2號","121.543366666667","24.9710133333333","6500600","新店區"
"231066","4716-K9","2018/06/18 19:39:23","新北市新店區安康路三段207巷15號","121.488391666667","24.9508466666667","6500600","新店區"
"231056","4715-K9","2018/06/18 19:39:13","新北市新店區安和路三段2號","121.518256666667","24.980255","6500600","新店區"
"231067","4772-VM","2018/06/18 19:39:16","新北市新店區精忠路10-1號","121.532645","24.9590916666667","6500600","新店區"
"231049","513-UM","2018/06/18 19:39:19","新北市新店區大豐路24號","121.540646666667","24.9801","6500600","新店區"
"231061","619-UM","2018/06/18 19:39:16","新北市新店區安民街135號","121.516468333333","24.9693","6500600","新店區"
"231063","641-BX","2018/06/18 19:39:19","新北市新店區達觀路38號","121.502051666667","24.9387516666667","6500600","新店區"
"231064","719-UM","2018/06/18 19:39:25","新北市新店區安和路一段52巷2號","121.517635","24.9662066666667","6500600","新店區"
"231065","719-UY","2018/06/18 19:39:18","新北市新店區安祥路109巷51號","121.476843333333","24.959665","6500600","新店區"
"231062","720-UM","2018/06/18 19:39:22","新北市新店區太平路4號","121.534325","24.9576466666667","6500600","新店區"
"231060","897-TW","2018/06/18 19:39:18","新北市新店區安康路二段139號","121.511811666667","24.96034","6500600","新店區"
"231045","898-TW","2018/06/18 19:39:26","新北市新店區北宜路二段126號","121.556995","24.9538433333333","6500600","新店區"
"231043","899-TW","2018/06/18 19:39:20","新北市新店區中正路126號","121.542153333333","24.9712333333333","6500600","新店區"
"231055","AKT-0513","2018/06/18 19:39:23","新北市新店區力行路14巷16弄2號","121.53915","24.96548","6500600","新店區"
"241011","013-R5","2018/06/18 19:39:28","新北市三重區秀江街217號","121.497381666667","25.0716166666667","6500200","三重區"
"241028","022-UY","2018/06/18 19:39:25","新北市三重區中正南路196號","121.493921666667","25.0559966666667","6500200","三重區"
"241008","059-VK","2018/06/18 19:39:20","新北市三重區永福街135巷15號","121.478108333333","25.0770283333333","6500200","三重區"
"241009","060-VK","2018/06/18 19:39:32","新北市三重區三和路四段420號","121.480578333333","25.0800016666667","6500200","三重區"
"241031","061-VK","2018/06/18 19:39:29","新北市三重區重新路四段250-1號","121.486046666667","25.0534883333333","6500200","三重區"
"241015","062-VK","2018/06/18 19:39:27","新北市三重區福德北路55號","121.502178333333","25.0652033333333","6500200","三重區"
"241017","063-VK","2018/06/18 19:39:17","新北市三重區大仁街11號","121.491706666667","25.064185","6500200","三重區"
"241024","065-VK","2018/06/18 19:39:08","新北市三重區三民街300巷11-1號","121.477555","25.0684","6500200","三重區"
"241026","066-VK","2018/06/18 19:39:18","新北市三重區光興街43號","121.49944","25.0603166666667","6500200","三重區"
"241022","267-UM","2018/06/18 19:39:25","新北市三重區三民街175巷4號","121.48363","25.06544","6500200","三重區"
"241032","269-UM","2018/06/18 19:38:59","新北市三重區三陽路112號","121.483081666667","25.0587166666667","6500200","三重區"
"241025","271-UM","2018/06/18 19:39:25","新北市三重區頂崁街201巷1號","121.477358333333","25.0670433333333","6500200","三重區"
"241007","398-BY","2018/06/18 19:39:14","新北市三重區三和路四段125巷72號","121.48718","25.0785666666667","6500200","三重區"
"241035","462-BY","2018/06/18 19:39:18","新北市三重區信義西街1號","121.498161666667","25.0647466666667","6500200","三重區"
"241020","478-VK","2018/06/18 19:39:26","新北市三重區自強路三段43巷2號","121.487163333333","25.072915","6500200","三重區"
"241030","480-VK","2018/06/18 19:39:13","新北市三重區新興路28巷14號","121.491693333333","25.0528583333333","6500200","三重區"
"241014","543-UM","2018/06/18 19:39:10","新北市三重區長榮路131號","121.504015","25.0694","6500200","三重區"
"241023","545-UM","2018/06/18 19:39:14","新北市三重區忠孝路三段99巷21號","121.479388333333","25.0643916666667","6500200","三重區"
"241001","547-UM","2018/06/18 19:39:23","新北市三重區仁愛街315巷27號","121.493756666667","25.0799016666667","6500200","三重區"
"241019","KEA-2593","2018/06/18 19:39:29","新北市三重區六張街194巷2弄1號","121.488586666667","25.0682616666667","6500200","三重區"
"241006","AAD-863","2018/06/18 19:39:14","新北市三重區聯華街77號","121.485878333333","25.0754033333333","6500200","三重區"
"241012","941-UM","2018/06/18 19:39:12","新北市三重區河邊北街256巷35號","121.500511666667","25.075985","6500200","三重區"
"241029","942-UM","2018/06/18 19:39:29","新北市三重區同安街143號","121.493103333333","25.05611","6500200","三重區"
"235064","005-UY","2018/06/18 19:39:27","新北市中和區南山路127巷18弄4號","121.503433333333","24.997155","6500300","中和區"
"235063","006-UY","2018/06/18 19:39:27","新北市中和區連城路263巷7弄1號","121.492246666667","24.9958516666667","6500300","中和區"
"235056","096-UM","2018/06/18 19:39:24","新北市中和區員山路581巷31弄3號","121.477161666667","25.0103666666667","6500300","中和區"
"235039","097-UM","2018/06/18 19:39:17","新北市中和區秀峰街127巷2號","121.51959","24.990945","6500300","中和區"
"235065","098-UM","2018/06/18 19:39:27","新北市中和區永和路22號","121.499561666667","25.0033933333333","6500300","中和區"
"235040","150-BY","2018/06/18 19:39:21","新北市中和區宜安路92巷1號","121.510743333333","24.9977416666667","6500300","中和區"
"235058","151-BY","2018/06/18 19:39:15","新北市中和區員山路124巷14號","121.482028333333","24.9959666666667","6500300","中和區"
"235055","183-VK","2018/06/18 19:39:31","新北市中和區中山路三段181巷18弄11號","121.472678333333","25.0048416666667","6500300","中和區"
"235038","185-VK","2018/06/18 19:39:19","新北市中和區自立路117巷4弄21號","121.5227","24.994085","6500300","中和區"
"235049","186-VK","2018/06/18 19:39:21","新北市中和區明仁街16號","121.506233333333","24.9954683333333","6500300","中和區"
"235067","255-BX","2018/06/18 19:39:28","新北市中和區新生街231號","121.483851666667","24.9991866666667","6500300","中和區"
"235044","293-VK","2018/06/18 19:39:26","新北市中和區南山路160號","121.504438333333","24.9918","6500300","中和區"
"235043","352-BY","2018/06/18 19:39:28","新北市中和區興南路一段106號","121.50967","24.9888066666667","6500300","中和區"
"235042","KEA-2878","2018/06/18 19:39:11","新北市中和區中和路262巷22號","121.509681666667","24.999085","6500300","中和區"
"235050","4979-A6","2018/06/18 19:39:18","新北市中和區錦和路350-1號","121.490541666667","24.99354","6500300","中和區"
"235070","558-UM","2018/06/18 19:39:08","新北市中和區景平路593號","121.497395","25.0005466666667","6500300","中和區"
"235045","565-BX","2018/06/18 19:39:24","新北市中和區景新街462號","121.513486666667","24.987505","6500300","中和區"
"235054","640-BX","2018/06/18 19:39:14","新北市中和區國光街102巷10號","121.47039","25.0005166666667","6500300","中和區"
"235060","647-TV","2018/06/18 19:39:26","新北市中和區中山路二段523巷18號","121.481645","25.004235","6500300","中和區"
"235047","732-UM","2018/06/18 19:37:03","新北市中和區和平街182巷3號","121.50504","24.9926166666667","6500300","中和區"
"235046","733-UM","2018/06/18 19:39:09","新北市中和區四維街37巷1號","121.512565","24.98685","6500300","中和區"
"235071","783-BX","2018/06/18 19:39:22","新北市中和區民樂路81號","121.48504","25.0014683333333","6500300","中和區"
"235057","801-TS","2018/06/18 19:39:25","新北市中和區員山路176號","121.481338333333","24.9999733333333","6500300","中和區"
"235041","802-TS","2018/06/18 19:39:19","新北市中和區永貞路251號","121.512888333333","25.0040933333333","6500300","中和區"
"235052","805-TS","2018/06/18 19:39:09","新北市中和區華新街206巷15號","121.506221666667","24.9825766666667","6500300","中和區"
"235048","896-TW","2018/06/18 19:39:19","新北市中和區忠孝街1巷2-1號","121.509093333333","24.9830066666667","6500300","中和區"
"235053","900-TW","2018/06/18 19:39:16","新北市中和區國光街184號","121.466833333333","25.0020516666667","6500300","中和區"
"235066","911-UM","2018/06/18 19:39:25","新北市中和區中和路196巷6號","121.505048333333","24.9991283333333","6500300","中和區"
"235051","157-BY","2018/06/18 19:39:17","新北市中和區板南路132號","121.502368333333","24.9926233333333","6500300","中和區"
"235037","AAC-213","2018/06/18 19:39:10","新北市中和區秀朗路三段50巷7-1號","121.525753333333","24.9953933333333","6500300","中和區"
"235059","AAC-215","2018/06/18 19:39:26","新北市中和區錦和路203巷1號","121.491095","24.9903816666667","6500300","中和區"
"220065","072-UY","2018/06/18 19:39:20","新北市板橋區國泰街39巷5弄10號","121.468731666667","25.00602","6500100","板橋區"
"220086","073-UY","2018/06/18 19:39:18","新北市板橋區國光路11號","121.456683333333","25.01745","6500100","板橋區"
"220106","075-UY","2018/06/18 19:39:23","新北市板橋區民治街26巷18號","121.477315","25.033605","6500100","板橋區"
"220069","AAD-861","2018/06/18 19:39:19","新北市板橋區縣民大道一段64巷17號","121.455893333333","25.0034733333333","6500100","板橋區"
"247004","337-TH","2018/06/18 19:39:27","新北市蘆洲區長安街110號","121.461028333333","25.0814883333333","6501400","蘆洲區"
"247008","056-VK","2018/06/18 19:39:11","新北市蘆洲區中山一路165號","121.475193333333","25.0816733333333","6501400","蘆洲區"
"247002","002-UY","2018/06/18 19:39:14","新北市蘆洲區三民路595號","121.46084","25.09357","6501400","蘆洲區"
"226004","312-R5","2018/06/18 19:39:21","新北市平溪區十分里十分街56-1號","121.775536666667","25.0414483333333","6502400","平溪區"
"228003","097-TW","2018/06/18 19:39:25","新北市貢寮區真理里美艷山街19-1號","121.92347","25.0684633333333","6502600","貢寮區"
"228001","212-TW","2018/06/18 19:39:26","新北市貢寮區真理里延平街49號","121.924598333333","25.0556416666667","6502600","貢寮區"
"224002","639-TC","2018/06/18 19:39:29","新北市瑞芳區三爪子坑路19號","121.813701666667","25.10761","6501200","瑞芳區"
"224008","272-VK","2018/06/18 19:39:29","新北市瑞芳區一坑路70-3號","121.803738333333","25.10822","6501200","瑞芳區"
"227001","642-TC","2018/06/18 19:39:12","新北市雙溪區雙溪里太平路64號","121.865176666667","25.0358966666667","6502500","雙溪區"
"227008","400-TW","2018/06/18 19:39:19","新北市雙溪區新基里新基南街18號","121.867083333333","25.037815","6502500","雙溪區"
"222001","KEA-2212","2018/06/18 19:39:22","新北市深坑區深坑街142號","121.613088333333","25.00145","6501800","深坑區"
"208002","KEA-2872","2018/06/18 19:39:21","新北市金山區仁愛路78巷2號","121.634626666667","25.2215733333333","6502700","金山區"
"208003","665-BX","2018/06/18 19:39:30","新北市金山區仁愛路37-23號","121.635543333333","25.2204933333333","6502700","金山區"
"208001","761-BX","2018/06/18 19:39:27","新北市金山區中正路49號","121.63472","25.222045","6502700","金山區"
"251013","KEA-2871","2018/06/18 19:39:15","新北市淡水區店子後9號","121.460405","25.2180966666667","6501000","淡水區"
"251016","179-VK","2018/06/18 19:39:16","新北市淡水區下圭柔山119-51號","121.450715","25.2084933333333","6501000","淡水區"
"251014","180-VK","2018/06/18 19:39:22","新北市淡水區北勢子13號","121.478468333333","25.2310683333333","6501000","淡水區"
"251008","181-VK","2018/06/18 19:39:13","新北市淡水區中正路32巷1號","121.43096","25.1753366666667","6501000","淡水區"
"251015","182-VK","2018/06/18 19:39:16","新北市淡水區北新路三段126號","121.487911666667","25.1896666666667","6501000","淡水區"
"251010","413-VK","2018/06/18 19:39:16","新北市淡水區濱海路二段202巷27號","121.435166666667","25.193375","6501000","淡水區"
"251012","441-VK","2018/06/18 19:39:25","新北市淡水區中山北路三段164號","121.445706666667","25.1965766666667","6501000","淡水區"
"251007","442-VK","2018/06/18 19:39:26","新北市淡水區中正東路一段111巷23-1號","121.455353333333","25.16105","6501000","淡水區"
"251005","443-VK","2018/06/18 19:39:24","新北市淡水區學府路104號","121.449836666667","25.17177","6501000","淡水區"
"251001","559-UM","2018/06/18 19:39:14","新北市淡水區民權路51號","121.459781666667","25.1390316666667","6501000","淡水區"
"251006","561-UM","2018/06/18 19:39:15","新北市淡水區中山北路一段207巷74號","121.441435","25.1794916666667","6501000","淡水區"
"251011","650-BX","2018/06/18 19:39:28","新北市淡水區八勢路30巷9號","121.461971666667","25.1539883333333","6501000","淡水區"
"207003","550-UM","2018/06/18 19:39:12","新北市萬里區大鵬里下社34號","121.6492","25.2170266666667","6502800","萬里區"
"207004","225-TW","2018/06/18 19:39:29","新北市萬里區萬里里瑪鋉路35號","121.687623333333","25.1757266666667","6502800","萬里區"
"252002","178-VK","2018/06/18 19:39:16","新北市三芝區中正路一段18巷54號","121.50421","25.2587316666667","6502100","三芝區"
"252001","292-VK","2018/06/18 19:39:19","新北市三芝區公正街66號","121.499768333333","25.25747","6502100","三芝區"
"237004","KEA-2597","2018/06/18 19:39:14","新北市三峽區有木50號","121.432771666667","24.8627933333333","6500900","三峽區"
"237007","153-BY","2018/06/18 19:39:19","新北市三峽區二鬮路136巷20弄2號","121.35746","24.909865","6500900","三峽區"
"237009","210-TH","2018/06/18 19:39:10","新北市三峽區中園街63號","121.36815","24.9258183333333","6500900","三峽區"
"237013","252-BX","2018/06/18 19:39:12","新北市三峽區介壽路一段383-1號","121.387791666667","24.9338783333333","6500900","三峽區"
"237012","275-BY","2018/06/18 19:39:30","新北市三峽區中華路36號","121.373521666667","24.9320133333333","6500900","三峽區"
"237008","302-VK","2018/06/18 19:39:27","新北市三峽區永安街95巷22號","121.374435","24.9283933333333","6500900","三峽區"
"237014","433-BY","2018/06/18 19:39:13","新北市三峽區中山路146號","121.36493","24.9363783333333","6500900","三峽區"
"237006","5529-G3","2018/06/18 19:39:22","新北市三峽區介壽路三段1號","121.395293333333","24.9361483333333","6500900","三峽區"
"237011","KEA-2596","2018/06/18 19:39:20","新北市三峽區中正路一段290-1號","121.37151","24.925875","6500900","三峽區"
"237015","649-BX","2018/06/18 19:39:26","新北市三峽區成福路149號","121.420646666667","24.9299783333333","6500900","三峽區"
"237005","AKY-6261","2018/06/18 19:39:13","新北市三峽區中山路219巷17弄3號","121.363425","24.936215","6500900","三峽區"
"236069","105-UM","2018/06/18 19:39:10","新北市土城區金城路一段112號","121.446906666667","24.9757183333333","6501300","土城區"
"236078","166-UM","2018/06/18 19:39:26","新北市土城區中州路59號","121.412583333333","24.957875","6501300","土城區"
"236030","253-BX","2018/06/18 19:39:28","新北市土城區福祥街101巷11號","121.441463333333","24.9815033333333","6501300","土城區"
"236026","269-VK","2018/06/18 19:39:28","新北市土城區中央路二段61巷22號","121.443196666667","24.9788583333333","6501300","土城區"
"236039","271-VK","2018/06/18 19:39:13","新北市土城區青雲路269巷13號","121.459686666667","24.98074","6501300","土城區"
"236020","401-BY","2018/06/18 19:39:11","新北市土城區金城路三段200-5號","121.46878","24.9876433333333","6501300","土城區"
"236042","752-BX","2018/06/18 19:39:17","新北市土城區裕民路243號","121.454598333333","24.9832","6501300","土城區"
"236048","913-UM","2018/06/18 19:39:29","新北市土城區明德路一段107號","121.465528333333","24.982335","6501300","土城區"
"236063","915-UM","2018/06/18 19:39:11","新北市土城區延平街19號","121.468225","24.99117","6501300","土城區"
"236055","AAC-216","2018/06/18 19:39:27","新北市土城區學府路一段60號","121.457175","24.98845","6501300","土城區"
"242046","497-BY","2018/06/18 19:39:11","新北市新莊區環河路462號","121.440121666667","25.0197616666667","6500500","新莊區"
"242023","362-BY","2018/06/18 19:39:26","新北市新莊區復興路二段145號","121.457678333333","25.04448","6500500","新莊區"
"242039","133-UY","2018/06/18 19:39:28","新北市新莊區建國二路83-9號","121.431215","25.0255733333333","6500500","新莊區"
"242048","172-VK","2018/06/18 19:39:30","新北市新莊區民安路37巷3號","121.423828333333","25.027015","6500500","新莊區"
"242011","173-VK","2018/06/18 19:39:11","新北市新莊區三和路12-21號","121.442058333333","25.0387766666667","6500500","新莊區"
"242004","176-VK","2018/06/18 19:39:29","新北市新莊區化成路29巷58號","121.462968333333","25.0440383333333","6500500","新莊區"
"242021","348-TH","2018/06/18 19:39:26","新北市新莊區中正路473-1號","121.442096666667","25.0330166666667","6500500","新莊區"
"242002","349-TH","2018/06/18 19:39:17","新北市新莊區環河路636-7號","121.437373333333","25.0118583333333","6500500","新莊區"
"242013","351-TH","2018/06/18 19:39:14","新北市新莊區中誠街123號","121.449393333333","25.0474883333333","6500500","新莊區"
"238015","755-BX","2018/06/18 19:39:14","新北市樹林區日新街83號","121.421735","24.9904183333333","6500700","樹林區"
"238023","601-UM","2018/06/18 19:39:24","新北市樹林區三福街150號","121.405275","25.016145","6500700","樹林區"
"238024","5061-A6","2018/06/18 19:39:10","新北市樹林區山佳街15號","121.394101666667","24.9728333333333","6500700","樹林區"
"238022","KEA-2213","2018/06/18 19:39:12","新北市樹林區名園街59號","121.420021666667","24.978045","6500700","樹林區"
"238021","KEA-2539","2018/06/18 19:39:15","新北市樹林區佳園路三段219巷19號","121.387003333333","24.9458966666667","6500700","樹林區"
"238025","303-VK","2018/06/18 19:39:22","新北市樹林區中山路二段34號","121.417415","24.9850166666667","6500700","樹林區"
"238017","283-BY","2018/06/18 19:39:18","新北市樹林區保安街二段167巷32號","121.413921666667","25.0028416666667","6500700","樹林區"
"238020","268-VK","2018/06/18 19:39:16","新北市樹林區千歲街186號","121.429398333333","25.0009316666667","6500700","樹林區"
"238026","172-UY","2018/06/18 19:39:21","新北市樹林區佳園路二段15巷21號","121.394446666667","24.9628733333333","6500700","樹林區"
"238016","169-UY","2018/06/18 19:36:08","新北市樹林區東和街28號","121.402758333333","24.9813816666667","6500700","樹林區"
"239006","891-R6","2018/06/18 19:39:25","新北市鶯歌區永昌街27號","121.342676666667","24.9497666666667","6500800","鶯歌區"
"239008","527-UM","2018/06/18 19:39:25","新北市鶯歌區大湖路458號","121.33992","24.97238","6500800","鶯歌區"
"239002","359-BY","2018/06/18 19:39:24","新北市鶯歌區中山路129號","121.349663333333","24.9571366666667","6500800","鶯歌區"
"239004","193-VK","2018/06/18 19:39:16","新北市鶯歌區二甲路佳美巷18號","121.337283333333","24.9339866666667","6500800","鶯歌區"
"221008","489-VK","2018/06/18 19:39:25","新北市汐止區康寧街141巷20弄1號","121.621408333333","25.0679066666667","6501100","汐止區"
"221036","130-UY","2018/06/18 19:39:12","新北市汐止區汐萬路一段312號","121.65067","25.0753833333333","6501100","汐止區"
"221015","131-UY","2018/06/18 19:39:14","新北市汐止區康寧街901號","121.650826666667","25.0752416666667","6501100","汐止區"
"221010","269-BY","2018/06/18 19:39:26","新北市汐止區汐萬路一段393號","121.64951","25.0788066666667","6501100","汐止區"
"221012","278-VK","2018/06/18 19:39:25","新北市汐止區汐平路一段5號","121.680741666667","25.0712116666667","6501100","汐止區"
"221023","279-VK","2018/06/18 19:39:17","新北市汐止區民族六街21-2號","121.630095","25.0689616666667","6501100","汐止區"
"221027","281-BY","2018/06/18 19:39:18","新北市汐止區忠孝東路9號","121.65826","25.06597","6501100","汐止區"
"221029","298-VK","2018/06/18 19:39:24","新北市汐止區康寧街901號","121.65145","25.07498","6501100","汐止區"
"221021","299-VK","2018/06/18 19:39:11","新北市汐止區新台五路一段131號","121.652181666667","25.0621083333333","6501100","汐止區"
"221031","353-TW","2018/06/18 19:39:13","新北市汐止區康寧街901號","121.650875","25.0752883333333","6501100","汐止區"
"221025","623-UM","2018/06/18 19:39:29","新北市汐止區福安街20巷4號","121.662453333333","25.0649366666667","6501100","汐止區"
"221038","646-BX","2018/06/18 19:39:28","新北市汐止區忠孝東路243號","121.662821666667","25.0674383333333","6501100","汐止區"
"221033","647-BX","2018/06/18 19:39:29","新北市汐止區南勢街1巷1號","121.626993333333","25.0373516666667","6501100","汐止區"
"220079","145-BY","2018/06/18 19:39:27","新北市板橋區建國街109號","121.460241666667","25.0176366666667","6500100","板橋區"
"220080","200-UY","2018/06/18 19:39:29","新北市板橋區大觀路二段37巷232號","121.449495","25.0013016666667","6500100","板橋區"
"220082","610-BX","2018/06/18 19:39:19","新北市板橋區大觀路三段160巷36號","121.42991","24.9940466666667","6500100","板橋區"
"220101","245-BX","2018/06/18 19:39:17","新北市板橋區縣民大道三段37號","121.47397","25.0209016666667","6500100","板橋區"
"220055","256-TC","2018/06/18 19:39:27","新北市板橋區國慶路149巷21弄11號","121.460338333333","24.99729","6500100","板橋區"
"220056","276-BY","2018/06/18 19:39:23","新北市板橋區四川路二段47巷2弄1號","121.454103333333","24.9948716666667","6500100","板橋區"
"220072","277-BY","2018/06/18 19:39:28","新北市板橋區金門街253巷6弄2號","121.432381666667","24.9886466666667","6500100","板橋區"
"220071","283-VK","2018/06/18 19:39:19","新北市土城區青雲路13號","121.460258333333","24.9893866666667","6500100","板橋區"
"220094","285-UM","2018/06/18 19:39:10","新北市板橋區銘傳街41-1號","121.46891","25.0312866666667","6500100","板橋區"
"220053","285-VK","2018/06/18 19:39:13","新北市板橋區中山路二段253號","121.477353333333","25.017505","6500100","板橋區"
"220083","286-VK","2018/06/18 19:39:24","新北市板橋區龍興街63巷46號","121.442036666667","25.0017666666667","6500100","板橋區"
"220081","287-VK","2018/06/18 19:39:30","新北市板橋區大觀路一段29巷179弄20號","121.449001666667","25.0046866666667","6500100","板橋區"
"220090","288-VK","2018/06/18 19:39:19","新北市板橋區長江路一段48巷12號","121.459491666667","25.0278966666667","6500100","板橋區"
"220061","293-UM","2018/06/18 19:39:32","新北市板橋區中山路一段265巷36弄2號","121.469103333333","25.015125","6500100","板橋區"
"220062","295-UM","2018/06/18 19:39:30","新北市板橋區三民路二段29巷31弄1號","121.481383333333","25.0177166666667","6500100","板橋區"
"220084","296-UM","2018/06/18 19:39:30","新北市板橋區滿平二街2巷1弄8號","121.425108333333","24.9864016666667","6500100","板橋區"
"220075","303-R5","2018/06/18 19:39:09","新北市板橋區大勇街22號","121.454246666667","25.017155","6500100","板橋區"
"220092","307-R5","2018/06/18 19:39:26","新北市板橋區文化路一段387巷22號","121.466193333333","25.0222183333333","6500100","板橋區"
"220098","317-R6","2018/06/18 19:39:17","新北市板橋區四維路269巷62號","121.460755","25.0273133333333","6500100","板橋區"
"220064","486-VK","2018/06/18 19:39:22","新北市板橋區公園街20號","121.46265","25.009075","6500100","板橋區"
"242031","280-VK","2018/06/18 19:39:16","新北市新莊區新泰路225巷6號","121.445786666667","25.0392566666667","6500500","新莊區"
"220088","491-VK","2018/06/18 19:39:11","新北市板橋區民治街35號","121.478391666667","25.0342433333333","6500100","板橋區"
"220035","560-BX","2018/06/18 19:39:26","新北市板橋區金華街85巷14號","121.458588333333","25.021315","6500100","板橋區"
"220103","561-BX","2018/06/18 19:39:14","新北市板橋區文化路一段341號","121.466751666667","25.0207816666667","6500100","板橋區"
"220063","609-BX","2018/06/18 19:39:18","新北市板橋區中山路二段424號","121.483621666667","25.021395","6500100","板橋區"
"220091","637-BX","2018/06/18 19:39:27","新北市板橋區懷德街139巷20弄10號","121.480155","25.03063","6500100","板橋區"
"220057","686-BX","2018/06/18 19:39:13","新北市板橋區和平路101巷27號","121.461828333333","24.9955183333333","6500100","板橋區"
"220077","687-BX","2018/06/18 19:39:29","新北市板橋區僑中三街11號","121.446358333333","25.004285","6500100","板橋區"
"220093","689-BX","2018/06/18 19:39:28","新北市板橋區長江路一段109號","121.45972","25.0297083333333","6500100","板橋區"
"220054","741-BX","2018/06/18 19:39:27","新北市板橋區忠孝路203號","121.465166666667","25.0027183333333","6500100","板橋區"
"220102","KEA-2699","2018/06/18 19:39:29","新北市板橋區文化路二段410巷40號","121.474565","25.0304883333333","6500100","板橋區"
"220067","829-TW","2018/06/18 19:39:24","新北市板橋區長安街259巷1-1號","121.472958333333","25.0103633333333","6500100","板橋區"
"220068","830-TW","2018/06/18 19:39:16","新北市板橋區中山路二段597號","121.484996666667","25.022225","6500100","板橋區"
"220096","831-TW","2018/06/18 19:39:14","新北市板橋區民生路二段234巷24弄2號","121.4701","25.022475","6500100","板橋區"
"220089","833-TW","2018/06/18 19:39:17","新北市板橋區英士路18號","121.46194","25.02524","6500100","板橋區"
"220074","895-R6","2018/06/18 19:39:20","新北市板橋區大東街28號","121.456503333333","25.0088116666667","6500100","板橋區"
"220073","985-R7","2018/06/18 19:39:25","新北市板橋區國光路47號","121.458","25.0180083333333","6500100","板橋區"
"220097","AAC-210","2018/06/18 19:39:24","新北市板橋區幸福路32巷6號","121.461563333333","25.0205983333333","6500100","板橋區"
"220070","AAC-253","2018/06/18 19:39:25","新北市板橋區民族路275號","121.470936666667","25.006715","6500100","板橋區"
"235068","KEA-2873","2018/06/18 19:39:18","新北市中和區廟美街5號","121.500673333333","25.0016033333333","6500300","中和區"
"235061","KEA-2875","2018/06/18 19:39:00","新北市中和區民安街2巷35弄1號","121.479886666667","25.0015316666667","6500300","中和區"
