"lineid","car","time","location","longitude","latitude","cityid","cityname"
"234046","148-BY","2018/06/18 20:09:16","新北市永和區得和路415號","121.525755","24.9992166666667","6500400","永和區"
"234007","207-UY","2018/06/18 20:09:28","新北市永和區仁愛路278號","121.50385","25.008235","6500400","永和區"
"234081","298-R6","2018/06/18 20:09:09","新北市永和區國中路53號","121.524613333333","25.006005","6500400","永和區"
"234038","336-UY","2018/06/18 20:09:15","新北市永和區成功路一段130號","121.526796666667","25.0021283333333","6500400","永和區"
"234064","337-UY","2018/06/18 20:09:20","新北市永和區永利路91-1號","121.52168","25.003245","6500400","永和區"
"234086","338-UY","2018/06/18 20:09:15","新北市永和區福和路74號","121.523085","25.0080383333333","6500400","永和區"
"234070","552-UM","2018/06/18 20:09:15","新北市永和區中正路636號","121.517155","25.0082066666667","6500400","永和區"
"234017","745-BX","2018/06/18 20:09:26","新北市永和區文化路28號","121.515183333333","25.0151","6500400","永和區"
"234030","746-BX","2018/06/18 20:09:30","新北市永和區民權路49巷5弄8號","121.520761666667","24.9975233333333","6500400","永和區"
"234054","KEA-2590","2018/06/18 20:09:16","新北市永和區博愛街17號","121.517318333333","25.0158383333333","6500400","永和區"
"234013","KEA-2591","2018/06/18 20:09:14","新北市永和區永貞路415號","121.5074","25.0094616666667","6500400","永和區"
"234061","AAD-866","2018/06/18 20:09:19","新北市永和區中正路151巷8弄2號","121.516038333333","24.9986666666667","6500400","永和區"
"234042","862-TW","2018/06/18 20:09:23","新北市永和區雙和街52巷2號","121.508963333333","25.0031416666667","6500400","永和區"
"234050","863-TW","2018/06/18 20:09:28","新北市永和區新生路210巷2號","121.505543333333","25.0132116666667","6500400","永和區"
"234011","9373-KE","2018/06/18 20:09:21","新北市永和區仁愛路352巷140號","121.499615","25.00899","6500400","永和區"
"249005","172-UM","2018/06/18 20:09:23","新北市八里區下罟子43號","121.384441666667","25.13642","6502300","八里區"
"249001","173-UM","2018/06/18 20:09:28","新北市八里區中華路二段312號","121.403828333333","25.1483183333333","6502300","八里區"
"249004","303-UY","2018/06/18 20:09:17","新北市八里區中山路一段217巷62號","121.411866666667","25.1575133333333","6502300","八里區"
"249002","305-UY","2018/06/18 20:09:15","新北市八里區龍米路一段8號","121.457711666667","25.115155","6502300","八里區"
"249003","593-UM","2018/06/18 20:09:16","新北市八里區中山路二段540巷28號","121.397118333333","25.14705","6502300","八里區"
"248014","025-BX","2018/06/18 20:09:30","新北市五股區成泰路二段222-4號","121.439208333333","25.0855466666667","6501500","五股區"
"248016","026-BX","2018/06/18 20:09:16","新北市五股區天乙路56號","121.448218333333","25.1043416666667","6501500","五股區"
"248012","247-BX","2018/06/18 20:09:29","新北市五股區民義路一段212號","121.430473333333","25.0894833333333","6501500","五股區"
"248010","272-BY","2018/06/18 20:09:24","新北市五股區成泰路一段7巷38-2號","121.432493333333","25.0674566666667","6501500","五股區"
"248004","677-BX","2018/06/18 20:09:18","新北市五股區成泰路一段130-2號","121.435075","25.0752583333333","6501500","五股區"
"248002","678-BX","2018/06/18 20:09:23","新北市五股區成泰路三段311-2號","121.44787","25.0948433333333","6501500","五股區"
"234023","9380-KE","2018/06/18 20:09:24","新北市永和區中正路654巷26號","121.517656666667","25.00855","6500400","永和區"
"234077","969-R7","2018/06/18 20:09:23","新北市永和區中正路160號","121.515106666667","24.9964666666667","6500400","永和區"
"234074","AAC-211","2018/06/18 20:09:21","新北市永和區豫溪街169巷2-1號","121.521941666667","25.01044","6500400","永和區"
"234067","AAC-212","2018/06/18 20:09:26","新北市永和區保平路214巷12弄2號","121.509008333333","25.0067616666667","6500400","永和區"
"234003","AAC-295","2018/06/18 20:09:26","新北市永和區福和路310-1號","121.516205","25.0074583333333","6500400","永和區"
"243013","AAD-798","2018/06/18 20:09:11","新北市泰山區明志路三段74巷23號","121.423931666667","25.041675","6501600","泰山區"
"243009","297-R6","2018/06/18 20:09:26","新北市泰山區泰林路二段115號","121.434453333333","25.0594233333333","6501600","泰山區"
"243016","380-SR","2018/06/18 20:09:18","新北市泰山區新北大道六段235號","121.425221666667","25.0350583333333","6501600","泰山區"
"243015","421-VK","2018/06/18 20:09:15","新北市泰山區明志路一段334號","121.431088333333","25.0587666666667","6501600","泰山區"
"243011","KEA-2215","2018/06/18 20:09:25","新北市泰山區明志路三段450號","121.420903333333","25.0325783333333","6501600","泰山區"
"243010","KEA-2216","2018/06/18 20:09:26","新北市泰山區明志路二段136巷24號","121.426206666667","25.05191","6501600","泰山區"
"243012","646-TV","2018/06/18 20:09:29","新北市泰山區楓江路86巷2-1號","121.437126666667","25.0629316666667","6501600","泰山區"
"243014","680-BX","2018/06/18 20:09:10","新北市泰山區明志路一段70號","121.433528333333","25.0646016666667","6501600","泰山區"
"222003","436-BY","2018/06/18 20:09:13","新北市深坑區埔新街56號","121.620293333333","25.0024883333333","6501800","深坑區"
"222002","659-BX","2018/06/18 20:09:19","新北市深坑區北深路二段121號","121.616628333333","25.00306","6501800","深坑區"
"231041","002-UM","2018/06/18 20:09:11","新北市新店區中正路460號","121.53403","24.979405","6500600","新店區"
"231059","046-UY","2018/06/18 20:09:18","新北市新店區安成街27號","121.510001666667","24.9608583333333","6500600","新店區"
"231040","047-UY","2018/06/18 20:09:12","新北市新店區中正路106號","121.543121666667","24.97063","6500600","新店區"
"231044","106-UY","2018/06/18 20:09:32","新北市新店區寶慶街66號","121.541981666667","24.986785","6500600","新店區"
"231052","108-UY","2018/06/18 20:09:13","新北市新店區新烏路三段寶島巷2弄3號","121.551933333333","24.8987016666667","6500600","新店區"
"231047","187-VK","2018/06/18 20:09:30","新北市新店區永華街26號","121.544355","24.9757883333333","6500600","新店區"
"231054","KEA-2219","2018/06/18 20:09:23","新北市新店區檳榔路40號","121.54157","24.9637266666667","6500600","新店區"
"231057","256-BX","2018/06/18 20:09:16","新北市新店區花園一路一段2號","121.553095","24.9324383333333","6500600","新店區"
"231042","268-BY","2018/06/18 20:09:19","新北市新店區中興路二段89號","121.54711","24.97136","6500600","新店區"
"231051","278-BY","2018/06/18 20:09:17","新北市新店區中央七街9號","121.530505","24.9751166666667","6500600","新店區"
"231050","AAD-862","2018/06/18 20:09:20","新北市新店區北新路一段90號","121.541888333333","24.96856","6500600","新店區"
"231058","3713-VJ","2018/06/18 20:09:22","新北市新店區安民街35巷9弄18號","121.514465","24.965285","6500600","新店區"
"231066","4716-K9","2018/06/18 20:09:22","新北市新店區安德街60巷35號","121.511011666667","24.9637816666667","6500600","新店區"
"231056","4715-K9","2018/06/18 20:09:13","新北市新店區中正路275巷28號","121.536916666667","24.9731533333333","6500600","新店區"
"231067","4772-VM","2018/06/18 20:09:16","新北市新店區溪洲路8巷64號","121.533303333333","24.9624116666667","6500600","新店區"
"231049","513-UM","2018/06/18 20:09:19","新北市新店區北新路二段139巷12弄1號","121.542078333333","24.975945","6500600","新店區"
"231061","619-UM","2018/06/18 20:09:16","新北市新店區安興路32號","121.515761666667","24.970385","6500600","新店區"
"231063","641-BX","2018/06/18 20:09:19","新北市新店區黎明路56巷1號","121.502358333333","24.9477833333333","6500600","新店區"
"231068","718-UY","2018/06/18 20:09:23","新北市新店區中興路二段186-2號","121.548025","24.9726383333333","6500600","新店區"
"231064","719-UM","2018/06/18 20:09:25","新北市新店區安康路二段100巷5號","121.513226666667","24.9637683333333","6500600","新店區"
"231065","719-UY","2018/06/18 20:09:14","新北市新店區安祥路106巷234號","121.473498333333","24.95976","6500600","新店區"
"231062","720-UM","2018/06/18 20:09:12","新北市新店區安康路二段130-1號","121.51256","24.9622966666667","6500600","新店區"
"231060","897-TW","2018/06/18 20:09:18","新北市新店區安康路三段450號","121.48448","24.9513133333333","6500600","新店區"
"231045","898-TW","2018/06/18 20:09:26","新北市新店區北宜路一段121-2號","121.540355","24.95379","6500600","新店區"
"231043","899-TW","2018/06/18 20:09:20","新北市新店區民族路195號","121.537138333333","24.9762733333333","6500600","新店區"
"231055","AKT-0513","2018/06/18 20:09:23","新北市新店區北新路一段297巷19號","121.540798333333","24.967895","6500600","新店區"
"241011","013-R5","2018/06/18 20:09:29","新北市三重區三和路三段47巷17號","121.496158333333","25.0718066666667","6500200","三重區"
"241028","022-UY","2018/06/18 20:09:26","新北市三重區仁化街147號","121.4946","25.05728","6500200","三重區"
"241008","059-VK","2018/06/18 20:09:21","新北市三重區永福街197巷37弄8號","121.47806","25.07415","6500200","三重區"
"241009","060-VK","2018/06/18 20:09:31","新北市三重區力行路二段206號","121.483591666667","25.0779266666667","6500200","三重區"
"241031","061-VK","2018/06/18 20:09:09","新北市三重區過圳街9-1號","121.48868","25.0600483333333","6500200","三重區"
"241015","062-VK","2018/06/18 20:09:26","新北市三重區福德北路26號","121.502106666667","25.0648416666667","6500200","三重區"
"241017","063-VK","2018/06/18 20:09:17","新北市三重區自強路一段236號","121.493135","25.0669633333333","6500200","三重區"
"241024","065-VK","2018/06/18 20:09:28","新北市三重區中正北路284號","121.480478333333","25.068605","6500200","三重區"
"241026","066-VK","2018/06/18 20:09:31","新北市三重區福德南路21號","121.502681666667","25.06293","6500200","三重區"
"241002","090-VK","2018/06/18 20:09:22","新北市三重區仁忠街41號","121.495458333333","25.0817316666667","6500200","三重區"
"241005","262-UM","2018/06/18 20:09:15","新北市三重區五華街180巷26號","121.488206666667","25.08547","6500200","三重區"
"241016","266-UM","2018/06/18 20:09:25","新北市三重區正德街63號","121.495668333333","25.0633533333333","6500200","三重區"
"241022","267-UM","2018/06/18 20:09:14","新北市三重區新北大道一段48號","121.48781","25.0614666666667","6500200","三重區"
"241032","269-UM","2018/06/18 20:09:19","新北市三重區捷運路65號","121.483431666667","25.0555783333333","6500200","三重區"
"241025","271-UM","2018/06/18 20:09:25","新北市三重區中正北路430號","121.474598333333","25.0710966666667","6500200","三重區"
"241007","398-BY","2018/06/18 20:09:14","新北市三重區三和路四段111-33號","121.486418333333","25.07747","6500200","三重區"
"241035","462-BY","2018/06/18 20:09:18","新北市三重區平安街5號","121.498883333333","25.0643416666667","6500200","三重區"
"241004","475-VK","2018/06/18 20:09:17","新北市三重區仁愛街423-1號","121.490493333333","25.0815016666667","6500200","三重區"
"241020","478-VK","2018/06/18 20:09:26","新北市三重區後竹圍街2巷1弄2號","121.491725","25.073315","6500200","三重區"
"241030","480-VK","2018/06/18 20:09:13","新北市三重區成功路145巷19號","121.487481666667","25.052875","6500200","三重區"
"241014","543-UM","2018/06/18 20:09:10","新北市三重區安和路41號","121.501033333333","25.06938","6500200","三重區"
"241023","545-UM","2018/06/18 20:09:14","新北市三重區頂崁街210巷7號","121.476678333333","25.0678416666667","6500200","三重區"
"241001","547-UM","2018/06/18 20:09:29","新北市三重區溪尾街24-1號","121.490948333333","25.0763366666667","6500200","三重區"
"241019","KEA-2593","2018/06/18 20:09:29","新北市三重區自強路二段33巷21-1號","121.490205","25.0696816666667","6500200","三重區"
"241006","AAD-863","2018/06/18 20:09:14","新北市三重區力行路二段49-1號","121.482111666667","25.07428","6500200","三重區"
"241018","743-BX","2018/06/18 20:09:23","新北市三重區正義北路250號","121.496091666667","25.0682566666667","6500200","三重區"
"241012","941-UM","2018/06/18 20:09:12","新北市三重區仁福街64巷21號","121.497788333333","25.0754166666667","6500200","三重區"
"241029","942-UM","2018/06/18 20:09:21","新北市三重區光明路32巷26號","121.49195","25.0586833333333","6500200","三重區"
"241033","AAC-255","2018/06/18 20:09:15","新北市三重區光復路一段68巷5號","121.471338333333","25.0493316666667","6500200","三重區"
"235039","097-UM","2018/06/18 20:09:17","新北市中和區大勇街25巷11弄1號","121.516515","24.9933833333333","6500300","中和區"
"235065","098-UM","2018/06/18 20:09:27","新北市中和區永和路74號","121.497806666667","25.0050933333333","6500300","中和區"
"235040","150-BY","2018/06/18 20:09:21","新北市中和區保健路55號","121.50937","24.9973666666667","6500300","中和區"
"235044","293-VK","2018/06/18 20:09:18","新北市中和區景安路212號","121.504008333333","24.9908316666667","6500300","中和區"
"235050","4979-A6","2018/06/18 20:09:18","新北市中和區興南路一段2號","121.511521666667","24.9916583333333","6500300","中和區"
"235069","4980-A6","2018/06/18 20:08:41","新北市中和區景新街132巷6-3號","121.504701666667","24.9982666666667","6500300","中和區"
"235070","558-UM","2018/06/18 20:09:29","新北市中和區建八路116號","121.488048333333","24.9984183333333","6500300","中和區"
"235026","800-TS","2018/06/18 20:09:25","新北市中和區員山路36巷16-6號","121.485233333333","24.9920433333333","6500300","中和區"
"235041","802-TS","2018/06/18 20:09:19","新北市中和區安平路59號","121.509503333333","24.9951633333333","6500300","中和區"
"235066","911-UM","2018/06/18 20:09:24","新北市中和區水源路154巷6號","121.50824","25.0032616666667","6500300","中和區"
"235051","157-BY","2018/06/18 20:09:17","新北市中和區復興路280巷18弄2號","121.50255","24.9914816666667","6500300","中和區"
"235037","AAC-213","2018/06/18 20:09:31","新北市中和區自立路131號","121.522016666667","24.9939883333333","6500300","中和區"
"235059","AAC-215","2018/06/18 20:09:26","新北市中和區圓通路335巷13號","121.49331","24.989505","6500300","中和區"
"220069","AAD-861","2018/06/18 20:09:19","新北市板橋區大明街18-5號","121.458695","25.0028633333333","6500100","板橋區"
"247024","893-R6","2018/06/18 20:09:29","新北市蘆洲區光明路88巷15號","121.463145","25.087325","6501400","蘆洲區"
"247014","546-UM","2018/06/18 20:09:30","新北市蘆洲區中山二路269號","121.46989","25.0795133333333","6501400","蘆洲區"
"247022","500-BY","2018/06/18 20:09:24","新北市蘆洲區三民路152號","121.47036","25.0879416666667","6501400","蘆洲區"
"247010","341-TH","2018/06/18 20:09:18","新北市蘆洲區集賢路393號","121.480375","25.0822216666667","6501400","蘆洲區"
"247012","339-TH","2018/06/18 20:09:12","新北市蘆洲區民族路252-1號","121.479125","25.0887933333333","6501400","蘆洲區"
"247004","337-TH","2018/06/18 20:09:27","新北市蘆洲區永康街77號","121.45575","25.0851516666667","6501400","蘆洲區"
"247006","336-TH","2018/06/18 20:09:30","新北市蘆洲區中山二路274號","121.469065","25.0782766666667","6501400","蘆洲區"
"247018","057-VK","2018/06/18 20:09:19","新北市蘆洲區民族路314巷3弄1號","121.477373333333","25.0903716666667","6501400","蘆洲區"
"247008","056-VK","2018/06/18 20:09:11","新北市蘆洲區中山一路195號","121.474471666667","25.08098","6501400","蘆洲區"
"247016","007-UY","2018/06/18 20:09:13","新北市蘆洲區光華路134號","121.466376666667","25.0823533333333","6501400","蘆洲區"
"247002","002-UY","2018/06/18 20:09:14","新北市蘆洲區永康街56號","121.459096666667","25.0860883333333","6501400","蘆洲區"
"247020","001-UY","2018/06/18 20:09:25","新北市蘆洲區民權路106巷5弄22號","121.47426","25.0891483333333","6501400","蘆洲區"
"224010","AGQ-8101","2018/06/18 20:09:27","新北市瑞芳區豎崎路18號","121.843526666667","25.1087133333333","6501200","瑞芳區"
"224002","639-TC","2018/06/18 20:09:17","新北市瑞芳區員山子路員山巷39號","121.816491666667","25.10378","6501200","瑞芳區"
"227001","642-TC","2018/06/18 20:09:13","新北市雙溪區魚行里新店58號","121.870185","25.0321133333333","6502500","雙溪區"
"253005","032-BX","2018/06/18 20:05:02","新北市石門區中山路64-1號","121.567383333333","25.29043","6502200","石門區"
"222001","KEA-2212","2018/06/18 20:09:22","新北市深坑區北深路三段197號","121.601005","25.0037016666667","6501800","深坑區"
"208002","KEA-2872","2018/06/18 20:09:21","新北市金山區中正路134-1號","121.632085","25.2206233333333","6502700","金山區"
"208003","665-BX","2018/06/18 20:09:28","新北市金山區永興里忠義路29-1號","121.630543333333","25.26377","6502700","金山區"
"208001","761-BX","2018/06/18 20:09:27","新北市金山區重和里茅埔頭9號","121.603713333333","25.2161533333333","6502700","金山區"
"251004","009-UM","2018/06/18 19:42:11","新北市淡水區民權路177巷53號","121.460471666667","25.13384","6501000","淡水區"
"251013","KEA-2871","2018/06/18 20:09:15","新北市淡水區奎柔山路299號","121.460183333333","25.2051366666667","6501000","淡水區"
"251016","179-VK","2018/06/18 20:09:09","新北市淡水區番子田18號","121.457251666667","25.2292066666667","6501000","淡水區"
"251014","180-VK","2018/06/18 20:09:22","新北市淡水區石頭厝3號","121.45871","25.2355483333333","6501000","淡水區"
"251008","181-VK","2018/06/18 20:09:13","新北市淡水區淡海路72巷35弄2號","121.424778333333","25.1828033333333","6501000","淡水區"
"251015","182-VK","2018/06/18 20:09:16","新北市淡水區埤島79號","121.449445","25.1901366666667","6501000","淡水區"
"251010","413-VK","2018/06/18 20:09:16","新北市淡水區新市五路二段75號","121.431385","25.1985","6501000","淡水區"
"251012","441-VK","2018/06/18 20:09:25","新北市淡水區淡金路三段224號","121.448966666667","25.204925","6501000","淡水區"
"251005","443-VK","2018/06/18 20:09:24","新北市淡水區學府路136巷64號","121.452826666667","25.17269","6501000","淡水區"
"251001","559-UM","2018/06/18 20:09:14","新北市淡水區新市二路四段265號","121.445915","25.192475","6501000","淡水區"
"251006","561-UM","2018/06/18 20:09:15","新北市淡水區北新路141巷60弄11號","121.448206666667","25.1796566666667","6501000","淡水區"
"251002","672-BX","2018/06/18 20:09:23","新北市淡水區中正路197號","121.438113333333","25.1715183333333","6501000","淡水區"
"251003","673-BX","2018/06/18 20:09:13","新北市淡水區中山北路二段189巷15弄29號","121.443281666667","25.184155","6501000","淡水區"
"207003","550-UM","2018/06/18 20:09:12","新北市萬里區大鵬里萬里加投186號","121.642793333333","25.2156416666667","6502800","萬里區"
"207004","225-TW","2018/06/18 20:09:20","新北市萬里區北基里大勇路12號","121.681813333333","25.1765716666667","6502800","萬里區"
"252002","178-VK","2018/06/18 20:09:16","新北市三芝區中正路一段70號","121.504015","25.257915","6502100","三芝區"
"252001","292-VK","2018/06/18 20:09:19","新北市三芝區長安街89號","121.499641666667","25.25757","6502100","三芝區"
"237009","210-TH","2018/06/18 20:09:10","新北市三峽區民族街6號","121.368978333333","24.93134","6500900","三峽區"
"237008","302-VK","2018/06/18 20:09:27","新北市三峽區中華路63巷11號","121.37281","24.9301866666667","6500900","三峽區"
"237014","433-BY","2018/06/18 20:09:13","新北市三峽區添福59-13號","121.374111666667","24.9033066666667","6500900","三峽區"
"237006","5529-G3","2018/06/18 20:09:21","新北市三峽區中正路二段299巷2號","121.366635","24.91099","6500900","三峽區"
"237015","649-BX","2018/06/18 20:09:26","新北市三峽區介壽路二段138巷47號","121.39533","24.9333133333333","6500900","三峽區"
"237005","AKY-6261","2018/06/18 20:09:13","新北市三峽區民生街1巷13-1號","121.379936666667","24.935585","6500900","三峽區"
"236069","105-UM","2018/06/18 20:09:30","新北市土城區中央路三段185-6號","121.431715","24.964785","6501300","土城區"
"236078","166-UM","2018/06/18 20:09:26","新北市土城區民族街20號","121.41895","24.96304","6501300","土城區"
"236030","253-BX","2018/06/18 20:09:08","新北市土城區中央路一段156巷7號","121.445513333333","24.9873416666667","6501300","土城區"
"236026","269-VK","2018/06/18 20:09:28","新北市土城區中央路一段230號","121.44477","24.9851416666667","6501300","土城區"
"236014","270-VK","2018/06/18 20:09:21","新北市土城區廣興街39號","121.455033333333","24.9916166666667","6501300","土城區"
"236039","271-VK","2018/06/18 20:09:12","新北市土城區延吉街355號","121.46458","24.983895","6501300","土城區"
"236020","401-BY","2018/06/18 20:09:31","新北市土城區延吉街55號","121.472206666667","24.9875883333333","6501300","土城區"
"236042","752-BX","2018/06/18 20:09:17","新北市土城區學成路22巷2弄2號","121.453205","24.9870766666667","6501300","土城區"
"236059","912-UM","2018/06/18 20:09:15","新北市土城區中央路二段229號","121.44034","24.972525","6501300","土城區"
"236048","913-UM","2018/06/18 20:09:29","新北市土城區清水路50號","121.455348333333","24.9810666666667","6501300","土城區"
"236063","915-UM","2018/06/18 20:09:31","新北市土城區立德路113號","121.464221666667","24.9875","6501300","土城區"
"236055","AAC-216","2018/06/18 20:09:13","新北市土城區中華路一段193號","121.443195","24.98556","6501300","土城區"
"242034","AAC-296","2018/06/18 20:09:18","新北市新莊區建中街81巷8號","121.447261666667","25.036125","6500500","新莊區"
"242058","986-R7","2018/06/18 20:09:31","新北市新莊區八德街111號","121.424136666667","25.020945","6500500","新莊區"
"242053","751-BX","2018/06/18 20:09:24","新北市新莊區西盛街395巷9號","121.428123333333","25.0126283333333","6500500","新莊區"
"242025","613-BX","2018/06/18 20:09:25","新北市新莊區五工路68巷31號","121.458953333333","25.0649266666667","6500500","新莊區"
"242029","612-BX","2018/06/18 20:09:10","新北市新莊區中原路347號","121.445173333333","25.0542566666667","6500500","新莊區"
"242042","566-BX","2018/06/18 20:09:12","新北市新莊區青山路一段193-1號","121.398618333333","25.0311383333333","6500500","新莊區"
"242046","497-BY","2018/06/18 20:09:31","新北市新莊區福營路591-1號","121.41952","25.0229283333333","6500500","新莊區"
"242050","441-UM","2018/06/18 20:09:09","新北市新莊區民安西路172巷4弄2號","121.425548333333","25.0160733333333","6500500","新莊區"
"242056","440-UM","2018/06/18 20:09:12","新北市新莊區新莊路649巷15弄13號","121.445606666667","25.0315383333333","6500500","新莊區"
"242036","415-TV","2018/06/18 20:09:18","新北市新莊區建安街25巷16號","121.429808333333","25.0262066666667","6500500","新莊區"
"242007","413-TV","2018/06/18 20:09:28","新北市新莊區福壽街184巷19號","121.459235","25.0532466666667","6500500","新莊區"
"242044","400-BY","2018/06/18 20:09:21","桃園市龜山區萬壽路一段29號","121.410041666667","25.02069","6500500","新莊區"
"242023","362-BY","2018/06/18 20:09:26","新北市新莊區化成路337號","121.465845","25.0561983333333","6500500","新莊區"
"242060","353-BY","2018/06/18 20:09:18","新北市新莊區瓊林路瓊英巷4弄2號","121.443671666667","25.0274116666667","6500500","新莊區"
"242009","132-UY","2018/06/18 20:09:27","新北市新莊區昌盛街35巷2弄2號","121.454151666667","25.0502433333333","6500500","新莊區"
"242039","133-UY","2018/06/18 20:09:20","新北市新莊區龍安路509號","121.426275","25.0179116666667","6500500","新莊區"
"242048","172-VK","2018/06/18 20:09:23","新北市新莊區四維路182巷2弄12號","121.422175","25.0223666666667","6500500","新莊區"
"242011","173-VK","2018/06/18 20:05:11","新北市新莊區中港路537號","121.451558333333","25.05172","6500500","新莊區"
"242017","175-VK","2018/06/18 20:09:23","新北市新莊區中港路359號","121.451983333333","25.0460433333333","6500500","新莊區"
"242004","176-VK","2018/06/18 20:09:27","新北市新莊區化成路554巷45號","121.467608333333","25.0541266666667","6500500","新莊區"
"242015","346-TH","2018/06/18 20:09:10","新北市新莊區中平路26巷32號","121.446163333333","25.0432333333333","6500500","新莊區"
"242021","348-TH","2018/06/18 20:09:26","新北市新莊區建中街34號","121.44897","25.037495","6500500","新莊區"
"242002","349-TH","2018/06/18 20:09:28","新北市新莊區中正路143號","121.459686666667","25.038415","6500500","新莊區"
"242019","350-TH","2018/06/18 20:09:15","新北市新莊區長青街33號","121.457013333333","25.042185","6500500","新莊區"
"242013","351-TH","2018/06/18 20:09:14","新北市新莊區幸福路678巷3弄2號","121.450461666667","25.0496916666667","6500500","新莊區"
"238015","755-BX","2018/06/18 20:09:14","新北市樹林區育德街78-1號","121.38746","24.96828","6500700","樹林區"
"221008","489-VK","2018/06/18 20:09:05","台北市內湖區康樂街165號","121.619971666667","25.0750583333333","6501100","汐止區"
"221036","130-UY","2018/06/18 20:09:32","新北市汐止區新台五路二段33號","121.662913333333","25.0663766666667","6501100","汐止區"
"221015","131-UY","2018/06/18 20:09:14","新北市汐止區建成路37巷3號","121.663686666667","25.0727083333333","6501100","汐止區"
"221010","269-BY","2018/06/18 20:09:26","新北市汐止區連峰街225巷36號","121.643016666667","25.0818766666667","6501100","汐止區"
"221012","278-VK","2018/06/18 20:09:25","新北市汐止區汐平路二段9-1號","121.695658333333","25.064575","6501100","汐止區"
"221023","279-VK","2018/06/18 20:09:17","新北市汐止區明峰街298巷7弄2號","121.624926666667","25.0688816666667","6501100","汐止區"
"221032","280-BY","2018/06/18 20:09:24","新北市汐止區橫科路18巷33弄1號","121.617488333333","25.049755","6501100","汐止區"
"221027","281-BY","2018/06/18 20:09:18","新北市汐止區中正路115號","121.660533333333","25.0694","6501100","汐止區"
"221029","298-VK","2018/06/18 20:09:24","新北市汐止區樟樹一路119巷12號","121.641218333333","25.0644433333333","6501100","汐止區"
"221021","299-VK","2018/06/18 20:09:31","新北市汐止區連興街144號","121.654","25.0614316666667","6501100","汐止區"
"221031","353-TW","2018/06/18 20:09:13","新北市汐止區原興路77號","121.63184","25.06642","6501100","汐止區"
"221035","622-UM","2018/06/18 20:09:32","新北市汐止區長江街57巷26號","121.656288333333","25.0724916666667","6501100","汐止區"
"221025","623-UM","2018/06/18 20:09:09","新北市汐止區秀峰路84號","121.659928333333","25.06403","6501100","汐止區"
"221038","646-BX","2018/06/18 20:09:28","新北市汐止區大同路三段66-3號","121.668128333333","25.0772466666667","6501100","汐止區"
"221033","647-BX","2018/06/18 20:09:29","新北市汐止區東勢街201巷104號","121.63351","25.04294","6501100","汐止區"
"221002","707-TV","2018/06/18 20:09:31","新北市汐止區中興路62號","121.635265","25.061235","6501100","汐止區"
"221018","753-BX","2018/06/18 20:09:19","新北市汐止區茄福街35巷33號","121.673331666667","25.066315","6501100","汐止區"
"220080","200-UY","2018/06/18 20:09:29","新北市板橋區大觀路二段179巷9號","121.445283333333","24.99998","6500100","板橋區"
"220101","245-BX","2018/06/18 20:09:26","新北市板橋區雙十路二段47巷4弄33號","121.474833333333","25.02675","6500100","板橋區"
"220055","256-TC","2018/06/18 20:09:27","新北市板橋區重慶路290巷24號","121.462266666667","24.998995","6500100","板橋區"
"220071","283-VK","2018/06/18 20:09:19","新北市板橋區和平路27號","121.459626666667","24.9954233333333","6500100","板橋區"
"220053","285-VK","2018/06/18 20:09:13","新北市板橋區懷仁街53-3號","121.476898333333","25.0189883333333","6500100","板橋區"
"220083","286-VK","2018/06/18 20:09:24","新北市板橋區僑中二街90巷18號","121.445423333333","25.0093266666667","6500100","板橋區"
"220081","287-VK","2018/06/18 20:09:30","新北市板橋區僑中一街80巷7弄14-4號","121.447245","25.01287","6500100","板橋區"
"220061","293-UM","2018/06/18 20:09:12","新北市板橋區縣民大道二段200巷52號","121.470926666667","25.0178433333333","6500100","板橋區"
"220092","307-R5","2018/06/18 20:09:26","新北市板橋區文化路一段135號","121.462138333333","25.0152066666667","6500100","板橋區"
"220098","317-R6","2018/06/18 20:09:17","新北市板橋區新海路72巷5弄31-3號","121.461458333333","25.0230416666667","6500100","板橋區"
"242031","280-VK","2018/06/18 20:09:16","新北市新莊區公園一路37號","121.443235","25.03551","6500500","新莊區"
"220088","491-VK","2018/06/18 20:09:29","新北市板橋區民治街69號","121.479608333333","25.0327733333333","6500100","板橋區"
"220103","561-BX","2018/06/18 20:09:14","新北市板橋區陽明街49號","121.464855","25.02237","6500100","板橋區"
"220093","689-BX","2018/06/18 20:09:22","新北市板橋區長江路一段131號","121.460431666667","25.0301116666667","6500100","板橋區"
"220054","741-BX","2018/06/18 20:09:27","新北市板橋區忠孝路201巷77號","121.464665","25.004295","6500100","板橋區"
"220102","KEA-2699","2018/06/18 20:09:29","新北市板橋區民治街126巷5號","121.47774","25.0312216666667","6500100","板橋區"
"220067","829-TW","2018/06/18 20:09:24","新北市板橋區中山路一段206巷2弄2號","121.470025","25.0134333333333","6500100","板橋區"
"220068","830-TW","2018/06/18 20:09:16","新北市板橋區中山路二段290號","121.479606666667","25.0187683333333","6500100","板橋區"
"220089","833-TW","2018/06/18 20:09:17","新北市板橋區互助街64號","121.4612","25.0266833333333","6500100","板橋區"
"220074","895-R6","2018/06/18 20:09:21","新北市板橋區府後街1巷14號","121.459438333333","25.0110866666667","6500100","板橋區"
"220097","AAC-210","2018/06/18 20:09:24","新北市板橋區光正街20巷1弄1號","121.462516666667","25.0175633333333","6500100","板橋區"
"220070","AAC-253","2018/06/18 20:09:25","新北市板橋區四川路二段245巷49號","121.45206","24.99246","6500100","板橋區"
"235068","KEA-2873","2018/06/18 20:09:18","新北市中和區福祥路85巷2弄8號","121.498653333333","25.0060216666667","6500300","中和區"
