"lineid","car","time","location","longitude","latitude","cityid","cityname"
"234064","337-UY","2018/06/18 20:39:20","新北市永和區保順路8號","121.503041666667","25.0119383333333","6500400","永和區"
"234086","338-UY","2018/06/18 20:39:15","新北市永和區光復街21號","121.516406666667","25.0173666666667","6500400","永和區"
"234061","AAD-866","2018/06/18 20:39:28","新北市永和區中正路470號","121.51744","25.003185","6500400","永和區"
"249001","173-UM","2018/06/18 20:39:28","新北市八里區中山路三段382號","121.368656666667","25.1361383333333","6502300","八里區"
"249004","303-UY","2018/06/18 20:39:17","新北市八里區中山路一段338號","121.412598333333","25.158925","6502300","八里區"
"234023","9380-KE","2018/06/18 20:39:16","新北市永和區竹林路14號","121.51647","25.0148516666667","6500400","永和區"
"234077","969-R7","2018/06/18 20:39:22","新北市三重區後埔街80-1號","121.47878","25.0457066666667","6500400","永和區"
"234074","AAC-211","2018/06/18 20:39:21","新北市永和區竹林路119巷3號","121.520323333333","25.0115116666667","6500400","永和區"
"243016","380-SR","2018/06/18 20:39:18","新北市泰山區文程路17號","121.428171666667","25.0495166666667","6501600","泰山區"
"243011","KEA-2215","2018/06/18 20:39:25","新北市泰山區明志路二段332號","121.426085","25.0456766666667","6501600","泰山區"
"243010","KEA-2216","2018/06/18 20:39:24","新北市泰山區明志路二段125號","121.427856666667","25.0512983333333","6501600","泰山區"
"222003","436-BY","2018/06/18 20:39:13","新北市深坑區深坑街97號","121.614138333333","25.001425","6501800","深坑區"
"222002","659-BX","2018/06/18 20:39:19","新北市深坑區萬福路63巷8號","121.60059","25.0079216666667","6501800","深坑區"
"231041","002-UM","2018/06/18 20:39:31","新北市新店區中正路695巷2號","121.533931666667","24.99069","6500600","新店區"
"231059","046-UY","2018/06/18 20:39:30","新北市新店區僑信路132巷25號","121.500043333333","24.9453983333333","6500600","新店區"
"231040","047-UY","2018/06/18 20:39:12","新北市新店區中正路247巷4弄10號","121.538453333333","24.9734233333333","6500600","新店區"
"231044","106-UY","2018/06/18 20:39:11","新北市新店區建國路291巷2號","121.536803333333","24.985895","6500600","新店區"
"231052","108-UY","2018/06/18 20:39:13","新北市新店區廣興路7-10號","121.545716666667","24.9116966666667","6500600","新店區"
"231047","187-VK","2018/06/18 20:39:16","新北市新店區寶慶街12-1號","121.543361666667","24.98675","6500600","新店區"
"231054","KEA-2219","2018/06/18 20:39:23","新北市新店區行政街26號","121.542881666667","24.9655866666667","6500600","新店區"
"231057","256-BX","2018/06/18 20:39:17","新北市新店區花園六路二段14號","121.554978333333","24.933345","6500600","新店區"
"231042","268-BY","2018/06/18 20:39:19","新北市新店區寶橋路238號","121.551551666667","24.9789966666667","6500600","新店區"
"231051","278-BY","2018/06/18 20:39:17","新北市新店區中央八街92號","121.526818333333","24.9775066666667","6500600","新店區"
"231050","AAD-862","2018/06/18 20:39:20","新北市新店區中正路265巷1號","121.538035","24.9737466666667","6500600","新店區"
"231058","3713-VJ","2018/06/18 20:39:22","新北市新店區平等街40號","121.536503333333","24.9734833333333","6500600","新店區"
"231066","4716-K9","2018/06/18 20:39:23","新北市新店區安民街365巷1弄8號","121.516423333333","24.9752683333333","6500600","新店區"
"231056","4715-K9","2018/06/18 20:39:13","新北市新店區中央七街61巷28號","121.52944","24.975775","6500600","新店區"
"231067","4772-VM","2018/06/18 20:39:16","新北市新店區安華路28-1號","121.51975","24.96076","6500600","新店區"
"231049","513-UM","2018/06/18 20:39:26","新北市新店區永業路81巷3弄1號","121.529773333333","24.9491916666667","6500600","新店區"
"231061","619-UM","2018/06/18 20:39:16","新北市新店區新和街35號","121.51925","24.9849166666667","6500600","新店區"
"231063","641-BX","2018/06/18 20:39:19","新北市新店區玫瑰路4-1號","121.4936","24.9514016666667","6500600","新店區"
"231068","718-UY","2018/06/18 20:39:23","新北市新店區寶元路一段85巷10號","121.54313","24.9860033333333","6500600","新店區"
"231064","719-UM","2018/06/18 20:39:25","新北市新店區安和路三段112號","121.517201666667","24.9853666666667","6500600","新店區"
"231065","719-UY","2018/06/18 20:39:14","新北市新店區安祥路102巷108號","121.487073333333","24.9640083333333","6500600","新店區"
"231062","720-UM","2018/06/18 20:39:12","新北市新店區安泰路60巷55弄131號","121.48467","24.9470466666667","6500600","新店區"
"231060","897-TW","2018/06/18 20:39:18","新北市新店區安康路三段740號","121.473791666667","24.9419983333333","6500600","新店區"
"231045","898-TW","2018/06/18 20:39:26","新北市新店區長春路39號","121.54979","24.9574966666667","6500600","新店區"
"231043","899-TW","2018/06/18 20:39:20","新北市新店區建國路31號","121.540256666667","24.9741333333333","6500600","新店區"
"241011","013-R5","2018/06/18 20:39:28","新北市三重區龍濱路172號","121.50137","25.0728216666667","6500200","三重區"
"241028","022-UY","2018/06/18 20:39:25","新北市三重區光興街89號","121.497413333333","25.0599733333333","6500200","三重區"
"241008","059-VK","2018/06/18 20:39:20","新北市三重區下竹圍街91號","121.481101666667","25.0749033333333","6500200","三重區"
"241009","060-VK","2018/06/18 20:39:11","新北市三重區三和路四段420-1號","121.480425","25.079925","6500200","三重區"
"241031","061-VK","2018/06/18 20:39:29","新北市三重區重陽路一段113巷1弄51號","121.488165","25.0585683333333","6500200","三重區"
"241015","062-VK","2018/06/18 20:39:26","新北市三重區文化北路200弄1號","121.497925","25.0681433333333","6500200","三重區"
"241017","063-VK","2018/06/18 20:39:16","新北市三重區安慶街268號","121.490743333333","25.06757","6500200","三重區"
"241024","065-VK","2018/06/18 20:39:28","新北市三重區中正北路346號","121.477886666667","25.0692366666667","6500200","三重區"
"241026","066-VK","2018/06/18 20:39:18","新北市三重區環河南路19號","121.503701666667","25.062595","6500200","三重區"
"241002","090-VK","2018/06/18 20:39:24","新北市三重區仁義街167巷34號","121.498305","25.082245","6500200","三重區"
"241005","262-UM","2018/06/18 20:39:15","新北市三重區碧華街357號","121.492166666667","25.0850866666667","6500200","三重區"
"241016","266-UM","2018/06/18 20:39:25","新北市三重區長壽西街143-3號","121.494378333333","25.0666416666667","6500200","三重區"
"241022","267-UM","2018/06/18 20:39:14","新北市三重區民生街61巷6弄6號","121.488778333333","25.0622833333333","6500200","三重區"
"241032","269-UM","2018/06/18 20:39:19","新北市三重區重陽路一段120巷35號","121.485105","25.0602016666667","6500200","三重區"
"241013","270-UM","2018/06/18 20:39:11","新北市三重區三和路三段139巷18號","121.49323","25.0738333333333","6500200","三重區"
"241025","271-UM","2018/06/18 20:39:25","新北市三重區忠孝路三段93巷10號","121.478978333333","25.0648433333333","6500200","三重區"
"241007","398-BY","2018/06/18 20:39:14","新北市三重區三和路四段107號","121.486456666667","25.0768483333333","6500200","三重區"
"241035","462-BY","2018/06/18 20:39:18","新北市三重區正義北路346號","121.494276666667","25.070985","6500200","三重區"
"241004","475-VK","2018/06/18 20:39:17","新北市三重區分子尾街72巷3號","121.48896","25.08207","6500200","三重區"
"241020","478-VK","2018/06/18 20:39:26","新北市三重區明德街50號","121.492118333333","25.0718216666667","6500200","三重區"
"241030","480-VK","2018/06/18 20:39:13","新北市三重區成功路73巷12號","121.489338333333","25.05183","6500200","三重區"
"241014","543-UM","2018/06/18 20:39:30","新北市三重區三和路二段164號","121.499195","25.0686366666667","6500200","三重區"
"241023","545-UM","2018/06/18 20:39:14","新北市三重區自由街25號","121.479366666667","25.0667816666667","6500200","三重區"
"241001","547-UM","2018/06/18 20:39:23","新北市三重區三和路四段160巷124號","121.486221666667","25.0749916666667","6500200","三重區"
"241019","KEA-2593","2018/06/18 20:39:29","新北市三重區重陽路四段66號","121.492028333333","25.0705533333333","6500200","三重區"
"241006","AAD-863","2018/06/18 20:39:14","新北市三重區車路頭街139巷14號","121.484273333333","25.0762233333333","6500200","三重區"
"241018","743-BX","2018/06/18 20:39:23","新北市三重區雙園街49號","121.495216666667","25.0676816666667","6500200","三重區"
"241012","941-UM","2018/06/18 20:39:12","新北市三重區河邊北街168號","121.502818333333","25.073105","6500200","三重區"
"241029","942-UM","2018/06/18 20:39:21","新北市三重區集美街126巷27號","121.490125","25.0538266666667","6500200","三重區"
"241033","AAC-255","2018/06/18 20:39:15","新北市三重區神農街463號","121.474068333333","25.0578183333333","6500200","三重區"
"235069","4980-A6","2018/06/18 20:39:21","新北市中和區新生街260號","121.48368","24.9973716666667","6500300","中和區"
"235026","800-TS","2018/06/18 20:11:09","新北市中和區員山路36巷16-3號","121.484918333333","24.9917766666667","6500300","中和區"
"247024","893-R6","2018/06/18 20:39:26","新北市蘆洲區長樂路55號","121.462966666667","25.0861383333333","6501400","蘆洲區"
"247014","546-UM","2018/06/18 20:39:23","新北市蘆洲區成功路60號","121.472461666667","25.0804866666667","6501400","蘆洲區"
"247022","500-BY","2018/06/18 20:39:24","新北市蘆洲區中正路168號","121.46857","25.08589","6501400","蘆洲區"
"247010","341-TH","2018/06/18 20:39:18","新北市蘆洲區中興街27號","121.48094","25.087105","6501400","蘆洲區"
"247012","339-TH","2018/06/18 20:39:32","新北市蘆洲區集賢路224巷48號","121.481168333333","25.08771","6501400","蘆洲區"
"247004","337-TH","2018/06/18 20:39:27","新北市蘆洲區長安街297號","121.457813333333","25.0846966666667","6501400","蘆洲區"
"247006","336-TH","2018/06/18 20:39:30","新北市蘆洲區和平路202號","121.46584","25.0818966666667","6501400","蘆洲區"
"247008","056-VK","2018/06/18 20:39:11","新北市蘆洲區重陽街42-1號","121.481086666667","25.08263","6501400","蘆洲區"
"247016","007-UY","2018/06/18 20:39:25","新北市蘆洲區得勝街183號","121.470958333333","25.08256","6501400","蘆洲區"
"247002","002-UY","2018/06/18 20:39:14","新北市蘆洲區長安街375巷9號","121.456675","25.0877116666667","6501400","蘆洲區"
"247020","001-UY","2018/06/18 20:39:25","新北市蘆洲區民族路424號","121.473976666667","25.09173","6501400","蘆洲區"
"222001","KEA-2212","2018/06/18 20:39:25","新北市深坑區北深路三段230號","121.600688333333","25.0039916666667","6501800","深坑區"
"251013","KEA-2871","2018/06/18 20:39:15","新北市淡水區下圭柔山28巷6號","121.457293333333","25.204105","6501000","淡水區"
"251016","179-VK","2018/06/18 20:39:29","新北市淡水區後洲子8-2號","121.449588333333","25.224005","6501000","淡水區"
"251014","180-VK","2018/06/18 20:39:22","新北市淡水區公埔子38號","121.465055","25.2327116666667","6501000","淡水區"
"251015","182-VK","2018/06/18 20:39:16","新北市淡水區淡金路四段493號","121.452013333333","25.2250583333333","6501000","淡水區"
"251010","413-VK","2018/06/18 20:39:16","新北市淡水區沙崙路181巷15號","121.424","25.1843716666667","6501000","淡水區"
"251012","441-VK","2018/06/18 20:39:24","新北市淡水區興仁路107號","121.451558333333","25.2181733333333","6501000","淡水區"
"251001","559-UM","2018/06/18 20:39:14","新北市淡水區淡金路二段141號","121.450271666667","25.1823433333333","6501000","淡水區"
"251006","561-UM","2018/06/18 20:39:15","新北市淡水區商工路186巷21號","121.450573333333","25.18703","6501000","淡水區"
"251002","672-BX","2018/06/18 20:39:23","新北市淡水區淡金路二段30號","121.452021666667","25.1812033333333","6501000","淡水區"
"251003","673-BX","2018/06/18 20:39:13","新北市淡水區新民街55號","121.438691666667","25.1761366666667","6501000","淡水區"
"252002","178-VK","2018/06/18 20:39:15","新北市三芝區淡金路二段47-1號","121.503545","25.2604783333333","6502100","三芝區"
"252001","292-VK","2018/06/18 20:39:19","新北市三芝區長安街55號","121.501125","25.2565666666667","6502100","三芝區"
"237006","5529-G3","2018/06/18 20:39:21","新北市三峽區大智路69號","121.360906666667","24.935735","6500900","三峽區"
"242034","AAC-296","2018/06/18 20:39:22","新北市新莊區中正路317號","121.448033333333","25.035025","6500500","新莊區"
"242058","986-R7","2018/06/18 20:39:31","新北市新莊區四維路178號","121.422351666667","25.021855","6500500","新莊區"
"242053","751-BX","2018/06/18 20:39:27","新北市新莊區西盛街344巷1號","121.427758333333","25.0140983333333","6500500","新莊區"
"242027","615-BX","2018/06/18 20:39:29","新北市新莊區思源路145號","121.459851666667","25.0441266666667","6500500","新莊區"
"242025","613-BX","2018/06/18 20:39:24","新北市新莊區化成路579巷1號","121.464411666667","25.066055","6500500","新莊區"
"242029","612-BX","2018/06/18 20:39:10","新北市新莊區昌平街19號","121.4544","25.0514633333333","6500500","新莊區"
"242042","566-BX","2018/06/18 20:39:31","新北市新莊區中正路700-39號","121.417475","25.027745","6500500","新莊區"
"242046","497-BY","2018/06/18 20:39:31","新北市新莊區裕民街57號","121.418725","25.0245233333333","6500500","新莊區"
"242050","441-UM","2018/06/18 20:39:28","新北市新莊區西盛街280巷16號","121.427488333333","25.0154183333333","6500500","新莊區"
"242056","440-UM","2018/06/18 20:39:32","新北市新莊區瓊泰路80巷45號","121.445","25.0291733333333","6500500","新莊區"
"242036","415-TV","2018/06/18 20:39:18","新北市新莊區後港一路68號","121.426658333333","25.0264883333333","6500500","新莊區"
"242007","413-TV","2018/06/18 20:39:28","新北市新莊區思源路287巷1弄4號","121.459208333333","25.0480183333333","6500500","新莊區"
"242044","400-BY","2018/06/18 20:39:21","新北市新莊區龍安路63號","121.415533333333","25.02157","6500500","新莊區"
"242023","362-BY","2018/06/18 20:39:26","新北市新莊區思源路56號","121.460185","25.044425","6500500","新莊區"
"242060","353-BY","2018/06/18 20:39:18","新北市新莊區新樹路258巷3號","121.432121666667","25.0156016666667","6500500","新莊區"
"242009","132-UY","2018/06/18 20:39:27","新北市新莊區昌盛街103巷2號","121.456175","25.050175","6500500","新莊區"
"242039","133-UY","2018/06/18 20:39:19","新北市新莊區民安路426-9號","121.433106666667","25.0228016666667","6500500","新莊區"
"242048","172-VK","2018/06/18 20:39:10","新北市新莊區中正路723-2號","121.423438333333","25.0291133333333","6500500","新莊區"
"242017","175-VK","2018/06/18 20:39:23","新北市新莊區中港一街161號","121.447091666667","25.0449516666667","6500500","新莊區"
"242015","346-TH","2018/06/18 20:39:28","新北市新莊區中和街44號","121.448145","25.0442066666667","6500500","新莊區"
"242021","348-TH","2018/06/18 20:39:25","新北市新莊區公園路116號","121.451408333333","25.039925","6500500","新莊區"
"242002","349-TH","2018/06/18 20:39:17","新北市新莊區中正路72號","121.458778333333","25.0381333333333","6500500","新莊區"
"242013","351-TH","2018/06/18 20:39:14","新北市新莊區中和街175巷10號","121.44734","25.05065","6500500","新莊區"
"221008","489-VK","2018/06/18 20:39:25","新北市汐止區康寧街706-2號","121.63848","25.0729833333333","6501100","汐止區"
"221036","130-UY","2018/06/18 20:39:32","新北市汐止區新昌路20-1號","121.66204","25.067685","6501100","汐止區"
"221015","131-UY","2018/06/18 20:39:14","新北市汐止區建成路26號","121.664535","25.0726116666667","6501100","汐止區"
"221010","269-BY","2018/06/18 20:39:26","新北市汐止區八連路一段530巷50號","121.640998333333","25.09025","6501100","汐止區"
"221023","279-VK","2018/06/18 20:39:17","新北市汐止區民族二街7-1號","121.635118333333","25.0717116666667","6501100","汐止區"
"221032","280-BY","2018/06/18 20:39:24","新北市汐止區弘道街53巷12號","121.618698333333","25.0489433333333","6501100","汐止區"
"221027","281-BY","2018/06/18 20:39:18","新北市汐止區大同路二段471號","121.660343333333","25.06816","6501100","汐止區"
"221029","298-VK","2018/06/18 20:39:23","新北市汐止區新台五路一段79-9號","121.645783333333","25.0622066666667","6501100","汐止區"
"221021","299-VK","2018/06/18 20:39:30","新北市汐止區水源路一段284號","121.654106666667","25.058305","6501100","汐止區"
"221031","353-TW","2018/06/18 20:39:13","新北市汐止區工建路216號","121.636653333333","25.0623866666667","6501100","汐止區"
"221035","622-UM","2018/06/18 20:39:12","新北市汐止區長江街101-5號","121.65872","25.07317","6501100","汐止區"
"221025","623-UM","2018/06/18 20:39:29","新北市汐止區水源路二段172號","121.65769","25.05393","6501100","汐止區"
"221038","646-BX","2018/06/18 20:39:28","新北市汐止區大同路二段196號","121.65283","25.0644183333333","6501100","汐止區"
"221033","647-BX","2018/06/18 20:39:29","新北市汐止區合順街18巷8弄5號","121.620323333333","25.041835","6501100","汐止區"
"221002","707-TV","2018/06/18 20:39:11","新北市汐止區福德二路163號","121.63112","25.06519","6501100","汐止區"
"221018","753-BX","2018/06/18 20:39:19","新北市汐止區茄苳路70號","121.666688333333","25.0706316666667","6501100","汐止區"
"242031","280-VK","2018/06/18 20:39:17","新北市新莊區三和路60-12號","121.437575","25.0401866666667","6500500","新莊區"
"220088","491-VK","2018/06/18 20:39:29","新北市林口區汕頭32號","121.366711666667","25.1350433333333","6500100","板橋區"
"220103","561-BX","2018/06/18 20:39:14","新北市板橋區漢生東路83巷23號","121.467335","25.0167733333333","6500100","板橋區"
"220070","AAC-253","2018/06/18 20:38:04","新北市五股區中直路17-4號","121.422608333333","25.1114183333333","6500100","板橋區"
