"lineid","car","time","location","longitude","latitude","cityid","cityname"
"234023","9380-KE","2018/06/18 21:09:16","新北市永和區竹林路75巷4弄34號","121.521661666667","25.014135","6500400","永和區"
"234077","969-R7","2018/06/18 21:09:23","新北市林口區太平里180號","121.368333333333","25.1346066666667","6500400","永和區"
"234074","AAC-211","2018/06/18 21:09:21","新北市五股區成泰路四段22巷6-4號","121.454035","25.1050916666667","6500400","永和區"
"231059","046-UY","2018/06/18 21:09:18","新北市新店區僑義路30號","121.500666666667","24.9497233333333","6500600","新店區"
"231040","047-UY","2018/06/18 21:09:12","新北市新店區北新路一段351號","121.541791666667","24.9694066666667","6500600","新店區"
"231047","187-VK","2018/06/18 21:09:16","新北市新店區中興路三段160號","121.544461666667","24.980685","6500600","新店區"
"231054","KEA-2219","2018/06/18 21:09:22","新北市新店區大新街7巷26號","121.54408","24.9679133333333","6500600","新店區"
"231042","268-BY","2018/06/18 21:09:19","新北市新店區寶興路60巷4號","121.54984","24.971825","6500600","新店區"
"231051","278-BY","2018/06/18 21:09:17","新北市新店區中正路700巷26號","121.535426666667","24.9910383333333","6500600","新店區"
"231050","AAD-862","2018/06/18 21:09:20","新北市新店區中華路117巷3號","121.537931666667","24.968585","6500600","新店區"
"231061","619-UM","2018/06/18 21:09:16","新北市新店區永平街56號","121.516165","24.9846566666667","6500600","新店區"
"231063","641-BX","2018/06/18 21:09:19","新北市新店區玫瑰路58巷2號","121.495436666667","24.9466216666667","6500600","新店區"
"231065","719-UY","2018/06/18 21:09:34","新北市新店區安祥路69巷41弄31號","121.482343333333","24.9615316666667","6500600","新店區"
"231060","897-TW","2018/06/18 21:09:18","新北市新店區安康路二段382號","121.500238333333","24.9569133333333","6500600","新店區"
"241011","013-R5","2018/06/18 21:09:28","新北市三重區龍濱路237號","121.501595","25.0723066666667","6500200","三重區"
"241028","022-UY","2018/06/18 21:09:06","新北市三重區正義南路54號","121.498261666667","25.0606916666667","6500200","三重區"
"241008","059-VK","2018/06/18 21:09:20","新北市三重區自強路一段64號","121.49721","25.066675","6500200","三重區"
"241009","060-VK","2018/06/18 21:09:11","新北市三重區忠孝路二段126號","121.482925","25.0688233333333","6500200","三重區"
"241031","061-VK","2018/06/18 21:09:29","新北市三重區重新路五段406號","121.475891666667","25.0476716666667","6500200","三重區"
"241015","062-VK","2018/06/18 21:09:26","新北市三重區長元街63-1號","121.502696666667","25.0666083333333","6500200","三重區"
"241017","063-VK","2018/06/18 21:09:16","新北市三重區國隆路30號","121.492305","25.0643983333333","6500200","三重區"
"241024","065-VK","2018/06/18 21:09:28","新北市三重區大勇街82巷15弄30號","121.481265","25.0719733333333","6500200","三重區"
"241026","066-VK","2018/06/18 21:09:18","新北市三重區光興街1號","121.50026","25.0602783333333","6500200","三重區"
"241002","090-VK","2018/06/18 21:09:22","新北市三重區五華街19號","121.494898333333","25.0803633333333","6500200","三重區"
"241005","262-UM","2018/06/18 21:09:15","新北市三重區三信路182號","121.487968333333","25.0861616666667","6500200","三重區"
"241003","265-UM","2018/06/18 21:09:27","新北市三重區仁義街228巷1號","121.494896666667","25.0848566666667","6500200","三重區"
"241016","266-UM","2018/06/18 21:09:25","新北市三重區信義西街138號","121.495611666667","25.06427","6500200","三重區"
"241022","267-UM","2018/06/18 21:09:14","新北市三重區中正北路64巷24號","121.486013333333","25.0636666666667","6500200","三重區"
"241032","269-UM","2018/06/18 21:09:19","新北市三重區頂崁街99號","121.477661666667","25.0616083333333","6500200","三重區"
"241013","270-UM","2018/06/18 21:09:31","新北市三重區三和路四段15號","121.491215","25.0742383333333","6500200","三重區"
"241025","271-UM","2018/06/18 21:09:25","新北市三重區中正北路208巷8號","121.482316666667","25.0669383333333","6500200","三重區"
"241007","398-BY","2018/06/18 21:09:14","新北市三重區三和路四段145巷85號","121.486373333333","25.07881","6500200","三重區"
"241004","475-VK","2018/06/18 21:09:17","新北市三重區仁愛街420號","121.490356666667","25.0814183333333","6500200","三重區"
"241020","478-VK","2018/06/18 21:09:26","新北市三重區忠孝路二段31號","121.486003333333","25.07111","6500200","三重區"
"241030","480-VK","2018/06/18 21:09:13","新北市三重區五谷王北街20巷15弄1號","121.475003333333","25.0484783333333","6500200","三重區"
"241014","543-UM","2018/06/18 21:09:30","新北市三重區長安街82-1號","121.501421666667","25.06772","6500200","三重區"
"241023","545-UM","2018/06/18 21:09:14","新北市三重區洛陽街45巷15號","121.482336666667","25.0637666666667","6500200","三重區"
"241001","547-UM","2018/06/18 21:09:23","新北市三重區溪尾街54號","121.490548333333","25.0774183333333","6500200","三重區"
"241019","KEA-2593","2018/06/18 21:09:29","新北市三重區自強路二段74巷23-1號","121.487935","25.0698366666667","6500200","三重區"
"241006","AAD-863","2018/06/18 21:09:34","新北市三重區中正北路105號","121.489366666667","25.0631783333333","6500200","三重區"
"241018","743-BX","2018/06/18 21:09:03","新北市三重區雙園街57巷21-2號","121.49471","25.068125","6500200","三重區"
"241012","941-UM","2018/06/18 21:09:12","新北市三重區龍門路274巷45號","121.501206666667","25.0755583333333","6500200","三重區"
"241029","942-UM","2018/06/18 21:09:21","新北市三重區大同南路134巷34號","121.49798","25.0585716666667","6500200","三重區"
"241033","AAC-255","2018/06/18 21:09:15","新北市三重區重光街120-1號","121.466313333333","25.0648283333333","6500200","三重區"
"247024","893-R6","2018/06/18 21:09:26","新北市蘆洲區長興路50巷1號","121.463736666667","25.0837766666667","6501400","蘆洲區"
"247014","546-UM","2018/06/18 21:09:23","新北市蘆洲區中央路155號","121.47258","25.0847566666667","6501400","蘆洲區"
"247022","500-BY","2018/06/18 21:09:24","新北市蘆洲區中正路186號","121.466876666667","25.08806","6501400","蘆洲區"
"247010","341-TH","2018/06/18 21:09:18","新北市蘆洲區鷺江街40號","121.477293333333","25.0830866666667","6501400","蘆洲區"
"247012","339-TH","2018/06/18 21:09:32","新北市蘆洲區民族路31-6號","121.477335","25.08504","6501400","蘆洲區"
"247004","337-TH","2018/06/18 21:09:27","新北市蘆洲區永安南路二段268號","121.458445","25.0807616666667","6501400","蘆洲區"
"247006","336-TH","2018/06/18 21:09:29","新北市蘆洲區九芎街15巷12號","121.467868333333","25.07786","6501400","蘆洲區"
"247018","057-VK","2018/06/18 21:09:15","新北市蘆洲區民族路408巷10號","121.474826666667","25.091855","6501400","蘆洲區"
"247008","056-VK","2018/06/18 21:09:31","新北市蘆洲區民生街66號","121.473198333333","25.078855","6501400","蘆洲區"
"247016","007-UY","2018/06/18 21:09:13","新北市蘆洲區光華路150巷40號","121.464923333333","25.0835966666667","6501400","蘆洲區"
"247002","002-UY","2018/06/18 21:09:31","新北市蘆洲區永樂街38巷42弄4號","121.458705","25.0899433333333","6501400","蘆洲區"
"247020","001-UY","2018/06/18 21:09:26","新北市蘆洲區民族路488號","121.471161666667","25.0913066666667","6501400","蘆洲區"
"251013","KEA-2871","2018/06/18 21:09:15","新北市淡水區行忠路328號","121.46044","25.1996166666667","6501000","淡水區"
"251016","179-VK","2018/06/18 21:09:29","新北市淡水區前洲子2-1號","121.444251666667","25.2167533333333","6501000","淡水區"
"251014","180-VK","2018/06/18 21:09:18","新北市淡水區六塊厝1-2號","121.450888333333","25.2425633333333","6501000","淡水區"
"251015","182-VK","2018/06/18 21:09:16","新北市淡水區淡金路四段542巷59號","121.454801666667","25.226935","6501000","淡水區"
"251010","413-VK","2018/06/18 21:09:16","新北市淡水區中正路一段63巷9號","121.422776666667","25.1773133333333","6501000","淡水區"
"251012","441-VK","2018/06/18 21:09:24","新北市淡水區淡金路五段172號","121.457033333333","25.2400633333333","6501000","淡水區"
"251007","442-VK","2018/06/18 21:09:26","新北市淡水區忠愛街4號","121.459551666667","25.1714316666667","6501000","淡水區"
"251005","443-VK","2018/06/18 21:09:25","新北市淡水區學府路89號","121.448831666667","25.170725","6501000","淡水區"
"251001","559-UM","2018/06/18 21:09:14","新北市淡水區新市一路三段101巷16弄14號","121.446803333333","25.1838766666667","6501000","淡水區"
"251011","650-BX","2018/06/18 21:09:22","新北市淡水區新民街180巷7弄10號","121.437366666667","25.1796566666667","6501000","淡水區"
"251003","673-BX","2018/06/18 21:09:13","新北市淡水區新春街125巷51號","121.440508333333","25.1827716666667","6501000","淡水區"
"221010","269-BY","2018/06/18 21:09:26","新北市汐止區汐萬路一段256巷3號","121.652061666667","25.07463","6501100","汐止區"
"220103","561-BX","2018/06/18 21:09:14","新北市樹林區八德街676號","121.395868333333","24.96895","6500100","板橋區"
"220070","AAC-253","2018/06/18 21:09:24","新北市八里區中山路三段132號","121.385618333333","25.1417016666667","6500100","板橋區"
