"lineid","car","time","location","longitude","latitude","cityid","cityname"
"235010","733-UM","2018/06/18 21:39:04","新北市中和區員山路36巷13號","121.484156666667","24.9908183333333","6500300","中和區"
"247010","341-TH","2018/06/18 21:49:18","新北市八里區中山路三段390號","121.368246666667","25.136245","6501400","蘆洲區"
"251009","008-UM","2018/06/18 21:49:27","新北市淡水區民族路35巷46號","121.465431666667","25.1372866666667","6501000","淡水區"
"251004","009-UM","2018/06/18 21:49:31","新北市淡水區民權路92巷35號","121.461975","25.125395","6501000","淡水區"
"251014","180-VK","2018/06/18 21:49:22","新北市淡水區中山北路三段171號","121.44558","25.197005","6501000","淡水區"
"251010","413-VK","2018/06/18 21:49:16","新北市淡水區中正路二段214號","121.426658333333","25.1897","6501000","淡水區"
"251012","441-VK","2018/06/18 21:49:24","新北市淡水區淡金路三段361-1號","121.448766666667","25.20716","6501000","淡水區"
"251007","442-VK","2018/06/18 21:49:26","新北市淡水區水源街二段177巷60號","121.452493333333","25.1770466666667","6501000","淡水區"
"251005","443-VK","2018/06/18 21:49:25","新北市淡水區鄧公路30巷26號","121.453411666667","25.1697416666667","6501000","淡水區"
"251001","559-UM","2018/06/18 21:49:14","新北市淡水區沙崙路二段112號","121.433675","25.1983933333333","6501000","淡水區"
"251006","561-UM","2018/06/18 21:49:34","新北市淡水區中正路11巷3號","121.437795","25.170765","6501000","淡水區"
"251011","650-BX","2018/06/18 21:49:22","新北市淡水區新民街322巷9號","121.436361666667","25.1829","6501000","淡水區"
"251002","672-BX","2018/06/18 21:49:23","新北市淡水區大忠街159號","121.448215","25.1765916666667","6501000","淡水區"
"251003","673-BX","2018/06/18 21:49:33","新北市淡水區新春街81號","121.438731666667","25.1823366666667","6501000","淡水區"
"221010","269-BY","2018/06/18 21:41:20","新北市汐止區汐萬路一段256巷1號","121.652023333333","25.074675","6501100","汐止區"
"220070","AAC-253","2018/06/18 21:49:24","新北市板橋區華東街1-9號","121.44824","24.9948916666667","6500100","板橋區"
