"lineid","car","time","location","longitude","latitude","cityid","cityname"
"247010","341-TH","2018/06/18 22:09:18","新北市八里區中山路三段335號","121.377171666667","25.1388966666667","6501400","蘆洲區"
"251004","009-UM","2018/06/18 22:09:31","新北市淡水區民族路31巷1號","121.462198333333","25.1361183333333","6501000","淡水區"
"251008","181-VK","2018/06/18 22:09:22","新北市淡水區學府路104號","121.449825","25.1718116666667","6501000","淡水區"
"251010","413-VK","2018/06/18 22:09:16","新北市淡水區沙崙路200號","121.424723333333","25.1839083333333","6501000","淡水區"
"251007","442-VK","2018/06/18 22:09:26","新北市淡水區北新路180號","121.44942","25.178795","6501000","淡水區"
"251005","443-VK","2018/06/18 22:09:26","新北市淡水區鄧公路19號","121.451458333333","25.170035","6501000","淡水區"
"251011","650-BX","2018/06/18 22:09:22","新北市淡水區中山北路一段239號","121.444586666667","25.1796933333333","6501000","淡水區"
"251002","672-BX","2018/06/18 22:09:23","新北市淡水區水源街一段110號","121.44662","25.1719683333333","6501000","淡水區"
"221010","269-BY","2018/06/18 21:41:20","新北市汐止區汐萬路一段256巷1號","121.652023333333","25.074675","6501100","汐止區"
