"lineid","car","time","location","longitude","latitude","cityid","cityname"
"247010","341-TH","2018/06/18 22:19:18","新北市五股區孝義路14號","121.452305","25.106175","6501400","蘆洲區"
"251004","009-UM","2018/06/18 22:19:31","新北市淡水區民族路33號","121.462286666667","25.1357533333333","6501000","淡水區"
"251008","181-VK","2018/06/18 22:19:22","新北市淡水區學府路104號","121.449833333333","25.1717183333333","6501000","淡水區"
"251010","413-VK","2018/06/18 22:19:16","新北市淡水區沙崙路200號","121.424693333333","25.183905","6501000","淡水區"
"251007","442-VK","2018/06/18 22:19:26","新北市淡水區北新路137號","121.449383333333","25.1789316666667","6501000","淡水區"
"251011","650-BX","2018/06/18 22:19:22","新北市淡水區中山北路一段239號","121.444581666667","25.1796816666667","6501000","淡水區"
