"lineid","car","time","location","longitude","latitude","cityid","cityname"
"232002","290-BY","2018/06/19 06:39:22","新北市坪林區北宜路八段451號","121.705406666667","24.9227583333333","6502000","坪林區"
"232013","291-BY","2018/06/19 06:39:23","新北市坪林區北宜路八段558號","121.718196666667","24.90929","6502000","坪林區"
"232006","758-BX","2018/06/19 06:39:25","新北市坪林區北宜路八段558號","121.717988333333","24.909275","6502000","坪林區"
"244002","248-BX","2018/06/19 06:39:22","新北市林口區粉寮69號","121.405101666667","25.0908116666667","6501700","林口區"
"223002","KEA-2673","2018/06/19 06:39:23","新北市石碇區石碇西街21號","121.658651666667","24.9874","6501900","石碇區"
"223003","205-TH","2018/06/19 06:39:23","新北市石碇區湳窟22-1號","121.661151666667","24.9912733333333","6501900","石碇區"
"223001","592-UM","2018/06/19 06:39:20","新北市石碇區碇坪路一段77號","121.661241666667","24.9914033333333","6501900","石碇區"
"223007","661-BX","2018/06/19 06:39:19","新北市石碇區靜安路一段87號","121.652388333333","25.00725","6501900","石碇區"
"227006","282-VK","2018/06/19 06:39:17","新北市雙溪區牡丹里中正路77號","121.863213333333","25.04542","6502500","雙溪區"
"236008","165-UM","2018/06/19 06:39:30","新北市土城區永平街51號","121.427983333333","24.959175","6501300","土城區"
