"lineid","car","time","location","longitude","latitude","cityid","cityname"
"248010","682-TV","2018/03/29 10:09:34","新北市五股區成泰路二段101號","121.438373333333","25.0842733333333","6501500","五股區"
"244022","483-VK","2018/03/29 10:09:38","新北市林口區仁愛路二段265號","121.37363","25.077425","6501700","林口區"
"222006","289-BY","2018/03/29 10:09:44","新北市深坑區大崙尾8號","121.61364","24.9800516666667","6501800","深坑區"
"231069","189-VK","2018/03/29 10:09:47","新北市新店區新潭路三段256號","121.508271666667","24.9040066666667","6500600","新店區"
"231008","192-VK","2018/03/29 10:09:45","新北市新店區廣興路158-1號","121.536945","24.9087916666667","6500600","新店區"
"252004","249-BX","2018/03/29 10:09:30","新北市三芝區福德里埔尾13-1號","121.504326666667","25.2445416666667","6502100","三芝區"
"252007","AAC-283","2018/03/29 10:09:38","新北市三芝區古庄里古庄103號","121.495445","25.2713566666667","6502100","三芝區"
"237001","159-UY","2018/03/29 10:09:42","新北市三峽區國學街34號","121.373131666667","24.9421683333333","6500900","三峽區"
"236005","498-BY","2018/03/29 10:09:46","新北市土城區亞洲路46巷22號","121.434578333333","24.9749583333333","6501300","土城區"
