"lineid","car","time","location","longitude","latitude","cityid","cityname"
"248010","682-TV","2018/03/29 10:19:20","新北市五股區成泰路二段195巷1號","121.440201666667","25.087275","6501500","五股區"
"244022","483-VK","2018/03/29 10:19:38","新北市林口區文林四街33巷13號","121.373706666667","25.08563","6501700","林口區"
"222006","289-BY","2018/03/29 10:19:25","新北市深坑區王軍寮7號","121.616411666667","24.9848066666667","6501800","深坑區"
"231069","189-VK","2018/03/29 10:19:27","新北市新店區新潭路三段211號","121.505163333333","24.9047083333333","6500600","新店區"
"231008","192-VK","2018/03/29 10:19:25","新北市新店區小坑一路35巷1號","121.528405","24.9093733333333","6500600","新店區"
"252007","AAC-283","2018/03/29 10:19:38","新北市三芝區新庄里番社后15-6號","121.499803333333","25.2682283333333","6502100","三芝區"
"237001","159-UY","2018/03/29 10:19:22","新北市三峽區三樹路110號","121.378051666667","24.9392216666667","6500900","三峽區"
"236005","498-BY","2018/03/29 10:19:26","新北市土城區中央路四段484號","121.409293333333","24.95047","6501300","土城區"
