"lineid","car","time","location","longitude","latitude","cityid","cityname"
"234078","298-R6","2018/03/29 12:19:37","新北市永和區福和路1號","121.52574","25.0094783333333","6500400","永和區"
"234010","9373-KE","2018/03/29 12:19:32","新北市永和區福和路1號","121.526201666667","25.00977","6500400","永和區"
"243004","AAD-798","2018/03/29 12:19:33","新北市泰山區黎明路25號","121.422068333333","25.0608","6501600","泰山區"
"243007","380-SR","2018/03/29 12:11:09","新北市泰山區黎明路25號","121.42254","25.0608316666667","6501600","泰山區"
"235031","255-BX","2018/03/29 11:51:56","新北市中和區和城路一段271巷1號","121.48547","24.9918433333333","6500300","中和區"
"228005","097-TW","2018/03/29 12:19:21","新北市貢寮區福連里福連街15號","121.988","25.014185","6502600","貢寮區"
"228004","212-TW","2018/03/29 12:19:32","新北市貢寮區貢寮里長泰路19號","121.891031666667","25.0217583333333","6502600","貢寮區"
