"lineid","car","time","location","longitude","latitude","cityid","cityname"
"234044","148-BY","2018/03/29 13:39:25","新北市永和區秀朗路二段161巷24號","121.525263333333","25.0024583333333","6500400","永和區"
"234068","149-BY","2018/03/29 13:39:08","新北市永和區永和路二段233號","121.515596666667","25.0142233333333","6500400","永和區"
"234005","207-UY","2018/03/29 13:39:08","新北市永和區中山路一段36號","121.513418333333","25.0106783333333","6500400","永和區"
"234078","298-R6","2018/03/29 13:39:17","新北市永和區林森路20巷7號","121.525821666667","25.0057316666667","6500400","永和區"
"234036","336-UY","2018/03/29 13:39:22","新北市永和區民樂街35巷5號","121.52803","25.0011066666667","6500400","永和區"
"234062","337-UY","2018/03/29 13:39:16","新北市永和區秀朗路一段192巷6弄12號","121.519048333333","25.0022916666667","6500400","永和區"
"234084","338-UY","2018/03/29 13:39:13","新北市永和區成功路一段18巷20號","121.526243333333","25.0051216666667","6500400","永和區"
"234015","745-BX","2018/03/29 13:39:23","新北市永和區忠孝街26巷27弄1號","121.515238333333","25.0169633333333","6500400","永和區"
"234028","746-BX","2018/03/29 13:39:20","新北市永和區民權路29巷11號","121.52076","24.9979616666667","6500400","永和區"
"234052","KEA-2590","2018/03/29 13:39:11","新北市永和區竹林路39巷22號","121.518998333333","25.0147116666667","6500400","永和區"
"234012","KEA-2591","2018/03/29 13:39:26","新北市永和區永平路246號","121.50861","25.0110266666667","6500400","永和區"
"234060","AAD-866","2018/03/29 13:39:23","新北市永和區中正路418號","121.517578333333","25.0023","6500400","永和區"
"234040","862-TW","2018/03/29 13:39:16","新北市永和區永貞路267號","121.511856666667","25.0047383333333","6500400","永和區"
"234048","863-TW","2018/03/29 13:39:19","新北市永和區保安路69號","121.509053333333","25.0153516666667","6500400","永和區"
"234025","9371-KE","2018/03/29 13:39:23","新北市永和區永平路164號","121.51101","25.0089233333333","6500400","永和區"
"234010","9373-KE","2018/03/29 13:39:12","新北市永和區保福路二段15巷11號","121.51052","25.0109633333333","6500400","永和區"
"248015","026-BX","2018/03/29 13:39:10","新北市五股區凌雲路一段149巷42號","121.448605","25.1009183333333","6501500","五股區"
"248005","077-UY","2018/03/29 13:39:25","新北市五股區中興路一段48號","121.468128333333","25.0726133333333","6501500","五股區"
"248007","095-VK","2018/03/29 13:39:24","新北市五股區中興路一段150巷21號","121.464633333333","25.0746433333333","6501500","五股區"
"248017","225-UY","2018/03/29 13:39:12","新北市五股區民義路二段58號","121.406455","25.1075916666667","6501500","五股區"
"248011","247-BX","2018/03/29 13:39:10","新北市五股區成泰路三段43-4號","121.442398333333","25.0890016666667","6501500","五股區"
"248009","272-BY","2018/03/29 13:39:15","新北市五股區水碓一路92號","121.431745","25.0736666666667","6501500","五股區"
"248003","677-BX","2018/03/29 13:39:29","新北市五股區民義路一段236-6號","121.427448333333","25.0912666666667","6501500","五股區"
"248001","678-BX","2018/03/29 13:39:10","新北市五股區西雲路267號","121.449441666667","25.09802","6501500","五股區"
"234022","9380-KE","2018/03/29 13:39:15","新北市永和區中正路702巷26號","121.516556666667","25.0106366666667","6500400","永和區"
"234076","969-R7","2018/03/29 13:39:26","新北市永和區得和路198號","121.520305","24.9996683333333","6500400","永和區"
"234072","AAC-211","2018/03/29 13:39:09","新北市永和區豫溪街160巷17號","121.523321666667","25.009145","6500400","永和區"
"234066","AAC-212","2018/03/29 13:39:16","新北市永和區永平路173巷9號","121.510145","25.0082916666667","6500400","永和區"
"234001","AAC-295","2018/03/29 13:39:30","新北市永和區自由街29號","121.514693333333","25.0067216666667","6500400","永和區"
"244003","248-BX","2018/03/29 13:37:41","新北市林口區瑞平里60-1號","121.3386","25.124695","6501700","林口區"
"243004","AAD-798","2018/03/29 13:39:11","新北市泰山區泰林路二段346號","121.429321666667","25.063465","6501600","泰山區"
"243005","646-TV","2018/03/29 13:39:27","新北市泰山區明志路三段206巷10號","121.423255","25.0380083333333","6501600","泰山區"
"243008","680-BX","2018/03/29 13:39:27","新北市泰山區泰林路二段518號","121.424113333333","25.0638933333333","6501600","泰山區"
"231002","002-UM","2018/03/29 13:39:28","新北市新店區中央三街127號","121.524135","24.9769166666667","6500600","新店區"
"231025","0293-UT","2018/03/29 13:39:26","新北市新店區中央六街56號","121.527915","24.9757166666667","6500600","新店區"
"231028","046-UY","2018/03/29 13:39:11","新北市新店區安和路二段77號","121.518468333333","24.96887","6500600","新店區"
"231030","047-UY","2018/03/29 13:39:19","新北市新店區安康路一段75-1號","121.53006","24.961155","6500600","新店區"
"231029","106-UY","2018/03/29 13:39:29","新北市新店區安康路二段216號","121.509833333333","24.9593733333333","6500600","新店區"
"231018","107-UY","2018/03/29 13:39:25","新北市新店區百忍街12號","121.534773333333","24.9756366666667","6500600","新店區"
"231021","187-VK","2018/03/29 13:39:19","新北市新店區永興路90-1號","121.544161666667","24.93161","6500600","新店區"
"231017","KEA-2219","2018/03/29 13:39:12","新北市新店區竹林路2巷29弄9號","121.550456666667","24.950245","6500600","新店區"
"231026","256-BX","2018/03/29 13:39:13","新北市新店區中正路118號","121.542321666667","24.971115","6500600","新店區"
"231010","278-BY","2018/03/29 13:39:20","新北市新店區中正路307巷2號","121.53644","24.9745533333333","6500600","新店區"
"231023","AAD-862","2018/03/29 13:39:14","新北市新店區新店路132號","121.537148333333","24.9550833333333","6500600","新店區"
"231005","355-BY","2018/03/29 13:39:19","新北市新店區寶中路45號","121.545238333333","24.9790783333333","6500600","新店區"
"231027","3712-VJ","2018/03/29 13:39:18","新北市新店區北宜路一段105巷4弄1號","121.539673333333","24.9555583333333","6500600","新店區"
"231024","4716-K9","2018/03/29 13:39:10","新北市新店區華興街19號","121.537681666667","24.96934","6500600","新店區"
"231038","4715-K9","2018/03/29 13:39:18","新北市新店區安華路30巷1號","121.519575","24.9592816666667","6500600","新店區"
"231036","512-UM","2018/03/29 13:39:19","新北市新店區安祥路111號","121.47563","24.9569233333333","6500600","新店區"
"231035","513-UM","2018/03/29 13:39:09","新北市新店區安忠路90-10號","121.511296666667","24.9575483333333","6500600","新店區"
"231001","619-UM","2018/03/29 13:39:20","新北市新店區中正路366號","121.535123333333","24.9762533333333","6500600","新店區"
"231003","641-BX","2018/03/29 13:39:19","新北市新店區中興路一段285-1號","121.545518333333","24.9685466666667","6500600","新店區"
"231034","645-TV","2018/03/29 13:39:21","新北市新店區黎明路98號","121.50415","24.9450816666667","6500600","新店區"
"231013","719-UM","2018/03/29 13:39:10","新北市新店區中正路454-5號","121.534558333333","24.9791283333333","6500600","新店區"
"231011","719-UY","2018/03/29 13:39:20","新北市新店區德正街27巷1號","121.544556666667","24.9714133333333","6500600","新店區"
"231031","720-UM","2018/03/29 13:39:21","新北市新店區莒光路44巷21弄11-1號","121.5195","24.9532133333333","6500600","新店區"
"231006","898-TW","2018/03/29 13:39:18","新北市新店區北宜路一段66號","121.538475","24.9559083333333","6500600","新店區"
"231004","899-TW","2018/03/29 13:39:31","新北市新店區北新路二段7號","121.542738333333","24.9713366666667","6500600","新店區"
"231037","AKT-0513","2018/03/29 13:39:20","新北市新店區薏仁坑路22號","121.49842","24.95915","6500600","新店區"
"235030","003-UY","2018/03/29 13:39:24","新北市中和區水源路37號","121.504425","25.0035966666667","6500300","中和區"
"235028","005-UY","2018/03/29 13:39:21","新北市中和區連城路109巷15號","121.49669","24.999015","6500300","中和區"
"235027","006-UY","2018/03/29 13:39:15","新北市中和區連城路401號","121.486188333333","24.99592","6500300","中和區"
"235020","096-UM","2018/03/29 13:39:14","新北市中和區員山路466巷17弄15號","121.480545","25.0070816666667","6500300","中和區"
"235029","098-UM","2018/03/29 13:39:13","新北市中和區莊敬路49巷29弄6-6號","121.501443333333","25.00645","6500300","中和區"
"235022","151-BY","2018/03/29 13:39:27","新北市中和區圓通路437-5號","121.485948333333","24.9873916666667","6500300","中和區"
"235019","183-VK","2018/03/29 13:39:21","新北市中和區莒光路120巷15弄2號","121.471688333333","25.0011833333333","6500300","中和區"
"235002","185-VK","2018/03/29 13:39:26","新北市中和區立人街28號","121.518613333333","24.9941683333333","6500300","中和區"
"235013","186-VK","2018/03/29 13:39:16","新北市中和區明義街11巷5號","121.503996666667","24.994685","6500300","中和區"
"235031","255-BX","2018/03/29 13:39:14","新北市中和區新生街220巷4號","121.48301","24.9985783333333","6500300","中和區"
"235001","293-VK","2018/03/29 13:39:22","新北市中和區復興路268號","121.5029","24.9904066666667","6500300","中和區"
"235036","301-VK","2018/03/29 13:39:16","新北市中和區中山路二段193號","121.499971666667","25.002715","6500300","中和區"
"235007","352-BY","2018/03/29 13:39:25","新北市中和區景平路197號","121.511263333333","24.9926133333333","6500300","中和區"
"235032","377-QA","2018/03/29 13:39:22","新北市中和區中正路211巷27號","121.4978","24.992735","6500300","中和區"
"235025","378-QA","2018/03/29 13:39:21","新北市中和區民享街30巷2號","121.473771666667","25.0035583333333","6500300","中和區"
"235035","269-TV","2018/03/29 13:39:25","新北市中和區光環路二段309號","121.48722","25.0137583333333","6500300","中和區"
"235014","4979-A6","2018/03/29 13:39:27","新北市中和區景新街496巷26號","121.513416666667","24.985845","6500300","中和區"
"235033","4980-A6","2018/03/29 13:39:26","新北市中和區連城路99巷32號","121.496923333333","24.9990216666667","6500300","中和區"
"235006","551-UM","2018/03/29 13:39:25","新北市中和區成功路97巷5弄17號","121.52654","24.992195","6500300","中和區"
"235034","558-UM","2018/03/29 13:39:11","新北市中和區南華路52號","121.504293333333","24.9968016666667","6500300","中和區"
"235009","565-BX","2018/03/29 13:39:22","新北市中和區南山路236巷55號","121.50464","24.9882016666667","6500300","中和區"
"235018","640-BX","2018/03/29 13:39:22","新北市中和區民享街32巷13號","121.472998333333","25.003165","6500300","中和區"
"235024","647-TV","2018/03/29 13:39:25","新北市中和區中山路二段608號","121.481713333333","25.0054","6500300","中和區"
"235011","732-UM","2018/03/29 13:39:22","新北市中和區興南路二段3巷1號","121.508073333333","24.9864466666667","6500300","中和區"
"235026","800-TS","2018/03/29 13:39:17","新北市中和區中山路二段312巷23號","121.495723333333","25.0033333333333","6500300","中和區"
"235021","801-TS","2018/03/29 13:39:29","新北市中和區員山路327巷82號","121.479503333333","25.0022566666667","6500300","中和區"
"235005","802-TS","2018/03/29 13:39:10","新北市中和區中和路400巷27號","121.511856666667","25.0020733333333","6500300","中和區"
"235016","805-TS","2018/03/29 13:39:19","新北市中和區興南路三段52巷6-1號","121.49356","24.9762833333333","6500300","中和區"
"235012","896-TW","2018/03/29 13:39:24","新北市中和區中正路81號","121.500743333333","24.99346","6500300","中和區"
"235017","900-TW","2018/03/29 13:39:17","新北市中和區華福街79號","121.46738","24.9965233333333","6500300","中和區"
"235015","157-BY","2018/03/29 13:39:23","新北市中和區興南路二段114巷10弄1號","121.50396","24.9849916666667","6500300","中和區"
"235001","AAC-213","2018/03/29 13:39:29","新北市中和區景德街60號","121.517283333333","24.9915583333333","6500300","中和區"
"235023","AAC-215","2018/03/29 13:39:27","新北市中和區中正路501號","121.488738333333","24.99359","6500300","中和區"
"220013","072-UY","2018/03/29 13:39:16","新北市板橋區漢生東路282號","121.471221666667","25.0090016666667","6500100","板橋區"
"220034","073-UY","2018/03/29 13:39:18","新北市板橋區南雅西路二段192巷1弄31號","121.452423333333","25.0154","6500100","板橋區"
"220017","AAD-861","2018/03/29 13:39:14","新北市板橋區華東街1-10號","121.448341666667","24.9951233333333","6500100","板橋區"
"247005","336-TH","2018/03/29 13:39:27","新北市五股區工商路8號","121.440746666667","25.0827966666667","6501400","蘆洲區"
"247019","001-UY","2018/03/29 13:39:31","新北市五股區凌雲路一段25號","121.45229","25.0998716666667","6501400","蘆洲區"
"235003","251-BX","2018/03/29 13:39:20","新北市中和區大勇街25巷15弄21-3號","121.515155","24.993555","6500300","中和區"
"228005","097-TW","2018/03/29 13:39:21","新北市貢寮區美豐里文秀坑8號","121.902456666667","25.050335","6502600","貢寮區"
"228004","212-TW","2018/03/29 13:38:32","新北市貢寮區龍崗里石壁坑街24-1號","121.912871666667","24.999065","6502600","貢寮區"
"253003","6232-TK","2018/03/29 13:39:12","新北市石門區中山路62-20號","121.569553333333","25.28567","6502200","石門區"
"253001","6251-TK","2018/03/29 13:39:19","新北市石門區白沙灣別墅36號","121.509696666667","25.2790916666667","6502200","石門區"
"253002","637-UY","2018/03/29 13:39:19","新北市石門區九芎林35號","121.566513333333","25.2557716666667","6502200","石門區"
"253004","8270-PC","2018/03/29 13:39:24","新北市石門區竹子湖11號","121.617346666667","25.2576533333333","6502200","石門區"
"207002","749-BX","2018/03/29 13:39:27","新北市萬里區崁腳里崁腳路166號","121.645136666667","25.1558616666667","6502800","萬里區"
"252005","073-UM","2018/03/29 13:39:11","新北市三芝區圓山里木屐寮40號","121.532483333333","25.2233833333333","6502100","三芝區"
"207001","662-BX","2018/03/29 13:39:29","新北市萬里區磺潭里公館崙18-1號","121.63824","25.2139833333333","6502800","萬里區"
"236068","105-UM","2018/03/29 13:39:12","新北市土城區亞洲路32巷23號","121.434765","24.9751133333333","6501300","土城區"
"236074","166-UM","2018/03/29 13:39:20","新北市土城區亞洲路46巷22號","121.434685","24.9750316666667","6501300","土城區"
"236029","253-BX","2018/03/29 13:39:23","新北市土城區亞洲路58巷5弄10號","121.433645","24.974265","6501300","土城區"
"236024","269-VK","2018/03/29 13:39:16","新北市土城區亞洲路58巷5弄2號","121.433856666667","24.97435","6501300","土城區"
"236012","270-VK","2018/03/29 13:39:12","新北市土城區亞洲路46巷22號","121.434558333333","24.9748616666667","6501300","土城區"
"236017","401-BY","2018/03/29 13:39:25","新北市土城區亞洲路58巷5弄8號","121.433626666667","24.9743266666667","6501300","土城區"
"236005","498-BY","2018/03/29 13:39:17","新北市土城區中華路二段90號","121.438376666667","24.97496","6501300","土城區"
"236057","912-UM","2018/03/29 13:39:29","新北市土城區亞洲路58巷5弄2號","121.433626666667","24.9746583333333","6501300","土城區"
"236060","915-UM","2018/03/29 13:39:12","新北市土城區亞洲路46巷22號","121.434626666667","24.9750633333333","6501300","土城區"
"242047","172-VK","2018/03/29 13:39:26","新北市新莊區昌平街3號","121.454666666667","25.051535","6500500","新莊區"
"221032","280-BY","2018/03/29 13:39:20","新北市汐止區秀峰路57號","121.659611666667","25.0652533333333","6501100","汐止區"
"220027","145-BY","2018/03/29 13:39:16","新北市板橋區大仁街16號","121.455815","25.0169966666667","6500100","板橋區"
"220030","610-BX","2018/03/29 13:39:18","新北市板橋區大觀路二段443-2號","121.439675","24.995165","6500100","板橋區"
"220004","276-BY","2018/03/29 13:39:23","新北市板橋區四川路二段140巷14號","121.44944","24.993265","6500100","板橋區"
"220020","277-BY","2018/03/29 13:39:17","新北市板橋區四川路二段橋頭6號","121.448041666667","24.9938016666667","6500100","板橋區"
"220019","283-VK","2018/03/29 13:39:26","新北市板橋區四川路二段140巷20號","121.449083333333","24.9934516666667","6500100","板橋區"
"220043","285-UM","2018/03/29 13:39:21","新北市板橋區民生路二段161巷3號","121.470091666667","25.0197483333333","6500100","板橋區"
"220031","286-VK","2018/03/29 13:39:30","新北市板橋區大觀路二段163巷23號","121.446778333333","25.0000783333333","6500100","板橋區"
"220029","287-VK","2018/03/29 13:39:31","新北市板橋區大觀路二段153巷53號","121.447205","25.001085","6500100","板橋區"
"220009","293-UM","2018/03/29 13:39:15","新北市板橋區民生路二段161巷7號","121.470275","25.019705","6500100","板橋區"
"220032","296-UM","2018/03/29 13:39:27","新北市板橋區大觀路二段153巷44弄53號","121.44603","24.9990216666667","6500100","板橋區"
"220023","303-R5","2018/03/29 13:39:25","新北市板橋區華東街260號","121.452613333333","25.001615","6500100","板橋區"
"220010","305-R5","2018/03/29 13:39:22","新北市板橋區民生路二段120號","121.470465","25.0195883333333","6500100","板橋區"
"220028","461-BY","2018/03/29 13:39:28","新北市板橋區大觀路二段265巷76弄37號","121.44111","24.9967683333333","6500100","板橋區"
"220012","486-VK","2018/03/29 13:39:27","新北市板橋區南雅南路二段4巷2號","121.454463333333","25.0038066666667","6500100","板橋區"
"220104","560-BX","2018/03/29 13:39:23","新北市板橋區南雅西路二段177號","121.451876666667","25.01258","6500100","板橋區"
"220003","568-UM","2018/03/29 13:39:15","新北市板橋區華東街1-10號","121.448238333333","24.9949666666667","6500100","板橋區"
"220003","630-UY","2018/03/29 13:39:08","新北市板橋區華東街1-10號","121.448773333333","24.9947683333333","6500100","板橋區"
"220005","686-BX","2018/03/29 13:39:17","新北市板橋區華東街1-9號","121.448235","24.9949233333333","6500100","板橋區"
"220025","687-BX","2018/03/29 13:39:12","新北市板橋區存德街38號","121.43039","24.9916066666667","6500100","板橋區"
"220022","895-R6","2018/03/29 13:39:24","新北市板橋區南雅南路一段121號","121.455156666667","25.004645","6500100","板橋區"
"220021","985-R7","2018/03/29 13:39:19","新北市板橋區四川路二段130巷37號","121.449505","24.9945883333333","6500100","板橋區"
