"lineid","car","time","location","longitude","latitude","cityid","cityname"
"234028","746-BX","2018/03/29 14:49:31","新北市板橋區溪頭街352號","121.467436666667","25.0350233333333","6500400","永和區"
"234025","9371-KE","2018/03/29 14:49:43","新北市永和區雙和街25巷5號","121.508995","25.00193","6500400","永和區"
"248013","025-BX","2018/03/29 14:49:33","新北市五股區五福路14巷27號","121.435373333333","25.0889616666667","6501500","五股區"
"248015","026-BX","2018/03/29 14:49:30","新北市五股區成泰路三段577巷80弄54號","121.449666666667","25.1049883333333","6501500","五股區"
"248007","095-VK","2018/03/29 14:49:44","新北市蘆洲區中山二路300巷1號","121.468466666667","25.0766366666667","6501500","五股區"
"248017","225-UY","2018/03/29 14:30:12","新北市五股區外寮路9-25號","121.415911666667","25.0791166666667","6501500","五股區"
"248011","247-BX","2018/03/29 14:49:40","新北市五股區六合街108號","121.430768333333","25.0909516666667","6501500","五股區"
"248009","272-BY","2018/03/29 14:49:35","新北市五股區成泰路一段105號","121.435791666667","25.07128","6501500","五股區"
"248003","677-BX","2018/03/29 14:49:28","新北市五股區成泰路一段187號","121.435045","25.0763633333333","6501500","五股區"
"248001","678-BX","2018/03/29 14:49:30","新北市五股區成泰路三段71號","121.443466666667","25.0898083333333","6501500","五股區"
"244003","248-BX","2018/03/29 14:49:41","新北市林口區中華路283號","121.383408333333","25.0911416666667","6501700","林口區"
"243004","AAD-798","2018/03/29 14:49:31","新北市泰山區楓江路113號","121.438573333333","25.0641083333333","6501600","泰山區"
"243003","297-R6","2018/03/29 14:49:33","新北市泰山區明志路三段196巷54號","121.421453333333","25.0401916666667","6501600","泰山區"
"243007","380-SR","2018/03/29 14:49:34","新北市泰山區明志路二段34號","121.429468333333","25.053335","6501600","泰山區"
"243006","421-VK","2018/03/29 14:49:27","新北市泰山區明志路一段24號","121.433553333333","25.0655183333333","6501600","泰山區"
"243002","KEA-2215","2018/03/29 14:49:35","新北市泰山區明志路二段254號","121.426943333333","25.0477183333333","6501600","泰山區"
"243001","KEA-2216","2018/03/29 14:49:25","新北市泰山區泰林路二段118號","121.434676666667","25.05939","6501600","泰山區"
"243005","646-TV","2018/03/29 14:49:34","新北市泰山區明志路三段70號","121.424728333333","25.04189","6501600","泰山區"
"243008","680-BX","2018/03/29 14:49:33","新北市泰山區中山路二段841號","121.425515","25.0353716666667","6501600","泰山區"
"231002","002-UM","2018/03/29 14:49:28","新北市新店區中正路504號","121.533788333333","24.982635","6500600","新店區"
"231025","0293-UT","2018/03/29 14:49:26","新北市新店區民族路99號","121.538503333333","24.977645","6500600","新店區"
"231028","046-UY","2018/03/29 14:49:31","新北市新店區安德街171號","121.508625","24.9590866666667","6500600","新店區"
"231030","047-UY","2018/03/29 14:49:36","新北市新店區安民街378號","121.51643","24.9764","6500600","新店區"
"231029","106-UY","2018/03/29 14:49:29","新北市新店區錦秀路11巷92弄1號","121.48031","24.9427833333333","6500600","新店區"
"231018","107-UY","2018/03/29 14:49:25","新北市新店區中央六街9號","121.530151666667","24.9746333333333","6500600","新店區"
"231021","187-VK","2018/03/29 14:49:19","新北市新店區永興路135號","121.544151666667","24.9302216666667","6500600","新店區"
"231017","KEA-2219","2018/03/29 14:49:32","新北市新店區北宜路三段62號","121.57435","24.9511666666667","6500600","新店區"
"231026","256-BX","2018/03/29 14:49:42","新北市新店區安康路一段35-5號","121.531968333333","24.96067","6500600","新店區"
"231023","AAD-862","2018/03/29 14:49:34","新北市新店區檳榔路109號","121.544363333333","24.96193","6500600","新店區"
"231005","355-BY","2018/03/29 14:49:39","新北市新店區復興路40-1號","121.53874","24.9869366666667","6500600","新店區"
"231027","3712-VJ","2018/03/29 14:49:38","新北市新店區安興路105號","121.514973333333","24.9779566666667","6500600","新店區"
"231024","4716-K9","2018/03/29 14:49:30","新北市新店區北新路一段231號","121.540628333333","24.9656116666667","6500600","新店區"
"231036","512-UM","2018/03/29 14:49:39","新北市新店區安祥路104巷6弄36號","121.483095","24.9629933333333","6500600","新店區"
"231035","513-UM","2018/03/29 14:49:29","新北市新店區安利街26號","121.519211666667","24.974625","6500600","新店區"
"231001","619-UM","2018/03/29 14:49:40","新北市新店區三民路80號","121.534685","24.9724616666667","6500600","新店區"
"231003","641-BX","2018/03/29 14:49:39","新北市新店區中興路二段121巷1號","121.547436666667","24.9720516666667","6500600","新店區"
"231034","645-TV","2018/03/29 14:49:41","新北市新店區玫瑰路4-1號","121.49333","24.9515166666667","6500600","新店區"
"231039","718-UY","2018/03/29 14:49:28","新北市新店區安康路一段355號","121.519878333333","24.96382","6500600","新店區"
"231011","719-UY","2018/03/29 14:49:40","新北市新店區寶橋路215號","121.548705","24.977205","6500600","新店區"
"231006","898-TW","2018/03/29 14:49:38","新北市新店區北宜路一段115巷1號","121.54019","24.9541966666667","6500600","新店區"
"231004","899-TW","2018/03/29 14:49:31","新北市新店區民族路103號","121.538426666667","24.9776633333333","6500600","新店區"
"231037","AKT-0513","2018/03/29 14:49:40","新北市新店區柴埕路52巷1-1號","121.511251666667","24.9642383333333","6500600","新店區"
"235030","003-UY","2018/03/29 14:49:44","新北市中和區景新街73巷3號","121.505303333333","24.998845","6500300","中和區"
"235020","096-UM","2018/03/29 14:49:33","新北市中和區民富街94號","121.476863333333","25.0084633333333","6500300","中和區"
"235029","098-UM","2018/03/29 14:49:33","新北市中和區福美路230號","121.499185","25.0052816666667","6500300","中和區"
"235022","151-BY","2018/03/29 14:49:27","新北市中和區員山路150-11號","121.481268333333","24.9976383333333","6500300","中和區"
"235019","183-VK","2018/03/29 14:49:41","新北市中和區德光路72號","121.469258333333","25.00376","6500300","中和區"
"235002","185-VK","2018/03/29 14:49:34","新北市中和區立人街69巷2號","121.519911666667","24.9939216666667","6500300","中和區"
"235013","186-VK","2018/03/29 14:49:36","新北市中和區中興街53號","121.50067","24.9939133333333","6500300","中和區"
"235031","255-BX","2018/03/29 14:49:36","新北市中和區員山路148巷23弄30號","121.48233","24.9978983333333","6500300","中和區"
"235008","293-VK","2018/03/29 14:49:42","新北市中和區中正路1號","121.50343","24.993265","6500300","中和區"
"235007","352-BY","2018/03/29 14:49:45","新北市中和區景平路336號","121.511806666667","24.992815","6500300","中和區"
"235032","377-QA","2018/03/29 14:49:42","新北市中和區福祥路96號","121.499123333333","25.005915","6500300","中和區"
"235035","269-TV","2018/03/29 14:49:29","新北市中和區建一路243號","121.487988333333","24.99707","6500300","中和區"
"235014","4979-A6","2018/03/29 14:49:27","新北市中和區景平路241巷84弄54號","121.506115","24.992425","6500300","中和區"
"235006","551-UM","2018/03/29 14:49:25","新北市中和區保健路29巷2號","121.508973333333","24.9981516666667","6500300","中和區"
"235034","558-UM","2018/03/29 14:49:31","新北市中和區連勝街36號","121.498093333333","24.9976416666667","6500300","中和區"
"235018","640-BX","2018/03/29 14:49:21","新北市中和區莒光路207-7號","121.470605","24.9967533333333","6500300","中和區"
"235024","647-TV","2018/03/29 14:49:25","新北市中和區員山路457號","121.4805","25.0043483333333","6500300","中和區"
"235011","732-UM","2018/03/29 14:49:22","新北市中和區和平街90號","121.507443333333","24.9912816666667","6500300","中和區"
"235010","733-UM","2018/03/29 14:49:37","新北市中和區仁愛街57號","121.511291666667","24.987865","6500300","中和區"
"235026","800-TS","2018/03/29 14:49:37","新北市中和區中山路二段480號","121.487648333333","25.0048083333333","6500300","中和區"
"235021","801-TS","2018/03/29 14:49:29","新北市中和區民樂路81號","121.484941666667","25.0015633333333","6500300","中和區"
"235016","805-TS","2018/03/29 14:49:39","新北市中和區華新街144巷8號","121.507753333333","24.9829383333333","6500300","中和區"
"235012","896-TW","2018/03/29 14:49:44","新北市中和區四維街37巷2號","121.512448333333","24.9868783333333","6500300","中和區"
"235017","900-TW","2018/03/29 14:49:36","新北市中和區國光街215巷4弄2號","121.46636","25.0018733333333","6500300","中和區"
"235015","157-BY","2018/03/29 14:49:42","新北市中和區中興街172巷12弄13號","121.49941","24.9908433333333","6500300","中和區"
"235001","AAC-213","2018/03/29 14:49:35","新北市中和區自立路191號","121.524131666667","24.991375","6500300","中和區"
"235023","AAC-215","2018/03/29 14:49:27","新北市中和區圓通路305巷5弄31號","121.494441666667","24.9903866666667","6500300","中和區"
"220013","072-UY","2018/03/29 14:49:36","新北市板橋區民族路278號","121.469928333333","25.0069683333333","6500100","板橋區"
"220034","073-UY","2018/03/29 14:49:38","新北市新莊區中平路377巷28號","121.442393333333","25.0533133333333","6500100","板橋區"
"220017","AAD-861","2018/03/29 14:49:33","新北市板橋區貴興路117號","121.45563","25.002325","6500100","板橋區"
"247023","893-R6","2018/03/29 14:49:45","新北市蘆洲區和平路100號","121.468451666667","25.0792783333333","6501400","蘆洲區"
"247013","546-UM","2018/03/29 14:49:38","新北市蘆洲區得勝街68號","121.47245","25.083525","6501400","蘆洲區"
"247021","500-BY","2018/03/29 14:49:37","新北市蘆洲區仁愛街212巷36號","121.464258333333","25.09435","6501400","蘆洲區"
"247001","335-TH","2018/03/29 14:49:29","新北市蘆洲區長安街264號","121.457473333333","25.0866666666667","6501400","蘆洲區"
"247007","056-VK","2018/03/29 14:49:30","新北市蘆洲區中山一路103巷20號","121.47581","25.08122","6501400","蘆洲區"
"247015","007-UY","2018/03/29 14:49:31","新北市蘆洲區和平路178號","121.466333333333","25.081415","6501400","蘆洲區"
"247019","001-UY","2018/03/29 14:49:31","新北市蘆洲區民義街71巷6號","121.472943333333","25.090375","6501400","蘆洲區"
"235003","251-BX","2018/03/29 14:49:40","新北市中和區安平路202號","121.513333333333","24.999575","6500300","中和區"
"228005","097-TW","2018/03/29 14:49:41","新北市貢寮區美豐里丹裡街65號","121.909346666667","25.05897","6502600","貢寮區"
"228004","212-TW","2018/03/29 14:49:32","新北市貢寮區福隆里裕隆街2號","121.94648","25.01564","6502600","貢寮區"
"253003","6232-TK","2018/03/29 14:49:32","新北市石門區尖子鹿101-2號","121.582058333333","25.2928366666667","6502200","石門區"
"253001","6251-TK","2018/03/29 14:49:39","新北市石門區崁子腳28-3號","121.537175","25.2889716666667","6502200","石門區"
"253002","637-UY","2018/03/29 14:49:39","新北市石門區海園路37號","121.555803333333","25.2914083333333","6502200","石門區"
"253004","8270-PC","2018/03/29 14:49:35","新北市石門區內阿里磅46號","121.580435","25.2414066666667","6502200","石門區"
"207002","749-BX","2018/03/29 14:49:27","新北市萬里區崁腳里崁腳路73號","121.647611666667","25.1596716666667","6502800","萬里區"
"252005","073-UM","2018/03/29 14:49:31","新北市三芝區埔坪里埔頭坑88號","121.507565","25.2541916666667","6502100","三芝區"
"207001","662-BX","2018/03/29 14:49:32","新北市萬里區雙興里豐稟路9號","121.646188333333","25.180135","6502800","萬里區"
"236068","105-UM","2018/03/29 14:49:32","新北市土城區金城路二段239號","121.455721666667","24.9825133333333","6501300","土城區"
"236040","107-UM","2018/03/29 14:49:28","新北市土城區裕民路114巷13號","121.450518333333","24.985975","6501300","土城區"
"236074","166-UM","2018/03/29 14:49:41","新北市土城區中央路四段165巷23號","121.416161666667","24.955895","6501300","土城區"
"236029","253-BX","2018/03/29 14:49:23","新北市土城區忠義路26巷22號","121.439655","24.969805","6501300","土城區"
"236024","269-VK","2018/03/29 14:49:36","新北市土城區慶安街80號","121.440676666667","24.97278","6501300","土城區"
"236012","270-VK","2018/03/29 14:49:32","新北市土城區金城路二段354巷10號","121.460906666667","24.984485","6501300","土城區"
"236032","271-VK","2018/03/29 14:49:26","新北市土城區明德路一段146號","121.463271666667","24.9787833333333","6501300","土城區"
"236017","401-BY","2018/03/29 14:49:45","新北市土城區延安街11號","121.467473333333","24.985875","6501300","土城區"
"236057","912-UM","2018/03/29 14:49:29","新北市土城區中央路三段151號","121.43217","24.9653683333333","6501300","土城區"
"236045","913-UM","2018/03/29 14:49:25","新北市土城區青雲路35號","121.460023333333","24.9886516666667","6501300","土城區"
"236060","915-UM","2018/03/29 14:49:32","新北市土城區延和路236-1號","121.469468333333","24.990115","6501300","土城區"
"236054","AAC-216","2018/03/29 14:49:42","新北市土城區裕民路235號","121.454293333333","24.983375","6501300","土城區"
"242001","233-RS","2018/03/29 14:49:11","新北市樹林區中山路三段214號","121.379866666667","24.9677083333333","6500500","新莊區"
"238012","303-VK","2018/03/29 14:49:34","新北市樹林區育德街78號","121.387641666667","24.9684166666667","6500700","樹林區"
"238007","268-VK","2018/03/29 14:49:23","新北市樹林區中山路三段204號","121.386788333333","24.9682766666667","6500700","樹林區"
"238013","172-UY","2018/03/29 14:49:38","新北市樹林區育德街78號","121.387585","24.9684283333333","6500700","樹林區"
"221032","280-BY","2018/03/29 14:49:40","新北市汐止區橫科路407巷30弄28號","121.627386666667","25.0485566666667","6501100","汐止區"
"221002","707-TV","2018/03/29 14:49:31","新北市汐止區新台五路一段149號","121.653415","25.0622583333333","6501100","汐止區"
"220027","145-BY","2018/03/29 14:49:36","新北市板橋區建國街53號","121.458721666667","25.0172566666667","6500100","板橋區"
"220105","KEA-2550","2018/03/29 14:49:41","新北市板橋區民治街57巷32-1號","121.480183333333","25.0341666666667","6500100","板橋區"
"220030","610-BX","2018/03/29 14:49:38","新北市板橋區大觀路三段160巷40號","121.42992","24.9942333333333","6500100","板橋區"
"220050","245-BX","2018/03/29 14:49:34","新北市板橋區莊敬路263巷26號","121.473011666667","25.0218683333333","6500100","板橋區"
"220004","276-BY","2018/03/29 14:49:23","新北市板橋區四川路二段99巷4弄7號","121.452956666667","24.9941516666667","6500100","板橋區"
"220020","277-BY","2018/03/29 14:49:43","新北市板橋區金門街215巷2弄52號","121.433056666667","24.9885233333333","6500100","板橋區"
"220019","283-VK","2018/03/29 14:49:26","新北市板橋區五權街32巷3號","121.46477","24.993145","6500100","板橋區"
"220043","285-UM","2018/03/29 14:49:41","新北市板橋區長江路一段109號","121.459706666667","25.0297066666667","6500100","板橋區"
"220001","285-VK","2018/03/29 14:49:35","新北市板橋區中山路二段60巷17號","121.474428333333","25.0150016666667","6500100","板橋區"
"220031","286-VK","2018/03/29 14:49:30","新北市板橋區僑中二街88巷34號","121.444656666667","25.0096866666667","6500100","板橋區"
"220029","287-VK","2018/03/29 14:49:31","新北市板橋區大觀路一段28巷91-2號","121.450118333333","25.0116266666667","6500100","板橋區"
"220039","288-VK","2018/03/29 14:49:30","新北市板橋區綠堤街25號","121.455936666667","25.0264483333333","6500100","板橋區"
"220009","293-UM","2018/03/29 14:49:34","新北市板橋區觀光街90號","121.469428333333","25.01696","6500100","板橋區"
"220032","296-UM","2018/03/29 14:49:27","新北市樹林區水源街213號","121.424228333333","24.9871116666667","6500100","板橋區"
"220023","303-R5","2018/03/29 14:49:41","新北市板橋區中正路229號","121.455988333333","25.0178566666667","6500100","板橋區"
"220010","305-R5","2018/03/29 14:49:41","新北市板橋區中山路二段416巷38弄27-1號","121.481961666667","25.019405","6500100","板橋區"
"220041","307-R5","2018/03/29 14:49:37","新北市板橋區四維路259巷46號","121.461291666667","25.0271183333333","6500100","板橋區"
"220047","317-R6","2018/03/29 14:49:34","新北市板橋區新海路385巷12號","121.458543333333","25.02581","6500100","板橋區"
"220028","461-BY","2018/03/29 14:49:33","新北市板橋區大觀路二段153巷19號","121.446465","25.0004833333333","6500100","板橋區"
"220012","486-VK","2018/03/29 14:49:27","新北市板橋區公園街54號","121.462043333333","25.0079283333333","6500100","板橋區"
"220037","491-VK","2018/03/29 14:49:28","新北市板橋區民治街1號","121.477136666667","25.0345316666667","6500100","板橋區"
"220104","560-BX","2018/03/29 14:49:43","新北市板橋區新生街53巷1弄10號","121.456975","25.0215483333333","6500100","板橋區"
"220052","561-BX","2018/03/29 14:49:32","新北市板橋區陽明街27巷12號","121.465495","25.0212516666667","6500100","板橋區"
"220003","568-UM","2018/03/29 14:49:35","新北市板橋區國慶路149巷31號","121.460896666667","24.9978","6500100","板橋區"
"220011","609-BX","2018/03/29 14:49:29","新北市板橋區三民路一段31巷11號","121.479753333333","25.0232383333333","6500100","板橋區"
"220003","630-UY","2018/03/29 14:49:29","新北市板橋區國光路15號","121.456773333333","25.017515","6500100","板橋區"
"220040","637-BX","2018/03/29 14:49:38","新北市板橋區懷德街127巷5號","121.479036666667","25.030955","6500100","板橋區"
"220005","686-BX","2018/03/29 14:49:37","新北市板橋區廣和街81號","121.462786666667","24.99205","6500100","板橋區"
"220025","687-BX","2018/03/29 14:49:32","新北市板橋區僑中三街7號","121.446545","25.00425","6500100","板橋區"
"220042","689-BX","2018/03/29 14:49:32","新北市板橋區新海路452號","121.457821666667","25.0279233333333","6500100","板橋區"
"220002","741-BX","2018/03/29 14:49:37","新北市板橋區實踐路93巷41號","121.46587","25.00515","6500100","板橋區"
"220051","KEA-2699","2018/03/29 14:49:37","新北市板橋區松柏街35號","121.475195","25.0303333333333","6500100","板橋區"
"220014","829-TW","2018/03/29 14:49:38","新北市板橋區長安街138巷1弄51號","121.474131666667","25.0104066666667","6500100","板橋區"
"220016","830-TW","2018/03/29 14:49:31","新北市板橋區光復街202巷6-1號","121.485926666667","25.0202766666667","6500100","板橋區"
"220045","831-TW","2018/03/29 14:49:38","新北市板橋區文化路二段124巷34弄16號","121.470753333333","25.0255183333333","6500100","板橋區"
"220038","833-TW","2018/03/29 14:49:34","新北市板橋區英士路192-1號","121.458306666667","25.0236316666667","6500100","板橋區"
"220022","895-R6","2018/03/29 14:49:24","新北市板橋區府中路27號","121.45904","25.00869","6500100","板橋區"
"220021","985-R7","2018/03/29 14:49:40","新北市板橋區大仁街117號","121.452261666667","25.015565","6500100","板橋區"
"220046","AAC-210","2018/03/29 14:49:39","新北市板橋區文化路一段285巷26號","121.463835","25.0194533333333","6500100","板橋區"
"220018","AAC-253","2018/03/29 14:49:44","新北市板橋區民族路288號","121.47027","25.0068683333333","6500100","板橋區"
