"lineid","car","time","location","longitude","latitude","cityid","cityname"
"234007","207-UY","2018/03/29 18:29:55","新北市永和區環河西路二段217巷1號","121.50148","25.0100616666667","6500400","永和區"
"234081","298-R6","2018/03/29 18:29:36","新北市永和區福和路1號","121.52636","25.0098516666667","6500400","永和區"
"234013","KEA-2591","2018/03/29 18:29:46","新北市永和區竹林路75巷4弄34號","121.521846666667","25.014145","6500400","永和區"
"234042","862-TW","2018/03/29 18:29:33","新北市永和區福和路1號","121.526193333333","25.009925","6500400","永和區"
"234026","9371-KE","2018/03/29 18:29:52","新北市永和區中正路623號","121.515916666667","25.0099416666667","6500400","永和區"
"249005","172-UM","2018/03/29 18:29:46","新北市八里區中華路三段98-1號","121.392576666667","25.1370533333333","6502300","八里區"
"249001","173-UM","2018/03/29 18:29:40","新北市八里區龍米路一段120號","121.453161666667","25.125255","6502300","八里區"
"249004","303-UY","2018/03/29 18:29:50","新北市八里區觀海大道39號","121.429515","25.16126","6502300","八里區"
"249002","305-UY","2018/03/29 18:29:47","新北市八里區龍形三街26號","121.447975","25.1316233333333","6502300","八里區"
"248014","025-BX","2018/03/29 18:29:48","新北市五股區成泰路一段105號","121.435643333333","25.0712866666667","6501500","五股區"
"248016","026-BX","2018/03/29 18:29:48","新北市五股區凌雲路一段83巷13弄2號","121.449266666667","25.1009933333333","6501500","五股區"
"248008","095-VK","2018/03/29 18:29:34","新北市五股區四維路185巷46號","121.463358333333","25.0774766666667","6501500","五股區"
"248020","225-UY","2018/03/29 18:29:42","新北市五股區孝義路59號","121.451205","25.1137066666667","6501500","五股區"
"248012","247-BX","2018/03/29 18:29:40","新北市五股區御史路52巷2號","121.442048333333","25.093505","6501500","五股區"
"248010","272-BY","2018/03/29 18:29:48","新北市五股區明德路12巷24號","121.43302","25.072205","6501500","五股區"
"248004","677-BX","2018/03/29 18:29:36","新北市五股區工商路150號","121.433121666667","25.087405","6501500","五股區"
"248002","678-BX","2018/03/29 18:29:37","新北市五股區西雲路167-1號","121.446828333333","25.094815","6501500","五股區"
"232011","375-UM","2018/03/29 18:18:17","新北市坪林區坪雙路一段31號","121.71167","24.94244","6502000","坪林區"
"244013","069-UM","2018/03/29 18:29:46","新北市林口區中山路250-1號","121.385726666667","25.07953","6501700","林口區"
"244007","080-UY","2018/03/29 18:29:45","新北市林口區中湖55-1號","121.385098333333","25.1005683333333","6501700","林口區"
"244025","742-UY","2018/03/29 18:29:48","新北市林口區南勢四街326號","121.357373333333","25.076095","6501700","林口區"
"244023","483-VK","2018/03/29 18:29:47","新北市林口區文化一路二段84號","121.381463333333","25.0784066666667","6501700","林口區"
"244017","485-VK","2018/03/29 18:29:47","新北市林口區八德路62號","121.365718333333","25.0656516666667","6501700","林口區"
"244009","656-BX","2018/03/29 18:29:40","新北市林口區文林一街20號","121.37694","25.0859283333333","6501700","林口區"
"244019","657-BX","2018/03/29 18:29:46","新北市林口區忠孝路594巷1號","121.375886666667","25.068125","6501700","林口區"
"244011","701-TV","2018/03/29 18:29:43","新北市林口區林口路29號","121.39099","25.0784366666667","6501700","林口區"
"244021","838-TS","2018/03/29 18:29:48","新北市林口區自強六街12號","121.399735","25.0765983333333","6501700","林口區"
"243012","AAD-798","2018/03/29 18:29:34","新北市泰山區忠孝街17巷2號","121.427565","25.0653816666667","6501600","泰山區"
"243013","646-TV","2018/03/29 18:28:42","新北市泰山區明志路三段206巷3號","121.423245","25.0379533333333","6501600","泰山區"
"222003","436-BY","2018/03/29 18:29:55","新北市深坑區文山路一段27號","121.631243333333","25.00582","6501800","深坑區"
"222002","659-BX","2018/03/29 18:29:46","新北市深坑區雲鄉路143號","121.62213","24.9981183333333","6501800","深坑區"
"231041","002-UM","2018/03/29 18:29:46","新北市新店區安華路28-1號","121.519611666667","24.9608633333333","6500600","新店區"
"231059","046-UY","2018/03/29 18:29:45","新北市新店區安華路28-1號","121.519505","24.9607566666667","6500600","新店區"
"231061","047-UY","2018/03/29 18:29:52","新北市新店區安華路28-1號","121.518963333333","24.9609316666667","6500600","新店區"
"231060","106-UY","2018/03/29 18:29:52","新北市新店區安華路28-1號","121.519626666667","24.9608533333333","6500600","新店區"
"231051","107-UY","2018/03/29 18:29:54","新北市新店區安華路28-1號","121.519425","24.9610266666667","6500600","新店區"
"231052","187-VK","2018/03/29 18:29:47","新北市新店區新烏路一段12號","121.546888333333","24.9515083333333","6500600","新店區"
"231050","KEA-2219","2018/03/29 18:29:38","新北市新店區安華路28-1號","121.519676666667","24.96131","6500600","新店區"
"231057","256-BX","2018/03/29 18:29:45","新北市新店區北宜路一段108號","121.539086666667","24.9553066666667","6500600","新店區"
"231046","278-BY","2018/03/29 18:29:40","新北市新店區直潭十街20號","121.533428333333","24.9387666666667","6500600","新店區"
"231054","AAD-862","2018/03/29 18:29:34","新北市新店區安華路28-1號","121.519761666667","24.9611416666667","6500600","新店區"
"231044","355-BY","2018/03/29 18:29:49","新北市新店區安華路28-1號","121.519285","24.9608566666667","6500600","新店區"
"231058","3712-VJ","2018/03/29 18:29:36","新北市新店區新店後街118號","121.537725","24.9555183333333","6500600","新店區"
"231056","3713-VJ","2018/03/29 18:29:38","新北市新店區二十張路142-1號","121.53505","24.9788383333333","6500600","新店區"
"231055","4716-K9","2018/03/29 18:29:51","新北市新店區中正路128巷10號","121.542415","24.9718","6500600","新店區"
"231067","4772-VM","2018/03/29 18:29:50","新北市新店區安華路28-1號","121.519336666667","24.9607083333333","6500600","新店區"
"231065","512-UM","2018/03/29 18:29:37","新北市新店區安華路28-1號","121.519398333333","24.96087","6500600","新店區"
"231064","513-UM","2018/03/29 18:29:50","新北市新店區安華路28-1號","121.519583333333","24.961115","6500600","新店區"
"231040","619-UM","2018/03/29 18:29:42","新北市新店區安華路28-1號","121.519468333333","24.96072","6500600","新店區"
"231042","641-BX","2018/03/29 18:29:43","新北市新店區安華路28-1號","121.519618333333","24.9605516666667","6500600","新店區"
"231063","645-TV","2018/03/29 18:29:46","新北市新店區安華路28-1號","121.519261666667","24.9606766666667","6500600","新店區"
"231049","719-UM","2018/03/29 18:29:51","新北市新店區安華路28-1號","121.519551666667","24.961285","6500600","新店區"
"231047","719-UY","2018/03/29 18:29:53","新北市新店區安華路28-1號","121.519658333333","24.9610966666667","6500600","新店區"
"231062","720-UM","2018/03/29 18:29:54","新北市新店區安華路28-1號","121.519236666667","24.961285","6500600","新店區"
"231045","898-TW","2018/03/29 18:08:12","新北市新店區安華路28-1號","121.519281666667","24.9608883333333","6500600","新店區"
"231043","899-TW","2018/03/29 18:29:36","新北市新店區安華路28-1號","121.518951666667","24.9609666666667","6500600","新店區"
"231066","AKT-0513","2018/03/29 18:29:46","新北市新店區安華路28-1號","121.519513333333","24.9606116666667","6500600","新店區"
"235030","003-UY","2018/03/29 18:29:44","新北市中和區中山路二段120號","121.502693333333","25.0037883333333","6500300","中和區"
"235064","005-UY","2018/03/29 18:29:49","新北市中和區連城路128號","121.495893333333","24.9990583333333","6500300","中和區"
"235063","006-UY","2018/03/29 18:29:39","新北市中和區連城路347巷16弄29號","121.487478333333","24.995045","6500300","中和區"
"235056","096-UM","2018/03/29 18:29:37","新北市中和區員山路611巷1號","121.477891666667","25.0112133333333","6500300","中和區"
"235065","098-UM","2018/03/29 18:29:53","新北市中和區莊敬路49巷20弄24號","121.502831666667","25.0055966666667","6500300","中和區"
"235040","150-BY","2018/03/29 18:29:45","新北市中和區安平路38號","121.509918333333","24.995015","6500300","中和區"
"235058","151-BY","2018/03/29 18:29:46","新北市中和區圓通路369巷53-4號","121.49083","24.9846033333333","6500300","中和區"
"235055","183-VK","2018/03/29 18:29:44","新北市中和區莒光路80號","121.472316666667","25.0029033333333","6500300","中和區"
"235038","185-VK","2018/03/29 18:29:47","新北市中和區立人街14巷40弄7號","121.519026666667","24.9957966666667","6500300","中和區"
"235049","186-VK","2018/03/29 18:29:35","新北市中和區景安路163號","121.505255","24.9946183333333","6500300","中和區"
"235067","255-BX","2018/03/29 18:29:37","新北市中和區連城路314號","121.483581666667","24.996185","6500300","中和區"
"235072","301-VK","2018/03/29 18:29:51","新北市中和區連城路133-1號","121.495988333333","24.9991","6500300","中和區"
"235043","352-BY","2018/03/29 18:29:36","新北市中和區景平路293-1號","121.507061666667","24.99309","6500300","中和區"
"235068","377-QA","2018/03/29 18:29:53","新北市中和區圓通路319-5號","121.492718333333","24.9907583333333","6500300","中和區"
"235061","378-QA","2018/03/29 18:29:48","新北市中和區民享街91-12號","121.474686666667","25.00077","6500300","中和區"
"235050","4979-A6","2018/03/29 18:29:41","新北市中和區景新街410巷18弄19號","121.511818333333","24.989775","6500300","中和區"
"235069","4980-A6","2018/03/29 18:29:50","新北市中和區連城路127巷23號","121.49696","24.9978683333333","6500300","中和區"
"235042","551-UM","2018/03/29 18:29:49","新北市中和區自立路56巷13號","121.522913333333","24.99168","6500300","中和區"
"235070","558-UM","2018/03/29 18:29:48","新北市中和區南華路46號","121.503941666667","24.9966383333333","6500300","中和區"
"235045","565-BX","2018/03/29 18:29:48","新北市中和區南山路236巷24弄21號","121.5049","24.989005","6500300","中和區"
"235054","640-BX","2018/03/29 18:29:46","新北市中和區民享街86巷1號","121.474455","25.0008933333333","6500300","中和區"
"235060","647-TV","2018/03/29 18:29:49","新北市中和區員山路379號","121.481183333333","25.0024","6500300","中和區"
"235047","732-UM","2018/03/29 18:29:40","新北市中和區南山路300號","121.5079","24.987095","6500300","中和區"
"235046","733-UM","2018/03/29 18:29:54","新北市中和區中正路171號","121.497905","24.99373","6500300","中和區"
"235062","800-TS","2018/03/29 18:29:49","新北市中和區景平路751號","121.4962","25.0046316666667","6500300","中和區"
"235057","801-TS","2018/03/29 18:29:41","新北市中和區民安街180號","121.475998333333","24.9999533333333","6500300","中和區"
"235041","802-TS","2018/03/29 18:29:51","新北市中和區景安路57號","121.507143333333","24.99809","6500300","中和區"
"235052","805-TS","2018/03/29 18:29:34","新北市中和區興南路二段133號","121.505235","24.9842183333333","6500300","中和區"
"235048","896-TW","2018/03/29 18:29:50","新北市中和區中正路83號","121.500665","24.99343","6500300","中和區"
"235053","900-TW","2018/03/29 18:29:40","新北市中和區連城路506號","121.477556666667","24.99264","6500300","中和區"
"235051","157-BY","2018/03/29 18:29:33","新北市中和區興南路二段142巷21號","121.50328","24.98364","6500300","中和區"
"235037","AAC-213","2018/03/29 18:29:36","新北市中和區景德街91號","121.515971666667","24.9914683333333","6500300","中和區"
"220065","072-UY","2018/03/29 18:29:52","新北市板橋區南雅南路二段11-29號","121.454011666667","25.00146","6500100","板橋區"
"226004","312-R5","2018/03/29 18:29:44","新北市平溪區靜安路二段330號","121.736915","25.0242883333333","6502400","平溪區"
"235039","251-BX","2018/03/29 18:29:43","新北市中和區安平路114號","121.511718333333","24.997555","6500300","中和區"
"228003","097-TW","2018/03/29 18:29:55","新北市貢寮區和美里和美街43-1號","121.914656666667","25.0916516666667","6502600","貢寮區"
"228001","212-TW","2018/03/29 18:29:43","新北市貢寮區仁理村仁和路72號","121.922711666667","25.0499966666667","6502600","貢寮區"
"228002","585-TW","2018/03/29 18:29:39","新北市貢寮區福連里福連街1號","121.988278333333","25.0178116666667","6502600","貢寮區"
"224010","AGQ-8101","2018/03/29 18:29:38","新北市瑞芳區九份中山巷10號","121.843803333333","25.107555","6501200","瑞芳區"
"224006","676-BX","2018/03/29 18:29:35","新北市瑞芳區明燈路二段56號","121.80991","25.10757","6501200","瑞芳區"
"224002","639-TC","2018/03/29 18:29:53","新北市瑞芳區三爪子坑路91巷42號","121.811865","25.1062","6501200","瑞芳區"
"224008","285-BY","2018/03/29 18:29:38","新北市瑞芳區岳王路1巷15號","121.80621","25.1104933333333","6501200","瑞芳區"
"224009","273-VK","2018/03/29 18:29:33","新北市瑞芳區祈堂路239號","121.85628","25.1090666666667","6501200","瑞芳區"
"224005","271-BY","2018/03/29 18:29:49","新北市瑞芳區建基路一段44-6號","121.819393333333","25.123115","6501200","瑞芳區"
"227010","642-TC","2018/03/29 18:29:34","新北市雙溪區牡丹里牡丹131號","121.850881666667","25.05936","6502500","雙溪區"
"227004","400-TW","2018/03/29 18:29:50","新北市雙溪區魚行里坤溪18號","121.872381666667","25.0263616666667","6502500","雙溪區"
"253005","032-BX","2018/03/29 18:29:47","新北市石門區老崩山8號","121.553125","25.2912966666667","6502200","石門區"
"253006","295-VK","2018/03/29 18:29:51","新北市石門區公地47-2號","121.545425","25.2901","6502200","石門區"
"222001","KEA-2212","2018/03/29 18:29:51","新北市深坑區北深路一段185號","121.631196666667","25.0099216666667","6501800","深坑區"
"208002","KEA-2872","2018/03/29 18:29:47","新北市金山區民生路45號","121.642026666667","25.2210516666667","6502700","金山區"
"208003","665-BX","2018/03/29 18:29:47","新北市金山區中山路162號","121.638443333333","25.2210083333333","6502700","金山區"
"208001","761-BX","2018/03/29 18:29:40","新北市金山區金包里街178號","121.637371666667","25.2236583333333","6502700","金山區"
"251004","009-UM","2018/03/29 18:29:53","新北市淡水區民族路31巷48號","121.462851666667","25.13679","6501000","淡水區"
"251001","011-UM","2018/03/29 18:29:51","新北市淡水區自強路373號","121.46462","25.1333783333333","6501000","淡水區"
"251013","179-VK","2018/03/29 18:29:50","新北市淡水區椿子林29號","121.482071666667","25.204785","6501000","淡水區"
"251014","180-VK","2018/03/29 18:29:55","新北市淡水區南平20號","121.49373","25.2167166666667","6501000","淡水區"
"251008","181-VK","2018/03/29 18:29:36","新北市淡水區北投子87-2號","121.468096666667","25.17848","6501000","淡水區"
"251015","182-VK","2018/03/29 18:29:52","新北市淡水區興福寮88巷216號","121.48592","25.1666116666667","6501000","淡水區"
"251010","413-VK","2018/03/29 18:29:46","新北市淡水區沙崙路181巷1號","121.424143333333","25.1842216666667","6501000","淡水區"
"251012","441-VK","2018/03/29 18:29:51","新北市淡水區北新路一段129-1號","121.456518333333","25.1818133333333","6501000","淡水區"
"251016","442-VK","2018/03/29 18:29:43","新北市淡水區下圭柔山35-3號","121.449508333333","25.204565","6501000","淡水區"
"251006","561-UM","2018/03/29 18:29:39","新北市淡水區新生街51巷26號","121.440636666667","25.1756116666667","6501000","淡水區"
"251011","650-BX","2018/03/29 18:29:34","新北市淡水區中正東路8-1號","121.44782","25.1668633333333","6501000","淡水區"
"251002","672-BX","2018/03/29 18:29:38","新北市淡水區中正東路一段21巷19號","121.452081666667","25.1639916666667","6501000","淡水區"
"251003","766-UM","2018/03/29 18:29:49","新北市淡水區北新路169巷14號","121.449638333333","25.18013","6501000","淡水區"
"207003","550-UM","2018/03/29 18:29:46","新北市萬里區野柳里港東路341號","121.688751666667","25.203925","6502800","萬里區"
"207004","225-TW","2018/03/29 18:29:48","新北市萬里區萬里里瑪鋉路272-1號","121.68886","25.180815","6502800","萬里區"
"252002","178-VK","2018/03/29 18:29:41","新北市三芝區中山路二段33號","121.50289","25.2552583333333","6502100","三芝區"
"252003","249-BX","2018/03/29 18:29:42","新北市三芝區後厝里北勢子43號","121.471846666667","25.2525516666667","6502100","三芝區"
"252001","292-VK","2018/03/29 18:29:42","新北市三芝區中興街二段2號","121.498341666667","25.2566333333333","6502100","三芝區"
"237004","KEA-2597","2018/03/29 18:29:53","新北市三峽區五寮144號","121.35954","24.85835","6500900","三峽區"
"237007","153-BY","2018/03/29 18:29:32","新北市三峽區中正路三段170巷34號","121.352711666667","24.9045633333333","6500900","三峽區"
"237009","210-TH","2018/03/29 18:29:41","新北市三峽區大同路202-1號","121.367885","24.92778","6500900","三峽區"
"237013","252-BX","2018/03/29 18:29:52","新北市三峽區光明路69巷25號","121.376695","24.92927","6500900","三峽區"
"237012","275-BY","2018/03/29 18:29:41","新北市三峽區三樹路168巷11號","121.37914","24.9406566666667","6500900","三峽區"
"237008","302-VK","2018/03/29 18:29:37","新北市三峽區白雞68-26號","121.390226666667","24.908855","6500900","三峽區"
"237014","433-BY","2018/03/29 18:29:47","新北市三峽區文化路59號","121.372283333333","24.9361133333333","6500900","三峽區"
"237006","5529-G3","2018/03/29 18:29:55","新北市三峽區溪東路473巷6號","121.413925","24.9283433333333","6500900","三峽區"
"237010","706-TV","2018/03/29 18:29:46","新北市三峽區中山路222-1號","121.362816666667","24.93722","6500900","三峽區"
"237005","AKY-6261","2018/03/29 18:29:33","新北市三峽區民族街5巷38號","121.369631666667","24.9314966666667","6500900","三峽區"
"236070","105-UM","2018/03/29 18:29:15","新北市土城區永豐路255巷27弄47號","121.477061666667","24.97357","6501300","土城區"
"236042","107-UM","2018/03/29 18:29:53","新北市土城區裕生路54號","121.447733333333","24.9865","6501300","土城區"
"236078","166-UM","2018/03/29 18:29:53","新北市土城區中央路四段6號","121.425846666667","24.963105","6501300","土城區"
"236030","253-BX","2018/03/29 18:29:45","新北市土城區水源街57號","121.440431666667","24.9759233333333","6501300","土城區"
"236026","269-VK","2018/03/29 18:29:41","新北市土城區南天母路135巷20號","121.448656666667","24.9547166666667","6501300","土城區"
"236014","270-VK","2018/03/29 18:29:44","新北市土城區立清街69號","121.460291666667","24.9873383333333","6501300","土城區"
"236038","271-VK","2018/03/29 18:29:46","新北市土城區明德路一段323號","121.45907","24.9770633333333","6501300","土城區"
"236021","401-BY","2018/03/29 18:29:48","新北市土城區永豐路202巷14號","121.466555","24.9834366666667","6501300","土城區"
"236059","912-UM","2018/03/29 18:29:34","新北市土城區中央路四段262號","121.414836666667","24.9567433333333","6501300","土城區"
"236049","913-UM","2018/03/29 18:29:50","新北市土城區青雲路463號","121.458656666667","24.9743333333333","6501300","土城區"
"236063","915-UM","2018/03/29 18:29:51","新北市土城區延壽路77巷6弄9號","121.468505","24.9927083333333","6501300","土城區"
"236055","AAC-216","2018/03/29 18:29:42","新北市土城區中華路二段1號","121.439565","24.9789433333333","6501300","土城區"
"242058","986-R7","2018/03/29 18:29:35","新北市新莊區中正路895號","121.412338333333","25.022075","6500500","新莊區"
"242053","751-BX","2018/03/29 18:29:52","新北市板橋區大觀路三段50巷79號","121.431425","24.9963416666667","6500500","新莊區"
"242025","613-BX","2018/03/29 18:29:49","新北市新莊區五工五路15號","121.454585","25.061935","6500500","新莊區"
"242042","566-BX","2018/03/29 18:29:52","新北市新莊區天祥街70號","121.41605","25.029415","6500500","新莊區"
"242046","497-BY","2018/03/29 18:29:48","新北市新莊區富國路76號","121.420035","25.0258466666667","6500500","新莊區"
"242044","400-BY","2018/03/29 18:29:55","新北市新莊區中正路新旺巷6號","121.415733333333","25.02354","6500500","新莊區"
"242061","353-BY","2018/03/29 18:29:51","新北市新莊區四維路97巷22號","121.424163333333","25.0233883333333","6500500","新莊區"
"238015","755-BX","2018/03/29 18:29:46","新北市樹林區啟智街172號","121.414855","24.986985","6500700","樹林區"
"238023","601-UM","2018/03/29 18:29:48","新北市樹林區三福街114號","121.406428333333","25.0163233333333","6500700","樹林區"
"238019","599-UM","2018/03/29 18:29:41","新北市樹林區中華路190-16號","121.411748333333","24.9805833333333","6500700","樹林區"
"238018","571-TV","2018/03/29 18:29:44","新北市樹林區保安街一段20巷34號","121.4283","24.99456","6500700","樹林區"
"238024","5061-A6","2018/03/29 18:29:47","新北市樹林區中山路一段180號","121.42185","24.98878","6500700","樹林區"
"238022","KEA-2213","2018/03/29 18:29:52","新北市樹林區中山路三段337-1號","121.390553333333","24.9711366666667","6500700","樹林區"
"238025","303-VK","2018/03/29 18:29:40","新北市樹林區東興街3號","121.409073333333","24.98028","6500700","樹林區"
"238020","268-VK","2018/03/29 18:29:43","新北市樹林區三龍街13號","121.412793333333","25.0192183333333","6500700","樹林區"
"238026","172-UY","2018/03/29 18:29:34","新北市樹林區育德街78-1號","121.38737","24.9681333333333","6500700","樹林區"
"238016","169-UY","2018/03/29 18:29:45","新北市樹林區文化街28-1號","121.419176666667","24.987775","6500700","樹林區"
"239008","527-UM","2018/03/29 18:29:43","新北市鶯歌區國際一路179號","121.336251666667","24.9765366666667","6500800","鶯歌區"
"239005","526-UM","2018/03/29 18:29:38","新北市鶯歌區鶯桃路668巷23號","121.328965","24.9702716666667","6500800","鶯歌區"
"239001","417-VK","2018/03/29 18:29:39","新北市鶯歌區光照街23號","121.337455","24.9399316666667","6500800","鶯歌區"
"239003","360-BY","2018/03/29 18:29:37","新北市鶯歌區鶯桃路390號","121.333745","24.9636116666667","6500800","鶯歌區"
"239002","359-BY","2018/03/29 18:29:43","新北市鶯歌區中正一路305號","121.356376666667","24.9571066666667","6500800","鶯歌區"
"239004","193-VK","2018/03/29 18:29:47","新北市鶯歌區尖山路174巷35弄41號","121.343913333333","24.9477866666667","6500800","鶯歌區"
"221008","489-VK","2018/03/29 18:29:47","新北市汐止區康寧街901號","121.651446666667","25.0750933333333","6501100","汐止區"
"221036","130-UY","2018/03/29 18:29:50","新北市汐止區大同路三段109號","121.668491666667","25.0776233333333","6501100","汐止區"
"221015","131-UY","2018/03/29 18:29:55","新北市汐止區鄉長路18巷3號","121.668361666667","25.08228","6501100","汐止區"
"221010","269-BY","2018/03/29 18:29:54","新北市汐止區汐萬路三段217巷3號","121.643516666667","25.10233","6501100","汐止區"
"221012","278-VK","2018/03/29 18:29:45","新北市汐止區保長路51巷3號","121.673455","25.0788166666667","6501100","汐止區"
"221023","279-VK","2018/03/29 18:29:44","新北市汐止區康寧街534巷26號","121.634965","25.0689916666667","6501100","汐止區"
"221032","280-BY","2018/03/29 18:29:39","新北市汐止區民權街二段109巷32號","121.619931666667","25.0462083333333","6501100","汐止區"
"221027","281-BY","2018/03/29 18:29:47","新北市汐止區和平街46巷17號","121.662546666667","25.0717766666667","6501100","汐止區"
"221029","298-VK","2018/03/29 18:29:40","新北市汐止區樟樹二路339巷18號","121.641825","25.0716733333333","6501100","汐止區"
"221021","299-VK","2018/03/29 18:29:46","新北市汐止區復興路46號","121.656655","25.0628833333333","6501100","汐止區"
"221031","353-TW","2018/03/29 18:29:49","新北市汐止區大同路一段405-1號","121.641525","25.0602366666667","6501100","汐止區"
"221035","622-UM","2018/03/29 18:29:37","新北市汐止區大同路二段37號","121.647748333333","25.0634266666667","6501100","汐止區"
"221025","623-UM","2018/03/29 18:29:39","新北市汐止區仁愛路108號","121.662475","25.0635333333333","6501100","汐止區"
"221038","646-BX","2018/03/29 18:29:47","新北市汐止區忠孝東路224號","121.662288333333","25.0667483333333","6501100","汐止區"
"221033","647-BX","2018/03/29 18:29:44","新北市汐止區宜興街9巷1號","121.621033333333","25.0415183333333","6501100","汐止區"
"221002","707-TV","2018/03/29 18:29:42","新北市汐止區福德一路146號","121.636751666667","25.0669766666667","6501100","汐止區"
"221018","753-BX","2018/03/29 18:29:44","新北市汐止區茄苳路225巷2號","121.671003333333","25.0686666666667","6501100","汐止區"
"220079","145-BY","2018/03/29 18:29:48","新北市板橋區華東街1-10號","121.448303333333","24.9950183333333","6500100","板橋區"
"220071","283-VK","2018/03/29 18:29:43","新北市板橋區華東街1-9號","121.44805","24.99495","6500100","板橋區"
"220083","286-VK","2018/03/29 18:29:41","新北市板橋區華東街1-10號","121.448391666667","24.995075","6500100","板橋區"
"220081","287-VK","2018/03/29 18:29:47","新北市板橋區華東街1-10號","121.448241666667","24.9949966666667","6500100","板橋區"
"220075","303-R5","2018/03/29 18:29:42","新北市板橋區華東街1-9號","121.448175","24.9949433333333","6500100","板橋區"
"220028","461-BY","2018/03/29 18:29:48","新北市板橋區華東街1-9號","121.448111666667","24.9948466666667","6500100","板橋區"
"242056","280-VK","2018/03/29 18:29:49","新北市新莊區瓊泰路63巷19號","121.442658333333","25.0285916666667","6500500","新莊區"
"220035","560-BX","2018/03/29 18:29:46","新北市板橋區南雅南路二段146號","121.451585","24.996165","6500100","板橋區"
"220074","895-R6","2018/03/29 18:29:37","新北市板橋區華東街1-9號","121.448228333333","24.9949683333333","6500100","板橋區"
