"lineid","car","time","location","longitude","latitude","cityid","cityname"
"234046","148-BY","2018/03/29 18:59:49","新北市永和區得和路373巷16弄1號","121.525098333333","25.0002766666667","6500400","永和區"
"234070","149-BY","2018/03/29 18:59:48","新北市永和區竹林路124巷32號","121.518191666667","25.0115683333333","6500400","永和區"
"234007","207-UY","2018/03/29 18:59:35","新北市永和區中山路一段54號","121.513076666667","25.010645","6500400","永和區"
"234081","298-R6","2018/03/29 18:59:49","新北市永和區永亨路61號","121.52105","25.00609","6500400","永和區"
"234038","336-UY","2018/03/29 18:59:32","新北市永和區成功路二段203號","121.526585","24.9960066666667","6500400","永和區"
"234064","337-UY","2018/03/29 18:59:40","新北市永和區秀朗路一段136號","121.517876666667","25.0034433333333","6500400","永和區"
"234086","338-UY","2018/03/29 18:59:51","新北市永和區中正路328號","121.517536666667","24.9997716666667","6500400","永和區"
"234017","745-BX","2018/03/29 18:59:33","新北市永和區永和路二段299號","121.516078333333","25.0161333333333","6500400","永和區"
"234030","746-BX","2018/03/29 18:59:52","新北市永和區厚德街5號","121.52565","24.9979966666667","6500400","永和區"
"234054","KEA-2590","2018/03/29 18:59:48","新北市永和區竹林路66巷2號","121.518371666667","25.0133516666667","6500400","永和區"
"234013","KEA-2591","2018/03/29 18:59:46","新北市永和區信義路19號","121.514128333333","25.01188","6500400","永和區"
"234061","AAD-866","2018/03/29 18:59:48","新北市永和區福和路301號","121.516438333333","25.0070983333333","6500400","永和區"
"234042","862-TW","2018/03/29 18:59:54","新北市永和區永貞路267號","121.511841666667","25.004745","6500400","永和區"
"234050","863-TW","2018/03/29 18:59:48","新北市永和區文化路208號","121.51028","25.0166133333333","6500400","永和區"
"234026","9371-KE","2018/03/29 18:59:51","新北市永和區保平路93巷1號","121.511738333333","25.006725","6500400","永和區"
"234011","9373-KE","2018/03/29 18:59:48","新北市永和區信義路106號","121.512383333333","25.0142283333333","6500400","永和區"
"249005","172-UM","2018/03/29 18:59:46","新北市八里區長道坑11號","121.396383333333","25.123115","6502300","八里區"
"249001","173-UM","2018/03/29 18:59:40","新北市八里區龍米路二段226巷1號","121.432861666667","25.1584833333333","6502300","八里區"
"248014","025-BX","2018/03/29 18:59:47","新北市五股區民義路一段107巷23號","121.432098333333","25.0845466666667","6501500","五股區"
"248016","026-BX","2018/03/29 18:59:48","新北市五股區成泰路三段543巷16號","121.450936666667","25.1022216666667","6501500","五股區"
"248006","077-UY","2018/03/29 18:59:41","新北市五股區中興路一段50號","121.468036666667","25.0725966666667","6501500","五股區"
"248008","095-VK","2018/03/29 18:59:34","新北市五股區中興路一段118巷6弄5號","121.46627","25.0742766666667","6501500","五股區"
"248020","225-UY","2018/03/29 18:59:42","新北市五股區凌雲路三段57號","121.425328333333","25.12501","6501500","五股區"
"248012","247-BX","2018/03/29 18:59:40","新北市五股區中興路四段48巷16號","121.438631666667","25.083425","6501500","五股區"
"248010","272-BY","2018/03/29 18:59:48","新北市五股區水碓一路23號","121.430616666667","25.0712683333333","6501500","五股區"
"248004","677-BX","2018/03/29 18:59:36","新北市五股區民義路二段26號","121.419665","25.09717","6501500","五股區"
"248002","678-BX","2018/03/29 18:59:37","新北市五股區凌雲路一段158巷14-1號","121.447821666667","25.1034733333333","6501500","五股區"
"234023","9380-KE","2018/03/29 18:59:49","新北市永和區竹林路75巷33弄1號","121.520565","25.0142366666667","6500400","永和區"
"234077","969-R7","2018/03/29 18:59:37","新北市永和區智光街22號","121.517878333333","24.9993516666667","6500400","永和區"
"234074","AAC-211","2018/03/29 18:59:42","新北市永和區環河東路二段98號","121.524115","25.0103383333333","6500400","永和區"
"234067","AAC-212","2018/03/29 18:59:45","新北市永和區永和路一段22號","121.512996666667","25.0048266666667","6500400","永和區"
"234003","AAC-295","2018/03/29 18:59:41","新北市永和區和平街28號","121.513411666667","25.00992","6500400","永和區"
"232011","375-UM","2018/03/29 18:59:53","新北市坪林區水聳淒坑20-2號","121.711361666667","24.93402","6502000","坪林區"
"244013","069-UM","2018/03/29 18:59:46","新北市林口區麗園二街1巷2-2號","121.376875","25.0699683333333","6501700","林口區"
"244025","742-UY","2018/03/29 18:59:48","新北市林口區民族路82巷20號","121.366486666667","25.0750416666667","6501700","林口區"
"244023","483-VK","2018/03/29 18:59:47","新北市林口區文林六街15號","121.370731666667","25.0803966666667","6501700","林口區"
"244017","485-VK","2018/03/29 18:59:47","新北市林口區公園路59號","121.36795","25.0690333333333","6501700","林口區"
"244009","656-BX","2018/03/29 18:59:40","新北市林口區台電新村81號","121.38838","25.087085","6501700","林口區"
"244019","657-BX","2018/03/29 18:59:46","新北市林口區麗園二街87號","121.382718333333","25.0667033333333","6501700","林口區"
"244011","701-TV","2018/03/29 18:59:43","新北市林口區中正路371號","121.387321666667","25.0777116666667","6501700","林口區"
"243012","AAD-798","2018/03/29 18:59:35","新北市泰山區仁德路106號","121.432596666667","25.056965","6501600","泰山區"
"243015","380-SR","2018/03/29 18:59:51","新北市泰山區泰林路二段291號","121.430301666667","25.0629433333333","6501600","泰山區"
"243014","421-VK","2018/03/29 18:59:41","新北市泰山區泰林路二段595號","121.421675","25.0635383333333","6501600","泰山區"
"243010","KEA-2215","2018/03/29 18:59:38","新北市泰山區辭修路30號","121.428981666667","25.0581666666667","6501600","泰山區"
"243009","KEA-2216","2018/03/29 18:59:36","新北市泰山區泰林路二段362號","121.428906666667","25.0635933333333","6501600","泰山區"
"243013","646-TV","2018/03/29 18:59:50","新北市泰山區明志路三段341巷5弄7號","121.423123333333","25.03531","6501600","泰山區"
"243016","680-BX","2018/03/29 18:59:44","新北市泰山區文程路1號","121.427593333333","25.049705","6501600","泰山區"
"222003","436-BY","2018/03/29 18:59:55","新北市深坑區深南路51-1號","121.621366666667","25.0101716666667","6501800","深坑區"
"222002","659-BX","2018/03/29 18:59:46","新北市深坑區文山路一段31巷2號","121.629915","25.0033083333333","6501800","深坑區"
"231041","002-UM","2018/03/29 18:59:46","新北市新店區環河路29巷1號","121.536988333333","24.9613633333333","6500600","新店區"
"231059","046-UY","2018/03/29 18:59:45","新北市新店區安康路一段355-3號","121.519778333333","24.9619683333333","6500600","新店區"
"231061","047-UY","2018/03/29 18:59:52","新北市新店區安康路一段351-1號","121.519546666667","24.9639183333333","6500600","新店區"
"231060","106-UY","2018/03/29 18:59:52","新北市新店區車子路10-4號","121.50484","24.9545683333333","6500600","新店區"
"231051","107-UY","2018/03/29 18:59:53","新北市新店區百忍街10巷2號","121.53495","24.9755716666667","6500600","新店區"
"231052","187-VK","2018/03/29 18:59:51","新北市新店區屈尺路6號","121.549426666667","24.92285","6500600","新店區"
"231050","KEA-2219","2018/03/29 18:59:38","新北市新店區北宜路二段30巷5弄1號","121.548271666667","24.95082","6500600","新店區"
"231046","278-BY","2018/03/29 18:59:20","新北市新店區直潭六街20號","121.53439","24.9408116666667","6500600","新店區"
"231054","AAD-862","2018/03/29 18:59:34","新北市新店區新店路13號","121.540318333333","24.9528316666667","6500600","新店區"
"231044","355-BY","2018/03/29 18:59:49","新北市新店區寶中路72號","121.54784","24.9805866666667","6500600","新店區"
"231058","3712-VJ","2018/03/29 18:59:36","新北市新店區中興路一段95號","121.541021666667","24.9622483333333","6500600","新店區"
"231056","3713-VJ","2018/03/29 18:59:38","新北市新店區大同街10號","121.539745","24.9800033333333","6500600","新店區"
"231055","4716-K9","2018/03/29 18:59:42","新北市新店區新生街10巷7號","121.540475","24.9663883333333","6500600","新店區"
"231067","4772-VM","2018/03/29 18:59:50","新北市新店區安康路一段247巷29號","121.524601666667","24.961975","6500600","新店區"
"231065","512-UM","2018/03/29 18:59:37","新北市新店區安祥路147巷88號","121.474898333333","24.9541033333333","6500600","新店區"
"231064","513-UM","2018/03/29 18:59:50","新北市新店區安康路一段266巷4號","121.519788333333","24.964065","6500600","新店區"
"231040","619-UM","2018/03/29 18:59:42","新北市新店區三民路185號","121.535321666667","24.9753616666667","6500600","新店區"
"231042","641-BX","2018/03/29 18:59:43","新北市新店區中興路一段266-1號","121.544965","24.9673616666667","6500600","新店區"
"231063","645-TV","2018/03/29 18:59:46","新北市新店區車子路110號","121.505195","24.9520733333333","6500600","新店區"
"231049","719-UM","2018/03/29 18:59:51","新北市新店區二十張路142-1號","121.535083333333","24.9787933333333","6500600","新店區"
"231047","719-UY","2018/03/29 18:59:53","新北市新店區德正街27巷29弄21號","121.545761666667","24.9719466666667","6500600","新店區"
"231062","720-UM","2018/03/29 18:59:54","新北市新店區安和路一段55號","121.517556666667","24.9661233333333","6500600","新店區"
"231045","898-TW","2018/03/29 18:59:52","新北市新店區光明街31號","121.538296666667","24.9597816666667","6500600","新店區"
"231043","899-TW","2018/03/29 18:59:36","新北市新店區北新路二段18號","121.542756666667","24.971265","6500600","新店區"
"231066","AKT-0513","2018/03/29 18:59:46","新北市新店區安康路三段24號","121.493225","24.9532633333333","6500600","新店區"
"241035","462-BY","2018/03/29 18:59:44","新北市三重區大仁街36巷71號","121.489861666667","25.064045","6500200","三重區"
"241029","942-UM","2018/03/29 18:59:35","新北市三重區重安街24號","121.490365","25.05794","6500200","三重區"
"235030","003-UY","2018/03/29 18:59:44","新北市中和區中山路二段131巷7號","121.502765","25.00265","6500300","中和區"
"235064","005-UY","2018/03/29 18:59:49","新北市中和區泰和街44巷28號","121.498398333333","25.0008516666667","6500300","中和區"
"235063","006-UY","2018/03/29 18:59:39","新北市中和區中正路462號","121.490176666667","24.9942766666667","6500300","中和區"
"235056","096-UM","2018/03/29 18:59:29","新北市中和區員山路466巷17弄29號","121.48049","25.007385","6500300","中和區"
"235065","098-UM","2018/03/29 18:59:53","新北市中和區勝利路35巷1弄2號","121.499045","25.00739","6500300","中和區"
"235040","150-BY","2018/03/29 18:59:48","新北市中和區保健路106巷73號","121.511313333333","24.99457","6500300","中和區"
"235058","151-BY","2018/03/29 18:59:46","新北市中和區連城路631-1號","121.476368333333","24.99168","6500300","中和區"
"235055","183-VK","2018/03/29 18:59:44","新北市中和區民德路27號","121.468951666667","25.0026616666667","6500300","中和區"
"235038","185-VK","2018/03/29 18:59:46","新北市中和區立人街34號","121.518335","24.99403","6500300","中和區"
"235049","186-VK","2018/03/29 18:59:35","新北市中和區景安路167巷23號","121.506623333333","24.9948866666667","6500300","中和區"
"235067","255-BX","2018/03/29 18:57:17","新北市中和區中正路839巷33號","121.483678333333","25.0021733333333","6500300","中和區"
"235044","293-VK","2018/03/29 18:59:39","新北市中和區中興街161巷2弄1號","121.500288333333","24.9908883333333","6500300","中和區"
"235072","301-VK","2018/03/29 18:59:51","新北市中和區景平路731號","121.496376666667","25.0042533333333","6500300","中和區"
"235043","352-BY","2018/03/29 18:59:56","新北市中和區成功路36號","121.526025","24.9932483333333","6500300","中和區"
"235068","377-QA","2018/03/29 18:59:53","新北市中和區圓通路232巷16號","121.495","24.993395","6500300","中和區"
"235061","378-QA","2018/03/29 18:59:48","新北市中和區民享街59巷4號","121.47445","25.00248","6500300","中和區"
"235071","269-TV","2018/03/29 18:59:44","新北市中和區員山路36巷16-3號","121.485121666667","24.9912133333333","6500300","中和區"
"235050","4979-A6","2018/03/29 18:59:41","新北市中和區華新街97號","121.508811666667","24.9829466666667","6500300","中和區"
"235069","4980-A6","2018/03/29 18:59:50","新北市中和區景平路459巷2弄1號","121.500223333333","24.9963616666667","6500300","中和區"
"235042","551-UM","2018/03/29 18:59:49","新北市中和區秀朗路三段50巷7-1號","121.525736666667","24.9953933333333","6500300","中和區"
"235070","558-UM","2018/03/29 18:59:48","新北市中和區安和路159號","121.506221666667","24.9974283333333","6500300","中和區"
"235045","565-BX","2018/03/29 18:59:48","新北市中和區景新街467巷3號","121.513591666667","24.9882266666667","6500300","中和區"
"235054","640-BX","2018/03/29 18:59:44","新北市中和區民享街5號","121.473948333333","25.0056783333333","6500300","中和區"
"235060","647-TV","2018/03/29 18:59:49","新北市中和區民治街5巷1號","121.474988333333","25.00504","6500300","中和區"
"235047","732-UM","2018/03/29 18:59:51","新北市中和區興南路二段74巷10號","121.505255","24.9848883333333","6500300","中和區"
"235046","733-UM","2018/03/29 18:59:34","新北市中和區興南路一段135巷22弄6號","121.509085","24.9868733333333","6500300","中和區"
"235062","800-TS","2018/03/29 18:59:49","新北市中和區橋安街1號","121.492675","25.003075","6500300","中和區"
"235057","801-TS","2018/03/29 18:59:41","新北市中和區民利街40巷3弄11號","121.478845","24.9992183333333","6500300","中和區"
"235041","802-TS","2018/03/29 18:59:51","新北市中和區宜安路62號","121.511606666667","24.99709","6500300","中和區"
"235052","805-TS","2018/03/29 18:59:34","新北市中和區興南路二段347號","121.500088333333","24.9801","6500300","中和區"
"235048","896-TW","2018/03/29 18:59:50","新北市中和區華新街109巷16號","121.508783333333","24.98101","6500300","中和區"
"235053","900-TW","2018/03/29 18:59:40","新北市中和區民德路364號","121.46588","24.9940883333333","6500300","中和區"
"235051","157-BY","2018/03/29 18:59:53","新北市中和區忠孝街11巷1號","121.509895","24.9831666666667","6500300","中和區"
"235037","AAC-213","2018/03/29 18:59:36","新北市中和區秀朗路三段10巷14弄54號","121.524075","24.9964683333333","6500300","中和區"
"235059","AAC-215","2018/03/29 18:59:38","新北市中和區圓通路369巷2號","121.49119","24.989455","6500300","中和區"
"220065","072-UY","2018/03/29 18:59:52","新北市板橋區民族路287巷6號","121.471215","25.0070166666667","6500100","板橋區"
"220086","073-UY","2018/03/29 18:59:49","新北市板橋區中正路166號","121.456485","25.0170166666667","6500100","板橋區"
"220069","AAD-861","2018/03/29 18:59:36","新北市板橋區華興街81號","121.45689","25.005145","6500100","板橋區"
"226004","312-R5","2018/03/29 18:59:44","新北市平溪區靜安路三段10號","121.74975","25.0262583333333","6502400","平溪區"
"235039","251-BX","2018/03/29 18:59:43","新北市中和區安樂路217巷60號","121.512785","24.9975983333333","6500300","中和區"
"228003","097-TW","2018/03/29 18:59:35","新北市貢寮區和美里龍洞街47號","121.911831666667","25.1131833333333","6502600","貢寮區"
"228001","212-TW","2018/03/29 18:59:43","新北市貢寮區仁理村保健街71號","121.9237","25.05163","6502600","貢寮區"
"228002","585-TW","2018/03/29 18:59:39","新北市貢寮區福隆里東興街102號","121.946161666667","25.0169016666667","6502600","貢寮區"
"224010","AGQ-8101","2018/03/29 18:59:40","新北市瑞芳區基山街64號","121.844835","25.1085233333333","6501200","瑞芳區"
"224006","676-BX","2018/03/29 18:59:42","新北市瑞芳區三爪子坑路106巷112號","121.808458333333","25.1044483333333","6501200","瑞芳區"
"224002","639-TC","2018/03/29 18:59:53","新北市瑞芳區靜安路四段12巷3號","121.7974","25.0874983333333","6501200","瑞芳區"
"224008","285-BY","2018/03/29 18:59:38","新北市瑞芳區逢甲路347-2號","121.797808333333","25.11401","6501200","瑞芳區"
"224009","273-VK","2018/03/29 18:59:33","新北市瑞芳區洞頂路148號","121.859393333333","25.117905","6501200","瑞芳區"
"224005","271-BY","2018/03/29 18:59:48","新北市瑞芳區瑞芳街32-10號","121.822225","25.1209716666667","6501200","瑞芳區"
"227010","642-TC","2018/03/29 18:59:54","新北市雙溪區牡丹里中正路58巷23號","121.866441666667","25.0416433333333","6502500","雙溪區"
"227004","400-TW","2018/03/29 18:59:50","新北市雙溪區平林里康福家園10號","121.858755","25.0372816666667","6502500","雙溪區"
"253005","032-BX","2018/03/29 18:59:47","新北市石門區尖子鹿76號","121.571426666667","25.2968616666667","6502200","石門區"
"253006","295-VK","2018/03/29 18:59:50","新北市石門區八甲6號","121.5215","25.2821616666667","6502200","石門區"
"222001","KEA-2212","2018/03/29 18:59:51","新北市深坑區北深路一段177號","121.632371666667","25.0107083333333","6501800","深坑區"
"208002","KEA-2872","2018/03/29 18:59:47","新北市金山區信義路72號","121.63513","25.2195216666667","6502700","金山區"
"208003","665-BX","2018/03/29 18:59:47","新北市金山區中正路23號","121.635926666667","25.22223","6502700","金山區"
"208001","761-BX","2018/03/29 18:59:40","新北市金山區中山路79號","121.640306666667","25.2186716666667","6502700","金山區"
"251009","008-UM","2018/03/29 18:59:35","新北市淡水區重建街38號","121.439896666667","25.1712683333333","6501000","淡水區"
"251001","011-UM","2018/03/29 18:59:51","新北市淡水區自強路60號","121.463161666667","25.1275883333333","6501000","淡水區"
"251013","179-VK","2018/03/29 18:59:50","新北市淡水區安子內12號","121.481566666667","25.2190516666667","6501000","淡水區"
"251014","180-VK","2018/03/29 18:59:54","新北市淡水區小中寮30號","121.48949","25.228395","6501000","淡水區"
"251015","182-VK","2018/03/29 18:59:52","新北市淡水區糞箕湖60號","121.485206666667","25.1722866666667","6501000","淡水區"
"251010","413-VK","2018/03/29 18:59:46","新北市淡水區沙崙路97號","121.422313333333","25.1823833333333","6501000","淡水區"
"251016","442-VK","2018/03/29 18:59:38","新北市淡水區淡金路三段36號","121.447945","25.1990933333333","6501000","淡水區"
"251005","443-VK","2018/03/29 18:59:37","新北市淡水區崁頂59號","121.440951666667","25.1996583333333","6501000","淡水區"
"251007","577-R6","2018/03/29 18:59:48","新北市淡水區民生路49號","121.462451666667","25.13817","6501000","淡水區"
"251002","672-BX","2018/03/29 18:59:38","新北市淡水區中正東路55-4號","121.44679","25.1678883333333","6501000","淡水區"
"251003","766-UM","2018/03/29 18:59:49","新北市淡水區中山北路一段149巷24號","121.442946666667","25.1779566666667","6501000","淡水區"
"207003","550-UM","2018/03/29 18:59:46","新北市萬里區大鵬里頂社28號","121.656821666667","25.2105433333333","6502800","萬里區"
"207004","225-TW","2018/03/29 18:59:48","新北市萬里區萬里里獅頭路23號","121.693221666667","25.17826","6502800","萬里區"
"252002","178-VK","2018/03/29 18:59:47","新北市三芝區中正路一段78號","121.504085","25.2574816666667","6502100","三芝區"
"252003","249-BX","2018/03/29 18:59:51","新北市三芝區後厝里北勢子42-3號","121.472253333333","25.2525933333333","6502100","三芝區"
"252001","292-VK","2018/03/29 18:59:42","新北市三芝區中興街二段260號","121.50176","25.253015","6502100","三芝區"
"237004","KEA-2597","2018/03/29 18:59:52","新北市三峽區有木200號","121.442298333333","24.8506516666667","6500900","三峽區"
"237007","153-BY","2018/03/29 18:59:32","新北市三峽區中正路二段227號","121.366035","24.9128766666667","6500900","三峽區"
"237013","252-BX","2018/03/29 18:59:52","新北市三峽區光明路69巷25號","121.376736666667","24.9292233333333","6500900","三峽區"
"237012","275-BY","2018/03/29 18:59:41","新北市三峽區三樹路222巷61號","121.383871666667","24.942235","6500900","三峽區"
"237008","302-VK","2018/03/29 18:59:37","新北市三峽區中正路一段357號","121.370928333333","24.9228866666667","6500900","三峽區"
"237014","433-BY","2018/03/29 18:59:47","新北市三峽區隆恩街214號","121.359191666667","24.9416883333333","6500900","三峽區"
"237006","5529-G3","2018/03/29 18:59:35","新北市三峽區溪東路233巷45弄4號","121.409531666667","24.9333133333333","6500900","三峽區"
"237010","706-TV","2018/03/29 18:59:46","新北市三峽區國光街108號","121.372991666667","24.9390666666667","6500900","三峽區"
"237005","AKY-6261","2018/03/29 18:59:53","新北市三峽區中山路459巷163-3號","121.349108333333","24.93337","6500900","三峽區"
"236070","105-UM","2018/03/29 18:59:39","新北市土城區清水路105號","121.456885","24.982195","6501300","土城區"
"236042","107-UM","2018/03/29 18:59:53","新北市土城區學府路一段256巷2弄1號","121.451023333333","24.9847716666667","6501300","土城區"
"236078","166-UM","2018/03/29 18:59:53","新北市土城區中央路四段125巷2弄21號","121.416303333333","24.9567633333333","6501300","土城區"
"236030","253-BX","2018/03/29 18:59:45","新北市土城區慶利街11號","121.43952","24.9736466666667","6501300","土城區"
"236026","269-VK","2018/03/29 18:59:39","新北市土城區中央路二段246號","121.441958333333","24.9748433333333","6501300","土城區"
"236014","270-VK","2018/03/29 18:59:44","新北市土城區延和路13巷14號","121.463598333333","24.9885166666667","6501300","土城區"
"236038","271-VK","2018/03/29 18:59:46","新北市土城區仁愛路30號","121.46131","24.9798566666667","6501300","土城區"
"236021","401-BY","2018/03/29 18:59:48","新北市土城區延吉街219號","121.468461666667","24.9852033333333","6501300","土城區"
"236059","912-UM","2018/03/29 18:59:54","新北市土城區清水路3號","121.452948333333","24.9802716666667","6501300","土城區"
"236049","913-UM","2018/03/29 18:59:51","新北市土城區明德路一段288-1號","121.456975","24.9775833333333","6501300","土城區"
"236063","915-UM","2018/03/29 18:59:51","新北市土城區延和路41巷6弄15號","121.46653","24.990355","6501300","土城區"
"236055","AAC-216","2018/03/29 18:59:42","新北市土城區學成路164號","121.448098333333","24.98909","6501300","土城區"
"242046","497-BY","2018/03/29 18:59:48","新北市樹林區佳園路一段94號","121.393536666667","24.96868","6500500","新莊區"
"238023","601-UM","2018/03/29 18:59:48","新北市樹林區工興街35巷1號","121.401273333333","25.0132066666667","6500700","樹林區"
"238019","599-UM","2018/03/29 18:59:41","新北市樹林區東華街73號","121.415616666667","24.98085","6500700","樹林區"
"238018","571-TV","2018/03/29 18:59:44","新北市樹林區中華路227號","121.4188","24.98098","6500700","樹林區"
"238024","5061-A6","2018/03/29 18:58:27","新北市樹林區中山路三段214號","121.380125","24.9679166666667","6500700","樹林區"
"238021","KEA-2217","2018/03/29 18:59:41","新北市樹林區西圳街二段135巷7-9號","121.382151666667","24.9567783333333","6500700","樹林區"
"238022","KEA-2213","2018/03/29 18:59:52","新北市樹林區東興街16巷4弄1號","121.409318333333","24.9781983333333","6500700","樹林區"
"238025","303-VK","2018/03/29 18:59:40","新北市樹林區民和街80號","121.380625","24.9716116666667","6500700","樹林區"
"238017","283-BY","2018/03/29 18:59:35","新北市樹林區中山路三段111號","121.399203333333","24.974365","6500700","樹林區"
"238014","282-BY","2018/03/29 18:59:52","新北市樹林區潭興街143巷28弄1號","121.424826666667","24.99946","6500700","樹林區"
"238020","268-VK","2018/03/29 18:59:43","新北市樹林區俊英街155巷41號","121.422963333333","25.0121333333333","6500700","樹林區"
"238026","172-UY","2018/03/29 18:59:34","新北市樹林區佳園路一段73號","121.393535","24.9700933333333","6500700","樹林區"
"238016","169-UY","2018/03/29 18:59:45","新北市樹林區中山路一段306巷72號","121.417688333333","24.9862866666667","6500700","樹林區"
"239007","AAC-297","2018/03/29 18:59:40","新北市鶯歌區中正一路302號","121.35588","24.9569933333333","6500800","鶯歌區"
"239008","527-UM","2018/03/29 18:59:44","新北市鶯歌區國際二路28號","121.336066666667","24.975225","6500800","鶯歌區"
"239005","526-UM","2018/03/29 18:59:37","新北市鶯歌區鳳吉一街130號","121.32791","24.9750233333333","6500800","鶯歌區"
"239001","417-VK","2018/03/29 18:59:39","新北市鶯歌區永安街27號","121.337676666667","24.95585","6500800","鶯歌區"
"239003","360-BY","2018/03/29 18:59:37","新北市鶯歌區鶯桃路656號","121.329333333333","24.9693783333333","6500800","鶯歌區"
"239004","193-VK","2018/03/29 18:59:47","新北市鶯歌區中正三路247巷62號","121.33359","24.9368533333333","6500800","鶯歌區"
"221008","489-VK","2018/03/29 18:59:47","新北市汐止區康寧街753巷2弄8號","121.63928","25.0739133333333","6501100","汐止區"
"221036","130-UY","2018/03/29 18:59:50","新北市汐止區仁愛路331號","121.664035","25.0680566666667","6501100","汐止區"
"221015","131-UY","2018/03/29 18:59:55","新北市汐止區鄉長路一段43號","121.665286666667","25.0750066666667","6501100","汐止區"
"221010","269-BY","2018/03/29 18:59:34","新北市汐止區康寧街901號","121.65144","25.07502","6501100","汐止區"
"221012","278-VK","2018/03/29 18:59:33","新北市汐止區康寧街901號","121.650831666667","25.0752316666667","6501100","汐止區"
"221023","279-VK","2018/03/29 18:59:44","新北市汐止區康寧街901號","121.650985","25.0752","6501100","汐止區"
"221032","280-BY","2018/03/29 18:59:39","新北市汐止區橫科路385巷6弄6號","121.623996666667","25.0479966666667","6501100","汐止區"
"221027","281-BY","2018/03/29 18:59:47","新北市汐止區康寧街901號","121.651433333333","25.0750383333333","6501100","汐止區"
"221029","298-VK","2018/03/29 18:59:40","新北市汐止區樟樹一路256號","121.642516666667","25.06731","6501100","汐止區"
"221031","353-TW","2018/03/29 18:59:49","新北市汐止區中興路181巷29弄8號","121.629901666667","25.065835","6501100","汐止區"
"221035","622-UM","2018/03/29 18:59:37","新北市汐止區汐萬路一段256巷3號","121.653298333333","25.074625","6501100","汐止區"
"221025","623-UM","2018/03/29 18:59:39","新北市汐止區汐萬路一段312號","121.650613333333","25.07534","6501100","汐止區"
"221038","646-BX","2018/03/29 18:59:47","新北市汐止區康寧街901號","121.650718333333","25.0752583333333","6501100","汐止區"
"221033","647-BX","2018/03/29 18:59:44","新北市汐止區南勢街3號","121.627093333333","25.037385","6501100","汐止區"
"221002","707-TV","2018/03/29 18:59:42","新北市汐止區大同路一段4號","121.621161666667","25.0549183333333","6501100","汐止區"
"220079","145-BY","2018/03/29 18:59:48","新北市板橋區民權路202巷9弄16號","121.45976","25.0155766666667","6500100","板橋區"
"220106","KEA-2550","2018/03/29 18:59:48","新北市板橋區文化路二段124巷28-2號","121.471286666667","25.0256683333333","6500100","板橋區"
"220082","610-BX","2018/03/29 18:59:35","新北市板橋區溪崑二街89號","121.42726","24.98936","6500100","板橋區"
"220101","245-BX","2018/03/29 18:59:54","新北市板橋區文化路二段182巷17號","121.472256666667","25.0266816666667","6500100","板橋區"
"220056","276-BY","2018/03/29 18:59:42","新北市板橋區信義路148號","121.458691666667","24.9917","6500100","板橋區"
"220072","277-BY","2018/03/29 18:59:50","新北市板橋區篤行路一段29號","121.43202","24.9945533333333","6500100","板橋區"
"220071","283-VK","2018/03/29 18:59:52","新北市板橋區重慶路235號","121.463103333333","25.0009383333333","6500100","板橋區"
"220094","285-UM","2018/03/29 18:59:47","新北市板橋區文化路二段76號","121.469551666667","25.0249966666667","6500100","板橋區"
"220053","285-VK","2018/03/29 18:59:41","新北市板橋區中山路二段157號","121.475648333333","25.0166683333333","6500100","板橋區"
"220083","286-VK","2018/03/29 18:59:49","新北市板橋區大觀路一段38巷156弄36號","121.442516666667","25.0054316666667","6500100","板橋區"
"220081","287-VK","2018/03/29 18:59:46","新北市板橋區光華街19巷8號","121.453645","25.012125","6500100","板橋區"
"220090","288-VK","2018/03/29 18:59:47","新北市板橋區四維路177巷1弄2號","121.464035","25.026205","6500100","板橋區"
"220061","293-UM","2018/03/29 18:59:44","新北市板橋區富山街109巷70號","121.475238333333","25.02135","6500100","板橋區"
"220084","296-UM","2018/03/29 18:59:34","新北市板橋區龍興街6號","121.442741666667","24.9995566666667","6500100","板橋區"
"220075","303-R5","2018/03/29 18:59:42","新北市板橋區福德街36號","121.456041666667","25.0083466666667","6500100","板橋區"
"220062","305-R5","2018/03/29 18:59:39","新北市板橋區三民路二段正隆巷4號","121.478486666667","25.01253","6500100","板橋區"
"220092","307-R5","2018/03/29 18:57:41","新北市板橋區觀光街79巷2號","121.469173333333","25.0170366666667","6500100","板橋區"
"220098","317-R6","2018/03/29 18:59:39","新北市板橋區民有街18號","121.466201666667","25.0249833333333","6500100","板橋區"
"220080","461-BY","2018/03/29 18:59:48","新北市板橋區大觀路二段265巷1弄12號","121.443471666667","24.99847","6500100","板橋區"
"220064","486-VK","2018/03/29 18:59:50","新北市板橋區漢生東路83巷2號","121.466865","25.0156983333333","6500100","板橋區"
"220088","491-VK","2018/03/29 18:59:43","新北市板橋區民生路二段232-13號","121.46869","25.02242","6500100","板橋區"
"220035","560-BX","2018/03/29 18:59:46","新北市板橋區中正路375巷42號","121.453698333333","25.0203833333333","6500100","板橋區"
"220103","561-BX","2018/03/29 18:59:52","新北市板橋區民生路二段121號","121.470735","25.0183116666667","6500100","板橋區"
"220055","568-UM","2018/03/29 18:59:45","新北市板橋區中山路一段158巷15號","121.466331666667","25.0114283333333","6500100","板橋區"
"220063","609-BX","2018/03/29 18:59:38","新北市板橋區中山路二段110號","121.4759","25.0166366666667","6500100","板橋區"
"220091","637-BX","2018/03/29 18:59:34","新北市板橋區雙十路二段47巷19號","121.475516666667","25.0257083333333","6500100","板橋區"
"220057","686-BX","2018/03/29 18:59:44","新北市板橋區重慶路105號","121.462253333333","25.0053983333333","6500100","板橋區"
"220077","687-BX","2018/03/29 18:59:49","新北市板橋區大觀路二段152號","121.44166","24.9986616666667","6500100","板橋區"
"220093","689-BX","2018/03/29 18:59:49","新北市板橋區民生路三段126號","121.466488333333","25.0268083333333","6500100","板橋區"
"220054","741-BX","2018/03/29 18:59:53","新北市板橋區成都街69號","121.46216","25.0049866666667","6500100","板橋區"
"220102","KEA-2699","2018/03/29 18:59:52","新北市板橋區懷德街233巷6號","121.480861666667","25.0285883333333","6500100","板橋區"
"220067","829-TW","2018/03/29 18:59:43","新北市板橋區三民路二段正隆巷12弄18號","121.477698333333","25.0135766666667","6500100","板橋區"
"220068","830-TW","2018/03/29 18:59:44","新北市板橋區中山路二段443巷76號","121.481076666667","25.0222483333333","6500100","板橋區"
"220096","831-TW","2018/03/29 18:59:35","新北市板橋區莒光路135號","121.473206666667","25.024005","6500100","板橋區"
"220089","833-TW","2018/03/29 18:59:42","新北市板橋區文化路二段315號","121.472115","25.02977","6500100","板橋區"
"220074","895-R6","2018/03/29 18:59:48","新北市板橋區府中路120號","121.455415","25.0095233333333","6500100","板橋區"
"220073","985-R7","2018/03/29 18:59:48","新北市板橋區民權路226號","121.458598333333","25.0143283333333","6500100","板橋區"
"220097","AAC-210","2018/03/29 18:59:54","新北市板橋區陽明街162號","121.46352","25.024475","6500100","板橋區"
"220070","AAC-253","2018/03/29 18:59:34","新北市板橋區四川路一段489號","121.457133333333","24.997165","6500100","板橋區"
