"lineid","car","time","location","longitude","latitude","cityid","cityname"
"234046","148-BY","2018/03/29 19:19:29","新北市永和區得和路361號","121.524628333333","24.9994583333333","6500400","永和區"
"234070","149-BY","2018/03/29 19:19:39","新北市永和區豫溪街45號","121.516918333333","25.0098716666667","6500400","永和區"
"234007","207-UY","2018/03/29 19:19:35","新北市永和區保生路1號","121.506703333333","25.0071733333333","6500400","永和區"
"234081","298-R6","2018/03/29 19:19:36","新北市永和區福和路7巷14弄2號","121.525475","25.0072533333333","6500400","永和區"
"234038","336-UY","2018/03/29 19:19:32","新北市永和區民樂街70號","121.527411666667","24.9984366666667","6500400","永和區"
"234064","337-UY","2018/03/29 19:19:40","新北市永和區永元路17巷6弄2號","121.521331666667","25.0006366666667","6500400","永和區"
"234086","338-UY","2018/03/29 19:19:31","新北市永和區永利路62號","121.519371666667","25.0050816666667","6500400","永和區"
"234017","745-BX","2018/03/29 19:19:33","新北市永和區文化路144巷31弄8號","121.512448333333","25.0167666666667","6500400","永和區"
"234030","746-BX","2018/03/29 19:19:32","新北市永和區厚德街79號","121.524425","24.9987916666667","6500400","永和區"
"234054","KEA-2590","2018/03/29 19:19:28","新北市永和區中興街31號","121.516168333333","25.0118466666667","6500400","永和區"
"234013","KEA-2591","2018/03/29 19:19:45","新北市永和區信義路38號","121.51348","25.012315","6500400","永和區"
"234061","AAD-866","2018/03/29 19:19:28","新北市永和區秀朗路一段120號","121.517101666667","25.0036133333333","6500400","永和區"
"234042","862-TW","2018/03/29 19:19:33","新北市永和區保平路151巷6弄12號","121.509746666667","25.0050583333333","6500400","永和區"
"234050","863-TW","2018/03/29 19:19:28","新北市永和區保福路二段78號","121.510466666667","25.01332","6500400","永和區"
"234026","9371-KE","2018/03/29 19:19:31","新北市永和區安樂路144巷6號","121.514643333333","25.0000833333333","6500400","永和區"
"234011","9373-KE","2018/03/29 19:19:28","新北市永和區保福路二段23巷19號","121.510106666667","25.0111916666667","6500400","永和區"
"249001","173-UM","2018/03/29 19:19:40","新北市八里區中山路一段386號","121.41204","25.1585883333333","6502300","八里區"
"249003","593-UM","2018/03/29 19:19:30","新北市八里區中山路二段466巷5號","121.398745","25.1474916666667","6502300","八里區"
"248020","225-UY","2018/03/29 19:01:27","新北市五股區凌雲路三段57號","121.425326666667","25.12501","6501500","五股區"
"248012","247-BX","2018/03/29 19:19:40","新北市五股區中興路四段48巷16號","121.43862","25.083435","6501500","五股區"
"248010","272-BY","2018/03/29 19:19:28","新北市五股區水碓一路23號","121.430575","25.0712833333333","6501500","五股區"
"248004","677-BX","2018/03/29 19:19:36","新北市五股區五福路53-1號","121.432893333333","25.089675","6501500","五股區"
"248002","678-BX","2018/03/29 19:19:17","新北市五股區凌雲路一段158巷14號","121.447818333333","25.103395","6501500","五股區"
"234023","9380-KE","2018/03/29 19:19:28","新北市永和區竹林路109巷7號","121.520356666667","25.0119833333333","6500400","永和區"
"234077","969-R7","2018/03/29 19:19:37","新北市永和區民治街72巷8號","121.51805","24.99844","6500400","永和區"
"234074","AAC-211","2018/03/29 19:19:42","新北市永和區竹林路85號","121.519556666667","25.0123066666667","6500400","永和區"
"234067","AAC-212","2018/03/29 19:19:44","新北市永和區保平路50巷8弄14號","121.511616666667","25.0076966666667","6500400","永和區"
"234003","AAC-295","2018/03/29 19:19:41","新北市永和區永平路186-1號","121.510361666667","25.00926","6500400","永和區"
"244013","069-UM","2018/03/29 19:19:26","新北市林口區麗園一街2巷2號","121.375966666667","25.0715216666667","6501700","林口區"
"244023","483-VK","2018/03/29 19:19:27","新北市林口區文化三路二段6號","121.373033333333","25.0784416666667","6501700","林口區"
"244017","485-VK","2018/03/29 19:18:27","新北市林口區嘉寶里45號","121.33931","25.109745","6501700","林口區"
"244019","657-BX","2018/03/29 19:19:44","新北市林口區文化二路一段565號","121.37502","25.077265","6501700","林口區"
"244011","701-TV","2018/03/29 19:19:43","新北市林口區中山路622號","121.375093333333","25.0862216666667","6501700","林口區"
"243012","AAD-798","2018/03/29 19:19:34","新北市泰山區仁愛路100巷27號","121.433511666667","25.0551066666667","6501600","泰山區"
"243011","297-R6","2018/03/29 19:19:30","新北市泰山區中央路11巷5號","121.426393333333","25.042765","6501600","泰山區"
"243015","380-SR","2018/03/29 19:19:31","新北市泰山區公園路71號","121.426333333333","25.055435","6501600","泰山區"
"243014","421-VK","2018/03/29 19:19:40","新北市泰山區泰林路二段65號","121.435338333333","25.057975","6501600","泰山區"
"243010","KEA-2215","2018/03/29 19:19:38","新北市泰山區明志路一段494號","121.430295","25.0545766666667","6501600","泰山區"
"243009","KEA-2216","2018/03/29 19:19:36","新北市泰山區和平街13巷1號","121.434383333333","25.0647933333333","6501600","泰山區"
"243013","646-TV","2018/03/29 19:19:30","新北市泰山區明志路三段145巷8弄2號","121.425813333333","25.039665","6501600","泰山區"
"243016","680-BX","2018/03/29 19:19:44","新北市泰山區工專路55號","121.422736666667","25.0403083333333","6501600","泰山區"
"222003","436-BY","2018/03/29 19:19:35","新北市深坑區深南路204號","121.626631666667","25.0160433333333","6501800","深坑區"
"222002","659-BX","2018/03/29 19:19:46","新北市深坑區紅葉街10巷2號","121.633026666667","25.0117516666667","6501800","深坑區"
"231041","002-UM","2018/03/29 19:19:46","新北市新店區溪園路205號","121.527503333333","24.9850333333333","6500600","新店區"
"231059","046-UY","2018/03/29 19:19:45","新北市新店區安興路141號","121.51676","24.979","6500600","新店區"
"231061","047-UY","2018/03/29 19:19:32","新北市新店區安康路一段226-2號","121.523328333333","24.963645","6500600","新店區"
"231060","106-UY","2018/03/29 19:19:32","新北市新店區安康路二段105-1號","121.512773333333","24.96239","6500600","新店區"
"231051","107-UY","2018/03/29 19:19:33","新北市新店區中央路97號","121.531111666667","24.97508","6500600","新店區"
"231052","187-VK","2018/03/29 19:19:40","新北市新店區櫻花街210號","121.547968333333","24.9187833333333","6500600","新店區"
"231050","KEA-2219","2018/03/29 19:19:38","新北市新店區竹林路65號","121.553021666667","24.9512533333333","6500600","新店區"
"231046","278-BY","2018/03/29 19:19:40","新北市新店區華城路36巷1-1號","121.5285","24.95532","6500600","新店區"
"231054","AAD-862","2018/03/29 19:19:34","新北市新店區國校路47號","121.537978333333","24.9548233333333","6500600","新店區"
"231044","355-BY","2018/03/29 19:19:36","新北市新店區中興路三段324號","121.542036666667","24.986165","6500600","新店區"
"231058","3712-VJ","2018/03/29 19:19:36","新北市新店區光明街286巷2號","121.540575","24.9639533333333","6500600","新店區"
"231056","3713-VJ","2018/03/29 19:19:38","新北市新店區中央路151號","121.529348333333","24.972285","6500600","新店區"
"231065","512-UM","2018/03/29 19:19:37","新北市新店區安祥路110巷4號","121.474716666667","24.956855","6500600","新店區"
"231064","513-UM","2018/03/29 19:19:30","新北市新店區安忠路57巷26弄3號","121.513063333333","24.958775","6500600","新店區"
"231040","619-UM","2018/03/29 19:19:43","新北市新店區中華路62號","121.539271666667","24.968975","6500600","新店區"
"231042","641-BX","2018/03/29 19:19:43","新北市新店區中興路一段24號","121.538671666667","24.958465","6500600","新店區"
"231063","645-TV","2018/03/29 19:19:26","新北市新店區達觀路14巷7號","121.503343333333","24.9431016666667","6500600","新店區"
"231049","719-UM","2018/03/29 19:19:31","新北市新店區明德路66號","121.541541666667","24.9794983333333","6500600","新店區"
"231047","719-UY","2018/03/29 19:19:33","新北市新店區中興路二段27號","121.54609","24.969505","6500600","新店區"
"231062","720-UM","2018/03/29 19:19:34","新北市新店區莒光路97-3號","121.522275","24.9536366666667","6500600","新店區"
"231045","898-TW","2018/03/29 19:19:32","新北市新店區北宜路一段260號","121.545668333333","24.9527516666667","6500600","新店區"
"231043","899-TW","2018/03/29 19:19:36","新北市新店區北新路二段133號","121.542845","24.975495","6500600","新店區"
"231066","AKT-0513","2018/03/29 19:19:26","新北市新店區安康路三段207巷19號","121.48843","24.9507783333333","6500600","新店區"
"241009","060-VK","2018/03/29 19:19:43","新北市三重區溪尾街230巷42-1號","121.486153333333","25.0811433333333","6500200","三重區"
"241031","061-VK","2018/03/29 19:19:25","新北市三重區重新路四段101號","121.485846666667","25.0545683333333","6500200","三重區"
"241017","063-VK","2018/03/29 19:19:25","新北市三重區大同北路217號","121.491651666667","25.066","6500200","三重區"
"241022","267-UM","2018/03/29 19:19:29","新北市三重區中正北路58號","121.486911666667","25.0643566666667","6500200","三重區"
"241013","270-UM","2018/03/29 19:19:41","新北市三重區仁愛街82巷1號","121.495363333333","25.07358","6500200","三重區"
"241025","271-UM","2018/03/29 19:19:25","新北市三重區中正北路404號","121.475328333333","25.0703416666667","6500200","三重區"
"241007","398-BY","2018/03/29 19:19:41","新北市三重區慈愛街48號","121.485823333333","25.0790766666667","6500200","三重區"
"241035","462-BY","2018/03/29 19:19:44","新北市三重區信義西街138號","121.495426666667","25.06438","6500200","三重區"
"241020","478-VK","2018/03/29 19:19:42","新北市三重區後竹圍街130號","121.488148333333","25.0725016666667","6500200","三重區"
"241030","480-VK","2018/03/29 19:19:31","新北市三重區成功路41巷72號","121.49134","25.0532466666667","6500200","三重區"
"241006","AAD-863","2018/03/29 19:19:39","新北市三重區車路頭街167號","121.483576666667","25.0774566666667","6500200","三重區"
"241026","887-TS","2018/03/29 19:19:32","新北市三重區大同南路182號","121.496871666667","25.0570533333333","6500200","三重區"
"241029","942-UM","2018/03/29 19:19:35","新北市三重區集美街263號","121.49246","25.055725","6500200","三重區"
"235030","003-UY","2018/03/29 19:19:44","新北市中和區景新街2號","121.502601666667","24.9996916666667","6500300","中和區"
"235064","005-UY","2018/03/29 19:19:29","新北市中和區連城路12號","121.49893","25.0022683333333","6500300","中和區"
"235063","006-UY","2018/03/29 19:19:39","新北市中和區連城路249巷21弄1號","121.49398","24.99615","6500300","中和區"
"235056","096-UM","2018/03/29 19:19:37","新北市中和區新民街94巷18號","121.48142","25.0092933333333","6500300","中和區"
"235065","098-UM","2018/03/29 19:19:33","新北市中和區中山路二段2巷3弄7-1號","121.504591666667","25.0059066666667","6500300","中和區"
"235040","150-BY","2018/03/29 19:19:45","新北市中和區保健路50巷27號","121.509891666667","24.9962066666667","6500300","中和區"
"235058","151-BY","2018/03/29 19:19:46","新北市中和區連城路523巷13弄14號","121.481985","24.9937983333333","6500300","中和區"
"235055","183-VK","2018/03/29 19:19:44","新北市中和區德光路30號","121.470633333333","25.0042633333333","6500300","中和區"
"235038","185-VK","2018/03/29 19:19:46","新北市中和區景平路126巷2弄15號","121.51972","24.99236","6500300","中和區"
"235049","186-VK","2018/03/29 19:19:35","新北市中和區景新街267號","121.508871666667","24.9939166666667","6500300","中和區"
"235067","255-BX","2018/03/29 19:19:17","新北市中和區新生街150號","121.483538333333","25.0006283333333","6500300","中和區"
"235044","293-VK","2018/03/29 19:19:39","新北市中和區復興路300號","121.501508333333","24.9903116666667","6500300","中和區"
"235072","301-VK","2018/03/29 19:19:31","新北市中和區連城路263巷1號","121.492091666667","24.99656","6500300","中和區"
"235043","352-BY","2018/03/29 19:19:36","新北市中和區景平路404號","121.509086666667","24.9931283333333","6500300","中和區"
"235068","377-QA","2018/03/29 19:19:33","新北市中和區連勝街66號","121.497225","24.9969983333333","6500300","中和區"
"235061","378-QA","2018/03/29 19:19:38","新北市中和區員山路212號","121.481341666667","25.0008316666667","6500300","中和區"
"235071","269-TV","2018/03/29 19:19:44","新北市中和區中正路637巷52弄1號","121.485375","24.9937033333333","6500300","中和區"
"235050","4979-A6","2018/03/29 19:19:41","新北市中和區景安路208巷17號","121.503113333333","24.991435","6500300","中和區"
"235069","4980-A6","2018/03/29 19:19:30","新北市中和區中山路二段136巷23號","121.501425","25.0041883333333","6500300","中和區"
"235042","551-UM","2018/03/29 19:19:29","新北市中和區大勇街45巷1號","121.51797","24.9948816666667","6500300","中和區"
"235070","558-UM","2018/03/29 19:19:27","新北市中和區中山路二段237號","121.498141666667","25.002465","6500300","中和區"
"235045","565-BX","2018/03/29 19:19:28","新北市中和區景新街423巷35弄9號","121.514003333333","24.9900166666667","6500300","中和區"
"235054","640-BX","2018/03/29 19:19:34","新北市中和區國光街107巷2弄12號","121.4699","24.99976","6500300","中和區"
"235060","647-TV","2018/03/29 19:19:29","新北市中和區員山路318號","121.481336666667","25.0029066666667","6500300","中和區"
"235047","732-UM","2018/03/29 19:19:40","新北市中和區和平街56號","121.508615","24.99087","6500300","中和區"
"235046","733-UM","2018/03/29 19:19:45","新北市中和區忠孝街2巷11弄2號","121.510398333333","24.9820233333333","6500300","中和區"
"235057","801-TS","2018/03/29 19:19:41","新北市中和區員山路317號","121.481226666667","25.0004633333333","6500300","中和區"
"235041","802-TS","2018/03/29 19:19:31","新北市中和區景安路2號","121.50795","24.9991733333333","6500300","中和區"
"235052","805-TS","2018/03/29 19:19:34","新北市中和區興南路二段128巷1號","121.50392","24.9836916666667","6500300","中和區"
"235048","896-TW","2018/03/29 19:19:30","新北市中和區忠孝街79號","121.512163333333","24.9850833333333","6500300","中和區"
"235053","900-TW","2018/03/29 19:19:40","新北市中和區華安街19巷10號","121.467453333333","24.9977866666667","6500300","中和區"
"235051","157-BY","2018/03/29 19:19:33","新北市中和區興南路一段56巷5號","121.510408333333","24.9912166666667","6500300","中和區"
"235037","AAC-213","2018/03/29 19:19:36","新北市中和區秀朗路三段10巷37弄4號","121.52407","24.9958583333333","6500300","中和區"
"235059","AAC-215","2018/03/29 19:19:38","新北市中和區錦和路193號","121.490788333333","24.9907433333333","6500300","中和區"
"220065","072-UY","2018/03/29 19:19:31","新北市板橋區國泰街74號","121.467396666667","25.0065466666667","6500100","板橋區"
"220086","073-UY","2018/03/29 19:19:37","新北市板橋區中正路216巷32號","121.456998333333","25.0187633333333","6500100","板橋區"
"220069","AAD-861","2018/03/29 19:19:36","新北市板橋區華興街33-2號","121.458398333333","25.0046516666667","6500100","板橋區"
"226004","312-R5","2018/03/29 19:19:44","新北市平溪區靜安路三段392巷3號","121.784393333333","25.04955","6502400","平溪區"
"235039","251-BX","2018/03/29 19:19:43","新北市中和區景平路64巷18號","121.522406666667","24.9913116666667","6500300","中和區"
"228003","097-TW","2018/03/29 19:19:35","新北市貢寮區和美里和美街19-2號","121.912783333333","25.0826166666667","6502600","貢寮區"
"228001","212-TW","2018/03/29 19:19:43","新北市貢寮區真理里新港街10號","121.925525","25.0543783333333","6502600","貢寮區"
"228002","585-TW","2018/03/29 19:19:39","新北市貢寮區雙玉里田寮洋街21號","121.92685","25.02415","6502600","貢寮區"
"224006","676-BX","2018/03/29 19:19:35","新北市瑞芳區中山路238號","121.80009","25.1070966666667","6501200","瑞芳區"
"224008","285-BY","2018/03/29 19:19:38","新北市瑞芳區瑞芳街112巷1號","121.801428333333","25.1104633333333","6501200","瑞芳區"
"224005","271-BY","2018/03/29 19:19:29","新北市瑞芳區蛇子形路3-5號","121.824431666667","25.1037716666667","6501200","瑞芳區"
"227010","642-TC","2018/03/29 19:19:34","新北市雙溪區新基里新基北街40號","121.868546666667","25.0380533333333","6502500","雙溪區"
"227004","400-TW","2018/03/29 19:19:30","新北市雙溪區平林里梅竹蹊66-1號","121.86023","25.03582","6502500","雙溪區"
"253005","032-BX","2018/03/29 19:19:27","新北市石門區阿里荖41-1號","121.605835","25.28243","6502200","石門區"
"253006","295-VK","2018/03/29 19:19:31","新北市石門區楓林23-21號","121.537153333333","25.2918266666667","6502200","石門區"
"222001","KEA-2212","2018/03/29 19:19:31","新北市深坑區北深路二段103號","121.61744","25.0034233333333","6501800","深坑區"
"208002","KEA-2872","2018/03/29 19:19:27","新北市金山區中正路67號","121.633918333333","25.2217266666667","6502700","金山區"
"208003","665-BX","2018/03/29 19:19:27","新北市金山區中山路161號","121.638793333333","25.2204983333333","6502700","金山區"
"208001","761-BX","2018/03/29 19:19:40","新北市金山區慈護街23號","121.639541666667","25.2201016666667","6502700","金山區"
"251009","008-UM","2018/03/29 19:19:34","新北市淡水區大忠街5巷2號","121.443176666667","25.1763816666667","6501000","淡水區"
"251001","011-UM","2018/03/29 19:19:10","新北市淡水區自強路201巷49號","121.462038333333","25.1269116666667","6501000","淡水區"
"251013","179-VK","2018/03/29 19:19:30","新北市淡水區安子內12號","121.481551666667","25.2190583333333","6501000","淡水區"
"251014","180-VK","2018/03/29 19:19:35","新北市淡水區小中寮19-7號","121.484755","25.2296466666667","6501000","淡水區"
"251015","182-VK","2018/03/29 19:19:32","新北市淡水區南勢埔49號","121.484775","25.1812783333333","6501000","淡水區"
"251010","413-VK","2018/03/29 19:19:46","新北市淡水區沙崙路25巷16號","121.421006666667","25.182015","6501000","淡水區"
"251012","441-VK","2018/03/29 19:19:31","新北市淡水區崁頂75-2號","121.43584","25.203785","6501000","淡水區"
"251016","442-VK","2018/03/29 19:19:38","新北市淡水區淡金路三段350巷18號","121.450805","25.208365","6501000","淡水區"
"251005","443-VK","2018/03/29 19:19:37","新北市淡水區水源街一段27巷1號","121.443175","25.172525","6501000","淡水區"
"251006","561-UM","2018/03/29 19:19:39","新北市淡水區大信街33號","121.441975","25.1773316666667","6501000","淡水區"
"251007","577-R6","2018/03/29 19:19:28","新北市淡水區民生路117巷34號","121.464888333333","25.1396383333333","6501000","淡水區"
"251003","766-UM","2018/03/29 19:19:29","新北市淡水區中山北路一段33號","121.441576666667","25.17524","6501000","淡水區"
"207003","550-UM","2018/03/29 19:19:46","新北市萬里區大鵬里萬里加投79-3號","121.64734","25.2123583333333","6502800","萬里區"
"207004","225-TW","2018/03/29 19:19:28","新北市萬里區萬里里成功新村44號","121.687585","25.1747266666667","6502800","萬里區"
"252002","178-VK","2018/03/29 19:19:41","新北市三芝區淡金路二段18-1號","121.502693333333","25.2594816666667","6502100","三芝區"
"252001","292-VK","2018/03/29 19:19:42","新北市三芝區長勤街9巷11弄3號","121.50188","25.2546833333333","6502100","三芝區"
"237004","KEA-2597","2018/03/29 19:19:33","新北市三峽區有木205-1號","121.439048333333","24.8514716666667","6500900","三峽區"
"237007","153-BY","2018/03/29 19:19:32","新北市三峽區二鬮路75號","121.359708333333","24.9071416666667","6500900","三峽區"
"237009","210-TH","2018/03/29 19:19:41","新北市三峽區信義街2號","121.370806666667","24.936115","6500900","三峽區"
"237013","252-BX","2018/03/29 19:19:32","新北市三峽區光明路75巷19號","121.377295","24.9280516666667","6500900","三峽區"
"237012","275-BY","2018/03/29 19:19:41","新北市三峽區三樹路222巷236弄8-3號","121.391363333333","24.943015","6500900","三峽區"
"237008","302-VK","2018/03/29 19:19:37","新北市三峽區光明路106巷41號","121.375541666667","24.92691","6500900","三峽區"
"237014","433-BY","2018/03/29 19:19:27","新北市三峽區中山路277巷13號","121.36179","24.9369533333333","6500900","三峽區"
"237006","5529-G3","2018/03/29 19:19:35","新北市三峽區光明路100-6號","121.376216666667","24.9279816666667","6500900","三峽區"
"237010","706-TV","2018/03/29 19:19:46","新北市三峽區復興路235號","121.368325","24.9389233333333","6500900","三峽區"
"237005","AKY-6261","2018/03/29 19:19:33","新北市三峽區隆恩街250號","121.357333333333","24.9408466666667","6500900","三峽區"
"236070","105-UM","2018/03/29 19:19:35","新北市土城區學成路142號","121.448918333333","24.9895583333333","6501300","土城區"
"236078","166-UM","2018/03/29 19:19:33","新北市土城區龍泉路7號","121.409555","24.949355","6501300","土城區"
"236026","269-VK","2018/03/29 19:19:37","新北市土城區中正路67巷26號","121.444408333333","24.9765683333333","6501300","土城區"
"236014","270-VK","2018/03/29 19:19:44","新北市土城區學府路一段23巷21-2號","121.458248333333","24.9874883333333","6501300","土城區"
"236021","401-BY","2018/03/29 19:19:28","新北市土城區峰廷街3號","121.469083333333","24.9873383333333","6501300","土城區"
"236059","912-UM","2018/03/29 19:19:44","新北市土城區中央路三段59號","121.43887","24.9694916666667","6501300","土城區"
"236049","913-UM","2018/03/29 19:19:37","新北市土城區明德路一段398-1號","121.453671666667","24.9790966666667","6501300","土城區"
"242046","497-BY","2018/03/29 19:19:28","新北市新莊區環漢路四段2號","121.435375","25.0000216666667","6500500","新莊區"
"238015","755-BX","2018/03/29 19:19:25","新北市樹林區備內街1巷21號","121.413188333333","24.98676","6500700","樹林區"
"238023","601-UM","2018/03/29 19:19:28","新北市樹林區三興路87巷1-1號","121.393396666667","25.01292","6500700","樹林區"
"238019","599-UM","2018/03/29 19:19:41","新北市樹林區鎮前街349號","121.416431666667","24.9841583333333","6500700","樹林區"
"238018","571-TV","2018/03/29 19:19:44","新北市樹林區中華路185-2號","121.420325","24.9817233333333","6500700","樹林區"
"238024","5061-A6","2018/03/29 19:19:27","新北市樹林區福德街48-12號","121.398726666667","24.9747483333333","6500700","樹林區"
"238021","KEA-2217","2018/03/29 19:19:41","新北市樹林區柑園街二段386巷11號","121.367446666667","24.9493733333333","6500700","樹林區"
"238022","KEA-2213","2018/03/29 19:19:32","新北市樹林區東興街3號","121.409208333333","24.9802266666667","6500700","樹林區"
"238025","303-VK","2018/03/29 19:19:40","新北市樹林區中山路二段203號","121.40411","24.9772566666667","6500700","樹林區"
"238017","283-BY","2018/03/29 19:19:35","新北市樹林區光興街322號","121.407595","25.0055066666667","6500700","樹林區"
"238014","282-BY","2018/03/29 19:19:32","新北市樹林區中正路22-1號","121.427758333333","24.999425","6500700","樹林區"
"238020","268-VK","2018/03/29 19:19:43","新北市樹林區俊英街121巷3號","121.424161666667","25.0102416666667","6500700","樹林區"
"238026","172-UY","2018/03/29 19:19:34","新北市樹林區佳園路三段51號","121.387776666667","24.95349","6500700","樹林區"
"238016","169-UY","2018/03/29 19:19:45","新北市樹林區復興路466號","121.413396666667","24.9835883333333","6500700","樹林區"
"239007","AAC-297","2018/03/29 19:19:40","新北市鶯歌區西湖街53巷30-1號","121.341948333333","24.9610933333333","6500800","鶯歌區"
"239006","891-R6","2018/03/29 19:19:24","新北市鶯歌區鶯桃路91巷42弄2號","121.336958333333","24.9520566666667","6500800","鶯歌區"
"239008","527-UM","2018/03/29 19:19:43","新北市鶯歌區國際二路6巷18號","121.339073333333","24.9739","6500800","鶯歌區"
"239005","526-UM","2018/03/29 19:19:37","新北市鶯歌區中湖街41號","121.34921","24.9731483333333","6500800","鶯歌區"
"239001","417-VK","2018/03/29 19:19:39","新北市鶯歌區建國路586-1號","121.339493333333","24.95213","6500800","鶯歌區"
"239003","360-BY","2018/03/29 19:19:37","新北市鶯歌區尖山埔路二段19號","121.34276","24.9485566666667","6500800","鶯歌區"
"239004","193-VK","2018/03/29 19:19:47","新北市鶯歌區中正三路333號","121.328265","24.93526","6500800","鶯歌區"
"221008","489-VK","2018/03/29 19:19:46","新北市汐止區康寧街310號","121.626681666667","25.0673083333333","6501100","汐止區"
"221036","130-UY","2018/03/29 19:19:30","新北市汐止區康寧街901號","121.651703333333","25.0749133333333","6501100","汐止區"
"221015","131-UY","2018/03/29 19:19:35","新北市汐止區康寧街901號","121.651695","25.074935","6501100","汐止區"
"221010","269-BY","2018/03/29 19:19:34","新北市汐止區康寧街901號","121.651498333333","25.0750133333333","6501100","汐止區"
"221012","278-VK","2018/03/29 19:19:33","新北市汐止區汐萬路一段282號","121.65083","25.07413","6501100","汐止區"
"221023","279-VK","2018/03/29 19:19:44","新北市汐止區康寧街901號","121.650968333333","25.0752016666667","6501100","汐止區"
"221027","281-BY","2018/03/29 19:19:27","新北市汐止區汐萬路一段312號","121.650446666667","25.0751833333333","6501100","汐止區"
"221029","298-VK","2018/03/29 19:19:40","新北市汐止區康寧街901號","121.651586666667","25.0748783333333","6501100","汐止區"
"221031","353-TW","2018/03/29 19:19:29","新北市汐止區汐萬路一段256巷3號","121.653325","25.074635","6501100","汐止區"
"221025","623-UM","2018/03/29 19:19:39","新北市汐止區康寧街901號","121.65158","25.0749416666667","6501100","汐止區"
"221038","646-BX","2018/03/29 19:19:27","新北市汐止區康寧街901號","121.650763333333","25.0753683333333","6501100","汐止區"
"221033","647-BX","2018/03/29 19:19:44","新北市汐止區南勢街3號","121.627068333333","25.037395","6501100","汐止區"
"221002","707-TV","2018/03/29 19:19:42","新北市汐止區大同路一段312號","121.637188333333","25.0586883333333","6501100","汐止區"
"220079","145-BY","2018/03/29 19:19:49","新北市板橋區民權路202巷17弄13號","121.460185","25.0165683333333","6500100","板橋區"
"220106","KEA-2550","2018/03/29 19:19:37","新北市板橋區雙十路三段87號","121.470131666667","25.0325916666667","6500100","板橋區"
"220082","610-BX","2018/03/29 19:19:35","新北市板橋區金門街355-1號","121.428673333333","24.9849933333333","6500100","板橋區"
"220101","245-BX","2018/03/29 19:19:34","新北市板橋區雙十路二段52號","121.47552","25.0276866666667","6500100","板橋區"
"220056","276-BY","2018/03/29 19:19:42","新北市板橋區信義路85號","121.457351666667","24.9939983333333","6500100","板橋區"
"220072","277-BY","2018/03/29 19:19:30","新北市板橋區金門街339-2號","121.429303333333","24.98565","6500100","板橋區"
"220071","283-VK","2018/03/29 19:19:46","新北市板橋區大豐街103號","121.461383333333","25.0011983333333","6500100","板橋區"
"220094","285-UM","2018/03/29 19:19:27","新北市板橋區吳鳳路74號","121.467233333333","25.0309166666667","6500100","板橋區"
"220053","285-VK","2018/03/29 19:19:41","新北市板橋區富山街53巷23號","121.477611666667","25.0211766666667","6500100","板橋區"
"220083","286-VK","2018/03/29 19:19:42","新北市板橋區大觀路二段174巷166弄8號","121.442151666667","25.0031966666667","6500100","板橋區"
"220081","287-VK","2018/03/29 19:19:27","新北市板橋區南雅西路一段61號","121.453516666667","25.00543","6500100","板橋區"
"220090","288-VK","2018/03/29 19:19:27","新北市板橋區長江路一段106巷13弄35號","121.461376666667","25.0297766666667","6500100","板橋區"
"220061","293-UM","2018/03/29 19:19:44","新北市板橋區中山路二段318巷20弄23號","121.48101","25.0188333333333","6500100","板橋區"
"220084","296-UM","2018/03/29 19:19:35","新北市板橋區滿平街136巷2弄24號","121.428045","24.9882733333333","6500100","板橋區"
"220075","303-R5","2018/03/29 19:19:42","新北市板橋區中正路275巷50號","121.453695","25.01821","6500100","板橋區"
"220062","305-R5","2018/03/29 19:19:39","新北市板橋區三民路二段153巷30弄33號","121.481013333333","25.0147","6500100","板橋區"
"220092","307-R5","2018/03/29 19:19:41","新北市板橋區光武街48巷49號","121.468396666667","25.0271566666667","6500100","板橋區"
"220098","317-R6","2018/03/29 19:19:39","新北市板橋區民有街87號","121.464743333333","25.0275766666667","6500100","板橋區"
"220080","461-BY","2018/03/29 19:19:44","新北市板橋區大觀路二段21號","121.44698","25.0033033333333","6500100","板橋區"
"220064","486-VK","2018/03/29 19:19:30","新北市板橋區縣民大道二段1號","121.462328333333","25.011695","6500100","板橋區"
"220088","491-VK","2018/03/29 19:19:36","新北市板橋區雙十路二段4-5號","121.476986666667","25.0257483333333","6500100","板橋區"
"220035","560-BX","2018/03/29 19:19:26","新北市板橋區中正路431號","121.454186666667","25.0231833333333","6500100","板橋區"
"220103","561-BX","2018/03/29 19:19:32","新北市板橋區文化路一段188巷7弄14號","121.467578333333","25.0197133333333","6500100","板橋區"
"220055","568-UM","2018/03/29 19:19:41","新北市板橋區館前東路156巷17號","121.464288333333","25.0070216666667","6500100","板橋區"
"220063","609-BX","2018/03/29 19:19:38","新北市板橋區三民路二段67號","121.479333333333","25.01707","6500100","板橋區"
"220091","637-BX","2018/03/29 19:19:33","新北市板橋區大同街52號","121.478826666667","25.0275333333333","6500100","板橋區"
"220057","686-BX","2018/03/29 19:19:42","新北市中和區壽德街26號","121.46673","24.9943366666667","6500100","板橋區"
"220077","687-BX","2018/03/29 19:19:29","新北市板橋區僑中二街12巷2號","121.446765","25.010625","6500100","板橋區"
"220093","689-BX","2018/03/29 19:19:29","新北市板橋區漢生西路38號","121.463346666667","25.01836","6500100","板橋區"
"220054","741-BX","2018/03/29 19:19:33","新北市板橋區後埔街79號","121.46064","25.005435","6500100","板橋區"
"220102","KEA-2699","2018/03/29 19:19:34","新北市板橋區文聖街207-1號","121.479885","25.02642","6500100","板橋區"
"220067","829-TW","2018/03/29 19:19:23","新北市板橋區長安街138巷1弄56號","121.474021666667","25.0101916666667","6500100","板橋區"
"220068","830-TW","2018/03/29 19:19:42","新北市板橋區翠華街6巷69號","121.480933333333","25.02484","6500100","板橋區"
"220096","831-TW","2018/03/29 19:19:35","新北市板橋區大同街35巷12號","121.47764","25.0276633333333","6500100","板橋區"
"220089","833-TW","2018/03/29 19:19:42","新北市板橋區文化路一段413號","121.467663333333","25.0223683333333","6500100","板橋區"
"220074","895-R6","2018/03/29 19:19:37","新北市板橋區中正路1巷14號","121.455213333333","25.01165","6500100","板橋區"
"220073","985-R7","2018/03/29 19:19:30","新北市板橋區新生街66號","121.457793333333","25.0210083333333","6500100","板橋區"
"220097","AAC-210","2018/03/29 19:19:41","新北市板橋區幸福路62號","121.461096666667","25.0200983333333","6500100","板橋區"
"220070","AAC-253","2018/03/29 19:19:34","新北市板橋區四川路一段279號","121.459556666667","25.0019916666667","6500100","板橋區"
