"lineid","car","time","location","longitude","latitude","cityid","cityname"
"249004","303-UY","2018/03/29 20:49:45","新北市八里區中山路二段56巷1號","121.407251666667","25.1542533333333","6502300","八里區"
"234074","AAC-211","2018/03/29 20:49:42","新北市永和區環河東路二段20號","121.522315","25.0130733333333","6500400","永和區"
"222003","436-BY","2018/03/29 20:49:46","新北市深坑區文山路三段48-1號","121.609911666667","24.9985066666667","6501800","深坑區"
"222002","659-BX","2018/03/29 20:49:46","新北市深坑區北深路三段93巷75號","121.603231666667","25.00116","6501800","深坑區"
"231041","002-UM","2018/03/29 20:49:46","台北市文山區景文街146巷28號","121.532758333333","24.9913716666667","6500600","新店區"
"231059","046-UY","2018/03/29 20:49:45","新北市新店區僑信路108巷41號","121.499115","24.94631","6500600","新店區"
"231061","047-UY","2018/03/29 20:49:52","新北市新店區新和街116巷9號","121.521358333333","24.986105","6500600","新店區"
"231060","106-UY","2018/03/29 20:49:52","新北市新店區安康路三段738號","121.473946666667","24.9419616666667","6500600","新店區"
"231051","107-UY","2018/03/29 20:49:33","新北市新店區民生路156巷15號","121.528538333333","24.9811166666667","6500600","新店區"
"231052","187-VK","2018/03/29 20:49:47","新北市新店區新烏路一段193號","121.547633333333","24.9314816666667","6500600","新店區"
"231050","KEA-2219","2018/03/29 20:49:38","新北市新店區三民路20巷12號","121.537778333333","24.9709766666667","6500600","新店區"
"231057","256-BX","2018/03/29 20:49:35","新北市新店區永興路73-1號","121.544521666667","24.9364083333333","6500600","新店區"
"231054","AAD-862","2018/03/29 20:49:34","新北市新店區北新路一段96巷29號","121.543041666667","24.969075","6500600","新店區"
"231044","355-BY","2018/03/29 20:49:49","新北市新店區民族路190號","121.536426666667","24.9756266666667","6500600","新店區"
"231058","3712-VJ","2018/03/29 20:49:36","新北市新店區安和路三段4巷3號","121.520271666667","24.9808666666667","6500600","新店區"
"231056","3713-VJ","2018/03/29 20:49:38","新北市新店區溪園路401號","121.523855","24.97808","6500600","新店區"
"231065","512-UM","2018/03/29 20:49:37","新北市新店區安祥路69巷17號","121.482028333333","24.9612766666667","6500600","新店區"
"231064","513-UM","2018/03/29 20:49:50","新北市新店區安民街379巷2號","121.516103333333","24.9763783333333","6500600","新店區"
"231040","619-UM","2018/03/29 20:49:42","新北市新店區中正路276號","121.538841666667","24.9737016666667","6500600","新店區"
"231042","641-BX","2018/03/29 20:49:43","新北市新店區寶興路60巷4號","121.54987","24.9718983333333","6500600","新店區"
"231063","645-TV","2018/03/29 20:49:47","新北市新店區如意街11-1號","121.495013333333","24.9483466666667","6500600","新店區"
"231068","718-UY","2018/03/29 20:49:42","新北市新店區寶元路二段14巷1號","121.545893333333","24.9825316666667","6500600","新店區"
"231049","719-UM","2018/03/29 20:49:51","新北市新店區薏仁坑路23號","121.498006666667","24.95891","6500600","新店區"
"231047","719-UY","2018/03/29 20:49:33","新北市新店區寶元路二段1巷2號","121.550736666667","24.98406","6500600","新店區"
"231062","720-UM","2018/03/29 20:49:34","新北市新店區裕合街143號","121.489163333333","24.949045","6500600","新店區"
"231045","898-TW","2018/03/29 20:49:52","新北市新店區中興路一段152號","121.542503333333","24.96388","6500600","新店區"
"231043","899-TW","2018/03/29 20:49:36","新北市新店區建國路83號","121.540446666667","24.9762566666667","6500600","新店區"
"231066","AKT-0513","2018/03/29 20:49:46","新北市新店區安民街115巷28號","121.5152","24.9677483333333","6500600","新店區"
"241011","013-R5","2018/03/29 20:49:38","新北市三重區龍濱路231號","121.50165","25.0721083333333","6500200","三重區"
"241028","022-UY","2018/03/29 20:49:36","新北市三重區中正南路41巷1號","121.493726666667","25.0600033333333","6500200","三重區"
"241008","059-VK","2018/03/29 20:49:46","新北市三重區永福街72巷9號","121.479345","25.07678","6500200","三重區"
"241009","060-VK","2018/03/29 20:49:43","新北市三重區三和路四段388-2號","121.482088333333","25.0790383333333","6500200","三重區"
"241031","061-VK","2018/03/29 20:49:45","新北市三重區重陽路一段113巷2弄2號","121.487513333333","25.0599383333333","6500200","三重區"
"241015","062-VK","2018/03/29 20:49:35","新北市三重區自強路一段8號","121.498896666667","25.0683083333333","6500200","三重區"
"241017","063-VK","2018/03/29 20:49:45","新北市三重區民生街28號","121.49186","25.0671866666667","6500200","三重區"
"241024","065-VK","2018/03/29 20:49:46","新北市三重區國道路一段58巷15號","121.481333333333","25.0720333333333","6500200","三重區"
"241003","091-VK","2018/03/29 20:49:47","新北市三重區五華街141巷58號","121.493471666667","25.086735","6500200","三重區"
"241005","262-UM","2018/03/29 20:49:48","新北市三重區五華街141巷29號","121.492198333333","25.0855166666667","6500200","三重區"
"241016","265-UM","2018/03/29 20:49:49","新北市三重區自強路一段162號","121.495475","25.0662816666667","6500200","三重區"
"241022","267-UM","2018/03/29 20:49:29","新北市三重區中正北路20巷12號","121.487988333333","25.06247","6500200","三重區"
"241018","268-UM","2018/03/29 20:49:33","新北市三重區正義北路332號","121.494541666667","25.0708383333333","6500200","三重區"
"241013","270-UM","2018/03/29 20:49:41","新北市三重區仁賢街12-1號","121.495713333333","25.0748716666667","6500200","三重區"
"241025","271-UM","2018/03/29 20:49:45","新北市三重區貴陽街16號","121.484036666667","25.0617433333333","6500200","三重區"
"241007","398-BY","2018/03/29 20:49:41","新北市三重區慈愛街1號","121.484665","25.0784433333333","6500200","三重區"
"241035","462-BY","2018/03/29 20:49:44","新北市三重區雙園街1號","121.497806666667","25.068255","6500200","三重區"
"241004","475-VK","2018/03/29 20:49:43","新北市三重區分子尾街36-1號","121.489351666667","25.0808983333333","6500200","三重區"
"241020","478-VK","2018/03/29 20:49:42","新北市三重區忠孝路一段101號","121.489483333333","25.072145","6500200","三重區"
"241030","480-VK","2018/03/29 20:49:51","新北市三重區昌隆街26號","121.49202","25.0522083333333","6500200","三重區"
"241014","543-UM","2018/03/29 20:49:48","新北市三重區長壽街120巷79號","121.501876666667","25.0702866666667","6500200","三重區"
"241023","545-UM","2018/03/29 20:49:48","新北市三重區三民街146巷3弄1號","121.481735","25.0647066666667","6500200","三重區"
"241001","547-UM","2018/03/29 20:49:50","新北市三重區自強路三段80號","121.48711","25.0744283333333","6500200","三重區"
"241019","KEA-2593","2018/03/29 20:49:43","新北市三重區大智街188號","121.489723333333","25.07054","6500200","三重區"
"241026","887-TS","2018/03/29 20:49:32","新北市三重區和平街1號","121.500085","25.0622283333333","6500200","三重區"
"241012","941-UM","2018/03/29 20:49:45","新北市三重區仁信街29號","121.501208333333","25.0756016666667","6500200","三重區"
"241029","942-UM","2018/03/29 20:49:35","新北市三重區重安街14號","121.490251666667","25.0582033333333","6500200","三重區"
"235069","4980-A6","2018/03/29 20:49:37","新北市中和區新生街251號","121.483823333333","24.998645","6500300","中和區"
"235026","800-TS","2018/03/29 20:28:02","新北市中和區員山路36巷16-3號","121.48482","24.991835","6500300","中和區"
"247024","893-R6","2018/03/29 20:49:16","新北市蘆洲區長樂路118號","121.46204","25.090055","6501400","蘆洲區"
"247014","546-UM","2018/03/29 20:49:45","新北市蘆洲區三民路97號","121.473645","25.085115","6501400","蘆洲區"
"247022","500-BY","2018/03/29 20:49:46","新北市蘆洲區三民路120號","121.471356666667","25.08725","6501400","蘆洲區"
"247010","341-TH","2018/03/29 20:49:35","新北市蘆洲區三民路26巷31弄13號","121.476625","25.08345","6501400","蘆洲區"
"247012","339-TH","2018/03/29 20:49:38","新北市蘆洲區集賢路226號","121.482373333333","25.0866383333333","6501400","蘆洲區"
"247004","337-TH","2018/03/29 20:49:45","新北市蘆洲區長安街101號","121.461613333333","25.080825","6501400","蘆洲區"
"247006","336-TH","2018/03/29 20:49:35","新北市蘆洲區永安南路二段16巷8號","121.467755","25.07724","6501400","蘆洲區"
"247002","335-TH","2018/03/29 20:49:40","新北市蘆洲區長榮路309號","121.459965","25.086335","6501400","蘆洲區"
"247008","056-VK","2018/03/29 20:49:38","新北市三重區永安北路二段5巷2號","121.481711666667","25.0810866666667","6501400","蘆洲區"
"247018","053-VK","2018/03/29 20:49:48","新北市蘆洲區民族路336巷14號","121.477188333333","25.0908266666667","6501400","蘆洲區"
"247016","007-UY","2018/03/29 20:49:32","新北市蘆洲區中山二路191號","121.47083","25.0807383333333","6501400","蘆洲區"
"247020","001-UY","2018/03/29 20:49:47","新北市蘆洲區仁愛街64號","121.471528333333","25.093985","6501400","蘆洲區"
"222001","KEA-2212","2018/03/29 20:49:51","新北市深坑區北深路三段133號","121.60401","25.002545","6501800","深坑區"
"251001","011-UM","2018/03/29 20:49:51","新北市淡水區淡金路218號","121.460498333333","25.1671833333333","6501000","淡水區"
"251013","179-VK","2018/03/29 20:49:10","新北市淡水區行忠路98號","121.452195","25.1987583333333","6501000","淡水區"
"251014","180-VK","2018/03/29 20:49:34","新北市淡水區公埔子32-8號","121.461643333333","25.23236","6501000","淡水區"
"251010","413-VK","2018/03/29 20:49:46","新北市淡水區沙崙路126號","121.423531666667","25.1828733333333","6501000","淡水區"
"251012","441-VK","2018/03/29 20:49:51","新北市淡水區淡金路四段180號","121.451645","25.221205","6501000","淡水區"
"251016","442-VK","2018/03/29 20:49:38","新北市淡水區淡金路四段476號","121.45181","25.2238683333333","6501000","淡水區"
"251007","577-R6","2018/03/29 20:49:48","新北市淡水區鄧公路35巷1號","121.45174","25.1714983333333","6501000","淡水區"
"251011","650-BX","2018/03/29 20:49:48","新北市淡水區新民街一段13-1號","121.433116666667","25.1846316666667","6501000","淡水區"
"251002","672-BX","2018/03/29 20:49:38","新北市淡水區英專路26號","121.44557","25.1700866666667","6501000","淡水區"
"251003","766-UM","2018/03/29 20:49:49","新北市淡水區中山北路一段247巷118號","121.441506666667","25.1796116666667","6501000","淡水區"
"252002","178-VK","2018/03/29 20:49:41","新北市三芝區淡金路二段91號","121.504073333333","25.2608616666667","6502100","三芝區"
"242053","751-BX","2018/03/29 20:49:43","新北市新莊區龍安路537號","121.428018333333","25.01753","6500500","新莊區"
"242029","705-TV","2018/03/29 20:49:42","新北市新莊區幸福路3號","121.459428333333","25.0493983333333","6500500","新莊區"
"242042","566-BX","2018/03/29 20:49:32","新北市新莊區天祥街15巷6號","121.416871666667","25.027645","6500500","新莊區"
"242051","441-UM","2018/03/29 20:49:41","新北市新莊區民安西路90-2號","121.426953333333","25.0189633333333","6500500","新莊區"
"242036","415-TV","2018/03/29 20:49:36","新北市新莊區中正路449號","121.443121666667","25.0340833333333","6500500","新莊區"
"242023","362-BY","2018/03/29 20:49:37","新北市三重區光復路二段19號","121.472135","25.054365","6500500","新莊區"
"242039","133-UY","2018/03/29 20:49:41","新北市新莊區中正路459號","121.442421666667","25.0336833333333","6500500","新莊區"
"242048","172-VK","2018/03/29 20:49:50","新北市五股區中興路四段17號","121.440195","25.08164","6500500","新莊區"
"242002","349-TH","2018/03/29 20:49:35","新北市新莊區中港路五守新村37巷2號","121.45455","25.0389","6500500","新莊區"
"221036","130-UY","2018/03/29 20:49:50","新北市汐止區仁愛路321-1號","121.664433333333","25.067675","6501100","汐止區"
"221027","281-BY","2018/03/29 20:49:47","新北市汐止區水源路一段7號","121.657338333333","25.0669866666667","6501100","汐止區"
"221029","298-VK","2018/03/29 20:49:40","新北市汐止區汐萬路一段256巷3號","121.653048333333","25.0743483333333","6501100","汐止區"
"221035","622-UM","2018/03/29 20:46:58","新北市汐止區長江街15號","121.654946666667","25.0711633333333","6501100","汐止區"
"221038","646-BX","2018/03/29 20:49:47","新北市汐止區汐萬路一段256巷1號","121.652038333333","25.07474","6501100","汐止區"
"221033","647-BX","2018/03/29 20:49:44","台北市南港區合順街8巷7弄38號","121.620161666667","25.0419216666667","6501100","汐止區"
"221018","753-BX","2018/03/29 20:49:44","新北市汐止區汐萬路一段124號","121.65379","25.07119","6501100","汐止區"
"220084","296-UM","2018/03/29 20:49:34","新北市八里區中山路三段409號","121.36838","25.1346283333333","6500100","板橋區"
"242009","281-VK","2018/03/29 20:49:34","新北市新莊區昌盛街36號","121.454296666667","25.0498366666667","6500500","新莊區"
"220064","486-VK","2018/03/29 20:49:49","新北市林口區太平里180號","121.366473333333","25.1345783333333","6500100","板橋區"
"220103","561-BX","2018/03/29 20:49:32","新北市板橋區漢生東路63巷1號","121.465858333333","25.0163633333333","6500100","板橋區"
"220067","829-TW","2018/03/29 20:49:43","新北市林口區太平里180號","121.36675","25.1339766666667","6500100","板橋區"
"220070","AAC-253","2018/03/29 20:49:33","新北市林口區汕頭32號","121.366513333333","25.1350316666667","6500100","板橋區"
