"lineid","car","time","location","longitude","latitude","cityid","cityname"
"249004","303-UY","2018/03/29 21:09:45","新北市八里區中山路三段409號","121.368436666667","25.134965","6502300","八里區"
"244009","410-SL","2018/03/29 20:56:26","新北市林口區粉寮路二段160巷28號","121.405143333333","25.090815","6501700","林口區"
"231059","046-UY","2018/03/29 21:09:45","新北市新店區僑義路1-4號","121.50003","24.9522066666667","6500600","新店區"
"231061","047-UY","2018/03/29 21:09:32","新北市新店區永平街8號","121.517378333333","24.9836666666667","6500600","新店區"
"231060","106-UY","2018/03/29 21:09:32","新北市新店區安康路二段343號","121.49613","24.955035","6500600","新店區"
"231051","107-UY","2018/03/29 21:09:33","新北市新店區中正路680巷35號","121.534668333333","24.9895216666667","6500600","新店區"
"231050","KEA-2219","2018/03/29 21:09:38","新北市新店區中華路147號","121.538306666667","24.9703916666667","6500600","新店區"
"231054","AAD-862","2018/03/29 21:09:34","新北市新店區大新街7巷10號","121.543598333333","24.9682366666667","6500600","新店區"
"231067","4772-VM","2018/03/29 21:09:50","新北市新店區薏仁坑路自強巷1號","121.497568333333","24.9573783333333","6500600","新店區"
"231065","512-UM","2018/03/29 21:09:37","新北市新店區安祥路65號","121.483881666667","24.960245","6500600","新店區"
"231040","619-UM","2018/03/29 21:09:42","新北市新店區北新路一段353號","121.541985","24.9696166666667","6500600","新店區"
"231063","645-TV","2018/03/29 21:09:46","新北市新店區玫瑰路58巷1號","121.495405","24.946555","6500600","新店區"
"231047","719-UY","2018/03/29 21:09:33","新北市新店區寶強路9號","121.54304","24.9791933333333","6500600","新店區"
"241011","013-R5","2018/03/29 21:09:38","新北市三重區龍濱路120-3號","121.5019","25.0712083333333","6500200","三重區"
"241028","022-UY","2018/03/29 21:09:36","新北市三重區正義南路53號","121.498218333333","25.06064","6500200","三重區"
"241008","059-VK","2018/03/29 21:09:46","新北市三重區自強路一段60號","121.497305","25.066815","6500200","三重區"
"241009","060-VK","2018/03/29 21:09:43","新北市三重區忠孝路二段122號","121.483011666667","25.068795","6500200","三重區"
"241031","061-VK","2018/03/29 21:09:45","新北市三重區重新路五段422-1號","121.475356666667","25.0475516666667","6500200","三重區"
"241015","062-VK","2018/03/29 21:09:52","新北市三重區長元街100-6號","121.503093333333","25.0668016666667","6500200","三重區"
"241017","063-VK","2018/03/29 21:09:45","新北市三重區國隆路31號","121.492325","25.0644616666667","6500200","三重區"
"241024","065-VK","2018/03/29 21:09:46","新北市三重區大勇街82巷15弄30號","121.481228333333","25.0718716666667","6500200","三重區"
"241003","091-VK","2018/03/29 21:09:47","新北市三重區仁義街228巷1號","121.494851666667","25.084915","6500200","三重區"
"241005","262-UM","2018/03/29 21:09:48","新北市三重區三信路11號","121.48819","25.086055","6500200","三重區"
"241016","265-UM","2018/03/29 21:09:41","新北市三重區大智街12號","121.495365","25.064515","6500200","三重區"
"241022","267-UM","2018/03/29 21:09:49","新北市三重區中正北路64巷24號","121.486095","25.06365","6500200","三重區"
"241018","268-UM","2018/03/29 21:09:33","新北市三重區正義北路340號","121.494306666667","25.0706316666667","6500200","三重區"
"241032","269-UM","2018/03/29 21:09:50","新北市三重區光復路二段178-8號","121.471001666667","25.061545","6500200","三重區"
"241013","270-UM","2018/03/29 21:09:41","新北市三重區仁愛街141巷21號","121.496593333333","25.07576","6500200","三重區"
"241025","271-UM","2018/03/29 21:09:45","新北市三重區中正北路208巷10弄2號","121.482448333333","25.06703","6500200","三重區"
"241007","398-BY","2018/03/29 21:09:41","新北市三重區三和路四段145巷81號","121.486358333333","25.0787633333333","6500200","三重區"
"241004","475-VK","2018/03/29 21:09:43","新北市三重區仁愛街423-1號","121.490398333333","25.081475","6500200","三重區"
"241020","478-VK","2018/03/29 21:09:42","新北市三重區忠孝路二段35號","121.485865","25.0711","6500200","三重區"
"241030","480-VK","2018/03/29 21:09:51","新北市三重區五谷王北街20巷15弄1號","121.475066666667","25.0485183333333","6500200","三重區"
"241014","543-UM","2018/03/29 21:09:48","新北市三重區三和路二段37-9號","121.501306666667","25.0677233333333","6500200","三重區"
"241023","545-UM","2018/03/29 21:09:48","新北市三重區忠孝路三段50巷41弄64號","121.482358333333","25.0637833333333","6500200","三重區"
"241001","547-UM","2018/03/29 21:09:50","新北市三重區福隆路10號","121.49016","25.0773516666667","6500200","三重區"
"241033","557-UM","2018/03/29 21:09:39","新北市三重區中興北街289號","121.469201666667","25.0624516666667","6500200","三重區"
"241019","KEA-2593","2018/03/29 21:09:43","新北市三重區自強路二段74巷19號","121.48804","25.06986","6500200","三重區"
"241006","AAD-863","2018/03/29 21:09:39","新北市三重區中正北路2-1號","121.48917","25.06318","6500200","三重區"
"241026","887-TS","2018/03/29 21:09:32","新北市三重區文化南路42號","121.500435","25.0601833333333","6500200","三重區"
"241012","941-UM","2018/03/29 21:09:45","新北市三重區河邊北街238-1號","121.50178","25.0756566666667","6500200","三重區"
"241029","942-UM","2018/03/29 21:09:35","新北市三重區正義南路107號","121.498198333333","25.0585833333333","6500200","三重區"
"247024","893-R6","2018/03/29 21:09:36","新北市蘆洲區長興路50巷1號","121.463781666667","25.0837983333333","6501400","蘆洲區"
"247014","546-UM","2018/03/29 21:09:45","新北市蘆洲區中央路155號","121.472626666667","25.08472","6501400","蘆洲區"
"247022","500-BY","2018/03/29 21:09:48","新北市蘆洲區民族路435號","121.467875","25.0890016666667","6501400","蘆洲區"
"247010","341-TH","2018/03/29 21:09:35","新北市蘆洲區鷺江街40號","121.477306666667","25.0830583333333","6501400","蘆洲區"
"247012","339-TH","2018/03/29 21:09:45","新北市蘆洲區民族路1號","121.475486666667","25.08387","6501400","蘆洲區"
"247004","337-TH","2018/03/29 21:09:45","新北市蘆洲區永安南路二段280號","121.457978333333","25.0809966666667","6501400","蘆洲區"
"247006","336-TH","2018/03/29 21:09:35","新北市蘆洲區永安南路二段16巷16號","121.467956666667","25.07776","6501400","蘆洲區"
"247002","335-TH","2018/03/29 21:09:40","新北市蘆洲區永樂街38巷42弄6號","121.45885","25.089965","6501400","蘆洲區"
"247008","056-VK","2018/03/29 21:09:38","新北市蘆洲區民生街45號","121.475015","25.0788166666667","6501400","蘆洲區"
"247018","053-VK","2018/03/29 21:09:38","新北市蘆洲區民族路384巷6號","121.475613333333","25.0914166666667","6501400","蘆洲區"
"247016","007-UY","2018/03/29 21:09:49","新北市蘆洲區中正路185巷84號","121.465703333333","25.083985","6501400","蘆洲區"
"247020","001-UY","2018/03/29 21:09:47","新北市蘆洲區民族路436巷9號","121.47281","25.0926833333333","6501400","蘆洲區"
"208002","KEA-2872","2018/03/29 20:52:27","新北市金山區磺港里磺港路309號","121.642656666667","25.2282383333333","6502700","金山區"
"251009","008-UM","2018/03/29 21:09:34","新北市淡水區民族路112巷57號","121.46202","25.1343283333333","6501000","淡水區"
"251004","009-UM","2018/03/29 21:09:22","新北市淡水區大同路111巷4號","121.46351","25.1410766666667","6501000","淡水區"
"251001","011-UM","2018/03/29 21:09:50","新北市淡水區新市一路三段101巷16弄3號","121.446525","25.183965","6501000","淡水區"
"251013","179-VK","2018/03/29 21:09:50","新北市淡水區行忠路328號","121.460441666667","25.1997166666667","6501000","淡水區"
"251014","180-VK","2018/03/29 21:09:34","新北市淡水區六塊厝1-1號","121.449513333333","25.2427416666667","6501000","淡水區"
"251015","182-VK","2018/03/29 21:09:34","新北市淡水區淡金路四段542巷60號","121.455016666667","25.226565","6501000","淡水區"
"251010","413-VK","2018/03/29 21:09:46","新北市淡水區中正路一段63巷11號","121.422495","25.1770083333333","6501000","淡水區"
"251012","441-VK","2018/03/29 21:09:31","新北市淡水區淡金路五段172號","121.457055","25.2400683333333","6501000","淡水區"
"251016","442-VK","2018/03/29 21:09:38","新北市淡水區前洲子2號","121.444721666667","25.2167833333333","6501000","淡水區"
"251005","443-VK","2018/03/29 21:09:48","新北市淡水區中正東路35巷28號","121.446871666667","25.1688716666667","6501000","淡水區"
"251011","650-BX","2018/03/29 21:09:48","新北市淡水區新民街120巷45弄24號","121.437748333333","25.17973","6501000","淡水區"
"251002","672-BX","2018/03/29 21:09:37","新北市淡水區學府路172巷21號","121.448265","25.17497","6501000","淡水區"
"251003","766-UM","2018/03/29 21:09:49","新北市淡水區新春街117號","121.44157","25.1818333333333","6501000","淡水區"
"242048","172-VK","2018/03/29 21:09:30","新北市八里區中山路三段409號","121.368676666667","25.1344666666667","6500500","新莊區"
"220084","296-UM","2018/03/29 21:09:34","新北市五股區新五路二段279號","121.442858333333","25.0862516666667","6500100","板橋區"
"220067","829-TW","2018/03/29 21:09:43","新北市八里區中華路三段7巷5號","121.397793333333","25.143495","6500100","板橋區"
"220070","AAC-253","2018/03/29 21:09:33","新北市八里區中山路三段409號","121.36879","25.1358116666667","6500100","板橋區"
