"lineid","car","time","location","longitude","latitude","cityid","cityname"
"231063","645-TV","2018/03/29 21:39:46","新北市新店區富貴街10巷1號","121.494143333333","24.9495783333333","6500600","新店區"
"241003","091-VK","2018/03/29 21:39:47","新北市五股區成泰路三段544-1號","121.454721666667","25.1005283333333","6500200","三重區"
"241005","262-UM","2018/03/29 21:39:48","新北市三重區仁華街6號","121.483341666667","25.0812066666667","6500200","三重區"
"247010","341-TH","2018/03/29 21:39:35","新北市五股區新五路三段260號","121.448153333333","25.09033","6501400","蘆洲區"
"251009","008-UM","2018/03/29 21:39:34","新北市淡水區民生路52巷22弄5號","121.462615","25.1374033333333","6501000","淡水區"
"251004","009-UM","2018/03/29 21:39:41","新北市淡水區民生路7號","121.460535","25.1379633333333","6501000","淡水區"
"251001","011-UM","2018/03/29 21:39:30","新北市淡水區崁頂二路250號","121.435521666667","25.1950383333333","6501000","淡水區"
"251014","180-VK","2018/03/29 21:39:34","新北市淡水區淡金路四段565號","121.451541666667","25.2303733333333","6501000","淡水區"
"251008","181-VK","2018/03/29 21:39:36","新北市淡水區水源街二段86號","121.451546666667","25.1742366666667","6501000","淡水區"
"251010","413-VK","2018/03/29 21:39:46","新北市淡水區沙崙路216巷54號","121.426241666667","25.18409","6501000","淡水區"
"251012","441-VK","2018/03/29 21:39:31","新北市淡水區淡金路552-1號","121.451711666667","25.227475","6501000","淡水區"
"251016","442-VK","2018/03/29 21:39:38","新北市淡水區淡金路三段36號","121.448006666667","25.1992316666667","6501000","淡水區"
"251005","443-VK","2018/03/29 21:39:48","新北市淡水區英專路101巷22號","121.445018333333","25.1721416666667","6501000","淡水區"
"251006","561-UM","2018/03/29 21:39:40","新北市淡水區中正路67號","121.440886666667","25.1692283333333","6501000","淡水區"
"251011","650-BX","2018/03/29 21:39:48","新北市淡水區新民街320號","121.435285","25.1833333333333","6501000","淡水區"
"251002","672-BX","2018/03/29 21:39:35","新北市淡水區學府路179號","121.446498333333","25.1745416666667","6501000","淡水區"
"251003","766-UM","2018/03/29 21:39:49","新北市淡水區新春街73號","121.438411666667","25.1820233333333","6501000","淡水區"
"220070","AAC-253","2018/03/29 21:39:33","新北市板橋區華東街1-9號","121.448108333333","24.9949066666667","6500100","板橋區"
