"lineid","car","time","location","longitude","latitude","cityid","cityname"
"235010","733-UM","2018/03/29 21:46:10","新北市中和區員山路36巷13號","121.484165","24.990775","6500300","中和區"
"247010","341-TH","2018/03/29 21:49:35","新北市八里區下罟子17號","121.380406666667","25.1434633333333","6501400","蘆洲區"
"251009","008-UM","2018/03/29 21:49:34","新北市淡水區民族路35巷23號","121.465045","25.1371183333333","6501000","淡水區"
"251004","009-UM","2018/03/29 21:49:01","新北市淡水區自強路201巷35號","121.462311666667","25.12676","6501000","淡水區"
"251001","011-UM","2018/03/29 21:49:30","新北市淡水區新市五路二段75號","121.432718333333","25.1986866666667","6501000","淡水區"
"251008","181-VK","2018/03/29 21:49:36","新北市淡水區水源街一段83巷149-15號","121.44862","25.1733366666667","6501000","淡水區"
"251010","413-VK","2018/03/29 21:49:26","新北市淡水區新民街一段117號","121.428088333333","25.1877516666667","6501000","淡水區"
"251012","441-VK","2018/03/29 21:49:31","新北市淡水區淡金路三段304號","121.448961666667","25.2077566666667","6501000","淡水區"
"251005","443-VK","2018/03/29 21:49:32","新北市淡水區鄧公路30巷22號","121.453335","25.1697116666667","6501000","淡水區"
"251006","561-UM","2018/03/29 21:49:40","新北市淡水區中正路11巷11號","121.437655","25.17075","6501000","淡水區"
"251007","577-R6","2018/03/29 21:49:24","新北市淡水區水源街二段177巷41弄1-1號","121.45295","25.1768216666667","6501000","淡水區"
"251011","650-BX","2018/03/29 21:49:28","新北市淡水區新民街322巷5弄3號","121.436421666667","25.18303","6501000","淡水區"
"251002","672-BX","2018/03/29 21:49:35","新北市淡水區大忠街159號","121.448226666667","25.1765466666667","6501000","淡水區"
"251003","766-UM","2018/03/29 21:49:29","新北市淡水區新春街88號","121.438798333333","25.1823133333333","6501000","淡水區"
"220070","AAC-253","2018/03/29 21:49:33","新北市板橋區華東街1-9號","121.448283333333","24.994865","6500100","板橋區"
