"lineid","car","time","location","longitude","latitude","cityid","cityname"
"247010","341-TH","2018/03/29 22:29:15","新北市五股區中興路三段2巷10號","121.448943333333","25.0811683333333","6501400","蘆洲區"
"247005","336-TH","2018/03/29 22:29:15","新北市五股區中興路三段163號","121.4491","25.08094","6501400","蘆洲區"
"251004","009-UM","2018/03/29 22:29:21","新北市淡水區民族路33號","121.462243333333","25.1357383333333","6501000","淡水區"
"251008","181-VK","2018/03/29 22:29:16","新北市淡水區學府路104號","121.449855","25.1717833333333","6501000","淡水區"
"251010","413-VK","2018/03/29 22:29:26","新北市淡水區沙崙路200號","121.424696666667","25.183905","6501000","淡水區"
"251007","577-R6","2018/03/29 22:29:24","新北市淡水區北新路180號","121.449366666667","25.1787433333333","6501000","淡水區"
"251011","650-BX","2018/03/29 22:29:28","新北市淡水區水碓街7號","121.443178333333","25.1771416666667","6501000","淡水區"
