"lineid","car","time","location","longitude","latitude","cityid","cityname"
"248005","653-BX","2018/10/29 08:09:15","新北市五股區明德路12巷16號","121.433266666667","25.0718966666667","6501500","五股區"
"232010","076-UY","2018/10/29 08:09:22","新北市坪林區厚德岡坑8-5號","121.73303","24.9408233333333","6502000","坪林區"
"232001","290-BY","2018/10/29 08:09:24","新北市坪林區坪雙路一段100號","121.729288333333","24.94804","6502000","坪林區"
"232012","291-BY","2018/10/29 08:09:23","新北市坪林區九芎根2-1號","121.668333333333","24.8881783333333","6502000","坪林區"
"232017","705-BZ","2018/10/29 08:09:14","新北市坪林區坪雙路二段145號","121.760491666667","24.9602233333333","6502000","坪林區"
"232005","758-BX","2018/10/29 08:09:31","新北市坪林區九芎林30號","121.70247","24.9218733333333","6502000","坪林區"
"244006","080-UY","2018/10/29 08:09:20","新北市林口區中華路96號","121.384768333333","25.0904316666667","6501700","林口區"
"244001","248-BX","2018/10/29 08:09:12","新北市林口區頂福10號","121.358708333333","25.08787","6501700","林口區"
"244012","KEA-2802","2018/10/29 08:09:09","新北市林口區粉寮路37-1號","121.400978333333","25.0848216666667","6501700","林口區"
"244016","485-VK","2018/10/29 08:09:25","新北市林口區粉寮路二段88巷7號","121.404948333333","25.08848","6501700","林口區"
"244010","701-TV","2018/10/29 08:09:26","新北市林口區仁愛路一段398號","121.387113333333","25.0767366666667","6501700","林口區"
"244024","837-TS","2018/10/29 08:09:14","新北市林口區文化一路二段159號","121.382648333333","25.0809283333333","6501700","林口區"
"244020","838-TS","2018/10/29 08:09:20","新北市林口區粉寮路二段160巷31號","121.405878333333","25.09101","6501700","林口區"
"222005","289-BY","2018/10/29 08:09:17","新北市深坑區深坑街3巷8號","121.616851666667","25.0022533333333","6501800","深坑區"
"231007","189-VK","2018/10/29 08:09:13","新北市新店區新潭路一段22巷2號","121.52306","24.9430566666667","6500600","新店區"
"231008","192-VK","2018/10/29 08:09:27","新北市新店區新烏路一段87巷9號","121.546303333333","24.94203","6500600","新店區"
"235001","611-BX","2018/10/29 08:09:15","新北市中和區圓通路367巷33弄72號","121.495491666667","24.9841833333333","6500300","中和區"
"235010","733-UM","2018/10/29 08:09:13","新北市中和區中興街126號","121.499526666667","24.9929683333333","6500300","中和區"
"226005","5620-A6","2018/10/29 08:09:17","新北市平溪區靜安路二段532號","121.746831666667","25.027385","6502400","平溪區"
"226001","7418-A5","2018/10/29 08:09:30","新北市平溪區十分里姜仔坑2號","121.766455","25.0352033333333","6502400","平溪區"
"226003","AGD-0702","2018/10/29 08:09:30","新北市平溪區十分里十分街302號","121.776171666667","25.0443983333333","6502400","平溪區"
"223006","022-BY","2018/10/29 08:09:14","新北市石碇區番子坑24-7號","121.67842","25.00388","6501900","石碇區"
"223002","KEA-2673","2018/10/29 08:09:15","新北市石碇區北宜路五段80號","121.646533333333","24.9517616666667","6501900","石碇區"
"223003","205-TH","2018/10/29 08:09:16","新北市石碇區小粗坑(格頭里)1號","121.653301666667","24.9542533333333","6501900","石碇區"
"223008","406-TH","2018/10/29 08:09:18","新北市石碇區靜安路一段266號","121.684063333333","25.00909","6501900","石碇區"
"223001","592-UM","2018/10/29 08:09:14","新北市石碇區小粗坑(格頭里)1號","121.653103333333","24.95413","6501900","石碇區"
"223004","660-BX","2018/10/29 08:09:11","新北市石碇區外按11-5號","121.6513","24.99939","6501900","石碇區"
"223007","661-BX","2018/10/29 08:09:13","新北市石碇區靜安路一段266號","121.68394","25.009065","6501900","石碇區"
"223005","677-TV","2018/10/29 08:08:29","新北市石碇區外按18-2號","121.651241666667","24.999445","6501900","石碇區"
"227005","282-VK","2018/10/29 08:09:19","新北市雙溪區上林里內平林120-2號","121.824416666667","25.0262316666667","6502500","雙溪區"
"252006","073-UM","2018/10/29 08:09:11","新北市三芝區海景二街23號","121.4726","25.2465133333333","6502100","三芝區"
"252004","249-BX","2018/10/29 08:09:25","新北市三芝區興華里車埕25號","121.501835","25.1958","6502100","三芝區"
"237001","159-UY","2018/10/29 08:09:22","新北市三峽區大學路86-1號","121.375626666667","24.9425116666667","6500900","三峽區"
"242035","AAC-296","2018/10/29 08:09:27","新北市新莊區建福路69巷48號","121.429005","25.02756","6500500","新莊區"
"242057","986-R7","2018/10/29 08:09:18","新北市新莊區中正路704-1號","121.417433333333","25.0258","6500500","新莊區"
"242055","751-BX","2018/10/29 08:09:24","新北市新莊區瓊林路20號","121.44924","25.03144","6500500","新莊區"
"242026","615-BX","2018/10/29 08:09:25","新北市新莊區福壽街101號","121.457948333333","25.0505166666667","6500500","新莊區"
"242028","612-BX","2018/10/29 08:09:12","新北市新莊區復興路一段125號","121.449681666667","25.0431383333333","6500500","新莊區"
"242043","566-BX","2018/10/29 08:09:22","新北市新莊區富國路12號","121.418281666667","25.02631","6500500","新莊區"
"242047","497-BY","2018/10/29 08:09:13","新北市新莊區萬安街101號","121.420903333333","25.0231216666667","6500500","新莊區"
"242033","442-UM","2018/10/29 08:09:20","新北市新莊區新莊路637號","121.445245","25.0328216666667","6500500","新莊區"
"242052","441-UM","2018/10/29 08:09:17","新北市樹林區樹新路120巷20號","121.430591666667","24.99675","6500500","新莊區"
"242038","415-TV","2018/10/29 08:09:28","新北市新莊區民安東路37號","121.428951666667","25.0209966666667","6500500","新莊區"
"242008","413-TV","2018/10/29 08:09:24","新北市新莊區昌明街14巷5弄1號","121.457301666667","25.0531833333333","6500500","新莊區"
"242045","400-BY","2018/10/29 08:09:30","新北市新莊區建國一路23號","121.434045","25.0314383333333","6500500","新莊區"
"242022","362-BY","2018/10/29 08:09:19","新北市新莊區民樂街59號","121.4579","25.0416933333333","6500500","新莊區"
"242059","353-BY","2018/10/29 08:09:28","新北市新莊區瓊林南路259號","121.434621666667","25.0077516666667","6500500","新莊區"
"242010","132-UY","2018/10/29 08:09:29","新北市新莊區中港路601號","121.451271666667","25.0530533333333","6500500","新莊區"
"242040","133-UY","2018/10/29 08:09:11","新北市泰山區漢口街32號","121.42597","25.035385","6500500","新莊區"
"242049","172-VK","2018/10/29 08:09:23","新北市新莊區西盛街311巷4號","121.428323333333","25.0151983333333","6500500","新莊區"
"242012","173-VK","2018/10/29 08:09:20","新北市新莊區中誠街116號","121.449423333333","25.0476666666667","6500500","新莊區"
"242018","175-VK","2018/10/29 08:09:23","新北市新莊區中港路263號","121.453665","25.0433416666667","6500500","新莊區"
"242006","176-VK","2018/10/29 08:09:16","新北市新莊區福樂街108巷38號","121.457958333333","25.0487283333333","6500500","新莊區"
"242001","233-RS","2018/10/29 08:09:28","新北市新莊區新泰路61號","121.449468333333","25.034065","6500500","新莊區"
"242016","346-TH","2018/10/29 08:09:16","新北市新莊區復興路一段149巷21弄15號","121.449458333333","25.0440416666667","6500500","新莊區"
"242014","347-TH","2018/10/29 08:09:14","新北市新莊區新泰路345號","121.444683333333","25.0420283333333","6500500","新莊區"
"242030","348-TH","2018/10/29 08:09:28","新北市新莊區新泰路361巷1號","121.443758333333","25.0431266666667","6500500","新莊區"
"242003","349-TH","2018/10/29 08:09:21","新北市新莊區自立街202號","121.456768333333","25.045655","6500500","新莊區"
"242020","350-TH","2018/10/29 08:09:14","新北市新莊區中華路一段230號","121.452583333333","25.0432133333333","6500500","新莊區"
"242001","281-VK","2018/10/29 08:09:21","新北市新莊區思明街2-3號","121.455531666667","25.0351766666667","6500500","新莊區"
