"lineid","car","time","location","longitude","latitude","cityid","cityname"
"248005","653-BX","2018/10/29 09:57:54","新北市五股區成泰路一段34巷1號","121.435246666667","25.0681616666667","6501500","五股區"
"244022","069-UM","2018/10/29 09:58:01","新北市林口區文林六街48號","121.371215","25.0816166666667","6501700","林口區"
"244018","403-UM","2018/10/29 09:57:45","新北市林口區麗園二街10-6號","121.378293333333","25.069225","6501700","林口區"
"244008","410-SL","2018/10/29 09:57:43","新北市林口區林口路49號","121.390138333333","25.0792916666667","6501700","林口區"
"244016","485-VK","2018/10/29 09:57:45","新北市林口區公園路59號","121.367963333333","25.069045","6501700","林口區"
"231007","189-VK","2018/10/29 09:57:52","新北市新店區新潭路三段215巷25號","121.508103333333","24.9041133333333","6500600","新店區"
"231008","192-VK","2018/10/29 09:57:02","新北市新店區小坑一路35巷1號","121.52916","24.9100483333333","6500600","新店區"
"235029","098-UM","2018/10/29 09:57:51","新北市中和區員山路36巷16-3號","121.485043333333","24.9912566666667","6500300","中和區"
"223006","022-BY","2018/10/29 09:57:33","新北市石碇區小粗坑(潭邊里)9-2號","121.678941666667","24.9856533333333","6501900","石碇區"
"223003","205-TH","2018/10/29 09:57:56","新北市石碇區石碇西街21號","121.658645","24.9878283333333","6501900","石碇區"
"223008","406-TH","2018/10/29 09:57:49","新北市石碇區小粗坑(潭邊里)9-2號","121.678901666667","24.9863833333333","6501900","石碇區"
"227005","282-VK","2018/10/29 09:40:59","新北市雙溪區泰平里溪尾寮2-2號","121.819478333333","24.963785","6502500","雙溪區"
"252004","249-BX","2018/10/29 09:57:45","新北市三芝區福德里埔尾36-1號","121.508938333333","25.237205","6502100","三芝區"
"252006","AAC-283","2018/10/29 09:57:49","新北市三芝區新庄里番社后47號","121.503956666667","25.2773916666667","6502100","三芝區"
"237001","159-UY","2018/10/29 09:58:02","新北市三峽區國際二街33-14號","121.372468333333","24.9432233333333","6500900","三峽區"
"242024","613-BX","2018/10/29 09:51:10","新北市新莊區瓊林路38-1號","121.448635","25.03091","6500500","新莊區"
"242059","353-BY","2018/10/29 09:57:59","新北市泰山區磚雅厝3號","121.44204","25.0417916666667","6500500","新莊區"
"242030","348-TH","2018/10/29 09:57:56","新北市新莊區三和路8-9號","121.440826666667","25.035925","6500500","新莊區"
"242003","349-TH","2018/10/29 09:58:01","新北市五股區凌雲路三段17-2號","121.429875","25.1085316666667","6500500","新莊區"
