"lineid","car","time","location","longitude","latitude","cityid","cityname"
"234044","148-BY","2018/10/29 12:57:58","新北市永和區得和路373巷31弄9號","121.524646666667","25.00069","6500400","永和區"
"234005","207-UY","2018/10/29 12:42:09","新北市永和區豫溪街217巷7號","121.525041666667","25.009965","6500400","永和區"
"234078","298-R6","2018/10/29 12:57:57","新北市永和區國中路150號","121.522691666667","25.0067933333333","6500400","永和區"
"234036","336-UY","2018/10/29 12:57:57","新北市永和區成功路二段207號","121.526581666667","24.9959633333333","6500400","永和區"
"234062","337-UY","2018/10/29 12:58:02","新北市永和區秀朗路一段136號","121.517845","25.003405","6500400","永和區"
"234084","338-UY","2018/10/29 12:57:58","新北市永和區中正路416號","121.51752","25.0020416666667","6500400","永和區"
"234068","552-UM","2018/10/29 12:57:54","新北市永和區中興街92號","121.518731666667","25.0120166666667","6500400","永和區"
"234015","745-BX","2018/10/29 12:57:55","新北市永和區永和路二段297號","121.516081666667","25.0160116666667","6500400","永和區"
"234028","746-BX","2018/10/29 12:58:00","新北市永和區秀朗路二段275號","121.52617","24.9985233333333","6500400","永和區"
"234052","KEA-2590","2018/10/29 12:57:52","新北市永和區竹林路66巷2-3號","121.518101666667","25.01374","6500400","永和區"
"234060","AAD-866","2018/10/29 12:57:55","新北市永和區福和路301號","121.516448333333","25.00715","6500400","永和區"
"234012","847-RS","2018/10/29 12:57:54","新北市永和區信義路17巷16號","121.513513333333","25.011455","6500400","永和區"
"234040","862-TW","2018/10/29 12:57:44","新北市永和區永貞路267號","121.511843333333","25.0046633333333","6500400","永和區"
"234048","863-TW","2018/10/29 12:57:54","新北市永和區文化路145號","121.510826666667","25.01615","6500400","永和區"
"234025","9371-KE","2018/10/29 12:58:05","新北市永和區永和路一段38號","121.513018333333","25.0053266666667","6500400","永和區"
"234010","9373-KE","2018/10/29 12:57:59","新北市永和區文化路113巷8弄3號","121.512936666667","25.0147183333333","6500400","永和區"
"248015","026-BX","2018/10/29 12:57:52","新北市五股區中興路三段192號","121.44249","25.081765","6501500","五股區"
"248005","077-UY","2018/10/29 12:57:47","新北市五股區中興路二段83巷26-6號","121.460086666667","25.075305","6501500","五股區"
"248007","095-VK","2018/10/29 12:57:53","新北市五股區中興路二段150號","121.4586","25.078565","6501500","五股區"
"248019","225-UY","2018/10/29 12:57:49","新北市五股區中興路二段83巷26-3號","121.46003","25.0753883333333","6501500","五股區"
"248013","261-SL","2018/10/29 12:57:54","新北市五股區中興路二段83巷26-3號","121.460131666667","25.0753","6501500","五股區"
"234022","9380-KE","2018/10/29 12:57:52","新北市永和區竹林路75巷33弄3號","121.520551666667","25.0143166666667","6500400","永和區"
"234076","969-R7","2018/10/29 12:58:06","新北市永和區民享街3號","121.515125","24.9955516666667","6500400","永和區"
"234066","AAC-212","2018/10/29 12:57:49","新北市永和區中和路625號","121.512916666667","25.0049766666667","6500400","永和區"
"234001","AAC-295","2018/10/29 12:58:01","新北市永和區永和路一段204號","121.514278333333","25.00932","6500400","永和區"
"232012","291-BY","2018/10/29 12:49:19","新北市坪林區水柳腳16號","121.710815","24.934925","6502000","坪林區"
"244001","248-BX","2018/10/29 12:57:50","新北市林口區嘉溪雅坑5-8號","121.345565","25.1001983333333","6501700","林口區"
"231027","0293-UT","2018/10/29 12:58:04","新北市新店區安華路28-1號","121.519491666667","24.960555","6500600","新店區"
"231028","046-UY","2018/10/29 12:58:04","新北市新店區安華路28-1號","121.519525","24.9608466666667","6500600","新店區"
"231001","047-UY","2018/10/29 12:57:58","新北市新店區安一路一段1-1號","121.51927","24.961315","6500600","新店區"
"231011","187-VK","2018/10/29 12:58:03","新北市新店區安一路一段1-1號","121.519523333333","24.9611683333333","6500600","新店區"
"231023","188-VK","2018/10/29 12:58:07","新北市新店區安一路一段1-1號","121.519295","24.9611666666667","6500600","新店區"
"231003","268-BY","2018/10/29 12:58:01","新北市新店區安一路一段1-1號","121.519766666667","24.9611383333333","6500600","新店區"
"231014","AAD-862","2018/10/29 12:57:56","新北市新店區安一路一段1-1號","121.519841666667","24.961145","6500600","新店區"
"231037","4716-K9","2018/10/29 12:57:51","新北市新店區安一路一段1-1號","121.519168333333","24.9610816666667","6500600","新店區"
"231036","512-UM","2018/10/29 12:57:58","新北市新店區安一路一段1-1號","121.519098333333","24.961005","6500600","新店區"
"231013","513-UM","2018/10/29 12:57:51","新北市新店區安一路一段1-1號","121.519648333333","24.9610933333333","6500600","新店區"
"231030","619-UM","2018/10/29 12:57:59","新北市新店區安華路28-1號","121.519501666667","24.96065","6500600","新店區"
"231034","641-BX","2018/10/29 12:57:57","新北市新店區安華路1-1號","121.519608333333","24.9604766666667","6500600","新店區"
"231035","719-UM","2018/10/29 12:58:02","新北市新店區安一路一段1-1號","121.519248333333","24.961345","6500600","新店區"
"231031","720-UM","2018/10/29 12:57:58","新北市新店區安一路一段1-1號","121.518995","24.961685","6500600","新店區"
"231029","897-TW","2018/10/29 12:57:57","新北市新店區安華路28-1號","121.519498333333","24.9606416666667","6500600","新店區"
"231024","AKT-0513","2018/10/29 12:57:51","新北市新店區安華路28-1號","121.519488333333","24.960775","6500600","新店區"
"235028","005-UY","2018/10/29 12:57:56","新北市中和區員山路36巷16-3號","121.485028333333","24.991295","6500300","中和區"
"235029","098-UM","2018/10/29 12:57:51","新北市中和區連城路184號","121.492971666667","24.996865","6500300","中和區"
"235022","151-BY","2018/10/29 12:57:57","新北市中和區錦和路350號","121.490815","24.9927533333333","6500300","中和區"
"235002","185-VK","2018/10/29 12:58:01","新北市中和區景平路1號","121.525613333333","24.9900433333333","6500300","中和區"
"235031","255-BX","2018/10/29 12:57:58","新北市中和區中山路二段570號","121.482996666667","25.0051483333333","6500300","中和區"
"235006","551-UM","2018/10/29 12:57:50","新北市中和區員山路36巷16-2號","121.485113333333","24.991975","6500300","中和區"
"235001","611-BX","2018/10/29 12:58:03","新北市中和區中山路三段136巷10弄10號","121.474405","25.00714","6500300","中和區"
"235018","640-BX","2018/10/29 12:58:04","新北市中和區員山路36巷16-3號","121.485015","24.99166","6500300","中和區"
"235035","783-BX","2018/10/29 12:58:03","新北市中和區連城路469-1號","121.483573333333","24.9957483333333","6500300","中和區"
"235016","805-TS","2018/10/29 12:57:52","新北市中和區員山路36巷16號","121.484451666667","24.991395","6500300","中和區"
"235015","157-BY","2018/10/29 12:57:59","新北市中和區員山路36巷16-3號","121.485066666667","24.9916466666667","6500300","中和區"
"235001","AAC-213","2018/10/29 12:58:01","新北市中和區中正路525號","121.48801","24.99371","6500300","中和區"
"207002","749-BX","2018/10/29 12:58:05","新北市萬里區雙興里大坪路32號","121.634855","25.16866","6502800","萬里區"
"252005","073-UM","2018/10/29 12:57:53","新北市三芝區忠孝街171號","121.50588","25.261035","6502100","三芝區"
"207001","662-BX","2018/10/29 12:58:01","新北市萬里區萬里里獅頭路23號","121.693148333333","25.178255","6502800","萬里區"
"242049","172-VK","2018/10/29 12:58:06","新北市新莊區中正路160號","121.451456666667","25.0362933333333","6500500","新莊區"
"221010","269-BY","2018/10/29 12:57:58","新北市汐止區忠一街8巷1號","121.621076666667","25.0729083333333","6501100","汐止區"
"221023","279-VK","2018/10/29 12:57:51","新北市汐止區福德一路236號","121.633801666667","25.0651966666667","6501100","汐止區"
"221033","647-BX","2018/10/29 12:57:49","新北市汐止區莊敬街9號","121.657391666667","25.061535","6501100","汐止區"
"220010","295-UM","2018/10/29 12:58:00","新北市板橋區民生路二段120號","121.470416666667","25.0197266666667","6500100","板橋區"
