"lineid","car","time","location","longitude","latitude","cityid","cityname"
"234044","148-BY","2018/10/29 13:57:18","新北市永和區林森路65號","121.524143333333","25.004045","6500400","永和區"
"234078","298-R6","2018/10/29 13:57:37","新北市永和區永利路73號","121.52123","25.0037516666667","6500400","永和區"
"234036","336-UY","2018/10/29 13:57:37","新北市永和區成功路二段179-1號","121.526613333333","24.9966166666667","6500400","永和區"
"234062","337-UY","2018/10/29 13:57:22","新北市永和區中正路368巷1弄45號","121.519178333333","25.0010433333333","6500400","永和區"
"234084","338-UY","2018/10/29 13:57:38","新北市永和區中正路511號","121.516918333333","25.007135","6500400","永和區"
"234068","552-UM","2018/10/29 13:57:34","新北市永和區國光路6號","121.51987","25.0084533333333","6500400","永和區"
"234015","745-BX","2018/10/29 13:57:30","新北市永和區文化路154號","121.512356666667","25.0153916666667","6500400","永和區"
"234028","746-BX","2018/10/29 13:57:33","新北市永和區民生路67巷33號","121.524583333333","24.9973816666667","6500400","永和區"
"234052","KEA-2590","2018/10/29 13:57:32","新北市永和區竹林路73-1號","121.51866","25.0133433333333","6500400","永和區"
"234060","AAD-866","2018/10/29 13:57:35","新北市永和區得和路76號","121.516443333333","25.0000716666667","6500400","永和區"
"234012","847-RS","2018/10/29 13:57:34","新北市永和區保安路292號","121.5051","25.0118066666667","6500400","永和區"
"234040","862-TW","2018/10/29 13:57:24","新北市永和區中和路389巷2-1號","121.508433333333","25.0004666666667","6500400","永和區"
"234048","863-TW","2018/10/29 13:57:34","新北市永和區保安路212-1號","121.507511666667","25.013725","6500400","永和區"
"234025","9371-KE","2018/10/29 13:57:25","新北市永和區中山路一段142號","121.509925","25.0097433333333","6500400","永和區"
"234010","9373-KE","2018/10/29 13:57:18","新北市永和區仁愛路352巷92弄20號","121.501458333333","25.0083383333333","6500400","永和區"
"248015","026-BX","2018/10/29 13:57:33","新北市五股區成泰路三段543巷24號","121.450796666667","25.1023466666667","6501500","五股區"
"248007","095-VK","2018/10/29 13:57:38","新北市五股區中興路一段126號","121.465593333333","25.0737016666667","6501500","五股區"
"248019","225-UY","2018/10/29 13:57:29","新北市五股區凌雲路三段71-5號","121.424431666667","25.1245483333333","6501500","五股區"
"248011","247-BX","2018/10/29 13:57:28","新北市五股區成泰路二段195巷1號","121.440358333333","25.0873683333333","6501500","五股區"
"248009","272-BY","2018/10/29 13:57:35","新北市五股區水碓一路23號","121.430631666667","25.0713166666667","6501500","五股區"
"248003","677-BX","2018/10/29 13:57:19","新北市五股區民義路二段50-1號","121.41192","25.1029883333333","6501500","五股區"
"248001","678-BX","2018/10/29 13:57:18","新北市五股區凌雲路一段137號","121.449483333333","25.1022","6501500","五股區"
"234022","9380-KE","2018/10/29 13:57:32","新北市永和區復興街60號","121.51659","25.0132883333333","6500400","永和區"
"234076","969-R7","2018/10/29 13:57:26","新北市永和區民治街29號","121.519736666667","24.9977233333333","6500400","永和區"
"234072","AAC-211","2018/10/29 13:57:29","新北市永和區豫溪街185號","121.522506666667","25.010355","6500400","永和區"
"234066","AAC-212","2018/10/29 13:57:29","新北市永和區中山路一段275號","121.507056666667","25.0071783333333","6500400","永和區"
"234001","AAC-295","2018/10/29 13:57:21","新北市永和區福和路352號","121.514831666667","25.0073966666667","6500400","永和區"
"232012","291-BY","2018/10/29 13:57:33","新北市樹林區中山路三段210-2號","121.380498333333","24.9679433333333","6502000","坪林區"
"243005","AAD-798","2018/10/29 13:28:05","新北市泰山區明志路三段206巷3號","121.423291666667","25.03796","6501600","泰山區"
"243008","KEA-2801","2018/10/29 13:57:29","新北市泰山區明志路二段137號","121.427705","25.050695","6501600","泰山區"
"243007","421-VK","2018/10/29 13:57:27","新北市泰山區泰林路二段302號","121.430796666667","25.0628183333333","6501600","泰山區"
"243004","539-UM","2018/10/29 13:57:24","新北市泰山區仁德路106號","121.432595","25.0568266666667","6501600","泰山區"
"243003","KEA-2215","2018/10/29 13:57:32","新北市泰山區明志路二段246-1號","121.427005","25.0480816666667","6501600","泰山區"
"243002","KEA-2216","2018/10/29 13:57:34","新北市泰山區辭修路24號","121.429063333333","25.0581816666667","6501600","泰山區"
"243006","680-BX","2018/10/29 13:57:39","新北市泰山區黎明路23號","121.420925","25.0626466666667","6501600","泰山區"
"231002","002-UM","2018/10/29 13:57:18","新北市新店區環河路550號","121.52697","24.9844966666667","6500600","新店區"
"231027","0293-UT","2018/10/29 13:57:24","新北市新店區中興路一段24號","121.538711666667","24.9584333333333","6500600","新店區"
"231028","046-UY","2018/10/29 13:57:24","新北市新店區安和路三段46號","121.518013333333","24.98182","6500600","新店區"
"231001","047-UY","2018/10/29 13:57:38","新北市新店區三民路24號","121.537046666667","24.97103","6500600","新店區"
"231019","108-UY","2018/10/29 13:57:36","新北市新店區湖子內路22號","121.542335","24.9308216666667","6500600","新店區"
"231010","110-UY","2018/10/29 13:57:26","新北市新店區安康路一段111-1號","121.52866","24.96175","6500600","新店區"
"231011","187-VK","2018/10/29 13:57:23","新北市新店區德正街29號","121.544648333333","24.971305","6500600","新店區"
"231023","188-VK","2018/10/29 13:57:27","新北市新店區文中路51號","121.539785","24.95664","6500600","新店區"
"231026","256-BX","2018/10/29 13:57:35","新北市新店區環河路22-1號","121.536943333333","24.9619383333333","6500600","新店區"
"231003","268-BY","2018/10/29 13:57:21","新北市新店區中興路一段110-1號","121.541291666667","24.9623033333333","6500600","新店區"
"231018","278-BY","2018/10/29 13:57:25","新北市新店區中央路192號","121.530863333333","24.974745","6500600","新店區"
"231014","AAD-862","2018/10/29 13:57:16","新北市新店區郵政路81號","121.555303333333","24.95162","6500600","新店區"
"231006","355-BY","2018/10/29 13:57:20","新北市新店區北宜路二段209號","121.553176666667","24.95341","6500600","新店區"
"231038","3712-VJ","2018/10/29 13:57:31","新北市新店區安華路30巷1號","121.51957","24.9592766666667","6500600","新店區"
"231037","4716-K9","2018/10/29 13:57:32","新北市新店區安康路三段466-2號","121.484058333333","24.9508783333333","6500600","新店區"
"231025","4715-K9","2018/10/29 13:57:22","新北市新店區中正路328巷24號","121.537623333333","24.9758233333333","6500600","新店區"
"231036","512-UM","2018/10/29 13:57:18","新北市新店區安祥路108巷51號","121.474446666667","24.957195","6500600","新店區"
"231013","513-UM","2018/10/29 13:57:31","新北市新店區明德路64號","121.541573333333","24.97944","6500600","新店區"
"231005","618-UM","2018/10/29 13:57:33","新北市新店區中興路三段200號","121.543886666667","24.9818966666667","6500600","新店區"
"231030","619-UM","2018/10/29 13:57:19","新北市新店區安康路一段228號","121.52326","24.9636516666667","6500600","新店區"
"231034","641-BX","2018/10/29 13:57:37","新北市新店區達觀路16-7號","121.502353333333","24.940645","6500600","新店區"
"231035","719-UM","2018/10/29 13:57:22","新北市新店區安忠路57巷1-2號","121.513321666667","24.9596933333333","6500600","新店區"
"231031","720-UM","2018/10/29 13:57:38","新北市新店區莒光路44巷21弄11-3號","121.51848","24.9521783333333","6500600","新店區"
"231029","897-TW","2018/10/29 13:57:17","新北市新店區安康路二段128號","121.512691666667","24.9624016666667","6500600","新店區"
"231004","899-TW","2018/10/29 13:57:34","新北市新店區寶橋路15號","121.543796666667","24.9738516666667","6500600","新店區"
"231024","AKT-0513","2018/10/29 13:57:31","新北市新店區新生街10巷5號","121.540405","24.9663433333333","6500600","新店區"
"235030","003-UY","2018/10/29 13:57:21","新北市中和區中山路二段131巷4號","121.502728333333","25.002575","6500300","中和區"
"235028","005-UY","2018/10/29 13:57:36","新北市中和區連城路47巷1號","121.498348333333","25.0016183333333","6500300","中和區"
"235027","006-UY","2018/10/29 13:57:35","新北市中和區中正路552號","121.486965","24.9945383333333","6500300","中和區"
"235020","096-UM","2018/10/29 13:57:25","新北市中和區中正路1206巷10號","121.480251666667","25.0111366666667","6500300","中和區"
"235003","097-UM","2018/10/29 13:57:23","新北市中和區秀朗路三段128巷1弄15號","121.523708333333","24.99159","6500300","中和區"
"235029","098-UM","2018/10/29 13:57:30","新北市中和區福祥路127號","121.49869","25.0070233333333","6500300","中和區"
"235004","150-BY","2018/10/29 13:57:10","新北市中和區保健路50巷9號","121.510108333333","24.9964683333333","6500300","中和區"
"235022","151-BY","2018/10/29 13:57:37","新北市中和區員山路128-1號","121.481175","24.9961683333333","6500300","中和區"
"235019","183-VK","2018/10/29 13:57:39","新北市中和區中山路三段208號","121.471555","25.00653","6500300","中和區"
"235002","185-VK","2018/10/29 13:57:21","新北市中和區立人街24-5號","121.518843333333","24.9941583333333","6500300","中和區"
"235013","186-VK","2018/10/29 13:57:31","新北市中和區景新街183號","121.507213333333","24.9953416666667","6500300","中和區"
"235031","255-BX","2018/10/29 13:57:18","新北市中和區新生街264號","121.483598333333","24.9972366666667","6500300","中和區"
"235008","293-VK","2018/10/29 13:57:29","新北市中和區復興路280巷33弄15號","121.501503333333","24.9909566666667","6500300","中和區"
"235036","301-VK","2018/10/29 13:57:33","新北市中和區中山路二段4號","121.505285","25.0058083333333","6500300","中和區"
"235007","352-BY","2018/10/29 13:57:27","新北市中和區秀朗路三段93號","121.526648333333","24.9953766666667","6500300","中和區"
"247011","KEA-2869","2018/10/29 13:57:35","新北市蘆洲區中興街30號","121.480863333333","25.0869316666667","6501400","蘆洲區"
"235014","4979-A6","2018/10/29 13:57:31","新北市中和區忠孝街58巷5號","121.512028333333","24.9833933333333","6500300","中和區"
"235033","4980-A6","2018/10/29 13:57:21","新北市中和區景平路618巷7號","121.500953333333","24.9972116666667","6500300","中和區"
"235006","551-UM","2018/10/29 13:57:29","新北市中和區秀朗路三段50巷2弄8號","121.526135","24.9959283333333","6500300","中和區"
"235034","558-UM","2018/10/29 13:57:25","新北市中和區安和路159號","121.506173333333","24.997405","6500300","中和區"
"235009","565-BX","2018/10/29 13:57:28","新北市中和區景新街467巷20弄11號","121.514593333333","24.9875216666667","6500300","中和區"
"235018","640-BX","2018/10/29 13:57:24","新北市中和區民享街29號","121.474068333333","25.0043666666667","6500300","中和區"
"235024","647-TV","2018/10/29 13:57:34","新北市中和區民治街3巷1號","121.475023333333","25.0053616666667","6500300","中和區"
"235011","732-UM","2018/10/29 13:57:37","新北市中和區興南路二段34巷8號","121.506755","24.98576","6500300","中和區"
"235010","733-UM","2018/10/29 13:57:24","新北市中和區興南路一段89號","121.509841666667","24.9888083333333","6500300","中和區"
"235035","783-BX","2018/10/29 13:57:23","新北市中和區立德街98巷48號","121.488105","25.0091316666667","6500300","中和區"
"235026","800-TS","2018/10/29 13:57:36","新北市中和區橋安街18號","121.492816666667","25.004945","6500300","中和區"
"235021","801-TS","2018/10/29 13:57:22","新北市中和區民利街100巷4弄1號","121.477133333333","24.9983533333333","6500300","中和區"
"235005","802-TS","2018/10/29 13:57:36","新北市中和區中安街24號","121.513448333333","25.0029866666667","6500300","中和區"
"235016","805-TS","2018/10/29 13:57:32","新北市中和區興南路二段131-10號","121.504086666667","24.980805","6500300","中和區"
"235012","896-TW","2018/10/29 13:57:38","新北市中和區南山路539號","121.508021666667","24.9868416666667","6500300","中和區"
"235017","900-TW","2018/10/29 13:57:35","新北市中和區華順街135巷5號","121.465725","24.9962583333333","6500300","中和區"
"235015","157-BY","2018/10/29 13:57:19","新北市中和區忠孝街11巷1號","121.509836666667","24.98305","6500300","中和區"
"235001","AAC-213","2018/10/29 13:57:21","新北市中和區自立路99巷36弄2號","121.523886666667","24.99438","6500300","中和區"
"235023","AAC-215","2018/10/29 13:57:18","新北市中和區圓通路296巷3-1號","121.48782","24.9890333333333","6500300","中和區"
"220013","072-UY","2018/10/29 13:57:20","新北市板橋區漢生東路319號","121.471991666667","25.0080166666667","6500100","板橋區"
"220034","073-UY","2018/10/29 13:57:30","新北市板橋區中正路236巷17號","121.456691666667","25.01915","6500100","板橋區"
"220105","075-UY","2018/10/29 13:57:25","新北市板橋區文化路二段124巷28-2號","121.471331666667","25.0256833333333","6500100","板橋區"
"220017","AAD-861","2018/10/29 13:57:33","新北市板橋區四川路一段72號","121.459388333333","25.0053433333333","6500100","板橋區"
"247001","893-R6","2018/10/29 13:57:34","新北市蘆洲區三民路605號","121.460643333333","25.0937566666667","6501400","蘆洲區"
"247015","546-UM","2018/10/29 13:57:27","新北市蘆洲區光華路44號","121.468786666667","25.0830616666667","6501400","蘆洲區"
"247013","339-TH","2018/10/29 13:57:30","新北市蘆洲區中正路102號","121.469841666667","25.08428","6501400","蘆洲區"
"247005","337-TH","2018/10/29 13:57:29","新北市蘆洲區永安南路二段14號","121.467363333333","25.0770466666667","6501400","蘆洲區"
"247007","336-TH","2018/10/29 13:57:34","新北市蘆洲區重陽一街3號","121.481793333333","25.08153","6501400","蘆洲區"
"247019","057-VK","2018/10/29 13:57:35","新北市蘆洲區民族路422巷11號","121.474006666667","25.0924216666667","6501400","蘆洲區"
"247009","056-VK","2018/10/29 13:57:31","新北市蘆洲區中興街48號","121.481663333333","25.087185","6501400","蘆洲區"
"247003","002-UY","2018/10/29 13:57:34","新北市蘆洲區長榮路39號","121.463243333333","25.08261","6501400","蘆洲區"
"247021","001-UY","2018/10/29 13:57:29","新北市蘆洲區中正路263巷2號","121.467336666667","25.0874316666667","6501400","蘆洲區"
"253003","6232-TK","2018/10/29 13:57:32","新北市石門區尖子鹿15-1號","121.575803333333","25.2797566666667","6502200","石門區"
"253004","6251-TK","2018/10/29 13:57:33","新北市石門區草埔尾16號","121.602726666667","25.26345","6502200","石門區"
"253002","637-UY","2018/10/29 13:57:21","新北市石門區尖山湖13號","121.563256666667","25.2422","6502200","石門區"
"253001","KEC-0718","2018/10/29 13:57:19","新北市石門區下員坑49號","121.51837","25.2736016666667","6502200","石門區"
"207002","749-BX","2018/10/29 13:57:25","新北市萬里區溪底里烏塗炭9-2號","121.641195","25.1507366666667","6502800","萬里區"
"252005","073-UM","2018/10/29 13:57:33","新北市三芝區橫山里橫山56-6號","121.535301666667","25.24871","6502100","三芝區"
"207001","662-BX","2018/10/29 13:57:21","新北市萬里區磺潭里磺溪12-1號","121.632598333333","25.20255","6502800","萬里區"
"236064","105-UM","2018/10/29 13:57:29","新北市土城區城林路6巷80號","121.438395","24.98002","6501300","土城區"
"236074","166-UM","2018/10/29 13:57:23","新北市土城區永寧路35號","121.430095","24.9621066666667","6501300","土城區"
"236029","253-BX","2018/10/29 13:57:38","新北市土城區城林路6巷80號","121.438536666667","24.9797566666667","6501300","土城區"
"236024","269-VK","2018/10/29 13:57:21","新北市土城區中華路二段6號","121.439485","24.978975","6501300","土城區"
"236012","270-VK","2018/10/29 13:57:25","新北市土城區中央路二段280號","121.440816666667","24.9739933333333","6501300","土城區"
"236032","271-VK","2018/10/29 13:57:35","新北市土城區城林路6巷80號","121.438505","24.97979","6501300","土城區"
"236016","401-BY","2018/10/29 13:57:39","新北市土城區城林路6巷80號","121.438555","24.9797466666667","6501300","土城區"
"236040","752-BX","2018/10/29 13:57:31","新北市土城區城林路6巷80號","121.438718333333","24.9796866666667","6501300","土城區"
"236057","912-UM","2018/10/29 13:57:35","新北市土城區中央路三段238-1號","121.428436666667","24.9643883333333","6501300","土城區"
"236045","913-UM","2018/10/29 13:57:27","新北市土城區城林路6巷80號","121.438353333333","24.9798566666667","6501300","土城區"
"236060","915-UM","2018/10/29 13:57:32","新北市土城區城林路6巷80號","121.438538333333","24.97973","6501300","土城區"
"236054","AAC-216","2018/10/29 13:57:34","新北市土城區城林路6巷80號","121.438738333333","24.9797566666667","6501300","土城區"
"242001","233-RS","2018/10/29 13:57:27","新北市新莊區中華路二段83-1號","121.452666666667","25.048665","6500500","新莊區"
"221010","269-BY","2018/10/29 13:57:18","新北市汐止區八連路一段317號","121.639606666667","25.0866983333333","6501100","汐止區"
"221033","647-BX","2018/10/29 13:57:29","新北市新店區安業街285-1號","121.526878333333","24.966405","6501100","汐止區"
"220027","145-BY","2018/10/29 13:57:19","新北市板橋區民權路202巷6弄2號","121.460025","25.01458","6500100","板橋區"
"220028","200-UY","2018/10/29 13:55:08","新北市板橋區大觀路二段文和巷96號","121.444935","24.9983783333333","6500100","板橋區"
"220030","610-BX","2018/10/29 13:57:29","新北市板橋區溪崑一街112號","121.4292","24.9887216666667","6500100","板橋區"
"220050","245-BX","2018/10/29 13:57:36","新北市板橋區文化路二段182巷11號","121.472106666667","25.0268316666667","6500100","板橋區"
"220032","256-TC","2018/10/29 13:57:27","新北市板橋區大觀路二段150巷27號","121.441556666667","24.9996816666667","6500100","板橋區"
"220004","276-BY","2018/10/29 13:57:29","新北市板橋區信義路95號","121.457366666667","24.9937066666667","6500100","板橋區"
"220020","277-BY","2018/10/29 13:57:21","新北市板橋區大觀路三段50巷51號","121.431996666667","24.9958966666667","6500100","板橋區"
"220005","282-UM","2018/10/29 13:57:35","新北市板橋區館前東路80號","121.461715","25.00749","6500100","板橋區"
"220043","283-UM","2018/10/29 13:57:34","新北市板橋區莒光路16巷6號","121.469613333333","25.0244233333333","6500100","板橋區"
"220019","283-VK","2018/10/29 13:57:32","新北市板橋區重慶路245巷49號","121.465196666667","25.00097","6500100","板橋區"
"220031","286-VK","2018/10/29 13:57:28","新北市板橋區大觀路一段38巷184號","121.441476666667","25.0047","6500100","板橋區"
"220029","287-VK","2018/10/29 13:57:33","新北市板橋區南雅西路二段102號","121.45244","25.0118083333333","6500100","板橋區"
"220039","288-VK","2018/10/29 13:57:17","新北市板橋區四維路177巷2弄1號","121.464008333333","25.02623","6500100","板橋區"
"220009","293-UM","2018/10/29 13:57:38","新北市板橋區富山街109巷70號","121.475323333333","25.021265","6500100","板橋區"
"220010","295-UM","2018/10/29 13:55:42","新北市板橋區三民路二段253-1號","121.47897","25.0116666666667","6500100","板橋區"
"220001","299-UM","2018/10/29 13:57:25","新北市板橋區中山路二段92號","121.475318333333","25.01638","6500100","板橋區"
"220023","303-R5","2018/10/29 13:57:29","新北市板橋區館前西路213巷17號","121.454303333333","25.0081066666667","6500100","板橋區"
"220041","307-R5","2018/10/29 13:57:20","新北市板橋區文化路一段104巷1弄9號","121.465328333333","25.0181116666667","6500100","板橋區"
"220047","317-R6","2018/10/29 13:57:36","新北市板橋區民有街20號","121.46618","25.0250433333333","6500100","板橋區"
"220012","486-VK","2018/10/29 13:57:38","新北市板橋區漢生東路170號","121.46682","25.0145066666667","6500100","板橋區"
"220038","487-VK","2018/10/29 13:57:37","新北市板橋區文化路二段22號","121.46891","25.0244516666667","6500100","板橋區"
"220037","491-VK","2018/10/29 13:57:25","新北市板橋區民生路二段120號","121.470771666667","25.01948","6500100","板橋區"
"220104","560-BX","2018/10/29 13:57:18","新北市板橋區中正路341巷35號","121.454196666667","25.0197516666667","6500100","板橋區"
"220052","561-BX","2018/10/29 13:57:33","新北市板橋區民生路二段89-6號","121.47047","25.0190033333333","6500100","板橋區"
"220011","609-BX","2018/10/29 13:57:23","新北市板橋區中山路二段123號","121.47497","25.0163233333333","6500100","板橋區"
"220040","637-BX","2018/10/29 13:57:22","新北市板橋區莒光路165巷36號","121.474271666667","25.024925","6500100","板橋區"
"220025","687-BX","2018/10/29 13:57:36","新北市板橋區大觀路二段431-1號","121.441036666667","24.9948","6500100","板橋區"
"220042","689-BX","2018/10/29 13:57:22","新北市板橋區民生路三段54號","121.467203333333","25.0252266666667","6500100","板橋區"
"220002","741-BX","2018/10/29 13:57:23","新北市板橋區後埔街43號","121.460613333333","25.0059883333333","6500100","板橋區"
"220051","KEA-2699","2018/10/29 13:57:32","新北市板橋區雙十路一段44巷36號","121.477196666667","25.024955","6500100","板橋區"
"220003","827-TW","2018/10/29 13:57:18","新北市板橋區民安街3號","121.466641666667","25.0119616666667","6500100","板橋區"
"220014","829-TW","2018/10/29 13:57:26","新北市板橋區三民路二段正隆巷60號","121.476611666667","25.014315","6500100","板橋區"
"220045","831-TW","2018/10/29 13:57:30","新北市板橋區莒光路93號","121.472218333333","25.0240183333333","6500100","板橋區"
"220022","895-R6","2018/10/29 13:57:35","新北市板橋區館前西路118號","121.456865","25.007655","6500100","板橋區"
"220021","985-R7","2018/10/29 13:57:22","新北市板橋區館前西路195號","121.455328333333","25.0083816666667","6500100","板橋區"
"220046","AAC-210","2018/10/29 13:57:29","新北市板橋區漢生西路40號","121.463375","25.0184583333333","6500100","板橋區"
"220018","AAC-253","2018/10/29 13:57:34","新北市板橋區四川路一段148號","121.460033333333","25.003525","6500100","板橋區"
"235032","KEA-2873","2018/10/29 13:57:15","新北市中和區圓通路162巷13號","121.497086666667","24.9947583333333","6500300","中和區"
"235025","KEA-2875","2018/10/29 13:57:30","新北市中和區中山路三段96號","121.4774","25.0056733333333","6500300","中和區"
