"lineid","car","time","location","longitude","latitude","cityid","cityname"
"234044","148-BY","2018/10/29 14:19:18","新北市永和區林森路74號","121.523663333333","25.0038233333333","6500400","永和區"
"234078","298-R6","2018/10/29 14:19:37","新北市永和區國中路132巷5號","121.52367","25.0071616666667","6500400","永和區"
"234036","336-UY","2018/10/29 14:19:37","新北市永和區成功路一段20號","121.527088333333","25.0050133333333","6500400","永和區"
"234062","337-UY","2018/10/29 14:19:22","新北市永和區得和路108號","121.518213333333","25.0001483333333","6500400","永和區"
"234084","338-UY","2018/10/29 14:19:38","新北市永和區中正路629號","121.515566666667","25.010005","6500400","永和區"
"234068","552-UM","2018/10/29 14:19:34","新北市永和區福和路263巷7弄1號","121.517931666667","25.007005","6500400","永和區"
"234015","745-BX","2018/10/29 14:19:30","新北市永和區仁愛路245號","121.50877","25.0118683333333","6500400","永和區"
"234028","746-BX","2018/10/29 14:19:33","新北市永和區民權路49巷5弄22號","121.521563333333","24.99781","6500400","永和區"
"234052","KEA-2590","2018/10/29 14:19:32","新北市永和區博愛街5號","121.516786666667","25.0158583333333","6500400","永和區"
"234060","AAD-866","2018/10/29 14:19:35","新北市永和區得和路57號","121.517106666667","25.0002066666667","6500400","永和區"
"234012","847-RS","2018/10/29 14:19:34","新北市永和區保生路58號","121.505376666667","25.0088016666667","6500400","永和區"
"234040","862-TW","2018/10/29 14:19:24","新北市永和區安樂路220號","121.515046666667","25.0022816666667","6500400","永和區"
"234048","863-TW","2018/10/29 14:19:34","新北市永和區文化路187號","121.50959","25.017085","6500400","永和區"
"234025","9371-KE","2018/10/29 14:19:25","新北市永和區安樂路144巷20號","121.515003333333","24.9997416666667","6500400","永和區"
"248015","026-BX","2018/10/29 14:19:32","新北市五股區成洲五路12號","121.452355","25.1015916666667","6501500","五股區"
"248019","225-UY","2018/10/29 13:58:52","新北市五股區凌雲路三段57號","121.425326666667","25.1250283333333","6501500","五股區"
"248011","247-BX","2018/10/29 14:19:28","新北市五股區工商路83號","121.437923333333","25.0848483333333","6501500","五股區"
"248009","272-BY","2018/10/29 14:19:35","新北市五股區自強路90巷72號","121.430756666667","25.0712883333333","6501500","五股區"
"248003","677-BX","2018/10/29 14:19:19","新北市五股區五福路56號","121.433506666667","25.08974","6501500","五股區"
"248001","678-BX","2018/10/29 14:19:37","新北市五股區成泰路三段544-18號","121.452735","25.1035133333333","6501500","五股區"
"234022","9380-KE","2018/10/29 14:19:32","新北市永和區竹林路23號","121.517261666667","25.0147216666667","6500400","永和區"
"234076","969-R7","2018/10/29 14:19:26","新北市永和區民族街73巷2號","121.518853333333","24.99675","6500400","永和區"
"234072","AAC-211","2018/10/29 14:19:29","新北市永和區竹林路119巷69號","121.52294","25.011575","6500400","永和區"
"234066","AAC-212","2018/10/29 14:19:29","新北市永和區保平路268巷27號","121.507883333333","25.00598","6500400","永和區"
"234001","AAC-295","2018/10/29 14:19:21","新北市永和區中正路618號","121.517063333333","25.0077116666667","6500400","永和區"
"232012","291-BY","2018/10/29 14:19:33","新北市土城區國際路70號","121.466426666667","24.9781566666667","6502000","坪林區"
"243005","AAD-798","2018/10/29 14:19:27","新北市泰山區明志路三段145巷34弄2號","121.42636","25.0395266666667","6501600","泰山區"
"243001","297-R6","2018/10/29 14:19:24","新北市泰山區明志路一段19巷7號","121.434188333333","25.06571","6501600","泰山區"
"243008","KEA-2801","2018/10/29 14:19:29","新北市泰山區明志路三段155號","121.424826666667","25.0397183333333","6501600","泰山區"
"243007","421-VK","2018/10/29 14:19:27","新北市泰山區明志路二段126號","121.427831666667","25.05133","6501600","泰山區"
"243004","539-UM","2018/10/29 14:19:20","新北市泰山區仁義路220巷2號","121.43304","25.053885","6501600","泰山區"
"243003","KEA-2215","2018/10/29 14:19:32","新北市泰山區貴子路15巷4弄2號","121.426606666667","25.0422116666667","6501600","泰山區"
"243002","KEA-2216","2018/10/29 14:19:34","新北市泰山區明志路二段7巷4號","121.430543333333","25.0533783333333","6501600","泰山區"
"243006","680-BX","2018/10/29 14:19:20","新北市泰山區泰林路二段128號","121.43449","25.0595383333333","6501600","泰山區"
"231002","002-UM","2018/10/29 14:19:38","新北市新店區中正路500號","121.534095","24.9820466666667","6500600","新店區"
"231027","0293-UT","2018/10/29 14:19:24","新北市新店區光明街286巷6-3號","121.540735","24.9637116666667","6500600","新店區"
"231028","046-UY","2018/10/29 14:19:24","新北市新店區安和路二段211號","121.517811666667","24.975495","6500600","新店區"
"231001","047-UY","2018/10/29 14:19:18","新北市新店區中正路75巷71號","121.543108333333","24.96883","6500600","新店區"
"231019","108-UY","2018/10/29 14:19:36","新北市新店區新烏路二段140號","121.548865","24.9191883333333","6500600","新店區"
"231010","110-UY","2018/10/29 14:19:26","新北市新店區安一路一段1-1號","121.519763333333","24.9612466666667","6500600","新店區"
"231011","187-VK","2018/10/29 14:19:23","新北市新店區五峰路63巷8弄36號","121.547738333333","24.969105","6500600","新店區"
"231023","188-VK","2018/10/29 14:19:34","新北市新店區光明街103號","121.539123333333","24.9611766666667","6500600","新店區"
"231003","268-BY","2018/10/29 14:19:21","新北市新店區中興路一段191號","121.543271666667","24.9650366666667","6500600","新店區"
"231018","278-BY","2018/10/29 14:19:24","新北市新店區中央四街47號","121.527763333333","24.9750466666667","6500600","新店區"
"231014","AAD-862","2018/10/29 14:19:36","新北市新店區北宜路三段221號","121.59253","24.953195","6500600","新店區"
"231006","355-BY","2018/10/29 14:19:29","新北市新店區北宜路二段446號","121.569793333333","24.956205","6500600","新店區"
"231038","3712-VJ","2018/10/29 14:19:35","新北市新店區安康路一段5號","121.533915","24.9604416666667","6500600","新店區"
"231037","4716-K9","2018/10/29 14:19:32","新北市新店區安康路二段341巷1號","121.49682","24.955235","6500600","新店區"
"231036","512-UM","2018/10/29 14:19:18","新北市新店區安祥路109巷1弄65號","121.478255","24.9607083333333","6500600","新店區"
"231013","513-UM","2018/10/29 14:19:31","新北市新店區建國路158號","121.5386","24.9793933333333","6500600","新店區"
"231005","618-UM","2018/10/29 14:19:33","新北市新店區中興路三段219-1號","121.54354","24.9823133333333","6500600","新店區"
"231030","619-UM","2018/10/29 14:19:19","新北市新店區吉安街39號","121.515131666667","24.9664233333333","6500600","新店區"
"231034","641-BX","2018/10/29 14:19:17","新北市新店區車子路11號","121.50306","24.9519633333333","6500600","新店區"
"231035","719-UM","2018/10/29 14:19:22","新北市新店區安和路二段113巷1弄6號","121.51817","24.9699266666667","6500600","新店區"
"231031","720-UM","2018/10/29 14:19:18","新北市新店區碧潭路24號","121.534318333333","24.9563733333333","6500600","新店區"
"231029","897-TW","2018/10/29 14:19:37","新北市新店區安康路二段199號","121.509105","24.958995","6500600","新店區"
"231004","899-TW","2018/10/29 14:19:34","新北市新店區中正路161號","121.541151666667","24.9719383333333","6500600","新店區"
"235030","003-UY","2018/10/29 14:19:21","新北市中和區中和路102號","121.50265","24.999755","6500300","中和區"
"235028","005-UY","2018/10/29 14:19:36","新北市中和區中和路137號","121.501913333333","24.9998666666667","6500300","中和區"
"235027","006-UY","2018/10/29 14:19:35","新北市中和區連勝街181號","121.493878333333","24.997115","6500300","中和區"
"235020","096-UM","2018/10/29 14:19:19","新北市中和區員山路573號","121.479471666667","25.00783","6500300","中和區"
"235003","097-UM","2018/10/29 14:19:23","新北市中和區秀峰街88號","121.519608333333","24.9910716666667","6500300","中和區"
"235029","098-UM","2018/10/29 14:19:30","新北市中和區中山路二段64巷16弄16號","121.503788333333","25.0062","6500300","中和區"
"235004","150-BY","2018/10/29 14:19:30","新北市中和區安平路36巷41號","121.511031666667","24.99508","6500300","中和區"
"235022","151-BY","2018/10/29 14:19:37","新北市中和區連城路503號","121.482551666667","24.99547","6500300","中和區"
"235019","183-VK","2018/10/29 14:19:19","新北市中和區民享街2巷15號","121.47298","25.0054566666667","6500300","中和區"
"235002","185-VK","2018/10/29 14:19:21","新北市中和區大仁街10巷52號","121.520556666667","24.9927116666667","6500300","中和區"
"235013","186-VK","2018/10/29 14:19:31","新北市中和區景新街228-6號","121.508146666667","24.994195","6500300","中和區"
"235031","255-BX","2018/10/29 14:19:18","新北市中和區中正路695號","121.485241666667","24.9982316666667","6500300","中和區"
"235008","293-VK","2018/10/29 14:19:29","新北市中和區復興路312號","121.501095","24.990485","6500300","中和區"
"235036","301-VK","2018/10/29 14:19:33","新北市中和區福美路310號","121.496801666667","25.0049433333333","6500300","中和區"
"235007","352-BY","2018/10/29 14:19:30","新北市中和區景平路157號","121.513203333333","24.99249","6500300","中和區"
"247011","KEA-2869","2018/10/29 14:19:35","新北市蘆洲區民權路38巷2號","121.476231666667","25.0865333333333","6501400","蘆洲區"
"235014","4979-A6","2018/10/29 14:19:31","新北市中和區景安路208巷12號","121.503435","24.991265","6500300","中和區"
"235033","4980-A6","2018/10/29 14:19:21","新北市中和區福美路252號","121.498333333333","25.00519","6500300","中和區"
"235006","551-UM","2018/10/29 14:19:29","新北市中和區安樂路143巷2弄5號","121.514046666667","24.9978016666667","6500300","中和區"
"235034","558-UM","2018/10/29 14:19:25","新北市中和區中山路二段228號","121.498928333333","25.002745","6500300","中和區"
"235009","565-BX","2018/10/29 14:19:28","新北市中和區景新街423巷33弄25號","121.51376","24.9899116666667","6500300","中和區"
"235018","640-BX","2018/10/29 14:19:24","新北市中和區國光街107巷2弄30號","121.46951","24.9993016666667","6500300","中和區"
"235024","647-TV","2018/10/29 14:19:34","新北市中和區員山路467號","121.480385","25.00449","6500300","中和區"
"235011","732-UM","2018/10/29 14:19:37","新北市中和區和平街17-2號","121.508561666667","24.9906333333333","6500300","中和區"
"235010","733-UM","2018/10/29 14:19:24","新北市中和區華新街150號","121.507776666667","24.9824416666667","6500300","中和區"
"235035","783-BX","2018/10/29 14:19:23","新北市中和區連城路356號","121.482128333333","24.9954133333333","6500300","中和區"
"235026","800-TS","2018/10/29 14:19:36","新北市中和區中山路二段420號","121.489773333333","25.0039616666667","6500300","中和區"
"235021","801-TS","2018/10/29 14:19:35","新北市中和區員山路451號","121.480596666667","25.0042016666667","6500300","中和區"
"235005","802-TS","2018/10/29 14:19:36","新北市中和區中安街226號","121.512251666667","24.9986833333333","6500300","中和區"
"235016","805-TS","2018/10/29 14:19:32","新北市中和區興南路二段149號","121.50485","24.9838216666667","6500300","中和區"
"235012","896-TW","2018/10/29 14:19:38","新北市中和區華新街109巷22號","121.508368333333","24.980435","6500300","中和區"
"235017","900-TW","2018/10/29 14:19:35","新北市中和區民德路216號","121.468203333333","24.998055","6500300","中和區"
"235015","157-BY","2018/10/29 14:19:19","新北市中和區和平街34號","121.50931","24.9904383333333","6500300","中和區"
"235001","AAC-213","2018/10/29 14:19:32","新北市中和區秀朗路三段50巷12弄6號","121.524101666667","24.9952716666667","6500300","中和區"
"235023","AAC-215","2018/10/29 14:19:38","新北市中和區圓通路252巷18弄1號","121.492358333333","24.9925316666667","6500300","中和區"
"220013","072-UY","2018/10/29 14:19:20","新北市板橋區民族路219巷96-1號","121.469741666667","25.0091883333333","6500100","板橋區"
"220034","073-UY","2018/10/29 14:19:34","新北市板橋區中正路250巷103號","121.459885","25.0200866666667","6500100","板橋區"
"220105","075-UY","2018/10/29 14:19:36","新北市板橋區長江路三段24巷5號","121.47263","25.0333016666667","6500100","板橋區"
"220017","AAD-861","2018/10/29 14:19:34","新北市板橋區四川路一段131號","121.459878333333","25.00466","6500100","板橋區"
"247001","893-R6","2018/10/29 14:19:34","新北市蘆洲區永樂街108號","121.455705","25.0889216666667","6501400","蘆洲區"
"247015","546-UM","2018/10/29 14:19:27","新北市蘆洲區光華路110巷18號","121.466801666667","25.0834666666667","6501400","蘆洲區"
"247023","500-BY","2018/10/29 14:19:24","新北市蘆洲區長榮路675號","121.460388333333","25.091925","6501400","蘆洲區"
"247013","339-TH","2018/10/29 14:19:30","新北市蘆洲區三民路11號","121.475846666667","25.0821166666667","6501400","蘆洲區"
"247005","337-TH","2018/10/29 14:19:28","新北市蘆洲區長安街23巷9號","121.463716666667","25.0787066666667","6501400","蘆洲區"
"247007","336-TH","2018/10/29 14:19:33","新北市蘆洲區民生街41號","121.475231666667","25.0789433333333","6501400","蘆洲區"
"247019","057-VK","2018/10/29 14:19:35","新北市蘆洲區仁愛街35巷15弄1號","121.471676666667","25.09262","6501400","蘆洲區"
"247009","056-VK","2018/10/29 14:19:31","新北市蘆洲區三民路26巷30號","121.47785","25.0830083333333","6501400","蘆洲區"
"247017","007-UY","2018/10/29 14:19:24","新北市蘆洲區民權路75號","121.473413333333","25.0884683333333","6501400","蘆洲區"
"247003","002-UY","2018/10/29 14:19:34","新北市蘆洲區長安街174號","121.459061666667","25.08332","6501400","蘆洲區"
"247021","001-UY","2018/10/29 14:19:29","新北市蘆洲區三民路230號","121.468666666667","25.089645","6501400","蘆洲區"
"253003","6232-TK","2018/10/29 14:19:32","新北市石門區尖子鹿31-1號","121.57941","25.266975","6502200","石門區"
"253004","6251-TK","2018/10/29 14:19:33","新北市石門區內阿里磅1號","121.59207","25.253565","6502200","石門區"
"253002","637-UY","2018/10/29 14:19:21","新北市石門區豬槽潭8號","121.553606666667","25.2618866666667","6502200","石門區"
"253001","KEC-0718","2018/10/29 14:19:19","新北市石門區八甲27號","121.527148333333","25.2780083333333","6502200","石門區"
"207002","749-BX","2018/10/29 14:19:25","新北市萬里區溪底里瑞泉路7號","121.60287","25.139495","6502800","萬里區"
"252005","073-UM","2018/10/29 14:19:33","新北市三芝區橫山里橫山1號","121.532186666667","25.2594166666667","6502100","三芝區"
"207001","662-BX","2018/10/29 14:19:21","新北市萬里區磺潭里清水18號","121.637821666667","25.1977083333333","6502800","萬里區"
"236064","105-UM","2018/10/29 14:19:29","新北市土城區明德路一段141號","121.465138333333","24.9802833333333","6501300","土城區"
"236074","166-UM","2018/10/29 14:19:23","新北市土城區中央路三段281巷23弄12號","121.426306666667","24.9615816666667","6501300","土城區"
"236029","253-BX","2018/10/29 14:19:37","新北市土城區順風路63號","121.440133333333","24.977285","6501300","土城區"
"236024","269-VK","2018/10/29 14:19:21","新北市土城區承天路41號","121.438736666667","24.96409","6501300","土城區"
"236012","270-VK","2018/10/29 14:19:25","新北市土城區青雲路39巷7號","121.460355","24.9875416666667","6501300","土城區"
"236032","271-VK","2018/10/29 14:19:35","新北市土城區青雲路483巷9號","121.459503333333","24.9736483333333","6501300","土城區"
"236016","401-BY","2018/10/29 14:19:19","新北市土城區金城路二段204號","121.455011666667","24.9819183333333","6501300","土城區"
"236040","752-BX","2018/10/29 14:19:31","新北市土城區裕生路21巷6弄16號","121.448656666667","24.9867316666667","6501300","土城區"
"236057","912-UM","2018/10/29 14:19:35","新北市土城區中央路四段464號","121.409915","24.9505866666667","6501300","土城區"
"236045","913-UM","2018/10/29 14:19:27","新北市土城區明德路一段361-3號","121.456391666667","24.9777183333333","6501300","土城區"
"236060","915-UM","2018/10/29 14:19:32","新北市土城區金城路三段189-2號","121.469841666667","24.9888983333333","6501300","土城區"
"236054","AAC-216","2018/10/29 14:19:34","新北市土城區中華路二段209號","121.437923333333","24.97369","6501300","土城區"
"242001","233-RS","2018/10/29 14:18:33","新北市五股區中興路三段3-8號","121.449183333333","25.0790283333333","6500500","新莊區"
"221010","269-BY","2018/10/29 14:19:38","新北市汐止區長青路210巷6弄1號","121.613765","25.112565","6501100","汐止區"
"221033","647-BX","2018/10/29 14:19:29","新北市汐止區大同路一段347號","121.638801666667","25.0594083333333","6501100","汐止區"
"220027","145-BY","2018/10/29 14:19:38","新北市板橋區民權路318號","121.457161666667","25.01649","6500100","板橋區"
"220028","200-UY","2018/10/29 14:04:33","新北市板橋區大觀路二段3巷95號","121.450376666667","25.0032533333333","6500100","板橋區"
"220030","610-BX","2018/10/29 14:19:32","新北市板橋區溪城路123號","121.427733333333","24.9821716666667","6500100","板橋區"
"220050","245-BX","2018/10/29 14:19:26","新北市板橋區雙十路一段3號","121.47816","25.02404","6500100","板橋區"
"220032","256-TC","2018/10/29 14:19:28","新北市板橋區溪崑一街30巷26號","121.429421666667","24.991395","6500100","板橋區"
"220004","276-BY","2018/10/29 14:19:21","新北市板橋區信義路147號","121.458148333333","24.9929283333333","6500100","板橋區"
"220020","277-BY","2018/10/29 14:19:18","新北市板橋區金門街337巷6弄2號","121.429516666667","24.9855116666667","6500100","板橋區"
"220005","282-UM","2018/10/29 14:19:35","新北市板橋區和平路155巷9號","121.463238333333","24.9960333333333","6500100","板橋區"
"220043","283-UM","2018/10/29 14:19:34","新北市板橋區吳鳳路21巷2號","121.46695","25.0312283333333","6500100","板橋區"
"220019","283-VK","2018/10/29 14:19:32","新北市板橋區大豐街22號","121.462125","25.001475","6500100","板橋區"
"220031","286-VK","2018/10/29 14:19:28","新北市板橋區龍興街95巷6號","121.443831666667","25.0025616666667","6500100","板橋區"
"220029","287-VK","2018/10/29 14:19:33","新北市板橋區南雅西路一段10巷7弄16號","121.453948333333","25.004535","6500100","板橋區"
"220039","288-VK","2018/10/29 14:19:38","新北市板橋區四維路349巷16號","121.461615","25.02965","6500100","板橋區"
"220009","293-UM","2018/10/29 14:19:18","新北市板橋區中山路二段255巷7號","121.476993333333","25.0179583333333","6500100","板橋區"
"220010","295-UM","2018/10/29 14:19:38","新北市板橋區三民路二段居仁巷1弄24號","121.479973333333","25.0134933333333","6500100","板橋區"
"220001","299-UM","2018/10/29 14:19:34","新北市板橋區富山街18巷16-4號","121.478448333333","25.0226783333333","6500100","板橋區"
"220023","303-R5","2018/10/29 14:19:23","新北市板橋區南雅南路一段4巷13號","121.454791666667","25.005175","6500100","板橋區"
"220041","307-R5","2018/10/29 14:19:28","新北市板橋區松江街49號","121.468385","25.0274483333333","6500100","板橋區"
"220047","317-R6","2018/10/29 14:19:36","新北市板橋區四維路252號","121.4636","25.0281066666667","6500100","板橋區"
"220012","486-VK","2018/10/29 14:19:38","新北市板橋區縣民大道二段68-1號","121.463265","25.01318","6500100","板橋區"
"220038","487-VK","2018/10/29 14:19:37","新北市板橋區文化路一段360號","121.468323333333","25.0235983333333","6500100","板橋區"
"220037","491-VK","2018/10/29 14:19:25","新北市板橋區雙十路二段233號","121.472971666667","25.0289766666667","6500100","板橋區"
"220104","560-BX","2018/10/29 14:19:38","新北市板橋區中正路433巷29號","121.453166666667","25.0237233333333","6500100","板橋區"
"220052","561-BX","2018/10/29 14:19:33","新北市板橋區文化路一段188巷7弄13號","121.467546666667","25.0197733333333","6500100","板橋區"
"220011","609-BX","2018/10/29 14:19:23","新北市板橋區三民路二段203-4號","121.479178333333","25.01358","6500100","板橋區"
"220040","637-BX","2018/10/29 14:19:22","新北市板橋區縣民大道三段223號","121.480496666667","25.0254583333333","6500100","板橋區"
"220025","687-BX","2018/10/29 14:19:36","新北市板橋區大觀路二段297號","121.442183333333","24.9986616666667","6500100","板橋區"
"220042","689-BX","2018/10/29 14:19:22","新北市板橋區漢生西路79巷2號","121.462686666667","25.0193483333333","6500100","板橋區"
"220002","741-BX","2018/10/29 14:19:26","新北市板橋區四川路一段87巷66號","121.460678333333","25.0057833333333","6500100","板橋區"
"220051","KEA-2699","2018/10/29 14:19:32","新北市板橋區萬板路706號","121.48158","25.0274833333333","6500100","板橋區"
"220003","827-TW","2018/10/29 14:19:30","新北市板橋區館前東路156巷2號","121.464448333333","25.0074683333333","6500100","板橋區"
"220014","829-TW","2018/10/29 14:19:26","新北市板橋區長安街138巷1弄39號","121.473968333333","25.0102183333333","6500100","板橋區"
"220045","831-TW","2018/10/29 14:19:35","新北市板橋區大同街55號","121.478631666667","25.0275533333333","6500100","板橋區"
"220022","895-R6","2018/10/29 14:19:33","新北市板橋區文化路一段20號","121.458721666667","25.0110783333333","6500100","板橋區"
"220021","985-R7","2018/10/29 14:19:22","新北市板橋區中正路276號","121.455096666667","25.01991","6500100","板橋區"
"220046","AAC-210","2018/10/29 14:19:32","新北市板橋區幸福路32巷3弄12號","121.460815","25.0207","6500100","板橋區"
"220018","AAC-253","2018/10/29 14:19:34","新北市板橋區忠孝路128號","121.463178333333","25.00229","6500100","板橋區"
"235032","KEA-2873","2018/10/29 14:19:15","新北市中和區景平路493-5號","121.500073333333","24.9979166666667","6500300","中和區"
"235025","KEA-2875","2018/10/29 14:19:30","新北市中和區民利街9巷3弄1號","121.480705","24.9987766666667","6500300","中和區"
