"lineid","car","time","location","longitude","latitude","cityid","cityname"
"234044","148-BY","2018/10/29 14:29:37","新北市中和區環河西路三段123號","121.489386666667","25.0105483333333","6500400","永和區"
"234078","298-R6","2018/10/29 14:29:18","新北市永和區永亨路70號","121.520923333333","25.0058416666667","6500400","永和區"
"234062","337-UY","2018/10/29 14:29:22","新北市永和區中正路417號","121.517198333333","25.0048633333333","6500400","永和區"
"234084","338-UY","2018/10/29 14:29:23","新北市永和區永和路二段299號","121.51613","25.0161033333333","6500400","永和區"
"234068","552-UM","2018/10/29 14:29:34","新北市永和區永亨路7號","121.51944","25.0057416666667","6500400","永和區"
"234015","745-BX","2018/10/29 14:29:30","新北市中和區橋和路281巷1號","121.4956","25.0078","6500400","永和區"
"234028","746-BX","2018/10/29 14:29:34","新北市永和區民權路51號","121.519996666667","24.9970783333333","6500400","永和區"
"234052","KEA-2590","2018/10/29 14:29:33","新北市永和區光復街31-1號","121.51665","25.0179466666667","6500400","永和區"
"234060","AAD-866","2018/10/29 14:29:40","新北市永和區安樂路200號","121.515101666667","25.0017916666667","6500400","永和區"
"234040","862-TW","2018/10/29 14:29:24","新北市永和區自由街33號","121.514405","25.0063616666667","6500400","永和區"
"234048","863-TW","2018/10/29 14:29:34","新北市永和區新生路138巷3弄3號","121.506441666667","25.01443","6500400","永和區"
"234025","9371-KE","2018/10/29 14:29:25","新北市永和區安樂路58巷2號","121.515095","24.99798","6500400","永和區"
"248015","026-BX","2018/10/29 14:29:33","新北市五股區成泰路三段514號","121.452116666667","25.1019683333333","6501500","五股區"
"248011","247-BX","2018/10/29 14:29:28","新北市五股區蓬萊路6巷2號","121.43563","25.079655","6501500","五股區"
"248013","261-SL","2018/10/29 14:29:34","新北市五股區民義路一段157-10號","121.432206666667","25.0872583333333","6501500","五股區"
"248009","272-BY","2018/10/29 14:29:35","新北市五股區自強路90巷72號","121.43077","25.0712966666667","6501500","五股區"
"248003","677-BX","2018/10/29 14:29:39","新北市五股區五福路56號","121.433378333333","25.0896966666667","6501500","五股區"
"248001","678-BX","2018/10/29 14:29:37","新北市五股區成泰路三段518號","121.452351666667","25.10242","6501500","五股區"
"234076","969-R7","2018/10/29 14:29:25","新北市永和區民生路20號","121.52258","24.997335","6500400","永和區"
"234072","AAC-211","2018/10/29 14:29:29","新北市永和區竹林路39巷28弄1號","121.51935","25.0149466666667","6500400","永和區"
"234001","AAC-295","2018/10/29 14:29:21","新北市永和區大新街16號","121.515073333333","25.008525","6500400","永和區"
"232012","291-BY","2018/10/29 14:29:13","台北市文山區老泉街45巷18-1號","121.576463333333","24.9762516666667","6502000","坪林區"
"244001","248-BX","2018/10/29 14:29:30","新北市林口區竹林路267號","121.389616666667","25.0808183333333","6501700","林口區"
"243005","AAD-798","2018/10/29 14:29:27","新北市泰山區明志路二段383號","121.425076666667","25.04369","6501600","泰山區"
"243001","297-R6","2018/10/29 14:29:24","新北市五股區成泰路一段7巷4號","121.433291666667","25.066745","6501600","泰山區"
"243008","KEA-2801","2018/10/29 14:29:29","新北市泰山區明志路三段166號","121.424236666667","25.0393533333333","6501600","泰山區"
"243007","421-VK","2018/10/29 14:29:27","新北市泰山區文程路18巷35號","121.428191666667","25.0482716666667","6501600","泰山區"
"243004","539-UM","2018/10/29 14:29:20","新北市泰山區全興路13號","121.432276666667","25.0589966666667","6501600","泰山區"
"243003","KEA-2215","2018/10/29 14:29:32","新北市泰山區貴子路67巷20號","121.431055","25.0409566666667","6501600","泰山區"
"243002","KEA-2216","2018/10/29 14:29:34","新北市泰山區明志路二段51號","121.429343333333","25.0528466666667","6501600","泰山區"
"243006","680-BX","2018/10/29 14:29:35","新北市泰山區仁愛路6巷18號","121.431486666667","25.053355","6501600","泰山區"
"231002","002-UM","2018/10/29 14:29:18","新北市新店區中央路151號","121.529321666667","24.9723333333333","6500600","新店區"
"231027","0293-UT","2018/10/29 14:29:24","新北市新店區北新路二段228巷13號","121.54344","24.97718","6500600","新店區"
"231028","046-UY","2018/10/29 14:29:24","新北市新店區安康路二段1號","121.516365","24.9637383333333","6500600","新店區"
"231001","047-UY","2018/10/29 14:29:38","新北市新店區北新路一段96巷23號","121.543008333333","24.9688766666667","6500600","新店區"
"231019","108-UY","2018/10/29 14:29:36","新北市新店區桂山路71巷2號","121.566636666667","24.9003916666667","6500600","新店區"
"231010","110-UY","2018/10/29 14:29:26","新北市新店區安一路一段1-1號","121.519696666667","24.9613016666667","6500600","新店區"
"231011","187-VK","2018/10/29 14:29:29","新北市新店區中興路二段100巷1號","121.54774","24.971675","6500600","新店區"
"231023","188-VK","2018/10/29 14:29:26","新北市新店區光明街172號","121.53954","24.962025","6500600","新店區"
"231003","268-BY","2018/10/29 14:29:21","新北市新店區中興路一段268-2號","121.545165","24.9677833333333","6500600","新店區"
"231018","278-BY","2018/10/29 14:29:24","新北市新店區中央三街62號","121.526885","24.9749016666667","6500600","新店區"
"231014","AAD-862","2018/10/29 14:29:36","新北市新店區北宜路三段221號","121.592413333333","24.9532283333333","6500600","新店區"
"231006","355-BY","2018/10/29 14:29:20","新北市新店區北宜路二段318號","121.561805","24.95396","6500600","新店區"
"231038","3712-VJ","2018/10/29 14:29:31","新北市新店區溪洲路6巷124-1號","121.533155","24.9632316666667","6500600","新店區"
"231037","4716-K9","2018/10/29 14:29:31","新北市新店區車子路1-1號","121.504701666667","24.9577183333333","6500600","新店區"
"231036","512-UM","2018/10/29 14:29:18","新北市新店區安祥路109巷85弄9號","121.478055","24.9602633333333","6500600","新店區"
"231013","513-UM","2018/10/29 14:29:31","新北市新店區民權路90巷20號","121.536021666667","24.983695","6500600","新店區"
"231005","618-UM","2018/10/29 14:29:33","新北市新店區北新路三段63號","121.541746666667","24.9808966666667","6500600","新店區"
"231030","619-UM","2018/10/29 14:29:39","新北市新店區安民街71號","121.516578333333","24.96708","6500600","新店區"
"231034","641-BX","2018/10/29 14:29:37","新北市新店區車子路11號","121.503041666667","24.951985","6500600","新店區"
"231035","719-UM","2018/10/29 14:29:22","新北市新店區安民街49號","121.51606","24.9658233333333","6500600","新店區"
"231031","720-UM","2018/10/29 14:29:38","新北市新店區安樂街21號","121.526416666667","24.9686716666667","6500600","新店區"
"231029","897-TW","2018/10/29 14:29:37","新北市新店區安康路二段379號","121.495138333333","24.9546416666667","6500600","新店區"
"231004","899-TW","2018/10/29 14:29:34","新北市新店區中正路263-4號","121.538353333333","24.9738933333333","6500600","新店區"
"235030","003-UY","2018/10/29 14:29:21","新北市中和區景新街51-1號","121.504403333333","24.9990566666667","6500300","中和區"
"235028","005-UY","2018/10/29 14:29:16","新北市中和區南山路131-1號","121.502208333333","24.9966666666667","6500300","中和區"
"235027","006-UY","2018/10/29 14:29:35","新北市中和區連城路205號","121.494731666667","24.9977816666667","6500300","中和區"
"235020","096-UM","2018/10/29 14:29:19","新北市中和區民富街56號","121.476611666667","25.0073066666667","6500300","中和區"
"235003","097-UM","2018/10/29 14:29:23","新北市中和區秀峰街119巷8弄1號","121.51942","24.98905","6500300","中和區"
"235029","098-UM","2018/10/29 14:29:30","新北市中和區永和路62號","121.498895","25.004385","6500300","中和區"
"235004","150-BY","2018/10/29 14:29:30","新北市中和區安樂路51巷6號","121.511851666667","24.9938183333333","6500300","中和區"
"235022","151-BY","2018/10/29 14:29:37","新北市中和區員山路132巷22號","121.482298333333","24.9962583333333","6500300","中和區"
"235019","183-VK","2018/10/29 14:29:19","新北市中和區德光路27巷9號","121.470978333333","25.0035816666667","6500300","中和區"
"235002","185-VK","2018/10/29 14:29:21","新北市中和區自立路121號","121.521946666667","24.9942933333333","6500300","中和區"
"235013","186-VK","2018/10/29 14:29:31","新北市中和區安和路13號","121.511248333333","24.9935483333333","6500300","中和區"
"235031","255-BX","2018/10/29 14:29:20","新北市中和區連城路340巷10弄9號","121.483001666667","24.996575","6500300","中和區"
"235008","293-VK","2018/10/29 14:29:29","新北市中和區捷運路106號","121.505501666667","24.9915666666667","6500300","中和區"
"235036","301-VK","2018/10/29 14:29:33","新北市中和區中山路二段65號","121.504051666667","25.004625","6500300","中和區"
"235007","352-BY","2018/10/29 14:29:27","新北市中和區景平路370號","121.511056666667","24.9928116666667","6500300","中和區"
"247011","KEA-2869","2018/10/29 14:29:35","新北市蘆洲區民族路193號","121.478425","25.0890383333333","6501400","蘆洲區"
"235014","4979-A6","2018/10/29 14:29:31","新北市中和區中正路589巷15號","121.485968333333","24.9937266666667","6500300","中和區"
"235033","4980-A6","2018/10/29 14:29:21","新北市中和區中山路二段220號","121.499453333333","25.00289","6500300","中和區"
"235006","551-UM","2018/10/29 14:29:29","新北市中和區中和路262巷35-4號","121.50969","24.99947","6500300","中和區"
"235034","558-UM","2018/10/29 14:29:25","新北市中和區景平路632-8號","121.499935","24.998455","6500300","中和區"
"235009","565-BX","2018/10/29 14:29:28","新北市中和區景新街467巷20弄110號","121.514948333333","24.9866583333333","6500300","中和區"
"235018","640-BX","2018/10/29 14:29:24","新北市中和區國光街112巷24弄2號","121.470558333333","25.0024266666667","6500300","中和區"
"235024","647-TV","2018/10/29 14:29:34","新北市中和區員山路266巷31號","121.482531666667","25.0018883333333","6500300","中和區"
"235011","732-UM","2018/10/29 14:29:37","新北市中和區景平路241巷31號","121.508731666667","24.992415","6500300","中和區"
"235010","733-UM","2018/10/29 14:29:24","新北市中和區忠孝街37巷52號","121.511126666667","24.9849466666667","6500300","中和區"
"235035","783-BX","2018/10/29 14:29:23","新北市中和區連城路469巷7號","121.483663333333","24.9956333333333","6500300","中和區"
"235026","800-TS","2018/10/29 14:29:36","新北市中和區中山路二段486號","121.487713333333","25.0053266666667","6500300","中和區"
"235021","801-TS","2018/10/29 14:29:22","新北市中和區員山路451號","121.48048","25.0042016666667","6500300","中和區"
"235005","802-TS","2018/10/29 14:29:36","新北市中和區景安路53號","121.507361666667","24.9981216666667","6500300","中和區"
"235016","805-TS","2018/10/29 14:29:32","新北市中和區華新街143巷70號","121.506335","24.9792316666667","6500300","中和區"
"235012","896-TW","2018/10/29 14:29:19","新北市中和區忠孝街28號","121.5106","24.9831116666667","6500300","中和區"
"235017","900-TW","2018/10/29 14:29:35","新北市中和區民德路198號","121.46817","24.9988366666667","6500300","中和區"
"235015","157-BY","2018/10/29 14:29:19","新北市中和區南山路146巷3號","121.503541666667","24.9923833333333","6500300","中和區"
"235001","AAC-213","2018/10/29 14:29:20","新北市中和區秀朗路三段10巷14弄16號","121.524941666667","24.9966116666667","6500300","中和區"
"235023","AAC-215","2018/10/29 14:29:38","新北市中和區錦和路356號","121.490656666667","24.9914016666667","6500300","中和區"
"220013","072-UY","2018/10/29 14:29:20","新北市板橋區國泰街39巷6弄26號","121.468041666667","25.0055916666667","6500100","板橋區"
"220034","073-UY","2018/10/29 14:29:30","新北市板橋區復興街41號","121.458313333333","25.0176266666667","6500100","板橋區"
"220105","075-UY","2018/10/29 14:29:25","新北市板橋區江寧路三段77號","121.472316666667","25.03239","6500100","板橋區"
"220017","AAD-861","2018/10/29 14:29:33","新北市板橋區貴興路37號","121.457578333333","25.0037533333333","6500100","板橋區"
"247001","893-R6","2018/10/29 14:29:34","新北市蘆洲區永樂街38巷33弄6號","121.457856666667","25.0895416666667","6501400","蘆洲區"
"247015","546-UM","2018/10/29 14:29:27","新北市蘆洲區中正路185巷68弄13號","121.466458333333","25.085035","6501400","蘆洲區"
"247023","500-BY","2018/10/29 14:29:24","新北市蘆洲區中正路263巷2號","121.467191666667","25.0875783333333","6501400","蘆洲區"
"247013","339-TH","2018/10/29 14:29:30","新北市蘆洲區中山二路209號","121.470551666667","25.080475","6501400","蘆洲區"
"247005","337-TH","2018/10/29 14:29:28","新北市蘆洲區長安街81號","121.462365","25.080085","6501400","蘆洲區"
"247007","336-TH","2018/10/29 14:29:33","新北市蘆洲區民生街49號","121.474918333333","25.0788516666667","6501400","蘆洲區"
"247019","057-VK","2018/10/29 14:29:35","新北市蘆洲區仁愛街101巷10號","121.47064","25.09405","6501400","蘆洲區"
"247009","056-VK","2018/10/29 14:29:31","新北市蘆洲區鷺江街12號","121.479015","25.0825566666667","6501400","蘆洲區"
"247017","007-UY","2018/10/29 14:29:23","新北市蘆洲區復興路216號","121.47896","25.0893166666667","6501400","蘆洲區"
"247003","002-UY","2018/10/29 14:29:34","新北市蘆洲區長安街202號","121.458613333333","25.084155","6501400","蘆洲區"
"247021","001-UY","2018/10/29 14:29:29","新北市蘆洲區三民路128巷92號","121.46972","25.09009","6501400","蘆洲區"
"253003","6232-TK","2018/10/29 14:29:32","新北市石門區尖子鹿31-1號","121.579405","25.2669683333333","6502200","石門區"
"253004","6251-TK","2018/10/29 14:29:33","新北市石門區內阿里磅50號","121.58039","25.2453016666667","6502200","石門區"
"253002","637-UY","2018/10/29 14:29:21","新北市石門區大溪墘6-2號","121.551196666667","25.2781816666667","6502200","石門區"
"253001","KEC-0718","2018/10/29 14:29:19","新北市石門區崁子腳58-1號","121.529766666667","25.28604","6502200","石門區"
"207002","749-BX","2018/10/29 14:29:05","新北市萬里區溪底里溪底路13號","121.614433333333","25.1492133333333","6502800","萬里區"
"252005","073-UM","2018/10/29 14:29:33","新北市三芝區茂長里陳厝坑16號","121.518186666667","25.2555133333333","6502100","三芝區"
"207001","662-BX","2018/10/29 14:29:21","新北市萬里區磺潭里清水12號","121.63996","25.19958","6502800","萬里區"
"236064","105-UM","2018/10/29 14:29:29","新北市土城區永豐路255巷27弄45號","121.477036666667","24.9736533333333","6501300","土城區"
"236074","166-UM","2018/10/29 14:29:23","新北市土城區大暖路57號","121.422303333333","24.958545","6501300","土城區"
"236029","253-BX","2018/10/29 14:29:38","新北市土城區福仁街10號","121.440276666667","24.9760616666667","6501300","土城區"
"236024","269-VK","2018/10/29 14:29:21","新北市土城區承天路43巷2號","121.438803333333","24.96417","6501300","土城區"
"236012","270-VK","2018/10/29 14:29:25","新北市土城區青雲路39巷7號","121.460391666667","24.98756","6501300","土城區"
"236032","271-VK","2018/10/29 14:29:35","新北市土城區明德路一段303號","121.459805","24.9772283333333","6501300","土城區"
"236016","401-BY","2018/10/29 14:29:19","新北市土城區永豐路202巷1號","121.466616666667","24.9833333333333","6501300","土城區"
"236040","752-BX","2018/10/29 14:29:31","新北市土城區學成路99巷9號","121.450015","24.98844","6501300","土城區"
"236057","912-UM","2018/10/29 14:29:35","新北市土城區中央路四段127號","121.416275","24.957525","6501300","土城區"
"236045","913-UM","2018/10/29 14:29:27","新北市土城區青雲路384號","121.458786666667","24.9732116666667","6501300","土城區"
"236060","915-UM","2018/10/29 14:29:33","新北市中和區莒光路222-8號","121.468973333333","24.9948116666667","6501300","土城區"
"236054","AAC-216","2018/10/29 14:29:34","新北市土城區中華路二段1號","121.43967","24.9792083333333","6501300","土城區"
"242001","233-RS","2018/10/29 14:29:22","新北市五股區中興路三段163號","121.449021666667","25.079975","6500500","新莊區"
"221010","269-BY","2018/10/29 14:29:18","新北市汐止區長青路138號","121.605305","25.1098183333333","6501100","汐止區"
"221033","647-BX","2018/10/29 14:29:29","新北市汐止區樟樹二路345號","121.641918333333","25.0733033333333","6501100","汐止區"
"220027","145-BY","2018/10/29 14:29:29","新北市板橋區民權路202巷15弄2號","121.460678333333","25.016265","6500100","板橋區"
"220028","200-UY","2018/10/29 14:04:33","新北市板橋區大觀路二段3巷95號","121.450376666667","25.0032533333333","6500100","板橋區"
"220030","610-BX","2018/10/29 14:29:29","新北市板橋區金門街299號","121.430056666667","24.98651","6500100","板橋區"
"220050","245-BX","2018/10/29 14:29:26","新北市板橋區莊敬路208巷4弄1號","121.471516666667","25.0209333333333","6500100","板橋區"
"220032","256-TC","2018/10/29 14:29:37","新北市板橋區滿平街136巷8弄2號","121.427935","24.9873033333333","6500100","板橋區"
"220004","276-BY","2018/10/29 14:29:20","新北市板橋區和平路25號","121.459478333333","24.9953633333333","6500100","板橋區"
"220020","277-BY","2018/10/29 14:29:37","新北市板橋區金門街283號","121.431275","24.9880083333333","6500100","板橋區"
"220005","282-UM","2018/10/29 14:29:35","新北市中和區和平路252號","121.46484","24.9971416666667","6500100","板橋區"
"220043","283-UM","2018/10/29 14:29:34","新北市板橋區吳鳳路50巷8號","121.468756666667","25.0302216666667","6500100","板橋區"
"220019","283-VK","2018/10/29 14:29:32","新北市板橋區忠孝路48巷2弄10號","121.460271666667","25.0010466666667","6500100","板橋區"
"220031","286-VK","2018/10/29 14:29:28","新北市板橋區龍興街71巷26號","121.442658333333","25.00236","6500100","板橋區"
"220029","287-VK","2018/10/29 14:29:33","新北市板橋區大觀路一段75巷7號","121.447656666667","25.0044316666667","6500100","板橋區"
"220039","288-VK","2018/10/29 14:29:37","新北市板橋區長江路一段106巷20弄11號","121.460168333333","25.0282166666667","6500100","板橋區"
"220009","293-UM","2018/10/29 14:29:38","新北市板橋區漢生東路131巷9號","121.468185","25.0145266666667","6500100","板橋區"
"220010","295-UM","2018/10/29 14:29:36","新北市板橋區三民路二段153巷4弄1號","121.47964","25.0147216666667","6500100","板橋區"
"220001","299-UM","2018/10/29 14:29:25","新北市板橋區富山街76號","121.476895","25.0219266666667","6500100","板橋區"
"220023","303-R5","2018/10/29 14:29:23","新北市板橋區中正路289巷19號","121.454788333333","25.01907","6500100","板橋區"
"220041","307-R5","2018/10/29 14:29:39","新北市板橋區光武街2巷45號","121.468383333333","25.0260466666667","6500100","板橋區"
"220047","317-R6","2018/10/29 14:29:36","新北市板橋區民生路三段281巷2弄8號","121.463593333333","25.0302183333333","6500100","板橋區"
"220012","486-VK","2018/10/29 14:29:38","新北市板橋區館前西路5號","121.459153333333","25.0069916666667","6500100","板橋區"
"220038","487-VK","2018/10/29 14:29:26","新北市板橋區文化路一段71號","121.461045","25.0139283333333","6500100","板橋區"
"220037","491-VK","2018/10/29 14:29:25","新北市板橋區雙十路二段37-1號","121.476891666667","25.02584","6500100","板橋區"
"220104","560-BX","2018/10/29 14:29:35","新北市板橋區中正路379巷3弄42號","121.453483333333","25.02087","6500100","板橋區"
"220052","561-BX","2018/10/29 14:29:33","新北市板橋區文化路一段270巷2號","121.467345","25.0205366666667","6500100","板橋區"
"220011","609-BX","2018/10/29 14:29:23","新北市板橋區三民路二段204-3號","121.478973333333","25.01232","6500100","板橋區"
"220040","637-BX","2018/10/29 14:29:22","新北市板橋區文聖街149巷25號","121.479495","25.0286133333333","6500100","板橋區"
"220025","687-BX","2018/10/29 14:29:36","新北市板橋區大觀路一段51號","121.447758333333","25.00701","6500100","板橋區"
"220042","689-BX","2018/10/29 14:29:22","新北市板橋區雨農路32號","121.461235","25.0243216666667","6500100","板橋區"
"220002","741-BX","2018/10/29 14:29:23","新北市板橋區光明街88號","121.461985","25.0027283333333","6500100","板橋區"
"220051","KEA-2699","2018/10/29 14:29:32","新北市板橋區雙十路二段112號","121.474546666667","25.028815","6500100","板橋區"
"220003","827-TW","2018/10/29 14:29:37","新北市板橋區重慶路290巷22弄14號","121.462318333333","24.9994466666667","6500100","板橋區"
"220014","829-TW","2018/10/29 14:29:26","新北市板橋區漢生東路313巷9號","121.472246666667","25.008285","6500100","板橋區"
"220045","831-TW","2018/10/29 14:29:35","新北市板橋區莒光路114巷3號","121.47282","25.0235266666667","6500100","板橋區"
"220022","895-R6","2018/10/29 14:29:33","新北市板橋區館前西路142號","121.456288333333","25.0081016666667","6500100","板橋區"
"220021","985-R7","2018/10/29 14:29:26","新北市板橋區中正路360巷59號","121.4566","25.0229183333333","6500100","板橋區"
"220046","AAC-210","2018/10/29 14:29:29","新北市板橋區漢生西路141號","121.462846666667","25.021705","6500100","板橋區"
"220018","AAC-253","2018/10/29 14:29:34","新北市板橋區四川路一段151號","121.459946666667","25.00415","6500100","板橋區"
"235032","KEA-2873","2018/10/29 14:29:15","新北市中和區中山路二段191號","121.500101666667","25.0026566666667","6500300","中和區"
"235025","KEA-2875","2018/10/29 14:29:30","新北市中和區員山路226巷13弄1號","121.482153333333","25.00008","6500300","中和區"
