"lineid","car","time","location","longitude","latitude","cityid","cityname"
"234025","9371-KE","2018/10/29 15:09:24","新北市永和區保生路55號","121.504691666667","25.0107266666667","6500400","永和區"
"248015","026-BX","2018/10/29 15:09:32","新北市五股區天乙路34號","121.448461666667","25.103525","6501500","五股區"
"248007","095-VK","2018/10/29 15:09:18","新北市五股區四維路30巷29號","121.468528333333","25.0714966666667","6501500","五股區"
"248003","677-BX","2018/10/29 15:09:19","新北市五股區成泰路一段138號","121.435105","25.0756283333333","6501500","五股區"
"232012","291-BY","2018/10/29 15:09:37","新北市坪林區北宜路八段558號","121.718138333333","24.9093383333333","6502000","坪林區"
"244001","248-BX","2018/10/29 15:09:30","新北市林口區竹林路266號","121.389656666667","25.08076","6501700","林口區"
"243001","297-R6","2018/10/29 15:09:35","新北市泰山區泰林路二段542巷1弄1號","121.423343333333","25.0641016666667","6501600","泰山區"
"243008","KEA-2801","2018/10/29 15:09:29","新北市泰山區明志路二段323號","121.426338333333","25.045695","6501600","泰山區"
"243007","421-VK","2018/10/29 15:09:27","新北市泰山區橫窠雅10-18號","121.414258333333","25.0676766666667","6501600","泰山區"
"243004","539-UM","2018/10/29 15:09:20","新北市泰山區美寧街57巷37弄2號","121.429438333333","25.065035","6501600","泰山區"
"243003","KEA-2215","2018/10/29 15:09:32","新北市泰山區新北大道六段381號","121.42191","25.032585","6501600","泰山區"
"243006","680-BX","2018/10/29 15:09:20","新北市泰山區泰林路三段745巷145號","121.405603333333","25.067905","6501600","泰山區"
"231002","002-UM","2018/10/29 15:09:38","新北市新店區中正路501-8號","121.533663333333","24.984045","6500600","新店區"
"231028","046-UY","2018/10/29 15:09:24","新北市新店區僑信路122號","121.500466666667","24.9463883333333","6500600","新店區"
"231001","047-UY","2018/10/29 15:09:38","新北市新店區中正路255號","121.538861666667","24.973495","6500600","新店區"
"231019","108-UY","2018/10/29 15:09:36","新北市新店區永福路54號","121.55813","24.92857","6500600","新店區"
"231010","110-UY","2018/10/29 15:09:26","新北市新店區安一路一段1-1號","121.51968","24.9612033333333","6500600","新店區"
"231011","187-VK","2018/10/29 15:09:23","新北市新店區寶元路一段65號","121.542261666667","24.9858383333333","6500600","新店區"
"231023","188-VK","2018/10/29 15:09:26","新北市新店區檳榔路109號","121.544393333333","24.9614983333333","6500600","新店區"
"231026","256-BX","2018/10/29 15:09:30","新北市新店區建興街7號","121.539916666667","24.9763783333333","6500600","新店區"
"231003","268-BY","2018/10/29 15:09:20","新北市新店區中興路二段246號","121.547731666667","24.9756633333333","6500600","新店區"
"231018","278-BY","2018/10/29 15:09:25","新北市新店區中央六街109號","121.52554","24.9772483333333","6500600","新店區"
"231014","AAD-862","2018/10/29 15:09:36","新北市新店區明山路45號","121.56384","24.9558783333333","6500600","新店區"
"231006","355-BY","2018/10/29 15:09:20","新北市新店區新坡一街18巷5弄23號","121.550741666667","24.9618683333333","6500600","新店區"
"231038","3712-VJ","2018/10/29 15:09:31","新北市新店區安一路一段1-1號","121.519728333333","24.9611066666667","6500600","新店區"
"231037","4716-K9","2018/10/29 15:09:31","新北市新店區安興路7號","121.514988333333","24.9683083333333","6500600","新店區"
"231025","4715-K9","2018/10/29 15:09:22","新北市新店區二十張路46巷37弄21-5號","121.535488333333","24.9813466666667","6500600","新店區"
"231036","512-UM","2018/10/29 15:09:30","新北市新店區安祥路102巷42弄3號","121.484535","24.9643433333333","6500600","新店區"
"231005","618-UM","2018/10/29 15:09:36","新北市新店區北新路三段148號","121.541465","24.9824016666667","6500600","新店區"
"231030","619-UM","2018/10/29 15:09:39","新北市新店區安民街341-1號","121.51674","24.9749766666667","6500600","新店區"
"231034","641-BX","2018/10/29 15:09:17","新北市新店區玫瑰路4-1號","121.493568333333","24.95142","6500600","新店區"
"231039","718-UY","2018/10/29 15:09:26","新北市新店區寶安街4巷1號","121.542196666667","24.981055","6500600","新店區"
"231035","719-UM","2018/10/29 15:09:34","新北市新店區永安街56巷6-4號","121.518345","24.9861583333333","6500600","新店區"
"231031","720-UM","2018/10/29 15:09:18","新北市新店區安泰路60巷134弄66號","121.483468333333","24.9434683333333","6500600","新店區"
"231029","897-TW","2018/10/29 15:09:37","新北市新店區安康路三段738號","121.473791666667","24.942075","6500600","新店區"
"231004","899-TW","2018/10/29 15:09:34","新北市新店區建國路40號","121.540565","24.9748783333333","6500600","新店區"
"231024","AKT-0513","2018/10/29 15:09:31","新北市新店區北新路一段297巷15號","121.540886666667","24.9676966666667","6500600","新店區"
"241013","270-UM","2018/10/29 15:09:33","新北市三重區重新路四段121號","121.484863333333","25.05258","6500200","三重區"
"241002","887-TS","2018/10/29 15:09:35","新北市三重區重新路四段121號","121.485121666667","25.0523433333333","6500200","三重區"
"235030","003-UY","2018/10/29 15:09:21","新北市中和區水源路127巷5號","121.50801","25.0034883333333","6500300","中和區"
"235028","005-UY","2018/10/29 15:09:36","新北市八里區中山路三段382號","121.368501666667","25.1360733333333","6500300","中和區"
"235029","098-UM","2018/10/29 15:09:30","新北市中和區永和路128巷45號","121.497815","25.006755","6500300","中和區"
"235007","352-BY","2018/10/29 15:09:27","新北市中和區興南路二段159巷16號","121.504943333333","24.983105","6500300","中和區"
"235014","4979-A6","2018/10/29 15:09:31","新北市中和區景平路183號","121.511688333333","24.9924333333333","6500300","中和區"
"235033","4980-A6","2018/10/29 15:09:21","新北市中和區景新街64巷7弄9號","121.504375","24.9986116666667","6500300","中和區"
"235034","558-UM","2018/10/29 15:09:25","新北市中和區中正路277-6號","121.495061666667","24.9938966666667","6500300","中和區"
"235018","640-BX","2018/10/29 15:09:24","新北市中和區中山路三段65號","121.476626666667","25.0057716666667","6500300","中和區"
"235035","783-BX","2018/10/29 15:09:23","新北市中和區立德街312號","121.482125","25.0105866666667","6500300","中和區"
"235012","896-TW","2018/10/29 15:09:19","新北市中和區興南路一段142-6號","121.5085","24.98717","6500300","中和區"
"235001","AAC-213","2018/10/29 15:09:20","新北市中和區立人街55號","121.520368333333","24.9942466666667","6500300","中和區"
"235023","AAC-215","2018/10/29 15:09:38","新北市中和區圓通路395號","121.48953","24.9891783333333","6500300","中和區"
"220013","072-UY","2018/10/29 15:09:20","新北市板橋區民族路69巷12號","121.465735","25.0094866666667","6500100","板橋區"
"220017","AAD-861","2018/10/29 15:09:33","新北市板橋區貴興路69號","121.45706","25.0030716666667","6500100","板橋區"
"253003","6232-TK","2018/10/29 15:09:32","新北市石門區尖子鹿101號","121.580871666667","25.2929166666667","6502200","石門區"
"253004","6251-TK","2018/10/29 15:09:33","新北市石門區小坑33號","121.597971666667","25.2695433333333","6502200","石門區"
"253002","637-UY","2018/10/29 15:09:21","新北市石門區楓林40-1號","121.540255","25.2863","6502200","石門區"
"253001","KEC-0718","2018/10/29 15:09:19","新北市石門區中央路1-25號","121.559713333333","25.2909033333333","6502200","石門區"
"207002","749-BX","2018/10/29 15:09:25","新北市萬里區崁腳里內中福路66號","121.655308333333","25.1668766666667","6502800","萬里區"
"207001","662-BX","2018/10/29 15:09:21","新北市萬里區雙興里麗水路3-2號","121.653558333333","25.180565","6502800","萬里區"
"236064","105-UM","2018/10/29 15:09:29","新北市土城區學成路144號","121.448871666667","24.9896033333333","6501300","土城區"
"236074","166-UM","2018/10/29 15:09:23","新北市土城區中州路11號","121.414038333333","24.95768","6501300","土城區"
"236029","253-BX","2018/10/29 15:09:38","新北市土城區中央路二段64號","121.442566666667","24.9792483333333","6501300","土城區"
"236024","269-VK","2018/10/29 15:09:35","新北市土城區中正路65號","121.444541666667","24.9757083333333","6501300","土城區"
"236012","270-VK","2018/10/29 15:09:35","新北市土城區學府路一段23巷42號","121.457191666667","24.9868333333333","6501300","土城區"
"236032","271-VK","2018/10/29 15:09:35","新北市土城區仁愛路54巷1號","121.462548333333","24.9785016666667","6501300","土城區"
"236016","401-BY","2018/10/29 15:09:33","新北市土城區延峰街28號","121.46921","24.9852616666667","6501300","土城區"
"236040","752-BX","2018/10/29 15:09:31","新北市土城區裕民路256巷4弄6號","121.453878333333","24.982595","6501300","土城區"
"236057","912-UM","2018/10/29 15:09:35","新北市土城區金城路一段105號","121.444196666667","24.9730583333333","6501300","土城區"
"236045","913-UM","2018/10/29 15:09:30","新北市土城區清水路201號","121.459966666667","24.981755","6501300","土城區"
"236060","915-UM","2018/10/29 15:09:32","新北市土城區延平街16號","121.468331666667","24.991005","6501300","土城區"
"236054","AAC-216","2018/10/29 15:09:34","新北市土城區學府路一段276號","121.45021","24.9833733333333","6501300","土城區"
"242001","233-RS","2018/10/29 15:09:39","新北市新莊區環河路636-7號","121.437443333333","25.0116433333333","6500500","新莊區"
"238002","755-BX","2018/10/29 15:09:30","新北市樹林區中山路二段161號","121.406158333333","24.97881","6500700","樹林區"
"238006","599-UM","2018/10/29 15:09:28","新北市樹林區八德街247號","121.421776666667","24.9785933333333","6500700","樹林區"
"238005","571-TV","2018/10/29 15:09:33","新北市板橋區溪城路90-2號","121.429148333333","24.9799766666667","6500700","樹林區"
"238011","5061-A6","2018/10/29 15:09:27","新北市樹林區中華路3號","121.424798333333","24.9838516666667","6500700","樹林區"
"238009","KEA-2213","2018/10/29 15:09:26","新北市樹林區八德街251巷17號","121.422863333333","24.9790083333333","6500700","樹林區"
"238008","KEA-2539","2018/10/29 15:09:26","新北市樹林區西圳街一段165巷20弄11號","121.395658333333","24.96019","6500700","樹林區"
"238012","303-VK","2018/10/29 15:09:25","新北市樹林區中山路二段34號","121.417336666667","24.9849916666667","6500700","樹林區"
"238004","283-BY","2018/10/29 15:09:22","新北市樹林區太平路212-2號","121.418418333333","24.97462","6500700","樹林區"
"238001","282-BY","2018/10/29 15:09:19","新北市樹林區中山路二段222-2號","121.410045","24.9805816666667","6500700","樹林區"
"238007","268-VK","2018/10/29 15:09:29","新北市樹林區環河路2-2號","121.42586","24.9771466666667","6500700","樹林區"
"238013","172-UY","2018/10/29 15:09:38","新北市樹林區東豐街113號","121.40626","24.9745","6500700","樹林區"
"220050","245-BX","2018/10/29 15:09:29","新北市板橋區雙十路二段47巷4弄33號","121.474833333333","25.0267633333333","6500100","板橋區"
"220005","282-UM","2018/10/29 15:09:35","新北市板橋區南雅南路二段144巷30號","121.450305","24.99572","6500100","板橋區"
"220019","283-VK","2018/10/29 15:09:32","新北市板橋區廣權路99號","121.464603333333","24.9925883333333","6500100","板橋區"
"220031","286-VK","2018/10/29 15:09:28","新北市板橋區僑中二街92巷2號","121.446276666667","25.008955","6500100","板橋區"
"220029","287-VK","2018/10/29 15:09:33","新北市板橋區僑中一街80巷1弄2號","121.447506666667","25.012","6500100","板橋區"
"220009","293-UM","2018/10/29 15:09:24","新北市板橋區四川路一段274巷1弄2號","121.458385","25.0012983333333","6500100","板橋區"
"220001","299-UM","2018/10/29 15:09:25","新北市板橋區懷仁街73號","121.477288333333","25.0185133333333","6500100","板橋區"
"220041","307-R5","2018/10/29 15:09:39","新北市板橋區裕民街149號","121.458613333333","25.02712","6500100","板橋區"
"220012","486-VK","2018/10/29 15:09:18","新北市板橋區漢生東路195號","121.470035","25.011435","6500100","板橋區"
"220038","487-VK","2018/10/29 15:09:36","新北市板橋區新海路385巷34弄4號","121.457355","25.0255966666667","6500100","板橋區"
"220037","491-VK","2018/10/29 15:09:25","新北市板橋區懷德街236號","121.48054","25.0288","6500100","板橋區"
"220052","561-BX","2018/10/29 15:09:33","新北市板橋區英士路58巷16號","121.460828333333","25.02546","6500100","板橋區"
"220011","609-BX","2018/10/29 15:09:23","新北市板橋區中山路二段316號","121.480138333333","25.019065","6500100","板橋區"
"220025","687-BX","2018/10/29 15:09:36","新北市板橋區僑中一街124巷17弄2號","121.446105","25.0138616666667","6500100","板橋區"
"220042","689-BX","2018/10/29 15:09:22","新北市板橋區文化路二段584號","121.476825","25.0347383333333","6500100","板橋區"
"220002","741-BX","2018/10/29 15:09:25","新北市板橋區忠孝路忠義巷3弄1號","121.465185","25.0035833333333","6500100","板橋區"
"220051","KEA-2699","2018/10/29 15:09:32","新北市板橋區民治街137號","121.477688333333","25.0305616666667","6500100","板橋區"
"220003","827-TW","2018/10/29 15:09:39","新北市板橋區國慶路149巷40號","121.460993333333","24.9980583333333","6500100","板橋區"
"220014","829-TW","2018/10/29 15:09:36","新北市板橋區中山路一段206巷79號","121.471738333333","25.01321","6500100","板橋區"
"220046","AAC-210","2018/10/29 15:09:29","新北市板橋區國光路190號","121.461121666667","25.0183433333333","6500100","板橋區"
"220018","AAC-253","2018/10/29 15:09:33","新北市板橋區成都街23號","121.460735","25.0049233333333","6500100","板橋區"
