"lineid","car","time","location","longitude","latitude","cityid","cityname"
"234042","862-TW","2018/10/29 17:59:41","新北市永和區福和路1號","121.526495","25.0097516666667","6500400","永和區"
"234026","9371-KE","2018/10/29 17:59:33","新北市永和區水源街2巷24號","121.512101666667","25.00573","6500400","永和區"
"249005","172-UM","2018/10/29 17:59:37","新北市八里區荖阡坑路16號","121.397771666667","25.1383733333333","6502300","八里區"
"249001","173-UM","2018/10/29 17:59:41","新北市八里區龍米路二段35號","121.448405","25.1400466666667","6502300","八里區"
"249004","303-UY","2018/10/29 17:59:36","新北市八里區龍米路三段46號","121.427878333333","25.15917","6502300","八里區"
"249002","305-UY","2018/10/29 17:59:26","新北市八里區龍米路一段259號","121.450748333333","25.1337133333333","6502300","八里區"
"249003","593-UM","2018/10/29 17:59:40","新北市八里區中華路二段201號","121.405548333333","25.1496366666667","6502300","八里區"
"248016","026-BX","2018/10/29 17:59:36","新北市五股區中興路二段83巷26-6號","121.45956","25.075225","6501500","五股區"
"248006","077-UY","2018/10/29 17:59:37","新北市五股區中興路二段103巷14號","121.458148333333","25.0766383333333","6501500","五股區"
"248008","095-VK","2018/10/29 17:59:37","新北市五股區更洲路10號","121.45835","25.07882","6501500","五股區"
"248018","225-UY","2018/10/29 17:59:22","新北市五股區中興路二段83巷26-6號","121.460023333333","25.075305","6501500","五股區"
"248014","261-SL","2018/10/29 17:59:21","新北市五股區中興路二段163號","121.457631666667","25.0776083333333","6501500","五股區"
"248010","272-BY","2018/10/29 17:59:37","新北市五股區中興路二段163號","121.457568333333","25.0777566666667","6501500","五股區"
"248002","678-BX","2018/10/29 17:59:15","新北市五股區中興路二段37巷28號","121.460153333333","25.0747483333333","6501500","五股區"
"232011","076-UY","2018/10/29 17:59:36","新北市坪林區北宜路八段205號","121.708423333333","24.9348033333333","6502000","坪林區"
"244023","069-UM","2018/10/29 17:59:22","新北市林口區東湖路105巷17號","121.383936666667","25.072505","6501700","林口區"
"244007","080-UY","2018/10/29 17:59:28","新北市林口區林口路170號","121.387698333333","25.0826233333333","6501700","林口區"
"244019","403-UM","2018/10/29 17:59:35","新北市林口區文化一路一段122號","121.3745","25.0721233333333","6501700","林口區"
"244013","KEA-2802","2018/10/29 17:59:36","新北市林口區中山路40號","121.39549","25.0783483333333","6501700","林口區"
"244009","410-SL","2018/10/29 17:59:36","新北市林口區林口路241號","121.386718333333","25.083785","6501700","林口區"
"244017","485-VK","2018/10/29 17:59:35","新北市林口區忠孝路494號","121.370546666667","25.07031","6501700","林口區"
"244011","701-TV","2018/10/29 17:59:29","新北市林口區中正路182號","121.391893333333","25.0774683333333","6501700","林口區"
"244025","837-TS","2018/10/29 17:59:26","新北市林口區八德路360號","121.359535","25.0662733333333","6501700","林口區"
"244021","838-TS","2018/10/29 17:59:35","新北市林口區新寮45號","121.404236666667","25.06431","6501700","林口區"
"222003","436-BY","2018/10/29 17:59:39","新北市深坑區炮子崙23號","121.607175","24.9909883333333","6501800","深坑區"
"222002","659-BX","2018/10/29 17:59:34","新北市深坑區深坑街35號","121.616043333333","25.0018683333333","6501800","深坑區"
"231046","110-UY","2018/10/29 17:59:26","新北市新店區康雅崙路1號","121.540523333333","24.9263133333333","6500600","新店區"
"251014","742-BX","2018/10/29 17:59:41","新北市淡水區南平6-1號","121.48157","25.2232116666667","6501000","淡水區"
"241016","266-UM","2018/10/29 17:59:32","新北市新莊區五工一路96號","121.460765","25.0681383333333","6500200","三重區"
"241025","271-UM","2018/10/29 17:59:39","新北市八里區荖阡坑路20-9號","121.39848","25.1373516666667","6500200","三重區"
"241024","KEA-2210","2018/10/29 17:59:25","新北市三重區車路頭街35號","121.483838333333","25.0713916666667","6500200","三重區"
"241033","AAC-255","2018/10/29 17:59:28","新北市三重區光復路一段66號","121.471946666667","25.0490166666667","6500200","三重區"
"235066","003-UY","2018/10/29 17:59:34","新北市中和區景平路477號","121.500228333333","24.99721","6500300","中和區"
"235064","005-UY","2018/10/29 17:59:32","新北市中和區員山路36巷16-3號","121.485068333333","24.9913183333333","6500300","中和區"
"235063","006-UY","2018/10/29 17:59:30","新北市中和區員山路36巷16-3號","121.485016666667","24.99139","6500300","中和區"
"235065","098-UM","2018/10/29 17:59:30","新北市中和區連城路469-1號","121.483578333333","24.9956916666667","6500300","中和區"
"235058","151-BY","2018/10/29 17:59:29","新北市中和區錦和路350-1號","121.490415","24.99354","6500300","中和區"
"235038","185-VK","2018/10/29 17:59:24","新北市中和區中正路305號","121.49224","24.9938416666667","6500300","中和區"
"247012","KEA-2869","2018/10/29 17:59:37","新北市蘆洲區民族路167巷18號","121.4782","25.0885","6501400","蘆洲區"
"235042","551-UM","2018/10/29 17:59:25","新北市中和區中正路637巷52弄1號","121.48541","24.9934483333333","6500300","中和區"
"235051","157-BY","2018/10/29 17:59:39","新北市中和區中正路395號","121.490008333333","24.9935816666667","6500300","中和區"
"235037","AAC-213","2018/10/29 17:59:33","新北市中和區錦和路350-1號","121.49049","24.99361","6500300","中和區"
"247002","893-R6","2018/10/29 17:59:26","新北市蘆洲區永平街32巷57弄17號","121.459143333333","25.0930616666667","6501400","蘆洲區"
"247016","546-UM","2018/10/29 17:59:37","新北市蘆洲區中正路185巷78弄9號","121.466001666667","25.0845316666667","6501400","蘆洲區"
"247024","500-BY","2018/10/29 17:59:26","新北市蘆洲區光復路28號","121.46328","25.0846016666667","6501400","蘆洲區"
"247014","339-TH","2018/10/29 17:59:30","新北市蘆洲區復興路7號","121.47194","25.0853283333333","6501400","蘆洲區"
"226004","312-R5","2018/10/29 17:59:40","新北市平溪區石底里公園街18-3號","121.733353333333","25.025795","6502400","平溪區"
"228003","097-TW","2018/10/29 17:59:38","新北市貢寮區真理里美艷山街6-2號","121.928863333333","25.06076","6502600","貢寮區"
"228002","585-TW","2018/10/29 17:59:35","新北市貢寮區福連里香蘭街2-1號","121.968843333333","25.023515","6502600","貢寮區"
"228001","670-TC","2018/10/29 17:59:32","新北市貢寮區仁理村仁愛路106巷36號","121.928731666667","25.0534833333333","6502600","貢寮區"
"224006","676-BX","2018/10/29 17:59:33","新北市瑞芳區大寮路356-1號","121.784871666667","25.1032633333333","6501200","瑞芳區"
"224002","639-TC","2018/10/29 17:59:28","新北市瑞芳區三爪子坑路32巷138號","121.809681666667","25.1058616666667","6501200","瑞芳區"
"224008","285-BY","2018/10/29 17:59:35","新北市瑞芳區明燈路一段45巷2-3號","121.821338333333","25.1067233333333","6501200","瑞芳區"
"224009","273-VK","2018/10/29 17:59:38","新北市瑞芳區山尖路2號","121.854365","25.1162733333333","6501200","瑞芳區"
"224005","271-BY","2018/10/29 17:59:38","新北市瑞芳區弘祥新村10號","121.817798333333","25.1286916666667","6501200","瑞芳區"
"227001","030-BX","2018/10/29 17:59:25","新北市雙溪區共和里東榮街52號","121.866371666667","25.0337333333333","6502500","雙溪區"
"253006","032-BX","2018/10/29 17:59:31","新北市石門區大丘田45-2號","121.549753333333","25.2748683333333","6502200","石門區"
"253005","295-VK","2018/10/29 17:59:40","新北市石門區中山路62-11號","121.567538333333","25.2896566666667","6502200","石門區"
"222001","KEA-2212","2018/10/29 17:59:39","新北市深坑區北深路三段10號","121.61043","25.0010033333333","6501800","深坑區"
"208002","KEA-2872","2018/10/29 17:59:37","新北市金山區三界壇路91-1號","121.624876666667","25.2286283333333","6502700","金山區"
"208003","665-BX","2018/10/29 17:59:37","新北市金山區磺港里磺港路312號","121.644211666667","25.22781","6502700","金山區"
"208001","761-BX","2018/10/29 17:59:30","新北市金山區磺港里社寮17號","121.63911","25.2265266666667","6502700","金山區"
"251009","008-UM","2018/10/29 17:59:31","新北市淡水區大智街27號","121.442348333333","25.1745983333333","6501000","淡水區"
"251005","010-UM","2018/10/29 17:59:34","新北市淡水區英專路125-6號","121.446116666667","25.172715","6501000","淡水區"
"251001","011-UM","2018/10/29 17:59:43","新北市淡水區民權路15號","121.463198333333","25.12443","6501000","淡水區"
"251013","KEA-2871","2018/10/29 17:59:41","新北市淡水區泉洲厝31號","121.479603333333","25.1910566666667","6501000","淡水區"
"251016","179-VK","2018/10/29 17:59:38","新北市淡水區埤島30-12號","121.4478","25.1982683333333","6501000","淡水區"
"251008","181-VK","2018/10/29 17:59:36","新北市淡水區八勢一街40號","121.461491666667","25.1551333333333","6501000","淡水區"
"251015","182-VK","2018/10/29 17:59:29","新北市淡水區興福寮88巷1號","121.485173333333","25.1648566666667","6501000","淡水區"
"251010","413-VK","2018/10/29 17:59:32","新北市淡水區中正路一段87巷1號","121.421726666667","25.17914","6501000","淡水區"
"251012","441-VK","2018/10/29 17:59:38","新北市淡水區北新路三段38巷7號","121.484546666667","25.1870283333333","6501000","淡水區"
"251007","442-VK","2018/10/29 17:59:32","新北市淡水區中正東路二段161巷11弄10號","121.461471666667","25.146025","6501000","淡水區"
"251004","443-VK","2018/10/29 17:59:32","新北市淡水區民權路187號","121.459538333333","25.1335566666667","6501000","淡水區"
"251006","561-UM","2018/10/29 17:59:25","新北市淡水區真理街2-1號","121.438713333333","25.17298","6501000","淡水區"
"251011","650-BX","2018/10/29 17:59:31","新北市淡水區三空泉7-1號","121.476526666667","25.1624716666667","6501000","淡水區"
"251002","672-BX","2018/10/29 17:59:27","新北市淡水區中正東路81巷1號","121.447716666667","25.1670166666667","6501000","淡水區"
"251003","766-UM","2018/10/29 17:59:37","新北市淡水區大忠街47號","121.444705","25.17637","6501000","淡水區"
"207004","681-TV","2018/10/29 17:59:40","新北市萬里區中幅里中福路48號","121.683316666667","25.1741166666667","6502800","萬里區"
"207003","550-UM","2018/10/29 17:59:30","新北市萬里區港東路野柳風景區攤販66號","121.691395","25.205865","6502800","萬里區"
"252002","178-VK","2018/10/29 17:59:36","新北市三芝區中山路二段45號","121.502991666667","25.2548383333333","6502100","三芝區"
"252001","292-VK","2018/10/29 17:59:23","新北市三芝區中興街二段2號","121.49845","25.25662","6502100","三芝區"
"237007","153-BY","2018/10/29 17:59:36","新北市三峽區中正路二段66號","121.36657","24.9184333333333","6500900","三峽區"
"237009","210-TH","2018/10/29 17:59:27","新北市三峽區中山路106巷19號","121.366035","24.9363316666667","6500900","三峽區"
"237013","252-BX","2018/10/29 17:59:35","新北市三峽區介壽路一段169號","121.377203333333","24.9310783333333","6500900","三峽區"
"237012","275-BY","2018/10/29 17:59:32","新北市三峽區民生街19巷3-1號","121.376155","24.93614","6500900","三峽區"
"237008","302-VK","2018/10/29 17:59:33","新北市三峽區白雞30-14號","121.372435","24.9122416666667","6500900","三峽區"
"237014","433-BY","2018/10/29 17:59:26","新北市三峽區復興路101巷1弄79號","121.371008333333","24.9376933333333","6500900","三峽區"
"237006","5529-G3","2018/10/29 17:59:31","新北市三峽區介壽路二段136巷116-2號","121.392283333333","24.9328183333333","6500900","三峽區"
"237011","KEA-2596","2018/10/29 17:59:27","新北市三峽區大同路50號","121.377031666667","24.9285666666667","6500900","三峽區"
"237015","649-BX","2018/10/29 17:59:41","新北市三峽區紫微路93號","121.41051","24.915285","6500900","三峽區"
"237010","706-TV","2018/10/29 17:59:44","新北市三峽區仁愛街18號","121.368293333333","24.932325","6500900","三峽區"
"237005","AKY-6261","2018/10/29 17:59:42","新北市三峽區復興路237巷38號","121.368968333333","24.937835","6500900","三峽區"
"236069","105-UM","2018/10/29 17:59:38","新北市土城區城林路6巷80號","121.438428333333","24.9800033333333","6501300","土城區"
"236078","166-UM","2018/10/29 17:59:34","新北市土城區永寧路32巷10弄3號","121.428875","24.9610266666667","6501300","土城區"
"236030","253-BX","2018/10/29 17:59:34","新北市土城區城林路6巷80號","121.43867","24.97968","6501300","土城區"
"236026","269-VK","2018/10/29 17:59:23","新北市土城區承天路45號","121.43882","24.96399","6501300","土城區"
"236014","270-VK","2018/10/29 17:59:33","新北市土城區城林路6巷80號","121.438686666667","24.979715","6501300","土城區"
"236039","271-VK","2018/10/29 17:59:32","新北市土城區城林路6巷80號","121.438495","24.979755","6501300","土城區"
"236020","401-BY","2018/10/29 17:59:37","新北市土城區城林路6巷80號","121.43852","24.9795966666667","6501300","土城區"
"236042","752-BX","2018/10/29 17:59:11","新北市土城區城林路6巷80號","121.438465","24.9797966666667","6501300","土城區"
"236059","912-UM","2018/10/29 17:59:37","新北市土城區中央路三段254-1號","121.42749","24.964165","6501300","土城區"
"236048","913-UM","2018/10/29 17:59:29","新北市土城區城林路6巷80號","121.438813333333","24.9796266666667","6501300","土城區"
"236055","AAC-216","2018/10/29 17:59:24","新北市土城區城林路6巷80號","121.43852","24.9796066666667","6501300","土城區"
"242036","AAC-296","2018/10/29 17:59:27","新北市新莊區建福路56號","121.426685","25.027335","6500500","新莊區"
"242058","986-R7","2018/10/29 17:59:34","新北市新莊區雙鳳路134巷8號","121.41276","25.0281483333333","6500500","新莊區"
"242056","751-BX","2018/10/29 17:59:27","新北市新莊區豐年街57-1號","121.446538333333","25.0298966666667","6500500","新莊區"
"242027","615-BX","2018/10/29 17:59:41","新北市新莊區思源路371號","121.459913333333","25.050975","6500500","新莊區"
"242025","613-BX","2018/10/29 17:59:34","新北市新莊區五工路58號","121.458746666667","25.0628666666667","6500500","新莊區"
"242029","612-BX","2018/10/29 17:59:39","新北市新莊區中平路75號","121.444738333333","25.0450033333333","6500500","新莊區"
"242044","566-BX","2018/10/29 17:59:30","新北市新莊區雙鳳路130號","121.413373333333","25.0280833333333","6500500","新莊區"
"242048","497-BY","2018/10/29 17:59:29","新北市新莊區後港二路18-1號","121.422623333333","25.0237166666667","6500500","新莊區"
"242034","442-UM","2018/10/29 17:59:26","新北市新莊區福海街8號","121.445261666667","25.0333533333333","6500500","新莊區"
"242053","441-UM","2018/10/29 17:59:39","新北市新莊區光華街44號","121.428688333333","25.0115416666667","6500500","新莊區"
"242039","415-TV","2018/10/29 17:59:40","新北市新莊區民安西路26號","121.426711666667","25.0213066666667","6500500","新莊區"
"242009","413-TV","2018/10/29 17:59:39","新北市新莊區中華路二段260號","121.45256","25.0532066666667","6500500","新莊區"
"242046","400-BY","2018/10/29 17:59:43","新北市新莊區福營路165巷18-1號","121.432376666667","25.0301883333333","6500500","新莊區"
"242023","362-BY","2018/10/29 17:59:39","新北市新莊區福壽街67號","121.458241666667","25.0493416666667","6500500","新莊區"
"242060","353-BY","2018/10/29 17:59:27","新北市新莊區新樹路399號","121.432841666667","25.0161516666667","6500500","新莊區"
"242011","132-UY","2018/10/29 17:59:26","新北市新莊區中港路647號","121.450966666667","25.0550183333333","6500500","新莊區"
"242042","133-UY","2018/10/29 17:59:41","新北市新莊區丹鳳街36號","121.421578333333","25.0296","6500500","新莊區"
"242050","172-VK","2018/10/29 17:59:38","新北市新莊區西盛街153巷1號","121.428446666667","25.0182466666667","6500500","新莊區"
"242013","173-VK","2018/10/29 17:59:43","新北市新莊區中和街125巷20號","121.446696666667","25.048625","6500500","新莊區"
"242019","175-VK","2018/10/29 17:59:34","新北市新莊區民樂街3號","121.457493333333","25.03972","6500500","新莊區"
"242007","176-VK","2018/10/29 17:59:24","新北市新莊區自信街2號","121.453243333333","25.0480583333333","6500500","新莊區"
"242017","346-TH","2018/10/29 17:59:29","新北市新莊區永樂街184號","121.448301666667","25.0446233333333","6500500","新莊區"
"242015","347-TH","2018/10/29 17:59:31","新北市新莊區中平路87巷3號","121.444521666667","25.0457566666667","6500500","新莊區"
"242031","348-TH","2018/10/29 17:59:39","新北市新莊區新泰路289巷22號","121.444465","25.0405483333333","6500500","新莊區"
"242004","349-TH","2018/10/29 17:59:38","新北市新莊區自由街2號","121.455818333333","25.04808","6500500","新莊區"
"242021","350-TH","2018/10/29 17:59:38","新北市新莊區建興街41巷2號","121.450011666667","25.0372766666667","6500500","新莊區"
"238015","755-BX","2018/10/29 17:59:23","新北市樹林區大安路323巷8號","121.417761666667","24.9914583333333","6500700","樹林區"
"238023","601-UM","2018/10/29 17:59:38","新北市樹林區龍興街46巷30號","121.401886666667","25.0152083333333","6500700","樹林區"
"238019","599-UM","2018/10/29 17:59:28","新北市樹林區國凱街112號","121.421831666667","24.9796583333333","6500700","樹林區"
"238018","571-TV","2018/10/29 17:59:29","新北市樹林區樹新路122號","121.430173333333","24.99848","6500700","樹林區"
"238022","KEA-2213","2018/10/29 17:59:26","新北市樹林區太平路150巷21號","121.41764","24.977555","6500700","樹林區"
"238021","KEA-2539","2018/10/29 17:59:25","新北市樹林區柑園街一段33巷26號","121.405941666667","24.9556616666667","6500700","樹林區"
"238025","303-VK","2018/10/29 17:59:27","新北市樹林區中正路592號","121.410731666667","25.015355","6500700","樹林區"
"238017","283-BY","2018/10/29 17:59:22","新北市樹林區中正路837號","121.40914","25.0174916666667","6500700","樹林區"
"238014","282-BY","2018/10/29 17:59:39","新北市樹林區大安路41號","121.424001666667","24.9994033333333","6500700","樹林區"
"238020","268-VK","2018/10/29 17:59:42","新北市樹林區三俊街197號","121.42008","25.0158066666667","6500700","樹林區"
"238026","172-UY","2018/10/29 17:59:39","新北市樹林區中洲街26-1號","121.397495","24.9716983333333","6500700","樹林區"
"238016","169-UY","2018/10/29 17:59:26","新北市樹林區育英街135巷10號","121.419595","24.98902","6500700","樹林區"
"239007","AAC-297","2018/10/29 17:59:37","新北市鶯歌區鶯桃路94巷59弄1號","121.341845","24.95516","6500800","鶯歌區"
"239006","891-R6","2018/10/29 17:59:32","新北市鶯歌區鶯桃路455巷10弄12號","121.331103333333","24.9640916666667","6500800","鶯歌區"
"239008","527-UM","2018/10/29 17:59:41","新北市鶯歌區明圓街10號","121.336973333333","24.9780166666667","6500800","鶯歌區"
"239005","526-UM","2018/10/29 17:59:40","新北市鶯歌區鶯桃路668巷74-1號","121.330041666667","24.9718733333333","6500800","鶯歌區"
"239001","417-VK","2018/10/29 17:59:30","新北市鶯歌區中正三路235號","121.33452","24.9390583333333","6500800","鶯歌區"
"239003","360-BY","2018/10/29 17:59:37","新北市鶯歌區永吉街46巷31號","121.334816666667","24.9575283333333","6500800","鶯歌區"
"239002","359-BY","2018/10/29 17:59:39","新北市鶯歌區育英街17巷1弄3號","121.347651666667","24.9551683333333","6500800","鶯歌區"
"221008","489-VK","2018/10/29 17:59:34","新北市汐止區明峰街12號","121.635095","25.0714266666667","6501100","汐止區"
"221036","130-UY","2018/10/29 17:59:25","新北市汐止區大同路三段62巷1號","121.667596666667","25.07706","6501100","汐止區"
"221015","131-UY","2018/10/29 17:59:28","新北市汐止區長江街286號","121.665153333333","25.0808116666667","6501100","汐止區"
"221010","269-BY","2018/10/29 17:59:29","新北市汐止區汐萬路二段245巷35號","121.64402","25.08755","6501100","汐止區"
"221012","278-VK","2018/10/29 17:59:24","新北市汐止區長興街二段50巷1號","121.674081666667","25.08169","6501100","汐止區"
"221023","279-VK","2018/10/29 17:59:35","新北市汐止區明峰街133號","121.629915","25.070825","6501100","汐止區"
"221032","280-BY","2018/10/29 17:59:39","新北市汐止區橫科路73巷2-1號","121.61937","25.0508283333333","6501100","汐止區"
"221027","281-BY","2018/10/29 17:59:39","新北市汐止區大同路二段374號","121.65781","25.0671666666667","6501100","汐止區"
"221029","298-VK","2018/10/29 17:59:44","新北市汐止區樟樹二路329號","121.641273333333","25.0703666666667","6501100","汐止區"
"221021","299-VK","2018/10/29 17:59:40","新北市汐止區新興路32號","121.656595","25.06418","6501100","汐止區"
"221031","353-TW","2018/10/29 17:59:38","新北市汐止區中興路161號","121.631065","25.0660816666667","6501100","汐止區"
"221035","622-UM","2018/10/29 17:59:42","新北市汐止區新江北路30巷22弄5號","121.651606666667","25.06988","6501100","汐止區"
"221025","623-UM","2018/10/29 17:59:27","新北市汐止區仁愛路39號","121.659486666667","25.0633966666667","6501100","汐止區"
"221038","646-BX","2018/10/29 17:59:34","新北市汐止區連興街118號","121.653681666667","25.0625783333333","6501100","汐止區"
"221033","647-BX","2018/10/29 17:59:32","台北市南港區合順街8巷7弄39號","121.62004","25.0422816666667","6501100","汐止區"
"221002","707-TV","2018/10/29 17:59:36","新北市汐止區工建路207號","121.635811666667","25.0617416666667","6501100","汐止區"
"221018","753-BX","2018/10/29 17:59:39","新北市汐止區招商街11巷1號","121.666493333333","25.0688866666667","6501100","汐止區"
"242002","281-VK","2018/10/29 17:59:32","新北市新莊區中正路92號","121.455425","25.03671","6500500","新莊區"
"235061","KEA-2875","2018/10/29 17:59:28","新北市中和區員山路36巷16-2號","121.485193333333","24.9917166666667","6500300","中和區"
