"lineid","car","time","location","longitude","latitude","cityid","cityname"
"234046","148-BY","2018/10/29 18:39:41","新北市永和區秀朗路二段66巷8號","121.522646666667","25.0009266666667","6500400","永和區"
"234007","207-UY","2018/10/29 18:39:24","新北市永和區文化路170號","121.511856666667","25.0155","6500400","永和區"
"234081","298-R6","2018/10/29 18:39:35","新北市永和區林森路81號","121.523888333333","25.003885","6500400","永和區"
"234064","337-UY","2018/10/29 18:39:36","新北市永和區福和路1號","121.526451666667","25.0099916666667","6500400","永和區"
"234086","338-UY","2018/10/29 18:39:34","新北市永和區中正路132號","121.51451","24.9960116666667","6500400","永和區"
"234017","745-BX","2018/10/29 18:39:37","新北市永和區福和路1號","121.526291666667","25.009605","6500400","永和區"
"234030","746-BX","2018/10/29 18:39:42","新北市永和區得和路370號","121.52434","24.999355","6500400","永和區"
"234013","KEA-2591","2018/10/29 18:39:37","新北市永和區保安路46號","121.510351666667","25.0168766666667","6500400","永和區"
"234061","AAD-866","2018/10/29 18:39:31","新北市永和區豫溪街217巷29號","121.524523333333","25.0104483333333","6500400","永和區"
"234042","862-TW","2018/10/29 18:39:41","新北市永和區中和路615號","121.512743333333","25.00462","6500400","永和區"
"234026","9371-KE","2018/10/29 18:39:33","新北市永和區保生路55-1號","121.504518333333","25.0109066666667","6500400","永和區"
"234011","9373-KE","2018/10/29 18:39:33","新北市永和區文化路9巷22弄20號","121.514788333333","25.0145666666667","6500400","永和區"
"249005","172-UM","2018/10/29 18:39:37","新北市八里區中華路三段192號","121.388286666667","25.1258466666667","6502300","八里區"
"249001","173-UM","2018/10/29 18:39:41","新北市八里區龍米路一段386巷1-1號","121.451545","25.1320933333333","6502300","八里區"
"249004","303-UY","2018/10/29 18:39:29","新北市八里區龍米路三段60號","121.42363","25.1589866666667","6502300","八里區"
"249002","305-UY","2018/10/29 18:39:26","新北市八里區龍形一街33巷8-3號","121.449203333333","25.1297616666667","6502300","八里區"
"248016","026-BX","2018/10/29 18:39:36","新北市五股區凌雲路一段149巷13-1號","121.448566666667","25.100875","6501500","五股區"
"248008","095-VK","2018/10/29 18:39:37","新北市五股區中興路一段151巷1弄2號","121.465023333333","25.0731716666667","6501500","五股區"
"248018","225-UY","2018/10/29 18:37:22","新北市五股區民義路二段122號","121.40513","25.1147416666667","6501500","五股區"
"248012","247-BX","2018/10/29 18:39:29","新北市五股區成泰路三段2巷1-20號","121.441225","25.0866983333333","6501500","五股區"
"248014","261-SL","2018/10/29 18:39:41","新北市五股區成泰路一段235-2號","121.436273333333","25.0794583333333","6501500","五股區"
"248010","272-BY","2018/10/29 18:39:37","新北市五股區水碓七路168號","121.430755","25.073945","6501500","五股區"
"248004","677-BX","2018/10/29 18:39:27","新北市五股區民義路一段310-11號","121.424188333333","25.0940166666667","6501500","五股區"
"248002","678-BX","2018/10/29 18:39:35","新北市五股區西雲路220號","121.448148333333","25.0961233333333","6501500","五股區"
"234023","9380-KE","2018/10/29 18:39:39","新北市永和區福和路76巷5弄9號","121.522293333333","25.00834","6500400","永和區"
"234077","969-R7","2018/10/29 18:39:41","新北市永和區永貞路124號","121.518571666667","25.0044516666667","6500400","永和區"
"234003","AAC-295","2018/10/29 18:39:26","新北市永和區福和路1號","121.526568333333","25.009885","6500400","永和區"
"244023","069-UM","2018/10/29 18:39:21","新北市林口區吉祥路178號","121.376631666667","25.0804516666667","6501700","林口區"
"244007","080-UY","2018/10/29 18:39:28","新北市林口區太平嶺5-12號","121.37984","25.11421","6501700","林口區"
"244019","403-UM","2018/10/29 18:39:35","新北市林口區麗園二街47巷47號","121.382546666667","25.0695916666667","6501700","林口區"
"244013","KEA-2802","2018/10/29 18:39:36","新北市林口區仁愛路二段201-1號","121.377938333333","25.0748416666667","6501700","林口區"
"244009","410-SL","2018/10/29 18:39:36","新北市林口區竹林路564號","121.386706666667","25.0836933333333","6501700","林口區"
"244017","485-VK","2018/10/29 18:39:35","新北市林口區文化二路66-5號","121.365693333333","25.0688883333333","6501700","林口區"
"244011","701-TV","2018/10/29 18:39:29","新北市林口區興林路15號","121.38994","25.0770216666667","6501700","林口區"
"244025","837-TS","2018/10/29 18:39:26","新北市林口區南勢四街325號","121.356575","25.0748466666667","6501700","林口區"
"244021","838-TS","2018/10/29 18:39:35","新北市林口區粉寮路一段66號","121.397053333333","25.0786516666667","6501700","林口區"
"243013","AAD-798","2018/10/29 18:25:22","新北市泰山區明志路三段206巷3號","121.423273333333","25.03794","6501600","泰山區"
"243016","KEA-2801","2018/10/29 18:39:30","新北市泰山區泰林路二段47號","121.435433333333","25.05756","6501600","泰山區"
"243012","539-UM","2018/10/29 18:39:37","新北市泰山區福興三街11號","121.43454","25.0577283333333","6501600","泰山區"
"243011","KEA-2215","2018/10/29 18:39:32","新北市泰山區泰林路二段587號","121.421943333333","25.063505","6501600","泰山區"
"222003","436-BY","2018/10/29 18:39:39","新北市深坑區翠谷街28號","121.626635","25.0091333333333","6501800","深坑區"
"222002","659-BX","2018/10/29 18:39:34","新北市深坑區文山路一段62巷33號","121.621181666667","25.0002016666667","6501800","深坑區"
"231041","002-UM","2018/10/29 18:39:36","新北市新店區安華路28-1號","121.519923333333","24.9607483333333","6500600","新店區"
"231059","046-UY","2018/10/29 18:39:38","新北市新店區安華路28-1號","121.51972","24.96086","6500600","新店區"
"231040","047-UY","2018/10/29 18:39:31","新北市新店區安華路28-1號","121.51929","24.96092","6500600","新店區"
"231052","108-UY","2018/10/29 18:39:43","新北市新店區長興路14號","121.546331666667","24.9399566666667","6500600","新店區"
"231046","110-UY","2018/10/29 18:39:26","新北市新店區直潭二街1號","121.53552","24.94319","6500600","新店區"
"231047","187-VK","2018/10/29 18:39:28","新北市新店區安一路一段1-1號","121.519576666667","24.961235","6500600","新店區"
"231054","188-VK","2018/10/29 18:39:25","新北市新店區安一路一段1-1號","121.519308333333","24.9611833333333","6500600","新店區"
"231057","256-BX","2018/10/29 18:39:34","新北市新店區新烏路一段215號","121.549251666667","24.9314666666667","6500600","新店區"
"231042","268-BY","2018/10/29 18:39:35","新北市新店區安華路28-1號","121.519203333333","24.9606216666667","6500600","新店區"
"231051","278-BY","2018/10/29 18:39:28","新北市新店區環河路121-2號","121.530456666667","24.9714233333333","6500600","新店區"
"231050","AAD-862","2018/10/29 18:39:37","新北市新店區安一路一段1-1號","121.519566666667","24.9613333333333","6500600","新店區"
"231045","355-BY","2018/10/29 18:39:24","新北市新店區安華路28-1號","121.519125","24.9609066666667","6500600","新店區"
"231058","3713-VJ","2018/10/29 18:39:31","新北市新店區新店後街24號","121.537918333333","24.95328","6500600","新店區"
"231066","4716-K9","2018/10/29 18:39:38","新北市新店區安一路一段1-1號","121.51935","24.9611033333333","6500600","新店區"
"231056","4715-K9","2018/10/29 18:39:31","新北市新店區建國路196號","121.537715","24.9805383333333","6500600","新店區"
"231067","4772-VM","2018/10/29 18:39:26","新北市新店區安華路1-1號","121.519063333333","24.960555","6500600","新店區"
"231065","512-UM","2018/10/29 18:39:30","新北市新店區安一路一段1-1號","121.519441666667","24.9612866666667","6500600","新店區"
"231049","513-UM","2018/10/29 18:39:43","新北市新店區安一路一段1-1號","121.519658333333","24.9612","6500600","新店區"
"231044","618-UM","2018/10/29 18:39:23","新北市新店區安康路一段52巷2號","121.53003","24.96121","6500600","新店區"
"231061","619-UM","2018/10/29 18:39:29","新北市新店區安華路28-1號","121.519298333333","24.9606633333333","6500600","新店區"
"231063","641-BX","2018/10/29 18:39:35","新北市新店區安華路28-1號","121.519625","24.9607083333333","6500600","新店區"
"231064","719-UM","2018/10/29 18:39:37","新北市新店區安一路一段1-1號","121.51934","24.9612716666667","6500600","新店區"
"231062","720-UM","2018/10/29 18:39:30","新北市新店區安一路一段1-1號","121.519293333333","24.9612316666667","6500600","新店區"
"231060","897-TW","2018/10/29 18:39:31","新北市新店區安華路28-1號","121.519385","24.960615","6500600","新店區"
"231043","899-TW","2018/10/29 18:39:38","新北市新店區安華路28-1號","121.519213333333","24.9608483333333","6500600","新店區"
"231055","AKT-0513","2018/10/29 18:39:42","新北市新店區三民路18號","121.538516666667","24.9706783333333","6500600","新店區"
"251014","742-BX","2018/10/29 18:39:41","新北市淡水區崙頂12-8號","121.495555","25.2172333333333","6501000","淡水區"
"235066","003-UY","2018/10/29 18:39:34","新北市中和區水源路37號","121.504433333333","25.003545","6500300","中和區"
"235064","005-UY","2018/10/29 18:39:32","新北市中和區連城路89巷4號","121.496935","24.999635","6500300","中和區"
"235063","006-UY","2018/10/29 18:39:30","新北市中和區連城路403巷8號","121.486221666667","24.995625","6500300","中和區"
"235056","096-UM","2018/10/29 18:39:23","新北市中和區員山路611巷5弄1號","121.477933333333","25.0112233333333","6500300","中和區"
"235039","097-UM","2018/10/29 18:39:41","新北市中和區安樂路123號","121.513815","24.99623","6500300","中和區"
"235065","098-UM","2018/10/29 18:39:30","新北市中和區中山路二段2巷45弄44號","121.501731666667","25.00627","6500300","中和區"
"235040","150-BY","2018/10/29 18:39:40","新北市中和區安平路82號","121.511231666667","24.9968666666667","6500300","中和區"
"235058","151-BY","2018/10/29 18:39:29","新北市中和區圓通路369巷30弄2號","121.488648333333","24.9840016666667","6500300","中和區"
"235055","183-VK","2018/10/29 18:39:28","新北市中和區民生街93-2號","121.46854","25.0047666666667","6500300","中和區"
"235038","185-VK","2018/10/29 18:39:24","新北市中和區大勇街60巷4號","121.518406666667","24.99477","6500300","中和區"
"235049","186-VK","2018/10/29 18:39:44","新北市中和區景平路502-1號","121.504083333333","24.9937366666667","6500300","中和區"
"235067","255-BX","2018/10/29 18:39:34","新北市中和區新生街114巷1號","121.483493333333","25.00226","6500300","中和區"
"235044","293-VK","2018/10/29 18:39:42","新北市中和區復興路279-1號","121.502213333333","24.9903116666667","6500300","中和區"
"235072","301-VK","2018/10/29 18:39:40","新北市中和區中山路二段131-6號","121.502318333333","25.003225","6500300","中和區"
"235043","352-BY","2018/10/29 18:39:25","新北市中和區景平路151號","121.513686666667","24.9920266666667","6500300","中和區"
"235050","4979-A6","2018/10/29 18:39:43","新北市中和區景新街418巷17號","121.512211666667","24.988755","6500300","中和區"
"235069","4980-A6","2018/10/29 18:39:24","新北市中和區連城路72號","121.497435","25.0012966666667","6500300","中和區"
"235042","551-UM","2018/10/29 18:39:25","新北市中和區成功路97巷5弄25號","121.526513333333","24.9926266666667","6500300","中和區"
"235070","558-UM","2018/10/29 18:39:23","新北市中和區景平路566號","121.50198","24.9954333333333","6500300","中和區"
"235045","565-BX","2018/10/29 18:39:27","新北市中和區南山路236巷11號","121.505735","24.9887683333333","6500300","中和區"
"235054","640-BX","2018/10/29 18:39:41","新北市中和區民享街32巷14號","121.473215","25.0032416666667","6500300","中和區"
"235060","647-TV","2018/10/29 18:39:43","新北市中和區中山路三段136號","121.473956666667","25.0062583333333","6500300","中和區"
"235047","732-UM","2018/10/29 18:39:40","新北市中和區南山路320巷17號","121.507301666667","24.986275","6500300","中和區"
"235046","733-UM","2018/10/29 18:39:41","新北市中和區忠孝街103號","121.512016666667","24.98627","6500300","中和區"
"235062","800-TS","2018/10/29 18:39:45","新北市中和區景平路677巷5號","121.496195","25.0026633333333","6500300","中和區"
"235057","801-TS","2018/10/29 18:39:34","新北市中和區員山路327巷52號","121.480225","25.0018633333333","6500300","中和區"
"235041","802-TS","2018/10/29 18:39:25","新北市中和區中安街178巷3弄5-2號","121.511068333333","24.9989783333333","6500300","中和區"
"235052","805-TS","2018/10/29 18:39:43","新北市中和區興南路三段26號","121.496815","24.978645","6500300","中和區"
"235048","896-TW","2018/10/29 18:39:41","新北市中和區南山路311號","121.504898333333","24.9915066666667","6500300","中和區"
"235053","900-TW","2018/10/29 18:39:29","新北市土城區延壽路111巷2號","121.469171666667","24.9937983333333","6500300","中和區"
"235051","157-BY","2018/10/29 18:39:39","新北市中和區華新街143巷106弄30號","121.506166666667","24.9787316666667","6500300","中和區"
"235037","AAC-213","2018/10/29 18:39:32","新北市中和區景德街60號","121.517258333333","24.99154","6500300","中和區"
"235059","AAC-215","2018/10/29 18:39:21","新北市中和區錦和路354巷5號","121.490245","24.991465","6500300","中和區"
"220065","072-UY","2018/10/29 18:39:37","新北市板橋區縣民大道一段114號","121.45737","25.0060883333333","6500100","板橋區"
"220086","073-UY","2018/10/29 18:39:38","新北市板橋區大智街71巷8弄20號","121.452646666667","25.0155616666667","6500100","板橋區"
"220069","AAD-861","2018/10/29 18:39:42","新北市板橋區華東街1-10號","121.448171666667","24.9950616666667","6500100","板橋區"
"226004","312-R5","2018/10/29 18:39:40","新北市平溪區石底里公園街18-3號","121.733276666667","25.0258266666667","6502400","平溪區"
"228003","097-TW","2018/10/29 18:39:38","新北市貢寮區和美里龍洞街40-1號","121.915483333333","25.111665","6502600","貢寮區"
"228002","585-TW","2018/10/29 18:39:35","新北市貢寮區福連里香蘭街3-3號","121.971843333333","25.02465","6502600","貢寮區"
"228001","670-TC","2018/10/29 18:39:32","新北市貢寮區仁理村研海街12-1號","121.92375","25.05172","6502600","貢寮區"
"224010","AGQ-8101","2018/10/29 18:39:38","新北市瑞芳區烏勢巷118號","121.846331666667","25.1081266666667","6501200","瑞芳區"
"224006","676-BX","2018/10/29 18:39:33","新北市瑞芳區明燈路三段59-2號","121.80571","25.1082383333333","6501200","瑞芳區"
"224002","639-TC","2018/10/29 18:39:28","新北市瑞芳區明燈路二段56號","121.8099","25.1076033333333","6501200","瑞芳區"
"224008","285-BY","2018/10/29 18:39:35","新北市瑞芳區岳王路162號","121.807988333333","25.1114","6501200","瑞芳區"
"224009","273-VK","2018/10/29 18:39:37","新北市瑞芳區祈堂路2號","121.859758333333","25.1117066666667","6501200","瑞芳區"
"224007","272-VK","2018/10/29 18:39:39","新北市瑞芳區大埔路115巷11號","121.763278333333","25.1010716666667","6501200","瑞芳區"
"224005","271-BY","2018/10/29 18:39:38","新北市瑞芳區瑞濱路139-1號","121.81963","25.1198583333333","6501200","瑞芳區"
"227008","400-TW","2018/10/29 18:39:35","新北市雙溪區牡丹里牡丹210號","121.850705","25.0567","6502500","雙溪區"
"227001","030-BX","2018/10/29 18:39:25","新北市雙溪區魚行里坤溪3-5號","121.875606666667","25.0212833333333","6502500","雙溪區"
"253006","032-BX","2018/10/29 18:39:31","新北市石門區崁子腳58-7號","121.530181666667","25.2866016666667","6502200","石門區"
"253005","295-VK","2018/10/29 18:39:40","新北市石門區中山路64號","121.567276666667","25.2907816666667","6502200","石門區"
"222001","KEA-2212","2018/10/29 18:39:39","新北市深坑區北深路一段82號","121.636313333333","25.0106433333333","6501800","深坑區"
"208002","KEA-2872","2018/10/29 18:39:34","新北市金山區忠孝一路19巷5號","121.638078333333","25.21807","6502700","金山區"
"208003","665-BX","2018/10/29 18:39:41","新北市金山區中山路258號","121.635565","25.2239516666667","6502700","金山區"
"208001","761-BX","2018/10/29 18:39:30","新北市金山區文化三路26號","121.635725","25.2245866666667","6502700","金山區"
"251009","008-UM","2018/10/29 18:39:31","新北市淡水區中山北路三段112號","121.443833333333","25.19315","6501000","淡水區"
"251001","011-UM","2018/10/29 18:39:43","新北市淡水區自強路419號","121.465631666667","25.1342483333333","6501000","淡水區"
"251013","KEA-2871","2018/10/29 18:39:41","新北市淡水區雲廣坑5-1號","121.474646666667","25.21312","6501000","淡水區"
"251016","179-VK","2018/10/29 18:39:38","新北市淡水區下圭柔山84號","121.437788333333","25.2058616666667","6501000","淡水區"
"251008","181-VK","2018/10/29 18:37:36","新北市淡水區北投子22巷8號","121.455101666667","25.1805483333333","6501000","淡水區"
"251015","182-VK","2018/10/29 18:39:29","新北市淡水區興福寮66巷267號","121.48678","25.1621233333333","6501000","淡水區"
"251010","413-VK","2018/10/29 18:39:32","新北市淡水區沙崙路145號","121.423345","25.1830816666667","6501000","淡水區"
"251012","441-VK","2018/10/29 18:39:38","新北市淡水區北新路136號","121.448271666667","25.1783116666667","6501000","淡水區"
"251004","443-VK","2018/10/29 18:39:32","新北市淡水區民權路41號","121.460128333333","25.14029","6501000","淡水區"
"251006","561-UM","2018/10/29 18:39:28","新北市淡水區崁頂37-11號","121.438636666667","25.194205","6501000","淡水區"
"251011","650-BX","2018/10/29 18:39:39","新北市淡水區鄧公路36巷15號","121.455506666667","25.1691966666667","6501000","淡水區"
"251002","672-BX","2018/10/29 18:39:27","新北市淡水區中正東路一段3巷14弄1號","121.45096","25.1642716666667","6501000","淡水區"
"251003","766-UM","2018/10/29 18:39:37","新北市淡水區北新路69巷26號","121.446781666667","25.180145","6501000","淡水區"
"207004","681-TV","2018/10/29 18:39:40","新北市萬里區萬里里獅頭路10-1號","121.692073333333","25.17869","6502800","萬里區"
"207003","550-UM","2018/10/29 18:39:30","新北市萬里區野柳里港東路160號","121.690006666667","25.2047866666667","6502800","萬里區"
"252002","178-VK","2018/10/29 18:39:36","新北市三芝區民生街64巷8號","121.503613333333","25.255175","6502100","三芝區"
"252003","249-BX","2018/10/29 18:39:40","新北市三芝區後厝里土地公坑73-17號","121.459831666667","25.2471483333333","6502100","三芝區"
"252001","292-VK","2018/10/29 18:39:23","新北市三芝區中興街二段260號","121.501901666667","25.2528966666667","6502100","三芝區"
"237004","KEA-2597","2018/10/29 18:39:25","新北市三峽區插角24號","121.402195","24.8730983333333","6500900","三峽區"
"237007","153-BY","2018/10/29 18:39:36","新北市三峽區柑樹路6巷31號","121.361718333333","24.9036866666667","6500900","三峽區"
"237009","210-TH","2018/10/29 18:39:27","新北市三峽區大同路286巷3號","121.36427","24.9253","6500900","三峽區"
"237013","252-BX","2018/10/29 18:39:35","新北市三峽區光明路69巷25號","121.376655","24.929125","6500900","三峽區"
"237012","275-BY","2018/10/29 18:39:32","新北市三峽區三樹路340號","121.383981666667","24.9432966666667","6500900","三峽區"
"237008","302-VK","2018/10/29 18:39:33","新北市三峽區白雞39號","121.378298333333","24.9115183333333","6500900","三峽區"
"237014","433-BY","2018/10/29 18:39:26","新北市三峽區復興路179-2號","121.369408333333","24.93881","6500900","三峽區"
"237006","5529-G3","2018/10/29 18:39:30","新北市三峽區溪東路371巷4弄4號","121.41231","24.9298433333333","6500900","三峽區"
"237011","KEA-2596","2018/10/29 18:39:27","新北市三峽區溪東路295號","121.409318333333","24.9311983333333","6500900","三峽區"
"237015","649-BX","2018/10/29 18:39:41","新北市三峽區成福路284號","121.428445","24.9232616666667","6500900","三峽區"
"237010","706-TV","2018/10/29 18:39:24","新北市三峽區復興路489號","121.361258333333","24.9384616666667","6500900","三峽區"
"237005","AKY-6261","2018/10/29 18:39:42","新北市三峽區民生街104巷2號","121.373661666667","24.935865","6500900","三峽區"
"236069","105-UM","2018/10/29 18:39:38","新北市土城區永豐路157巷29弄6-1號","121.468335","24.981495","6501300","土城區"
"236078","166-UM","2018/10/29 18:39:34","新北市土城區頂埔街67號","121.41754","24.9594533333333","6501300","土城區"
"236030","253-BX","2018/10/29 18:39:34","新北市土城區福仁街72號","121.4393","24.9741733333333","6501300","土城區"
"236026","269-VK","2018/10/29 18:39:43","新北市土城區忠義路49號","121.440436666667","24.9691016666667","6501300","土城區"
"236014","270-VK","2018/10/29 18:39:35","新北市土城區清水路205號","121.460116666667","24.9817916666667","6501300","土城區"
"236039","271-VK","2018/10/29 18:39:32","新北市土城區明德路一段285號","121.46062","24.9773833333333","6501300","土城區"
"236020","401-BY","2018/10/29 18:39:37","新北市土城區延吉街270號","121.465783333333","24.9844483333333","6501300","土城區"
"236042","752-BX","2018/10/29 18:39:31","新北市土城區學成路137巷18號","121.449156666667","24.9889516666667","6501300","土城區"
"236059","912-UM","2018/10/29 18:39:37","新北市土城區中央路三段153號","121.432135","24.9653733333333","6501300","土城區"
"236048","913-UM","2018/10/29 18:39:29","新北市土城區金城路二段374號","121.46278","24.9856066666667","6501300","土城區"
"236063","915-UM","2018/10/29 18:39:32","新北市土城區延壽路13巷18號","121.470573333333","24.990825","6501300","土城區"
"236055","AAC-216","2018/10/29 18:39:24","新北市土城區裕民路2號","121.446528333333","24.9891666666667","6501300","土城區"
"242058","986-R7","2018/10/29 18:39:34","新北市新莊區中正路863-3號","121.41867","25.0275916666667","6500500","新莊區"
"242025","613-BX","2018/10/29 18:38:14","新北市新莊區新泰路357巷3弄27號","121.441855","25.0406183333333","6500500","新莊區"
"242053","441-UM","2018/10/29 18:39:38","新北市樹林區中山路三段214號","121.379751666667","24.9675116666667","6500500","新莊區"
"242046","400-BY","2018/10/29 18:39:43","新北市新莊區民安路16-27號","121.42241","25.02812","6500500","新莊區"
"242011","132-UY","2018/10/29 18:39:26","新北市五股區新五路二段68號","121.437105","25.0734483333333","6500500","新莊區"
"242007","176-VK","2018/10/29 18:39:44","新北市樹林區八德街395號","121.415565","24.9715016666667","6500500","新莊區"
"238023","601-UM","2018/10/29 18:39:38","新北市樹林區三福街114號","121.406513333333","25.01629","6500700","樹林區"
"238019","599-UM","2018/10/29 18:39:28","新北市樹林區中華路190-16號","121.411755","24.9806516666667","6500700","樹林區"
"238018","571-TV","2018/10/29 18:39:29","新北市樹林區鎮前街168號","121.424328333333","24.9899633333333","6500700","樹林區"
"238024","5061-A6","2018/10/29 18:39:31","新北市樹林區中華路391號","121.411721666667","24.9804616666667","6500700","樹林區"
"238025","303-VK","2018/10/29 18:39:27","新北市樹林區八德街862-1號","121.391708333333","24.96853","6500700","樹林區"
"238020","268-VK","2018/10/29 18:39:29","新北市樹林區俊安街22號","121.419223333333","25.0138483333333","6500700","樹林區"
"238026","172-UY","2018/10/29 18:39:39","新北市樹林區育德街78號","121.387411666667","24.968445","6500700","樹林區"
"238016","169-UY","2018/10/29 18:39:26","新北市樹林區文化街22號","121.419511666667","24.987565","6500700","樹林區"
"239007","AAC-297","2018/10/29 18:39:37","新北市鶯歌區中正一路478號","121.366431666667","24.9568133333333","6500800","鶯歌區"
"239008","527-UM","2018/10/29 18:39:41","新北市鶯歌區國際一路14號","121.336213333333","24.9765483333333","6500800","鶯歌區"
"239005","526-UM","2018/10/29 18:39:40","新北市鶯歌區鳳吉二街39號","121.32631","24.9731433333333","6500800","鶯歌區"
"239001","417-VK","2018/10/29 18:39:30","新北市鶯歌區二橋街25號","121.33666","24.93946","6500800","鶯歌區"
"239003","360-BY","2018/10/29 18:39:37","新北市鶯歌區鶯桃路524號","121.331773333333","24.9669816666667","6500800","鶯歌區"
"239004","193-VK","2018/10/29 18:39:35","新北市鶯歌區尖山路257號","121.34079","24.9435633333333","6500800","鶯歌區"
"221008","489-VK","2018/10/29 18:39:34","新北市汐止區康寧街901號","121.651355","25.0749683333333","6501100","汐止區"
"221036","130-UY","2018/10/29 18:39:25","新北市汐止區忠孝東路337號","121.665135","25.069965","6501100","汐止區"
"221015","131-UY","2018/10/29 18:39:27","新北市汐止區吉祥街26號","121.667766666667","25.08108","6501100","汐止區"
"221010","269-BY","2018/10/29 18:39:29","新北市汐止區汐萬路三段74巷2號","121.644143333333","25.0954233333333","6501100","汐止區"
"221012","278-VK","2018/10/29 18:39:23","新北市汐止區保長路100號","121.674981666667","25.0784533333333","6501100","汐止區"
"221023","279-VK","2018/10/29 18:39:42","新北市汐止區民族二街84巷2弄1號","121.633281666667","25.0701783333333","6501100","汐止區"
"221032","280-BY","2018/10/29 18:39:29","新北市汐止區民權街二段79號","121.61915","25.048005","6501100","汐止區"
"221027","281-BY","2018/10/29 18:39:39","新北市汐止區汐萬路一段132號","121.65345","25.0711866666667","6501100","汐止區"
"221029","298-VK","2018/10/29 18:39:23","新北市汐止區樟樹一路133巷1號","121.6422","25.0651166666667","6501100","汐止區"
"221021","299-VK","2018/10/29 18:39:39","新北市汐止區連興街120號","121.653828333333","25.0624233333333","6501100","汐止區"
"221031","353-TW","2018/10/29 18:39:29","新北市汐止區福德一路274號","121.632116666667","25.063995","6501100","汐止區"
"221035","622-UM","2018/10/29 18:39:42","新北市汐止區大同路126號","121.651198333333","25.0639083333333","6501100","汐止區"
"221025","623-UM","2018/10/29 18:39:27","新北市汐止區仁愛路121巷7號","121.662725","25.06417","6501100","汐止區"
"221038","646-BX","2018/10/29 18:39:34","新北市汐止區大同路二段423號","121.658845","25.0673683333333","6501100","汐止區"
"221002","707-TV","2018/10/29 18:39:36","新北市汐止區大同路一段277號","121.636411666667","25.0585116666667","6501100","汐止區"
"221018","753-BX","2018/10/29 18:39:39","新北市汐止區茄苳路262號","121.67183","25.0682216666667","6501100","汐止區"
"220079","145-BY","2018/10/29 18:39:27","新北市板橋區大觀路一段31號","121.449871666667","25.008475","6500100","板橋區"
"220080","200-UY","2018/10/29 18:39:16","新北市板橋區大觀路二段265巷72弄35號","121.441125","24.996955","6500100","板橋區"
"220084","256-TC","2018/10/29 18:39:40","新北市板橋區大觀路二段266號","121.448576666667","24.9970066666667","6500100","板橋區"
"220056","276-BY","2018/10/29 18:39:42","新北市板橋區四川路二段130巷25弄15號","121.448843333333","24.9946233333333","6500100","板橋區"
"220072","277-BY","2018/10/29 18:39:35","新北市板橋區大觀路三段36巷5-3號","121.433131666667","24.9958166666667","6500100","板橋區"
"220057","282-UM","2018/10/29 18:39:26","新北市板橋區華東街1-9號","121.448238333333","24.99491","6500100","板橋區"
"220094","283-UM","2018/10/29 18:39:34","新北市板橋區民生路二段161巷1號","121.470058333333","25.0198783333333","6500100","板橋區"
"220071","283-VK","2018/10/29 18:39:27","新北市板橋區四川路二段239號","121.450718333333","24.9938933333333","6500100","板橋區"
"220083","286-VK","2018/10/29 18:39:41","新北市板橋區合安一路77-6號","121.44837","24.998775","6500100","板橋區"
"220081","287-VK","2018/10/29 18:39:25","新北市板橋區大觀路一段37巷2號","121.448898333333","25.0083516666667","6500100","板橋區"
"220075","303-R5","2018/10/29 18:39:28","新北市板橋區華東街310號","121.45271","25.00296","6500100","板橋區"
"220064","486-VK","2018/10/29 18:39:34","新北市板橋區縣民大道一段288號","121.461071666667","25.01031","6500100","板橋區"
"220035","560-BX","2018/10/29 18:39:35","新北市板橋區南雅西路二段145巷6號","121.451613333333","25.0117916666667","6500100","板橋區"
"220063","609-BX","2018/10/29 18:39:36","新北市板橋區民生路二段175號","121.469593333333","25.0201483333333","6500100","板橋區"
"220077","687-BX","2018/10/29 18:39:17","新北市板橋區大觀路二段156巷29號","121.440983333333","24.99952","6500100","板橋區"
"220055","827-TW","2018/10/29 18:39:41","新北市板橋區大觀路2段435-7號","121.447826666667","24.995475","6500100","板橋區"
"220067","829-TW","2018/10/29 18:39:45","新北市板橋區民生路二段161巷1號","121.470223333333","25.0200166666667","6500100","板橋區"
"220074","895-R6","2018/10/29 18:39:32","新北市板橋區南雅南路一段121號","121.455191666667","25.0047033333333","6500100","板橋區"
"220073","985-R7","2018/10/29 18:39:25","新北市板橋區館前西路68號","121.457638333333","25.0071116666667","6500100","板橋區"
"220070","AAC-253","2018/10/29 18:39:32","新北市板橋區華東街1-8號","121.44749","24.99505","6500100","板橋區"
"235068","KEA-2873","2018/10/29 18:39:27","新北市中和區中正路137號","121.499448333333","24.9936316666667","6500300","中和區"
"235061","KEA-2875","2018/10/29 18:39:28","新北市中和區民享街92巷34號","121.473575","24.9996066666667","6500300","中和區"
