"lineid","car","time","location","longitude","latitude","cityid","cityname"
"234046","148-BY","2018/10/29 18:59:41","新北市永和區得和路373巷31弄9號","121.52474","25.0005766666667","6500400","永和區"
"234007","207-UY","2018/10/29 18:59:24","新北市永和區中山路一段47號","121.513076666667","25.0105633333333","6500400","永和區"
"234081","298-R6","2018/10/29 18:59:35","新北市永和區國中路208號","121.522131666667","25.0058216666667","6500400","永和區"
"234038","336-UY","2018/10/29 18:59:27","新北市永和區成功路二段207號","121.526581666667","24.995945","6500400","永和區"
"234064","337-UY","2018/10/29 18:59:37","新北市永和區秀朗路一段146號","121.51827","25.0033833333333","6500400","永和區"
"234086","338-UY","2018/10/29 18:59:34","新北市永和區中正路397號","121.517223333333","25.004135","6500400","永和區"
"234070","552-UM","2018/10/29 18:59:40","新北市永和區中興街84巷1號","121.518558333333","25.0119316666667","6500400","永和區"
"234017","745-BX","2018/10/29 18:59:42","新北市永和區永和路二段297號","121.515951666667","25.0160433333333","6500400","永和區"
"234030","746-BX","2018/10/29 18:59:42","新北市永和區秀朗路二段291號","121.526188333333","24.9979583333333","6500400","永和區"
"234054","KEA-2590","2018/10/29 18:59:33","新北市永和區竹林路66巷2號","121.51826","25.013365","6500400","永和區"
"234013","KEA-2591","2018/10/29 18:59:37","新北市永和區信義路17巷9弄5號","121.513883333333","25.0114866666667","6500400","永和區"
"234061","AAD-866","2018/10/29 18:59:31","新北市永和區福和路311號","121.51615","25.00709","6500400","永和區"
"234042","862-TW","2018/10/29 18:59:41","新北市永和區永貞路265號","121.511725","25.00473","6500400","永和區"
"234050","863-TW","2018/10/29 18:59:31","新北市永和區保安路2號","121.510783333333","25.0175066666667","6500400","永和區"
"234026","9371-KE","2018/10/29 18:59:41","新北市永和區安樂路453號","121.51429","25.0050283333333","6500400","永和區"
"234011","9373-KE","2018/10/29 18:59:33","新北市永和區忠孝街34巷1弄2號","121.514653333333","25.0161433333333","6500400","永和區"
"249005","172-UM","2018/10/29 18:59:17","新北市八里區長道坑2號","121.393771666667","25.1244","6502300","八里區"
"249001","173-UM","2018/10/29 18:59:41","新北市八里區龍米路二段228-1號","121.432783333333","25.1584666666667","6502300","八里區"
"248016","026-BX","2018/10/29 18:59:36","新北市五股區成泰路三段543巷18號","121.450863333333","25.10223","6501500","五股區"
"248006","077-UY","2018/10/29 18:59:37","新北市五股區中興路一段68號","121.467295","25.07306","6501500","五股區"
"248008","095-VK","2018/10/29 18:59:37","新北市五股區中興路一段118巷6弄22號","121.46635","25.0747583333333","6501500","五股區"
"248018","225-UY","2018/10/29 18:59:42","新北市五股區民義路二段22巷26-2號","121.42384","25.0986116666667","6501500","五股區"
"248012","247-BX","2018/10/29 18:59:29","新北市五股區中興路四段48巷16號","121.438658333333","25.0834","6501500","五股區"
"248010","272-BY","2018/10/29 18:59:37","新北市五股區水碓二路1號","121.430603333333","25.071265","6501500","五股區"
"248004","677-BX","2018/10/29 18:59:27","新北市五股區民義路二段16號","121.420718333333","25.09648","6501500","五股區"
"248002","678-BX","2018/10/29 18:59:35","新北市五股區凌雲路一段111號","121.45007","25.1017383333333","6501500","五股區"
"234023","9380-KE","2018/10/29 18:59:39","新北市永和區竹林路75巷1-1號","121.51905","25.013255","6500400","永和區"
"234077","969-R7","2018/10/29 18:59:41","新北市永和區智光街22號","121.518106666667","24.99919","6500400","永和區"
"234074","AAC-211","2018/10/29 18:59:30","新北市永和區環河東路二段100號","121.524113333333","25.0103316666667","6500400","永和區"
"234067","AAC-212","2018/10/29 18:59:42","新北市永和區自由街47號","121.514076666667","25.0058583333333","6500400","永和區"
"234003","AAC-295","2018/10/29 18:59:47","新北市永和區和平街38號","121.512943333333","25.0099583333333","6500400","永和區"
"232011","076-UY","2018/10/29 18:59:36","新北市坪林區水聳淒坑27號","121.711411666667","24.93411","6502000","坪林區"
"244023","069-UM","2018/10/29 18:59:42","新北市林口區仁愛路二段377號","121.370315","25.0799866666667","6501700","林口區"
"244019","403-UM","2018/10/29 18:59:35","新北市林口區麗園一街35號","121.377638333333","25.06878","6501700","林口區"
"244013","KEA-2802","2018/10/29 18:59:36","新北市林口區麗園二街23巷15-9號","121.379248333333","25.0702183333333","6501700","林口區"
"244009","410-SL","2018/10/29 18:59:36","新北市林口區台電新村15號","121.38755","25.08597","6501700","林口區"
"244017","485-VK","2018/10/29 18:59:35","新北市林口區文化二路一段68巷11號","121.366516666667","25.0688183333333","6501700","林口區"
"244011","701-TV","2018/10/29 18:59:29","新北市林口區仁愛路一段266號","121.393945","25.076","6501700","林口區"
"244025","837-TS","2018/10/29 18:59:26","新北市林口區文化北路一段370號","121.362015","25.0748333333333","6501700","林口區"
"243013","AAD-798","2018/10/29 18:59:45","新北市泰山區明志路三段259號","121.423276666667","25.037295","6501600","泰山區"
"243009","297-R6","2018/10/29 18:59:37","新北市泰山區泰林路二段347號","121.428815","25.06354","6501600","泰山區"
"243016","KEA-2801","2018/10/29 18:59:34","新北市泰山區明志路二段137號","121.427653333333","25.0507016666667","6501600","泰山區"
"243015","421-VK","2018/10/29 18:59:43","新北市泰山區明志路一段223號","121.43264","25.0611966666667","6501600","泰山區"
"243012","539-UM","2018/10/29 18:59:37","新北市泰山區福興一街91號","121.43185","25.0577716666667","6501600","泰山區"
"243011","KEA-2215","2018/10/29 18:59:32","新北市泰山區明志路二段274號","121.426756666667","25.0470716666667","6501600","泰山區"
"243010","KEA-2216","2018/10/29 18:59:37","新北市泰山區辭修路26巷16號","121.429255","25.0586","6501600","泰山區"
"243014","680-BX","2018/10/29 18:59:33","新北市泰山區泰林路二段595號","121.421708333333","25.06341","6501600","泰山區"
"222003","436-BY","2018/10/29 18:59:39","新北市深坑區深南路51-1號","121.621388333333","25.01016","6501800","深坑區"
"222002","659-BX","2018/10/29 18:59:34","新北市深坑區文山路一段31巷2號","121.629865","25.0033283333333","6501800","深坑區"
"231041","002-UM","2018/10/29 18:59:36","新北市新店區環河路64號","121.537013333333","24.9626983333333","6500600","新店區"
"231059","046-UY","2018/10/29 18:59:38","新北市新店區安華路28-1號","121.519511666667","24.9608566666667","6500600","新店區"
"231040","047-UY","2018/10/29 18:59:30","新北市新店區中央路15號","121.533316666667","24.978305","6500600","新店區"
"231052","108-UY","2018/10/29 18:59:24","新北市新店區櫻花街117號","121.547541666667","24.9238483333333","6500600","新店區"
"231046","110-UY","2018/10/29 18:59:26","新北市新店區直潭五街19號","121.53425","24.9411533333333","6500600","新店區"
"231047","187-VK","2018/10/29 18:59:28","新北市新店區德正街23巷12-1號","121.544575","24.9721583333333","6500600","新店區"
"231054","188-VK","2018/10/29 18:59:25","新北市新店區新店路13號","121.540376666667","24.9528933333333","6500600","新店區"
"231042","268-BY","2018/10/29 18:59:35","新北市新店區中正路70號","121.544031666667","24.9701183333333","6500600","新店區"
"231051","278-BY","2018/10/29 18:59:28","新北市新店區百忍街17巷2號","121.534271666667","24.9756833333333","6500600","新店區"
"231050","AAD-862","2018/10/29 18:59:36","新北市新店區北宜路二段56巷1弄1號","121.549258333333","24.95118","6500600","新店區"
"231045","355-BY","2018/10/29 18:59:44","新北市新店區北新路一段2-18號","121.538418333333","24.9600833333333","6500600","新店區"
"231058","3713-VJ","2018/10/29 18:59:31","新北市新店區中正路1巷2號","121.545666666667","24.9689283333333","6500600","新店區"
"231066","4716-K9","2018/10/29 18:59:38","新北市新店區安豐路24號","121.501331666667","24.9563616666667","6500600","新店區"
"231056","4715-K9","2018/10/29 18:59:31","新北市新店區二十張路46巷37弄23號","121.535988333333","24.9815633333333","6500600","新店區"
"231067","4772-VM","2018/10/29 18:59:26","新北市新店區安康路一段323-1號","121.52165","24.963785","6500600","新店區"
"231065","512-UM","2018/10/29 18:59:30","新北市新店區安祥路156巷37號","121.474828333333","24.9541066666667","6500600","新店區"
"231049","513-UM","2018/10/29 18:59:23","新北市新店區中正路454-5號","121.534438333333","24.9790783333333","6500600","新店區"
"231044","618-UM","2018/10/29 18:59:43","新北市新店區寶中路72號","121.547875","24.9806133333333","6500600","新店區"
"231061","619-UM","2018/10/29 18:59:29","新北市新店區安華路30巷12-1號","121.518323333333","24.9580116666667","6500600","新店區"
"231063","641-BX","2018/10/29 18:59:35","新北市新店區安華路16號","121.51709","24.9580733333333","6500600","新店區"
"231064","719-UM","2018/10/29 18:59:37","新北市新店區安一路一段1-1號","121.519256666667","24.96117","6500600","新店區"
"231062","720-UM","2018/10/29 18:59:30","新北市新店區安豐路61號","121.498295","24.953875","6500600","新店區"
"231060","897-TW","2018/10/29 18:59:31","新北市新店區安華路30巷12-1號","121.518436666667","24.9579883333333","6500600","新店區"
"231043","899-TW","2018/10/29 18:59:38","新北市新店區北新路一段130號","121.542535","24.97046","6500600","新店區"
"231055","AKT-0513","2018/10/29 18:59:42","新北市新店區新生街22號","121.539791666667","24.9665266666667","6500600","新店區"
"251014","742-BX","2018/10/29 18:59:41","新北市淡水區小中寮23-2號","121.489428333333","25.2298666666667","6501000","淡水區"
"241029","942-UM","2018/10/29 18:59:28","新北市三重區重安街22號","121.490363333333","25.058035","6500200","三重區"
"235066","003-UY","2018/10/29 18:59:34","新北市中和區中山路二段131巷11號","121.50281","25.0023333333333","6500300","中和區"
"235064","005-UY","2018/10/29 18:59:32","新北市中和區泰和街44巷15號","121.49845","25.000635","6500300","中和區"
"235063","006-UY","2018/10/29 18:59:30","新北市中和區中正路532號","121.487718333333","24.9944483333333","6500300","中和區"
"235056","096-UM","2018/10/29 18:59:43","新北市中和區員山路466巷17弄31號","121.480481666667","25.0074233333333","6500300","中和區"
"235039","097-UM","2018/10/29 18:59:41","新北市中和區自強路20號","121.52003","24.995415","6500300","中和區"
"235065","098-UM","2018/10/29 18:59:30","新北市中和區勝利路35巷1弄1號","121.499001666667","25.00745","6500300","中和區"
"235040","150-BY","2018/10/29 18:59:40","新北市中和區宜安路22號","121.513101666667","24.9958533333333","6500300","中和區"
"235058","151-BY","2018/10/29 18:59:29","新北市中和區連城路569巷9弄3號","121.479425","24.9941383333333","6500300","中和區"
"235055","183-VK","2018/10/29 18:59:41","新北市中和區民德路25巷4號","121.469128333333","25.0027116666667","6500300","中和區"
"235038","185-VK","2018/10/29 18:59:44","新北市中和區立人街24-5號","121.518805","24.9941683333333","6500300","中和區"
"235049","186-VK","2018/10/29 18:59:44","新北市中和區景安路167巷11號","121.50605","24.9947783333333","6500300","中和區"
"235067","255-BX","2018/10/29 18:59:34","新北市中和區中正路839巷1號","121.484621666667","25.0024","6500300","中和區"
"235044","293-VK","2018/10/29 18:59:42","新北市中和區中興街161巷8弄1號","121.501068333333","24.990925","6500300","中和區"
"235072","301-VK","2018/10/29 18:59:40","新北市中和區景平路726-2號","121.49662","25.003515","6500300","中和區"
"235043","352-BY","2018/10/29 18:59:25","新北市中和區成功路69號","121.526111666667","24.9924266666667","6500300","中和區"
"235050","4979-A6","2018/10/29 18:59:43","新北市中和區忠孝街58巷16弄13號","121.512211666667","24.9826733333333","6500300","中和區"
"235069","4980-A6","2018/10/29 18:59:44","新北市中和區圓通路107號","121.499516666667","24.996615","6500300","中和區"
"235042","551-UM","2018/10/29 18:59:41","新北市中和區秀朗路三段50巷2弄7號","121.525893333333","24.99591","6500300","中和區"
"235070","558-UM","2018/10/29 18:59:42","新北市中和區安和路159號","121.506233333333","24.9973866666667","6500300","中和區"
"235045","565-BX","2018/10/29 18:59:27","新北市中和區景新街467巷20弄84號","121.514475","24.9875316666667","6500300","中和區"
"235054","640-BX","2018/10/29 18:59:22","新北市中和區民享街86巷18號","121.473581666667","25.0007083333333","6500300","中和區"
"235060","647-TV","2018/10/29 18:59:43","新北市中和區民享街93巷14號","121.475301666667","25.0010033333333","6500300","中和區"
"235047","732-UM","2018/10/29 18:59:40","新北市中和區興南路二段54巷3號","121.506231666667","24.9852166666667","6500300","中和區"
"235046","733-UM","2018/10/29 18:59:41","新北市中和區興南路二段11號","121.508178333333","24.9861883333333","6500300","中和區"
"235062","800-TS","2018/10/29 18:59:25","新北市中和區中山路二段356號","121.49284","25.0030116666667","6500300","中和區"
"235057","801-TS","2018/10/29 18:59:34","新北市中和區民安街65巷2號","121.478651666667","24.99955","6500300","中和區"
"235041","802-TS","2018/10/29 18:59:25","新北市中和區宜安路124號","121.510041666667","24.9980933333333","6500300","中和區"
"235052","805-TS","2018/10/29 18:59:43","新北市中和區興南路二段347號","121.500111666667","24.9800883333333","6500300","中和區"
"235048","896-TW","2018/10/29 18:59:41","新北市中和區華新街109巷16號","121.508731666667","24.9810933333333","6500300","中和區"
"235053","900-TW","2018/10/29 18:59:29","新北市中和區壽德街26號","121.466638333333","24.9944166666667","6500300","中和區"
"235051","157-BY","2018/10/29 18:59:39","新北市中和區忠孝街13號","121.510026666667","24.9827966666667","6500300","中和區"
"235037","AAC-213","2018/10/29 18:59:32","新北市永和區民生路42號","121.52251","24.9966916666667","6500300","中和區"
"235059","AAC-215","2018/10/29 18:59:21","新北市中和區圓通路369巷14弄8號","121.490435","24.987805","6500300","中和區"
"220065","072-UY","2018/10/29 18:59:37","新北市板橋區民族路247巷3弄2號","121.47046","25.007645","6500100","板橋區"
"220086","073-UY","2018/10/29 18:59:38","新北市板橋區中正路250巷10號","121.456023333333","25.0193683333333","6500100","板橋區"
"220106","075-UY","2018/10/29 18:59:30","新北市板橋區文化路二段124巷28-2號","121.471208333333","25.0256983333333","6500100","板橋區"
"220069","AAD-861","2018/10/29 18:59:42","新北市板橋區華興街79號","121.45691","25.0050383333333","6500100","板橋區"
"226004","312-R5","2018/10/29 18:59:41","新北市平溪區平溪里平溪街2號","121.738705","25.0247583333333","6502400","平溪區"
"228003","097-TW","2018/10/29 18:59:37","新北市貢寮區和美里龍洞街60號","121.914268333333","25.1162816666667","6502600","貢寮區"
"228002","585-TW","2018/10/29 18:59:35","新北市貢寮區福隆里東興街106巷21弄2號","121.946088333333","25.0179083333333","6502600","貢寮區"
"228001","670-TC","2018/10/29 18:59:32","新北市貢寮區仁理村保健街73號","121.923726666667","25.0517066666667","6502600","貢寮區"
"224010","AGQ-8101","2018/10/29 18:59:32","新北市瑞芳區基山街18號","121.84536","25.1088416666667","6501200","瑞芳區"
"224006","676-BX","2018/10/29 18:59:33","新北市瑞芳區民族街24-1號","121.806703333333","25.1069783333333","6501200","瑞芳區"
"224002","639-TC","2018/10/29 18:59:28","新北市平溪區新寮里五分寮10-3號","121.797011666667","25.0775883333333","6501200","瑞芳區"
"224008","285-BY","2018/10/29 18:59:35","新北市瑞芳區逢甲路343號","121.800536666667","25.1122183333333","6501200","瑞芳區"
"224009","273-VK","2018/10/29 18:59:37","新北市瑞芳區長仁路40號","121.865113333333","25.1180783333333","6501200","瑞芳區"
"224007","272-VK","2018/10/29 18:59:39","新北市瑞芳區中央路48巷吉祥園8號","121.759535","25.1036683333333","6501200","瑞芳區"
"224005","271-BY","2018/10/29 18:59:38","新北市瑞芳區瑞濱路67號","121.822143333333","25.12097","6501200","瑞芳區"
"227008","400-TW","2018/10/29 18:59:35","新北市雙溪區牡丹里中正路58巷23號","121.866411666667","25.0415483333333","6502500","雙溪區"
"227001","030-BX","2018/10/29 18:59:45","新北市雙溪區平林里康福家園10號","121.858745","25.037345","6502500","雙溪區"
"253006","032-BX","2018/10/29 18:59:31","新北市石門區下員坑42號","121.517746666667","25.27778","6502200","石門區"
"253005","295-VK","2018/10/29 18:59:40","新北市石門區尖子鹿76號","121.572876666667","25.297115","6502200","石門區"
"222001","KEA-2212","2018/10/29 18:59:39","新北市深坑區北深路一段199號","121.630736666667","25.0094216666667","6501800","深坑區"
"208002","KEA-2872","2018/10/29 18:59:34","新北市金山區仁愛路37-26號","121.635415","25.2206383333333","6502700","金山區"
"208003","665-BX","2018/10/29 18:59:37","新北市金山區中正路20號","121.635923333333","25.2222933333333","6502700","金山區"
"208001","761-BX","2018/10/29 18:59:35","新北市金山區中山路89號","121.640146666667","25.2187816666667","6502700","金山區"
"251009","008-UM","2018/10/29 18:59:31","新北市淡水區重建街66號","121.439881666667","25.1719833333333","6501000","淡水區"
"251001","011-UM","2018/10/29 18:59:23","新北市淡水區自強路60號","121.463105","25.1275583333333","6501000","淡水區"
"251013","KEA-2871","2018/10/29 18:59:40","新北市淡水區安子內12-1號","121.481511666667","25.2190866666667","6501000","淡水區"
"251016","179-VK","2018/10/29 18:59:38","新北市淡水區淡金路三段317號","121.448931666667","25.2058616666667","6501000","淡水區"
"251015","182-VK","2018/10/29 18:59:29","新北市淡水區糞箕湖60號","121.485193333333","25.1723266666667","6501000","淡水區"
"251010","413-VK","2018/10/29 18:59:32","新北市淡水區淡海路85號","121.422823333333","25.1816583333333","6501000","淡水區"
"251007","442-VK","2018/10/29 18:59:32","新北市淡水區民生路113巷1弄54號","121.462553333333","25.138615","6501000","淡水區"
"251011","650-BX","2018/10/29 18:59:37","新北市淡水區中正東路二段31號","121.458888333333","25.1565433333333","6501000","淡水區"
"251002","672-BX","2018/10/29 18:59:27","新北市淡水區中正東路49號","121.446725","25.16785","6501000","淡水區"
"251003","766-UM","2018/10/29 18:59:37","新北市淡水區中山北路一段149巷31號","121.443028333333","25.1779416666667","6501000","淡水區"
"207004","681-TV","2018/10/29 18:59:40","新北市萬里區萬里里獅頭路23號","121.69328","25.1782333333333","6502800","萬里區"
"207003","550-UM","2018/10/29 18:59:30","新北市萬里區大鵬里頂社29號","121.656573333333","25.210755","6502800","萬里區"
"252002","178-VK","2018/10/29 18:59:36","新北市三芝區中正路一段58號","121.5036","25.2578883333333","6502100","三芝區"
"252003","249-BX","2018/10/29 18:59:40","新北市三芝區後厝里北勢子17號","121.474225","25.2544533333333","6502100","三芝區"
"252001","292-VK","2018/10/29 18:59:23","新北市三芝區中興街二段260號","121.50175","25.2530016666667","6502100","三芝區"
"237004","KEA-2597","2018/10/29 18:59:45","新北市三峽區有木205-1號","121.439043333333","24.8514883333333","6500900","三峽區"
"237007","153-BY","2018/10/29 18:59:36","新北市三峽區中正路二段231號","121.365988333333","24.9127933333333","6500900","三峽區"
"237013","252-BX","2018/10/29 18:59:34","新北市三峽區光明路69巷25號","121.376486666667","24.92917","6500900","三峽區"
"237012","275-BY","2018/10/29 18:59:32","新北市三峽區三樹路222巷254弄1號","121.390855","24.943875","6500900","三峽區"
"237008","302-VK","2018/10/29 18:59:33","新北市三峽區中正路一段199號","121.372328333333","24.9277033333333","6500900","三峽區"
"237014","433-BY","2018/10/29 18:59:26","新北市三峽區隆恩街162號","121.365616666667","24.943635","6500900","三峽區"
"237006","5529-G3","2018/10/29 18:59:30","新北市三峽區溪東路233巷4弄21號","121.40727","24.93375","6500900","三峽區"
"237011","KEA-2596","2018/10/29 18:59:27","新北市三峽區介壽路三段245號","121.407988333333","24.9495233333333","6500900","三峽區"
"237015","649-BX","2018/10/29 18:59:41","新北市三峽區建安159號","121.467485","24.9110466666667","6500900","三峽區"
"237010","706-TV","2018/10/29 18:59:44","新北市三峽區復興路174巷8-2號","121.370775","24.9391616666667","6500900","三峽區"
"237005","AKY-6261","2018/10/29 18:59:42","新北市三峽區中山路459巷163-3號","121.348658333333","24.9329483333333","6500900","三峽區"
"236069","105-UM","2018/10/29 18:59:38","新北市土城區金城路二段188號","121.45372","24.98114","6501300","土城區"
"236078","166-UM","2018/10/29 18:59:34","新北市土城區龍泉路10-1號","121.409536666667","24.9492716666667","6501300","土城區"
"236030","253-BX","2018/10/29 18:59:33","新北市土城區慶利街11號","121.439503333333","24.9736016666667","6501300","土城區"
"236026","269-VK","2018/10/29 18:59:43","新北市土城區中央路二段246號","121.441931666667","24.9748666666667","6501300","土城區"
"236014","270-VK","2018/10/29 18:59:33","新北市土城區延和路13巷1號","121.463571666667","24.988495","6501300","土城區"
"236039","271-VK","2018/10/29 18:59:32","新北市土城區仁愛路8號","121.460063333333","24.9810083333333","6501300","土城區"
"236020","401-BY","2018/10/29 18:59:41","新北市土城區延吉街168巷9號","121.468123333333","24.9858216666667","6501300","土城區"
"236042","752-BX","2018/10/29 18:59:31","新北市土城區裕民路214巷26弄6號","121.452275","24.98404","6501300","土城區"
"236059","912-UM","2018/10/29 18:59:37","新北市土城區金城路二段208號","121.455235","24.98198","6501300","土城區"
"236048","913-UM","2018/10/29 18:59:35","新北市土城區明德路一段280號","121.457493333333","24.97746","6501300","土城區"
"236063","915-UM","2018/10/29 18:59:32","新北市土城區金城路三段93巷25號","121.46673","24.9885533333333","6501300","土城區"
"236055","AAC-216","2018/10/29 18:59:43","新北市土城區學成路147號","121.448765","24.9895116666667","6501300","土城區"
"242053","441-UM","2018/10/29 18:59:38","新北市新莊區新樹路559號","121.432778333333","25.0074566666667","6500500","新莊區"
"242007","176-VK","2018/10/29 18:59:23","新北市樹林區八德街435-1號","121.406003333333","24.9693816666667","6500500","新莊區"
"238023","601-UM","2018/10/29 18:59:38","新北市樹林區大慶街142號","121.396513333333","25.0134683333333","6500700","樹林區"
"238019","599-UM","2018/10/29 18:59:28","新北市樹林區東榮街147巷6號","121.414556666667","24.98077","6500700","樹林區"
"238025","303-VK","2018/10/29 18:59:27","新北市樹林區中山路三段315號","121.390946666667","24.9716333333333","6500700","樹林區"
"238017","283-BY","2018/10/29 18:59:42","新北市樹林區保安街一段287-10號","121.418635","24.9974716666667","6500700","樹林區"
"238014","282-BY","2018/10/29 18:59:39","新北市樹林區千歲街61巷8-5號","121.4261","24.9982016666667","6500700","樹林區"
"238020","268-VK","2018/10/29 18:59:29","新北市樹林區俊英街121巷2號","121.424631666667","25.0105066666667","6500700","樹林區"
"238026","172-UY","2018/10/29 18:59:39","新北市樹林區中和街6號","121.391835","24.972965","6500700","樹林區"
"238016","169-UY","2018/10/29 18:59:26","新北市樹林區文化街23號","121.41926","24.9876633333333","6500700","樹林區"
"239007","AAC-297","2018/10/29 18:59:43","新北市鶯歌區成功街6巷28號","121.35933","24.9573966666667","6500800","鶯歌區"
"239008","527-UM","2018/10/29 18:59:41","新北市鶯歌區國際二路20巷27號","121.337393333333","24.9755316666667","6500800","鶯歌區"
"239005","526-UM","2018/10/29 18:59:40","新北市鶯歌區鳳吉一街92號","121.327158333333","24.9744166666667","6500800","鶯歌區"
"239001","417-VK","2018/10/29 18:59:30","新北市鶯歌區鶯桃路182巷96弄28號","121.340016666667","24.9563516666667","6500800","鶯歌區"
"239003","360-BY","2018/10/29 18:59:37","新北市鶯歌區鶯桃路377號","121.333671666667","24.9632966666667","6500800","鶯歌區"
"239004","193-VK","2018/10/29 18:59:28","新北市鶯歌區中正三路271號","121.332735","24.93814","6500800","鶯歌區"
"221008","489-VK","2018/10/29 18:59:34","新北市汐止區康寧街753巷2弄22號","121.640128333333","25.0745266666667","6501100","汐止區"
"221036","130-UY","2018/10/29 18:59:25","新北市汐止區仁愛路326號","121.664368333333","25.0680133333333","6501100","汐止區"
"221015","131-UY","2018/10/29 18:59:27","新北市汐止區鄉長路一段55巷5號","121.66556","25.0760333333333","6501100","汐止區"
"221010","269-BY","2018/10/29 18:59:29","新北市汐止區康寧街901號","121.651531666667","25.0749916666667","6501100","汐止區"
"221012","278-VK","2018/10/29 18:59:43","新北市汐止區康寧街901號","121.650716666667","25.0752583333333","6501100","汐止區"
"221023","279-VK","2018/10/29 18:59:35","新北市汐止區康寧街901號","121.6517","25.07493","6501100","汐止區"
"221032","280-BY","2018/10/29 18:59:28","新北市汐止區橫科路241-5號","121.622473333333","25.048695","6501100","汐止區"
"221027","281-BY","2018/10/29 18:59:39","新北市汐止區康寧街901號","121.651301666667","25.07499","6501100","汐止區"
"221029","298-VK","2018/10/29 18:59:43","新北市汐止區樟樹一路228號","121.642231666667","25.066665","6501100","汐止區"
"221021","299-VK","2018/10/29 18:59:39","新北市汐止區康寧街901號","121.651413333333","25.0750816666667","6501100","汐止區"
"221031","353-TW","2018/10/29 18:59:29","新北市汐止區中興路181巷29弄8號","121.629861666667","25.0658316666667","6501100","汐止區"
"221035","622-UM","2018/10/29 18:59:22","新北市汐止區汐萬路一段273號","121.650456666667","25.0745416666667","6501100","汐止區"
"221025","623-UM","2018/10/29 18:59:27","新北市汐止區康寧街901號","121.65169","25.0749016666667","6501100","汐止區"
"221038","646-BX","2018/10/29 18:59:34","新北市汐止區汐萬路一段312號","121.650646666667","25.0752516666667","6501100","汐止區"
"221002","707-TV","2018/10/29 18:59:36","台北市南港區經貿一路57號","121.619761666667","25.0561466666667","6501100","汐止區"
"221018","753-BX","2018/10/29 18:59:39","新北市汐止區汐萬路一段312號","121.65063","25.0753733333333","6501100","汐止區"
"220079","145-BY","2018/10/29 18:59:27","新北市板橋區民權路202巷9弄2號","121.460413333333","25.0154","6500100","板橋區"
"220080","200-UY","2018/10/29 18:59:32","新北市板橋區大觀路二段265巷1弄16號","121.443595","24.9983533333333","6500100","板橋區"
"220082","610-BX","2018/10/29 18:59:42","新北市板橋區滿平街64號","121.427158333333","24.9893633333333","6500100","板橋區"
"220101","245-BX","2018/10/29 18:59:34","新北市板橋區文化路二段182巷11號","121.472026666667","25.026815","6500100","板橋區"
"220084","256-TC","2018/10/29 18:59:40","新北市板橋區龍興街63巷2號","121.442993333333","25.0013016666667","6500100","板橋區"
"220103","257-TC","2018/10/29 18:59:30","新北市板橋區民生路二段123號","121.470655","25.0185283333333","6500100","板橋區"
"220056","276-BY","2018/10/29 18:59:42","新北市板橋區信義路148號","121.458871666667","24.9917183333333","6500100","板橋區"
"220072","277-BY","2018/10/29 18:59:35","新北市板橋區溪北路119-2號","121.430538333333","24.98841","6500100","板橋區"
"220057","282-UM","2018/10/29 18:59:26","新北市板橋區重慶路97號","121.462095","25.0055883333333","6500100","板橋區"
"220094","283-UM","2018/10/29 18:59:34","新北市板橋區文化路二段28號","121.469371666667","25.02488","6500100","板橋區"
"220071","283-VK","2018/10/29 18:59:27","新北市板橋區重慶路245巷7號","121.463656666667","25.00078","6500100","板橋區"
"220083","286-VK","2018/10/29 18:59:41","新北市板橋區大觀路一段38巷156弄77號","121.44304","25.0067633333333","6500100","板橋區"
"220081","287-VK","2018/10/29 18:59:45","新北市板橋區光華街37巷2號","121.453695","25.0129716666667","6500100","板橋區"
"220090","288-VK","2018/10/29 18:59:41","新北市板橋區四維路177巷1弄1號","121.464298333333","25.0263283333333","6500100","板橋區"
"220061","293-UM","2018/10/29 18:59:38","新北市板橋區太和街6巷1號","121.473668333333","25.0200683333333","6500100","板橋區"
"220062","295-UM","2018/10/29 18:59:37","新北市板橋區民享街123號","121.477771666667","25.0165133333333","6500100","板橋區"
"220053","299-UM","2018/10/29 18:59:34","新北市板橋區中山路二段147號","121.475576666667","25.0167383333333","6500100","板橋區"
"220075","303-R5","2018/10/29 18:59:28","新北市板橋區府中路98號","121.456091666667","25.0096333333333","6500100","板橋區"
"220092","307-R5","2018/10/29 18:59:36","新北市板橋區文化路一段90號","121.464353333333","25.017705","6500100","板橋區"
"220098","317-R6","2018/10/29 18:59:45","新北市板橋區民有街26號","121.466078333333","25.0252","6500100","板橋區"
"220064","486-VK","2018/10/29 18:59:34","新北市板橋區縣民大道二段101號","121.466673333333","25.0153016666667","6500100","板橋區"
"220089","487-VK","2018/10/29 18:59:31","新北市板橋區仁化街2號","121.474216666667","25.0315833333333","6500100","板橋區"
"220088","491-VK","2018/10/29 18:59:39","新北市板橋區民生路二段232-14號","121.468838333333","25.0221483333333","6500100","板橋區"
"220035","560-BX","2018/10/29 18:59:35","新北市板橋區中正路325巷21號","121.454268333333","25.01971","6500100","板橋區"
"220063","609-BX","2018/10/29 18:59:35","新北市板橋區中山路二段163號","121.475878333333","25.016765","6500100","板橋區"
"220091","637-BX","2018/10/29 18:59:25","新北市板橋區雙十路二段47巷52號","121.474833333333","25.02532","6500100","板橋區"
"220077","687-BX","2018/10/29 18:59:36","新北市板橋區龍興街2號","121.442723333333","24.9993566666667","6500100","板橋區"
"220093","689-BX","2018/10/29 18:59:35","新北市板橋區民生路三段66號","121.466913333333","25.0255683333333","6500100","板橋區"
"220054","741-BX","2018/10/29 18:59:29","新北市板橋區重慶路139巷15號","121.463458333333","25.004625","6500100","板橋區"
"220102","KEA-2699","2018/10/29 18:59:43","新北市板橋區雙十路一段44巷36號","121.477256666667","25.0248233333333","6500100","板橋區"
"220055","827-TW","2018/10/29 18:59:41","新北市板橋區中山路一段158巷11號","121.466393333333","25.0115483333333","6500100","板橋區"
"220067","829-TW","2018/10/29 18:59:33","新北市板橋區三民路二段正隆巷12弄13號","121.4778","25.013355","6500100","板橋區"
"220068","830-TW","2018/10/29 18:59:38","新北市板橋區中山路二段465巷74弄1-2號","121.481361666667","25.022215","6500100","板橋區"
"220096","831-TW","2018/10/29 18:59:44","新北市板橋區莒光路135號","121.473171666667","25.0239916666667","6500100","板橋區"
"220074","895-R6","2018/10/29 18:59:32","新北市板橋區府中路98號","121.456033333333","25.0095983333333","6500100","板橋區"
"220073","985-R7","2018/10/29 18:59:39","新北市板橋區民權路209號","121.45811","25.0147133333333","6500100","板橋區"
"220097","AAC-210","2018/10/29 18:59:38","新北市板橋區漢生東路7號","121.464695","25.0173583333333","6500100","板橋區"
"220070","AAC-253","2018/10/29 18:59:32","新北市板橋區四川路一段489號","121.457153333333","24.9971566666667","6500100","板橋區"
"235068","KEA-2873","2018/10/29 18:59:27","新北市中和區圓通路232巷16號","121.495115","24.9933216666667","6500300","中和區"
"235061","KEA-2875","2018/10/29 18:59:28","新北市中和區民治街130巷7號","121.474883333333","25.0025733333333","6500300","中和區"
