"lineid","car","time","location","longitude","latitude","cityid","cityname"
"234046","148-BY","2018/10/29 19:59:41","新北市永和區成功路一段4號","121.526955","25.005525","6500400","永和區"
"234007","207-UY","2018/10/29 19:59:44","新北市永和區保生路22巷8號","121.507156666667","25.0079966666667","6500400","永和區"
"234081","298-R6","2018/10/29 19:59:35","新北市永和區永亨路114號","121.523758333333","25.004375","6500400","永和區"
"234038","336-UY","2018/10/29 19:59:27","新北市永和區成功路二段179-1號","121.526576666667","24.9965816666667","6500400","永和區"
"234064","337-UY","2018/10/29 19:59:37","新北市永和區中正路412巷20弄20號","121.518791666667","25.0014316666667","6500400","永和區"
"234086","338-UY","2018/10/29 19:59:34","新北市永和區福和路243號","121.518271666667","25.00752","6500400","永和區"
"234070","552-UM","2018/10/29 19:59:33","新北市永和區國光路14號","121.519171666667","25.008455","6500400","永和區"
"234017","745-BX","2018/10/29 19:59:37","新北市永和區文化路69號","121.513975","25.0150516666667","6500400","永和區"
"234030","746-BX","2018/10/29 19:59:42","新北市永和區民生路24號","121.522496666667","24.9972933333333","6500400","永和區"
"234054","KEA-2590","2018/10/29 19:59:33","新北市永和區環河東路一段122號","121.520663333333","25.0154683333333","6500400","永和區"
"234013","KEA-2591","2018/10/29 19:59:37","新北市永和區保生路55號","121.504696666667","25.0106216666667","6500400","永和區"
"234061","AAD-866","2018/10/29 19:59:43","新北市永和區中正路283巷66弄2號","121.516055","24.9995966666667","6500400","永和區"
"234042","862-TW","2018/10/29 19:59:41","新北市永和區中和路421巷5弄19號","121.50846","25.0006983333333","6500400","永和區"
"234050","863-TW","2018/10/29 19:59:31","新北市永和區保安路125巷2弄1號","121.507591666667","25.0135983333333","6500400","永和區"
"234026","9371-KE","2018/10/29 19:59:33","新北市永和區水源街33巷1號","121.510906666667","25.0044433333333","6500400","永和區"
"234011","9373-KE","2018/10/29 19:59:32","新北市永和區仁愛路352巷124號","121.500225","25.0085616666667","6500400","永和區"
"249005","172-UM","2018/10/29 19:59:37","新北市八里區楓林路3-1號","121.382478333333","25.1305166666667","6502300","八里區"
"249001","173-UM","2018/10/29 19:59:30","新北市八里區中華路二段312號","121.403776666667","25.1483283333333","6502300","八里區"
"249004","303-UY","2018/10/29 19:59:25","新北市八里區中山路一段418-2號","121.411036666667","25.15781","6502300","八里區"
"249002","305-UY","2018/10/29 19:59:26","新北市八里區頂寮二街11號","121.450635","25.1241483333333","6502300","八里區"
"249003","593-UM","2018/10/29 19:59:40","新北市八里區訊塘路11號","121.397976666667","25.1449383333333","6502300","八里區"
"248016","026-BX","2018/10/29 19:59:36","新北市五股區成泰路三段577巷80弄72號","121.448928333333","25.1047516666667","6501500","五股區"
"248008","095-VK","2018/10/29 19:59:37","新北市五股區四維路30巷34弄1號","121.468616666667","25.0714583333333","6501500","五股區"
"248018","225-UY","2018/10/29 19:59:22","新北市五股區登林路101號","121.411161666667","25.0780533333333","6501500","五股區"
"248012","247-BX","2018/10/29 19:59:29","新北市五股區民義路一段52號","121.43662","25.0842333333333","6501500","五股區"
"248014","261-SL","2018/10/29 19:59:31","新北市五股區五福路14巷27號","121.435375","25.088885","6501500","五股區"
"248010","272-BY","2018/10/29 19:59:37","新北市五股區成泰路一段42號","121.435303333333","25.0686766666667","6501500","五股區"
"248004","677-BX","2018/10/29 19:59:27","新北市五股區成泰路一段32巷60號","121.434891666667","25.06696","6501500","五股區"
"248002","678-BX","2018/10/29 19:59:35","新北市五股區成泰路三段553號","121.452038333333","25.1019","6501500","五股區"
"234023","9380-KE","2018/10/29 19:59:39","新北市永和區中正路702巷20弄1號","121.516533333333","25.0105116666667","6500400","永和區"
"234077","969-R7","2018/10/29 19:59:41","新北市永和區中正路242巷2弄2號","121.5167","24.998005","6500400","永和區"
"234074","AAC-211","2018/10/29 19:59:37","新北市永和區豫溪街203號","121.523435","25.0097166666667","6500400","永和區"
"234067","AAC-212","2018/10/29 19:59:42","新北市永和區中山路一段230號","121.508013333333","25.0080766666667","6500400","永和區"
"234003","AAC-295","2018/10/29 19:59:26","新北市永和區中正路708號","121.516131666667","25.0099733333333","6500400","永和區"
"243013","AAD-798","2018/10/29 19:40:37","新北市泰山區應化街13號","121.423846666667","25.0436916666667","6501600","泰山區"
"243009","297-R6","2018/10/29 19:59:37","新北市泰山區楓江路16巷10號","121.43383","25.06199","6501600","泰山區"
"243016","KEA-2801","2018/10/29 19:59:34","新北市泰山區貴陽街4號","121.421518333333","25.0332333333333","6501600","泰山區"
"243015","421-VK","2018/10/29 19:59:43","新北市泰山區文程路1號","121.42757","25.0496266666667","6501600","泰山區"
"243012","539-UM","2018/10/29 19:59:37","新北市泰山區全興路105號","121.433635","25.05686","6501600","泰山區"
"243011","KEA-2215","2018/10/29 19:59:32","新北市泰山區工專路65號","121.422178333333","25.0404133333333","6501600","泰山區"
"243010","KEA-2216","2018/10/29 19:59:37","新北市泰山區中華街14巷1號","121.427655","25.0524033333333","6501600","泰山區"
"243014","680-BX","2018/10/29 19:59:34","新北市泰山區明志路一段188號","121.43294","25.0622183333333","6501600","泰山區"
"222003","436-BY","2018/10/29 19:59:30","新北市深坑區埔新街14號","121.620753333333","25.0039433333333","6501800","深坑區"
"222002","659-BX","2018/10/29 19:59:37","新北市深坑區北深路二段81巷12號","121.618405","25.0028516666667","6501800","深坑區"
"231041","002-UM","2018/10/29 19:59:36","新北市新店區中正路331-1號","121.5361","24.97528","6500600","新店區"
"231059","046-UY","2018/10/29 19:59:38","新北市新店區安和路二段1號","121.517748333333","24.9668433333333","6500600","新店區"
"231040","047-UY","2018/10/29 19:59:30","新北市新店區中正路56號","121.544368333333","24.97003","6500600","新店區"
"231052","108-UY","2018/10/29 19:59:24","新北市新店區新烏路三段寶島巷2弄3號","121.551978333333","24.8986616666667","6500600","新店區"
"231046","110-UY","2018/10/29 19:59:26","新北市新店區安民街133巷26號","121.515503333333","24.9696183333333","6500600","新店區"
"231047","187-VK","2018/10/29 19:59:28","新北市新店區寶興路43號","121.549101666667","24.9736533333333","6500600","新店區"
"231054","188-VK","2018/10/29 19:59:45","新北市新店區光明街135號","121.539491666667","24.961955","6500600","新店區"
"231057","256-BX","2018/10/29 19:59:37","新北市新店區花園二路一段11號","121.555508333333","24.932465","6500600","新店區"
"231042","268-BY","2018/10/29 19:59:35","新北市新店區中興路一段280號","121.545588333333","24.96855","6500600","新店區"
"231051","278-BY","2018/10/29 19:59:28","新北市新店區中央二街1號","121.529235","24.972885","6500600","新店區"
"231050","AAD-862","2018/10/29 19:59:36","新北市新店區北宜路二段16號","121.547986666667","24.9517183333333","6500600","新店區"
"231045","355-BY","2018/10/29 19:59:44","新北市新店區北宜路二段80巷2弄14號","121.552","24.9531916666667","6500600","新店區"
"231058","3713-VJ","2018/10/29 19:59:31","新北市新店區光華街38巷7號","121.515708333333","24.9700083333333","6500600","新店區"
"231066","4716-K9","2018/10/29 19:59:38","新北市新店區薏仁坑路6-1號","121.499918333333","24.9583966666667","6500600","新店區"
"231056","4715-K9","2018/10/29 19:59:30","新北市新店區北新路二段73號","121.542883333333","24.9736383333333","6500600","新店區"
"231067","4772-VM","2018/10/29 19:59:26","新北市新店區秀山路45巷8號","121.531071666667","24.960355","6500600","新店區"
"231065","512-UM","2018/10/29 19:59:42","新北市新店區安祥路106巷2號","121.478871666667","24.9620383333333","6500600","新店區"
"231049","513-UM","2018/10/29 19:59:43","新北市新店區建國路137-1號","121.539173333333","24.9783883333333","6500600","新店區"
"231044","618-UM","2018/10/29 19:59:43","新北市新店區復興路38號","121.538976666667","24.98674","6500600","新店區"
"231061","619-UM","2018/10/29 19:59:29","新北市新店區安興路87號","121.515181666667","24.975825","6500600","新店區"
"231063","641-BX","2018/10/29 19:59:35","新北市新店區車子路11號","121.502741666667","24.950985","6500600","新店區"
"231068","718-UY","2018/10/29 19:59:36","新北市新店區安一路一段1-1號","121.519415","24.9611483333333","6500600","新店區"
"231064","719-UM","2018/10/29 19:59:37","新北市新店區安民街8號","121.515298333333","24.9641916666667","6500600","新店區"
"231062","720-UM","2018/10/29 19:59:30","新北市新店區華潭街51號","121.52865","24.95414","6500600","新店區"
"231060","897-TW","2018/10/29 19:59:38","新北市新店區安康路三段27號","121.493198333333","24.9532166666667","6500600","新店區"
"231043","899-TW","2018/10/29 19:59:38","新北市新店區中正路263-4號","121.538338333333","24.9738466666667","6500600","新店區"
"241011","013-R5","2018/10/29 19:59:35","新北市三重區三和路二段173巷43號","121.499241666667","25.0701433333333","6500200","三重區"
"241008","059-VK","2018/10/29 19:59:44","新北市三重區永福街179巷13號","121.47841","25.07493","6500200","三重區"
"241022","060-VK","2018/10/29 19:59:36","新北市三重區過圳街31巷2號","121.488881666667","25.0605916666667","6500200","三重區"
"241015","062-VK","2018/10/29 19:59:29","新北市三重區三和路二段8號","121.501153333333","25.0669033333333","6500200","三重區"
"241017","063-VK","2018/10/29 19:59:46","新北市三重區自強路一段223號","121.491216666667","25.0686583333333","6500200","三重區"
"241024","065-VK","2018/10/29 19:59:33","新北市三重區大勇街42號","121.481265","25.071665","6500200","三重區"
"241026","066-VK","2018/10/29 19:59:35","新北市三重區仁慈街30號","121.502258333333","25.0631433333333","6500200","三重區"
"241002","090-VK","2018/10/29 19:59:42","新北市三重區仁愛街349號","121.49223","25.0798533333333","6500200","三重區"
"241003","091-VK","2018/10/29 19:59:35","新北市三重區仁愛街460號","121.490108333333","25.0821316666667","6500200","三重區"
"251014","742-BX","2018/10/29 19:59:41","新北市淡水區石頭厝1號","121.458741666667","25.2354966666667","6501000","淡水區"
"241005","262-UM","2018/10/29 19:59:27","新北市三重區溪尾街325巷25號","121.488626666667","25.08333","6500200","三重區"
"241028","265-UM","2018/10/29 19:59:31","新北市三重區重新路三段90號","121.492955","25.0607233333333","6500200","三重區"
"241016","266-UM","2018/10/29 19:59:32","新北市三重區正義北路46號","121.497166666667","25.0636966666667","6500200","三重區"
"241009","267-UM","2018/10/29 19:59:39","新北市三重區三和路四段390巷38號","121.480508333333","25.0785783333333","6500200","三重區"
"241018","268-UM","2018/10/29 19:59:39","新北市三重區正義北路244巷58號","121.494288333333","25.067735","6500200","三重區"
"241032","269-UM","2018/10/29 19:59:40","新北市三重區朝陽街26巷1弄9號","121.483135","25.0567533333333","6500200","三重區"
"241013","270-UM","2018/10/29 19:59:32","新北市三重區三和路三段125巷8號","121.493221666667","25.07351","6500200","三重區"
"241025","271-UM","2018/10/29 19:59:38","新北市三重區頂崁街210巷26號","121.475886666667","25.068015","6500200","三重區"
"241007","398-BY","2018/10/29 19:59:38","新北市三重區溪尾街146號","121.489098333333","25.079805","6500200","三重區"
"241035","KEA-2210","2018/10/29 19:59:24","新北市三重區文化北路25號","121.499551666667","25.0637483333333","6500200","三重區"
"241004","475-VK","2018/10/29 19:59:35","新北市三重區仁愛街425巷92號","121.492226666667","25.08268","6500200","三重區"
"241020","478-VK","2018/10/29 19:59:36","新北市三重區忠孝路一段101號","121.489533333333","25.0721083333333","6500200","三重區"
"241030","480-VK","2018/10/29 19:59:25","新北市三重區成功路143號","121.487083333333","25.0519366666667","6500200","三重區"
"241014","543-UM","2018/10/29 19:59:38","新北市三重區三和路二段156號","121.499383333333","25.06846","6500200","三重區"
"241023","545-UM","2018/10/29 19:59:45","新北市三重區頂崁街168號","121.47764","25.0659166666667","6500200","三重區"
"241001","547-UM","2018/10/29 19:59:25","新北市三重區福隆路12號","121.490306666667","25.0773966666667","6500200","三重區"
"241019","KEA-2593","2018/10/29 19:59:40","新北市三重區重陽路四段2號","121.490281666667","25.0688433333333","6500200","三重區"
"241006","AAD-863","2018/10/29 19:59:31","新北市三重區力行路二段123巷7-1號","121.48335","25.0763783333333","6500200","三重區"
"241031","743-BX","2018/10/29 19:59:41","新北市三重區重新路四段144巷21號","121.486936666667","25.05526","6500200","三重區"
"241012","941-UM","2018/10/29 19:59:45","新北市三重區仁厚街26號","121.499576666667","25.0763","6500200","三重區"
"241029","942-UM","2018/10/29 19:59:28","新北市三重區重安街1號","121.489988333333","25.058245","6500200","三重區"
"241033","AAC-255","2018/10/29 19:59:40","新北市三重區中興北街101號","121.469595","25.0483733333333","6500200","三重區"
"235066","003-UY","2018/10/29 19:59:34","新北市中和區中山路二段8號","121.505093333333","25.0056233333333","6500300","中和區"
"235056","096-UM","2018/10/29 19:59:43","新北市中和區中山路三段170巷2弄1號","121.47288","25.0066266666667","6500300","中和區"
"235039","097-UM","2018/10/29 19:59:41","新北市中和區景平路280號","121.513848333333","24.99288","6500300","中和區"
"235065","098-UM","2018/10/29 19:59:30","新北市中和區福祥路102號","121.499058333333","25.0060883333333","6500300","中和區"
"235040","150-BY","2018/10/29 19:59:40","新北市中和區保健路10巷1弄1號","121.508013333333","24.9979733333333","6500300","中和區"
"235058","151-BY","2018/10/29 19:59:29","新北市中和區員山路150巷2弄4號","121.481655","24.9981983333333","6500300","中和區"
"235055","183-VK","2018/10/29 19:59:27","新北市中和區民生街23巷4弄1號","121.471033333333","25.0049883333333","6500300","中和區"
"235049","186-VK","2018/10/29 19:59:24","新北市中和區景平路419號","121.501908333333","24.99505","6500300","中和區"
"235067","255-BX","2018/10/29 19:59:34","新北市中和區新生街251號","121.48385","24.9986533333333","6500300","中和區"
"235044","293-VK","2018/10/29 19:59:42","新北市中和區復興路251號","121.503346666667","24.9902116666667","6500300","中和區"
"235043","352-BY","2018/10/29 19:59:45","新北市中和區興南路二段116號","121.504693333333","24.983855","6500300","中和區"
"247012","KEA-2869","2018/10/29 19:59:29","新北市蘆洲區民族路151號","121.479481666667","25.087965","6501400","蘆洲區"
"235050","4979-A6","2018/10/29 19:59:43","新北市中和區景平路241巷64弄2號","121.507718333333","24.9924733333333","6500300","中和區"
"235069","4980-A6","2018/10/29 19:59:44","新北市中和區南山路4巷7號","121.501346666667","24.99865","6500300","中和區"
"235070","558-UM","2018/10/29 19:59:42","新北市中和區圓通路215號","121.4968","24.9943583333333","6500300","中和區"
"235054","640-BX","2018/10/29 19:59:41","新北市中和區中山路三段209號","121.471798333333","25.0062116666667","6500300","中和區"
"235046","733-UM","2018/10/29 19:59:41","新北市中和區興南路一段93巷83號","121.510575","24.9863416666667","6500300","中和區"
"235052","805-TS","2018/10/29 19:59:43","新北市中和區華新街144巷13號","121.507398333333","24.9832316666667","6500300","中和區"
"235048","896-TW","2018/10/29 19:59:41","新北市中和區興南路一段1號","121.511541666667","24.9911616666667","6500300","中和區"
"235053","900-TW","2018/10/29 19:59:29","新北市中和區華安街101號","121.468676666667","24.9955383333333","6500300","中和區"
"235051","157-BY","2018/10/29 19:59:38","新北市中和區景安路247巷16號","121.5043","24.9904866666667","6500300","中和區"
"235037","AAC-213","2018/10/29 19:59:32","新北市中和區自立路36號","121.522495","24.992765","6500300","中和區"
"235059","AAC-215","2018/10/29 19:59:41","新北市中和區圓通路335巷5弄2號","121.49287","24.9898983333333","6500300","中和區"
"220065","072-UY","2018/10/29 19:59:37","新北市板橋區海山路27號","121.467716666667","25.009075","6500100","板橋區"
"220106","075-UY","2018/10/29 19:59:36","新北市板橋區民治街42巷25號","121.478285","25.03305","6500100","板橋區"
"220069","AAD-861","2018/10/29 19:59:42","新北市板橋區大明街25巷2弄17號","121.45758","25.0025216666667","6500100","板橋區"
"247002","893-R6","2018/10/29 19:59:46","新北市蘆洲區長安街274巷10號","121.458093333333","25.0870416666667","6501400","蘆洲區"
"247016","546-UM","2018/10/29 19:59:32","新北市蘆洲區光華路53號","121.468516666667","25.0829133333333","6501400","蘆洲區"
"247024","500-BY","2018/10/29 19:59:40","新北市蘆洲區光榮路120巷12號","121.46541","25.0884616666667","6501400","蘆洲區"
"247014","339-TH","2018/10/29 19:59:33","新北市蘆洲區成功路151號","121.472056666667","25.0826733333333","6501400","蘆洲區"
"247006","337-TH","2018/10/29 19:59:36","新北市蘆洲區九芎街141號","121.465446666667","25.079455","6501400","蘆洲區"
"247008","336-TH","2018/10/29 19:59:32","新北市蘆洲區中山一路95巷20弄1號","121.477325","25.080635","6501400","蘆洲區"
"247020","057-VK","2018/10/29 19:59:38","新北市蘆洲區民權路156號","121.472586666667","25.0894983333333","6501400","蘆洲區"
"247018","007-UY","2018/10/29 19:59:39","新北市蘆洲區民族路290巷13號","121.478475","25.0900983333333","6501400","蘆洲區"
"247004","002-UY","2018/10/29 19:59:33","新北市蘆洲區長安街307號","121.457665","25.0853016666667","6501400","蘆洲區"
"226004","312-R5","2018/10/29 19:59:39","新北市平溪區十分里十分街116號","121.776911666667","25.0431266666667","6502400","平溪區"
"228003","097-TW","2018/10/29 19:59:37","新北市貢寮區仁理村仁和路47號","121.924073333333","25.0541216666667","6502600","貢寮區"
"224010","AGQ-8101","2018/10/29 19:59:32","新北市瑞芳區基山街152號","121.843028333333","25.1083016666667","6501200","瑞芳區"
"224002","639-TC","2018/10/29 19:59:28","新北市瑞芳區員山子路23號","121.821976666667","25.1027933333333","6501200","瑞芳區"
"227008","400-TW","2018/10/29 19:59:35","新北市雙溪區新基里新基南街25號","121.86626","25.03812","6502500","雙溪區"
"227001","030-BX","2018/10/29 19:59:44","新北市雙溪區雙溪里長安街16號","121.864963333333","25.03465","6502500","雙溪區"
"222001","KEA-2212","2018/10/29 19:59:39","新北市深坑區北深路三段165-1號","121.602161666667","25.0032733333333","6501800","深坑區"
"208002","KEA-2872","2018/10/29 19:59:34","新北市金山區中山路16號","121.641773333333","25.2173066666667","6502700","金山區"
"208003","665-BX","2018/10/29 19:59:37","新北市金山區永興里濆水路8號","121.623681666667","25.271275","6502700","金山區"
"208001","761-BX","2018/10/29 19:59:44","新北市金山區重和里六股林口9號","121.599348333333","25.2117983333333","6502700","金山區"
"251009","008-UM","2018/10/29 19:59:31","新北市淡水區英專路28巷2弄17號","121.44588","25.1693683333333","6501000","淡水區"
"251005","010-UM","2018/10/29 19:59:31","新北市淡水區學府路136巷31號","121.451596666667","25.1727516666667","6501000","淡水區"
"251001","011-UM","2018/10/29 19:59:43","新北市淡水區埤島3-20號","121.446901666667","25.1916233333333","6501000","淡水區"
"251013","KEA-2871","2018/10/29 19:59:40","新北市淡水區下圭柔山63-7號","121.451715","25.2061583333333","6501000","淡水區"
"251016","179-VK","2018/10/29 19:59:27","新北市淡水區興仁路162號","121.451573333333","25.2210583333333","6501000","淡水區"
"251008","181-VK","2018/10/29 19:59:36","新北市淡水區中正路二段24巷2-1號","121.426825","25.1769633333333","6501000","淡水區"
"251015","182-VK","2018/10/29 19:59:28","新北市淡水區埤島80-2號","121.449345","25.1893416666667","6501000","淡水區"
"251010","413-VK","2018/10/29 19:59:32","新北市淡水區崁頂133號","121.431078333333","25.20552","6501000","淡水區"
"251012","441-VK","2018/10/29 19:59:38","新北市淡水區下圭柔山91巷1號","121.43822","25.2110533333333","6501000","淡水區"
"251004","443-VK","2018/10/29 19:59:35","新北市淡水區民族路48號","121.46168","25.1360366666667","6501000","淡水區"
"251006","561-UM","2018/10/29 19:59:25","新北市淡水區北新路8號","121.444448333333","25.1773816666667","6501000","淡水區"
"251011","650-BX","2018/10/29 19:59:37","新北市淡水區崁頂55-3號","121.442133333333","25.1966816666667","6501000","淡水區"
"251003","766-UM","2018/10/29 19:59:37","新北市淡水區中山北路二段189巷15弄29號","121.443326666667","25.184215","6501000","淡水區"
"207004","681-TV","2018/10/29 19:59:40","新北市萬里區北基里忠二街35號","121.685666666667","25.175725","6502800","萬里區"
"207003","550-UM","2018/10/29 19:59:30","新北市萬里區大鵬里萬里加投40-1號","121.638778333333","25.2078333333333","6502800","萬里區"
"252002","178-VK","2018/10/29 19:59:36","新北市三芝區忠孝街116-3號","121.50546","25.2575983333333","6502100","三芝區"
"252001","292-VK","2018/10/29 19:59:43","新北市三芝區長安街89號","121.499715","25.257445","6502100","三芝區"
"237004","KEA-2597","2018/10/29 19:59:45","新北市三峽區添福8-2號","121.372446666667","24.90501","6500900","三峽區"
"237007","153-BY","2018/10/29 19:59:36","新北市三峽區麻園46號","121.363785","24.921285","6500900","三峽區"
"237009","210-TH","2018/10/29 19:59:27","新北市三峽區民權街185號","121.367905","24.9295583333333","6500900","三峽區"
"237012","275-BY","2018/10/29 19:59:32","新北市三峽區安溪路315號","121.371076666667","24.9305666666667","6500900","三峽區"
"237008","302-VK","2018/10/29 19:59:33","新北市三峽區中華路75巷17號","121.372671666667","24.9296083333333","6500900","三峽區"
"237014","433-BY","2018/10/29 19:59:26","新北市三峽區添福27-1號","121.372785","24.9041633333333","6500900","三峽區"
"237006","5529-G3","2018/10/29 19:59:30","新北市三峽區中正路二段168號","121.365895","24.915705","6500900","三峽區"
"237011","KEA-2596","2018/10/29 19:59:27","新北市三峽區中正路一段296號","121.371491666667","24.9256983333333","6500900","三峽區"
"237015","649-BX","2018/10/29 19:59:41","新北市三峽區橫溪路99巷12號","121.39975","24.9362233333333","6500900","三峽區"
"237005","AKY-6261","2018/10/29 19:59:42","新北市三峽區民生街1巷23號","121.379471666667","24.934545","6500900","三峽區"
"236069","105-UM","2018/10/29 19:59:41","新北市土城區忠義路111-2號","121.444545","24.9628616666667","6501300","土城區"
"236078","166-UM","2018/10/29 19:59:34","新北市土城區福安街53號","121.418555","24.9643916666667","6501300","土城區"
"236030","253-BX","2018/10/29 19:59:33","新北市土城區中央路一段252號","121.444331666667","24.9846633333333","6501300","土城區"
"236026","269-VK","2018/10/29 19:59:43","新北市土城區中央路二段94號","121.442338333333","24.9786533333333","6501300","土城區"
"236014","270-VK","2018/10/29 19:59:32","新北市土城區廣福街135號","121.456068333333","24.9933316666667","6501300","土城區"
"236039","271-VK","2018/10/29 19:59:32","新北市土城區國際路52號","121.466465","24.97826","6501300","土城區"
"236020","401-BY","2018/10/29 19:59:37","新北市土城區延吉街30號","121.472048333333","24.9873116666667","6501300","土城區"
"236042","752-BX","2018/10/29 19:58:30","新北市土城區學成路1號","121.453463333333","24.986235","6501300","土城區"
"236059","912-UM","2018/10/29 19:59:37","新北市土城區中央路一段264-2號","121.44392","24.9836016666667","6501300","土城區"
"236048","913-UM","2018/10/29 19:59:29","新北市土城區金城路三段315號","121.47505","24.9912383333333","6501300","土城區"
"236063","915-UM","2018/10/29 19:59:32","新北市土城區立德路135巷24號","121.465266666667","24.9871316666667","6501300","土城區"
"236055","AAC-216","2018/10/29 19:59:43","新北市土城區學府路一段53號","121.457463333333","24.988345","6501300","土城區"
"242036","AAC-296","2018/10/29 19:59:34","新北市新莊區建安街41巷10號","121.429128333333","25.02512","6500500","新莊區"
"242058","986-R7","2018/10/29 19:59:34","新北市新莊區八德街31號","121.424905","25.0222816666667","6500500","新莊區"
"242056","751-BX","2018/10/29 19:59:26","新北市新莊區中正路347巷17弄2號","121.447306666667","25.034365","6500500","新莊區"
"242025","613-BX","2018/10/29 19:59:37","新北市新莊區五工一路88號","121.461223333333","25.0674983333333","6500500","新莊區"
"242029","612-BX","2018/10/29 19:59:35","新北市新莊區中榮街99號","121.444955","25.0527933333333","6500500","新莊區"
"242044","566-BX","2018/10/29 19:59:39","新北市新莊區中正路746巷35號","121.410766666667","25.0247633333333","6500500","新莊區"
"242048","497-BY","2018/10/29 19:59:29","新北市新莊區後港二路13號","121.422946666667","25.0240066666667","6500500","新莊區"
"242034","442-UM","2018/10/29 19:59:45","新北市新莊區建中街81巷10弄2號","121.447325","25.0360883333333","6500500","新莊區"
"242053","441-UM","2018/10/29 19:59:39","新北市新莊區西盛街422號","121.427148333333","25.0120733333333","6500500","新莊區"
"242039","415-TV","2018/10/29 19:59:19","新北市新莊區民安路287-5號","121.428768333333","25.0230716666667","6500500","新莊區"
"242023","362-BY","2018/10/29 19:59:37","新北市新莊區化成路424號","121.465971666667","25.05109","6500500","新莊區"
"242060","353-BY","2018/10/29 19:59:32","新北市新莊區瓊林路59-2號","121.444635","25.0278683333333","6500500","新莊區"
"242011","132-UY","2018/10/29 19:59:26","新北市新莊區中港路531巷54號","121.450026666667","25.0515966666667","6500500","新莊區"
"242042","133-UY","2018/10/29 19:59:34","新北市新莊區青山路一段46號","121.410063333333","25.0276566666667","6500500","新莊區"
"242050","172-VK","2018/10/29 19:59:34","新北市新莊區西盛街206號","121.428155","25.0180616666667","6500500","新莊區"
"242013","173-VK","2018/10/29 19:59:28","新北市新莊區中港路467號","121.452368333333","25.04898","6500500","新莊區"
"242019","175-VK","2018/10/29 19:59:37","新北市新莊區長青街35巷14號","121.456656666667","25.0417966666667","6500500","新莊區"
"242007","176-VK","2018/10/29 19:59:44","新北市新莊區中原路55號","121.457936666667","25.0545733333333","6500500","新莊區"
"242017","346-TH","2018/10/29 19:59:38","新北市新莊區中安街3號","121.45291","25.045555","6500500","新莊區"
"242015","347-TH","2018/10/29 19:59:46","新北市新莊區復興路一段45號","121.447033333333","25.0421683333333","6500500","新莊區"
"242031","348-TH","2018/10/29 19:59:38","新北市新莊區忠孝街14號","121.443933333333","25.0348766666667","6500500","新莊區"
"242004","349-TH","2018/10/29 19:59:38","新北市新莊區頭前路82號","121.466008333333","25.0524983333333","6500500","新莊區"
"242021","350-TH","2018/10/29 19:59:26","新北市新莊區建中街32巷19號","121.44873","25.0381283333333","6500500","新莊區"
"238021","KEA-2539","2018/10/29 19:59:28","新北市樹林區佳園路三段101巷80弄8號","121.394265","24.9500883333333","6500700","樹林區"
"238017","283-BY","2018/10/29 19:59:02","新北市樹林區中山路三段214號","121.379721666667","24.9676383333333","6500700","樹林區"
"239006","891-R6","2018/10/29 19:59:32","新北市鶯歌區文化路62號","121.356243333333","24.9545583333333","6500800","鶯歌區"
"221008","489-VK","2018/10/29 19:59:34","台北市內湖區康樂街150號","121.619388333333","25.0726483333333","6501100","汐止區"
"221036","130-UY","2018/10/29 19:59:45","新北市汐止區忠孝東路258巷11弄2號","121.663725","25.0671916666667","6501100","汐止區"
"221015","131-UY","2018/10/29 19:59:27","新北市汐止區橋東街16號","121.666166666667","25.0758116666667","6501100","汐止區"
"221010","269-BY","2018/10/29 19:59:29","新北市汐止區連峰街225巷3號","121.644703333333","25.080925","6501100","汐止區"
"221012","278-VK","2018/10/29 19:59:43","新北市汐止區大同路三段294號","121.67833","25.0712516666667","6501100","汐止區"
"221023","279-VK","2018/10/29 19:59:35","新北市汐止區明峰街192號","121.62803","25.0696783333333","6501100","汐止區"
"221032","280-BY","2018/10/29 19:59:41","新北市汐止區橫科路18巷32弄10號","121.617396666667","25.0498133333333","6501100","汐止區"
"221027","281-BY","2018/10/29 19:59:38","新北市汐止區中正路77號","121.661446666667","25.0694583333333","6501100","汐止區"
"221029","298-VK","2018/10/29 19:59:44","新北市汐止區樟樹一路137巷26號","121.640765","25.0659","6501100","汐止區"
"221021","299-VK","2018/10/29 19:59:45","新北市汐止區復興路31號","121.656381666667","25.0633666666667","6501100","汐止區"
"221031","353-TW","2018/10/29 19:59:29","新北市汐止區福德一路209號","121.6351","25.065515","6501100","汐止區"
"221035","622-UM","2018/10/29 19:59:45","新北市汐止區長江街39巷1號","121.655533333333","25.0714333333333","6501100","汐止區"
"221025","623-UM","2018/10/29 19:59:27","新北市汐止區秀峰路109巷26弄8號","121.661011666667","25.0634783333333","6501100","汐止區"
"221038","646-BX","2018/10/29 19:59:34","新北市汐止區忠孝東路487-3號","121.666128333333","25.0739016666667","6501100","汐止區"
"221033","647-BX","2018/10/29 19:59:32","新北市汐止區東勢街190巷5號","121.633906666667","25.0415966666667","6501100","汐止區"
"221002","707-TV","2018/10/29 19:59:36","新北市汐止區工建路504號","121.633211666667","25.05833","6501100","汐止區"
"221018","753-BX","2018/10/29 19:59:39","新北市汐止區茄苳路56號","121.666261666667","25.0707333333333","6501100","汐止區"
"220079","145-BY","2018/10/29 19:59:27","新北市板橋區南雅西路二段157號","121.452066666667","25.01211","6500100","板橋區"
"220080","200-UY","2018/10/29 19:59:42","新北市板橋區大觀路二段153巷10號","121.446151666667","25.0005983333333","6500100","板橋區"
"220101","245-BX","2018/10/29 19:59:27","新北市板橋區縣民大道三段31號","121.473803333333","25.0207133333333","6500100","板橋區"
"220084","256-TC","2018/10/29 19:59:40","新北市樹林區水源街213號","121.424306666667","24.9870733333333","6500100","板橋區"
"220103","257-TC","2018/10/29 19:59:30","新北市板橋區陽明街29巷1弄11號","121.464776666667","25.0215083333333","6500100","板橋區"
"220072","277-BY","2018/10/29 19:59:34","新北市板橋區溪城路90-2號","121.429135","24.9803016666667","6500100","板橋區"
"220057","282-UM","2018/10/29 19:59:26","新北市板橋區四川路二段130巷13號","121.449636666667","24.9939916666667","6500100","板橋區"
"220094","283-UM","2018/10/29 19:59:34","新北市板橋區文德路11號","121.462683333333","25.02437","6500100","板橋區"
"220071","283-VK","2018/10/29 19:59:47","新北市板橋區五權街30巷24弄15號","121.463721666667","24.993385","6500100","板橋區"
"220083","286-VK","2018/10/29 19:59:40","新北市板橋區僑中二街10巷23號","121.445973333333","25.0110816666667","6500100","板橋區"
"220081","287-VK","2018/10/29 19:59:45","新北市板橋區僑中一街80巷12弄1號","121.448156666667","25.0132766666667","6500100","板橋區"
"220090","288-VK","2018/10/29 19:59:28","新北市板橋區幸福路32巷2弄47號","121.46067","25.0223883333333","6500100","板橋區"
"220061","293-UM","2018/10/29 19:59:38","新北市板橋區觀光街17號","121.471458333333","25.0161583333333","6500100","板橋區"
"220062","295-UM","2018/10/29 19:59:30","新北市板橋區光復街172巷31弄5-2號","121.486265","25.018965","6500100","板橋區"
"220053","299-UM","2018/10/29 19:59:34","新北市板橋區中山路二段90巷8號","121.475353333333","25.0160233333333","6500100","板橋區"
"242002","281-VK","2018/10/29 19:59:36","新北市新莊區中正路170號","121.450956666667","25.03586","6500500","新莊區"
"220075","303-R5","2018/10/29 19:59:39","新北市板橋區金華街10巷87-1號","121.458346666667","25.0204233333333","6500100","板橋區"
"220092","307-R5","2018/10/29 19:59:35","新北市板橋區幸福路60巷77-2號","121.459828333333","25.022115","6500100","板橋區"
"220098","317-R6","2018/10/29 19:59:25","新北市板橋區英士路151號","121.460041666667","25.0241466666667","6500100","板橋區"
"220064","486-VK","2018/10/29 19:59:34","新北市板橋區區運路16號","121.46519","25.00927","6500100","板橋區"
"220089","487-VK","2018/10/29 19:59:39","新北市板橋區龍泉街55巷2號","121.457136666667","25.0257616666667","6500100","板橋區"
"220088","491-VK","2018/10/29 19:59:41","新北市板橋區大同街69號","121.47938","25.0279316666667","6500100","板橋區"
"220035","560-BX","2018/10/29 19:59:35","新北市板橋區新生街87巷20號","121.457193333333","25.02205","6500100","板橋區"
"220063","609-BX","2018/10/29 19:59:35","新北市板橋區三民路一段197號","121.479271666667","25.0190333333333","6500100","板橋區"
"220091","637-BX","2018/10/29 19:59:25","新北市板橋區民治街121號","121.47828","25.0308716666667","6500100","板橋區"
"220093","689-BX","2018/10/29 19:59:35","新北市板橋區長江路三段58號","121.47353","25.03396","6500100","板橋區"
"220054","741-BX","2018/10/29 19:59:29","新北市板橋區實踐路93巷9-2號","121.464551666667","25.0054633333333","6500100","板橋區"
"220102","KEA-2699","2018/10/29 19:59:28","新北市板橋區仁化街42巷5弄3號","121.47552","25.0314566666667","6500100","板橋區"
"220055","827-TW","2018/10/29 19:59:41","新北市板橋區國慶路167巷23號","121.461743333333","24.9976283333333","6500100","板橋區"
"220067","829-TW","2018/10/29 19:59:45","新北市板橋區漢生東路193巷45弄15號","121.471995","25.0124083333333","6500100","板橋區"
"220068","830-TW","2018/10/29 19:59:43","新北市板橋區光復街186號","121.48544","25.0199016666667","6500100","板橋區"
"220096","831-TW","2018/10/29 19:59:47","新北市板橋區莒光路40巷18號","121.470126666667","25.0235816666667","6500100","板橋區"
"220074","895-R6","2018/10/29 19:59:32","新北市板橋區縣民大道一段285號","121.46059","25.010085","6500100","板橋區"
"220073","985-R7","2018/10/29 19:59:28","新北市板橋區南雅西路二段147號","121.452178333333","25.0118433333333","6500100","板橋區"
"220097","AAC-210","2018/10/29 19:59:41","新北市板橋區光正街16巷14號","121.463185","25.01749","6500100","板橋區"
"220070","AAC-253","2018/10/29 19:59:32","新北市板橋區四川路二段245巷50號","121.451986666667","24.99244","6500100","板橋區"
"235068","KEA-2873","2018/10/29 19:59:27","新北市中和區景平路736巷1弄9號","121.49752","25.0040766666667","6500300","中和區"
