"lineid","car","time","location","longitude","latitude","cityid","cityname"
"234046","148-BY","2018/10/29 20:09:41","新北市永和區成功路二段74號","121.52662","24.9992783333333","6500400","永和區"
"234007","207-UY","2018/10/29 20:09:24","新北市永和區保順路37巷16號","121.502866666667","25.0104316666667","6500400","永和區"
"234081","298-R6","2018/10/29 20:09:44","新北市永和區永利路73號","121.521173333333","25.0037766666667","6500400","永和區"
"234038","336-UY","2018/10/29 20:09:27","新北市永和區成功路一段76號","121.52673","25.0032666666667","6500400","永和區"
"234064","337-UY","2018/10/29 20:09:36","新北市永和區秀朗路二段43號","121.521583333333","25.0024983333333","6500400","永和區"
"234086","338-UY","2018/10/29 20:09:34","新北市永和區福和路82-1號","121.522788333333","25.0079616666667","6500400","永和區"
"234070","552-UM","2018/10/29 20:09:33","新北市永和區永貞路10巷9號","121.520061666667","25.007245","6500400","永和區"
"234017","745-BX","2018/10/29 20:09:37","新北市永和區文化路19-1號","121.515061666667","25.01501","6500400","永和區"
"234030","746-BX","2018/10/29 20:09:44","新北市永和區民權路49巷37號","121.522006666667","24.997725","6500400","永和區"
"234054","KEA-2590","2018/10/29 20:09:44","新北市永和區博愛街20巷1號","121.517963333333","25.0157633333333","6500400","永和區"
"234013","KEA-2591","2018/10/29 20:09:17","新北市永和區仁愛路271號","121.50607","25.0099366666667","6500400","永和區"
"234061","AAD-866","2018/10/29 20:09:31","新北市永和區中正路151巷1-1號","121.516363333333","24.9982533333333","6500400","永和區"
"234042","862-TW","2018/10/29 20:09:41","新北市永和區雙和街64巷7號","121.509326666667","25.003385","6500400","永和區"
"234050","863-TW","2018/10/29 20:09:31","新北市永和區新生路265巷1-1號","121.50569","25.0130733333333","6500400","永和區"
"234026","9371-KE","2018/10/29 20:09:33","新北市永和區保生路55號","121.504635","25.0106966666667","6500400","永和區"
"234011","9373-KE","2018/10/29 20:09:33","新北市永和區仁愛路352巷122弄11號","121.50072","25.0087966666667","6500400","永和區"
"249005","172-UM","2018/10/29 20:09:37","新北市八里區下罟子44號","121.3847","25.1364583333333","6502300","八里區"
"249001","173-UM","2018/10/29 20:09:31","新北市八里區中華路二段326號","121.40326","25.147915","6502300","八里區"
"249004","303-UY","2018/10/29 20:09:45","新北市八里區中山路一段187號","121.411765","25.158385","6502300","八里區"
"249002","305-UY","2018/10/29 20:09:39","新北市八里區龍米路一段17號","121.457275","25.115705","6502300","八里區"
"249003","593-UM","2018/10/29 20:09:40","新北市八里區中山路二段540巷9弄19號","121.396625","25.146695","6502300","八里區"
"248016","026-BX","2018/10/29 20:09:36","新北市五股區凌雲路一段158巷39弄2號","121.446806666667","25.1037916666667","6501500","五股區"
"248008","095-VK","2018/10/29 20:09:37","新北市五股區中興路一段1巷31-1號","121.469418333333","25.0700916666667","6501500","五股區"
"248018","225-UY","2018/10/29 20:09:42","新北市五股區成泰路一段173-1號","121.435191666667","25.0748616666667","6501500","五股區"
"248012","247-BX","2018/10/29 20:09:29","新北市五股區民義路一段212號","121.430511666667","25.089455","6501500","五股區"
"248014","261-SL","2018/10/29 20:09:31","新北市五股區成泰路三段83號","121.443886666667","25.0901016666667","6501500","五股區"
"248010","272-BY","2018/10/29 20:09:36","新北市五股區成泰路一段7巷7號","121.433278333333","25.0667383333333","6501500","五股區"
"248004","677-BX","2018/10/29 20:09:27","新北市五股區成泰路一段177號","121.435013333333","25.0762116666667","6501500","五股區"
"248002","678-BX","2018/10/29 20:09:35","新北市五股區成泰路三段318-1號","121.449526666667","25.0968616666667","6501500","五股區"
"234023","9380-KE","2018/10/29 20:09:39","新北市永和區永和路二段127號","121.515028333333","25.012005","6500400","永和區"
"234077","969-R7","2018/10/29 20:09:41","新北市永和區民有街17號","121.516545","24.9967133333333","6500400","永和區"
"234074","AAC-211","2018/10/29 20:09:30","新北市永和區豫溪街169巷2-1號","121.521958333333","25.010405","6500400","永和區"
"234067","AAC-212","2018/10/29 20:09:42","新北市永和區保平路214巷1弄2號","121.509478333333","25.006235","6500400","永和區"
"234003","AAC-295","2018/10/29 20:09:26","新北市永和區中正路614-2號","121.517011666667","25.007605","6500400","永和區"
"243013","AAD-798","2018/10/29 20:09:38","新北市泰山區明志路三段74巷7號","121.424481666667","25.0417366666667","6501600","泰山區"
"243009","297-R6","2018/10/29 20:09:37","新北市泰山區泰林路二段142巷5號","121.434661666667","25.0601266666667","6501600","泰山區"
"243016","KEA-2801","2018/10/29 20:09:34","新北市泰山區明志路三段405號","121.42121","25.0340133333333","6501600","泰山區"
"243015","421-VK","2018/10/29 20:09:43","新北市泰山區明志路一段325號","121.431318333333","25.0589183333333","6501600","泰山區"
"243012","539-UM","2018/10/29 20:09:37","新北市泰山區楓江路83巷3號","121.436906666667","25.06359","6501600","泰山區"
"243011","KEA-2215","2018/10/29 20:09:32","新北市新莊區丹鳳街34號","121.42159","25.0295183333333","6501600","泰山區"
"243010","KEA-2216","2018/10/29 20:09:37","新北市泰山區明志路二段214巷16弄37號","121.426616666667","25.0502683333333","6501600","泰山區"
"243014","680-BX","2018/10/29 20:09:37","新北市泰山區楓江路1號","121.43334","25.0626116666667","6501600","泰山區"
"222003","436-BY","2018/10/29 20:09:30","新北市深坑區埔新街60號","121.62024","25.002555","6501800","深坑區"
"222002","659-BX","2018/10/29 20:09:33","新北市深坑區北深路三段206巷1弄18號","121.601563333333","25.0044766666667","6501800","深坑區"
"231041","002-UM","2018/10/29 20:09:36","新北市新店區中正路460號","121.533993333333","24.9793666666667","6500600","新店區"
"231059","046-UY","2018/10/29 20:09:38","新北市新店區安成街28-1號","121.510135","24.960945","6500600","新店區"
"231040","047-UY","2018/10/29 20:09:30","新北市新店區中正路106號","121.543115","24.9706233333333","6500600","新店區"
"231052","108-UY","2018/10/29 20:09:44","新北市新店區新烏路三段179號","121.550503333333","24.901215","6500600","新店區"
"231047","187-VK","2018/10/29 20:09:47","新北市新店區寶橋路59-1號","121.54508","24.9750783333333","6500600","新店區"
"231054","188-VK","2018/10/29 20:09:25","新北市新店區檳榔路22巷1號","121.541281666667","24.964115","6500600","新店區"
"231057","256-BX","2018/10/29 20:09:37","新北市新店區花園一路一段2號","121.553131666667","24.9324116666667","6500600","新店區"
"231042","268-BY","2018/10/29 20:09:35","新北市新店區中興路二段89號","121.54705","24.9714","6500600","新店區"
"231051","278-BY","2018/10/29 20:09:28","新北市新店區中央五街3-2號","121.530315","24.97438","6500600","新店區"
"231050","AAD-862","2018/10/29 20:09:36","新北市新店區北新路一段90號","121.541916666667","24.968615","6500600","新店區"
"231045","355-BY","2018/10/29 20:09:44","新北市新店區北宜路一段97號","121.53919","24.955355","6500600","新店區"
"231066","4716-K9","2018/10/29 20:09:38","新北市新店區薏仁坑路11號","121.498446666667","24.9590483333333","6500600","新店區"
"231056","4715-K9","2018/10/29 20:09:30","新北市新店區中正路275巷45號","121.536725","24.9726016666667","6500600","新店區"
"231067","4772-VM","2018/10/29 20:09:26","新北市新店區溪洲路6巷32號","121.533878333333","24.96256","6500600","新店區"
"231065","512-UM","2018/10/29 20:09:30","新北市新店區安祥路106巷187號","121.47407","24.9598683333333","6500600","新店區"
"231049","513-UM","2018/10/29 20:09:43","新北市新店區北新路二段171巷13號","121.54212","24.97632","6500600","新店區"
"231044","618-UM","2018/10/29 20:09:43","新北市新店區寶慶街66號","121.542028333333","24.986875","6500600","新店區"
"231061","619-UM","2018/10/29 20:09:29","新北市新店區安興路33-1號","121.51583","24.97049","6500600","新店區"
"231063","641-BX","2018/10/29 20:09:35","新北市新店區黎明路52巷1號","121.502238333333","24.9487066666667","6500600","新店區"
"231068","718-UY","2018/10/29 20:09:36","新北市新店區寶高路102巷20號","121.55227","24.97334","6500600","新店區"
"231064","719-UM","2018/10/29 19:59:37","新北市新店區安民街8號","121.515298333333","24.9641916666667","6500600","新店區"
"231062","720-UM","2018/10/29 20:09:30","新北市新店區安康路一段198號","121.524453333333","24.96342","6500600","新店區"
"231060","897-TW","2018/10/29 20:09:31","新北市新店區安康路三段379號","121.483606666667","24.9503983333333","6500600","新店區"
"231043","899-TW","2018/10/29 20:09:38","新北市新店區民族路163號","121.53755","24.976665","6500600","新店區"
"241011","013-R5","2018/10/29 20:09:35","新北市三重區三和路三段37號","121.495715","25.0711933333333","6500200","三重區"
"241008","059-VK","2018/10/29 20:09:44","新北市三重區永福街197巷17號","121.47883","25.07439","6500200","三重區"
"241022","060-VK","2018/10/29 20:09:36","新北市三重區重陽路二段7號","121.486901666667","25.0619816666667","6500200","三重區"
"241015","062-VK","2018/10/29 20:09:28","新北市三重區福德北路45號","121.502276666667","25.064945","6500200","三重區"
"241017","063-VK","2018/10/29 20:09:26","新北市三重區大同北路221巷70號","121.49306","25.0666916666667","6500200","三重區"
"241024","065-VK","2018/10/29 20:09:41","新北市三重區後竹圍街279-1號","121.481366666667","25.0706216666667","6500200","三重區"
"241026","066-VK","2018/10/29 20:09:35","新北市三重區福德南路65巷2號","121.502355","25.0604933333333","6500200","三重區"
"241002","090-VK","2018/10/29 20:09:22","新北市三重區五華街35巷80號","121.496125","25.082115","6500200","三重區"
"241003","091-VK","2018/10/29 20:09:35","新北市三重區仁愛街476號","121.489596666667","25.08242","6500200","三重區"
"251014","742-BX","2018/10/29 20:09:41","新北市淡水區石頭厝1號","121.458741666667","25.2354966666667","6501000","淡水區"
"241005","262-UM","2018/10/29 20:09:27","新北市三重區溪尾街327號","121.488491666667","25.084785","6500200","三重區"
"241028","265-UM","2018/10/29 20:09:31","新北市三重區仁化街137號","121.49465","25.0574983333333","6500200","三重區"
"241016","266-UM","2018/10/29 20:09:32","新北市三重區正德街58號","121.495548333333","25.063345","6500200","三重區"
"241009","267-UM","2018/10/29 20:09:39","新北市三重區力行路二段206號","121.483655","25.0779133333333","6500200","三重區"
"241018","268-UM","2018/10/29 20:09:39","新北市三重區正義北路256巷130號","121.49321","25.067765","6500200","三重區"
"241032","269-UM","2018/10/29 20:09:40","新北市三重區捷運路65號","121.483475","25.0554866666667","6500200","三重區"
"241013","270-UM","2018/10/29 20:09:40","新北市三重區三和路三段139巷40號","121.4942","25.07412","6500200","三重區"
"241025","271-UM","2018/10/29 20:09:38","新北市三重區中正北路328號","121.478715","25.0692366666667","6500200","三重區"
"241007","398-BY","2018/10/29 20:09:38","新北市三重區三和路四段111-31號","121.486721666667","25.0775616666667","6500200","三重區"
"241035","KEA-2210","2018/10/29 20:09:45","新北市三重區大榮街7號","121.498161666667","25.0631133333333","6500200","三重區"
"241004","475-VK","2018/10/29 20:09:35","新北市三重區自強路四段80號","121.490621666667","25.078945","6500200","三重區"
"241020","478-VK","2018/10/29 20:09:36","新北市三重區後竹圍街2巷1弄39號","121.491071666667","25.0731166666667","6500200","三重區"
"241030","480-VK","2018/10/29 20:09:25","新北市三重區成功路145巷11號","121.487258333333","25.05268","6500200","三重區"
"241014","543-UM","2018/10/29 20:09:38","新北市三重區安和路38號","121.500821666667","25.0693066666667","6500200","三重區"
"241023","545-UM","2018/10/29 20:09:05","新北市三重區頂崁街216號","121.476981666667","25.0678633333333","6500200","三重區"
"241001","547-UM","2018/10/29 20:09:45","新北市三重區三和路四段87號","121.489516666667","25.0757666666667","6500200","三重區"
"241019","KEA-2593","2018/10/29 20:09:40","新北市三重區自強路二段33巷35號","121.490483333333","25.06979","6500200","三重區"
"241006","AAD-863","2018/10/29 20:09:31","新北市三重區車路頭街135-1號","121.48428","25.0761416666667","6500200","三重區"
"241031","743-BX","2018/10/29 20:09:41","新北市三重區過圳街9-1號","121.488768333333","25.06013","6500200","三重區"
"241012","941-UM","2018/10/29 20:09:25","新北市三重區仁愛街125巷95號","121.498403333333","25.0761583333333","6500200","三重區"
"241029","942-UM","2018/10/29 20:09:28","新北市三重區光明路32巷1弄1號","121.49172","25.0586283333333","6500200","三重區"
"241033","AAC-255","2018/10/29 20:09:40","新北市三重區光復路一段61巷21號","121.47326","25.04926","6500200","三重區"
"235066","003-UY","2018/10/29 20:09:34","新北市中和區水源路127巷2-1號","121.508105","25.0038266666667","6500300","中和區"
"235039","097-UM","2018/10/29 20:09:41","新北市中和區大勇街25巷2號","121.517213333333","24.9932483333333","6500300","中和區"
"235065","098-UM","2018/10/29 20:09:30","新北市中和區福祥路85巷3號","121.498721666667","25.0057","6500300","中和區"
"235040","150-BY","2018/10/29 20:09:44","新北市中和區保健路33巷11號","121.509265","24.997865","6500300","中和區"
"247012","KEA-2869","2018/10/29 20:09:29","新北市蘆洲區復興路210號","121.478673333333","25.0890383333333","6501400","蘆洲區"
"235050","4979-A6","2018/10/29 20:09:43","新北市中和區安樂路58號","121.512158333333","24.9932083333333","6500300","中和區"
"235069","4980-A6","2018/10/29 20:09:44","新北市中和區景新街50巷10號","121.503401666667","24.998555","6500300","中和區"
"235070","558-UM","2018/10/29 20:09:42","新北市中和區板南路399巷2號","121.493323333333","24.998975","6500300","中和區"
"235054","640-BX","2018/10/29 20:09:41","新北市板橋區長江路二段35號","121.463585","25.03264","6500300","中和區"
"235046","733-UM","2018/10/29 20:09:41","新北市中和區忠孝街29號","121.510486666667","24.9830633333333","6500300","中和區"
"235048","896-TW","2018/10/29 20:09:41","新北市中和區景新街432號","121.513051666667","24.988505","6500300","中和區"
"235051","157-BY","2018/10/29 20:09:38","新北市中和區復興路280巷5號","121.502213333333","24.9909516666667","6500300","中和區"
"235037","AAC-213","2018/10/29 20:09:32","新北市中和區自立路24號","121.522413333333","24.9931133333333","6500300","中和區"
"235059","AAC-215","2018/10/29 20:09:41","新北市中和區圓通路367巷4號","121.491336666667","24.989295","6500300","中和區"
"220069","AAD-861","2018/10/29 20:09:42","新北市板橋區貴興路115號","121.455723333333","25.0024816666667","6500100","板橋區"
"247002","893-R6","2018/10/29 20:09:26","新北市蘆洲區長榮路317號","121.459221666667","25.0864333333333","6501400","蘆洲區"
"247024","500-BY","2018/10/29 20:09:40","新北市蘆洲區光明路139號","121.464296666667","25.0886166666667","6501400","蘆洲區"
"247014","339-TH","2018/10/29 20:09:33","新北市蘆洲區和平路64號","121.470155","25.0794933333333","6501400","蘆洲區"
"247006","337-TH","2018/10/29 20:09:36","新北市蘆洲區中山二路300巷1號","121.468498333333","25.0769566666667","6501400","蘆洲區"
"247008","336-TH","2018/10/29 20:09:32","新北市蘆洲區中山一路135巷6弄30號","121.474765","25.0809233333333","6501400","蘆洲區"
"247020","057-VK","2018/10/29 20:09:38","新北市蘆洲區民權路106巷5弄22號","121.474243333333","25.0892433333333","6501400","蘆洲區"
"247010","056-VK","2018/10/29 20:09:45","新北市蘆洲區信義路154號","121.479293333333","25.0834","6501400","蘆洲區"
"247018","007-UY","2018/10/29 20:09:39","新北市蘆洲區民族路314巷1號","121.477323333333","25.0901733333333","6501400","蘆洲區"
"247004","002-UY","2018/10/29 20:09:33","新北市蘆洲區永安南路二段328巷17弄13號","121.455953333333","25.0838716666667","6501400","蘆洲區"
"247022","001-UY","2018/10/29 20:09:27","新北市蘆洲區三民路171巷2號","121.47082","25.08707","6501400","蘆洲區"
"226004","312-R5","2018/10/29 20:09:40","新北市平溪區十分里十分街66巷17號","121.774903333333","25.0426833333333","6502400","平溪區"
"222001","KEA-2212","2018/10/29 20:09:39","新北市深坑區北深路三段212號","121.601138333333","25.0037833333333","6501800","深坑區"
"208003","665-BX","2018/10/29 20:09:37","新北市金山區海興路112號","121.631326666667","25.2389633333333","6502700","金山區"
"208001","761-BX","2018/10/29 20:09:30","新北市金山區南勢41號","121.629036666667","25.2198266666667","6502700","金山區"
"251009","008-UM","2018/10/29 20:09:31","新北市淡水區清水街1-5號","121.445258333333","25.1703316666667","6501000","淡水區"
"251005","010-UM","2018/10/29 20:09:31","新北市淡水區學府路102巷131號","121.453851666667","25.17128","6501000","淡水區"
"251001","011-UM","2018/10/29 20:09:43","新北市淡水區淡金路二段599號","121.44599","25.1924866666667","6501000","淡水區"
"251013","KEA-2871","2018/10/29 20:09:40","新北市淡水區奎柔山路413號","121.463573333333","25.2045433333333","6501000","淡水區"
"251016","179-VK","2018/10/29 20:09:27","新北市淡水區番子田18-1號","121.456878333333","25.229375","6501000","淡水區"
"251008","181-VK","2018/10/29 20:09:35","新北市淡水區淡海路72巷18號","121.423945","25.1810433333333","6501000","淡水區"
"251015","182-VK","2018/10/29 20:09:29","新北市淡水區埤島3-23號","121.447831666667","25.1896866666667","6501000","淡水區"
"251010","413-VK","2018/10/29 20:09:32","新北市淡水區新市二路二段2號","121.425436666667","25.196285","6501000","淡水區"
"251012","441-VK","2018/10/29 20:09:38","新北市淡水區淡金路三段361-1號","121.448846666667","25.2073666666667","6501000","淡水區"
"251004","443-VK","2018/10/29 20:09:35","新北市淡水區民族路31巷21-1號","121.461833333333","25.1366983333333","6501000","淡水區"
"251006","561-UM","2018/10/29 20:09:45","新北市淡水區北新路141巷29號","121.448198333333","25.1795983333333","6501000","淡水區"
"251003","766-UM","2018/10/29 20:09:37","新北市淡水區新市一路二段255號","121.443668333333","25.1831066666667","6501000","淡水區"
"207004","681-TV","2018/10/29 20:09:40","新北市萬里區北基里愛三街11號","121.68181","25.176635","6502800","萬里區"
"207003","550-UM","2018/10/29 20:09:30","新北市萬里區大鵬里萬里加投180號","121.643013333333","25.2158133333333","6502800","萬里區"
"252002","178-VK","2018/10/29 20:09:36","新北市三芝區中正路一段72號","121.503968333333","25.25763","6502100","三芝區"
"252001","292-VK","2018/10/29 20:09:43","新北市三芝區公正街9號","121.499623333333","25.257625","6502100","三芝區"
"237014","433-BY","2018/10/29 20:09:46","新北市三峽區介壽路一段15號","121.375413333333","24.93359","6500900","三峽區"
"237006","5529-G3","2018/10/29 20:09:30","新北市三峽區嘉添109-11號","121.369658333333","24.90957","6500900","三峽區"
"237011","KEA-2596","2018/10/29 20:09:47","新北市三峽區中園街20-1號","121.368185","24.9268833333333","6500900","三峽區"
"237015","649-BX","2018/10/29 20:09:41","新北市三峽區介壽路二段138巷1弄19號","121.396426666667","24.9336666666667","6500900","三峽區"
"237005","AKY-6261","2018/10/29 20:09:42","新北市三峽區三樹路44巷2號","121.37797","24.93733","6500900","三峽區"
"236069","105-UM","2018/10/29 20:09:38","新北市土城區中央路三段181號","121.431366666667","24.9653166666667","6501300","土城區"
"236078","166-UM","2018/10/29 20:09:34","新北市土城區民族街42號","121.418593333333","24.9635083333333","6501300","土城區"
"236030","253-BX","2018/10/29 20:09:34","新北市土城區中央路一段141號","121.446733333333","24.9880033333333","6501300","土城區"
"236026","269-VK","2018/10/29 20:09:43","新北市土城區中央路一段265號","121.445083333333","24.9852833333333","6501300","土城區"
"236014","270-VK","2018/10/29 20:09:32","新北市土城區廣明街23巷3號","121.455408333333","24.992395","6501300","土城區"
"236039","271-VK","2018/10/29 20:09:32","新北市土城區明德路一段48巷13號","121.464656666667","24.9835733333333","6501300","土城區"
"236020","401-BY","2018/10/29 20:09:37","新北市土城區延吉街50號","121.471686666667","24.9869666666667","6501300","土城區"
"236042","752-BX","2018/10/29 20:08:50","新北市土城區學成路3號","121.453413333333","24.9863933333333","6501300","土城區"
"236059","912-UM","2018/10/29 20:09:37","新北市土城區中央路二段308號","121.440533333333","24.97325","6501300","土城區"
"236048","913-UM","2018/10/29 20:09:29","新北市土城區清水路162號","121.459533333333","24.981455","6501300","土城區"
"236055","AAC-216","2018/10/29 20:09:43","新北市土城區中華路一段178號","121.441148333333","24.98251","6501300","土城區"
"242036","AAC-296","2018/10/29 20:09:37","新北市新莊區建安街17巷16號","121.429635","25.026425","6500500","新莊區"
"242058","986-R7","2018/10/29 20:09:34","新北市新莊區八德街137號","121.423815","25.0201983333333","6500500","新莊區"
"242056","751-BX","2018/10/29 20:09:26","新北市新莊區新莊路649巷15弄1號","121.445026666667","25.031475","6500500","新莊區"
"242027","615-BX","2018/10/29 20:09:45","新北市新莊區幸福路699號","121.45005","25.0491516666667","6500500","新莊區"
"242025","613-BX","2018/10/29 20:09:37","新北市新莊區五權一路12巷25弄12號","121.458261666667","25.0643333333333","6500500","新莊區"
"242029","612-BX","2018/10/29 20:09:35","新北市新莊區中原路301號","121.447415","25.0544116666667","6500500","新莊區"
"242044","566-BX","2018/10/29 20:09:39","桃園市龜山區萬壽路一段21巷8號","121.41049","25.02034","6500500","新莊區"
"242048","497-BY","2018/10/29 20:09:29","新北市新莊區四維路167號","121.422385","25.0216766666667","6500500","新莊區"
"242034","442-UM","2018/10/29 20:09:25","新北市新莊區華興街55號","121.445923333333","25.0364566666667","6500500","新莊區"
"242053","441-UM","2018/10/29 20:09:41","新北市新莊區西盛街395巷22弄2號","121.428291666667","25.0127133333333","6500500","新莊區"
"242039","415-TV","2018/10/29 20:09:39","新北市新莊區民安西路122號","121.426698333333","25.01843","6500500","新莊區"
"242009","413-TV","2018/10/29 20:09:36","新北市新莊區昌平街16號","121.45482","25.0526933333333","6500500","新莊區"
"242046","400-BY","2018/10/29 20:09:43","新北市新莊區裕民街107號","121.418261666667","25.022965","6500500","新莊區"
"242023","362-BY","2018/10/29 20:09:37","新北市新莊區化成路321號","121.46591","25.05581","6500500","新莊區"
"242060","353-BY","2018/10/29 20:09:32","新北市新莊區瓊林路瓊英巷9號","121.443325","25.0275783333333","6500500","新莊區"
"242011","132-UY","2018/10/29 20:09:34","新北市新莊區中信街63巷2弄2號","121.449041666667","25.0506966666667","6500500","新莊區"
"242042","133-UY","2018/10/29 20:09:34","新北市新莊區青山路一段14號","121.411315","25.02751","6500500","新莊區"
"242050","172-VK","2018/10/29 20:09:34","新北市新莊區民安西路170號","121.425923333333","25.016","6500500","新莊區"
"242013","173-VK","2018/10/29 20:09:28","新北市新莊區幸福路678巷3弄1號","121.450343333333","25.0496","6500500","新莊區"
"242019","175-VK","2018/10/29 20:09:34","新北市新莊區長青街31號","121.457043333333","25.0421816666667","6500500","新莊區"
"242007","176-VK","2018/10/29 20:09:46","新北市新莊區思源路419巷1弄7號","121.459335","25.05218","6500500","新莊區"
"242017","346-TH","2018/10/29 20:09:38","新北市新莊區中港一街7號","121.451683333333","25.0456616666667","6500500","新莊區"
"242015","347-TH","2018/10/29 20:09:26","新北市新莊區中平路26巷34號","121.446281666667","25.0432383333333","6500500","新莊區"
"242031","348-TH","2018/10/29 20:09:38","新北市新莊區忠孝街29巷34號","121.443606666667","25.036995","6500500","新莊區"
"242004","349-TH","2018/10/29 20:09:38","新北市新莊區頭興街40號","121.464245","25.05361","6500500","新莊區"
"242021","350-TH","2018/10/29 20:09:26","新北市新莊區中興街6-1號","121.449268333333","25.0360183333333","6500500","新莊區"
"221008","489-VK","2018/10/29 20:09:34","台北市內湖區康樂街206-3號","121.623596666667","25.07918","6501100","汐止區"
"221036","130-UY","2018/10/29 20:09:45","新北市汐止區福安街47號","121.663185","25.0645483333333","6501100","汐止區"
"221015","131-UY","2018/10/29 20:09:27","新北市汐止區建成路40號","121.663988333333","25.0727716666667","6501100","汐止區"
"221010","269-BY","2018/10/29 20:09:29","新北市汐止區八連路一段198巷2號","121.642875","25.0824833333333","6501100","汐止區"
"221012","278-VK","2018/10/29 20:09:43","新北市汐止區汐平路一段182號","121.69089","25.0663916666667","6501100","汐止區"
"221023","279-VK","2018/10/29 20:09:35","新北市汐止區明峰街298巷5弄2號","121.624971666667","25.0686","6501100","汐止區"
"221032","280-BY","2018/10/29 20:09:29","新北市汐止區弘道街8巷5弄4號","121.617336666667","25.04785","6501100","汐止區"
"221027","281-BY","2018/10/29 20:09:38","新北市汐止區民生街1-1號","121.660125","25.0687833333333","6501100","汐止區"
"221029","298-VK","2018/10/29 20:09:43","新北市汐止區樟樹一路123巷19號","121.641326666667","25.0645116666667","6501100","汐止區"
"221021","299-VK","2018/10/29 20:09:39","新北市汐止區連興街144號","121.653986666667","25.06142","6501100","汐止區"
"221031","353-TW","2018/10/29 20:09:29","新北市汐止區原興路76巷2號","121.631935","25.06639","6501100","汐止區"
"221035","622-UM","2018/10/29 20:09:25","新北市汐止區長江街67巷2弄1號","121.656725","25.0722116666667","6501100","汐止區"
"221025","623-UM","2018/10/29 20:09:27","新北市汐止區秀峰路78號","121.659855","25.06423","6501100","汐止區"
"221038","646-BX","2018/10/29 20:09:34","新北市汐止區大同路三段66號","121.668006666667","25.0772133333333","6501100","汐止區"
"221033","647-BX","2018/10/29 20:09:32","新北市汐止區東勢街201巷129弄2號","121.633438333333","25.0428283333333","6501100","汐止區"
"221002","707-TV","2018/10/29 20:09:36","新北市汐止區福德一路213巷2弄43號","121.635093333333","25.064465","6501100","汐止區"
"221018","753-BX","2018/10/29 20:09:39","新北市汐止區茄福街35巷13號","121.672938333333","25.0666866666667","6501100","汐止區"
"220080","200-UY","2018/10/29 20:09:31","新北市板橋區大觀路二段205號","121.445091666667","24.9995316666667","6500100","板橋區"
"220101","245-BX","2018/10/29 20:09:27","新北市板橋區莒光路165巷30號","121.474431666667","25.0246483333333","6500100","板橋區"
"220103","257-TC","2018/10/29 20:09:30","新北市板橋區文化路一段435巷31弄25號","121.466758333333","25.02257","6500100","板橋區"
"220057","282-UM","2018/10/29 20:09:46","新北市新莊區新泰路255巷83號","121.44224","25.03902","6500100","板橋區"
"220071","283-VK","2018/10/29 20:09:47","新北市板橋區和平路174巷33號","121.46504","24.9943066666667","6500100","板橋區"
"220083","286-VK","2018/10/29 20:09:40","新北市板橋區僑中二街88巷10號","121.445995","25.009495","6500100","板橋區"
"220081","287-VK","2018/10/29 20:09:47","新北市板橋區僑中一街80巷7弄17號","121.447046666667","25.0128133333333","6500100","板橋區"
"220061","293-UM","2018/10/29 20:09:40","新北市板橋區縣民大道二段200巷11號","121.470015","25.0173466666667","6500100","板橋區"
"220053","299-UM","2018/10/29 20:09:34","新北市板橋區懷仁街23號","121.476388333333","25.01971","6500100","板橋區"
"242002","281-VK","2018/10/29 20:09:36","新北市新莊區中正路55號","121.46272","25.040255","6500500","新莊區"
"220092","307-R5","2018/10/29 20:09:36","新北市板橋區民權路101巷2號","121.45931","25.0132333333333","6500100","板橋區"
"220098","317-R6","2018/10/29 20:09:47","新北市板橋區新海路72巷5弄11號","121.461831666667","25.0224683333333","6500100","板橋區"
"220064","486-VK","2018/10/29 20:09:34","新北市板橋區長安街331巷104號","121.471701666667","25.0127333333333","6500100","板橋區"
"220089","487-VK","2018/10/29 20:09:31","新北市板橋區互助街68號","121.461023333333","25.0265883333333","6500100","板橋區"
"220088","491-VK","2018/10/29 20:09:41","新北市板橋區民治街53號","121.479351666667","25.0335483333333","6500100","板橋區"
"220093","689-BX","2018/10/29 20:09:35","新北市板橋區新海路466號","121.457705","25.0285383333333","6500100","板橋區"
"220054","741-BX","2018/10/29 20:09:29","新北市板橋區實踐路93巷19號","121.464918333333","25.0055466666667","6500100","板橋區"
"220102","KEA-2699","2018/10/29 20:09:43","新北市板橋區民治街126巷5號","121.477783333333","25.031275","6500100","板橋區"
"220055","827-TW","2018/10/29 20:09:41","新北市板橋區仁愛路64號","121.459961666667","24.999435","6500100","板橋區"
"220067","829-TW","2018/10/29 20:09:45","新北市板橋區中山路一段206巷77號","121.471818333333","25.0131583333333","6500100","板橋區"
"220068","830-TW","2018/10/29 20:09:38","新北市板橋區中山路二段423號","121.480956666667","25.0198633333333","6500100","板橋區"
"220074","895-R6","2018/10/29 20:09:32","新北市板橋區府中路67號","121.458113333333","25.0094483333333","6500100","板橋區"
"220073","985-R7","2018/10/29 20:09:25","新北市板橋區僑中一街124巷74-5號","121.448003333333","25.0176433333333","6500100","板橋區"
"220097","AAC-210","2018/10/29 20:09:38","新北市板橋區光正街45巷2弄18號","121.461071666667","25.0173183333333","6500100","板橋區"
"235068","KEA-2873","2018/10/29 20:09:27","新北市中和區景平路720號","121.496696666667","25.0028966666667","6500300","中和區"
