"lineid","car","time","location","longitude","latitude","cityid","cityname"
"234081","298-R6","2018/10/29 20:29:35","新北市永和區國中路104巷13弄2號","121.524691666667","25.007145","6500400","永和區"
"234038","336-UY","2018/10/29 20:26:48","新北市永和區環河東路三段96號","121.528178333333","25.0041266666667","6500400","永和區"
"234064","337-UY","2018/10/29 20:29:36","新北市永和區秀朗路一段139巷14號","121.516926666667","25.0049966666667","6500400","永和區"
"234086","338-UY","2018/10/29 20:29:35","新北市永和區永和路二段97號","121.514795","25.011605","6500400","永和區"
"234070","552-UM","2018/10/29 20:29:33","新北市永和區永亨路7號","121.519416666667","25.0057","6500400","永和區"
"234030","746-BX","2018/10/29 20:29:42","新北市永和區民族街81巷62號","121.520246666667","24.9965033333333","6500400","永和區"
"234054","KEA-2590","2018/10/29 20:29:32","新北市永和區光復街60巷25號","121.517776666667","25.0175116666667","6500400","永和區"
"234061","AAD-866","2018/10/29 20:29:31","新北市永和區安樂路194巷39弄8號","121.516313333333","25.0014466666667","6500400","永和區"
"234042","862-TW","2018/10/29 20:29:41","新北市永和區安樂路336號","121.514355","25.0058983333333","6500400","永和區"
"234050","863-TW","2018/10/29 20:29:36","新北市永和區新生路58號","121.507765","25.0153166666667","6500400","永和區"
"249005","172-UM","2018/10/29 20:29:36","新北市八里區中山路三段283號","121.379346666667","25.1383066666667","6502300","八里區"
"249001","173-UM","2018/10/29 20:29:30","新北市八里區下罟子5-11號","121.386898333333","25.1422666666667","6502300","八里區"
"249004","303-UY","2018/10/29 20:29:45","新北市八里區中山路一段109號","121.414233333333","25.1598416666667","6502300","八里區"
"249002","305-UY","2018/10/29 20:29:46","新北市八里區龍米路二段125巷13號","121.445876666667","25.1455116666667","6502300","八里區"
"249003","593-UM","2018/10/29 20:29:40","新北市八里區舊城路21號","121.399815","25.14702","6502300","八里區"
"248014","261-SL","2018/10/29 20:29:31","新北市林口區汕頭32號","121.366365","25.1348933333333","6501500","五股區"
"248002","678-BX","2018/10/29 20:29:35","新北市五股區成泰路三段17-1號","121.44165","25.08811","6501500","五股區"
"234023","9380-KE","2018/10/29 20:29:39","新北市永和區博愛街32巷17-1號","121.518856666667","25.0152866666667","6500400","永和區"
"234077","969-R7","2018/10/29 20:29:41","新北市中和區景平路342號","121.511688333333","24.992775","6500400","永和區"
"234074","AAC-211","2018/10/29 20:29:30","新北市永和區豫溪街217巷27號","121.524365","25.010165","6500400","永和區"
"234067","AAC-212","2018/10/29 20:29:42","新北市永和區保平路292巷46弄2號","121.50754","25.0053433333333","6500400","永和區"
"243013","AAD-798","2018/10/29 20:29:38","新北市泰山區明志路三段41號","121.42489","25.0425333333333","6501600","泰山區"
"243009","297-R6","2018/10/29 20:29:37","新北市泰山區忠孝街42巷2號","121.42872","25.0654683333333","6501600","泰山區"
"243016","KEA-2801","2018/10/29 20:29:34","新北市泰山區明志路二段246-1號","121.427085","25.0480033333333","6501600","泰山區"
"243015","421-VK","2018/10/29 20:29:43","新北市泰山區泰林路二段463號","121.42553","25.0640516666667","6501600","泰山區"
"243012","539-UM","2018/10/29 20:29:37","新北市泰山區忠孝街17巷2號","121.427525","25.0654333333333","6501600","泰山區"
"243011","KEA-2215","2018/10/29 20:29:32","新北市泰山區台麗街2號","121.424255","25.0383116666667","6501600","泰山區"
"243010","KEA-2216","2018/10/29 20:29:37","新北市泰山區文程路18巷26號","121.428096666667","25.0483983333333","6501600","泰山區"
"243014","680-BX","2018/10/29 20:29:33","新北市泰山區橫窠雅20-3號","121.412488333333","25.0689666666667","6501600","泰山區"
"222003","436-BY","2018/10/29 20:29:30","新北市深坑區深坑街39號","121.615548333333","25.0019883333333","6501800","深坑區"
"222002","659-BX","2018/10/29 20:27:33","新北市深坑區萬福路16巷16-3號","121.604846666667","25.0073866666667","6501800","深坑區"
"231041","002-UM","2018/10/29 20:29:36","新北市新店區中正路520號","121.53374","24.9837466666667","6500600","新店區"
"231059","046-UY","2018/10/29 20:29:38","新北市新店區安德街167號","121.508515","24.9592516666667","6500600","新店區"
"231040","047-UY","2018/10/29 20:29:31","新北市新店區中正路327號","121.536266666667","24.9751816666667","6500600","新店區"
"231052","108-UY","2018/10/29 20:29:43","新北市新店區松林路38號","121.546258333333","24.9102583333333","6500600","新店區"
"231047","187-VK","2018/10/29 20:29:28","新北市新店區寶慶街58巷21-1號","121.542005","24.9872883333333","6500600","新店區"
"231054","188-VK","2018/10/29 20:29:45","新北市新店區檳榔路123號","121.544731666667","24.9614066666667","6500600","新店區"
"231057","256-BX","2018/10/29 20:29:37","新北市新店區花園十路二段3號","121.555005","24.9340833333333","6500600","新店區"
"231042","268-BY","2018/10/29 20:29:35","新北市新店區寶橋路98號","121.547225","24.9757833333333","6500600","新店區"
"231051","278-BY","2018/10/29 20:29:36","新北市新店區中央七街25號","121.529651666667","24.9752966666667","6500600","新店區"
"231050","AAD-862","2018/10/29 20:29:36","新北市新店區建興街9巷1號","121.539866666667","24.9763","6500600","新店區"
"231045","355-BY","2018/10/29 20:29:44","新北市新店區新坡一街8號","121.548768333333","24.96155","6500600","新店區"
"231066","4716-K9","2018/10/29 20:29:38","新北市新店區安民街121巷12號","121.515245","24.9692066666667","6500600","新店區"
"231056","4715-K9","2018/10/29 20:29:30","新北市新店區中央路47號","121.532725","24.9774983333333","6500600","新店區"
"231067","4772-VM","2018/10/29 20:29:26","新北市新店區安華路28-1號","121.519895","24.9608383333333","6500600","新店區"
"231065","512-UM","2018/10/29 20:29:41","新北市新店區安祥路102巷46弄71號","121.486831666667","24.96336","6500600","新店區"
"231049","513-UM","2018/10/29 20:29:43","新北市新店區華潭街26巷1弄1號","121.52946","24.95365","6500600","新店區"
"231044","618-UM","2018/10/29 20:29:45","新北市新店區建國路140號","121.53885","24.97899","6500600","新店區"
"231061","619-UM","2018/10/29 20:29:29","新北市新店區新和街35號","121.51925","24.9849066666667","6500600","新店區"
"231063","641-BX","2018/10/29 20:29:35","新北市新店區玫瑰路4-1號","121.493648333333","24.9513366666667","6500600","新店區"
"231068","718-UY","2018/10/29 20:29:35","新北市新店區中興路三段240號","121.543153333333","24.9836733333333","6500600","新店區"
"231064","719-UM","2018/10/29 20:29:38","新北市新店區新和街59巷17號","121.519275","24.9860083333333","6500600","新店區"
"231062","720-UM","2018/10/29 20:29:30","新北市新店區安泰路18號","121.485663333333","24.9489833333333","6500600","新店區"
"231060","897-TW","2018/10/29 20:29:31","新北市新店區錦秀路18號","121.479283333333","24.94448","6500600","新店區"
"231043","899-TW","2018/10/29 20:29:40","新北市新店區明德路67巷17號","121.540511666667","24.9770583333333","6500600","新店區"
"241011","013-R5","2018/10/29 20:29:35","新北市三重區龍門路144號","121.498428333333","25.0730133333333","6500200","三重區"
"241008","059-VK","2018/10/29 20:29:44","新北市三重區力行路二段121-1號","121.483166666667","25.0764716666667","6500200","三重區"
"241022","060-VK","2018/10/29 20:29:37","新北市三重區中正北路20巷9號","121.487933333333","25.06304","6500200","三重區"
"241015","062-VK","2018/10/29 20:29:28","新北市三重區長元西街1號","121.49877","25.065705","6500200","三重區"
"241017","063-VK","2018/10/29 20:29:26","新北市三重區自強路一段207號","121.491478333333","25.0684116666667","6500200","三重區"
"241024","065-VK","2018/10/29 20:29:33","新北市三重區忠孝路三段15巷28號","121.480433333333","25.0678683333333","6500200","三重區"
"241026","066-VK","2018/10/29 20:29:35","新北市三重區環河南路6號","121.504035","25.06346","6500200","三重區"
"241002","090-VK","2018/10/29 20:29:43","新北市三重區仁義街211巷33號","121.497868333333","25.08244","6500200","三重區"
"241003","091-VK","2018/10/29 20:29:35","新北市三重區富華街196號","121.493166666667","25.0849733333333","6500200","三重區"
"251014","742-BX","2018/10/29 20:29:41","新北市淡水區石頭厝12-3號","121.461668333333","25.2363716666667","6501000","淡水區"
"241005","262-UM","2018/10/29 20:29:27","新北市三重區碧華街305號","121.490693333333","25.0840566666667","6500200","三重區"
"241028","265-UM","2018/10/29 20:29:31","新北市三重區光興街89號","121.49746","25.0599516666667","6500200","三重區"
"241016","266-UM","2018/10/29 20:29:32","新北市三重區正義北路110號","121.49696","25.0653466666667","6500200","三重區"
"241009","267-UM","2018/10/29 20:29:39","新北市三重區永福街46巷15弄5號","121.481513333333","25.0779916666667","6500200","三重區"
"241018","268-UM","2018/10/29 20:29:39","新北市三重區雙園街78號","121.495536666667","25.0676266666667","6500200","三重區"
"241032","269-UM","2018/10/29 20:29:40","新北市三重區重陽路一段120巷35號","121.485136666667","25.060145","6500200","三重區"
"241013","270-UM","2018/10/29 20:29:32","新北市三重區溪尾街5巷27號","121.492726666667","25.0746133333333","6500200","三重區"
"241025","271-UM","2018/10/29 20:29:38","新北市三重區頂崁街210巷27號","121.475778333333","25.0681716666667","6500200","三重區"
"241007","398-BY","2018/10/29 20:29:38","新北市三重區自強路四段28號","121.48889","25.0768116666667","6500200","三重區"
"241035","KEA-2210","2018/10/29 20:29:45","新北市三重區重新路二段58號","121.498071666667","25.0621433333333","6500200","三重區"
"241004","475-VK","2018/10/29 20:29:35","新北市三重區溪尾街233號","121.488153333333","25.0812633333333","6500200","三重區"
"241020","478-VK","2018/10/29 20:29:36","新北市三重區明德街5號","121.493043333333","25.0724516666667","6500200","三重區"
"241030","480-VK","2018/10/29 20:29:25","新北市三重區成功路70號","121.48855","25.0509816666667","6500200","三重區"
"241014","543-UM","2018/10/29 20:29:38","新北市三重區長壽街120巷23號","121.502353333333","25.0692633333333","6500200","三重區"
"241023","545-UM","2018/10/29 20:29:45","新北市三重區自由街16號","121.479786666667","25.06649","6500200","三重區"
"241001","547-UM","2018/10/29 20:29:25","新北市三重區三和路四段156號","121.488045","25.0758166666667","6500200","三重區"
"241019","KEA-2593","2018/10/29 20:29:40","新北市三重區重陽路四段62號","121.491885","25.0703233333333","6500200","三重區"
"241006","AAD-863","2018/10/29 20:29:31","新北市三重區車路頭街139巷12號","121.484255","25.0761966666667","6500200","三重區"
"241031","743-BX","2018/10/29 20:29:41","新北市三重區三寧街22號","121.489481666667","25.0598983333333","6500200","三重區"
"241012","941-UM","2018/10/29 20:29:33","新北市三重區龍濱路269號","121.501421666667","25.0730716666667","6500200","三重區"
"241029","942-UM","2018/10/29 20:29:28","新北市三重區集美街225號","121.49199","25.05515","6500200","三重區"
"241033","AAC-255","2018/10/29 20:29:40","新北市三重區五谷王北街80巷52號","121.474966666667","25.0526066666667","6500200","三重區"
"235066","003-UY","2018/10/29 20:29:34","新北市中和區光華街62號","121.505628333333","25.00367","6500300","中和區"
"235065","098-UM","2018/10/29 20:29:30","新北市中和區永和路128巷47號","121.497671666667","25.006885","6500300","中和區"
"247012","KEA-2869","2018/10/29 20:29:29","新北市蘆洲區復興路232號","121.479351666667","25.0894133333333","6501400","蘆洲區"
"235050","4979-A6","2018/10/29 20:29:43","新北市中和區景新街160巷14號","121.504965","24.996745","6500300","中和區"
"235069","4980-A6","2018/10/29 20:29:24","新北市中和區中正路448號","121.490923333333","24.9942116666667","6500300","中和區"
"235059","AAC-215","2018/10/29 20:29:41","新北市中和區員山路76號","121.480853333333","24.99387","6500300","中和區"
"247002","893-R6","2018/10/29 20:29:26","新北市蘆洲區長安街361巷34號","121.455738333333","25.08754","6501400","蘆洲區"
"247016","546-UM","2018/10/29 20:29:32","新北市蘆洲區光華路109號","121.467098333333","25.0824483333333","6501400","蘆洲區"
"247024","500-BY","2018/10/29 20:29:40","新北市蘆洲區光復路70巷19號","121.464828333333","25.08523","6501400","蘆洲區"
"247014","339-TH","2018/10/29 20:29:33","新北市蘆洲區中山二路62號","121.473646666667","25.0820616666667","6501400","蘆洲區"
"247006","337-TH","2018/10/29 20:29:36","新北市蘆洲區和平路121巷14弄29號","121.46604","25.080125","6501400","蘆洲區"
"247008","336-TH","2018/10/29 20:29:32","新北市蘆洲區重陽街95號","121.482475","25.0853933333333","6501400","蘆洲區"
"247020","057-VK","2018/10/29 20:29:38","新北市蘆洲區仁愛街129號","121.470278333333","25.0944683333333","6501400","蘆洲區"
"247010","056-VK","2018/10/29 20:29:45","新北市蘆洲區信義路218號","121.479018333333","25.0851916666667","6501400","蘆洲區"
"247018","007-UY","2018/10/29 20:29:39","新北市蘆洲區民族路336巷36號","121.477836666667","25.0913","6501400","蘆洲區"
"247004","002-UY","2018/10/29 20:29:34","新北市蘆洲區長安街222號","121.458051666667","25.085","6501400","蘆洲區"
"247022","001-UY","2018/10/29 20:29:35","新北市蘆洲區中正路263巷2號","121.467248333333","25.08763","6501400","蘆洲區"
"222001","KEA-2212","2018/10/29 20:29:39","新北市深坑區北深路三段345號","121.59711","25.0050366666667","6501800","深坑區"
"251001","011-UM","2018/10/29 20:29:43","新北市淡水區淡金路二段30號","121.45229","25.1810333333333","6501000","淡水區"
"251013","KEA-2871","2018/10/29 20:29:45","新北市淡水區後坑子6號","121.463663333333","25.2066266666667","6501000","淡水區"
"251016","179-VK","2018/10/29 20:29:47","新北市淡水區新埔子11-7號","121.447436666667","25.22851","6501000","淡水區"
"251008","181-VK","2018/10/29 20:29:36","新北市淡水區淡海路184巷17號","121.42139","25.1851833333333","6501000","淡水區"
"251015","182-VK","2018/10/29 20:29:30","新北市淡水區淡金路四段542巷17號","121.452753333333","25.2270883333333","6501000","淡水區"
"251010","413-VK","2018/10/29 20:29:32","新北市淡水區沙崙路181巷15號","121.423923333333","25.18434","6501000","淡水區"
"251012","441-VK","2018/10/29 20:29:38","新北市淡水區興仁路108號","121.451671666667","25.218175","6501000","淡水區"
"251007","442-VK","2018/10/29 20:29:31","新北市淡水區崁頂111號","121.432838333333","25.2045233333333","6501000","淡水區"
"251006","561-UM","2018/10/29 20:29:45","新北市淡水區商工路306號","121.461106666667","25.1858383333333","6501000","淡水區"
"251002","672-BX","2018/10/29 20:29:27","新北市淡水區中正路25號","121.44256","25.1695916666667","6501000","淡水區"
"251003","766-UM","2018/10/29 20:29:37","新北市淡水區新生街39號","121.440201666667","25.1748016666667","6501000","淡水區"
"252002","178-VK","2018/10/29 20:29:36","新北市三芝區淡金路二段47-2號","121.503653333333","25.2605433333333","6502100","三芝區"
"252001","292-VK","2018/10/29 20:29:43","新北市三芝區中山路一段35號","121.50064","25.2579783333333","6502100","三芝區"
"237006","5529-G3","2018/10/29 20:29:30","新北市三峽區民權街162號","121.368018333333","24.9305666666667","6500900","三峽區"
"237011","KEA-2596","2018/10/29 20:29:47","新北市樹林區中山路三段214號","121.379811666667","24.96771","6500900","三峽區"
"242036","AAC-296","2018/10/29 20:29:34","新北市新莊區後港一路76巷3弄1號","121.42727","25.0260183333333","6500500","新莊區"
"242058","986-R7","2018/10/29 20:29:34","新北市新莊區四維路169號","121.422413333333","25.021605","6500500","新莊區"
"242056","751-BX","2018/10/29 20:29:29","新北市新莊區瓊泰路233號","121.443073333333","25.0327833333333","6500500","新莊區"
"242027","615-BX","2018/10/29 20:29:42","新北市新莊區思源路223號","121.459751666667","25.0462616666667","6500500","新莊區"
"242025","613-BX","2018/10/29 20:29:37","新北市新莊區五工三路64號","121.45947","25.0644683333333","6500500","新莊區"
"242029","612-BX","2018/10/29 20:29:35","新北市新莊區昌平街19號","121.454298333333","25.051355","6500500","新莊區"
"242044","566-BX","2018/10/29 20:29:39","新北市新莊區中正路新建巷7號","121.414025","25.0225683333333","6500500","新莊區"
"242048","497-BY","2018/10/29 20:29:31","新北市新莊區中正路863號","121.418966666667","25.0277383333333","6500500","新莊區"
"242034","442-UM","2018/10/29 20:29:41","新北市新莊區中正路334巷25弄47號","121.445336666667","25.0361766666667","6500500","新莊區"
"242053","441-UM","2018/10/29 20:29:38","新北市新莊區民安西路229巷8弄9號","121.426656666667","25.0137383333333","6500500","新莊區"
"242039","415-TV","2018/10/29 20:29:39","新北市新莊區成功街18號","121.425258333333","25.021025","6500500","新莊區"
"242009","413-TV","2018/10/29 20:29:30","新北市新莊區昌盛街103巷4號","121.456201666667","25.050335","6500500","新莊區"
"242046","400-BY","2018/10/29 20:29:43","新北市新莊區中正路新雅巷2弄1號","121.417971666667","25.0253783333333","6500500","新莊區"
"242023","362-BY","2018/10/29 20:29:37","新北市新莊區化成路500號","121.466183333333","25.0523033333333","6500500","新莊區"
"242060","353-BY","2018/10/29 20:29:40","新北市新莊區民安路396巷20號","121.430986666667","25.0222116666667","6500500","新莊區"
"242011","132-UY","2018/10/29 20:29:46","新北市新莊區中義街24號","121.450621666667","25.0512116666667","6500500","新莊區"
"242042","133-UY","2018/10/29 20:29:34","新北市新莊區中正路694巷41號","121.418093333333","25.0288683333333","6500500","新莊區"
"242050","172-VK","2018/10/29 20:29:34","新北市新莊區民安西路189巷13號","121.426668333333","25.01543","6500500","新莊區"
"242013","173-VK","2018/10/29 20:29:28","新北市新莊區中平路270巷2號","121.44507","25.0500916666667","6500500","新莊區"
"242019","175-VK","2018/10/29 20:29:34","新北市新莊區民樂街87巷10號","121.45733","25.0433983333333","6500500","新莊區"
"242007","176-VK","2018/10/29 20:29:43","新北市新莊區思源路287巷1弄66號","121.459281666667","25.0476283333333","6500500","新莊區"
"242017","346-TH","2018/10/29 20:29:38","新北市新莊區中港三街35號","121.449955","25.0462916666667","6500500","新莊區"
"242015","347-TH","2018/10/29 20:29:46","新北市新莊區中平路63-1號","121.444711666667","25.0446916666667","6500500","新莊區"
"242031","348-TH","2018/10/29 20:29:38","新北市新莊區三和路17-16號","121.439043333333","25.0376483333333","6500500","新莊區"
"242004","349-TH","2018/10/29 20:29:43","新北市新莊區化成路748號","121.465735","25.0577466666667","6500500","新莊區"
"242021","350-TH","2018/10/29 20:29:37","新北市新莊區公園路60號","121.449391666667","25.03945","6500500","新莊區"
"221008","489-VK","2018/10/29 20:29:46","新北市汐止區康寧街523-1號","121.633465","25.0687083333333","6501100","汐止區"
"221036","130-UY","2018/10/29 20:29:45","新北市汐止區新昌路7號","121.662123333333","25.067225","6501100","汐止區"
"221015","131-UY","2018/10/29 20:29:27","新北市汐止區建成路142巷19弄12號","121.662048333333","25.0739333333333","6501100","汐止區"
"221010","269-BY","2018/10/29 20:29:29","新北市汐止區八連路二段162號","121.633485","25.095505","6501100","汐止區"
"221012","278-VK","2018/10/29 20:29:43","新北市汐止區大同路三段402號","121.681808333333","25.0717833333333","6501100","汐止區"
"221023","279-VK","2018/10/29 20:29:35","新北市汐止區湖東街5巷27號","121.634673333333","25.0734033333333","6501100","汐止區"
"221032","280-BY","2018/10/29 20:29:28","新北市汐止區弘道街53巷9弄2號","121.618598333333","25.0489716666667","6501100","汐止區"
"221027","281-BY","2018/10/29 20:29:38","新北市汐止區中正路223號","121.658076666667","25.0688216666667","6501100","汐止區"
"221029","298-VK","2018/10/29 20:29:43","新北市汐止區樟樹一路129巷32號","121.640556666667","25.065095","6501100","汐止區"
"221021","299-VK","2018/10/29 20:29:39","新北市汐止區水源路一段284號","121.654248333333","25.0582683333333","6501100","汐止區"
"221031","353-TW","2018/10/29 20:29:29","新北市汐止區中興路110巷34號","121.634273333333","25.0646583333333","6501100","汐止區"
"221035","622-UM","2018/10/29 20:29:45","新北市汐止區長江街101-5號","121.658708333333","25.0731766666667","6501100","汐止區"
"221025","623-UM","2018/10/29 20:29:46","新北市汐止區水源路二段88巷1弄2號","121.656261666667","25.055815","6501100","汐止區"
"221038","646-BX","2018/10/29 20:29:33","新北市汐止區忠孝東路9號","121.657751666667","25.06568","6501100","汐止區"
"221033","647-BX","2018/10/29 20:29:32","新北市汐止區林森街73巷15號","121.623725","25.041235","6501100","汐止區"
"221002","707-TV","2018/10/29 20:29:36","新北市汐止區福德二路51號","121.634238333333","25.0672033333333","6501100","汐止區"
"221018","753-BX","2018/10/29 20:29:38","新北市汐止區茄苳路225巷13號","121.67144","25.0692133333333","6501100","汐止區"
"220101","245-BX","2018/10/29 20:29:27","新北市五股區成泰路一段98巷77號","121.45127","25.0765083333333","6500100","板橋區"
"220057","282-UM","2018/10/29 20:29:46","新北市八里區下罟子17號","121.3794","25.14286","6500100","板橋區"
"220083","286-VK","2018/10/29 20:29:41","新北市板橋區僑中二街102巷45號","121.444358333333","25.008505","6500100","板橋區"
"220061","293-UM","2018/10/29 20:29:38","新北市板橋區文華街3巷1號","121.45733","25.0006933333333","6500100","板橋區"
"242002","281-VK","2018/10/29 20:29:36","新北市新莊區中正路育農巷1號","121.456916666667","25.0379283333333","6500500","新莊區"
"220089","487-VK","2018/10/29 20:29:45","新北市板橋區四維路327號","121.462643333333","25.0293583333333","6500100","板橋區"
"220102","KEA-2699","2018/10/29 20:29:43","新北市板橋區民生路二段161巷1號","121.469756666667","25.0199516666667","6500100","板橋區"
