"lineid","car","time","location","longitude","latitude","cityid","cityname"
"247012","KEA-2869","2018/10/29 22:14:08","新北市八里區中山路三段409號","121.368351666667","25.1349583333333","6501400","蘆洲區"
"251008","181-VK","2018/10/29 22:19:35","新北市淡水區學府路104號","121.449871666667","25.1717966666667","6501000","淡水區"
"251010","413-VK","2018/10/29 22:19:32","新北市淡水區沙崙路200號","121.424726666667","25.1839016666667","6501000","淡水區"
"251007","442-VK","2018/10/29 22:19:31","新北市淡水區北新路180號","121.449386666667","25.178725","6501000","淡水區"
"251004","443-VK","2018/10/29 22:19:34","新北市淡水區民族路33號","121.462313333333","25.135755","6501000","淡水區"
"251011","650-BX","2018/10/29 22:19:37","新北市淡水區水碓街7號","121.44318","25.1771316666667","6501000","淡水區"
