"lineid","car","time","location","longitude","latitude","cityid","cityname"
"244019","403-UM","2018/08/16 10:49:26","新北市林口區粉寮69號","121.405046666667","25.0908216666667","6501700","林口區"
"222006","289-BY","2018/08/16 10:49:24","新北市深坑區公館後2-3號","121.603233333333","24.9926666666667","6501800","深坑區"
"231069","189-VK","2018/08/16 10:49:23","新北市新店區新潭路二段80號","121.51746","24.9250233333333","6500600","新店區"
"231008","192-VK","2018/08/16 10:49:17","新北市新店區松林路81號","121.545731666667","24.9049133333333","6500600","新店區"
"220064","259-TC","2018/08/16 10:49:18","新北市板橋區縣民大道二段68-1號","121.4633","25.013025","6500100","板橋區"
