"lineid","car","time","location","longitude","latitude","cityid","cityname"
"244019","403-UM","2018/08/16 12:01:17","新北市林口區粉寮69號","121.40511","25.09084","6501700","林口區"
"231008","192-VK","2018/08/16 12:09:17","新北市新店區新烏路一段130號","121.545193333333","24.9336883333333","6500600","新店區"
"235031","255-BX","2018/08/16 11:51:32","新北市中和區和城路一段271巷1號","121.485688333333","24.9918083333333","6500300","中和區"
"228005","097-TW","2018/08/16 12:09:18","新北市貢寮區福隆里虎子山街21號","121.938836666667","25.0183616666667","6502600","貢寮區"
"228004","212-TW","2018/08/16 12:09:27","新北市貢寮區貢寮里貢寮街2號","121.90766","25.0189066666667","6502600","貢寮區"
"207001","681-TV","2018/08/16 12:09:24","新北市萬里區萬里里獅頭路15-1號","121.697595","25.1799816666667","6502800","萬里區"
