"lineid","car","time","location","longitude","latitude","cityid","cityname"
"234070","149-BY","2018/08/16 14:29:15","新北市五股區凌雲路三段24巷7號","121.437951666667","25.106415","6500400","永和區"
"234005","207-UY","2018/08/16 14:29:31","新北市永和區中正路736號","121.515285","25.0101733333333","6500400","永和區"
"234078","298-R6","2018/08/16 14:29:17","新北市永和區福和路57巷14弄2號","121.522818333333","25.007075","6500400","永和區"
"234062","337-UY","2018/08/16 14:29:34","新北市永和區中正路419號","121.51707","25.00501","6500400","永和區"
"234084","338-UY","2018/08/16 14:29:21","新北市永和區永和路二段299號","121.516093333333","25.0162983333333","6500400","永和區"
"234068","552-UM","2018/08/16 14:29:27","新北市永和區永亨路9號","121.51955","25.00574","6500400","永和區"
"234028","746-BX","2018/08/16 14:29:30","新北市永和區民權路82號","121.519851666667","24.9971633333333","6500400","永和區"
"234052","KEA-2590","2018/08/16 14:29:20","新北市永和區環河東路一段76號","121.51941","25.0165733333333","6500400","永和區"
"234060","AAD-866","2018/08/16 14:29:27","新北市永和區安樂路208-1號","121.51506","25.00179","6500400","永和區"
"234040","862-TW","2018/08/16 14:29:20","新北市永和區安樂路320號","121.514435","25.0055516666667","6500400","永和區"
"234048","863-TW","2018/08/16 14:29:12","新北市永和區新生路128號","121.506865","25.0144366666667","6500400","永和區"
"234025","9371-KE","2018/08/16 14:29:28","新北市永和區安樂路58巷2號","121.515018333333","24.9978883333333","6500400","永和區"
"248015","026-BX","2018/08/16 14:29:17","新北市五股區成泰路四段22巷21號","121.454565","25.107875","6501500","五股區"
"248007","095-VK","2018/08/16 14:29:27","新北市五股區中興路一段95巷15號","121.466571666667","25.07223","6501500","五股區"
"248017","225-UY","2018/08/16 14:25:23","新北市五股區壟路16號","121.415061666667","25.0853883333333","6501500","五股區"
"248011","247-BX","2018/08/16 14:29:31","新北市五股區成泰路一段241巷9號","121.43605","25.080985","6501500","五股區"
"248013","261-SL","2018/08/16 14:29:21","新北市五股區民義路一段157-22號","121.431516666667","25.0868133333333","6501500","五股區"
"248009","272-BY","2018/08/16 14:29:31","新北市五股區自強路90巷72號","121.43085","25.071255","6501500","五股區"
"248003","677-BX","2018/08/16 14:29:30","新北市五股區五福路41號","121.433185","25.08937","6501500","五股區"
"248001","678-BX","2018/08/16 14:29:16","新北市五股區成泰路三段540號","121.452586666667","25.1028333333333","6501500","五股區"
"234072","AAC-211","2018/08/16 14:29:34","新北市永和區竹林路39巷14號","121.518523333333","25.01457","6500400","永和區"
"234001","AAC-295","2018/08/16 14:29:24","新北市永和區自強街2號","121.514076666667","25.0080333333333","6500400","永和區"
"243005","AAD-798","2018/08/16 14:29:34","新北市泰山區民國街4號","121.425208333333","25.0435433333333","6501600","泰山區"
"243001","297-R6","2018/08/16 14:29:21","新北市五股區成泰路一段7巷56號","121.432083333333","25.0673133333333","6501600","泰山區"
"243008","KEA-2801","2018/08/16 14:29:22","新北市泰山區工專路18號","121.423851666667","25.0396783333333","6501600","泰山區"
"243007","421-VK","2018/08/16 14:29:17","新北市泰山區文程路18巷7號","121.428283333333","25.0489266666667","6501600","泰山區"
"243003","KEA-2215","2018/08/16 14:29:23","新北市泰山區貴子路67巷35號","121.431223333333","25.041425","6501600","泰山區"
"243002","KEA-2216","2018/08/16 14:29:19","新北市泰山區民生路7號","121.429621666667","25.05265","6501600","泰山區"
"243004","646-TV","2018/08/16 14:29:06","新北市泰山區福興一街120號","121.431643333333","25.057835","6501600","泰山區"
"243006","680-BX","2018/08/16 14:29:25","新北市泰山區仁愛路6巷4弄5號","121.431333333333","25.053435","6501600","泰山區"
"231006","001-UM","2018/08/16 14:29:19","新北市新店區北宜路二段228號","121.5598","24.9544066666667","6500600","新店區"
"231002","002-UM","2018/08/16 14:29:31","新北市新店區中央路210-1號","121.530068333333","24.9736233333333","6500600","新店區"
"231027","0293-UT","2018/08/16 14:29:23","新北市新店區寶橋路85巷23號","121.545251666667","24.97614","6500600","新店區"
"231028","046-UY","2018/08/16 14:29:33","新北市新店區安和路一段45號","121.517486666667","24.9657016666667","6500600","新店區"
"231001","047-UY","2018/08/16 14:29:30","新北市新店區中正路75巷71號","121.543103333333","24.9688816666667","6500600","新店區"
"231005","106-UY","2018/08/16 14:29:28","新北市新店區北新路三段45號","121.541876666667","24.9804133333333","6500600","新店區"
"231021","108-UY","2018/08/16 14:29:24","新北市新店區桂山路35號","121.559885","24.9027533333333","6500600","新店區"
"231011","187-VK","2018/08/16 14:29:31","新北市新店區寶興路55號","121.54971","24.97249","6500600","新店區"
"231023","KEA-2219","2018/08/16 14:29:23","新北市新店區光明街174號","121.53956","24.9620233333333","6500600","新店區"
"231003","268-BY","2018/08/16 14:29:31","新北市新店區中興路一段265號","121.544855","24.967405","6500600","新店區"
"231018","278-BY","2018/08/16 14:29:17","新北市新店區中央三街50號","121.527488333333","24.9746066666667","6500600","新店區"
"231017","AAD-862","2018/08/16 14:29:13","新北市新店區北宜路三段126號","121.580918333333","24.9503083333333","6500600","新店區"
"231038","3712-VJ","2018/08/16 14:29:25","新北市新店區溪洲路6巷1-3號","121.533878333333","24.9610766666667","6500600","新店區"
"231037","4716-K9","2018/08/16 14:29:19","新北市新店區安康路二段269號","121.504608333333","24.9575116666667","6500600","新店區"
"231025","4715-K9","2018/08/16 14:29:30","新北市新店區民族路163號","121.537643333333","24.976655","6500600","新店區"
"231036","512-UM","2018/08/16 14:29:17","新北市新店區安祥路109巷151弄12號","121.47814","24.958905","6500600","新店區"
"231013","513-UM","2018/08/16 14:29:29","新北市新店區民權路88-5號","121.536333333333","24.9835116666667","6500600","新店區"
"231030","619-UM","2018/08/16 14:29:19","新北市新店區安民街85號","121.516321666667","24.9676983333333","6500600","新店區"
"231034","641-BX","2018/08/16 14:29:17","新北市新店區車子路11號","121.503031666667","24.9519933333333","6500600","新店區"
"231035","719-UM","2018/08/16 14:29:14","新北市新店區碧安街36號","121.517466666667","24.9689933333333","6500600","新店區"
"231031","720-UM","2018/08/16 14:29:18","新北市新店區安業街215巷7號","121.522938333333","24.9727366666667","6500600","新店區"
"231029","897-TW","2018/08/16 14:29:23","新北市新店區安康路二段406號","121.496815","24.95527","6500600","新店區"
"231004","899-TW","2018/08/16 14:29:31","新北市新店區中正路263號","121.538661666667","24.9736266666667","6500600","新店區"
"235030","003-UY","2018/08/16 14:29:28","新北市中和區景新街44號","121.50359","24.99914","6500300","中和區"
"235028","005-UY","2018/08/16 14:29:26","新北市中和區連城路4號","121.499221666667","25.0023516666667","6500300","中和區"
"235027","006-UY","2018/08/16 14:29:27","新北市中和區連城路203巷1號","121.494908333333","24.9977016666667","6500300","中和區"
"235020","096-UM","2018/08/16 14:29:26","新北市中和區員山路520號","121.478788333333","25.00951","6500300","中和區"
"235003","097-UM","2018/08/16 14:29:15","新北市中和區景德街1號","121.519163333333","24.99137","6500300","中和區"
"235029","098-UM","2018/08/16 14:29:32","新北市中和區中山路二段178巷1號","121.500681666667","25.0028083333333","6500300","中和區"
"235004","150-BY","2018/08/16 14:29:24","新北市中和區保健路106巷73號","121.51131","24.9945816666667","6500300","中和區"
"235022","151-BY","2018/08/16 14:29:16","新北市中和區連城路346-1號","121.48244","24.99562","6500300","中和區"
"235019","183-VK","2018/08/16 14:29:32","新北市中和區中山路三段181巷18弄5號","121.47254","25.0053066666667","6500300","中和區"
"235002","185-VK","2018/08/16 14:29:15","新北市中和區自立路115號","121.521985","24.9944516666667","6500300","中和區"
"235013","186-VK","2018/08/16 14:29:29","新北市中和區景新街256號","121.509405","24.993445","6500300","中和區"
"235031","255-BX","2018/08/16 14:29:14","新北市中和區連城路340巷10弄1號","121.482776666667","24.9965783333333","6500300","中和區"
"235008","293-VK","2018/08/16 14:29:25","新北市中和區捷運路189號","121.505376666667","24.9913633333333","6500300","中和區"
"235036","301-VK","2018/08/16 14:29:19","新北市中和區中山路二段68號","121.503851666667","25.0046966666667","6500300","中和區"
"235007","352-BY","2018/08/16 14:29:28","新北市中和區景平路370號","121.51097","24.9927816666667","6500300","中和區"
"235006","KEA-2878","2018/08/16 14:29:30","新北市中和區中和路262巷33號","121.509568333333","24.9994283333333","6500300","中和區"
"247009","KEA-2869","2018/08/16 14:29:27","新北市蘆洲區鷺江街39號","121.478498333333","25.08243","6501400","蘆洲區"
"235014","4979-A6","2018/08/16 14:29:26","新北市中和區中正路589巷15號","121.485701666667","24.9936416666667","6500300","中和區"
"235033","4980-A6","2018/08/16 14:29:26","新北市中和區連城路103號","121.496296666667","24.999565","6500300","中和區"
"235034","558-UM","2018/08/16 14:29:32","新北市中和區景平路628號","121.500275","24.9979216666667","6500300","中和區"
"235009","565-BX","2018/08/16 14:29:29","新北市中和區景新街514號","121.51419","24.98682","6500300","中和區"
"235018","640-BX","2018/08/16 14:29:33","新北市中和區莒光路53-1號","121.472363333333","25.0045616666667","6500300","中和區"
"235024","647-TV","2018/08/16 14:29:28","新北市中和區民樂路35號","121.483176666667","25.00163","6500300","中和區"
"235011","732-UM","2018/08/16 14:29:16","新北市中和區景平路241巷64弄2號","121.507715","24.9924933333333","6500300","中和區"
"235010","733-UM","2018/08/16 14:29:18","新北市中和區忠孝街37巷44號","121.510683333333","24.984665","6500300","中和區"
"235035","783-BX","2018/08/16 14:29:23","新北市中和區連城路469巷52號","121.483455","24.9944316666667","6500300","中和區"
"235026","800-TS","2018/08/16 14:29:27","新北市中和區中山路二段488-1號","121.48741","25.0048966666667","6500300","中和區"
"235021","801-TS","2018/08/16 14:29:17","新北市中和區員山路352號","121.481056666667","25.003565","6500300","中和區"
"235005","802-TS","2018/08/16 14:29:32","新北市中和區宜安路153號","121.509071666667","24.9987733333333","6500300","中和區"
"235016","805-TS","2018/08/16 14:29:30","新北市中和區華新街143巷67弄1號","121.506791666667","24.9788083333333","6500300","中和區"
"235012","896-TW","2018/08/16 14:29:17","新北市中和區忠孝街28號","121.51057","24.98305","6500300","中和區"
"235017","900-TW","2018/08/16 14:29:22","新北市中和區民德路197-2號","121.468923333333","24.9986033333333","6500300","中和區"
"235015","157-BY","2018/08/16 14:29:29","新北市中和區中興街132巷1號","121.499621666667","24.992155","6500300","中和區"
"235001","AAC-213","2018/08/16 14:29:30","新北市中和區秀朗路三段10巷19號","121.525401666667","24.9964333333333","6500300","中和區"
"235023","AAC-215","2018/08/16 14:29:21","新北市中和區圓通路252-3號","121.49369","24.9911266666667","6500300","中和區"
"220105","013-TV","2018/08/16 14:29:34","新北市板橋區江寧路三段99號","121.472678333333","25.032645","6500100","板橋區"
"220013","072-UY","2018/08/16 14:29:18","新北市板橋區國泰街75巷28弄56號","121.467638333333","25.0046883333333","6500100","板橋區"
"220034","073-UY","2018/08/16 14:29:15","新北市板橋區國光路181號","121.460916666667","25.01841","6500100","板橋區"
"220017","AAD-861","2018/08/16 14:29:27","新北市板橋區貴興路57號","121.45739","25.0031133333333","6500100","板橋區"
"247023","893-R6","2018/08/16 14:29:25","新北市蘆洲區中正路263巷2號","121.46734","25.0874233333333","6501400","蘆洲區"
"247021","500-BY","2018/08/16 14:29:33","新北市蘆洲區水湳街36號","121.470746666667","25.0895783333333","6501400","蘆洲區"
"247011","339-TH","2018/08/16 14:29:22","新北市蘆洲區中興街177號","121.482001666667","25.08992","6501400","蘆洲區"
"247003","337-TH","2018/08/16 14:29:33","新北市蘆洲區中原路12巷40號","121.460461666667","25.0845066666667","6501400","蘆洲區"
"247005","336-TH","2018/08/16 14:29:32","新北市蘆洲區長安街91號","121.462106666667","25.0803733333333","6501400","蘆洲區"
"247017","057-VK","2018/08/16 14:29:25","新北市蘆洲區民族路336巷38號","121.478008333333","25.09136","6501400","蘆洲區"
"247007","056-VK","2018/08/16 14:29:15","新北市蘆洲區信義路74號","121.476406666667","25.079375","6501400","蘆洲區"
"247013","053-VK","2018/08/16 14:29:23","新北市蘆洲區中山二路211號","121.470455","25.0804266666667","6501400","蘆洲區"
"247015","007-UY","2018/08/16 14:29:34","新北市蘆洲區中正路185巷68弄13號","121.46644","25.0849683333333","6501400","蘆洲區"
"247001","002-UY","2018/08/16 14:29:21","新北市蘆洲區永樂街38巷19弄53號","121.456686666667","25.0894033333333","6501400","蘆洲區"
"247019","001-UY","2018/08/16 14:29:32","新北市蘆洲區水湳街399-8號","121.469983333333","25.0945733333333","6501400","蘆洲區"
"228005","097-TW","2018/08/16 14:29:18","新北市貢寮區美豐里巫里岸9-1號","121.90196","25.0700033333333","6502600","貢寮區"
"228004","212-TW","2018/08/16 14:29:27","新北市貢寮區雙玉里田寮洋街34-1號","121.931855","25.0148466666667","6502600","貢寮區"
"253003","6232-TK","2018/08/16 14:29:08","新北市石門區尖子鹿29號","121.582618333333","25.2624133333333","6502200","石門區"
"253001","6251-TK","2018/08/16 14:29:13","新北市石門區八甲15-1號","121.524116666667","25.2810866666667","6502200","石門區"
"253002","637-UY","2018/08/16 14:29:31","新北市石門區七股14號","121.547646666667","25.2674416666667","6502200","石門區"
"253004","8270-PC","2018/08/16 14:28:45","新北市石門區內阿里磅25號","121.59085","25.2429466666667","6502200","石門區"
"207002","749-BX","2018/08/16 14:28:43","新北市萬里區溪底里福德坑路2號","121.625141666667","25.1560166666667","6502800","萬里區"
"207001","681-TV","2018/08/16 14:29:24","新北市萬里區磺潭里清水9號","121.640333333333","25.1999","6502800","萬里區"
"252005","AAC-283","2018/08/16 14:29:29","新北市三芝區橫山里大坑85-4號","121.527771666667","25.2576333333333","6502100","三芝區"
"236068","105-UM","2018/08/16 14:29:14","新北市土城區永豐路205-3號","121.474016666667","24.9776316666667","6501300","土城區"
"236040","107-UM","2018/08/16 14:29:32","新北市土城區裕民路67巷11號","121.449838333333","24.988185","6501300","土城區"
"236074","166-UM","2018/08/16 14:29:17","新北市土城區中央路三段279號","121.426795","24.96337","6501300","土城區"
"236029","253-BX","2018/08/16 14:29:29","新北市土城區福仁街10號","121.44018","24.976175","6501300","土城區"
"236024","269-VK","2018/08/16 14:29:22","新北市土城區承天路20號","121.439518333333","24.96336","6501300","土城區"
"236012","270-VK","2018/08/16 14:29:31","新北市土城區立清街1號","121.459846666667","24.984975","6501300","土城區"
"236032","271-VK","2018/08/16 14:29:25","新北市土城區青雲路449號","121.458866666667","24.97494","6501300","土城區"
"236017","401-BY","2018/08/16 14:29:29","新北市土城區永豐路202巷14號","121.466248333333","24.983405","6501300","土城區"
"236005","498-BY","2018/08/16 14:29:33","新北市土城區中華路一段108號","121.444201666667","24.9869816666667","6501300","土城區"
"236057","912-UM","2018/08/16 14:29:28","新北市土城區中央路四段155號","121.415498333333","24.9570283333333","6501300","土城區"
"236045","913-UM","2018/08/16 14:29:32","新北市土城區青雲路374-1號","121.458713333333","24.9733466666667","6501300","土城區"
"236060","915-UM","2018/08/16 14:29:22","新北市土城區延壽路109巷20號","121.468381666667","24.9933583333333","6501300","土城區"
"236054","AAC-216","2018/08/16 14:29:27","新北市土城區中華路二段61號","121.439498333333","24.978795","6501300","土城區"
"221010","269-BY","2018/08/16 14:29:26","新北市汐止區長青路131巷2弄12號","121.605195","25.110385","6501100","汐止區"
"221033","647-BX","2018/08/16 14:29:22","台北市松山區撫遠街437-1號","121.570258333333","25.0709733333333","6501100","汐止區"
"220027","145-BY","2018/08/16 14:29:32","新北市板橋區民權路202巷21弄1號","121.460608333333","25.017135","6500100","板橋區"
"220030","610-BX","2018/08/16 14:29:25","新北市板橋區金門街330號","121.428343333333","24.9847266666667","6500100","板橋區"
"220050","245-BX","2018/08/16 14:29:19","新北市板橋區縣民大道三段127巷23號","121.476865","25.023755","6500100","板橋區"
"220040","267-BY","2018/08/16 14:29:29","新北市板橋區文聖街149巷18號","121.479283333333","25.0283183333333","6500100","板橋區"
"220004","276-BY","2018/08/16 14:29:34","新北市板橋區干城路162號","121.460713333333","24.991965","6500100","板橋區"
"220020","277-BY","2018/08/16 14:29:21","新北市板橋區金門街253巷16弄8號","121.432696666667","24.9879516666667","6500100","板橋區"
"220019","283-VK","2018/08/16 14:29:33","新北市板橋區四川路一段316號","121.458448333333","25.0001816666667","6500100","板橋區"
"220043","285-UM","2018/08/16 14:29:18","新北市板橋區吳鳳路50巷93號","121.471141666667","25.0305733333333","6500100","板橋區"
"220001","285-VK","2018/08/16 14:29:19","新北市板橋區富山街58號","121.47732","25.0218883333333","6500100","板橋區"
"220031","286-VK","2018/08/16 14:29:24","新北市板橋區龍興街71巷21號","121.442901666667","25.002195","6500100","板橋區"
"220029","287-VK","2018/08/16 14:29:30","新北市板橋區大觀路一段75巷26號","121.448196666667","25.0042666666667","6500100","板橋區"
"220039","288-VK","2018/08/16 14:29:20","新北市板橋區裕民街87-4號","121.460386666667","25.0281016666667","6500100","板橋區"
"220009","293-UM","2018/08/16 14:29:22","新北市板橋區漢生東路131巷7號","121.468366666667","25.0144733333333","6500100","板橋區"
"220032","296-UM","2018/08/16 14:29:31","新北市板橋區滿平街84巷70號","121.425935","24.9874016666667","6500100","板橋區"
"220041","299-UM","2018/08/16 14:29:32","新北市板橋區文化路二段125巷13號","121.469388333333","25.0268883333333","6500100","板橋區"
"220023","303-R5","2018/08/16 14:29:18","新北市板橋區僑中一街124巷72-3號","121.449375","25.017485","6500100","板橋區"
"220010","305-R5","2018/08/16 14:29:34","新北市板橋區三民路二段153巷2弄12-5號","121.47957","25.0143566666667","6500100","板橋區"
"220047","317-R6","2018/08/16 14:29:18","新北市板橋區民生路三段281巷2弄2號","121.46367","25.0299616666667","6500100","板橋區"
"220012","486-VK","2018/08/16 14:29:19","新北市板橋區縣民大道二段82號","121.465605","25.014915","6500100","板橋區"
"220037","491-VK","2018/08/16 14:29:31","新北市板橋區雙十路二段4-7號","121.47691","25.02585","6500100","板橋區"
"220104","560-BX","2018/08/16 14:29:30","新北市板橋區中正路399巷17號","121.452935","25.0227083333333","6500100","板橋區"
"220052","561-BX","2018/08/16 14:29:20","新北市板橋區文化路一段186號","121.466035","25.0195483333333","6500100","板橋區"
"220028","568-UM","2018/08/16 14:29:25","新北市板橋區大觀路二段37巷126號","121.449446666667","25.002185","6500100","板橋區"
"220011","609-BX","2018/08/16 14:29:26","新北市板橋區三民路二段251號","121.478991666667","25.0122133333333","6500100","板橋區"
"220002","630-UY","2018/08/16 14:29:31","新北市板橋區光明街45號","121.461411666667","25.0027033333333","6500100","板橋區"
"220005","686-BX","2018/08/16 14:29:29","新北市中和區華福街2-2號","121.464861666667","24.9970433333333","6500100","板橋區"
"220025","687-BX","2018/08/16 14:29:18","新北市板橋區大觀路一段31號","121.449936666667","25.0084616666667","6500100","板橋區"
"220042","689-BX","2018/08/16 14:29:23","新北市板橋區雨農路32號","121.461213333333","25.0242983333333","6500100","板橋區"
"220051","KEA-2699","2018/08/16 14:29:24","新北市板橋區雙十路二段108號","121.474621666667","25.0287283333333","6500100","板橋區"
"220003","827-TW","2018/08/16 14:29:13","新北市板橋區實踐路151號","121.464283333333","25.004235","6500100","板橋區"
"220014","829-TW","2018/08/16 14:29:35","新北市板橋區漢生東路313巷2弄1號","121.47226","25.00823","6500100","板橋區"
"220016","830-TW","2018/08/16 14:29:36","新北市板橋區萬安街23號","121.484545","25.0227683333333","6500100","板橋區"
"220045","831-TW","2018/08/16 14:29:21","新北市板橋區雙十路二段6-12號","121.476815","25.026675","6500100","板橋區"
"220038","833-TW","2018/08/16 14:29:31","新北市板橋區文化路一段173號","121.462976666667","25.0161033333333","6500100","板橋區"
"220022","895-R6","2018/08/16 14:29:31","新北市板橋區府中路60號","121.4568","25.0096333333333","6500100","板橋區"
"220021","985-R7","2018/08/16 14:29:34","新北市板橋區新生街89巷6號","121.458063333333","25.0222083333333","6500100","板橋區"
"220046","AAC-210","2018/08/16 14:29:14","新北市板橋區新海路135巷1號","121.460626666667","25.0233016666667","6500100","板橋區"
"220018","AAC-253","2018/08/16 14:29:27","新北市板橋區四川路一段58號","121.45957","25.0056833333333","6500100","板橋區"
"235032","KEA-2873","2018/08/16 14:29:31","新北市中和區永和路24號","121.499403333333","25.003535","6500300","中和區"
"235025","KEA-2875","2018/08/16 14:29:08","新北市中和區員山路226巷4號","121.481551666667","25.0007733333333","6500300","中和區"
