"lineid","car","time","location","longitude","latitude","cityid","cityname"
"234070","149-BY","2018/08/16 16:49:35","新北市永和區福和路1號","121.526376666667","25.0098733333333","6500400","永和區"
"249005","172-UM","2018/08/16 16:49:34","新北市八里區大堀湖2-3號","121.422618333333","25.15376","6502300","八里區"
"249004","303-UY","2018/08/16 16:49:30","新北市八里區博物館路201號","121.404998333333","25.1562933333333","6502300","八里區"
"249003","593-UM","2018/08/16 16:49:28","新北市八里區中山路二段283號","121.401576666667","25.14865","6502300","八里區"
"244007","080-UY","2018/08/16 16:49:20","新北市林口區粉寮1號","121.39733","25.0798316666667","6501700","林口區"
"244019","403-UM","2018/08/16 16:49:28","新北市林口區粉寮69號","121.405018333333","25.0908316666667","6501700","林口區"
"244013","KEA-2802","2018/08/16 16:49:30","新北市林口區粉寮69號","121.40474","25.09085","6501700","林口區"
"244009","410-SL","2018/08/16 16:49:29","新北市林口區粉寮69號","121.405031666667","25.0908466666667","6501700","林口區"
"244023","483-VK","2018/08/16 16:49:27","新北市林口區粉寮69號","121.40511","25.09078","6501700","林口區"
"231046","107-UY","2018/08/16 16:49:22","新北市新店區灣潭路15-8號","121.540718333333","24.9388416666667","6500600","新店區"
"241011","013-R5","2018/08/16 16:49:24","新北市三重區仁愛街53巷151號","121.499828333333","25.0727016666667","6500200","三重區"
"241028","022-UY","2018/08/16 16:49:37","新北市三重區光興街97號","121.497243333333","25.0599166666667","6500200","三重區"
"241008","059-VK","2018/08/16 16:49:18","新北市三重區永福街179巷27號","121.477915","25.0748833333333","6500200","三重區"
"241022","060-VK","2018/08/16 16:49:32","新北市三重區中華路111巷4號","121.483878333333","25.063485","6500200","三重區"
"241031","061-VK","2018/08/16 16:49:34","新北市三重區新北大道一段15巷2號","121.488011666667","25.060415","6500200","三重區"
"241015","062-VK","2018/08/16 16:49:30","新北市三重區文化北路43巷11號","121.499308333333","25.0655216666667","6500200","三重區"
"241017","063-VK","2018/08/16 16:49:36","新北市三重區大同北路60巷12號","121.493868333333","25.0637783333333","6500200","三重區"
"241024","065-VK","2018/08/16 16:49:25","新北市三重區中正北路317巷16號","121.475","25.072875","6500200","三重區"
"241026","066-VK","2018/08/16 16:49:27","新北市三重區文化南路17號","121.500116666667","25.0621133333333","6500200","三重區"
"241002","090-VK","2018/08/16 16:49:24","新北市三重區仁義街171號","121.496873333333","25.081485","6500200","三重區"
"241003","091-VK","2018/08/16 16:49:18","新北市三重區五華街71巷40號","121.493153333333","25.0834133333333","6500200","三重區"
"241005","262-UM","2018/08/16 16:49:30","新北市三重區仁華街69號","121.484776666667","25.0828583333333","6500200","三重區"
"241016","266-UM","2018/08/16 16:49:28","新北市三重區大同北路115巷12號","121.493611666667","25.0651433333333","6500200","三重區"
"241009","267-UM","2018/08/16 16:49:17","新北市三重區三和路四段203巷261號","121.487566666667","25.0809633333333","6500200","三重區"
"241018","268-UM","2018/08/16 16:49:27","新北市三重區正義北路253號","121.495581666667","25.069605","6500200","三重區"
"241032","269-UM","2018/08/16 16:49:35","新北市三重區重陽路一段120巷29號","121.485473333333","25.0601833333333","6500200","三重區"
"241013","270-UM","2018/08/16 16:49:36","新北市三重區三和路三段101巷46號","121.495586666667","25.0729166666667","6500200","三重區"
"241025","271-UM","2018/08/16 16:49:35","新北市三重區中正北路530巷21號","121.47191","25.070345","6500200","三重區"
"241007","398-BY","2018/08/16 16:49:32","新北市三重區三和路四段181巷63號","121.484261666667","25.0794483333333","6500200","三重區"
"241004","475-VK","2018/08/16 16:49:28","新北市三重區仁愛街423-1號","121.49025","25.0814816666667","6500200","三重區"
"241020","478-VK","2018/08/16 16:49:27","新北市三重區後竹圍街197號","121.485006666667","25.07163","6500200","三重區"
"241030","480-VK","2018/08/16 16:49:38","新北市三重區新興路8號","121.492578333333","25.0528566666667","6500200","三重區"
"241014","543-UM","2018/08/16 16:49:22","新北市三重區長榮路75號","121.502638333333","25.0691583333333","6500200","三重區"
"241023","545-UM","2018/08/16 16:49:19","新北市三重區中華路76巷35號","121.482161666667","25.062675","6500200","三重區"
"241001","547-UM","2018/08/16 16:49:21","新北市三重區仁政街61號","121.49282","25.0773666666667","6500200","三重區"
"241019","KEA-2593","2018/08/16 16:49:31","新北市三重區三張街149巷12號","121.48659","25.0699966666667","6500200","三重區"
"241006","AAD-863","2018/08/16 16:49:20","新北市三重區力行路二段184號","121.483323333333","25.0773666666667","6500200","三重區"
"241012","941-UM","2018/08/16 16:49:27","新北市三重區仁興街11巷58號","121.501093333333","25.0745066666667","6500200","三重區"
"241029","942-UM","2018/08/16 16:49:28","新北市三重區新興路32號","121.49194","25.05348","6500200","三重區"
"241033","AAC-255","2018/08/16 16:49:18","新北市三重區新北大道二段139巷8號","121.466266666667","25.0609633333333","6500200","三重區"
"247010","KEA-2869","2018/08/16 16:49:37","新北市蘆洲區環堤大道398號","121.479335","25.0960866666667","6501400","蘆洲區"
"235026","800-TS","2018/08/16 16:49:27","新北市中和區中正路637巷52弄1號","121.485431666667","24.9935966666667","6500300","中和區"
"247004","337-TH","2018/08/16 16:49:32","新北市蘆洲區長榮路151號","121.461773333333","25.08396","6501400","蘆洲區"
"247006","336-TH","2018/08/16 16:49:20","新北市蘆洲區長安街49巷8弄1號","121.462353333333","25.0786533333333","6501400","蘆洲區"
"247008","056-VK","2018/08/16 16:49:33","新北市蘆洲區中山一路174號","121.47437","25.0812433333333","6501400","蘆洲區"
"247020","001-UY","2018/08/16 16:49:25","新北市蘆洲區民族路410號","121.474593333333","25.0916433333333","6501400","蘆洲區"
"228003","097-TW","2018/08/16 16:49:28","新北市貢寮區貢寮里朝陽街1-2號","121.912348333333","25.0212833333333","6502600","貢寮區"
"228002","663-BX","2018/08/16 16:49:23","新北市貢寮區貢寮里朝陽街142號","121.907218333333","25.0225816666667","6502600","貢寮區"
"224006","676-BX","2018/08/16 16:49:30","新北市瑞芳區大寮路356-1號","121.78483","25.1031083333333","6501200","瑞芳區"
"224008","285-BY","2018/08/16 16:49:23","新北市瑞芳區傑魚坑路95-1號","121.79233","25.110425","6501200","瑞芳區"
"224007","275-VK","2018/08/16 16:49:19","新北市瑞芳區中央路48巷吉祥園7號","121.759696666667","25.1037383333333","6501200","瑞芳區"
"224009","273-VK","2018/08/16 16:49:26","新北市瑞芳區三爪子坑路49號","121.812871666667","25.1079533333333","6501200","瑞芳區"
"224005","271-BY","2018/08/16 16:49:27","新北市瑞芳區洞頂路157號","121.861373333333","25.122345","6501200","瑞芳區"
"227004","642-TC","2018/08/16 16:49:36","新北市雙溪區外柑里外柑腳71號","121.807128333333","25.017565","6502500","雙溪區"
"251013","KEA-2871","2018/08/16 16:49:26","新北市淡水區楓樹湖1-5號","121.494366666667","25.190685","6501000","淡水區"
"251016","179-VK","2018/08/16 16:49:20","新北市淡水區水頭42號","121.478156666667","25.1850766666667","6501000","淡水區"
"251014","180-VK","2018/08/16 16:49:28","新北市淡水區淡金路四段476號","121.451953333333","25.2237466666667","6501000","淡水區"
"251015","181-VK","2018/08/16 16:49:26","新北市淡水區忠愛街4號","121.459471666667","25.171325","6501000","淡水區"
"251008","442-VK","2018/08/16 16:49:21","新北市淡水區樹梅坑45號","121.474731666667","25.1445466666667","6501000","淡水區"
"251007","577-R6","2018/08/16 16:49:15","新北市淡水區中正路一段66號","121.42527","25.177","6501000","淡水區"
"251011","650-BX","2018/08/16 16:49:36","新北市淡水區中正路二段31號","121.419505","25.1818266666667","6501000","淡水區"
"252002","178-VK","2018/08/16 16:49:34","新北市三芝區忠孝街133-1號","121.506326666667","25.2594166666667","6502100","三芝區"
"252001","292-VK","2018/08/16 16:49:24","新北市三芝區淡金路二段89號","121.503945","25.2608083333333","6502100","三芝區"
"242053","442-UM","2018/08/16 16:49:26","新北市新莊區新泰路255巷83號","121.442025","25.0388866666667","6500500","新莊區"
"238011","5061-A6","2018/08/16 16:49:12","新北市樹林區鎮前街77-21號","121.424598333333","24.9901716666667","6500700","樹林區"
"238025","303-VK","2018/08/16 16:49:31","新北市樹林區中正路22-1號","121.427816666667","24.9992666666667","6500700","樹林區"
"238001","283-BY","2018/08/16 16:49:36","新北市樹林區三多路123號","121.414628333333","25.0081116666667","6500700","樹林區"
"238001","282-BY","2018/08/16 16:49:26","新北市樹林區中正路25號","121.427318333333","24.9993966666667","6500700","樹林區"
"239007","AAC-297","2018/08/16 16:49:30","新北市鶯歌區二甲路13-16號","121.345076666667","24.9350933333333","6500800","鶯歌區"
"239002","359-BY","2018/08/16 16:49:02","新北市鶯歌區二甲路12-2號","121.345771666667","24.9353216666667","6500800","鶯歌區"
