"lineid","car","time","location","longitude","latitude","cityid","cityname"
"234070","149-BY","2018/08/16 17:08:30","新北市永和區福和路1號","121.52623","25.0097566666667","6500400","永和區"
"249005","172-UM","2018/08/16 17:29:33","新北市八里區荖阡坑路30號","121.404833333333","25.1302","6502300","八里區"
"249001","173-UM","2018/08/16 17:29:31","新北市八里區中華路一段5號","121.422748333333","25.158355","6502300","八里區"
"249004","303-UY","2018/08/16 17:29:30","新北市八里區民有街75號","121.41438","25.1558883333333","6502300","八里區"
"249002","305-UY","2018/08/16 17:29:27","新北市八里區龍米路一段261號","121.448998333333","25.133535","6502300","八里區"
"249003","593-UM","2018/08/16 17:29:28","新北市八里區中山路二段313號","121.400703333333","25.1478216666667","6502300","八里區"
"244007","080-UY","2018/08/16 17:29:20","新北市林口區湖子17號","121.385851666667","25.0908316666667","6501700","林口區"
"244019","403-UM","2018/08/16 17:29:28","新北市林口區文化一路一段129號","121.373738333333","25.0715633333333","6501700","林口區"
"244013","KEA-2802","2018/08/16 17:29:30","新北市林口區粉寮69號","121.404753333333","25.0908266666667","6501700","林口區"
"244009","410-SL","2018/08/16 17:29:29","新北市林口區寶林路93號","121.384056666667","25.084515","6501700","林口區"
"244023","483-VK","2018/08/16 17:29:28","新北市林口區興林一街113號","121.3918","25.0723466666667","6501700","林口區"
"244017","485-VK","2018/08/16 17:29:22","新北市林口區文化一路一段237號","121.380028333333","25.0768933333333","6501700","林口區"
"244011","657-BX","2018/08/16 17:29:29","新北市林口區仁愛路一段398號","121.387143333333","25.0767083333333","6501700","林口區"
"244025","701-TV","2018/08/16 17:29:20","新北市林口區忠孝一路22號","121.364123333333","25.0730666666667","6501700","林口區"
"231046","107-UY","2018/08/16 17:29:22","新北市新店區直潭路92號","121.530888333333","24.9375916666667","6500600","新店區"
"241011","013-R5","2018/08/16 17:29:24","新北市三重區河邊北街110巷59號","121.502613333333","25.0706083333333","6500200","三重區"
"241015","062-VK","2018/08/16 17:29:28","新北市三重區開元街30號","121.503631666667","25.0658483333333","6500200","三重區"
"241017","063-VK","2018/08/16 17:29:23","新北市三重區重新路三段49號","121.493058333333","25.0616333333333","6500200","三重區"
"241024","065-VK","2018/08/16 17:29:25","新北市三重區中正北路165巷2號","121.478656666667","25.069725","6500200","三重區"
"241003","091-VK","2018/08/16 17:29:18","新北市三重區碧華街378號","121.490983333333","25.0843083333333","6500200","三重區"
"241005","262-UM","2018/08/16 17:29:30","新北市三重區永安北路二段43巷27號","121.483098333333","25.0826566666667","6500200","三重區"
"241016","266-UM","2018/08/16 17:29:28","新北市三重區信義西街49號","121.495248333333","25.0639383333333","6500200","三重區"
"241009","267-UM","2018/08/16 17:29:38","新北市三重區車路頭街140號","121.484135","25.075615","6500200","三重區"
"241018","268-UM","2018/08/16 17:29:27","新北市三重區中正北路25巷2號","121.493186666667","25.062685","6500200","三重區"
"241032","269-UM","2018/08/16 17:29:35","新北市三重區名源街32號","121.482248333333","25.0598666666667","6500200","三重區"
"241013","270-UM","2018/08/16 17:29:36","新北市三重區仁福街37號","121.496833333333","25.0745566666667","6500200","三重區"
"241025","271-UM","2018/08/16 17:29:34","新北市三重區三民街329號","121.476895","25.0690933333333","6500200","三重區"
"241007","398-BY","2018/08/16 17:29:32","新北市三重區三和路四段145巷105號","121.487018333333","25.078995","6500200","三重區"
"241020","478-VK","2018/08/16 17:29:26","新北市三重區忠孝路一段173號","121.4875","25.07199","6500200","三重區"
"241030","480-VK","2018/08/16 17:29:38","新北市三重區集美街178號","121.49051","25.0532183333333","6500200","三重區"
"241014","543-UM","2018/08/16 17:29:22","新北市三重區安和路13號","121.501413333333","25.0683733333333","6500200","三重區"
"241023","545-UM","2018/08/16 17:29:19","新北市三重區三民街146巷3弄10號","121.481358333333","25.0648616666667","6500200","三重區"
"241019","KEA-2593","2018/08/16 17:29:31","新北市三重區自強路二段26巷19號","121.488843333333","25.0690216666667","6500200","三重區"
"241006","AAD-863","2018/08/16 17:29:20","新北市五股區中興路二段182巷15弄13號","121.457086666667","25.0812666666667","6500200","三重區"
"241012","941-UM","2018/08/16 17:29:27","新北市三重區公園街49號","121.49858","25.0748383333333","6500200","三重區"
"241033","AAC-255","2018/08/16 17:29:38","新北市三重區中興北街153-9號","121.469055","25.0536783333333","6500200","三重區"
"247010","KEA-2869","2018/08/16 17:29:37","新北市蘆洲區中山一路120巷4號","121.477298333333","25.08166","6501400","蘆洲區"
"247024","893-R6","2018/08/16 17:29:19","新北市蘆洲區長興路296-7號","121.4604","25.0900066666667","6501400","蘆洲區"
"247022","500-BY","2018/08/16 17:29:27","新北市蘆洲區三民路224號","121.468725","25.089325","6501400","蘆洲區"
"247012","339-TH","2018/08/16 17:29:21","新北市蘆洲區民族路42號","121.476655","25.084375","6501400","蘆洲區"
"247004","337-TH","2018/08/16 17:29:32","新北市蘆洲區長安街233巷27號","121.45844","25.0824133333333","6501400","蘆洲區"
"247006","336-TH","2018/08/16 17:29:20","新北市蘆洲區九芎街90巷27號","121.464561666667","25.08139","6501400","蘆洲區"
"247018","057-VK","2018/08/16 17:29:34","新北市蘆洲區民義街22巷16號","121.471718333333","25.0881833333333","6501400","蘆洲區"
"247008","056-VK","2018/08/16 17:29:34","新北市蘆洲區成功路11號","121.47363","25.0783983333333","6501400","蘆洲區"
"247014","053-VK","2018/08/16 17:29:23","新北市蘆洲區三民路105號","121.472763333333","25.0854983333333","6501400","蘆洲區"
"247016","007-UY","2018/08/16 17:29:32","新北市蘆洲區光華路22巷17號","121.468873333333","25.0841333333333","6501400","蘆洲區"
"247002","002-UY","2018/08/16 17:29:36","新北市蘆洲區永樂街38巷57弄18號","121.457515","25.0905966666667","6501400","蘆洲區"
"247020","001-UY","2018/08/16 17:29:25","新北市蘆洲區仁愛街116號","121.469711666667","25.0948733333333","6501400","蘆洲區"
"228003","097-TW","2018/08/16 17:29:28","新北市貢寮區仁理村仁和路2-1號","121.923131666667","25.04869","6502600","貢寮區"
"228001","212-TW","2018/08/16 17:29:19","新北市貢寮區仁理村仁愛路32號","121.924898333333","25.0532183333333","6502600","貢寮區"
"228002","663-BX","2018/08/16 17:29:24","新北市貢寮區福隆里福隆街18號","121.944905","25.0164783333333","6502600","貢寮區"
"224010","AGQ-8101","2018/08/16 17:29:29","新北市瑞芳區明燈路二段2巷14號","121.81442","25.1088583333333","6501200","瑞芳區"
"224006","676-BX","2018/08/16 17:29:30","新北市瑞芳區靜安路四段121號","121.793115","25.1100216666667","6501200","瑞芳區"
"224008","285-BY","2018/08/16 17:29:23","新北市瑞芳區侯硐路220號","121.830785","25.0885083333333","6501200","瑞芳區"
"224007","275-VK","2018/08/16 17:29:39","新北市瑞芳區靜安路四段5號","121.795843333333","25.078745","6501200","瑞芳區"
"224009","273-VK","2018/08/16 17:29:26","新北市瑞芳區烏勢巷150號","121.847136666667","25.1079583333333","6501200","瑞芳區"
"224005","271-BY","2018/08/16 17:29:22","新北市瑞芳區籠山路214-1號","121.850905","25.1257383333333","6501200","瑞芳區"
"227004","642-TC","2018/08/16 17:29:36","新北市雙溪區平林里外平林62號","121.84446","25.03444","6502500","雙溪區"
"227009","400-TW","2018/08/16 17:29:32","新北市雙溪區三貂里定福路6號","121.850593333333","25.06475","6502500","雙溪區"
"251009","008-UM","2018/08/16 17:29:22","新北市淡水區新生街30巷64號","121.439616666667","25.17316","6501000","淡水區"
"251005","010-UM","2018/08/16 17:29:32","新北市淡水區鄧公路31巷15號","121.451936666667","25.17065","6501000","淡水區"
"251013","KEA-2871","2018/08/16 17:29:26","新北市淡水區竹圍子12號","121.476403333333","25.1933833333333","6501000","淡水區"
"251016","179-VK","2018/08/16 17:29:20","新北市淡水區埤島71號","121.45793","25.1923816666667","6501000","淡水區"
"251014","180-VK","2018/08/16 17:29:28","新北市淡水區公埔子14號","121.477713333333","25.2254383333333","6501000","淡水區"
"251015","181-VK","2018/08/16 17:29:26","新北市淡水區三空泉15號","121.472738333333","25.1634716666667","6501000","淡水區"
"251010","413-VK","2018/08/16 17:29:31","新北市淡水區中正路二段211號","121.426236666667","25.1891366666667","6501000","淡水區"
"251012","441-VK","2018/08/16 17:29:20","新北市淡水區北新路100號","121.447488333333","25.1784133333333","6501000","淡水區"
"251008","442-VK","2018/08/16 17:29:21","新北市淡水區大同路124巷6號","121.463478333333","25.14037","6501000","淡水區"
"251004","443-VK","2018/08/16 17:20:54","新北市淡水區中正東路二段88巷15號","121.459055","25.15046","6501000","淡水區"
"251006","561-UM","2018/08/16 17:29:24","新北市淡水區大仁街13號","121.442333333333","25.174975","6501000","淡水區"
"251007","577-R6","2018/08/16 17:29:35","新北市淡水區民生路60號","121.462188333333","25.137885","6501000","淡水區"
"251011","650-BX","2018/08/16 17:29:36","新北市淡水區坪頂路712號","121.482473333333","25.1585083333333","6501000","淡水區"
"251002","672-BX","2018/08/16 17:28:45","新北市淡水區中正路382號","121.430021666667","25.1752733333333","6501000","淡水區"
"251003","673-BX","2018/08/16 17:29:32","新北市淡水區真理街1號","121.438266666667","25.17291","6501000","淡水區"
"207003","550-UM","2018/08/16 17:29:38","新北市萬里區龜吼里美崙路40號","121.686305","25.1846966666667","6502800","萬里區"
"207004","225-TW","2018/08/16 17:29:17","新北市萬里區萬里里景美路9號","121.684866666667","25.17307","6502800","萬里區"
"252002","178-VK","2018/08/16 17:29:34","新北市三芝區忠孝街1-14號","121.505405","25.2539233333333","6502100","三芝區"
"252001","292-VK","2018/08/16 17:29:24","新北市三芝區長安街119號","121.498066666667","25.259665","6502100","三芝區"
"237012","275-BY","2018/08/16 17:29:21","新北市三峽區中山路459巷137號","121.34992","24.9339333333333","6500900","三峽區"
"237011","KEA-2596","2018/08/16 17:29:31","新北市三峽區中山路459巷163-3號","121.348608333333","24.9330266666667","6500900","三峽區"
"237016","649-BX","2018/08/16 17:29:19","新北市三峽區中山路333-5號","121.35954","24.937535","6500900","三峽區"
"242034","AAC-296","2018/08/16 17:29:20","新北市新莊區新泰路5號","121.449715","25.032285","6500500","新莊區"
"242058","986-R7","2018/08/16 17:29:23","新北市新莊區中正路516-42號","121.432331666667","25.0320816666667","6500500","新莊區"
"242027","615-BX","2018/08/16 17:29:24","新北市新莊區思源路32號","121.460271666667","25.0406483333333","6500500","新莊區"
"242025","613-BX","2018/08/16 17:25:49","新北市新莊區中港路279號","121.453253333333","25.04367","6500500","新莊區"
"242042","566-BX","2018/08/16 17:29:29","新北市新莊區新樹路111號","121.43775","25.026655","6500500","新莊區"
"242046","497-BY","2018/08/16 17:29:30","新北市新莊區新樹路12號","121.440096666667","25.0319533333333","6500500","新莊區"
"242053","442-UM","2018/08/16 17:29:26","新北市新莊區瓊林南路305巷35號","121.435923333333","25.0050666666667","6500500","新莊區"
"242051","441-UM","2018/08/16 17:29:33","新北市新莊區新樹路447號","121.432696666667","25.0134733333333","6500500","新莊區"
"242056","440-UM","2018/08/16 17:29:21","新北市新莊區新泰路22號","121.449593333333","25.0336983333333","6500500","新莊區"
"242036","415-TV","2018/08/16 17:29:35","新北市新莊區建國二路1號","121.434995","25.02365","6500500","新莊區"
"242007","413-TV","2018/08/16 17:29:23","新北市新莊區自強街52號","121.454726666667","25.0467283333333","6500500","新莊區"
"242044","400-BY","2018/08/16 17:29:19","新北市新莊區富國路101-1號","121.421313333333","25.025535","6500500","新莊區"
"242023","362-BY","2018/08/16 17:29:19","新北市新莊區公園路150號","121.45313","25.0401","6500500","新莊區"
"242061","353-BY","2018/08/16 17:29:20","新北市新莊區瓊林南路12-2號","121.436268333333","25.0189366666667","6500500","新莊區"
"242009","132-UY","2018/08/16 17:29:38","新北市新莊區中原路181號","121.45339","25.0541533333333","6500500","新莊區"
"242039","133-UY","2018/08/16 17:29:31","新北市新莊區民安路278號","121.427773333333","25.0214716666667","6500500","新莊區"
"242031","135-UY","2018/08/16 17:29:34","新北市新莊區新泰路401巷28-1號","121.442298333333","25.0441433333333","6500500","新莊區"
"242048","172-VK","2018/08/16 17:29:30","新北市新莊區四維路297號","121.421246666667","25.0197066666667","6500500","新莊區"
"242017","175-VK","2018/08/16 17:29:35","新北市新莊區復興路一段187號","121.451656666667","25.04369","6500500","新莊區"
"242004","176-VK","2018/08/16 17:29:30","新北市新莊區中港路288巷12號","121.453436666667","25.04451","6500500","新莊區"
"242015","346-TH","2018/08/16 17:29:34","新北市新莊區新泰路146號","121.447876666667","25.0370033333333","6500500","新莊區"
"242021","347-TH","2018/08/16 17:29:36","新北市新莊區中華路一段2號","121.452238333333","25.0361116666667","6500500","新莊區"
"242002","349-TH","2018/08/16 17:29:19","新北市新莊區新莊路213號","121.455305","25.0353633333333","6500500","新莊區"
"242019","350-TH","2018/08/16 17:29:37","新北市新莊區中港路76號","121.455516666667","25.0390116666667","6500500","新莊區"
"238015","755-BX","2018/08/16 17:29:36","新北市樹林區大安路267號","121.418995","24.9937116666667","6500700","樹林區"
"238023","601-UM","2018/08/16 17:29:33","新北市樹林區三福街61號","121.407898333333","25.016385","6500700","樹林區"
"238019","599-UM","2018/08/16 17:29:34","新北市樹林區太平路59號","121.419041666667","24.9818516666667","6500700","樹林區"
"238018","571-TV","2018/08/16 17:29:34","新北市樹林區鎮前街221號","121.421325","24.986625","6500700","樹林區"
"238011","5061-A6","2018/08/16 17:29:22","新北市樹林區博愛街248號","121.424275","24.9886033333333","6500700","樹林區"
"238022","KEA-2213","2018/08/16 17:29:30","新北市樹林區和平街2巷4號","121.42086","24.9813966666667","6500700","樹林區"
"238021","KEA-2539","2018/08/16 17:29:33","新北市樹林區民權街5巷21號","121.395768333333","24.958175","6500700","樹林區"
"238025","303-VK","2018/08/16 17:29:31","新北市樹林區保安街二段44號","121.415296666667","25.002145","6500700","樹林區"
"238017","283-BY","2018/08/16 17:29:36","新北市樹林區三德街30巷16弄32號","121.413416666667","25.012565","6500700","樹林區"
"238014","282-BY","2018/08/16 17:29:26","新北市樹林區長壽街94號","121.419805","24.9962383333333","6500700","樹林區"
"238020","268-VK","2018/08/16 17:29:22","新北市樹林區俊英街160巷10號","121.427661666667","25.007","6500700","樹林區"
"238026","172-UY","2018/08/16 17:29:19","新北市樹林區新興街2-1號","121.400276666667","24.9744433333333","6500700","樹林區"
"238016","169-UY","2018/08/16 17:29:27","新北市樹林區日新街24號","121.422903333333","24.9929716666667","6500700","樹林區"
"239007","AAC-297","2018/08/16 17:29:30","新北市鶯歌區仁愛路17號","121.353951666667","24.9561133333333","6500800","鶯歌區"
"239006","891-R6","2018/08/16 17:29:36","新北市鶯歌區鶯桃路336號","121.333995","24.9622316666667","6500800","鶯歌區"
"239008","527-UM","2018/08/16 17:29:30","新北市鶯歌區大湖路584號","121.335756666667","24.9738716666667","6500800","鶯歌區"
"239005","526-UM","2018/08/16 17:29:27","新北市鶯歌區鶯桃路640號","121.329421666667","24.9689583333333","6500800","鶯歌區"
"239001","417-VK","2018/08/16 17:29:34","新北市鶯歌區中正三路153-1號","121.336585","24.9400983333333","6500800","鶯歌區"
"239003","360-BY","2018/08/16 17:29:29","新北市鶯歌區德昌街205-1號","121.329985","24.9603966666667","6500800","鶯歌區"
"239002","359-BY","2018/08/16 17:29:22","新北市鶯歌區南雅路414號","121.347585","24.954055","6500800","鶯歌區"
"239004","193-VK","2018/08/16 17:29:35","新北市鶯歌區文化路224號","121.352743333333","24.948715","6500800","鶯歌區"
"221008","489-VK","2018/08/16 17:29:26","新北市汐止區康寧街901號","121.651398333333","25.0750633333333","6501100","汐止區"
"221010","269-BY","2018/08/16 17:29:30","新北市汐止區汐萬路一段256巷3號","121.652066666667","25.07482","6501100","汐止區"
"221033","647-BX","2018/08/16 17:29:25","新北市汐止區康寧街901號","121.651565","25.0750033333333","6501100","汐止區"
"242013","280-VK","2018/08/16 17:29:18","新北市新莊區中誠街16巷28號","121.451873333333","25.048815","6500500","新莊區"
"235061","KEA-2875","2018/08/16 17:12:35","新北市中和區和城路一段271巷1號","121.485371666667","24.991735","6500300","中和區"
