"lineid","car","time","location","longitude","latitude","cityid","cityname"
"234026","9371-KE","2018/08/16 17:39:20","新北市永和區中正路645號","121.515238333333","25.0101433333333","6500400","永和區"
"249005","172-UM","2018/08/16 17:39:33","新北市八里區荖阡坑路34-1號","121.402733333333","25.129755","6502300","八里區"
"249001","173-UM","2018/08/16 17:39:31","新北市八里區龍米路二段189號","121.43412","25.1582433333333","6502300","八里區"
"249004","303-UY","2018/08/16 17:39:30","新北市八里區賢三街145號","121.414826666667","25.1568666666667","6502300","八里區"
"249002","305-UY","2018/08/16 17:39:27","新北市八里區石壁腳19號","121.441715","25.1353366666667","6502300","八里區"
"249003","593-UM","2018/08/16 17:39:38","新北市八里區中山路二段306號","121.404693333333","25.1502066666667","6502300","八里區"
"232011","375-UM","2018/08/16 17:39:33","新北市坪林區北宜路八段298號","121.710505","24.9352566666667","6502000","坪林區"
"244007","080-UY","2018/08/16 17:39:20","新北市林口區中湖46號","121.382936666667","25.0952383333333","6501700","林口區"
"244019","403-UM","2018/08/16 17:39:28","新北市林口區文化一路一段89-5號","121.37183","25.0704516666667","6501700","林口區"
"244013","KEA-2802","2018/08/16 17:39:30","新北市林口區中山路303號","121.383873333333","25.0803616666667","6501700","林口區"
"244009","410-SL","2018/08/16 17:39:29","新北市林口區寶林路103號","121.383835","25.0852966666667","6501700","林口區"
"244023","483-VK","2018/08/16 17:39:28","新北市林口區東明一街140號","121.390006666667","25.07069","6501700","林口區"
"244017","485-VK","2018/08/16 17:39:27","新北市林口區忠孝路371-1號","121.369036666667","25.07186","6501700","林口區"
"244011","657-BX","2018/08/16 17:39:29","新北市林口區佳林路211號","121.384211666667","25.0771216666667","6501700","林口區"
"244025","701-TV","2018/08/16 17:39:20","新北市林口區南勢街21號","121.364895","25.0736466666667","6501700","林口區"
"222003","016-RS","2018/08/16 17:39:32","新北市深坑區深南路51-1號","121.621195","25.00975","6501800","深坑區"
"222002","659-BX","2018/08/16 17:39:25","新北市深坑區深南路1號","121.622416666667","25.00579","6501800","深坑區"
"231046","107-UY","2018/08/16 17:39:22","新北市新店區直潭路92號","121.530895","24.9375916666667","6500600","新店區"
"241011","013-R5","2018/08/16 17:39:24","新北市三重區龍濱路281-1號","121.501313333333","25.0733733333333","6500200","三重區"
"241017","063-VK","2018/08/16 17:39:23","新北市三重區大同北路19號","121.495413333333","25.0624633333333","6500200","三重區"
"241005","262-UM","2018/08/16 17:39:30","新北市三重區碧華街1號","121.483516666667","25.08112","6500200","三重區"
"241016","266-UM","2018/08/16 17:39:28","新北市三重區正義北路10號","121.497628333333","25.0629716666667","6500200","三重區"
"241013","270-UM","2018/08/16 17:39:36","新北市三重區三和路三段105號","121.494261666667","25.07278","6500200","三重區"
"241007","398-BY","2018/08/16 17:39:32","新北市三重區車路頭街137號","121.484025","25.0762533333333","6500200","三重區"
"241020","478-VK","2018/08/16 17:39:26","新北市三重區忠孝路一段163號","121.487823333333","25.0718533333333","6500200","三重區"
"241014","543-UM","2018/08/16 17:39:28","新北市三重區龍濱路19號","121.503013333333","25.067825","6500200","三重區"
"241023","545-UM","2018/08/16 17:39:19","新北市三重區三民街173號","121.483326666667","25.064925","6500200","三重區"
"241019","KEA-2593","2018/08/16 17:39:31","新北市三重區六張街255巷6號","121.487261666667","25.0682383333333","6500200","三重區"
"241006","AAD-863","2018/08/16 17:39:20","新北市八里區荖阡坑路41-3號","121.40053","25.1313766666667","6500200","三重區"
"241012","941-UM","2018/08/16 17:39:27","新北市三重區仁興街39巷59號","121.500298333333","25.07623","6500200","三重區"
"241033","AAC-255","2018/08/16 17:39:38","新北市三重區興德路145-2號","121.469161666667","25.0526783333333","6500200","三重區"
"247010","KEA-2869","2018/08/16 17:39:17","新北市蘆洲區中山一路74巷7號","121.478745","25.0812866666667","6501400","蘆洲區"
"247024","893-R6","2018/08/16 17:39:19","新北市蘆洲區長樂路159號","121.462075","25.0881083333333","6501400","蘆洲區"
"247022","500-BY","2018/08/16 17:39:27","新北市蘆洲區三民路279號","121.467465","25.08959","6501400","蘆洲區"
"247012","339-TH","2018/08/16 17:39:21","新北市蘆洲區民權路3巷14弄8號","121.475655","25.085735","6501400","蘆洲區"
"247004","337-TH","2018/08/16 17:39:32","新北市蘆洲區長安街172巷5號","121.459371666667","25.08346","6501400","蘆洲區"
"247006","336-TH","2018/08/16 17:39:21","新北市蘆洲區長安街27號","121.463806666667","25.07925","6501400","蘆洲區"
"247018","057-VK","2018/08/16 17:39:34","新北市蘆洲區民權路61巷18號","121.473105","25.08763","6501400","蘆洲區"
"247008","056-VK","2018/08/16 17:39:33","新北市蘆洲區民生街137號","121.472333333333","25.0791066666667","6501400","蘆洲區"
"247014","053-VK","2018/08/16 17:39:23","新北市蘆洲區中山二路55號","121.473738333333","25.082055","6501400","蘆洲區"
"247016","007-UY","2018/08/16 17:39:32","新北市蘆洲區光華路46巷7號","121.468503333333","25.08327","6501400","蘆洲區"
"247002","002-UY","2018/08/16 17:39:36","新北市蘆洲區永平街34號","121.458465","25.090995","6501400","蘆洲區"
"247020","001-UY","2018/08/16 17:39:25","新北市蘆洲區民族路355號","121.471865","25.0916633333333","6501400","蘆洲區"
"228003","097-TW","2018/08/16 17:39:27","新北市貢寮區仁理村仁和路214號","121.923665","25.0531033333333","6502600","貢寮區"
"228002","663-BX","2018/08/16 17:39:22","新北市貢寮區福隆里外隆林街16-4號","121.957836666667","25.0051883333333","6502600","貢寮區"
"224010","AGQ-8101","2018/08/16 17:37:29","新北市瑞芳區逢甲路204號","121.80686","25.11012","6501200","瑞芳區"
"224006","676-BX","2018/08/16 17:39:30","新北市瑞芳區中山路326號","121.796496666667","25.1101466666667","6501200","瑞芳區"
"224008","285-BY","2018/08/16 17:39:23","新北市瑞芳區瑞柑新村11號","121.829333333333","25.106555","6501200","瑞芳區"
"224007","275-VK","2018/08/16 17:39:19","新北市平溪區新寮里五分寮10-2號","121.799945","25.0740266666667","6501200","瑞芳區"
"224009","273-VK","2018/08/16 17:39:26","新北市瑞芳區金光路376號","121.850476666667","25.1111783333333","6501200","瑞芳區"
"224005","271-BY","2018/08/16 17:39:22","新北市瑞芳區海濱路8-6號","121.83179","25.1261616666667","6501200","瑞芳區"
"227004","642-TC","2018/08/16 17:39:36","新北市雙溪區共和里東榮街52號","121.86629","25.03371","6502500","雙溪區"
"251009","008-UM","2018/08/16 17:39:22","新北市淡水區中正路30號","121.444101666667","25.1691466666667","6501000","淡水區"
"251005","010-UM","2018/08/16 17:39:32","新北市淡水區學府路102巷28號","121.451573333333","25.1713883333333","6501000","淡水區"
"251001","011-UM","2018/08/16 17:39:32","新北市淡水區民權路92巷35-1號","121.462185","25.12668","6501000","淡水區"
"251013","KEA-2871","2018/08/16 17:39:26","新北市淡水區大竹圍2-3號","121.467251666667","25.1954816666667","6501000","淡水區"
"251016","179-VK","2018/08/16 17:39:20","新北市淡水區埤島39-15號","121.452728333333","25.195915","6501000","淡水區"
"251014","180-VK","2018/08/16 17:39:28","新北市淡水區公埔子16-6號","121.480998333333","25.22458","6501000","淡水區"
"251015","181-VK","2018/08/16 17:39:25","新北市淡水區樹林口13-1號","121.481348333333","25.1696733333333","6501000","淡水區"
"251010","413-VK","2018/08/16 17:39:31","新北市淡水區淡海路280巷16號","121.419828333333","25.1896066666667","6501000","淡水區"
"251012","441-VK","2018/08/16 17:39:20","新北市淡水區北新路200巷8號","121.451741666667","25.17968","6501000","淡水區"
"251008","442-VK","2018/08/16 17:39:21","新北市淡水區八勢路73巷17號","121.464603333333","25.1543666666667","6501000","淡水區"
"251004","443-VK","2018/08/16 17:39:28","新北市淡水區中正東路二段163號","121.459245","25.145085","6501000","淡水區"
"251006","561-UM","2018/08/16 17:39:38","新北市淡水區中山北路一段119巷3號","121.442343333333","25.1769766666667","6501000","淡水區"
"251007","577-R6","2018/08/16 17:39:35","新北市淡水區民生路124巷30號","121.464198333333","25.1375866666667","6501000","淡水區"
"251011","650-BX","2018/08/16 17:39:36","新北市淡水區小坪頂23-6號","121.485273333333","25.1558716666667","6501000","淡水區"
"251002","672-BX","2018/08/16 17:39:25","新北市淡水區重建街82號","121.440115","25.1723733333333","6501000","淡水區"
"251003","673-BX","2018/08/16 17:39:33","新北市淡水區中山北路一段69號","121.441941666667","25.1757733333333","6501000","淡水區"
"207003","550-UM","2018/08/16 17:39:38","新北市萬里區龜吼里漁澳路5-1號","121.686636666667","25.194375","6502800","萬里區"
"207004","225-TW","2018/08/16 17:39:17","新北市萬里區中幅里中福路23號","121.682145","25.16526","6502800","萬里區"
"252002","178-VK","2018/08/16 17:39:34","新北市三芝區中正路二段2號","121.504963333333","25.25572","6502100","三芝區"
"252001","292-VK","2018/08/16 17:39:35","新北市三芝區淡金路一段81號","121.502053333333","25.2588133333333","6502100","三芝區"
"237013","252-BX","2018/08/16 17:39:24","新北市三峽區愛國路33-9號","121.374955","24.9329416666667","6500900","三峽區"
"237012","275-BY","2018/08/16 17:39:21","新北市三峽區中山路459巷163-3號","121.348973333333","24.9331516666667","6500900","三峽區"
"237011","KEA-2596","2018/08/16 17:39:31","新北市三峽區中山路459巷163-3號","121.348618333333","24.9329633333333","6500900","三峽區"
"237016","649-BX","2018/08/16 17:39:19","新北市三峽區正義街64號","121.369071666667","24.91846","6500900","三峽區"
"237010","706-TV","2018/08/16 17:39:26","新北市三峽區中山路129號","121.365313333333","24.93604","6500900","三峽區"
"236070","105-UM","2018/08/16 17:39:29","新北市土城區中華路二段2號","121.439005","24.97979","6501300","土城區"
"236030","253-BX","2018/08/16 17:39:18","新北市土城區城林路6巷80號","121.43863","24.9796883333333","6501300","土城區"
"236021","401-BY","2018/08/16 17:39:25","新北市土城區城林路6巷80號","121.438686666667","24.9797783333333","6501300","土城區"
"236055","AAC-216","2018/08/16 17:39:35","新北市土城區城林路6巷80號","121.438476666667","24.979585","6501300","土城區"
"242034","AAC-296","2018/08/16 17:39:20","新北市新莊區新莊路486號","121.446615","25.0333","6500500","新莊區"
"242058","986-R7","2018/08/16 17:39:23","新北市新莊區中正路630號","121.422068333333","25.0288083333333","6500500","新莊區"
"242027","615-BX","2018/08/16 17:39:32","新北市新莊區福壽街111號","121.4579","25.0509633333333","6500500","新莊區"
"242025","613-BX","2018/08/16 17:39:29","新北市新莊區思源路110號","121.460218333333","25.04665","6500500","新莊區"
"242042","566-BX","2018/08/16 17:39:29","新北市新莊區中正路514號","121.429716666667","25.03529","6500500","新莊區"
"242046","497-BY","2018/08/16 17:39:30","新北市新莊區建國一路23號","121.43409","25.0315666666667","6500500","新莊區"
"242053","442-UM","2018/08/16 17:39:26","新北市新莊區新樹路454號","121.431365","25.001075","6500500","新莊區"
"242051","441-UM","2018/08/16 17:39:33","新北市新莊區西盛街216號","121.428043333333","25.0172683333333","6500500","新莊區"
"242056","440-UM","2018/08/16 17:39:35","新北市新莊區新莊路543巷9弄23號","121.44861","25.03195","6500500","新莊區"
"242036","415-TV","2018/08/16 17:39:35","新北市新莊區後港一路121號","121.428968333333","25.027355","6500500","新莊區"
"242007","413-TV","2018/08/16 17:39:23","新北市新莊區福樂街118巷5號","121.457233333333","25.0480833333333","6500500","新莊區"
"242044","400-BY","2018/08/16 17:39:19","新北市新莊區中正路871巷9弄1號","121.418556666667","25.0268233333333","6500500","新莊區"
"242023","362-BY","2018/08/16 17:39:34","新北市新莊區公園路129-1號","121.456911666667","25.0407316666667","6500500","新莊區"
"242061","353-BY","2018/08/16 17:39:20","新北市新莊區瓊林南路103巷8弄19號","121.435293333333","25.0115583333333","6500500","新莊區"
"242009","132-UY","2018/08/16 17:39:23","新北市新莊區昌明街14巷12號","121.457365","25.053335","6500500","新莊區"
"242039","133-UY","2018/08/16 17:39:31","新北市新莊區民全街2號","121.429001666667","25.0211166666667","6500500","新莊區"
"242031","135-UY","2018/08/16 17:39:34","新北市新莊區新泰路382號","121.444033333333","25.0432416666667","6500500","新莊區"
"242048","172-VK","2018/08/16 17:39:30","新北市新莊區萬安街124號","121.420313333333","25.0218","6500500","新莊區"
"242017","175-VK","2018/08/16 17:39:37","新北市新莊區中和街30巷19號","121.449105","25.0439683333333","6500500","新莊區"
"242004","176-VK","2018/08/16 17:39:25","新北市新莊區自立街200號","121.456675","25.0455033333333","6500500","新莊區"
"242015","346-TH","2018/08/16 17:39:34","新北市新莊區新泰路295號","121.44555","25.0407883333333","6500500","新莊區"
"242021","347-TH","2018/08/16 17:39:36","新北市新莊區中華路一段65號","121.452153333333","25.0396633333333","6500500","新莊區"
"242002","349-TH","2018/08/16 17:39:30","新北市新莊區新莊路280號","121.451598333333","25.0338316666667","6500500","新莊區"
"242019","350-TH","2018/08/16 17:39:37","新北市新莊區中港路203號","121.454885","25.0419333333333","6500500","新莊區"
"238015","755-BX","2018/08/16 17:39:36","新北市樹林區啟智街34號","121.4207","24.993235","6500700","樹林區"
"238023","601-UM","2018/08/16 17:39:31","新北市樹林區三福街72號","121.4048","25.0163516666667","6500700","樹林區"
"238019","599-UM","2018/08/16 17:39:34","新北市樹林區太順街25號","121.41925","24.97983","6500700","樹林區"
"238018","571-TV","2018/08/16 17:39:33","新北市樹林區鎮前街124號","121.424933333333","24.99098","6500700","樹林區"
"238022","KEA-2213","2018/08/16 17:39:33","新北市樹林區太順街41號","121.418196666667","24.9793516666667","6500700","樹林區"
"238021","KEA-2539","2018/08/16 17:39:33","新北市樹林區佳園路二段175號","121.389685","24.9563516666667","6500700","樹林區"
"238025","303-VK","2018/08/16 17:39:31","新北市樹林區三俊街14號","121.411213333333","25.015435","6500700","樹林區"
"238017","283-BY","2018/08/16 17:39:35","新北市樹林區三俊街74巷47號","121.41435","25.01306","6500700","樹林區"
"238014","282-BY","2018/08/16 17:39:26","新北市樹林區保安街一段372號","121.417765","24.9988483333333","6500700","樹林區"
"238020","268-VK","2018/08/16 17:39:22","新北市樹林區俊英街234號","121.424733333333","25.01038","6500700","樹林區"
"238026","172-UY","2018/08/16 17:39:19","新北市樹林區新興街11巷10號","121.401496666667","24.9734233333333","6500700","樹林區"
"238016","169-UY","2018/08/16 17:39:27","新北市樹林區復興路274號","121.418","24.9884633333333","6500700","樹林區"
"239007","AAC-297","2018/08/16 17:39:30","新北市鶯歌區永明街97號","121.341513333333","24.9564766666667","6500800","鶯歌區"
"239006","891-R6","2018/08/16 17:39:16","新北市鶯歌區鶯桃路447號","121.332293333333","24.96546","6500800","鶯歌區"
"239008","527-UM","2018/08/16 17:39:30","新北市鶯歌區大湖路405號","121.33101","24.9793383333333","6500800","鶯歌區"
"239005","526-UM","2018/08/16 17:39:27","新北市鶯歌區福隆二街46號","121.324795","24.971545","6500800","鶯歌區"
"239001","417-VK","2018/08/16 17:39:34","新北市鶯歌區中正三路283-12號","121.331198333333","24.9373566666667","6500800","鶯歌區"
"239003","360-BY","2018/08/16 17:39:29","新北市鶯歌區鶯桃路206巷9號","121.337546666667","24.9594516666667","6500800","鶯歌區"
"239002","359-BY","2018/08/16 17:39:22","新北市鶯歌區育才街77號","121.347273333333","24.9545866666667","6500800","鶯歌區"
"239004","193-VK","2018/08/16 17:39:35","新北市鶯歌區三鶯路74號","121.357958333333","24.94289","6500800","鶯歌區"
"221008","489-VK","2018/08/16 17:39:26","新北市汐止區康寧街901號","121.651411666667","25.075035","6501100","汐止區"
"221036","130-UY","2018/08/16 17:39:27","新北市汐止區汐萬路一段256巷1號","121.651891666667","25.074845","6501100","汐止區"
"221015","131-UY","2018/08/16 17:39:28","新北市汐止區汐萬路一段312號","121.650588333333","25.0754066666667","6501100","汐止區"
"221010","269-BY","2018/08/16 17:39:30","新北市汐止區汐萬路一段418巷7號","121.650383333333","25.0780816666667","6501100","汐止區"
"221023","279-VK","2018/08/16 17:39:36","新北市汐止區康寧街901號","121.651683333333","25.07489","6501100","汐止區"
"221021","299-VK","2018/08/16 17:39:25","新北市汐止區康寧街901號","121.65099","25.07521","6501100","汐止區"
"221031","353-TW","2018/08/16 17:39:35","新北市汐止區汐萬路一段256巷1號","121.651721666667","25.0748716666667","6501100","汐止區"
"221025","623-UM","2018/08/16 17:39:27","新北市汐止區康寧街901號","121.651673333333","25.0748916666667","6501100","汐止區"
"221033","647-BX","2018/08/16 17:39:25","新北市汐止區新台五路一段97-1號","121.651116666667","25.061445","6501100","汐止區"
"221018","753-BX","2018/08/16 17:39:22","新北市汐止區汐萬路一段256巷1號","121.651921666667","25.0748833333333","6501100","汐止區"
"242013","280-VK","2018/08/16 17:39:19","新北市新莊區中誠街139號","121.448946666667","25.047495","6500500","新莊區"
"235061","KEA-2875","2018/08/16 17:12:35","新北市中和區和城路一段271巷1號","121.485371666667","24.991735","6500300","中和區"
