"lineid","car","time","location","longitude","latitude","cityid","cityname"
"234038","553-UM","2018/08/16 18:19:22","新北市永和區福和路1號","121.526641666667","25.0100566666667","6500400","永和區"
"234026","9371-KE","2018/08/16 18:19:20","新北市永和區豫溪街28巷22號","121.514973333333","25.0090083333333","6500400","永和區"
"249005","172-UM","2018/08/16 18:19:33","新北市八里區荖阡坑路15-2號","121.400633333333","25.1401666666667","6502300","八里區"
"249001","173-UM","2018/08/16 18:19:31","新北市八里區龍米路一段352號","121.45148","25.13118","6502300","八里區"
"249004","303-UY","2018/08/16 18:19:30","新北市八里區龍米路二段206巷10號","121.432953333333","25.1590666666667","6502300","八里區"
"249002","305-UY","2018/08/16 18:19:27","新北市八里區龍形五街21號","121.450073333333","25.1330733333333","6502300","八里區"
"248014","025-BX","2018/08/16 18:19:28","新北市五股區自強路19巷11號","121.434655","25.073705","6501500","五股區"
"248016","026-BX","2018/08/16 18:19:36","新北市五股區成泰路三段477巷18號","121.449855","25.09891","6501500","五股區"
"248006","077-UY","2018/08/16 18:19:40","新北市五股區中興路一段169號","121.46473","25.073765","6501500","五股區"
"248008","095-VK","2018/08/16 18:19:20","新北市五股區更洲路32巷8弄17號","121.45931","25.0796166666667","6501500","五股區"
"248020","225-UY","2018/08/16 18:19:34","新北市五股區孝義路47巷23號","121.449683333333","25.109735","6501500","五股區"
"248012","247-BX","2018/08/16 18:19:26","新北市五股區御成路33號","121.441041666667","25.0912066666667","6501500","五股區"
"248010","272-BY","2018/08/16 18:19:35","新北市五股區成泰路一段126號","121.435385","25.0741833333333","6501500","五股區"
"248004","677-BX","2018/08/16 18:19:40","新北市五股區成泰路二段156號","121.438305","25.0841033333333","6501500","五股區"
"248002","678-BX","2018/08/16 18:19:24","新北市五股區西雲路66號","121.44363","25.0915266666667","6501500","五股區"
"232011","375-UM","2018/08/16 18:19:33","新北市坪林區坪雙路一段25號","121.711678333333","24.94238","6502000","坪林區"
"244007","080-UY","2018/08/16 18:19:39","新北市林口區林口路113巷6弄1號","121.388683333333","25.0806283333333","6501700","林口區"
"244019","403-UM","2018/08/16 18:19:28","新北市林口區麗園路77號","121.373893333333","25.0691616666667","6501700","林口區"
"244013","KEA-2802","2018/08/16 18:19:30","新北市林口區佳林路101巷15號","121.38686","25.079995","6501700","林口區"
"244009","410-SL","2018/08/16 18:19:29","新北市林口區民生路138號","121.378951666667","25.0880783333333","6501700","林口區"
"244023","483-VK","2018/08/16 18:19:27","新北市林口區仁愛路二段105號","121.384041666667","25.075115","6501700","林口區"
"244017","485-VK","2018/08/16 18:19:22","新北市林口區八德路20巷1號","121.368305","25.0672283333333","6501700","林口區"
"244011","657-BX","2018/08/16 18:19:29","新北市林口區中正路82號","121.394443333333","25.0773716666667","6501700","林口區"
"244025","701-TV","2018/08/16 18:19:39","新北市林口區文化北路一段245-1號","121.357908333333","25.0709416666667","6501700","林口區"
"244021","838-TS","2018/08/16 18:19:34","新北市林口區自強一街65號","121.399703333333","25.0772266666667","6501700","林口區"
"243013","AAD-798","2018/08/16 18:19:35","新北市泰山區工專路65號","121.42216","25.0404383333333","6501600","泰山區"
"222003","016-RS","2018/08/16 18:19:32","新北市深坑區旺耽路67號","121.626261666667","25.003005","6501800","深坑區"
"222002","659-BX","2018/08/16 18:19:25","新北市深坑區雲鄉路62號","121.62179","24.9993983333333","6501800","深坑區"
"231045","001-UM","2018/08/16 18:19:30","新北市新店區安華路28-1號","121.519486666667","24.9607916666667","6500600","新店區"
"231041","002-UM","2018/08/16 18:19:30","新北市新店區安華路28-1號","121.519585","24.9606866666667","6500600","新店區"
"231040","047-UY","2018/08/16 18:19:23","新北市新店區安華路28-1號","121.518955","24.9609416666667","6500600","新店區"
"231044","106-UY","2018/08/16 18:19:31","新北市新店區安華路28-1號","121.519875","24.9607883333333","6500600","新店區"
"231046","107-UY","2018/08/16 18:19:22","新北市新店區直潭七街60號","121.532271666667","24.9397783333333","6500600","新店區"
"231052","108-UY","2018/08/16 18:19:36","新北市新店區安康路一段33-1號","121.532306666667","24.96043","6500600","新店區"
"231054","KEA-2219","2018/08/16 18:19:35","新北市新店區安一路一段1-1號","121.519978333333","24.9611983333333","6500600","新店區"
"231057","256-BX","2018/08/16 18:19:31","新北市新店區安一路一段1-1號","121.519518333333","24.961075","6500600","新店區"
"231042","268-BY","2018/08/16 18:19:39","新北市新店區安華路1-1號","121.519365","24.9602783333333","6500600","新店區"
"231051","278-BY","2018/08/16 18:19:19","新北市新店區安一路一段1-1號","121.519623333333","24.961055","6500600","新店區"
"231050","AAD-862","2018/08/16 18:19:28","新北市新店區安一路一段1-1號","121.519973333333","24.961095","6500600","新店區"
"231058","3713-VJ","2018/08/16 18:19:26","新北市新店區環河路15-1號","121.537803333333","24.9613166666667","6500600","新店區"
"231056","4715-K9","2018/08/16 18:19:37","新北市新店區秀山路14號","121.53271","24.9603216666667","6500600","新店區"
"231067","4772-VM","2018/08/16 18:19:33","新北市新店區安華路28-1號","121.519073333333","24.960665","6500600","新店區"
"231049","513-UM","2018/08/16 18:19:26","新北市新店區安一路一段1-1號","121.519668333333","24.9611933333333","6500600","新店區"
"231061","619-UM","2018/08/16 18:19:28","新北市新店區安華路28-1號","121.519826666667","24.9606166666667","6500600","新店區"
"231064","719-UM","2018/08/16 18:19:20","新北市新店區安一路一段1-1號","121.51947","24.96129","6500600","新店區"
"231062","720-UM","2018/08/16 18:19:30","新北市新店區安一路一段1-1號","121.519001666667","24.961145","6500600","新店區"
"231060","897-TW","2018/08/16 18:19:22","新北市新店區安華路28-1號","121.51955","24.9606266666667","6500600","新店區"
"231055","AKT-0513","2018/08/16 18:19:23","新北市新店區北新路一段91號","121.538803333333","24.9617733333333","6500600","新店區"
"241005","262-UM","2018/08/16 18:19:30","新北市八里區商港路120號","121.39302","25.1498083333333","6500200","三重區"
"241006","AAD-863","2018/08/16 18:19:20","新北市三重區車路頭街135-1號","121.484323333333","25.0760966666667","6500200","三重區"
"235066","003-UY","2018/08/16 18:19:35","新北市中和區中山路二段118號","121.502608333333","25.0038683333333","6500300","中和區"
"235064","005-UY","2018/08/16 18:19:30","新北市中和區圓通路167巷3號","121.497868333333","24.9953116666667","6500300","中和區"
"235063","006-UY","2018/08/16 18:19:21","新北市中和區中正路589巷1號","121.485858333333","24.994305","6500300","中和區"
"235056","096-UM","2018/08/16 18:19:33","新北市中和區中山路二段594號","121.482148333333","25.0052533333333","6500300","中和區"
"235039","097-UM","2018/08/16 18:19:23","新北市中和區景平路263-1號","121.508363333333","24.9930383333333","6500300","中和區"
"235065","098-UM","2018/08/16 18:19:31","新北市中和區莊敬路49巷27號","121.501585","25.006135","6500300","中和區"
"235040","150-BY","2018/08/16 18:19:09","新北市中和區中正路277-7號","121.495178333333","24.9935783333333","6500300","中和區"
"235058","151-BY","2018/08/16 18:19:27","新北市中和區圓通路367巷40號","121.492116666667","24.9883016666667","6500300","中和區"
"235055","183-VK","2018/08/16 18:19:29","新北市中和區連城路583巷17號","121.47906","24.9934033333333","6500300","中和區"
"235038","185-VK","2018/08/16 18:19:32","新北市中和區大智街54號","121.52276","24.99231","6500300","中和區"
"235049","186-VK","2018/08/16 18:19:32","新北市中和區中正路637巷52弄1號","121.485435","24.9933233333333","6500300","中和區"
"235067","255-BX","2018/08/16 18:19:28","新北市中和區和城路一段271巷1號","121.485773333333","24.9918216666667","6500300","中和區"
"235072","301-VK","2018/08/16 18:19:30","新北市中和區錦和路105號","121.490135","24.9952716666667","6500300","中和區"
"235043","352-BY","2018/08/16 18:19:36","新北市中和區中正路165號","121.498268333333","24.9936683333333","6500300","中和區"
"235042","KEA-2878","2018/08/16 18:19:30","新北市中和區大仁街20巷25弄23號","121.518788333333","24.99366","6500300","中和區"
"235050","4979-A6","2018/08/16 18:19:33","新北市中和區中正路12號","121.502898333333","24.9937633333333","6500300","中和區"
"235069","4980-A6","2018/08/16 18:19:38","新北市中和區錦和路91號","121.489986666667","24.9958","6500300","中和區"
"235070","558-UM","2018/08/16 18:19:25","新北市中和區圓通路76號","121.500063333333","24.9972383333333","6500300","中和區"
"235045","565-BX","2018/08/16 18:19:28","新北市中和區景安路200巷1弄2號","121.503761666667","24.9914616666667","6500300","中和區"
"235054","640-BX","2018/08/16 18:19:19","新北市中和區莒光路260-1號","121.467508333333","24.9936833333333","6500300","中和區"
"235060","647-TV","2018/08/16 18:19:29","新北市中和區員山路183號","121.481103333333","24.99708","6500300","中和區"
"235047","732-UM","2018/08/16 18:19:36","新北市中和區南山路250巷2號","121.507668333333","24.9890066666667","6500300","中和區"
"235046","733-UM","2018/08/16 18:19:29","新北市中和區員山路36巷13號","121.484085","24.9909466666667","6500300","中和區"
"235071","783-BX","2018/08/16 18:19:29","新北市中和區員山路36巷16-2號","121.485256666667","24.9912133333333","6500300","中和區"
"235062","800-TS","2018/08/16 18:19:25","新北市中和區景平路999巷2號","121.495386666667","25.005985","6500300","中和區"
"235057","801-TS","2018/08/16 18:19:35","新北市中和區民享街97巷21號","121.475388333333","24.9995083333333","6500300","中和區"
"235041","802-TS","2018/08/16 18:19:32","新北市中和區中正路637巷52弄1號","121.485501666667","24.99343","6500300","中和區"
"235052","805-TS","2018/08/16 18:19:35","新北市中和區捷運路173號","121.505886666667","24.99137","6500300","中和區"
"235048","896-TW","2018/08/16 18:19:28","新北市中和區錦和路350-1號","121.490206666667","24.993585","6500300","中和區"
"235053","900-TW","2018/08/16 18:19:27","新北市中和區中正路637巷52弄1號","121.48547","24.99338","6500300","中和區"
"235051","157-BY","2018/08/16 18:19:32","新北市中和區信義街61號","121.511503333333","24.9882816666667","6500300","中和區"
"235037","AAC-213","2018/08/16 18:19:19","新北市中和區景德街93號","121.515933333333","24.9913916666667","6500300","中和區"
"226004","312-R5","2018/08/16 18:19:39","新北市平溪區靜安路二段78號","121.717808333333","25.022685","6502400","平溪區"
"228003","097-TW","2018/08/16 18:19:27","新北市貢寮區真理里美艷山街61-3號","121.923073333333","25.0698533333333","6502600","貢寮區"
"228001","212-TW","2018/08/16 18:19:31","新北市貢寮區真理里新港街26巷55弄2-1號","121.927386666667","25.0528816666667","6502600","貢寮區"
"228002","663-BX","2018/08/16 18:19:22","新北市貢寮區福連里福興街39-3號","121.99372","25.0133216666667","6502600","貢寮區"
"224006","676-BX","2018/08/16 18:19:30","新北市瑞芳區中正路2號","121.809351666667","25.1071016666667","6501200","瑞芳區"
"224002","639-TC","2018/08/16 18:19:37","新北市瑞芳區三爪子坑路30號","121.81052","25.10623","6501200","瑞芳區"
"224008","285-BY","2018/08/16 18:19:23","新北市瑞芳區逢甲路84號","121.809733333333","25.108705","6501200","瑞芳區"
"224007","275-VK","2018/08/16 18:19:30","新北市瑞芳區大埔路有勝新村7號","121.764843333333","25.1010216666667","6501200","瑞芳區"
"224009","273-VK","2018/08/16 18:19:26","新北市瑞芳區五號路96號","121.854763333333","25.1104633333333","6501200","瑞芳區"
"224005","271-BY","2018/08/16 18:19:22","新北市瑞芳區建基路二段110-1號","121.812008333333","25.132445","6501200","瑞芳區"
"227004","642-TC","2018/08/16 18:19:36","新北市雙溪區共和里中山路2號","121.863788333333","25.033825","6502500","雙溪區"
"227009","400-TW","2018/08/16 18:19:32","新北市雙溪區牡丹里牡丹73號","121.851698333333","25.059365","6502500","雙溪區"
"253005","032-BX","2018/08/16 18:19:37","新北市石門區中央路30號","121.567846666667","25.2922466666667","6502200","石門區"
"253006","295-VK","2018/08/16 18:19:28","新北市石門區老梅路99號","121.546891666667","25.2892666666667","6502200","石門區"
"222001","KEA-2212","2018/08/16 18:19:35","新北市深坑區北深路二段66號","121.61892","25.004425","6501800","深坑區"
"208002","KEA-2872","2018/08/16 18:19:28","新北市金山區清泉里清水路60巷4號","121.63016","25.2358083333333","6502700","金山區"
"208003","665-BX","2018/08/16 18:19:33","新北市金山區民生路160號","121.646903333333","25.2230316666667","6502700","金山區"
"208001","761-BX","2018/08/16 18:19:23","新北市金山區中山路16號","121.641708333333","25.2181633333333","6502700","金山區"
"251005","010-UM","2018/08/16 18:19:32","新北市淡水區水源街一段122巷37號","121.447158333333","25.1704833333333","6501000","淡水區"
"251001","011-UM","2018/08/16 18:19:32","新北市淡水區自強路108-19號","121.461695","25.131375","6501000","淡水區"
"251013","KEA-2871","2018/08/16 18:19:26","新北市淡水區破瓦厝子1-7號","121.475885","25.1994816666667","6501000","淡水區"
"251016","179-VK","2018/08/16 18:19:20","新北市淡水區淡金路三段228巷24號","121.449808333333","25.2049833333333","6501000","淡水區"
"251014","180-VK","2018/08/16 18:19:28","新北市淡水區崙頂13號","121.49158","25.2194083333333","6501000","淡水區"
"251015","181-VK","2018/08/16 18:19:25","新北市淡水區興福寮88巷1號","121.485396666667","25.1650033333333","6501000","淡水區"
"251010","413-VK","2018/08/16 18:19:31","新北市淡水區淡海路199號","121.420335","25.1848033333333","6501000","淡水區"
"251012","441-VK","2018/08/16 18:19:20","新北市淡水區北新路二段77-5號","121.48054","25.1855466666667","6501000","淡水區"
"251008","442-VK","2018/08/16 18:19:21","新北市淡水區水源街二段346巷1弄1號","121.463595","25.1757633333333","6501000","淡水區"
"251004","443-VK","2018/08/16 18:19:39","新北市淡水區民族路118號","121.462846666667","25.13493","6501000","淡水區"
"251006","561-UM","2018/08/16 18:19:18","新北市淡水區新民街76巷47-1號","121.439366666667","25.1780233333333","6501000","淡水區"
"251011","650-BX","2018/08/16 18:19:35","新北市淡水區坪頂路47號","121.45769","25.1624833333333","6501000","淡水區"
"251002","672-BX","2018/08/16 18:19:25","新北市淡水區中正東路一段69號","121.45275","25.162245","6501000","淡水區"
"251003","673-BX","2018/08/16 18:19:32","新北市淡水區北新路135號","121.449351666667","25.1788683333333","6501000","淡水區"
"207003","550-UM","2018/08/16 18:19:38","新北市萬里區野柳里港東路13號","121.687091666667","25.20355","6502800","萬里區"
"207004","225-TW","2018/08/16 18:19:37","新北市萬里區中幅里中福路39-2號","121.67686","25.1658566666667","6502800","萬里區"
"252002","178-VK","2018/08/16 18:19:34","新北市三芝區中山路二段38號","121.502965","25.2551566666667","6502100","三芝區"
"252003","249-BX","2018/08/16 18:19:25","新北市三芝區錫板里南勢崗5-6號","121.479573333333","25.2622783333333","6502100","三芝區"
"252001","292-VK","2018/08/16 18:19:24","新北市三芝區中興街二段2號","121.498421666667","25.256625","6502100","三芝區"
"237004","KEA-2597","2018/08/16 18:19:28","新北市三峽區圳頭38號","121.375986666667","24.8860566666667","6500900","三峽區"
"237007","153-BY","2018/08/16 18:19:27","新北市三峽區中正路二段582號","121.359275","24.90602","6500900","三峽區"
"237009","210-TH","2018/08/16 18:19:36","新北市三峽區大仁路50巷21號","121.365145","24.93835","6500900","三峽區"
"237013","252-BX","2018/08/16 18:19:24","新北市三峽區永安街66號","121.376346666667","24.9303383333333","6500900","三峽區"
"237012","275-BY","2018/08/16 18:19:21","新北市三峽區民生街1巷5-27號","121.378623333333","24.935645","6500900","三峽區"
"237008","302-VK","2018/08/16 18:19:22","新北市三峽區白雞64-2號","121.385455","24.912735","6500900","三峽區"
"237006","5529-G3","2018/08/16 18:19:03","新北市三峽區溪東路235號","121.406568333333","24.932665","6500900","三峽區"
"237011","KEA-2596","2018/08/16 18:19:31","新北市三峽區溪東路89號","121.401415","24.934625","6500900","三峽區"
"237016","649-BX","2018/08/16 18:19:19","新北市三峽區紫微路42-1號","121.422256666667","24.9199083333333","6500900","三峽區"
"237010","706-TV","2018/08/16 18:19:26","新北市三峽區民族街138號","121.369235","24.928625","6500900","三峽區"
"237005","AKY-6261","2018/08/16 18:19:22","新北市三峽區忠孝街25號","121.371056666667","24.9342683333333","6500900","三峽區"
"236070","105-UM","2018/08/16 18:19:29","新北市土城區永豐路149-3號","121.467286666667","24.982575","6501300","土城區"
"236042","107-UM","2018/08/16 18:19:23","新北市土城區樂利街3巷2號","121.448388333333","24.9860966666667","6501300","土城區"
"236078","166-UM","2018/08/16 18:19:26","新北市土城區永寧路32巷28號","121.428446666667","24.960815","6501300","土城區"
"236030","253-BX","2018/08/16 18:19:38","新北市土城區順風路25號","121.440605","24.976775","6501300","土城區"
"236026","269-VK","2018/08/16 18:19:30","新北市土城區承天路20號","121.439543333333","24.963455","6501300","土城區"
"236014","270-VK","2018/08/16 18:19:22","新北市土城區青雲路39巷7號","121.460361666667","24.987475","6501300","土城區"
"236038","271-VK","2018/08/16 18:19:23","新北市土城區青雲路483巷11弄5號","121.459558333333","24.9737883333333","6501300","土城區"
"236021","401-BY","2018/08/16 18:19:25","新北市土城區明德路一段369-2號","121.453243333333","24.9794","6501300","土城區"
"236059","752-BX","2018/08/16 18:19:32","新北市土城區中央路四段436號","121.410748333333","24.95156","6501300","土城區"
"236049","913-UM","2018/08/16 18:19:40","新北市土城區明德路一段355-5號","121.457051666667","24.977495","6501300","土城區"
"236063","915-UM","2018/08/16 18:19:22","新北市土城區延壽路46號","121.47081","24.99165","6501300","土城區"
"236055","AAC-216","2018/08/16 18:19:37","新北市土城區中華路二段92號","121.438205","24.9745416666667","6501300","土城區"
"242058","986-R7","2018/08/16 18:19:33","新北市新莊區中正路806號","121.410103333333","25.0209816666667","6500500","新莊區"
"242027","615-BX","2018/08/16 18:19:24","新北市新莊區幸福路823號","121.445241666667","25.04888","6500500","新莊區"
"242025","613-BX","2018/08/16 18:19:29","新北市新莊區五工三路97號","121.458028333333","25.0653766666667","6500500","新莊區"
"242042","566-BX","2018/08/16 18:19:29","新北市新莊區天祥街69號","121.415873333333","25.0291616666667","6500500","新莊區"
"242046","497-BY","2018/08/16 18:19:34","新北市新莊區中正路793號","121.421518333333","25.028155","6500500","新莊區"
"242053","442-UM","2018/08/16 18:19:26","新北市新莊區西盛街437號","121.427071666667","25.0118566666667","6500500","新莊區"
"242051","441-UM","2018/08/16 18:19:33","新北市新莊區民本街6號","121.42755","25.0198816666667","6500500","新莊區"
"242056","440-UM","2018/08/16 18:19:20","新北市新莊區瓊林路34號","121.448781666667","25.0310216666667","6500500","新莊區"
"242036","415-TV","2018/08/16 18:19:35","新北市新莊區後港一路49巷3弄11號","121.425105","25.026745","6500500","新莊區"
"242044","400-BY","2018/08/16 18:19:39","新北市新莊區天泉二街11號","121.415053333333","25.0249866666667","6500500","新莊區"
"242061","353-BY","2018/08/16 18:19:20","新北市新莊區新樹路69-34號","121.438206666667","25.028835","6500500","新莊區"
"242009","132-UY","2018/08/16 18:19:23","新北市新莊區中華路二段212號","121.452875","25.05253","6500500","新莊區"
"242039","133-UY","2018/08/16 18:19:31","新北市新莊區新樹路206巷4號","121.43359","25.0204966666667","6500500","新莊區"
"242031","135-UY","2018/08/16 18:19:34","新北市新莊區新泰路277巷38號","121.444035","25.0402466666667","6500500","新莊區"
"242011","173-VK","2018/08/16 18:19:27","新北市新莊區中港路583號","121.451251666667","25.0522283333333","6500500","新莊區"
"242004","176-VK","2018/08/16 18:19:25","新北市新莊區中平路82巷1號","121.444986666667","25.04488","6500500","新莊區"
"242015","346-TH","2018/08/16 18:19:34","新北市新莊區中和街126號","121.447501666667","25.0478933333333","6500500","新莊區"
"242021","347-TH","2018/08/16 18:19:36","新北市新莊區新興街14號","121.450731666667","25.0361216666667","6500500","新莊區"
"242002","349-TH","2018/08/16 18:19:39","新北市新莊區碧江街18-7號","121.455403333333","25.034645","6500500","新莊區"
"242019","350-TH","2018/08/16 18:19:17","新北市新莊區新泰路357巷1弄7號","121.442951666667","25.04096","6500500","新莊區"
"238015","755-BX","2018/08/16 18:19:36","新北市樹林區文化街79巷1號","121.416855","24.9890966666667","6500700","樹林區"
"238023","601-UM","2018/08/16 18:19:31","新北市樹林區三福街114號","121.406503333333","25.0162966666667","6500700","樹林區"
"238019","599-UM","2018/08/16 18:19:34","新北市樹林區中華路66號","121.41978","24.9815483333333","6500700","樹林區"
"238018","571-TV","2018/08/16 18:19:33","新北市樹林區保安街一段16巷24-1號","121.428376666667","24.993995","6500700","樹林區"
"238024","5061-A6","2018/08/16 18:19:22","新北市樹林區中山路一段31-1號","121.424783333333","24.992805","6500700","樹林區"
"238022","KEA-2213","2018/08/16 18:19:29","新北市樹林區中山路三段202號","121.386741666667","24.96883","6500700","樹林區"
"238025","303-VK","2018/08/16 18:19:31","新北市樹林區保安街一段189號","121.421131666667","24.9958583333333","6500700","樹林區"
"238017","283-BY","2018/08/16 18:19:35","新北市樹林區保安街二段335號","121.41255","25.0078133333333","6500700","樹林區"
"238014","282-BY","2018/08/16 18:19:26","新北市樹林區保安街一段220號","121.42097","24.9963133333333","6500700","樹林區"
"238020","268-VK","2018/08/16 18:19:22","新北市樹林區三俊街21號","121.411853333333","25.0155633333333","6500700","樹林區"
"238026","172-UY","2018/08/16 18:19:19","新北市樹林區佳園路一段75巷10-11號","121.39592","24.970595","6500700","樹林區"
"238016","169-UY","2018/08/16 18:19:27","新北市樹林區日新街148巷37號","121.419326666667","24.9878816666667","6500700","樹林區"
"239007","AAC-297","2018/08/16 18:19:30","新北市鶯歌區育英街65-1號","121.347151666667","24.952465","6500800","鶯歌區"
"239006","891-R6","2018/08/16 18:19:36","新北市鶯歌區鶯桃路365巷72號","121.331396666667","24.962315","6500800","鶯歌區"
"239008","527-UM","2018/08/16 18:19:30","新北市鶯歌區國際一路179號","121.336233333333","24.9765316666667","6500800","鶯歌區"
"239005","526-UM","2018/08/16 18:19:27","新北市鶯歌區鶯桃路668巷73號","121.329936666667","24.9718066666667","6500800","鶯歌區"
"239001","417-VK","2018/08/16 18:19:34","新北市鶯歌區國中街142號","121.339168333333","24.93975","6500800","鶯歌區"
"239003","360-BY","2018/08/16 18:19:29","新北市鶯歌區福安街58號","121.335591666667","24.9651916666667","6500800","鶯歌區"
"239002","359-BY","2018/08/16 18:19:22","新北市鶯歌區中山路329巷6弄8號","121.343628333333","24.95603","6500800","鶯歌區"
"221008","489-VK","2018/08/16 18:19:27","新北市汐止區汐萬路一段256巷3號","121.652426666667","25.074625","6501100","汐止區"
"221036","130-UY","2018/08/16 18:19:26","新北市汐止區長興街一段50號","121.670596666667","25.0793683333333","6501100","汐止區"
"221015","131-UY","2018/08/16 18:19:28","新北市汐止區鄉友街54號","121.669336666667","25.08192","6501100","汐止區"
"221010","269-BY","2018/08/16 18:19:30","新北市汐止區汐萬路二段345號","121.644518333333","25.0910016666667","6501100","汐止區"
"221012","278-VK","2018/08/16 18:19:21","新北市汐止區保長路35巷13號","121.673185","25.080025","6501100","汐止區"
"221023","279-VK","2018/08/16 18:19:36","新北市汐止區中興路240號","121.629595","25.068035","6501100","汐止區"
"221032","280-BY","2018/08/16 18:19:36","新北市汐止區民權街二段109巷22號","121.619755","25.04656","6501100","汐止區"
"221027","281-BY","2018/08/16 18:19:27","新北市汐止區和平街7號","121.66333","25.0707","6501100","汐止區"
"221029","298-VK","2018/08/16 18:19:29","新北市汐止區汐萬路一段256巷1號","121.651903333333","25.0748566666667","6501100","汐止區"
"221021","299-VK","2018/08/16 18:19:25","新北市汐止區連興街120號","121.653688333333","25.0624583333333","6501100","汐止區"
"221031","353-TW","2018/08/16 18:19:35","新北市汐止區光復街7巷13號","121.639596666667","25.0590583333333","6501100","汐止區"
"221002","129-UY","2018/08/16 18:19:27","新北市汐止區福德一路201巷30號","121.635948333333","25.0649883333333","6501100","汐止區"
"221035","622-UM","2018/08/16 18:19:28","新北市汐止區大同路二段187巷8弄1號","121.6526","25.0656666666667","6501100","汐止區"
"221025","623-UM","2018/08/16 18:19:27","新北市汐止區勤進路12巷31號","121.6592","25.06255","6501100","汐止區"
"221038","646-BX","2018/08/16 18:19:36","新北市汐止區仁愛路311號","121.664643333333","25.0674083333333","6501100","汐止區"
"221033","647-BX","2018/08/16 18:19:25","新北市汐止區宜興街78號","121.623188333333","25.042765","6501100","汐止區"
"221018","753-BX","2018/08/16 18:19:22","新北市汐止區茄苳路108號","121.66778","25.0704516666667","6501100","汐止區"
"235068","KEA-2873","2018/08/16 18:19:11","新北市中和區員山路36巷16-3號","121.485233333333","24.9912083333333","6500300","中和區"
"235061","KEA-2875","2018/08/16 18:19:33","新北市中和區國光街215巷53號","121.46743","25.000025","6500300","中和區"
