"lineid","car","time","location","longitude","latitude","cityid","cityname"
"234046","148-BY","2018/08/16 18:37:28","新北市永和區永元路126號","121.522745","25.0029916666667","6500400","永和區"
"234081","298-R6","2018/08/16 18:37:36","新北市永和區林森路75號","121.524036666667","25.00393","6500400","永和區"
"234064","337-UY","2018/08/16 18:37:26","新北市永和區福和路1號","121.526715","25.01005","6500400","永和區"
"234086","338-UY","2018/08/16 18:37:29","新北市永和區中正路281號","121.517598333333","25.0012433333333","6500400","永和區"
"234038","553-UM","2018/08/16 18:37:22","新北市永和區福和路1號","121.526661666667","25.00996","6500400","永和區"
"234017","745-BX","2018/08/16 18:37:28","新北市永和區福和路1號","121.526308333333","25.0095833333333","6500400","永和區"
"234030","746-BX","2018/08/16 18:37:37","新北市永和區環河東路三段54號","121.52686","25.0062183333333","6500400","永和區"
"234013","KEA-2591","2018/08/16 18:37:22","新北市永和區保福路二段88巷29號","121.51202","25.0137533333333","6500400","永和區"
"234026","9371-KE","2018/08/16 18:37:20","新北市永和區永貞路417巷7號","121.506946666667","25.009165","6500400","永和區"
"234011","9373-KE","2018/08/16 18:37:26","新北市永和區文化路9巷22弄30號","121.51454","25.0146116666667","6500400","永和區"
"249005","172-UM","2018/08/16 18:37:33","新北市八里區中華路三段232號","121.388468333333","25.12477","6502300","八里區"
"249001","173-UM","2018/08/16 18:37:31","新北市八里區龍米路一段326號","121.451596666667","25.1303683333333","6502300","八里區"
"249004","303-UY","2018/08/16 18:37:30","新北市八里區觀海大道21號","121.42946","25.1600733333333","6502300","八里區"
"248014","025-BX","2018/08/16 18:37:28","新北市五股區蓬萊路24號","121.434143333333","25.0798116666667","6501500","五股區"
"248016","026-BX","2018/08/16 18:37:36","新北市五股區凌雲路一段149巷7號","121.448935","25.1016516666667","6501500","五股區"
"248008","095-VK","2018/08/16 18:37:20","新北市五股區中興路一段146號","121.46474","25.0739616666667","6501500","五股區"
"248020","225-UY","2018/08/16 18:36:26","新北市五股區孝義路87號","121.444471666667","25.1199733333333","6501500","五股區"
"248012","247-BX","2018/08/16 18:37:26","新北市五股區成泰路三段2巷1-12號","121.441376666667","25.0867216666667","6501500","五股區"
"248010","272-BY","2018/08/16 18:37:35","新北市五股區水碓一路1號","121.432916666667","25.0726916666667","6501500","五股區"
"248004","677-BX","2018/08/16 18:37:20","新北市五股區六合街19號","121.431123333333","25.0886133333333","6501500","五股區"
"248002","678-BX","2018/08/16 18:37:24","新北市五股區西雲路197號","121.447865","25.0959383333333","6501500","五股區"
"234023","9380-KE","2018/08/16 18:37:33","新北市永和區福和路22號","121.524071666667","25.00849","6500400","永和區"
"234077","969-R7","2018/08/16 18:37:38","新北市永和區福和路247號","121.517986666667","25.007445","6500400","永和區"
"234067","AAC-212","2018/08/16 18:37:35","新北市永和區福和路48號","121.523598333333","25.0082183333333","6500400","永和區"
"234003","AAC-295","2018/08/16 18:37:38","新北市永和區福和路1號","121.526468333333","25.0100516666667","6500400","永和區"
"244007","080-UY","2018/08/16 18:37:39","新北市林口區後湖2-16號","121.389095","25.0966266666667","6501700","林口區"
"244019","403-UM","2018/08/16 18:37:28","新北市林口區忠孝路648號","121.37913","25.06853","6501700","林口區"
"244013","KEA-2802","2018/08/16 18:37:30","新北市林口區中正路514巷25號","121.382066666667","25.07791","6501700","林口區"
"244009","410-SL","2018/08/16 18:37:29","新北市林口區竹林路326巷1號","121.391243333333","25.0826316666667","6501700","林口區"
"244023","483-VK","2018/08/16 18:37:27","新北市林口區信義路126號","121.380488333333","25.079455","6501700","林口區"
"244017","485-VK","2018/08/16 18:37:22","新北市林口區文化二路一段22號","121.364825","25.067305","6501700","林口區"
"244011","657-BX","2018/08/16 18:37:29","新北市林口區興林路17巷5弄1號","121.390528333333","25.077045","6501700","林口區"
"244025","701-TV","2018/08/16 18:37:20","新北市林口區南勢四街329號","121.356688333333","25.0749083333333","6501700","林口區"
"244021","838-TS","2018/08/16 18:37:34","新北市林口區自強二街12號","121.397686666667","25.0782516666667","6501700","林口區"
"243013","AAD-798","2018/08/16 18:26:28","新北市泰山區明志路三段206巷3號","121.423298333333","25.03793","6501600","泰山區"
"243011","KEA-2215","2018/08/16 18:37:28","新北市泰山區黎明路25號","121.42198","25.060705","6501600","泰山區"
"243010","KEA-2216","2018/08/16 18:37:31","新北市泰山區黎明路25號","121.422308333333","25.061355","6501600","泰山區"
"243012","646-TV","2018/08/16 18:37:26","新北市泰山區泰林路二段202號","121.433366666667","25.0612533333333","6501600","泰山區"
"222003","016-RS","2018/08/16 18:37:32","新北市深坑區翠谷街81巷8號","121.628018333333","25.0093233333333","6501800","深坑區"
"222002","659-BX","2018/08/16 18:37:25","新北市深坑區雲鄉路1號","121.621046666667","24.9996516666667","6501800","深坑區"
"231045","001-UM","2018/08/16 18:37:30","新北市新店區安華路28-1號","121.519448333333","24.9608083333333","6500600","新店區"
"231041","002-UM","2018/08/16 18:37:30","新北市新店區安華路28-1號","121.519745","24.960675","6500600","新店區"
"231059","046-UY","2018/08/16 18:37:34","新北市新店區安華路28-1號","121.519583333333","24.96094","6500600","新店區"
"231040","047-UY","2018/08/16 18:37:23","新北市新店區安一路一段1-1號","121.518905","24.9609733333333","6500600","新店區"
"231044","106-UY","2018/08/16 18:37:31","新北市新店區寶橋路217巷5號","121.547818333333","24.97806","6500600","新店區"
"231046","107-UY","2018/08/16 18:37:22","新北市新店區直潭二街1號","121.535501666667","24.9432033333333","6500600","新店區"
"231052","108-UY","2018/08/16 18:37:36","新北市新店區永興路30號","121.54384","24.93904","6500600","新店區"
"231047","187-VK","2018/08/16 18:37:29","新北市新店區安一路一段1-1號","121.519843333333","24.961085","6500600","新店區"
"231054","KEA-2219","2018/08/16 18:37:35","新北市新店區安一路一段1-1號","121.52005","24.9612016666667","6500600","新店區"
"231057","256-BX","2018/08/16 18:37:31","新北市新店區新烏路一段215號","121.54855","24.9313483333333","6500600","新店區"
"231042","268-BY","2018/08/16 18:37:39","新北市新店區安華路1-1號","121.519338333333","24.96047","6500600","新店區"
"231051","278-BY","2018/08/16 18:37:19","新北市新店區中央路151號","121.529343333333","24.9720483333333","6500600","新店區"
"231050","AAD-862","2018/08/16 18:37:28","新北市新店區安華路28-1號","121.519556666667","24.9609783333333","6500600","新店區"
"231058","3713-VJ","2018/08/16 18:37:26","新北市新店區北宜路一段168號","121.54039","24.952915","6500600","新店區"
"231066","4716-K9","2018/08/16 18:37:34","新北市新店區安一路一段1-1號","121.519315","24.9612233333333","6500600","新店區"
"231056","4715-K9","2018/08/16 18:37:37","新北市新店區自立街45巷1號","121.537101666667","24.9799516666667","6500600","新店區"
"231067","4772-VM","2018/08/16 18:37:33","新北市新店區安華路1-1號","121.519105","24.960585","6500600","新店區"
"231049","513-UM","2018/08/16 18:37:26","新北市新店區安華路28-1號","121.519861666667","24.9610483333333","6500600","新店區"
"231061","619-UM","2018/08/16 18:36:48","新北市新店區安華路28-1號","121.519498333333","24.960685","6500600","新店區"
"231063","641-BX","2018/08/16 18:37:21","新北市新店區安華路28-1號","121.51956","24.9605533333333","6500600","新店區"
"231064","719-UM","2018/08/16 18:37:20","新北市新店區安一路一段1-1號","121.519478333333","24.9614316666667","6500600","新店區"
"231062","720-UM","2018/08/16 18:37:29","新北市新店區安一路一段1-1號","121.519065","24.96118","6500600","新店區"
"231060","897-TW","2018/08/16 18:37:22","新北市新店區安華路28-1號","121.519533333333","24.960575","6500600","新店區"
"231055","AKT-0513","2018/08/16 18:37:23","新北市新店區中華路47巷2弄2號","121.53974","24.9676333333333","6500600","新店區"
"241006","AAD-863","2018/08/16 18:37:20","新北市三重區車路頭街135-1號","121.484395","25.0761066666667","6500200","三重區"
"235066","003-UY","2018/08/16 18:37:35","新北市中和區水源路7巷15號","121.503778333333","25.0037716666667","6500300","中和區"
"235064","005-UY","2018/08/16 18:37:28","新北市中和區連城路110號","121.496258333333","24.9995766666667","6500300","中和區"
"235063","006-UY","2018/08/16 18:37:21","新北市中和區建一路198號","121.487765","24.9964066666667","6500300","中和區"
"235056","096-UM","2018/08/16 18:37:33","新北市中和區員山路611巷1號","121.47785","25.0112916666667","6500300","中和區"
"235039","097-UM","2018/08/16 18:37:23","新北市中和區宜安路18巷15號","121.514143333333","24.9963366666667","6500300","中和區"
"235065","098-UM","2018/08/16 18:37:31","新北市中和區中山路二段2巷45弄44號","121.501661666667","25.0063133333333","6500300","中和區"
"235040","150-BY","2018/08/16 18:37:29","新北市中和區安平路38號","121.510025","24.9952266666667","6500300","中和區"
"235058","151-BY","2018/08/16 18:37:27","新北市中和區圓通路296巷1號","121.487411666667","24.9881616666667","6500300","中和區"
"235055","183-VK","2018/08/16 18:37:29","新北市板橋區民族路276巷44號","121.469278333333","25.0057083333333","6500300","中和區"
"235038","185-VK","2018/08/16 18:37:32","新北市中和區立人街14巷4號","121.519475","24.9948333333333","6500300","中和區"
"235049","186-VK","2018/08/16 18:37:32","新北市中和區景平路514號","121.503563333333","24.99384","6500300","中和區"
"235067","255-BX","2018/08/16 18:37:28","新北市中和區新生街28號","121.483191666667","25.0039616666667","6500300","中和區"
"235044","293-VK","2018/08/16 18:37:40","新北市中和區景安路220巷1弄4號","121.503195","24.9907266666667","6500300","中和區"
"235072","301-VK","2018/08/16 18:37:30","新北市中和區連城路4號","121.499121666667","25.0024216666667","6500300","中和區"
"235043","352-BY","2018/08/16 18:37:36","新北市中和區景平路189號","121.511448333333","24.9925766666667","6500300","中和區"
"235042","KEA-2878","2018/08/16 18:37:30","新北市中和區成功路97巷5弄17號","121.526408333333","24.99223","6500300","中和區"
"235050","4979-A6","2018/08/16 18:37:33","新北市中和區忠孝街121號","121.512461666667","24.987975","6500300","中和區"
"235069","4980-A6","2018/08/16 18:37:38","新北市中和區連城路99巷70號","121.497318333333","24.998305","6500300","中和區"
"235070","558-UM","2018/08/16 18:37:25","新北市中和區南山路24號","121.502026666667","24.99827","6500300","中和區"
"235045","565-BX","2018/08/16 18:37:28","新北市中和區南山路236巷32號","121.505501666667","24.98858","6500300","中和區"
"235054","640-BX","2018/08/16 18:37:19","新北市中和區民享街95-5號","121.474928333333","24.9999816666667","6500300","中和區"
"235060","647-TV","2018/08/16 18:37:29","新北市中和區中山路二段577號","121.480413333333","25.0056083333333","6500300","中和區"
"235047","732-UM","2018/08/16 18:37:35","新北市中和區南山路543號","121.507968333333","24.9867216666667","6500300","中和區"
"235046","733-UM","2018/08/16 18:37:29","新北市中和區復興路4號","121.50624","24.9898166666667","6500300","中和區"
"235071","783-BX","2018/08/16 18:37:29","新北市中和區員山路36巷16-2號","121.485285","24.991185","6500300","中和區"
"235062","800-TS","2018/08/16 18:37:25","新北市中和區景平路726-2號","121.496695","25.0035933333333","6500300","中和區"
"235057","801-TS","2018/08/16 18:37:35","新北市中和區員山路327巷46號","121.48048","25.0017366666667","6500300","中和區"
"235041","802-TS","2018/08/16 18:37:32","新北市中和區宜安路156號","121.509181666667","24.9987566666667","6500300","中和區"
"235052","805-TS","2018/08/16 18:37:34","新北市中和區興南路三段16號","121.497311666667","24.9796083333333","6500300","中和區"
"235048","896-TW","2018/08/16 18:37:28","新北市中和區南山路150號","121.50416","24.9921233333333","6500300","中和區"
"235053","900-TW","2018/08/16 18:37:27","新北市中和區民享街463號","121.470025","24.9927783333333","6500300","中和區"
"235051","157-BY","2018/08/16 18:37:23","新北市中和區興南路二段114巷10弄38號","121.504025","24.9850983333333","6500300","中和區"
"235037","AAC-213","2018/08/16 18:37:39","新北市中和區景德街93號","121.515953333333","24.9913233333333","6500300","中和區"
"220086","073-UY","2018/08/16 18:37:37","新北市板橋區南雅西路二段192巷3號","121.452026666667","25.01445","6500100","板橋區"
"220069","AAD-861","2018/08/16 18:37:40","新北市板橋區華東街1-10號","121.448333333333","24.9950633333333","6500100","板橋區"
"226004","312-R5","2018/08/16 18:37:39","新北市平溪區平溪里三坑路30號","121.736461666667","25.029295","6502400","平溪區"
"228003","097-TW","2018/08/16 18:37:30","新北市貢寮區和美里龍洞街42號","121.912758333333","25.1130966666667","6502600","貢寮區"
"228001","212-TW","2018/08/16 18:37:31","新北市貢寮區仁理村研海街12-1號","121.923868333333","25.0516366666667","6502600","貢寮區"
"228002","663-BX","2018/08/16 18:37:22","新北市貢寮區福隆里東興街6-6號","121.951335","25.02112","6502600","貢寮區"
"224006","676-BX","2018/08/16 18:37:37","新北市瑞芳區明燈路三段55號","121.806046666667","25.1081416666667","6501200","瑞芳區"
"224002","639-TC","2018/08/16 18:37:37","新北市瑞芳區三爪子坑路3號","121.814415","25.1078966666667","6501200","瑞芳區"
"224008","285-BY","2018/08/16 18:37:35","新北市瑞芳區岳王路31號","121.807653333333","25.11113","6501200","瑞芳區"
"224007","275-VK","2018/08/16 18:37:39","新北市瑞芳區大埔路117號","121.763491666667","25.1010133333333","6501200","瑞芳區"
"224009","273-VK","2018/08/16 18:37:26","新北市瑞芳區祈堂路12號","121.858386666667","25.112595","6501200","瑞芳區"
"224005","271-BY","2018/08/16 18:37:28","新北市瑞芳區永龍新村56號","121.818733333333","25.119295","6501200","瑞芳區"
"227004","642-TC","2018/08/16 18:37:16","新北市雙溪區魚行里坤溪3-5號","121.876195","25.0208516666667","6502500","雙溪區"
"227009","400-TW","2018/08/16 18:37:32","新北市雙溪區牡丹里下坑11號","121.851006666667","25.05618","6502500","雙溪區"
"253005","032-BX","2018/08/16 18:37:37","新北市石門區石門街22號","121.566145","25.29063","6502200","石門區"
"253006","295-VK","2018/08/16 18:37:33","新北市石門區楓林28-1號","121.54223","25.2893433333333","6502200","石門區"
"222001","KEA-2212","2018/08/16 18:37:35","新北市深坑區北深路一段100號","121.63567","25.01065","6501800","深坑區"
"208002","KEA-2872","2018/08/16 18:37:28","新北市金山區龜子山路30號","121.639291666667","25.21814","6502700","金山區"
"208003","665-BX","2018/08/16 18:37:32","新北市金山區中山路254號","121.63563","25.2239083333333","6502700","金山區"
"208001","761-BX","2018/08/16 18:37:23","新北市金山區文化三路28號","121.635716666667","25.2246283333333","6502700","金山區"
"251005","010-UM","2018/08/16 18:37:32","新北市淡水區清水街246號","121.440596666667","25.172135","6501000","淡水區"
"251001","011-UM","2018/08/16 18:37:32","新北市淡水區自強路415巷2號","121.465416666667","25.13435","6501000","淡水區"
"251013","KEA-2871","2018/08/16 18:37:25","新北市三芝區興華里田心子34號","121.486081666667","25.2044366666667","6501000","淡水區"
"251016","179-VK","2018/08/16 18:37:39","新北市淡水區下圭柔山76-12號","121.443708333333","25.2056516666667","6501000","淡水區"
"251014","180-VK","2018/08/16 18:37:28","新北市淡水區崙頂12-2號","121.497901666667","25.21635","6501000","淡水區"
"251015","181-VK","2018/08/16 18:37:25","新北市淡水區興福寮66巷579號","121.484345","25.163425","6501000","淡水區"
"251010","413-VK","2018/08/16 18:37:31","新北市淡水區沙崙路124號","121.423381666667","25.1828466666667","6501000","淡水區"
"251012","441-VK","2018/08/16 18:37:20","新北市淡水區北新路121號","121.448963333333","25.1786216666667","6501000","淡水區"
"251008","442-VK","2018/08/16 18:37:21","新北市淡水區北投子18號","121.4539","25.1840183333333","6501000","淡水區"
"251004","443-VK","2018/08/16 18:37:28","新北市淡水區大同路113巷5號","121.463701666667","25.1412566666667","6501000","淡水區"
"251006","561-UM","2018/08/16 18:37:18","新北市淡水區中山北路二段227號","121.444275","25.1860033333333","6501000","淡水區"
"251007","577-R6","2018/08/16 18:37:35","新北市淡水區淡金路二段30號","121.45219","25.1810316666667","6501000","淡水區"
"251011","650-BX","2018/08/16 18:37:35","新北市淡水區鄧公路18號","121.450801666667","25.16956","6501000","淡水區"
"251002","672-BX","2018/08/16 18:37:33","新北市淡水區中正東路一段3巷14弄1號","121.450815","25.1641716666667","6501000","淡水區"
"251003","673-BX","2018/08/16 18:37:32","新北市淡水區北新路69巷26號","121.446731666667","25.1800733333333","6501000","淡水區"
"207003","550-UM","2018/08/16 18:37:38","新北市萬里區野柳里港東路63號","121.687723333333","25.203875","6502800","萬里區"
"207004","225-TW","2018/08/16 18:37:37","新北市萬里區萬里里獅頭路12-4號","121.693093333333","25.1794666666667","6502800","萬里區"
"252002","178-VK","2018/08/16 18:37:34","新北市三芝區民生街54巷16號","121.503926666667","25.25528","6502100","三芝區"
"252003","249-BX","2018/08/16 18:37:25","新北市三芝區後厝里土地公坑54-17號","121.465976666667","25.24962","6502100","三芝區"
"252001","292-VK","2018/08/16 18:37:24","新北市三芝區中興街二段121號","121.49947","25.2549316666667","6502100","三芝區"
"237004","KEA-2597","2018/08/16 18:37:28","新北市三峽區五寮22號","121.374828333333","24.8703616666667","6500900","三峽區"
"237007","153-BY","2018/08/16 18:37:27","新北市三峽區中正路二段540號","121.3604","24.9062633333333","6500900","三峽區"
"237009","210-TH","2018/08/16 18:37:36","新北市三峽區大同路249號","121.366673333333","24.9260666666667","6500900","三峽區"
"237013","252-BX","2018/08/16 18:37:24","新北市三峽區光明路69巷25號","121.376736666667","24.92925","6500900","三峽區"
"237012","275-BY","2018/08/16 18:37:21","新北市三峽區三樹路214巷11號","121.379943333333","24.941645","6500900","三峽區"
"237008","302-VK","2018/08/16 18:37:22","新北市三峽區白雞68-5號","121.395661666667","24.9084866666667","6500900","三峽區"
"237006","5529-G3","2018/08/16 18:37:23","新北市三峽區溪東路371巷4弄27號","121.412946666667","24.929485","6500900","三峽區"
"237011","KEA-2596","2018/08/16 18:37:31","新北市三峽區溪東路394號","121.414138333333","24.9278416666667","6500900","三峽區"
"237016","649-BX","2018/08/16 18:37:19","新北市三峽區竹崙路49號","121.430366666667","24.9224383333333","6500900","三峽區"
"237010","706-TV","2018/08/16 18:37:26","新北市三峽區復興路489號","121.361265","24.938445","6500900","三峽區"
"237005","AKY-6261","2018/08/16 18:37:22","新北市三峽區民生街102號","121.373788333333","24.9355016666667","6500900","三峽區"
"236070","105-UM","2018/08/16 18:37:29","新北市土城區永豐路157巷29弄6-1號","121.468538333333","24.9814616666667","6501300","土城區"
"236042","107-UM","2018/08/16 18:37:23","新北市土城區學成路108巷11號","121.450105","24.9897","6501300","土城區"
"236078","166-UM","2018/08/16 18:37:26","新北市土城區中央路四段3號","121.42559","24.9629316666667","6501300","土城區"
"236030","253-BX","2018/08/16 18:37:39","新北市土城區福仁街64號","121.439416666667","24.9744633333333","6501300","土城區"
"236026","269-VK","2018/08/16 18:37:33","新北市土城區千歲路28巷2號","121.441473333333","24.968745","6501300","土城區"
"236014","270-VK","2018/08/16 18:37:22","新北市土城區清水路207巷5號","121.460031666667","24.9820833333333","6501300","土城區"
"236038","271-VK","2018/08/16 18:37:26","新北市土城區青山路3巷1號","121.461095","24.9769383333333","6501300","土城區"
"236021","401-BY","2018/08/16 18:37:25","新北市土城區延吉街262號","121.466111666667","24.9844633333333","6501300","土城區"
"236059","752-BX","2018/08/16 18:37:32","新北市土城區中央路三段283號","121.426326666667","24.9632633333333","6501300","土城區"
"236049","913-UM","2018/08/16 18:37:35","新北市土城區明德路一段71號","121.465575","24.9833283333333","6501300","土城區"
"236063","915-UM","2018/08/16 18:37:25","新北市土城區延和路125巷77號","121.469113333333","24.9910983333333","6501300","土城區"
"236055","AAC-216","2018/08/16 18:37:35","新北市土城區中華路一段59號","121.445495","24.9880616666667","6501300","土城區"
"242058","986-R7","2018/08/16 18:37:23","新北市新莊區中正路887-17號","121.416126666667","25.0241666666667","6500500","新莊區"
"242025","613-BX","2018/08/16 18:37:29","新北市新莊區新泰路528號","121.441941666667","25.04704","6500500","新莊區"
"242051","441-UM","2018/08/16 18:37:33","新北市樹林區環河路250-1號","121.423118333333","24.9753083333333","6500500","新莊區"
"242044","400-BY","2018/08/16 18:37:39","新北市新莊區中正路887-33號","121.415895","25.0240233333333","6500500","新莊區"
"242009","132-UY","2018/08/16 18:37:23","新北市新莊區中平路108號","121.444861666667","25.0457133333333","6500500","新莊區"
"242002","349-TH","2018/08/16 18:37:19","新北市新莊區環河路636-7號","121.437413333333","25.0117133333333","6500500","新莊區"
"238023","601-UM","2018/08/16 18:37:31","新北市樹林區三福街114號","121.406416666667","25.0163233333333","6500700","樹林區"
"238019","599-UM","2018/08/16 18:37:34","新北市樹林區中華路190-16號","121.411713333333","24.98062","6500700","樹林區"
"238018","571-TV","2018/08/16 18:37:33","新北市樹林區鎮前街39號","121.425516666667","24.991925","6500700","樹林區"
"238022","KEA-2213","2018/08/16 18:37:29","新北市樹林區中華路190-8號","121.411331666667","24.9805266666667","6500700","樹林區"
"238025","303-VK","2018/08/16 18:37:31","新北市樹林區八德街814號","121.394841666667","24.9687583333333","6500700","樹林區"
"238020","268-VK","2018/08/16 18:37:22","新北市樹林區俊安街22號","121.419221666667","25.0138766666667","6500700","樹林區"
"238026","172-UY","2018/08/16 18:37:19","新北市樹林區八德街1012號","121.391353333333","24.9684616666667","6500700","樹林區"
"238016","169-UY","2018/08/16 18:37:27","新北市樹林區文化街28號","121.41932","24.9877","6500700","樹林區"
"239007","AAC-297","2018/08/16 18:37:30","新北市鶯歌區國慶街26號","121.349248333333","24.9559216666667","6500800","鶯歌區"
"239008","527-UM","2018/08/16 18:37:30","新北市鶯歌區國際一路179號","121.336235","24.9764966666667","6500800","鶯歌區"
"239005","526-UM","2018/08/16 18:37:27","新北市鶯歌區鳳吉三街2號","121.325821666667","24.9727866666667","6500800","鶯歌區"
"239001","417-VK","2018/08/16 18:37:34","新北市鶯歌區國中街171-1號","121.337756666667","24.9388166666667","6500800","鶯歌區"
"239003","360-BY","2018/08/16 18:37:29","新北市鶯歌區永和二街28號","121.336583333333","24.972005","6500800","鶯歌區"
"239002","359-BY","2018/08/16 18:37:22","新北市鶯歌區中正一路107號","121.35217","24.95535","6500800","鶯歌區"
"239004","193-VK","2018/08/16 18:37:35","新北市鶯歌區尖山路240巷30號","121.342428333333","24.9475583333333","6500800","鶯歌區"
"221008","489-VK","2018/08/16 18:37:26","新北市汐止區康寧街901號","121.651398333333","25.0750583333333","6501100","汐止區"
"221036","130-UY","2018/08/16 18:37:26","新北市汐止區忠孝東路340號","121.665111666667","25.0696716666667","6501100","汐止區"
"221015","131-UY","2018/08/16 18:37:28","新北市汐止區鄉長路一段55巷6號","121.665368333333","25.07614","6501100","汐止區"
"221010","269-BY","2018/08/16 18:37:30","新北市汐止區汐萬路三段223-1號","121.643928333333","25.103165","6501100","汐止區"
"221012","278-VK","2018/08/16 18:37:41","新北市汐止區長興街一段34號","121.670085","25.07903","6501100","汐止區"
"221023","279-VK","2018/08/16 18:37:36","新北市汐止區康寧街513號","121.633163333333","25.06861","6501100","汐止區"
"221032","280-BY","2018/08/16 18:37:36","新北市汐止區福山街58巷11號","121.617981666667","25.0460533333333","6501100","汐止區"
"221027","281-BY","2018/08/16 18:37:34","新北市汐止區禮門街1號","121.656706666667","25.0671883333333","6501100","汐止區"
"221029","298-VK","2018/08/16 18:37:29","新北市汐止區樟樹一路150號","121.642286666667","25.0651066666667","6501100","汐止區"
"221021","299-VK","2018/08/16 18:37:25","新北市汐止區新興路44號","121.657095","25.06319","6501100","汐止區"
"221031","353-TW","2018/08/16 18:37:35","新北市汐止區福德一路270號","121.63219","25.0639866666667","6501100","汐止區"
"221002","129-UY","2018/08/16 18:37:27","新北市汐止區福德一路260號","121.633196666667","25.0644333333333","6501100","汐止區"
"221035","622-UM","2018/08/16 18:37:28","新北市汐止區大同路二段101號","121.6497","25.063055","6501100","汐止區"
"221025","623-UM","2018/08/16 18:37:27","新北市汐止區仁愛路121巷3號","121.662813333333","25.06406","6501100","汐止區"
"221038","646-BX","2018/08/16 18:37:36","新北市汐止區汐萬路一段310號","121.650443333333","25.0747166666667","6501100","汐止區"
"221033","647-BX","2018/08/16 18:37:25","新北市汐止區南勢街1巷1號","121.627068333333","25.0374583333333","6501100","汐止區"
"221018","753-BX","2018/08/16 18:37:22","新北市汐止區茄苳路250巷23號","121.671856666667","25.0676366666667","6501100","汐止區"
"220079","145-BY","2018/08/16 18:37:36","新北市板橋區大觀路一段35巷2號","121.448993333333","25.0084233333333","6500100","板橋區"
"220082","610-BX","2018/08/16 18:37:27","新北市板橋區大觀路二段431-1號","121.441455","24.99495","6500100","板橋區"
"220056","276-BY","2018/08/16 18:37:24","新北市板橋區華東街1-10號","121.448806666667","24.9946883333333","6500100","板橋區"
"220072","277-BY","2018/08/16 18:37:36","新北市板橋區板城路421號","121.447723333333","24.9963916666667","6500100","板橋區"
"220071","283-VK","2018/08/16 18:37:40","新北市板橋區華東街1號","121.44836","24.994085","6500100","板橋區"
"220094","285-UM","2018/08/16 18:37:30","新北市板橋區民生路二段161巷3號","121.470005","25.019765","6500100","板橋區"
"220083","286-VK","2018/08/16 18:37:29","新北市板橋區板城路271號","121.450368333333","24.997695","6500100","板橋區"
"220081","287-VK","2018/08/16 18:37:32","新北市板橋區板城路421號","121.447953333333","24.99628","6500100","板橋區"
"220084","296-UM","2018/08/16 18:37:33","新北市板橋區大觀路二段205號","121.444788333333","24.9993833333333","6500100","板橋區"
"220075","303-R5","2018/08/16 18:37:28","新北市板橋區南雅南路二段120-11號","121.452043333333","24.999385","6500100","板橋區"
"220062","305-R5","2018/08/16 18:37:36","新北市板橋區民生路二段120號","121.470435","25.0197866666667","6500100","板橋區"
"220098","317-R6","2018/08/16 18:37:24","新北市板橋區民生路二段161巷1號","121.470211666667","25.0200466666667","6500100","板橋區"
"220064","486-VK","2018/08/16 18:37:26","新北市板橋區南雅南路一段1巷42號","121.45754","25.00634","6500100","板橋區"
"220035","560-BX","2018/08/16 18:37:38","新北市板橋區南雅西路二段95巷18號","121.451841666667","25.0100416666667","6500100","板橋區"
"220103","561-BX","2018/08/16 18:37:29","新北市板橋區民生路二段161巷1號","121.470128333333","25.019855","6500100","板橋區"
"220080","568-UM","2018/08/16 18:37:38","新北市板橋區大觀路二段443-2號","121.441176666667","24.995135","6500100","板橋區"
"220057","686-BX","2018/08/16 18:37:24","新北市板橋區華東街1-9號","121.44825","24.9948666666667","6500100","板橋區"
"220077","687-BX","2018/08/16 18:37:18","新北市板橋區大觀路二段265巷7-7號","121.443471666667","24.994745","6500100","板橋區"
"220054","741-BX","2018/08/16 18:37:35","新北市板橋區大觀路2段435-7號","121.447761666667","24.9954583333333","6500100","板橋區"
"220055","827-TW","2018/08/16 18:37:38","新北市板橋區板城路421號","121.448113333333","24.9956633333333","6500100","板橋區"
"220074","895-R6","2018/08/16 18:37:34","新北市板橋區南雅南路二段140號","121.451646666667","24.9962716666667","6500100","板橋區"
"220073","985-R7","2018/08/16 18:37:40","新北市板橋區南雅南路二段100號","121.45347","25.0011733333333","6500100","板橋區"
"220018","AAC-253","2018/08/16 18:37:38","新北市板橋區華東街1-8號","121.447535","24.9950066666667","6500100","板橋區"
"235068","KEA-2873","2018/08/16 18:37:11","新北市中和區中興街118巷10號","121.499886666667","24.99334","6500300","中和區"
"235061","KEA-2875","2018/08/16 18:37:33","新北市中和區民享街93-2號","121.474793333333","25.00039","6500300","中和區"
