"lineid","car","time","location","longitude","latitude","cityid","cityname"
"234046","148-BY","2018/08/16 19:49:28","新北市永和區永利路248號","121.524176666667","25.0028683333333","6500400","永和區"
"234007","207-UY","2018/08/16 19:49:36","新北市中和區南工路2巷2號","121.505496666667","25.0000383333333","6500400","永和區"
"234081","298-R6","2018/08/16 19:49:36","新北市永和區永亨路98號","121.522998333333","25.0048616666667","6500400","永和區"
"234064","337-UY","2018/08/16 19:49:26","新北市永和區中正路368巷27號","121.518528333333","25.000805","6500400","永和區"
"234086","338-UY","2018/08/16 19:49:29","新北市永和區福和路278號","121.517796666667","25.00753","6500400","永和區"
"234070","552-UM","2018/08/16 19:49:37","新北市永和區竹林路117-1號","121.51999","25.0115316666667","6500400","永和區"
"234038","553-UM","2018/08/16 19:49:22","新北市永和區民樂街55巷10號","121.52789","24.9985433333333","6500400","永和區"
"234017","745-BX","2018/08/16 19:49:36","新北市永和區忠孝街26巷27弄1號","121.515198333333","25.0169133333333","6500400","永和區"
"234030","746-BX","2018/08/16 19:49:37","新北市永和區民生路67巷21號","121.523945","24.9972816666667","6500400","永和區"
"234054","KEA-2590","2018/08/16 19:49:37","新北市永和區竹林路73號","121.518871666667","25.0132733333333","6500400","永和區"
"234013","KEA-2591","2018/08/16 19:49:34","新北市永和區仁愛路235號","121.509091666667","25.0120166666667","6500400","永和區"
"234061","AAD-866","2018/08/16 19:49:35","新北市永和區中正路100號","121.514231666667","24.9956566666667","6500400","永和區"
"234042","862-TW","2018/08/16 19:49:35","新北市永和區中和路389巷22號","121.508176666667","25.0013016666667","6500400","永和區"
"234050","863-TW","2018/08/16 19:49:38","新北市永和區保安路128號","121.50897","25.0154666666667","6500400","永和區"
"234026","9371-KE","2018/08/16 19:49:20","新北市永和區雙和街9號","121.509586666667","25.0015966666667","6500400","永和區"
"234011","9373-KE","2018/08/16 19:49:25","新北市永和區仁愛路352巷90號","121.501218333333","25.00775","6500400","永和區"
"249001","173-UM","2018/08/16 19:49:36","新北市八里區中華路二段250號","121.405418333333","25.1497283333333","6502300","八里區"
"249004","303-UY","2018/08/16 19:49:35","新北市八里區仁愛路21號","121.413256666667","25.160905","6502300","八里區"
"248014","025-BX","2018/08/16 19:49:20","新北市五股區五福路32巷7號","121.434361666667","25.089395","6501500","五股區"
"248016","026-BX","2018/08/16 19:49:32","新北市五股區成泰路四段24-5號","121.453675","25.1067883333333","6501500","五股區"
"248008","095-VK","2018/08/16 19:49:20","新北市五股區四維路169號","121.467628333333","25.07514","6501500","五股區"
"248020","225-UY","2018/08/16 19:49:26","新北市五股區中直路37-3號","121.4198","25.1158733333333","6501500","五股區"
"248012","247-BX","2018/08/16 19:49:26","新北市五股區蓬萊路1-3號","121.434508333333","25.0796833333333","6501500","五股區"
"248010","272-BY","2018/08/16 19:49:35","新北市五股區登林路76-6號","121.430438333333","25.0694283333333","6501500","五股區"
"248004","677-BX","2018/08/16 19:49:40","新北市五股區成泰路一段219號","121.435236666667","25.07712","6501500","五股區"
"248002","678-BX","2018/08/16 19:49:24","新北市五股區成泰路四段14號","121.453351666667","25.10676","6501500","五股區"
"234077","969-R7","2018/08/16 19:49:38","新北市永和區民治街97巷7號","121.516896666667","24.9980233333333","6500400","永和區"
"234074","AAC-211","2018/08/16 19:49:36","新北市永和區竹林路189號","121.520648333333","25.009395","6500400","永和區"
"234067","AAC-212","2018/08/16 19:49:35","新北市永和區中山路一段175號","121.509563333333","25.0092316666667","6500400","永和區"
"234003","AAC-295","2018/08/16 19:49:38","新北市永和區福和路326號","121.515548333333","25.00723","6500400","永和區"
"244017","485-VK","2018/08/16 19:49:22","新北市林口區太平里180號","121.36789","25.13395","6501700","林口區"
"243013","AAD-798","2018/08/16 19:35:49","新北市泰山區應化街7號","121.423876666667","25.043735","6501600","泰山區"
"243009","297-R6","2018/08/16 19:49:26","新北市泰山區美寧街73號","121.431078333333","25.06471","6501600","泰山區"
"243016","KEA-2801","2018/08/16 19:49:33","新北市泰山區新北大道七段97號","121.417843333333","25.032015","6501600","泰山區"
"243015","421-VK","2018/08/16 19:49:31","新北市泰山區明志路二段214巷9號","121.426761666667","25.0489066666667","6501600","泰山區"
"243011","KEA-2215","2018/08/16 19:49:28","新北市泰山區明志路三段196巷21弄20號","121.422818333333","25.0385933333333","6501600","泰山區"
"243010","KEA-2216","2018/08/16 19:49:23","新北市泰山區民生路33號","121.430793333333","25.052225","6501600","泰山區"
"243012","646-TV","2018/08/16 19:49:26","新北市泰山區全興路13號","121.432348333333","25.059005","6501600","泰山區"
"243014","680-BX","2018/08/16 19:49:32","新北市泰山區泰林路二段33-8號","121.435255","25.05659","6501600","泰山區"
"222003","016-RS","2018/08/16 19:49:32","新北市深坑區深南路51-1號","121.621178333333","25.0098366666667","6501800","深坑區"
"222002","659-BX","2018/08/16 19:49:25","新北市深坑區北深路一段288號","121.628165","25.0077633333333","6501800","深坑區"
"231045","001-UM","2018/08/16 19:49:30","新北市新店區中生路60號","121.564555","24.9527566666667","6500600","新店區"
"231041","002-UM","2018/08/16 19:49:30","新北市新店區中央路149號","121.530081666667","24.9733783333333","6500600","新店區"
"231059","046-UY","2018/08/16 19:49:34","新北市新店區安和路二段155號","121.519006666667","24.9743033333333","6500600","新店區"
"231040","047-UY","2018/08/16 19:49:23","新北市新店區中正路75巷71號","121.543161666667","24.968775","6500600","新店區"
"231044","106-UY","2018/08/16 19:49:31","新北市新店區中正路602號","121.53408","24.9880666666667","6500600","新店區"
"231046","107-UY","2018/08/16 19:49:22","新北市新店區福園街8-1號","121.532753333333","24.9731416666667","6500600","新店區"
"231052","108-UY","2018/08/16 19:49:36","新北市新店區新烏路三段164號","121.551648333333","24.9023616666667","6500600","新店區"
"231068","110-UY","2018/08/16 19:49:23","新北市新店區安一路一段1-1號","121.519331666667","24.9612966666667","6500600","新店區"
"231047","187-VK","2018/08/16 19:49:29","新北市新店區寶興路42巷2號","121.548776666667","24.9728633333333","6500600","新店區"
"231054","KEA-2219","2018/08/16 19:49:35","新北市新店區光明街51號","121.53874","24.9601033333333","6500600","新店區"
"231057","256-BX","2018/08/16 19:49:35","新北市新店區梅崗三路1號","121.558388333333","24.9313083333333","6500600","新店區"
"231042","268-BY","2018/08/16 19:49:38","新北市新店區中興路一段268-3號","121.545148333333","24.9679166666667","6500600","新店區"
"231051","278-BY","2018/08/16 19:49:39","新北市新店區中央三街63號","121.526901666667","24.9750233333333","6500600","新店區"
"231050","AAD-862","2018/08/16 19:49:28","新北市新店區郵政路42號","121.5558","24.9515133333333","6500600","新店區"
"231066","4716-K9","2018/08/16 19:49:34","新北市新店區安康路三段51號","121.492495","24.9523533333333","6500600","新店區"
"231056","4715-K9","2018/08/16 19:49:37","新北市新店區民權路42巷59弄3號","121.538258333333","24.9836216666667","6500600","新店區"
"231067","4772-VM","2018/08/16 19:49:33","新北市新店區安民街2號","121.515288333333","24.963895","6500600","新店區"
"231065","512-UM","2018/08/16 19:49:37","新北市新店區安祥路109巷100號","121.477918333333","24.9592633333333","6500600","新店區"
"231049","513-UM","2018/08/16 19:49:26","新北市新店區民權路119號","121.535865","24.9828333333333","6500600","新店區"
"231061","619-UM","2018/08/16 19:49:28","新北市新店區安民街172號","121.516841666667","24.970705","6500600","新店區"
"231063","641-BX","2018/08/16 19:49:20","新北市新店區車子路11號","121.503023333333","24.951985","6500600","新店區"
"231064","719-UM","2018/08/16 19:49:40","新北市新店區安和路一段52巷2-1號","121.517758333333","24.96659","6500600","新店區"
"231062","720-UM","2018/08/16 19:49:29","新北市新店區永業路96號","121.530651666667","24.9508033333333","6500600","新店區"
"231060","897-TW","2018/08/16 19:49:23","新北市新店區安康路二段266號","121.508591666667","24.9587933333333","6500600","新店區"
"231043","899-TW","2018/08/16 19:49:37","新北市新店區中正路217號","121.539743333333","24.972885","6500600","新店區"
"241011","013-R5","2018/08/16 19:49:27","新北市三重區介壽路41號","121.498661666667","25.07002","6500200","三重區"
"241028","022-UY","2018/08/16 19:49:37","新北市三重區中正南路117號","121.49405","25.0572333333333","6500200","三重區"
"241008","059-VK","2018/08/16 19:49:24","新北市三重區永福街141號","121.478743333333","25.07655","6500200","三重區"
"241022","060-VK","2018/08/16 19:49:38","新北市三重區重安街1號","121.489671666667","25.0585566666667","6500200","三重區"
"241031","061-VK","2018/08/16 19:49:34","新北市三重區重新路四段244巷10號","121.486223333333","25.0535233333333","6500200","三重區"
"241015","062-VK","2018/08/16 19:49:32","新北市三重區重新路一段1號","121.503823333333","25.064305","6500200","三重區"
"241017","063-VK","2018/08/16 19:49:23","新北市三重區重陽路三段27巷1號","121.489675","25.0665733333333","6500200","三重區"
"241024","065-VK","2018/08/16 19:49:25","新北市三重區國道路一段70巷11號","121.48061","25.0721883333333","6500200","三重區"
"241026","066-VK","2018/08/16 19:49:27","新北市三重區文化南路42號","121.500386666667","25.060315","6500200","三重區"
"241003","091-VK","2018/08/16 19:49:26","新北市三重區五華街93巷3號","121.492025","25.0837083333333","6500200","三重區"
"241016","266-UM","2018/08/16 19:49:33","新北市三重區正德街41巷6號","121.496061666667","25.06277","6500200","三重區"
"241009","267-UM","2018/08/16 19:49:37","新北市三重區三和路四段396巷9號","121.48108","25.0791683333333","6500200","三重區"
"241018","268-UM","2018/08/16 19:49:30","新北市三重區雙園街57巷24-1號","121.494565","25.068215","6500200","三重區"
"241032","269-UM","2018/08/16 19:49:28","新北市三重區重陽路一段44巷5號","121.486145","25.0579066666667","6500200","三重區"
"241013","270-UM","2018/08/16 19:49:35","新北市三重區仁賢街51號","121.49701","25.0750516666667","6500200","三重區"
"241025","271-UM","2018/08/16 19:49:39","新北市三重區忠孝路三段52號","121.480681666667","25.0655933333333","6500200","三重區"
"241007","398-BY","2018/08/16 19:49:25","新北市三重區三和路四段137號","121.484376666667","25.0779766666667","6500200","三重區"
"241035","462-BY","2018/08/16 19:49:34","新北市三重區文化北路10號","121.49928","25.0636266666667","6500200","三重區"
"241004","475-VK","2018/08/16 19:49:24","新北市三重區五華街74號","121.493386666667","25.0820233333333","6500200","三重區"
"241020","478-VK","2018/08/16 19:49:26","新北市三重區自強路三段43巷23號","121.487751666667","25.0729816666667","6500200","三重區"
"241030","480-VK","2018/08/16 19:49:38","新北市三重區環河南路254巷22號","121.490225","25.05098","6500200","三重區"
"241014","543-UM","2018/08/16 19:49:24","新北市三重區長安街82號","121.501515","25.0674616666667","6500200","三重區"
"241023","545-UM","2018/08/16 19:49:39","新北市三重區頂崁街168號","121.477591666667","25.0659133333333","6500200","三重區"
"241001","547-UM","2018/08/16 19:49:24","新北市三重區仁愛街327巷83號","121.494033333333","25.080565","6500200","三重區"
"241019","KEA-2593","2018/08/16 19:49:41","新北市三重區三張街106號","121.487771666667","25.0697333333333","6500200","三重區"
"241006","AAD-863","2018/08/16 19:49:20","新北市三重區力行路二段80號","121.48162","25.0737983333333","6500200","三重區"
"241012","941-UM","2018/08/16 19:49:31","新北市三重區仁興街56巷46號","121.498071666667","25.0754316666667","6500200","三重區"
"241029","942-UM","2018/08/16 19:49:30","新北市三重區光明路21號","121.491071666667","25.0585416666667","6500200","三重區"
"241033","AAC-255","2018/08/16 19:49:36","新北市三重區中興南街66號","121.470643333333","25.0439666666667","6500200","三重區"
"235066","003-UY","2018/08/16 19:49:35","新北市中和區南工路28號","121.505648333333","25.0009283333333","6500300","中和區"
"235064","005-UY","2018/08/16 19:49:28","新北市中和區南山路72-7號","121.502433333333","24.996105","6500300","中和區"
"235056","096-UM","2018/08/16 19:49:33","新北市中和區中山路三段118-2號","121.475461666667","25.0075633333333","6500300","中和區"
"235039","097-UM","2018/08/16 19:49:23","新北市中和區大勇街27巷4號","121.517156666667","24.993685","6500300","中和區"
"235065","098-UM","2018/08/16 19:49:41","新北市中和區莊敬路25號","121.500155","25.0046033333333","6500300","中和區"
"235040","150-BY","2018/08/16 19:49:29","新北市中和區安平路38號","121.509801666667","24.9949883333333","6500300","中和區"
"235058","151-BY","2018/08/16 19:49:37","新北市中和區員山路146巷1號","121.481446666667","24.9968483333333","6500300","中和區"
"235055","183-VK","2018/08/16 19:49:29","新北市中和區德光路23號","121.470743333333","25.0042466666667","6500300","中和區"
"235038","185-VK","2018/08/16 19:49:32","新北市中和區自立路7號","121.522525","24.9965366666667","6500300","中和區"
"235049","186-VK","2018/08/16 19:49:32","新北市中和區景平路385巷28號","121.501811666667","24.9944483333333","6500300","中和區"
"235067","255-BX","2018/08/16 19:49:28","新北市中和區新生街186巷1弄28號","121.483378333333","24.9985583333333","6500300","中和區"
"235044","293-VK","2018/08/16 19:49:40","新北市中和區南山路281號","121.504208333333","24.9922616666667","6500300","中和區"
"235072","301-VK","2018/08/16 19:49:30","新北市中和區中山路二段315巷1號","121.49466","25.0015933333333","6500300","中和區"
"235043","352-BY","2018/08/16 19:49:41","新北市中和區華新街232巷9-4號","121.505885","24.98188","6500300","中和區"
"235042","KEA-2878","2018/08/16 19:49:30","新北市永和區中和路331號","121.507431666667","24.99966","6500300","中和區"
"235050","4979-A6","2018/08/16 19:49:33","新北市中和區景平路241巷84弄54號","121.50612","24.992325","6500300","中和區"
"235069","4980-A6","2018/08/16 19:49:38","新北市中和區圓通路290號","121.490726666667","24.98948","6500300","中和區"
"235070","558-UM","2018/08/16 19:49:25","新北市中和區圓通路111號","121.499396666667","24.996505","6500300","中和區"
"235045","565-BX","2018/08/16 19:49:28","新北市中和區景平路378號","121.510791666667","24.993035","6500300","中和區"
"235054","640-BX","2018/08/16 19:49:40","新北市中和區莒光路51號","121.472135","25.0046116666667","6500300","中和區"
"235060","647-TV","2018/08/16 19:49:29","新北市中和區新生街30巷1號","121.483023333333","25.00382","6500300","中和區"
"235047","732-UM","2018/08/16 19:49:35","新北市中和區興南路一段71號","121.51009","24.9892683333333","6500300","中和區"
"235046","733-UM","2018/08/16 19:49:29","新北市中和區仁愛街30號","121.510946666667","24.988535","6500300","中和區"
"235057","801-TS","2018/08/16 19:49:34","新北市中和區員山路102號","121.481033333333","24.9954033333333","6500300","中和區"
"235041","802-TS","2018/08/16 19:49:32","新北市中和區永貞路239巷22號","121.512495","25.0031566666667","6500300","中和區"
"235052","805-TS","2018/08/16 19:49:34","新北市中和區興南路二段121號","121.505613333333","24.9842","6500300","中和區"
"235048","896-TW","2018/08/16 19:49:28","新北市中和區興南路一段152號","121.508338333333","24.9869116666667","6500300","中和區"
"235053","900-TW","2018/08/16 19:49:26","新北市中和區國光街215巷8弄1號","121.466645","25.001195","6500300","中和區"
"235051","157-BY","2018/08/16 19:49:23","新北市中和區中興街132巷9號","121.498905","24.9917766666667","6500300","中和區"
"235037","AAC-213","2018/08/16 19:49:39","新北市中和區自立路66號","121.523885","24.9913566666667","6500300","中和區"
"235059","AAC-215","2018/08/16 19:49:30","新北市中和區圓通路305巷17號","121.494426666667","24.989295","6500300","中和區"
"220106","013-TV","2018/08/16 19:49:41","新北市板橋區民治街57巷24弄4號","121.480293333333","25.0337116666667","6500100","板橋區"
"220065","072-UY","2018/08/16 19:49:33","新北市板橋區國泰街39巷8弄2號","121.468605","25.0053533333333","6500100","板橋區"
"220086","073-UY","2018/08/16 19:49:37","新北市板橋區南雅西路二段7巷25號","121.451945","25.009505","6500100","板橋區"
"220069","AAD-861","2018/08/16 19:49:40","新北市板橋區南雅南路二段11-14號","121.454851666667","25.0018266666667","6500100","板橋區"
"247004","337-TH","2018/08/16 19:49:26","新北市蘆洲區中原路59號","121.458913333333","25.0821583333333","6501400","蘆洲區"
"247006","336-TH","2018/08/16 19:49:24","新北市蘆洲區永安南路二段28號","121.467111666667","25.0769616666667","6501400","蘆洲區"
"247008","056-VK","2018/08/16 19:49:37","新北市蘆洲區中山一路124-2號","121.476868333333","25.0815133333333","6501400","蘆洲區"
"247014","053-VK","2018/08/16 19:49:38","新北市蘆洲區復興路11號","121.472116666667","25.085265","6501400","蘆洲區"
"247002","002-UY","2018/08/16 19:49:36","新北市蘆洲區永樂街38巷69號","121.45857","25.0904866666667","6501400","蘆洲區"
"226004","312-R5","2018/08/16 19:49:39","新北市平溪區靜安路二段441號","121.740223333333","25.02499","6502400","平溪區"
"228003","097-TW","2018/08/16 19:49:27","新北市貢寮區真理里美艷山街5-1號","121.926671666667","25.059705","6502600","貢寮區"
"228001","212-TW","2018/08/16 19:49:31","新北市貢寮區真理里新港街91號","121.926615","25.0567383333333","6502600","貢寮區"
"224010","AGQ-8101","2018/08/16 19:45:10","新北市瑞芳區烏勢巷145號","121.847966666667","25.1092566666667","6501200","瑞芳區"
"224002","639-TC","2018/08/16 19:49:37","新北市瑞芳區民享新村1號","121.817548333333","25.1056683333333","6501200","瑞芳區"
"227004","642-TC","2018/08/16 19:49:36","新北市雙溪區雙溪里內挖路47號","121.863288333333","25.0367816666667","6502500","雙溪區"
"227009","400-TW","2018/08/16 19:49:32","新北市雙溪區新基里自強路7號","121.866178333333","25.039075","6502500","雙溪區"
"222001","KEA-2212","2018/08/16 19:49:17","新北市深坑區北深路三段65號","121.607031666667","25.001145","6501800","深坑區"
"208002","KEA-2872","2018/08/16 19:49:35","新北市金山區三民街28號","121.634896666667","25.2232883333333","6502700","金山區"
"208003","665-BX","2018/08/16 19:49:32","新北市金山區環金路460號","121.630211666667","25.224515","6502700","金山區"
"208001","761-BX","2018/08/16 19:49:23","新北市金山區重和里六股林口24號","121.603386666667","25.2192833333333","6502700","金山區"
"251009","008-UM","2018/08/16 19:49:22","新北市淡水區中正路32號","121.443976666667","25.1692133333333","6501000","淡水區"
"251005","010-UM","2018/08/16 19:49:32","新北市淡水區中正東路1號","121.447195","25.1672516666667","6501000","淡水區"
"251001","011-UM","2018/08/16 19:49:32","新北市淡水區坪頂路35號","121.456548333333","25.1633","6501000","淡水區"
"251013","KEA-2871","2018/08/16 19:49:25","新北市淡水區頂田寮18號","121.460885","25.2145866666667","6501000","淡水區"
"251016","179-VK","2018/08/16 19:49:39","新北市淡水區下圭柔山121-12號","121.455475","25.20914","6501000","淡水區"
"251014","180-VK","2018/08/16 19:49:28","新北市淡水區番社前1-8號","121.468318333333","25.2360683333333","6501000","淡水區"
"251015","181-VK","2018/08/16 19:49:25","新北市淡水區北新路三段50號","121.484558333333","25.1875133333333","6501000","淡水區"
"251010","413-VK","2018/08/16 19:49:30","新北市淡水區下圭柔山91-3號","121.43109","25.2099516666667","6501000","淡水區"
"251012","441-VK","2018/08/16 19:49:20","新北市淡水區埤島6-10號","121.446053333333","25.1946233333333","6501000","淡水區"
"251008","442-VK","2018/08/16 19:49:21","新北市淡水區中正路一段24巷2-4號","121.426796666667","25.1770016666667","6501000","淡水區"
"251004","443-VK","2018/08/16 19:49:34","新北市淡水區民權路177巷49號","121.460741666667","25.1339916666667","6501000","淡水區"
"251006","561-UM","2018/08/16 19:49:38","新北市淡水區水碓街15號","121.443483333333","25.177015","6501000","淡水區"
"251007","577-R6","2018/08/16 19:49:35","新北市淡水區竿蓁一街123號","121.455576666667","25.16574","6501000","淡水區"
"251011","650-BX","2018/08/16 19:49:40","新北市淡水區淡金路二段15號","121.447026666667","25.1893516666667","6501000","淡水區"
"251003","673-BX","2018/08/16 19:49:32","新北市淡水區崁頂133號","121.431313333333","25.20539","6501000","淡水區"
"207003","550-UM","2018/08/16 19:49:38","新北市萬里區磺潭里公館崙4號","121.642171666667","25.2145416666667","6502800","萬里區"
"207004","225-TW","2018/08/16 19:49:37","新北市萬里區萬里里瑪鋉路176號","121.689815","25.1798983333333","6502800","萬里區"
"252002","178-VK","2018/08/16 19:49:33","新北市三芝區三民街33號","121.504671666667","25.2585633333333","6502100","三芝區"
"252001","292-VK","2018/08/16 19:49:24","新北市三芝區公正街66號","121.499821666667","25.2574516666667","6502100","三芝區"
"237004","KEA-2597","2018/08/16 19:49:36","新北市三峽區添福263號","121.375506666667","24.8936066666667","6500900","三峽區"
"237007","153-BY","2018/08/16 19:49:27","新北市三峽區二鬮路136巷24弄73號","121.357861666667","24.91105","6500900","三峽區"
"237009","210-TH","2018/08/16 19:49:36","新北市三峽區中園街121號","121.367616666667","24.924065","6500900","三峽區"
"237013","252-BX","2018/08/16 19:49:24","新北市三峽區橫溪路65號","121.397378333333","24.93532","6500900","三峽區"
"237012","275-BY","2018/08/16 19:49:41","新北市三峽區中華路5-1號","121.374415","24.9326866666667","6500900","三峽區"
"237008","302-VK","2018/08/16 19:49:42","新北市三峽區永安街167巷7號","121.37374","24.9273866666667","6500900","三峽區"
"237014","433-BY","2018/08/16 19:49:32","新北市三峽區添福2-4號","121.370621666667","24.909175","6500900","三峽區"
"237006","5529-G3","2018/08/16 19:49:23","新北市三峽區中正路一段336巷15弄2號","121.369986666667","24.9249983333333","6500900","三峽區"
"237011","KEA-2596","2018/08/16 19:49:31","新北市三峽區介壽路二段6巷2號","121.388988333333","24.9345183333333","6500900","三峽區"
"237016","649-BX","2018/08/16 19:49:39","新北市三峽區成福路3號","121.416691666667","24.9281433333333","6500900","三峽區"
"237010","706-TV","2018/08/16 19:49:26","新北市三峽區復興路77號","121.372698333333","24.9374766666667","6500900","三峽區"
"237005","AKY-6261","2018/08/16 19:49:42","新北市三峽區長泰街77號","121.376093333333","24.9331583333333","6500900","三峽區"
"236070","105-UM","2018/08/16 19:49:29","新北市土城區中央路二段346巷11號","121.439576666667","24.97219","6501300","土城區"
"236042","107-UM","2018/08/16 19:49:23","新北市土城區裕民路266號","121.454735","24.9826316666667","6501300","土城區"
"236078","166-UM","2018/08/16 19:49:26","新北市土城區中央路四段256號","121.414888333333","24.9570183333333","6501300","土城區"
"236030","253-BX","2018/08/16 19:49:38","新北市土城區中央路一段294號","121.443351666667","24.9823733333333","6501300","土城區"
"236026","269-VK","2018/08/16 19:49:30","新北市土城區中央路二段61巷22號","121.443251666667","24.9787583333333","6501300","土城區"
"236014","270-VK","2018/08/16 19:49:22","新北市土城區廣明街41巷38號","121.45385","24.9924816666667","6501300","土城區"
"236038","271-VK","2018/08/16 19:49:23","新北市土城區國際路158巷24弄1號","121.468413333333","24.9757816666667","6501300","土城區"
"236021","401-BY","2018/08/16 19:49:25","新北市土城區延吉街137巷12弄2號","121.470776666667","24.9855783333333","6501300","土城區"
"236059","752-BX","2018/08/16 19:49:40","新北市土城區中央路一段186-1號","121.445561666667","24.986325","6501300","土城區"
"236049","913-UM","2018/08/16 19:49:40","新北市土城區青雲路220號","121.459003333333","24.98129","6501300","土城區"
"236063","915-UM","2018/08/16 19:49:42","新北市土城區延和路107號","121.467686666667","24.9902566666667","6501300","土城區"
"236055","AAC-216","2018/08/16 19:49:34","新北市土城區延和路150號","121.467823333333","24.99024","6501300","土城區"
"242034","AAC-296","2018/08/16 19:49:33","新北市新莊區仁愛街54巷1號","121.44493","25.0372883333333","6500500","新莊區"
"242036","415-TV","2018/08/16 19:49:35","新北市新莊區建安街101巷4弄6號","121.42672","25.02371","6500500","新莊區"
"242007","413-TV","2018/08/16 19:49:23","新北市新莊區思源路593巷6弄15號","121.458263333333","25.0600416666667","6500500","新莊區"
"242023","362-BY","2018/08/16 19:49:35","新北市新莊區化成路212號","121.465591666667","25.0464266666667","6500500","新莊區"
"242061","353-BY","2018/08/16 19:49:39","新北市新莊區中環路一段10號","121.442841666667","25.0258666666667","6500500","新莊區"
"242039","133-UY","2018/08/16 19:49:31","新北市新莊區民安路299巷40號","121.429661666667","25.0234766666667","6500500","新莊區"
"242031","135-UY","2018/08/16 19:49:21","新北市新莊區忠孝街56號","121.444015","25.036065","6500500","新莊區"
"242048","172-VK","2018/08/16 19:49:30","新北市新莊區民安路137巷2弄2號","121.425405","25.024275","6500500","新莊區"
"242011","173-VK","2018/08/16 19:48:07","新北市新莊區中環路二段392-1號","121.4422","25.0451933333333","6500500","新莊區"
"242017","175-VK","2018/08/16 19:49:37","新北市新莊區中華路一段226號","121.452708333333","25.04303","6500500","新莊區"
"242004","176-VK","2018/08/16 19:49:27","新北市新莊區化成路63巷26弄4號","121.463065","25.0459716666667","6500500","新莊區"
"242021","347-TH","2018/08/16 19:49:36","新北市新莊區新泰路119號","121.448453333333","25.0360383333333","6500500","新莊區"
"242019","350-TH","2018/08/16 19:49:24","新北市新莊區中華路一段112號","121.452525","25.040335","6500500","新莊區"
"238015","755-BX","2018/08/16 19:49:33","新北市樹林區大安路616號","121.411265","24.983065","6500700","樹林區"
"238021","KEA-2539","2018/08/16 19:49:38","新北市樹林區佳園路三段101巷38弄1號","121.391085","24.95095","6500700","樹林區"
"239006","891-R6","2018/08/16 19:49:36","新北市鶯歌區尖山埔路227號","121.34486","24.9503466666667","6500800","鶯歌區"
"239004","193-VK","2018/08/16 19:49:34","新北市鶯歌區二甲路中心巷9號","121.337473333333","24.9359966666667","6500800","鶯歌區"
"221008","489-VK","2018/08/16 19:49:26","新北市汐止區康寧街143號","121.62157","25.06679","6501100","汐止區"
"221036","130-UY","2018/08/16 19:49:26","新北市汐止區汐萬路一段39-3號","121.654943333333","25.069515","6501100","汐止區"
"221015","131-UY","2018/08/16 19:49:28","新北市汐止區忠孝東路488號","121.666556666667","25.0748633333333","6501100","汐止區"
"221010","269-BY","2018/08/16 19:49:37","新北市汐止區八連路一段13號","121.648408333333","25.0805766666667","6501100","汐止區"
"221012","278-VK","2018/08/16 19:49:41","新北市汐止區保長路273巷10號","121.681695","25.0740016666667","6501100","汐止區"
"221023","279-VK","2018/08/16 19:49:36","新北市汐止區民族六街4巷1號","121.629545","25.070115","6501100","汐止區"
"221032","280-BY","2018/08/16 19:49:36","新北市汐止區橫科路403巷13號","121.624885","25.0476733333333","6501100","汐止區"
"221027","281-BY","2018/08/16 19:49:29","新北市汐止區中正路7號","121.66307","25.0700983333333","6501100","汐止區"
"221029","298-VK","2018/08/16 19:49:30","新北市汐止區康寧街901號","121.651535","25.0749783333333","6501100","汐止區"
"221021","299-VK","2018/08/16 19:49:25","新北市汐止區新興路84巷2號","121.65784","25.0615533333333","6501100","汐止區"
"221031","353-TW","2018/08/16 19:49:35","新北市汐止區福德二路54巷6號","121.633923333333","25.06763","6501100","汐止區"
"221035","622-UM","2018/08/16 19:49:28","新北市汐止區長江街13巷6弄1號","121.65475","25.0717566666667","6501100","汐止區"
"221025","623-UM","2018/08/16 19:49:27","新北市汐止區秀峰路81巷11號","121.660723333333","25.0644216666667","6501100","汐止區"
"221038","646-BX","2018/08/16 19:49:36","新北市汐止區忠孝東路415號","121.665803333333","25.071345","6501100","汐止區"
"221033","647-BX","2018/08/16 19:49:41","新北市汐止區東勢街216巷22弄23號","121.634458333333","25.0389316666667","6501100","汐止區"
"221018","753-BX","2018/08/16 19:49:22","新北市汐止區大同路二段509號","121.661415","25.068845","6501100","汐止區"
"220079","145-BY","2018/08/16 19:49:36","新北市板橋區大仁街62-1號","121.45459","25.0164816666667","6500100","板橋區"
"220082","610-BX","2018/08/16 19:49:31","新北市板橋區溪北路54號","121.427588333333","24.9899066666667","6500100","板橋區"
"220101","245-BX","2018/08/16 19:49:40","新北市板橋區縣民大道三段93巷18-1號","121.475176666667","25.0222183333333","6500100","板橋區"
"220091","267-BY","2018/08/16 19:49:37","新北市板橋區懷德街127巷16號","121.479601666667","25.031245","6500100","板橋區"
"220056","276-BY","2018/08/16 19:49:24","新北市板橋區四川路二段99巷3號","121.452758333333","24.9944933333333","6500100","板橋區"
"220072","277-BY","2018/08/16 19:49:36","新北市板橋區金門街249號","121.432","24.98914","6500100","板橋區"
"220063","280-UM","2018/08/16 19:49:33","新北市板橋區中山路二段290號","121.479643333333","25.0188666666667","6500100","板橋區"
"220071","283-VK","2018/08/16 19:49:39","新北市板橋區五權街30巷24弄24號","121.463673333333","24.993965","6500100","板橋區"
"220094","285-UM","2018/08/16 19:49:30","新北市板橋區民生路三段319號","121.462688333333","25.0310216666667","6500100","板橋區"
"220053","285-VK","2018/08/16 19:49:23","新北市板橋區中山路二段60巷1弄27號","121.47514","25.0158633333333","6500100","板橋區"
"220083","286-VK","2018/08/16 19:49:29","新北市板橋區僑中二街8巷34號","121.445605","25.0114683333333","6500100","板橋區"
"220081","287-VK","2018/08/16 19:49:37","新北市板橋區大觀路一段29巷4弄1號","121.450226666667","25.007695","6500100","板橋區"
"220090","288-VK","2018/08/16 19:49:25","新北市板橋區新海路431巷20號","121.457678333333","25.026875","6500100","板橋區"
"220061","293-UM","2018/08/16 19:49:26","新北市板橋區板新路200巷6號","121.469135","25.016145","6500100","板橋區"
"220084","296-UM","2018/08/16 19:49:36","新北市板橋區溪崑二街92巷4號","121.426643333333","24.98935","6500100","板橋區"
"220092","299-UM","2018/08/16 19:49:25","新北市板橋區四維路175-1號","121.464541666667","25.02626","6500100","板橋區"
"220075","303-R5","2018/08/16 19:49:28","新北市板橋區金華街10巷48弄56號","121.459105","25.0201816666667","6500100","板橋區"
"220062","305-R5","2018/08/16 19:49:35","新北市板橋區光復街33巷10號","121.481978333333","25.0189433333333","6500100","板橋區"
"220098","317-R6","2018/08/16 19:49:28","新北市板橋區裕民街133巷2號","121.459335","25.027075","6500100","板橋區"
"220064","486-VK","2018/08/16 19:49:06","新北市板橋區公園街50號","121.46212","25.0080016666667","6500100","板橋區"
"242013","280-VK","2018/08/16 19:49:38","新北市新莊區中泰街38巷9號","121.450725","25.0473666666667","6500500","新莊區"
"220088","491-VK","2018/08/16 19:49:27","新北市板橋區文聖街129號","121.478036666667","25.0286883333333","6500100","板橋區"
"220035","560-BX","2018/08/16 19:49:38","新北市板橋區金華街85巷16號","121.458608333333","25.0212833333333","6500100","板橋區"
"220103","561-BX","2018/08/16 19:49:29","新北市板橋區陽明街29巷5號","121.465105","25.0217533333333","6500100","板橋區"
"220080","568-UM","2018/08/16 19:49:38","新北市板橋區大觀路二段69巷8號","121.446938333333","25.0022416666667","6500100","板橋區"
"220057","686-BX","2018/08/16 19:49:24","新北市板橋區信義路201號","121.459158333333","24.991665","6500100","板橋區"
"220077","687-BX","2018/08/16 19:49:38","新北市板橋區僑中一街102巷3弄15號","121.445971666667","25.012295","6500100","板橋區"
"220093","689-BX","2018/08/16 19:49:31","新北市板橋區長江路二段269號","121.46964","25.0329266666667","6500100","板橋區"
"220054","741-BX","2018/08/16 19:49:35","新北市板橋區忠孝路忠義巷15弄36號","121.465673333333","25.004415","6500100","板橋區"
"220102","KEA-2699","2018/08/16 19:49:23","新北市板橋區松柏街35號","121.475223333333","25.0303016666667","6500100","板橋區"
"220055","827-TW","2018/08/16 19:49:38","新北市板橋區國慶路149巷4弄20-4號","121.462051666667","24.99707","6500100","板橋區"
"220067","829-TW","2018/08/16 19:49:40","新北市板橋區長安街138巷1弄292號","121.474881666667","25.011215","6500100","板橋區"
"220068","830-TW","2018/08/16 19:49:38","新北市板橋區中山路二段412巷37號","121.483956666667","25.0196533333333","6500100","板橋區"
"220096","831-TW","2018/08/16 19:49:38","新北市板橋區莒光路16巷34號","121.469305","25.023775","6500100","板橋區"
"220089","833-TW","2018/08/16 19:49:34","新北市板橋區龍泉街71號","121.456466666667","25.0254116666667","6500100","板橋區"
"220074","895-R6","2018/08/16 19:49:40","新北市板橋區東門街1-1號","121.457973333333","25.008845","6500100","板橋區"
"220073","985-R7","2018/08/16 19:49:26","新北市板橋區大仁街59-1號","121.454295","25.0164033333333","6500100","板橋區"
"220097","AAC-210","2018/08/16 19:49:27","新北市板橋區文化路一段285巷2弄1號","121.4646","25.01916","6500100","板橋區"
"220070","AAC-253","2018/08/16 19:49:38","新北市板橋區民族路170號","121.467483333333","25.007755","6500100","板橋區"
"235068","KEA-2873","2018/08/16 19:49:11","新北市中和區莊敬路16巷15弄10號","121.50062","25.003985","6500300","中和區"
"235061","KEA-2875","2018/08/16 19:49:33","新北市中和區員山路174巷11號","121.482061666667","24.9999016666667","6500300","中和區"
