"lineid","car","time","location","longitude","latitude","cityid","cityname"
"234046","148-BY","2018/08/16 20:09:28","新北市永和區得和路328號","121.523278333333","24.9995216666667","6500400","永和區"
"234007","207-UY","2018/08/16 20:09:36","新北市永和區保順路37巷16號","121.502968333333","25.010365","6500400","永和區"
"234081","298-R6","2018/08/16 20:09:36","新北市永和區國中路86巷1號","121.52463","25.0061883333333","6500400","永和區"
"234064","337-UY","2018/08/16 20:09:26","新北市永和區永元路68號","121.52242","25.0016616666667","6500400","永和區"
"234086","338-UY","2018/08/16 20:09:29","新北市永和區中正路696號","121.516516666667","25.0096766666667","6500400","永和區"
"234070","552-UM","2018/08/16 20:09:17","新北市永和區福和路200號","121.519858333333","25.0076866666667","6500400","永和區"
"234038","553-UM","2018/08/16 20:09:22","新北市永和區成功路一段68號","121.526865","25.0036466666667","6500400","永和區"
"234017","745-BX","2018/08/16 20:09:28","新北市永和區文化路170號","121.51191","25.0153933333333","6500400","永和區"
"234030","746-BX","2018/08/16 20:09:37","新北市永和區民權路49巷5弄20號","121.52146","24.9977716666667","6500400","永和區"
"234054","KEA-2590","2018/08/16 20:09:17","新北市永和區博愛街15號","121.517238333333","25.015875","6500400","永和區"
"234013","KEA-2591","2018/08/16 20:09:22","新北市永和區永貞路435號","121.506915","25.0099333333333","6500400","永和區"
"234061","AAD-866","2018/08/16 20:09:35","新北市永和區中正路129巷7號","121.515463333333","24.9982","6500400","永和區"
"234042","862-TW","2018/08/16 20:09:35","新北市永和區雙和街41號","121.508871666667","25.0025516666667","6500400","永和區"
"234050","863-TW","2018/08/16 20:09:28","新北市永和區新生路259號","121.505638333333","25.0132033333333","6500400","永和區"
"234026","9371-KE","2018/08/16 20:09:20","新北市永和區中山路一段277號","121.507083333333","25.0069483333333","6500400","永和區"
"234011","9373-KE","2018/08/16 20:09:26","新北市永和區環河西路二段241號","121.500705","25.0092783333333","6500400","永和區"
"249005","172-UM","2018/08/16 20:09:33","新北市八里區下罟子47-6號","121.384188333333","25.1367766666667","6502300","八里區"
"249001","173-UM","2018/08/16 20:09:16","新北市八里區中華路二段322號","121.403346666667","25.1479966666667","6502300","八里區"
"249004","303-UY","2018/08/16 20:09:35","新北市八里區中山路一段398巷51弄16號","121.41079","25.1587533333333","6502300","八里區"
"248014","025-BX","2018/08/16 20:09:20","新北市五股區成泰路三段318-1號","121.450358333333","25.0963116666667","6501500","五股區"
"248016","026-BX","2018/08/16 20:09:32","新北市五股區成泰路三段577巷80弄71號","121.448981666667","25.10483","6501500","五股區"
"248020","225-UY","2018/08/16 20:09:26","新北市五股區凌雲路三段24巷24號","121.43526","25.1044516666667","6501500","五股區"
"248012","247-BX","2018/08/16 20:09:26","新北市五股區民義路一段212號","121.430501666667","25.0895633333333","6501500","五股區"
"248010","272-BY","2018/08/16 20:09:35","新北市五股區成泰路一段7巷12號","121.433283333333","25.0667733333333","6501500","五股區"
"248004","677-BX","2018/08/16 20:09:20","新北市五股區成泰路一段88號","121.435843333333","25.071175","6501500","五股區"
"248002","678-BX","2018/08/16 20:09:24","新北市五股區成泰路三段323號","121.447926666667","25.094985","6501500","五股區"
"234023","9380-KE","2018/08/16 20:09:32","新北市永和區中正路654巷52號","121.518263333333","25.008485","6500400","永和區"
"234077","969-R7","2018/08/16 20:09:18","新北市永和區智光街107巷8號","121.515775","24.9959816666667","6500400","永和區"
"234074","AAC-211","2018/08/16 20:09:33","新北市永和區豫溪街169巷2-1號","121.52188","25.0104666666667","6500400","永和區"
"234067","AAC-212","2018/08/16 20:09:35","新北市永和區保平路214巷8弄1號","121.50952","25.0062483333333","6500400","永和區"
"234003","AAC-295","2018/08/16 20:09:19","新北市永和區中正路620號","121.517065","25.0078233333333","6500400","永和區"
"244017","485-VK","2018/08/16 20:09:22","新北市八里區長道坑34-2號","121.399096666667","25.0896933333333","6501700","林口區"
"243013","AAD-798","2018/08/16 20:09:28","新北市泰山區明志路三段74巷5號","121.424556666667","25.0416616666667","6501600","泰山區"
"243009","297-R6","2018/08/16 20:09:26","新北市泰山區泰林路二段146號","121.434298333333","25.0598916666667","6501600","泰山區"
"243016","KEA-2801","2018/08/16 20:09:33","新北市泰山區貴陽街29號","121.422346666667","25.0329766666667","6501600","泰山區"
"243015","421-VK","2018/08/16 20:09:31","新北市泰山區明志路一段303號","121.431563333333","25.0592433333333","6501600","泰山區"
"243011","KEA-2215","2018/08/16 20:09:28","新北市泰山區明志路三段452號","121.420916666667","25.0325566666667","6501600","泰山區"
"243010","KEA-2216","2018/08/16 20:09:23","新北市泰山區明志路二段214巷16弄37號","121.426703333333","25.0502466666667","6501600","泰山區"
"243012","646-TV","2018/08/16 20:09:26","新北市泰山區楓江路43號","121.435228333333","25.0625483333333","6501600","泰山區"
"243014","680-BX","2018/08/16 20:09:32","新北市泰山區明志路一段76號","121.4334","25.0645366666667","6501600","泰山區"
"222003","016-RS","2018/08/16 20:09:32","新北市深坑區埔新街64號","121.620045","25.00247","6501800","深坑區"
"222002","659-BX","2018/08/16 20:09:25","新北市深坑區北深路三段160號","121.602621666667","25.003365","6501800","深坑區"
"231045","001-UM","2018/08/16 20:09:30","新北市新店區北宜路一段146號","121.540186666667","24.953975","6500600","新店區"
"231041","002-UM","2018/08/16 20:09:30","新北市新店區中正路460號","121.534021666667","24.979355","6500600","新店區"
"231059","046-UY","2018/08/16 20:09:34","新北市新店區安成街34-1號","121.510023333333","24.9610533333333","6500600","新店區"
"231040","047-UY","2018/08/16 20:09:23","新北市新店區中正路106號","121.543125","24.9705983333333","6500600","新店區"
"231044","106-UY","2018/08/16 20:09:31","新北市新店區寶慶街66號","121.542001666667","24.98686","6500600","新店區"
"231052","108-UY","2018/08/16 20:09:36","新北市新店區新烏路三段286號","121.550048333333","24.89837","6500600","新店區"
"231068","110-UY","2018/08/16 20:09:23","新北市新店區中興路二段186號","121.548106666667","24.97279","6500600","新店區"
"231047","187-VK","2018/08/16 20:09:29","新北市新店區永華街75號","121.54511","24.9751516666667","6500600","新店區"
"231054","KEA-2219","2018/08/16 20:09:15","新北市新店區檳榔路2號","121.540896666667","24.9649833333333","6500600","新店區"
"231057","256-BX","2018/08/16 20:09:15","新北市新店區花園一路一段2號","121.553153333333","24.9324733333333","6500600","新店區"
"231042","268-BY","2018/08/16 20:09:19","新北市新店區中興路二段89號","121.547066666667","24.9714433333333","6500600","新店區"
"231051","278-BY","2018/08/16 20:09:19","新北市新店區中央路200號","121.530473333333","24.9743316666667","6500600","新店區"
"231050","AAD-862","2018/08/16 20:09:28","新北市新店區北宜路一段2號","121.53788","24.9586116666667","6500600","新店區"
"231058","3713-VJ","2018/08/16 20:09:26","新北市新店區安德街60巷19-1號","121.510416666667","24.9632766666667","6500600","新店區"
"231056","4715-K9","2018/08/16 20:09:17","新北市新店區中正路275巷35號","121.536668333333","24.9727","6500600","新店區"
"231067","4772-VM","2018/08/16 20:09:33","新北市新店區安康路一段35號","121.53172","24.9607683333333","6500600","新店區"
"231065","512-UM","2018/08/16 20:09:17","新北市新店區安祥路106巷274號","121.472881666667","24.9586466666667","6500600","新店區"
"231049","513-UM","2018/08/16 20:09:26","新北市新店區北新路二段139巷12弄20號","121.542165","24.9761083333333","6500600","新店區"
"231061","619-UM","2018/08/16 20:09:28","新北市新店區安民街337號","121.517268333333","24.9749133333333","6500600","新店區"
"231063","641-BX","2018/08/16 20:09:20","新北市新店區黎明路53巷2號","121.50243","24.9484666666667","6500600","新店區"
"231064","719-UM","2018/08/16 20:03:20","新北市新店區安民街5號","121.515241666667","24.9642516666667","6500600","新店區"
"231062","720-UM","2018/08/16 20:09:29","新北市新店區安康路二段194號","121.511171666667","24.9599983333333","6500600","新店區"
"231060","897-TW","2018/08/16 20:09:22","新北市新店區安康路三段454號","121.48443","24.9511683333333","6500600","新店區"
"231043","899-TW","2018/08/16 20:09:18","新北市新店區民族路184號","121.536948333333","24.9761666666667","6500600","新店區"
"241011","013-R5","2018/08/16 20:09:27","新北市三重區三和路三段47巷14號","121.496051666667","25.0717733333333","6500200","三重區"
"241028","022-UY","2018/08/16 20:09:37","新北市三重區仁化街107號","121.494426666667","25.0580916666667","6500200","三重區"
"241008","059-VK","2018/08/16 20:09:24","新北市三重區永福街197巷37弄5號","121.478171666667","25.0742233333333","6500200","三重區"
"241022","060-VK","2018/08/16 20:09:18","新北市三重區新北大道一段50號","121.48759","25.06156","6500200","三重區"
"241031","061-VK","2018/08/16 20:09:34","新北市三重區過圳街9-1號","121.488768333333","25.060165","6500200","三重區"
"241015","062-VK","2018/08/16 20:09:32","新北市三重區福德北路45號","121.502338333333","25.0649683333333","6500200","三重區"
"241017","063-VK","2018/08/16 20:09:23","新北市三重區自強路一段236號","121.493155","25.0669383333333","6500200","三重區"
"241024","065-VK","2018/08/16 20:09:37","新北市三重區中正北路314號","121.479253333333","25.06912","6500200","三重區"
"241026","066-VK","2018/08/16 20:09:27","新北市三重區福德南路65巷1號","121.50239","25.0605433333333","6500200","三重區"
"241002","090-VK","2018/08/16 20:09:24","新北市三重區仁忠街31號","121.495901666667","25.0820216666667","6500200","三重區"
"241003","091-VK","2018/08/16 20:09:26","新北市三重區富華街22號","121.489641666667","25.0825083333333","6500200","三重區"
"241005","262-UM","2018/08/16 20:09:29","新北市三重區五華街180巷12號","121.488545","25.08571","6500200","三重區"
"241016","266-UM","2018/08/16 20:09:28","新北市三重區大同北路54巷4號","121.494058333333","25.0634083333333","6500200","三重區"
"241009","267-UM","2018/08/16 20:09:37","新北市三重區永福街46-2號","121.481946666667","25.07819","6500200","三重區"
"241018","268-UM","2018/08/16 20:09:31","新北市三重區正義北路256巷109號","121.493645","25.0679316666667","6500200","三重區"
"241032","269-UM","2018/08/16 20:09:28","新北市三重區捷運路67號","121.483281666667","25.0554683333333","6500200","三重區"
"241013","270-UM","2018/08/16 20:09:35","新北市三重區三和路三段139巷20號","121.493253333333","25.0738716666667","6500200","三重區"
"241025","271-UM","2018/08/16 20:09:18","新北市三重區中正北路237號","121.475743333333","25.07079","6500200","三重區"
"241007","398-BY","2018/08/16 20:09:25","新北市三重區三和路四段111-14號","121.486921666667","25.0776733333333","6500200","三重區"
"241035","462-BY","2018/08/16 20:09:34","新北市三重區文化北路18號","121.499385","25.0639416666667","6500200","三重區"
"241004","475-VK","2018/08/16 20:09:24","新北市三重區自強路四段110號","121.491553333333","25.0799633333333","6500200","三重區"
"241020","478-VK","2018/08/16 20:09:26","新北市三重區忠孝路一段101號","121.489411666667","25.0720766666667","6500200","三重區"
"241030","480-VK","2018/08/16 20:09:18","新北市三重區成功路145巷28號","121.48751","25.05309","6500200","三重區"
"241014","543-UM","2018/08/16 20:09:23","新北市三重區長壽街120巷28號","121.502033333333","25.0696833333333","6500200","三重區"
"241023","545-UM","2018/08/16 20:09:39","新北市三重區頂崁街220巷2號","121.476936666667","25.0681166666667","6500200","三重區"
"241001","547-UM","2018/08/16 20:09:24","新北市三重區溪尾街16號","121.491318333333","25.075735","6500200","三重區"
"241019","KEA-2593","2018/08/16 20:09:21","新北市三重區自強路二段24號","121.489605","25.0692716666667","6500200","三重區"
"241006","AAD-863","2018/08/16 20:09:20","新北市三重區車路頭街139巷14號","121.484296666667","25.076195","6500200","三重區"
"241012","941-UM","2018/08/16 20:09:27","新北市三重區仁興街56巷39號","121.49804","25.0756216666667","6500200","三重區"
"241029","942-UM","2018/08/16 20:09:24","新北市三重區光明路32巷14號","121.491625","25.0587683333333","6500200","三重區"
"241033","AAC-255","2018/08/16 20:09:36","新北市三重區光復路一段68巷10號","121.471538333333","25.04928","6500200","三重區"
"235066","003-UY","2018/08/16 20:09:35","新北市中和區中山路二段3巷28-3號","121.507075","25.0051283333333","6500300","中和區"
"235039","097-UM","2018/08/16 20:09:23","新北市中和區大勇街25巷38弄13號","121.516213333333","24.9941833333333","6500300","中和區"
"235065","098-UM","2018/08/16 20:09:31","新北市中和區永和路90巷9號","121.497541666667","25.0060616666667","6500300","中和區"
"235040","150-BY","2018/08/16 20:09:29","新北市中和區景安路16號","121.507678333333","24.9988533333333","6500300","中和區"
"247010","KEA-2869","2018/08/16 20:09:30","新北市蘆洲區集賢路380號","121.480205","25.0825983333333","6501400","蘆洲區"
"235050","4979-A6","2018/08/16 20:09:13","新北市中和區安樂路37號","121.51187","24.9930183333333","6500300","中和區"
"235069","4980-A6","2018/08/16 20:09:38","新北市中和區景新街132巷6-3號","121.504718333333","24.9982766666667","6500300","中和區"
"235046","733-UM","2018/08/16 20:09:29","新北市中和區忠孝街31巷7號","121.510375","24.983225","6500300","中和區"
"235048","896-TW","2018/08/16 20:09:28","新北市中和區景新街493號","121.513781666667","24.9871816666667","6500300","中和區"
"235051","157-BY","2018/08/16 20:09:23","新北市中和區景安路220巷4弄4號","121.50344","24.99091","6500300","中和區"
"235037","AAC-213","2018/08/16 20:09:19","新北市中和區立人街43號","121.520715","24.9941516666667","6500300","中和區"
"235059","AAC-215","2018/08/16 20:09:30","新北市中和區圓通路335巷33弄35號","121.493736666667","24.9886916666667","6500300","中和區"
"220086","073-UY","2018/08/16 20:09:37","新北市八里區下罟子17號","121.38246","25.1442933333333","6500100","板橋區"
"220069","AAD-861","2018/08/16 20:09:36","新北市板橋區貴興路54號","121.4569","25.0030566666667","6500100","板橋區"
"247024","893-R6","2018/08/16 20:09:39","新北市蘆洲區光明路116號","121.463748333333","25.0883066666667","6501400","蘆洲區"
"247022","500-BY","2018/08/16 20:09:27","新北市蘆洲區三民路175號","121.47096","25.0873016666667","6501400","蘆洲區"
"247012","339-TH","2018/08/16 20:09:21","新北市蘆洲區民族路252號","121.479095","25.0887833333333","6501400","蘆洲區"
"247004","337-TH","2018/08/16 20:09:26","新北市蘆洲區長安街285巷24號","121.456958333333","25.0840466666667","6501400","蘆洲區"
"247006","336-TH","2018/08/16 20:09:24","新北市蘆洲區中山二路309號","121.468718333333","25.0773316666667","6501400","蘆洲區"
"247018","057-VK","2018/08/16 20:09:29","新北市蘆洲區民族路314巷9號","121.477745","25.0904483333333","6501400","蘆洲區"
"247008","056-VK","2018/08/16 20:09:29","新北市蘆洲區中山一路135巷6弄19號","121.475176666667","25.08098","6501400","蘆洲區"
"247014","053-VK","2018/08/16 20:09:17","新北市蘆洲區中山二路273號","121.469688333333","25.0795383333333","6501400","蘆洲區"
"247016","007-UY","2018/08/16 20:09:31","新北市蘆洲區光華路158號","121.465653333333","25.082285","6501400","蘆洲區"
"247002","002-UY","2018/08/16 20:09:36","新北市蘆洲區永康街2巷8號","121.459323333333","25.0861583333333","6501400","蘆洲區"
"247020","001-UY","2018/08/16 20:09:17","新北市蘆洲區民權路106巷5弄2-1號","121.474403333333","25.0890633333333","6501400","蘆洲區"
"224010","AGQ-8101","2018/08/16 20:09:29","新北市瑞芳區輕便路308號","121.843005","25.1084683333333","6501200","瑞芳區"
"224002","639-TC","2018/08/16 20:09:37","新北市瑞芳區蛇子形路7號","121.82602","25.1050233333333","6501200","瑞芳區"
"222001","KEA-2212","2018/08/16 20:09:35","新北市深坑區北深路三段193號","121.601113333333","25.0037033333333","6501800","深坑區"
"208002","KEA-2872","2018/08/16 20:09:28","新北市金山區環金路19號","121.640863333333","25.217645","6502700","金山區"
"208003","665-BX","2018/08/16 20:09:32","新北市金山區海興路35-1號","121.629695","25.2369116666667","6502700","金山區"
"208001","761-BX","2018/08/16 20:09:23","新北市金山區南勢41-1號","121.629145","25.2198883333333","6502700","金山區"
"251009","008-UM","2018/08/16 20:09:22","新北市淡水區英專路42-1號","121.445686666667","25.1704216666667","6501000","淡水區"
"251001","011-UM","2018/08/16 20:09:32","新北市淡水區新市二路四段265號","121.445708333333","25.1925266666667","6501000","淡水區"
"251013","KEA-2871","2018/08/16 20:09:25","新北市淡水區奎柔山路258號","121.456878333333","25.2052916666667","6501000","淡水區"
"251016","179-VK","2018/08/16 20:09:19","新北市淡水區番子田18-4號","121.456605","25.22953","6501000","淡水區"
"251014","180-VK","2018/08/16 20:09:27","新北市淡水區石頭厝1號","121.458741666667","25.23553","6501000","淡水區"
"251015","181-VK","2018/08/16 20:09:25","新北市淡水區埤島77-5號","121.450803333333","25.1922116666667","6501000","淡水區"
"251010","413-VK","2018/08/16 20:09:30","新北市淡水區中正路二段397號","121.425536666667","25.1911533333333","6501000","淡水區"
"251012","441-VK","2018/08/16 20:09:20","新北市淡水區下圭柔山56-11號","121.447406666667","25.2046433333333","6501000","淡水區"
"251008","442-VK","2018/08/16 20:09:22","新北市淡水區淡海路72巷33弄6號","121.4245","25.182795","6501000","淡水區"
"251004","443-VK","2018/08/16 20:09:34","新北市淡水區民族路31-20號","121.46197","25.1363616666667","6501000","淡水區"
"251006","561-UM","2018/08/16 20:09:18","新北市淡水區北新路141巷60弄11號","121.44827","25.17966","6501000","淡水區"
"251007","577-R6","2018/08/16 20:09:35","新北市淡水區淡金路一段69號","121.458043333333","25.17352","6501000","淡水區"
"251003","673-BX","2018/08/16 20:09:32","新北市淡水區中山北路二段189巷15弄29號","121.443461666667","25.184175","6501000","淡水區"
"207003","550-UM","2018/08/16 20:09:17","新北市萬里區大鵬里萬里加投192號","121.642863333333","25.2157883333333","6502800","萬里區"
"207004","225-TW","2018/08/16 20:09:37","新北市萬里區北基里愛二街2號","121.682485","25.17678","6502800","萬里區"
"252002","178-VK","2018/08/16 20:09:33","新北市三芝區中正路一段70號","121.50401","25.2577983333333","6502100","三芝區"
"252001","292-VK","2018/08/16 20:09:24","新北市三芝區公正街9號","121.49981","25.2575433333333","6502100","三芝區"
"237009","210-TH","2018/08/16 20:09:36","新北市三峽區民權街185號","121.367966666667","24.929555","6500900","三峽區"
"237012","275-BY","2018/08/16 20:09:21","新北市三峽區中華路65號","121.372138333333","24.93044","6500900","三峽區"
"237008","302-VK","2018/08/16 20:09:24","新北市三峽區中華路46-9號","121.371803333333","24.9302533333333","6500900","三峽區"
"237014","433-BY","2018/08/16 20:09:32","新北市三峽區中正路一段141號","121.373363333333","24.9288966666667","6500900","三峽區"
"237006","5529-G3","2018/08/16 20:09:23","新北市三峽區中正路二段299巷33號","121.366983333333","24.9112","6500900","三峽區"
"237011","KEA-2596","2018/08/16 20:09:31","新北市三峽區中正路一段522巷1號","121.369526666667","24.9201833333333","6500900","三峽區"
"237016","649-BX","2018/08/16 20:09:19","新北市三峽區介壽路二段138巷1弄21號","121.396503333333","24.93353","6500900","三峽區"
"237005","AKY-6261","2018/08/16 20:09:22","新北市三峽區三樹路98巷74弄91號","121.385053333333","24.938485","6500900","三峽區"
"236070","105-UM","2018/08/16 20:09:29","新北市土城區中央路三段183號","121.431453333333","24.9649933333333","6501300","土城區"
"236042","107-UM","2018/08/16 20:09:23","新北市土城區學府路一段160號","121.454346666667","24.9865716666667","6501300","土城區"
"236078","166-UM","2018/08/16 20:09:26","新北市土城區三民路61巷2號","121.419485","24.9643766666667","6501300","土城區"
"236030","253-BX","2018/08/16 20:09:18","新北市土城區中央路一段118巷1弄1號","121.446156666667","24.9882","6501300","土城區"
"236026","269-VK","2018/08/16 20:09:30","新北市土城區中央路一段269-3號","121.444886666667","24.98518","6501300","土城區"
"236014","270-VK","2018/08/16 20:09:27","新北市土城區廣興街39號","121.454893333333","24.991645","6501300","土城區"
"236038","271-VK","2018/08/16 20:09:23","新北市土城區延吉街355號","121.464543333333","24.9840533333333","6501300","土城區"
"236021","401-BY","2018/08/16 20:09:25","新北市土城區和城路二段255巷66-1號","121.474918333333","24.9874016666667","6501300","土城區"
"236059","752-BX","2018/08/16 20:09:20","新北市土城區中央路二段187號","121.442146666667","24.9756216666667","6501300","土城區"
"236049","913-UM","2018/08/16 20:09:20","新北市土城區金城路三段19號","121.465088333333","24.9864","6501300","土城區"
"236063","915-UM","2018/08/16 20:09:21","新北市土城區延和路9號","121.463821666667","24.9879316666667","6501300","土城區"
"236055","AAC-216","2018/08/16 20:09:35","新北市土城區中華路一段20號","121.447538333333","24.9903433333333","6501300","土城區"
"242034","AAC-296","2018/08/16 20:09:20","新北市新莊區中正路318巷16號","121.446423333333","25.0359033333333","6500500","新莊區"
"242058","986-R7","2018/08/16 20:09:23","新北市新莊區八德街115號","121.424061666667","25.0208583333333","6500500","新莊區"
"242027","615-BX","2018/08/16 20:09:20","新北市新莊區幸福路743號","121.448655","25.04916","6500500","新莊區"
"242025","613-BX","2018/08/16 20:09:35","新北市新莊區五權一路12巷21弄32號","121.458461666667","25.0649233333333","6500500","新莊區"
"242042","566-BX","2018/08/16 20:09:29","新北市新莊區青山路一段200-4號","121.397785","25.0317633333333","6500500","新莊區"
"242046","497-BY","2018/08/16 20:09:29","新北市新莊區福營路591-1號","121.41953","25.02289","6500500","新莊區"
"242053","442-UM","2018/08/16 20:09:26","新北市新莊區西盛街387巷34弄5號","121.428565","25.0129583333333","6500500","新莊區"
"242051","441-UM","2018/08/16 20:09:33","新北市新莊區民安西路172巷6弄10號","121.425265","25.01639","6500500","新莊區"
"242056","440-UM","2018/08/16 20:09:31","新北市新莊區新莊路649巷13弄12號","121.44546","25.0318183333333","6500500","新莊區"
"242036","415-TV","2018/08/16 20:09:35","新北市新莊區後港一路130巷15號","121.42978","25.02666","6500500","新莊區"
"242007","413-TV","2018/08/16 20:09:23","新北市新莊區思源路419巷1弄1號","121.459326666667","25.052475","6500500","新莊區"
"242044","400-BY","2018/08/16 20:09:28","新北市新莊區萬壽路一段21巷17弄14號","121.411093333333","25.020025","6500500","新莊區"
"242023","362-BY","2018/08/16 20:09:33","新北市新莊區化成路610號","121.46615","25.0547166666667","6500500","新莊區"
"242061","353-BY","2018/08/16 20:09:30","新北市新莊區瓊林路96-6號","121.443916666667","25.0270433333333","6500500","新莊區"
"242009","132-UY","2018/08/16 20:09:29","新北市新莊區昌盛街35巷3弄1號","121.454043333333","25.0505166666667","6500500","新莊區"
"242039","133-UY","2018/08/16 20:09:31","新北市新莊區民安西路107號","121.426866666667","25.018505","6500500","新莊區"
"242031","135-UY","2018/08/16 20:09:21","新北市新莊區公園一路5號","121.443345","25.0346833333333","6500500","新莊區"
"242048","172-VK","2018/08/16 20:09:30","新北市新莊區四維路152巷29號","121.422028333333","25.0224583333333","6500500","新莊區"
"242011","173-VK","2018/08/16 20:09:07","新北市新莊區中平路270巷25號","121.446208333333","25.0503883333333","6500500","新莊區"
"242017","175-VK","2018/08/16 20:09:17","新北市新莊區中港路397號","121.451866666667","25.0469433333333","6500500","新莊區"
"242004","176-VK","2018/08/16 20:09:27","新北市新莊區頭興街1-3號","121.46413","25.053535","6500500","新莊區"
"242015","346-TH","2018/08/16 20:09:33","新北市新莊區中平路26巷34號","121.446263333333","25.04319","6500500","新莊區"
"242021","347-TH","2018/08/16 20:09:36","新北市新莊區建中街32巷15號","121.448783333333","25.038065","6500500","新莊區"
"242002","349-TH","2018/08/16 20:09:35","新北市新莊區中正路143號","121.459693333333","25.0384716666667","6500500","新莊區"
"242019","350-TH","2018/08/16 20:09:24","新北市新莊區長青街3號","121.459346666667","25.0424483333333","6500500","新莊區"
"238021","KEA-2539","2018/08/16 20:09:18","新北市樹林區八德街828-2號","121.394148333333","24.9677533333333","6500700","樹林區"
"221008","489-VK","2018/08/16 20:09:26","新北市汐止區忠三街9巷32號","121.624516666667","25.08029","6501100","汐止區"
"221036","130-UY","2018/08/16 20:09:26","新北市汐止區新台五路二段19號","121.662523333333","25.0660916666667","6501100","汐止區"
"221015","131-UY","2018/08/16 20:09:28","新北市汐止區建成路35號","121.66382","25.0726566666667","6501100","汐止區"
"221010","269-BY","2018/08/16 20:09:30","新北市汐止區八連路一段267號","121.640506666667","25.08427","6501100","汐止區"
"221012","278-VK","2018/08/16 20:09:21","新北市汐止區汐平路二段28-3號","121.694233333333","25.0658566666667","6501100","汐止區"
"221023","279-VK","2018/08/16 20:09:36","新北市汐止區明峰街298巷7弄2號","121.624961666667","25.068915","6501100","汐止區"
"221032","280-BY","2018/08/16 20:09:36","新北市汐止區弘道街8巷3弄2號","121.617106666667","25.0481283333333","6501100","汐止區"
"221027","281-BY","2018/08/16 20:09:27","新北市汐止區民生街1-1號","121.660138333333","25.0687133333333","6501100","汐止區"
"221029","298-VK","2018/08/16 20:09:30","新北市汐止區樟樹一路119巷10弄1號","121.641258333333","25.0646033333333","6501100","汐止區"
"221021","299-VK","2018/08/16 20:09:25","新北市汐止區連興街140號","121.65399","25.06156","6501100","汐止區"
"221031","353-TW","2018/08/16 20:09:35","新北市汐止區中興路214巷7弄2號","121.631516666667","25.06671","6501100","汐止區"
"221002","129-UY","2018/08/16 20:09:27","新北市汐止區中興路62號","121.635335","25.06128","6501100","汐止區"
"221035","622-UM","2018/08/16 20:09:28","新北市汐止區長江街67巷2弄4號","121.656833333333","25.072275","6501100","汐止區"
"221025","623-UM","2018/08/16 20:09:27","新北市汐止區秀峰路67號","121.659911666667","25.0644983333333","6501100","汐止區"
"221038","646-BX","2018/08/16 20:09:36","新北市汐止區大同路三段66-3號","121.668185","25.0772216666667","6501100","汐止區"
"221033","647-BX","2018/08/16 20:09:25","新北市汐止區東勢街201巷100號","121.633681666667","25.0430166666667","6501100","汐止區"
"221018","753-BX","2018/08/16 20:09:22","新北市汐止區茄福街27號","121.672593333333","25.0670116666667","6501100","汐止區"
"220101","245-BX","2018/08/16 20:09:20","新北市板橋區雙十路二段47巷2弄33號","121.47498","25.026755","6500100","板橋區"
"220072","277-BY","2018/08/16 20:09:36","新北市板橋區金門街109巷25號","121.433873333333","24.9916783333333","6500100","板橋區"
"220083","286-VK","2018/08/16 20:09:29","新北市板橋區僑中二街102巷38號","121.44469","25.0086633333333","6500100","板橋區"
"220081","287-VK","2018/08/16 20:09:32","新北市板橋區僑中一街124巷18弄40號","121.44766","25.0135266666667","6500100","板橋區"
"220090","288-VK","2018/08/16 20:09:25","新北市板橋區幸福路32巷65號","121.460323333333","25.0222133333333","6500100","板橋區"
"220061","293-UM","2018/08/16 20:09:26","新北市板橋區民生路二段89-2號","121.471628333333","25.0174966666667","6500100","板橋區"
"220092","299-UM","2018/08/16 20:09:25","新北市板橋區文化路一段81巷6號","121.46084","25.01419","6500100","板橋區"
"220098","317-R6","2018/08/16 20:09:33","新北市板橋區新海路72巷73號","121.4614","25.0232883333333","6500100","板橋區"
"220064","486-VK","2018/08/16 20:09:29","新北市板橋區長安街331巷10號","121.474358333333","25.01243","6500100","板橋區"
"242013","280-VK","2018/08/16 20:09:18","新北市新莊區幸福路678巷3弄1號","121.450256666667","25.049685","6500500","新莊區"
"220088","491-VK","2018/08/16 20:09:19","新北市板橋區民治街69號","121.479653333333","25.032755","6500100","板橋區"
"220035","560-BX","2018/08/16 20:09:18","新北市板橋區新生街53巷1弄10號","121.457023333333","25.0215433333333","6500100","板橋區"
"220103","561-BX","2018/08/16 20:09:33","新北市板橋區自由路26巷23號","121.466596666667","25.0224966666667","6500100","板橋區"
"220080","568-UM","2018/08/16 20:09:18","新北市板橋區大觀路二段153巷44弄23號","121.446116666667","24.9991533333333","6500100","板橋區"
"220093","689-BX","2018/08/16 20:09:26","新北市板橋區長江路一段91號","121.45911","25.02944","6500100","板橋區"
"220102","KEA-2699","2018/08/16 20:09:26","新北市板橋區民治街132號","121.477696666667","25.0308283333333","6500100","板橋區"
"220055","827-TW","2018/08/16 20:09:18","新北市板橋區仁愛路86巷7號","121.461063333333","24.999355","6500100","板橋區"
"220067","829-TW","2018/08/16 20:09:19","新北市板橋區中山路一段206巷87號","121.47189","25.01339","6500100","板橋區"
"220068","830-TW","2018/08/16 20:09:28","新北市板橋區中山路二段457號","121.481723333333","25.0203016666667","6500100","板橋區"
"220096","831-TW","2018/08/16 20:09:34","新北市板橋區莒光路79巷8號","121.472098333333","25.0244166666667","6500100","板橋區"
"220089","833-TW","2018/08/16 20:09:21","新北市板橋區互助街56號","121.461435","25.026865","6500100","板橋區"
"220074","895-R6","2018/08/16 20:09:34","新北市板橋區府中路67號","121.458063333333","25.0094233333333","6500100","板橋區"
"220073","985-R7","2018/08/16 20:09:20","新北市板橋區僑中一街124巷70-5號","121.448748333333","25.0163933333333","6500100","板橋區"
"220097","AAC-210","2018/08/16 20:09:26","新北市板橋區光正街18巷1號","121.462455","25.017245","6500100","板橋區"
"220070","AAC-253","2018/08/16 20:09:18","新北市板橋區德興街26號","121.453401666667","24.9939966666667","6500100","板橋區"
"235068","KEA-2873","2018/08/16 20:09:11","新北市中和區永和路39巷4號","121.497833333333","25.0050583333333","6500300","中和區"
