"lineid","car","time","location","longitude","latitude","cityid","cityname"
"234007","207-UY","2018/08/16 20:19:16","新北市永和區環河西路二段217巷1號","121.501456666667","25.0100816666667","6500400","永和區"
"234081","298-R6","2018/08/16 20:19:16","新北市永和區福和路7巷10弄7號","121.524913333333","25.00749","6500400","永和區"
"234064","337-UY","2018/08/16 20:19:26","新北市永和區得和路103號","121.51812","25.0003433333333","6500400","永和區"
"234086","338-UY","2018/08/16 20:19:29","新北市永和區永和路二段207號","121.515503333333","25.01382","6500400","永和區"
"234070","552-UM","2018/08/16 20:19:17","新北市永和區福和路263巷17號","121.518103333333","25.0063283333333","6500400","永和區"
"234038","553-UM","2018/08/16 20:19:22","新北市永和區成功路一段93巷20弄2號","121.528293333333","25.0026733333333","6500400","永和區"
"234017","745-BX","2018/08/16 20:19:28","新北市永和區永和路二段185號","121.515176666667","25.013495","6500400","永和區"
"234030","746-BX","2018/08/16 20:19:37","新北市永和區民有街25巷6號","121.51724","24.9963266666667","6500400","永和區"
"234054","KEA-2590","2018/08/16 20:19:17","新北市永和區光復街2巷24號","121.517588333333","25.0165883333333","6500400","永和區"
"234013","KEA-2591","2018/08/16 20:19:22","新北市永和區保生路40巷1號","121.505871666667","25.00837","6500400","永和區"
"234061","AAD-866","2018/08/16 20:19:35","新北市永和區得和路88號","121.516901666667","25.0000483333333","6500400","永和區"
"234042","862-TW","2018/08/16 20:19:35","新北市中和區中和路350巷12弄2號","121.510823333333","25.00017","6500400","永和區"
"234050","863-TW","2018/08/16 20:19:34","新北市永和區保安路2號","121.510778333333","25.0176433333333","6500400","永和區"
"234011","9373-KE","2018/08/16 20:19:25","新北市永和區保生路55號","121.504648333333","25.0107166666667","6500400","永和區"
"249005","172-UM","2018/08/16 20:19:33","新北市八里區下罟子2-13號","121.388388333333","25.1413016666667","6502300","八里區"
"249001","173-UM","2018/08/16 20:19:36","新北市八里區中華路二段536-4號","121.399116666667","25.1451133333333","6502300","八里區"
"249004","303-UY","2018/08/16 20:19:35","新北市八里區中山路一段127號","121.413428333333","25.1593016666667","6502300","八里區"
"248016","026-BX","2018/08/16 20:19:32","新北市五股區凌雲路一段158巷40號","121.447218333333","25.103815","6501500","五股區"
"248012","247-BX","2018/08/16 20:19:26","新北市五股區民義路一段212號","121.430596666667","25.0894","6501500","五股區"
"248010","272-BY","2018/08/16 20:19:15","新北市五股區新五路二段2巷6號","121.438186666667","25.0661933333333","6501500","五股區"
"248004","677-BX","2018/08/16 20:19:20","新北市五股區中興路四段54號","121.43805","25.0830116666667","6501500","五股區"
"248002","678-BX","2018/08/16 20:19:24","新北市五股區成泰路三段169號","121.445383333333","25.0917716666667","6501500","五股區"
"234023","9380-KE","2018/08/16 20:19:34","新北市永和區永和路二段220-15號","121.516171666667","25.0141283333333","6500400","永和區"
"234077","969-R7","2018/08/16 20:19:18","新北市永和區中正路106號","121.514486666667","24.9959266666667","6500400","永和區"
"234074","AAC-211","2018/08/16 20:19:33","新北市永和區豫溪街160巷1號","121.523303333333","25.0095733333333","6500400","永和區"
"234067","AAC-212","2018/08/16 20:19:35","新北市永和區保平路270號","121.508583333333","25.005235","6500400","永和區"
"234003","AAC-295","2018/08/16 20:19:19","新北市永和區大新街3號","121.514493333333","25.0086233333333","6500400","永和區"
"243013","AAD-798","2018/08/16 20:19:28","新北市泰山區新民路12號","121.426443333333","25.0447366666667","6501600","泰山區"
"243009","297-R6","2018/08/16 20:19:26","新北市泰山區福泰街9號","121.432631666667","25.0603516666667","6501600","泰山區"
"243016","KEA-2801","2018/08/16 20:19:33","新北市泰山區明志路三段80號","121.424845","25.04162","6501600","泰山區"
"243015","421-VK","2018/08/16 20:19:31","新北市泰山區同義街47巷26號","121.432563333333","25.0562316666667","6501600","泰山區"
"243011","KEA-2215","2018/08/16 20:19:28","新北市泰山區壽山路160巷4號","121.416993333333","25.0310583333333","6501600","泰山區"
"243010","KEA-2216","2018/08/16 20:19:32","新北市泰山區明志路二段273巷14弄2號","121.427466666667","25.0471383333333","6501600","泰山區"
"243012","646-TV","2018/08/16 20:19:26","新北市泰山區楓江路57號","121.435898333333","25.0627183333333","6501600","泰山區"
"243014","680-BX","2018/08/16 20:19:32","新北市泰山區泰林路二段399號","121.427066666667","25.0642216666667","6501600","泰山區"
"222003","016-RS","2018/08/16 20:19:32","新北市深坑區文化街82號","121.617815","25.0019466666667","6501800","深坑區"
"222002","659-BX","2018/08/16 20:19:36","新北市深坑區萬福路75巷47號","121.598243333333","25.0097333333333","6501800","深坑區"
"231045","001-UM","2018/08/16 20:19:30","新北市新店區新坡一街72號","121.548945","24.9645416666667","6500600","新店區"
"231041","002-UM","2018/08/16 20:19:30","新北市新店區民權路42-1號","121.540355","24.9830033333333","6500600","新店區"
"231059","046-UY","2018/08/16 20:19:34","新北市新店區安成街38號","121.509981666667","24.9613033333333","6500600","新店區"
"231040","047-UY","2018/08/16 20:19:35","新北市新店區中正路211號","121.539815","24.972665","6500600","新店區"
"231044","106-UY","2018/08/16 20:19:31","新北市新店區北新路三段99號","121.541458333333","24.9819416666667","6500600","新店區"
"231052","108-UY","2018/08/16 20:19:36","新北市新店區松林路5號","121.546965","24.9113866666667","6500600","新店區"
"231068","110-UY","2018/08/16 20:19:23","新北市新店區民權路11巷4號","121.542288333333","24.98255","6500600","新店區"
"231047","187-VK","2018/08/16 20:19:29","新北市新店區寶橋路88號","121.546586666667","24.97573","6500600","新店區"
"231054","KEA-2219","2018/08/16 20:19:35","新北市新店區檳榔路109號","121.544353333333","24.961725","6500600","新店區"
"231057","256-BX","2018/08/16 20:19:35","新北市新店區花園七路一段8號","121.554375","24.93502","6500600","新店區"
"231042","268-BY","2018/08/16 20:19:19","新北市新店區中興路二段186號","121.548215","24.9726216666667","6500600","新店區"
"231051","278-BY","2018/08/16 20:19:18","新北市新店區中央六街111號","121.525395","24.9773766666667","6500600","新店區"
"231050","AAD-862","2018/08/16 20:19:33","新北市新店區博愛街8巷2號","121.541166666667","24.973395","6500600","新店區"
"231058","3713-VJ","2018/08/16 20:19:26","新北市新店區中央路7號","121.53341","24.9786216666667","6500600","新店區"
"231066","4716-K9","2018/08/16 20:19:34","新北市新店區柴埕路34-1號","121.51347","24.9650316666667","6500600","新店區"
"231056","4715-K9","2018/08/16 20:19:17","新北市新店區中正路336號","121.536735","24.9749916666667","6500600","新店區"
"231067","4772-VM","2018/08/16 20:19:33","新北市新店區溪洲路8巷94號","121.533291666667","24.962555","6500600","新店區"
"231065","512-UM","2018/08/16 20:19:37","新北市新店區安祥路106巷38號","121.477135","24.9618066666667","6500600","新店區"
"231049","513-UM","2018/08/16 20:19:26","新北市新店區北新路二段68號","121.542908333333","24.9724416666667","6500600","新店區"
"231061","619-UM","2018/08/16 20:19:28","新北市新店區安興路51號","121.516468333333","24.971715","6500600","新店區"
"231063","641-BX","2018/08/16 20:19:20","新北市新店區車子路1-1號","121.504748333333","24.95783","6500600","新店區"
"231064","719-UM","2018/08/16 20:16:20","新北市新店區安和路二段166號","121.519741666667","24.9737683333333","6500600","新店區"
"231062","720-UM","2018/08/16 20:19:29","新北市新店區安泰路7巷16號","121.485705","24.9510183333333","6500600","新店區"
"231060","897-TW","2018/08/16 20:19:22","新北市新店區錦秀路11巷90弄2號","121.480385","24.94317","6500600","新店區"
"231043","899-TW","2018/08/16 20:19:18","新北市新店區民族路65號","121.539698333333","24.978225","6500600","新店區"
"231055","AKT-0513","2018/08/16 20:19:23","新北市新店區光明街145號","121.539288333333","24.962255","6500600","新店區"
"241011","013-R5","2018/08/16 20:19:29","新北市三重區龍門路203號","121.499903333333","25.0733766666667","6500200","三重區"
"241028","022-UY","2018/08/16 20:19:37","新北市三重區大同南路83-5號","121.49608","25.0592683333333","6500200","三重區"
"241008","059-VK","2018/08/16 20:19:24","新北市三重區永福街211巷17號","121.479366666667","25.0740683333333","6500200","三重區"
"241022","060-VK","2018/08/16 20:19:31","新北市三重區市前街14號","121.4891","25.0623866666667","6500200","三重區"
"241031","061-VK","2018/08/16 20:19:34","新北市三重區三寧街18號","121.489453333333","25.0598716666667","6500200","三重區"
"241015","062-VK","2018/08/16 20:19:32","新北市三重區重新路一段122號","121.500321666667","25.063025","6500200","三重區"
"241017","063-VK","2018/08/16 20:19:23","新北市三重區自強路一段157號","121.493388333333","25.0671866666667","6500200","三重區"
"241024","065-VK","2018/08/16 20:19:25","新北市三重區忠孝路三段1號","121.481878333333","25.0679","6500200","三重區"
"241026","066-VK","2018/08/16 20:19:27","新北市三重區福德南路23號","121.502768333333","25.0628233333333","6500200","三重區"
"241002","090-VK","2018/08/16 20:19:24","新北市三重區仁義街101巷24號","121.498621666667","25.0805383333333","6500200","三重區"
"241003","091-VK","2018/08/16 20:19:26","新北市三重區富華街68號","121.490571666667","25.08312","6500200","三重區"
"241005","262-UM","2018/08/16 20:19:29","新北市三重區碧華街245號","121.489195","25.0829833333333","6500200","三重區"
"241016","266-UM","2018/08/16 20:19:28","新北市三重區大同北路54巷1號","121.494153333333","25.063615","6500200","三重區"
"241009","267-UM","2018/08/16 20:19:37","新北市三重區三和路四段382巷63號","121.48095","25.0785033333333","6500200","三重區"
"241018","268-UM","2018/08/16 20:19:30","新北市三重區雙園街103號","121.493758333333","25.0672783333333","6500200","三重區"
"241032","269-UM","2018/08/16 20:19:28","新北市三重區捷運路37巷18號","121.484171666667","25.056855","6500200","三重區"
"241013","270-UM","2018/08/16 20:19:35","新北市三重區三和路三段151巷2號","121.492108333333","25.0738566666667","6500200","三重區"
"241025","271-UM","2018/08/16 20:19:18","新北市三重區三民街266號","121.479031666667","25.067845","6500200","三重區"
"241007","398-BY","2018/08/16 20:19:25","新北市三重區仁美街55號","121.486993333333","25.0780433333333","6500200","三重區"
"241035","462-BY","2018/08/16 20:19:34","新北市三重區正義北路33巷51號","121.499068333333","25.063885","6500200","三重區"
"241004","475-VK","2018/08/16 20:19:24","新北市三重區仁愛街390號","121.490948333333","25.0808366666667","6500200","三重區"
"241020","478-VK","2018/08/16 20:19:26","新北市三重區後竹圍街2巷1弄5號","121.491716666667","25.073415","6500200","三重區"
"241030","480-VK","2018/08/16 20:19:37","新北市三重區集成路32巷3號","121.488401666667","25.0527383333333","6500200","三重區"
"241014","543-UM","2018/08/16 20:19:24","新北市三重區龍門路244號","121.50079","25.0739383333333","6500200","三重區"
"241023","545-UM","2018/08/16 20:19:19","新北市三重區忠孝路三段93巷2號","121.479771666667","25.064705","6500200","三重區"
"241001","547-UM","2018/08/16 20:19:38","新北市三重區自強路四段3巷28號","121.489723333333","25.0764733333333","6500200","三重區"
"241019","KEA-2593","2018/08/16 20:19:21","新北市三重區三張街105號","121.489156666667","25.0704866666667","6500200","三重區"
"241006","AAD-863","2018/08/16 20:19:20","新北市三重區車路頭街135-1號","121.484228333333","25.0761766666667","6500200","三重區"
"241012","941-UM","2018/08/16 20:19:27","新北市三重區河邊北街379-1號","121.501733333333","25.07646","6500200","三重區"
"241029","942-UM","2018/08/16 20:19:24","新北市三重區重安街98號","121.492601666667","25.0559916666667","6500200","三重區"
"241033","AAC-255","2018/08/16 20:19:36","新北市三重區五谷王北街50巷21號","121.475461666667","25.0514366666667","6500200","三重區"
"235066","003-UY","2018/08/16 20:19:35","新北市中和區保平路368號","121.506476666667","25.0035983333333","6500300","中和區"
"235039","097-UM","2018/08/16 20:19:23","新北市中和區大勇街27巷4號","121.517238333333","24.9937466666667","6500300","中和區"
"235065","098-UM","2018/08/16 20:19:31","新北市中和區橋和路300號","121.496921666667","25.0069683333333","6500300","中和區"
"235040","150-BY","2018/08/16 20:19:29","新北市中和區保健路26巷29號","121.508888333333","24.9969483333333","6500300","中和區"
"247010","KEA-2869","2018/08/16 20:19:30","新北市蘆洲區信義路188巷13號","121.479841666667","25.0845533333333","6501400","蘆洲區"
"235050","4979-A6","2018/08/16 20:19:33","新北市中和區景平路392號","121.510161666667","24.9929716666667","6500300","中和區"
"235069","4980-A6","2018/08/16 20:19:38","新北市中和區圓通路192號","121.496345","24.9946466666667","6500300","中和區"
"235059","AAC-215","2018/08/16 20:19:30","新北市中和區圓通路395號","121.489568333333","24.9891633333333","6500300","中和區"
"220086","073-UY","2018/08/16 20:19:17","新北市八里區中山路三段409號","121.368733333333","25.1354766666667","6500100","板橋區"
"247024","893-R6","2018/08/16 20:19:19","新北市蘆洲區光榮路120巷8弄41號","121.464515","25.0879733333333","6501400","蘆洲區"
"247022","500-BY","2018/08/16 20:19:27","新北市蘆洲區民族路451號","121.467528333333","25.0885883333333","6501400","蘆洲區"
"247012","339-TH","2018/08/16 20:19:21","新北市蘆洲區中興街46號","121.481476666667","25.0871716666667","6501400","蘆洲區"
"247004","337-TH","2018/08/16 20:19:26","新北市蘆洲區長安街297號","121.457991666667","25.0847716666667","6501400","蘆洲區"
"247006","336-TH","2018/08/16 20:19:24","新北市蘆洲區九芎街153巷8號","121.465346666667","25.078745","6501400","蘆洲區"
"247018","057-VK","2018/08/16 20:19:29","新北市蘆洲區民族路408巷10號","121.474791666667","25.0918266666667","6501400","蘆洲區"
"247008","056-VK","2018/08/16 20:19:37","新北市蘆洲區集賢路230號","121.482178333333","25.0863066666667","6501400","蘆洲區"
"247016","007-UY","2018/08/16 20:19:31","新北市蘆洲區光華路132巷39號","121.465803333333","25.0837683333333","6501400","蘆洲區"
"247002","002-UY","2018/08/16 20:19:36","新北市蘆洲區長安街331巷34號","121.455941666667","25.0866233333333","6501400","蘆洲區"
"247020","001-UY","2018/08/16 20:19:17","新北市蘆洲區仁愛街48號","121.471781666667","25.0934716666667","6501400","蘆洲區"
"224010","AGQ-8101","2018/08/16 20:19:24","新北市瑞芳區輕便路206號","121.845086666667","25.1103133333333","6501200","瑞芳區"
"222001","KEA-2212","2018/08/16 20:19:23","新北市深坑區北深路三段245號","121.599423333333","25.00411","6501800","深坑區"
"251001","011-UM","2018/08/16 20:19:32","新北市淡水區新市二路四段265號","121.445693333333","25.192605","6501000","淡水區"
"251013","KEA-2871","2018/08/16 20:19:25","新北市淡水區相公山2號","121.474606666667","25.2065533333333","6501000","淡水區"
"251016","179-VK","2018/08/16 20:19:19","新北市淡水區淡金路五段20號","121.453396666667","25.23239","6501000","淡水區"
"251014","180-VK","2018/08/16 20:19:27","新北市淡水區石頭厝1號","121.45873","25.2355233333333","6501000","淡水區"
"251015","181-VK","2018/08/16 20:19:25","新北市淡水區埤島6-10號","121.446296666667","25.1939316666667","6501000","淡水區"
"251010","413-VK","2018/08/16 20:19:30","新北市淡水區新民街一段159巷3號","121.427313333333","25.1887133333333","6501000","淡水區"
"251012","441-VK","2018/08/16 20:19:20","新北市淡水區淡金路三段405-2號","121.449118333333","25.2083933333333","6501000","淡水區"
"251008","442-VK","2018/08/16 20:19:21","新北市淡水區淡海路150巷14號","121.422301666667","25.1842233333333","6501000","淡水區"
"251006","561-UM","2018/08/16 20:19:38","新北市淡水區淡金路一段571號","121.452513333333","25.180495","6501000","淡水區"
"251007","577-R6","2018/08/16 20:19:35","新北市淡水區淡金路一段69號","121.458103333333","25.1735433333333","6501000","淡水區"
"251003","673-BX","2018/08/16 20:19:32","新北市淡水區中山北路一段233號","121.44397","25.1796883333333","6501000","淡水區"
"207004","225-TW","2018/08/16 20:19:22","新北市萬里區北基里大仁路4號","121.682028333333","25.1753066666667","6502800","萬里區"
"252002","178-VK","2018/08/16 20:19:33","新北市三芝區中正路一段29號","121.503056666667","25.258545","6502100","三芝區"
"252001","292-VK","2018/08/16 20:19:24","新北市三芝區中山路一段14號","121.500885","25.2580233333333","6502100","三芝區"
"237009","210-TH","2018/08/16 20:19:36","新北市三峽區民權街147號","121.36886","24.9316133333333","6500900","三峽區"
"237006","5529-G3","2018/08/16 20:19:23","新北市三峽區嘉添1-3號","121.36782","24.9117933333333","6500900","三峽區"
"237016","649-BX","2018/08/16 20:19:19","新北市三峽區橫溪路42巷22號","121.395706666667","24.9349183333333","6500900","三峽區"
"236070","105-UM","2018/08/16 20:19:29","新北市土城區三民路4號","121.420933333333","24.962915","6501300","土城區"
"236042","107-UM","2018/08/16 20:19:32","新北市土城區學享街14號","121.451378333333","24.9873066666667","6501300","土城區"
"236078","166-UM","2018/08/16 20:19:26","新北市土城區德安街4巷1號","121.422098333333","24.9647333333333","6501300","土城區"
"236030","253-BX","2018/08/16 20:19:18","新北市土城區學成路128巷13弄6號","121.449538333333","24.9901816666667","6501300","土城區"
"236026","269-VK","2018/08/16 20:19:30","新北市土城區中央路一段249巷14號","121.445948333333","24.9855383333333","6501300","土城區"
"236014","270-VK","2018/08/16 20:19:22","新北市板橋區四川路二段14號","121.456108333333","24.9961316666667","6501300","土城區"
"236059","752-BX","2018/08/16 20:19:20","新北市土城區中央路三段134-1號","121.433596666667","24.965675","6501300","土城區"
"242034","AAC-296","2018/08/16 20:18:20","新北市新莊區仁愛街51號","121.444258333333","25.03704","6500500","新莊區"
"242058","986-R7","2018/08/16 20:19:23","新北市新莊區八德街167號","121.423358333333","25.0191116666667","6500500","新莊區"
"242027","615-BX","2018/08/16 20:19:20","新北市新莊區幸福路556號","121.454736666667","25.0492983333333","6500500","新莊區"
"242025","613-BX","2018/08/16 20:19:35","新北市新莊區五工二路70巷14號","121.460856666667","25.06627","6500500","新莊區"
"242042","566-BX","2018/08/16 20:19:29","新北市新莊區壽山路73號","121.409553333333","25.0326716666667","6500500","新莊區"
"242046","497-BY","2018/08/16 20:19:29","新北市新莊區中正路新生巷10號","121.416831666667","25.0239816666667","6500500","新莊區"
"242053","442-UM","2018/08/16 20:19:26","新北市新莊區民安西路259號","121.426188333333","25.0131833333333","6500500","新莊區"
"242051","441-UM","2018/08/16 20:19:33","新北市新莊區民安西路201號","121.426011666667","25.0149016666667","6500500","新莊區"
"242056","440-UM","2018/08/16 20:19:23","新北市新莊區新莊路649巷7號","121.44506","25.03224","6500500","新莊區"
"242036","415-TV","2018/08/16 20:19:35","新北市新莊區後港一路56巷24弄9號","121.426206666667","25.02516","6500500","新莊區"
"242007","413-TV","2018/08/16 20:19:34","新北市新莊區福壽街124巷41弄16號","121.45932","25.0518066666667","6500500","新莊區"
"242044","400-BY","2018/08/16 20:19:28","新北市新莊區中正路895-9號","121.412866666667","25.0214683333333","6500500","新莊區"
"242023","362-BY","2018/08/16 20:19:33","新北市新莊區化成路776號","121.465165","25.0590716666667","6500500","新莊區"
"242061","353-BY","2018/08/16 20:19:27","新北市新莊區新樹路172號","121.434716666667","25.0219416666667","6500500","新莊區"
"242009","132-UY","2018/08/16 20:19:23","新北市新莊區昌平街29號","121.454745","25.0518966666667","6500500","新莊區"
"242039","133-UY","2018/08/16 20:19:31","新北市新莊區龍安路457號","121.424615","25.0184883333333","6500500","新莊區"
"242031","135-UY","2018/08/16 20:19:21","新北市新莊區義豐街27號","121.441036666667","25.0351633333333","6500500","新莊區"
"242048","172-VK","2018/08/16 20:19:35","新北市新莊區龍安路228號","121.420468333333","25.01981","6500500","新莊區"
"242011","173-VK","2018/08/16 20:19:27","新北市新莊區中信街37巷1弄5號","121.450638333333","25.0505433333333","6500500","新莊區"
"242017","175-VK","2018/08/16 20:19:17","新北市新莊區中港一街92號","121.449271666667","25.0453466666667","6500500","新莊區"
"242004","176-VK","2018/08/16 20:19:27","新北市新莊區頭前路15巷2號","121.4679","25.0522633333333","6500500","新莊區"
"242015","346-TH","2018/08/16 20:19:38","新北市新莊區中和街49號","121.447971666667","25.04453","6500500","新莊區"
"242021","347-TH","2018/08/16 20:19:16","新北市新莊區復興路一段11號","121.445723333333","25.0416316666667","6500500","新莊區"
"242002","349-TH","2018/08/16 20:19:39","新北市新莊區化成路26號","121.464748333333","25.0425916666667","6500500","新莊區"
"242019","350-TH","2018/08/16 20:19:24","新北市新莊區復興路二段185號","121.459035","25.0444683333333","6500500","新莊區"
"221008","489-VK","2018/08/16 20:19:26","新北市汐止區康寧街165號","121.622203333333","25.06662","6501100","汐止區"
"221036","130-UY","2018/08/16 20:19:26","新北市汐止區福安街57巷11號","121.66418","25.0641816666667","6501100","汐止區"
"221015","131-UY","2018/08/16 20:19:28","新北市汐止區建成路142巷19弄11號","121.661975","25.073805","6501100","汐止區"
"221010","269-BY","2018/08/16 20:19:30","新北市汐止區八連路二段494號","121.62897","25.106175","6501100","汐止區"
"221012","278-VK","2018/08/16 20:19:21","新北市汐止區保新街283號","121.692733333333","25.0682983333333","6501100","汐止區"
"221023","279-VK","2018/08/16 20:19:16","新北市汐止區明峰街94-1號","121.63099","25.0711166666667","6501100","汐止區"
"221032","280-BY","2018/08/16 20:19:32","新北市汐止區橫科路52巷9弄5號","121.619538333333","25.0501733333333","6501100","汐止區"
"221027","281-BY","2018/08/16 20:19:29","新北市汐止區大同路二段359號","121.657158333333","25.067275","6501100","汐止區"
"221029","298-VK","2018/08/16 20:19:30","新北市汐止區樟樹一路99巷7弄2號","121.641156666667","25.06371","6501100","汐止區"
"221021","299-VK","2018/08/16 20:19:25","新北市汐止區水源路一段272號","121.654196666667","25.0586433333333","6501100","汐止區"
"221031","353-TW","2018/08/16 20:19:35","新北市汐止區中興路150巷25號","121.633506666667","25.0652966666667","6501100","汐止區"
"221002","129-UY","2018/08/16 20:19:27","新北市汐止區福德三路75號","121.636476666667","25.0692383333333","6501100","汐止區"
"221035","622-UM","2018/08/16 20:19:28","新北市汐止區長江街101-5號","121.658716666667","25.07325","6501100","汐止區"
"221025","623-UM","2018/08/16 20:19:27","新北市汐止區水源路二段30號","121.654833333333","25.0573366666667","6501100","汐止區"
"221038","646-BX","2018/08/16 20:19:16","新北市汐止區忠孝東路472號","121.666193333333","25.0733183333333","6501100","汐止區"
"221033","647-BX","2018/08/16 20:19:25","新北市汐止區東勢街215巷1弄15號","121.633893333333","25.0422033333333","6501100","汐止區"
"221018","753-BX","2018/08/16 20:19:22","新北市汐止區茄安路43號","121.67367","25.068355","6501100","汐止區"
"220101","245-BX","2018/08/16 20:19:20","新北市板橋區萬板路476號","121.479938333333","25.0259833333333","6500100","板橋區"
"220083","286-VK","2018/08/16 20:19:29","新北市板橋區僑中二街104巷15號","121.445311666667","25.007935","6500100","板橋區"
"220081","287-VK","2018/08/16 20:19:32","新北市板橋區僑中一街80巷1弄13號","121.44692","25.011955","6500100","板橋區"
"220061","293-UM","2018/08/16 20:19:26","新北市板橋區四川路一段72號","121.459656666667","25.005385","6500100","板橋區"
"242013","280-VK","2018/08/16 20:19:18","新北市新莊區中和街186巷13號","121.447985","25.04987","6500500","新莊區"
"220103","561-BX","2018/08/16 20:19:29","新北市板橋區陽明街279巷1弄1號","121.461811666667","25.0260466666667","6500100","板橋區"
"220102","KEA-2699","2018/08/16 20:19:23","新北市板橋區漢生東路83巷4號","121.467073333333","25.0159033333333","6500100","板橋區"
"220055","827-TW","2018/08/16 20:19:18","新北市板橋區仁愛路23號","121.458913333333","24.9994733333333","6500100","板橋區"
"220089","833-TW","2018/08/16 20:19:21","新北市板橋區四維路137巷17號","121.46433","25.024875","6500100","板橋區"
"220073","985-R7","2018/08/16 20:19:20","新北市五股區凌雲路一段22巷11號","121.453216666667","25.10081","6500100","板橋區"
"220097","AAC-210","2018/08/16 20:19:29","新北市板橋區光正街45巷6弄6號","121.461398333333","25.01709","6500100","板橋區"
"220070","AAC-253","2018/08/16 20:19:38","新北市板橋區四川路二段253號","121.45047","24.99318","6500100","板橋區"
"235068","KEA-2873","2018/08/16 20:19:11","新北市中和區勝利路35巷1弄36號","121.500355","25.007875","6500300","中和區"
