"lineid","car","time","location","longitude","latitude","cityid","cityname"
"234077","969-R7","2018/08/16 21:19:18","新北市八里區商港路48號","121.395785","25.1449883333333","6500400","永和區"
"231059","046-UY","2018/08/16 21:19:34","新北市新店區安豐路30-1號","121.500703333333","24.9569016666667","6500600","新店區"
"231040","047-UY","2018/08/16 21:19:23","新北市新店區北新路一段229號","121.540675","24.9654916666667","6500600","新店區"
"231047","187-VK","2018/08/16 21:19:29","新北市新店區中正路397號","121.534468333333","24.977485","6500600","新店區"
"231054","KEA-2219","2018/08/16 21:19:35","新北市新店區檳榔路2號","121.540881666667","24.9649616666667","6500600","新店區"
"231051","278-BY","2018/08/16 21:19:39","新北市新店區安和路三段4巷1-3號","121.518333333333","24.980655","6500600","新店區"
"231050","AAD-862","2018/08/16 21:19:31","新北市新店區中正路183巷4號","121.540455","24.9720116666667","6500600","新店區"
"231065","512-UM","2018/08/16 21:19:37","新北市新店區安祥路35-1號","121.491425","24.95596","6500600","新店區"
"231061","619-UM","2018/08/16 21:19:28","新北市新店區永平街6號","121.517458333333","24.9834666666667","6500600","新店區"
"231063","641-BX","2018/08/16 21:19:20","新北市新店區吉祥街6巷1號","121.497626666667","24.9456383333333","6500600","新店區"
"231060","897-TW","2018/08/16 21:19:22","新北市新店區薏仁坑路自強巷6號","121.496393333333","24.9582783333333","6500600","新店區"
"241011","013-R5","2018/08/16 21:19:26","新北市三重區龍濱路197號","121.501878333333","25.0714216666667","6500200","三重區"
"241028","022-UY","2018/08/16 21:19:37","新北市三重區正義南路169號","121.498951666667","25.0575266666667","6500200","三重區"
"241008","059-VK","2018/08/16 21:19:24","新北市三重區自強路一段153號","121.493713333333","25.0668866666667","6500200","三重區"
"241031","061-VK","2018/08/16 21:19:34","新北市三重區五谷王南街46巷37號","121.475736666667","25.0455","6500200","三重區"
"241017","063-VK","2018/08/16 21:19:23","新北市三重區國隆路21號","121.492771666667","25.06417","6500200","三重區"
"241024","065-VK","2018/08/16 21:19:25","新北市三重區中正北路145巷14號","121.48417","25.0677666666667","6500200","三重區"
"241026","066-VK","2018/08/16 21:19:27","新北市三重區大同南路220號","121.496896666667","25.05626","6500200","三重區"
"241002","090-VK","2018/08/16 21:19:24","新北市三重區自強路五段45號","121.494185","25.0816216666667","6500200","三重區"
"241003","091-VK","2018/08/16 21:19:25","新北市三重區仁義街317號","121.495401666667","25.0842666666667","6500200","三重區"
"241005","262-UM","2018/08/16 21:19:29","新北市三重區五華街180巷19號","121.488096666667","25.08589","6500200","三重區"
"241016","266-UM","2018/08/16 21:19:28","新北市三重區自強路一段158號","121.495895","25.0662566666667","6500200","三重區"
"241009","267-UM","2018/08/16 21:19:37","新北市三重區新北大道一段206巷11號","121.482493333333","25.0623333333333","6500200","三重區"
"241018","268-UM","2018/08/16 21:19:30","新北市三重區忠孝路二段126號","121.48289","25.0688316666667","6500200","三重區"
"241032","269-UM","2018/08/16 21:19:28","新北市三重區光復路二段168號","121.472153333333","25.0610883333333","6500200","三重區"
"241013","270-UM","2018/08/16 21:19:35","新北市三重區仁愛街81-1號","121.49604","25.073205","6500200","三重區"
"241025","271-UM","2018/08/16 21:19:18","新北市三重區中正北路208巷10弄4號","121.482413333333","25.066925","6500200","三重區"
"241007","398-BY","2018/08/16 21:19:25","新北市三重區忠孝路一段70號","121.489708333333","25.0720366666667","6500200","三重區"
"241004","475-VK","2018/08/16 21:19:24","新北市三重區五華街131號","121.491095","25.08434","6500200","三重區"
"241030","480-VK","2018/08/16 21:19:37","新北市三重區五谷王北街181-1號","121.477513333333","25.0544383333333","6500200","三重區"
"241014","543-UM","2018/08/16 21:19:23","新北市三重區安和路60號","121.500678333333","25.0701133333333","6500200","三重區"
"241023","545-UM","2018/08/16 21:19:39","新北市三重區中正北路176巷16號","121.482691666667","25.065895","6500200","三重區"
"241019","KEA-2593","2018/08/16 21:19:21","新北市三重區重陽路三段132號","121.489213333333","25.066885","6500200","三重區"
"241006","AAD-863","2018/08/16 21:19:20","新北市三重區新北大道一段112號","121.484836666667","25.0615333333333","6500200","三重區"
"241029","942-UM","2018/08/16 21:19:24","新北市三重區新北大道一段68號","121.487138333333","25.0614733333333","6500200","三重區"
"241033","AAC-255","2018/08/16 21:19:36","新北市三重區光復路二段126巷2號","121.471158333333","25.0588183333333","6500200","三重區"
"247010","KEA-2869","2018/08/16 21:19:30","新北市蘆洲區鷺江街16-2號","121.478755","25.08252","6501400","蘆洲區"
"247024","893-R6","2018/08/16 21:19:39","新北市蘆洲區長榮路269巷26號","121.459551666667","25.0860016666667","6501400","蘆洲區"
"247022","500-BY","2018/08/16 21:19:27","新北市蘆洲區三民路245號","121.46889","25.0889233333333","6501400","蘆洲區"
"247012","339-TH","2018/08/16 21:19:20","新北市蘆洲區集賢路224巷35號","121.4811","25.0876816666667","6501400","蘆洲區"
"247004","337-TH","2018/08/16 21:19:26","新北市蘆洲區永安南路二段322號","121.456948333333","25.0827083333333","6501400","蘆洲區"
"247006","336-TH","2018/08/16 21:19:24","新北市蘆洲區長安街60號","121.46308","25.0797916666667","6501400","蘆洲區"
"247018","057-VK","2018/08/16 21:19:29","新北市蘆洲區復興路105巷11號","121.476385","25.0883766666667","6501400","蘆洲區"
"247008","056-VK","2018/08/16 21:19:37","新北市蘆洲區中山一路97巷24號","121.47593","25.080875","6501400","蘆洲區"
"247014","053-VK","2018/08/16 21:19:37","新北市蘆洲區保和街50-5號","121.469736666667","25.08627","6501400","蘆洲區"
"247002","002-UY","2018/08/16 21:19:35","新北市蘆洲區永樂街45-1號","121.456921666667","25.0885416666667","6501400","蘆洲區"
"247020","001-UY","2018/08/16 21:19:37","新北市蘆洲區民族路426巷66號","121.47262","25.09413","6501400","蘆洲區"
"251009","008-UM","2018/08/16 21:19:22","新北市淡水區民族路112巷1號","121.462638333333","25.1351666666667","6501000","淡水區"
"251005","010-UM","2018/08/16 21:19:32","新北市淡水區水源街一段122巷9號","121.44724","25.1712966666667","6501000","淡水區"
"251001","011-UM","2018/08/16 21:19:32","新北市淡水區濱海路一段306巷60弄38號","121.441978333333","25.191535","6501000","淡水區"
"251013","KEA-2871","2018/08/16 21:19:25","新北市淡水區行忠路328號","121.460555","25.19956","6501000","淡水區"
"251016","179-VK","2018/08/16 21:19:39","新北市淡水區前洲子11號","121.441061666667","25.2193716666667","6501000","淡水區"
"251014","180-VK","2018/08/16 21:19:27","新北市淡水區六塊厝2-1號","121.450121666667","25.240445","6501000","淡水區"
"251015","181-VK","2018/08/16 21:19:25","新北市淡水區淡金路四段542巷83弄13號","121.45648","25.2266916666667","6501000","淡水區"
"251010","413-VK","2018/08/16 21:19:30","新北市淡水區中正路一段156巷51號","121.421838333333","25.180895","6501000","淡水區"
"251012","441-VK","2018/08/16 21:19:20","新北市淡水區淡金路五段35巷46號","121.452485","25.234725","6501000","淡水區"
"251008","442-VK","2018/08/16 21:19:29","新北市淡水區水源街二段229號","121.460581666667","25.1764","6501000","淡水區"
"251011","650-BX","2018/08/16 21:19:40","新北市淡水區新民街120巷29號","121.438853333333","25.1788066666667","6501000","淡水區"
"251002","672-BX","2018/08/16 21:19:25","新北市淡水區學府路172巷21號","121.448326666667","25.1748733333333","6501000","淡水區"
"251003","673-BX","2018/08/16 21:19:32","新北市淡水區崁頂15-5號","121.438851666667","25.1860683333333","6501000","淡水區"
"220070","AAC-253","2018/08/16 21:19:38","新北市八里區荖阡坑路24-2號","121.399415","25.1331383333333","6500100","板橋區"
