"lineid","car","time","location","longitude","latitude","cityid","cityname"
"234077","969-R7","2018/08/16 21:29:38","新北市三重區光復路二段198-1號","121.470065","25.0632516666667","6500400","永和區"
"231063","641-BX","2018/08/16 21:29:20","新北市新店區如意街80號","121.49554","24.946875","6500600","新店區"
"241031","061-VK","2018/08/16 21:29:34","新北市三重區光復路二段87巷55號","121.475168333333","25.0588616666667","6500200","三重區"
"241024","065-VK","2018/08/16 21:29:25","新北市三重區中正北路145巷14號","121.484143333333","25.0677783333333","6500200","三重區"
"241026","066-VK","2018/08/16 21:29:27","新北市三重區中正南路184-1號","121.49426","25.056325","6500200","三重區"
"241005","262-UM","2018/08/16 21:29:29","新北市三重區仁華街85號","121.48567","25.082955","6500200","三重區"
"241013","270-UM","2018/08/16 21:29:35","新北市三重區龍濱路283巷8號","121.50121","25.0738316666667","6500200","三重區"
"241007","398-BY","2018/08/16 21:29:25","新北市三重區正義北路128號","121.49682","25.0655816666667","6500200","三重區"
"241014","543-UM","2018/08/16 21:29:23","新北市三重區龍門路292號","121.502308333333","25.0742666666667","6500200","三重區"
"241006","AAD-863","2018/08/16 21:28:40","新北市五股區中直路15-2號","121.423331666667","25.1111083333333","6500200","三重區"
"247012","339-TH","2018/08/16 21:29:20","新北市蘆洲區環堤大道365號","121.457986666667","25.0976683333333","6501400","蘆洲區"
"247006","336-TH","2018/08/16 21:29:24","新北市五股區中興路三段2巷10號","121.448121666667","25.0843683333333","6501400","蘆洲區"
"251009","008-UM","2018/08/16 21:29:22","新北市淡水區民族路33巷16-3號","121.463363333333","25.135985","6501000","淡水區"
"251005","010-UM","2018/08/16 21:29:32","新北市淡水區水源街一段34巷9號","121.44326","25.171845","6501000","淡水區"
"251001","011-UM","2018/08/16 21:29:32","新北市淡水區濱海路二段202巷27號","121.434701666667","25.1925083333333","6501000","淡水區"
"251013","KEA-2871","2018/08/16 21:29:25","新北市淡水區埤島50-2號","121.460731666667","25.1980083333333","6501000","淡水區"
"251016","179-VK","2018/08/16 21:29:39","新北市淡水區前洲子11號","121.441066666667","25.2193716666667","6501000","淡水區"
"251014","180-VK","2018/08/16 21:29:27","新北市淡水區六塊厝2-1號","121.449655","25.240225","6501000","淡水區"
"251010","413-VK","2018/08/16 21:29:30","新北市淡水區沙崙路25巷21號","121.420568333333","25.1824533333333","6501000","淡水區"
"251012","441-VK","2018/08/16 21:29:20","新北市淡水區淡金路五段35巷46號","121.452478333333","25.23472","6501000","淡水區"
"251008","442-VK","2018/08/16 21:29:31","新北市淡水區水源街二段146號","121.454208333333","25.1749616666667","6501000","淡水區"
"251004","443-VK","2018/08/16 21:29:33","新北市淡水區民族路2號","121.460286666667","25.13698","6501000","淡水區"
"251006","561-UM","2018/08/16 21:29:38","新北市淡水區公明街26號","121.442806666667","25.1691866666667","6501000","淡水區"
"251011","650-BX","2018/08/16 21:29:40","新北市淡水區新民街166號","121.436961666667","25.1785383333333","6501000","淡水區"
"251002","672-BX","2018/08/16 21:23:20","新北市淡水區學府路172巷21號","121.448321666667","25.1749216666667","6501000","淡水區"
"251003","673-BX","2018/08/16 21:29:32","新北市淡水區崁頂15-5號","121.439015","25.1858983333333","6501000","淡水區"
"220070","AAC-253","2018/08/16 21:29:38","新北市五股區新五路二段119-10號","121.438363333333","25.0786916666667","6500100","板橋區"
