"lineid","car","time","location","longitude","latitude","cityid","cityname"
"241031","061-VK","2018/08/16 21:49:34","新北市林口區汕頭32號","121.366328333333","25.1347766666667","6500200","三重區"
"241006","AAD-863","2018/08/16 21:49:40","新北市八里區中華路三段43-1號","121.395768333333","25.1422316666667","6500200","三重區"
"251009","008-UM","2018/08/16 21:49:22","新北市淡水區民族路35巷16號","121.465021666667","25.1371433333333","6501000","淡水區"
"251005","010-UM","2018/08/16 21:49:32","新北市淡水區鄧公路30巷30弄1號","121.453661666667","25.1698166666667","6501000","淡水區"
"251014","180-VK","2018/08/16 21:49:27","新北市淡水區崁頂69號","121.439676666667","25.2015766666667","6501000","淡水區"
"251010","413-VK","2018/08/16 21:49:30","新北市淡水區中正路二段211號","121.426191666667","25.189125","6501000","淡水區"
"251012","441-VK","2018/08/16 21:49:20","新北市淡水區淡金路三段306號","121.449038333333","25.2080416666667","6501000","淡水區"
"251008","442-VK","2018/08/16 21:49:20","新北市淡水區學府路104號","121.449815","25.1717383333333","6501000","淡水區"
"251004","443-VK","2018/08/16 21:49:33","新北市淡水區自強路201巷39號","121.462106666667","25.126825","6501000","淡水區"
"251006","561-UM","2018/08/16 21:49:38","新北市淡水區中正路11巷3號","121.437805","25.1707716666667","6501000","淡水區"
"251007","577-R6","2018/08/16 21:49:34","新北市淡水區水源街二段177巷34號","121.453673333333","25.17671","6501000","淡水區"
"251011","650-BX","2018/08/16 21:49:40","新北市淡水區新民街322巷9號","121.436371666667","25.1828833333333","6501000","淡水區"
"251002","672-BX","2018/08/16 21:49:22","新北市淡水區學府路202號","121.447295","25.1763883333333","6501000","淡水區"
"251003","673-BX","2018/08/16 21:49:33","新北市淡水區新春街84號","121.43865","25.1822133333333","6501000","淡水區"
"220070","AAC-253","2018/08/16 21:49:38","新北市板橋區華東街1-9號","121.448218333333","24.99493","6500100","板橋區"
