"lineid","car","time","location","longitude","latitude","cityid","cityname"
"234040","862-TW","2018/08/16 22:04:58","新北市永和區福和路1號","121.526398333333","25.0096966666667","6500400","永和區"
"234066","AAC-212","2018/08/16 22:05:35","新北市永和區福和路1號","121.526426666667","25.0096416666667","6500400","永和區"
"241031","061-VK","2018/08/16 22:05:34","新北市八里區中華路三段11號","121.396983333333","25.1435833333333","6500200","三重區"
"247005","336-TH","2018/08/16 22:05:24","新北市五股區中興路二段182巷18-1號","121.456128333333","25.0814166666667","6501400","蘆洲區"
"251010","413-VK","2018/08/16 22:05:30","新北市淡水區沙崙路124號","121.423343333333","25.182905","6501000","淡水區"
"251012","441-VK","2018/08/16 22:02:26","新北市淡水區淡金路二段599號","121.446451666667","25.1918883333333","6501000","淡水區"
"251008","442-VK","2018/08/16 22:05:20","新北市淡水區學府路104號","121.44986","25.1717983333333","6501000","淡水區"
"251004","443-VK","2018/08/16 22:05:33","新北市淡水區民族路60號","121.462101666667","25.1357966666667","6501000","淡水區"
"251011","650-BX","2018/08/16 22:05:40","新北市淡水區水碓街7號","121.443166666667","25.177135","6501000","淡水區"
