"lineid","car","time","location","longitude","latitude","cityid","cityname"
"248004","653-BX","2018/11/12 07:59:13","新北市五股區明德路12巷6號","121.433435","25.0718933333333","6501500","五股區"
"232001","290-BY","2018/11/12 07:59:24","新北市坪林區下坑子口17號","121.710561666667","24.9473666666667","6502000","坪林區"
"232012","291-BY","2018/11/12 07:59:16","新北市坪林區金瓜寮28號","121.677003333333","24.9084183333333","6502000","坪林區"
"232010","375-UM","2018/11/12 07:59:09","新北市坪林區厚德岡坑8-5號","121.733206666667","24.9409366666667","6502000","坪林區"
"232017","705-BZ","2018/11/12 07:59:26","新北市坪林區乾溪8號","121.749481666667","24.965845","6502000","坪林區"
"232005","758-BX","2018/11/12 07:59:16","新北市坪林區魚堀49號","121.700741666667","24.9300766666667","6502000","坪林區"
"244022","069-UM","2018/11/12 07:59:26","新北市林口區粉寮69號","121.405083333333","25.0908016666667","6501700","林口區"
"244006","080-UY","2018/11/12 07:59:21","新北市林口區粉寮路60-16號","121.404301666667","25.0899566666667","6501700","林口區"
"244001","248-BX","2018/11/12 07:59:18","新北市林口區頂福里28-1號","121.353446666667","25.0930566666667","6501700","林口區"
"244012","KEA-2802","2018/11/12 07:59:21","新北市林口區粉寮69號","121.404771666667","25.090805","6501700","林口區"
"244010","701-TV","2018/11/12 07:59:24","新北市林口區粉寮路二段128號","121.40428","25.0906316666667","6501700","林口區"
"244024","837-TS","2018/11/12 07:59:15","新北市林口區粉寮69號","121.405","25.0907566666667","6501700","林口區"
"244020","838-TS","2018/11/12 07:59:12","新北市林口區粉寮路二段167-1號","121.404423333333","25.0884","6501700","林口區"
"222005","289-BY","2018/11/12 07:59:13","新北市深坑區文化街45號","121.616988333333","25.0017616666667","6501800","深坑區"
"231007","189-VK","2018/11/12 07:59:30","新北市新店區華城路18號","121.529075","24.9574066666667","6500600","新店區"
"231008","192-VK","2018/11/12 07:59:25","新北市新店區北宜路一段50號","121.538363333333","24.9564383333333","6500600","新店區"
"235001","611-BX","2018/11/12 07:59:31","新北市中和區圓通路367巷6號","121.491475","24.98927","6500300","中和區"
"226005","5620-A6","2018/11/12 07:59:26","新北市平溪區石底里公園街18-3號","121.733811666667","25.0253133333333","6502400","平溪區"
"226001","7418-A5","2018/11/12 07:59:13","新北市平溪區南山里乾坑11號","121.782723333333","25.0471783333333","6502400","平溪區"
"226003","AGD-0702","2018/11/12 07:59:26","新北市平溪區新寮里頂寮子4號","121.773805","25.05202","6502400","平溪區"
"223006","022-BY","2018/11/12 07:59:27","新北市石碇區番子坑25-1號","121.67766","25.002635","6501900","石碇區"
"223002","KEA-2673","2018/11/12 07:59:22","新北市石碇區北宜路五段濕水子巷11號","121.636988333333","24.9453383333333","6501900","石碇區"
"223003","205-TH","2018/11/12 07:59:13","新北市石碇區四分子3號","121.664105","24.9642483333333","6501900","石碇區"
"223008","406-TH","2018/11/12 07:31:12","新北市石碇區靜安路一段337號","121.698935","25.01474","6501900","石碇區"
"223001","592-UM","2018/11/12 07:59:23","新北市石碇區四分子3號","121.66411","24.964075","6501900","石碇區"
"223004","660-BX","2018/11/12 07:59:19","新北市石碇區靜安路一段75號","121.651286666667","25.0071716666667","6501900","石碇區"
"223007","661-BX","2018/11/12 07:43:37","新北市石碇區靜安路一段337號","121.698925","25.0145066666667","6501900","石碇區"
"223005","677-TV","2018/11/12 07:59:22","新北市石碇區靜安路一段75號","121.651228333333","25.0072733333333","6501900","石碇區"
"227005","282-VK","2018/11/12 07:59:12","新北市雙溪區上林里新寮子13-5號","121.838771666667","25.0334116666667","6502500","雙溪區"
"252006","073-UM","2018/11/12 07:59:12","新北市三芝區後厝里芝麻五街28號","121.474836666667","25.24526","6502100","三芝區"
"252004","249-BX","2018/11/12 07:59:30","新北市三芝區店子里菜公坑81-3號","121.512383333333","25.2021283333333","6502100","三芝區"
"237001","159-UY","2018/11/12 07:59:27","新北市三峽區學成路258號","121.375313333333","24.9424466666667","6500900","三峽區"
"242057","986-R7","2018/11/12 07:59:16","新北市新莊區中正路530號","121.430971666667","25.0315866666667","6500500","新莊區"
"242055","751-BX","2018/11/12 07:59:19","新北市新莊區景德路205號","121.449426666667","25.033755","6500500","新莊區"
"242026","615-BX","2018/11/12 07:59:17","新北市新莊區思源路32號","121.460168333333","25.0410083333333","6500500","新莊區"
"242024","613-BX","2018/11/12 07:59:26","新北市新莊區中港路281號","121.453121666667","25.0438333333333","6500500","新莊區"
"242028","612-BX","2018/11/12 07:59:15","新北市新莊區復興路二段176號","121.458758333333","25.0443716666667","6500500","新莊區"
"242043","566-BX","2018/11/12 07:59:11","新北市新莊區富國路100號","121.421408333333","25.0254916666667","6500500","新莊區"
"242047","497-BY","2018/11/12 07:59:20","新北市新莊區四維路212巷2號","121.421065","25.0203083333333","6500500","新莊區"
"242008","442-UM","2018/11/12 07:59:31","新北市新莊區中原路131號","121.454918333333","25.0544183333333","6500500","新莊區"
"242052","441-UM","2018/11/12 07:59:19","新北市新莊區瓊林南路307號","121.433966666667","25.0061533333333","6500500","新莊區"
"242038","415-TV","2018/11/12 07:59:13","新北市新莊區民安路270號","121.427611666667","25.02127","6500500","新莊區"
"242022","362-BY","2018/11/12 07:59:19","新北市新莊區公園路152號","121.453216666667","25.04013","6500500","新莊區"
"242059","353-BY","2018/11/12 07:59:26","新北市新莊區瓊林南路12-1號","121.436875","25.0196083333333","6500500","新莊區"
"242010","132-UY","2018/11/12 07:59:23","新北市新莊區中港路390號","121.45237","25.0493433333333","6500500","新莊區"
"242040","133-UY","2018/11/12 07:59:11","新北市新莊區新樹路115-1號","121.437511666667","25.02661","6500500","新莊區"
"242049","172-VK","2018/11/12 07:59:30","新北市新莊區新樹路453號","121.432821666667","25.01335","6500500","新莊區"
"242012","173-VK","2018/11/12 07:59:19","新北市新莊區中誠街137號","121.449011666667","25.0475083333333","6500500","新莊區"
"242018","175-VK","2018/11/12 07:59:23","新北市新莊區中港路114號","121.455371666667","25.0400116666667","6500500","新莊區"
"242006","176-VK","2018/11/12 07:59:15","新北市新莊區自信街73號","121.455681666667","25.0481983333333","6500500","新莊區"
"242016","346-TH","2018/11/12 07:59:22","新北市新莊區復興路一段189號","121.45179","25.04353","6500500","新莊區"
"242045","347-TH","2018/11/12 07:59:27","新北市新莊區福營路60號","121.438638333333","25.0325133333333","6500500","新莊區"
"242030","348-TH","2018/11/12 07:59:11","新北市新莊區新泰路401巷15號","121.442968333333","25.0440133333333","6500500","新莊區"
"242003","349-TH","2018/11/12 07:59:25","新北市新莊區中華路二段20-1號","121.45345","25.0445866666667","6500500","新莊區"
"242020","350-TH","2018/11/12 07:59:22","新北市新莊區中華路一段31號","121.451975","25.0374766666667","6500500","新莊區"
"242014","351-TH","2018/11/12 07:59:18","新北市新莊區新泰路161號","121.447808333333","25.0369833333333","6500500","新莊區"
"242001","281-VK","2018/11/12 07:59:15","新北市新莊區新莊路213號","121.455255","25.0354066666667","6500500","新莊區"
"242033","280-VK","2018/11/12 07:59:29","新北市新莊區新莊路495號","121.448648333333","25.0333033333333","6500500","新莊區"
