"lineid","car","time","location","longitude","latitude","cityid","cityname"
"248004","653-BX","2018/11/12 08:09:13","新北市五股區明德路8號","121.433356666667","25.0717016666667","6501500","五股區"
"232001","290-BY","2018/11/12 08:09:24","新北市坪林區下坑子口12號","121.720745","24.94139","6502000","坪林區"
"232012","291-BY","2018/11/12 08:09:16","新北市坪林區九芎根3-1號","121.666778333333","24.8864333333333","6502000","坪林區"
"232017","705-BZ","2018/11/12 08:09:26","新北市坪林區坪雙路二段143號","121.762318333333","24.9626366666667","6502000","坪林區"
"232005","758-BX","2018/11/12 08:09:16","新北市坪林區九芎林25-5號","121.703351666667","24.9238933333333","6502000","坪林區"
"244022","069-UM","2018/11/12 08:09:25","新北市林口區粉寮路一段46號","121.39654","25.0767716666667","6501700","林口區"
"244006","080-UY","2018/11/12 08:09:21","新北市林口區中湖43-5號","121.381813333333","25.092355","6501700","林口區"
"244001","248-BX","2018/11/12 08:09:18","新北市林口區頂福42號","121.354593333333","25.0983716666667","6501700","林口區"
"244018","403-UM","2018/11/12 08:09:24","新北市林口區粉寮路二段98號","121.404456666667","25.08923","6501700","林口區"
"244012","KEA-2802","2018/11/12 08:09:21","新北市林口區中山路267號","121.385223333333","25.0796316666667","6501700","林口區"
"244016","485-VK","2018/11/12 08:09:27","新北市林口區粉寮路二段128號","121.404273333333","25.090625","6501700","林口區"
"244010","701-TV","2018/11/12 08:09:24","新北市林口區仁愛路一段285巷116號","121.395483333333","25.0758283333333","6501700","林口區"
"244024","837-TS","2018/11/12 08:09:15","新北市林口區中山路267號","121.385233333333","25.0796183333333","6501700","林口區"
"244020","838-TS","2018/11/12 08:09:12","新北市林口區粉寮路二段352號","121.404708333333","25.0978266666667","6501700","林口區"
"222005","289-BY","2018/11/12 08:09:13","新北市深坑區北深路二段123巷17號","121.616581666667","25.0029316666667","6501800","深坑區"
"231007","189-VK","2018/11/12 08:09:10","新北市新店區永業路91號","121.52908","24.9489366666667","6500600","新店區"
"231008","192-VK","2018/11/12 08:09:25","新北市新店區新烏路一段159號","121.545023333333","24.935165","6500600","新店區"
"235001","611-BX","2018/11/12 08:09:11","新北市中和區圓通路367巷33弄96號","121.494815","24.98382","6500300","中和區"
"226005","5620-A6","2018/11/12 08:09:26","新北市平溪區靜安路二段418號","121.739106666667","25.02435","6502400","平溪區"
"226001","7418-A5","2018/11/12 08:09:14","新北市平溪區十分里姜仔坑12號","121.769106666667","25.037045","6502400","平溪區"
"226003","AGD-0702","2018/11/12 08:09:26","新北市平溪區十分里十分街54號","121.775233333333","25.0414066666667","6502400","平溪區"
"223006","022-BY","2018/11/12 08:05:48","新北市石碇區靜安路一段292巷10號","121.691886666667","25.005845","6501900","石碇區"
"223002","KEA-2673","2018/11/12 08:08:10","新北市石碇區北宜路五段80號","121.646548333333","24.9517283333333","6501900","石碇區"
"223003","205-TH","2018/11/12 08:05:33","新北市石碇區樟空子1號","121.666713333333","24.9597533333333","6501900","石碇區"
"223008","406-TH","2018/11/12 08:09:17","新北市石碇區靜安路一段312號","121.692763333333","25.0065866666667","6501900","石碇區"
"223001","592-UM","2018/11/12 08:04:43","新北市石碇區樟空子10-2號","121.666943333333","24.9619233333333","6501900","石碇區"
"223004","660-BX","2018/11/12 08:09:19","新北市石碇區外按16-1號","121.650601666667","24.997535","6501900","石碇區"
"223005","677-TV","2018/11/12 08:09:22","新北市石碇區外按8號","121.651216666667","24.9961716666667","6501900","石碇區"
"227005","282-VK","2018/11/12 08:09:12","新北市雙溪區上林里大瀨10號","121.822305","25.02217","6502500","雙溪區"
"249004","440-VK","2018/11/12 08:03:26","新北市八里區挖子尾街16號","121.415276666667","25.1642916666667","6502300","八里區"
"252006","073-UM","2018/11/12 08:09:31","新北市三芝區後厝里大片頭81-1號","121.458976666667","25.2448583333333","6502100","三芝區"
"252004","249-BX","2018/11/12 08:09:10","新北市三芝區興華里車埕31-3號","121.503436666667","25.194575","6502100","三芝區"
"237001","159-UY","2018/11/12 08:09:27","新北市三峽區大學路33號","121.377426666667","24.940085","6500900","三峽區"
"242035","AAC-296","2018/11/12 07:59:39","新北市新莊區建國一路175-1號","121.435016666667","25.0241033333333","6500500","新莊區"
"242057","986-R7","2018/11/12 08:09:21","新北市新莊區中正路879-6號","121.417661666667","25.0262066666667","6500500","新莊區"
"242055","751-BX","2018/11/12 08:09:19","新北市新莊區泰豐街30巷12號","121.44878","25.0319633333333","6500500","新莊區"
"242026","615-BX","2018/11/12 08:09:22","新北市新莊區福壽街114號","121.458055","25.0507116666667","6500500","新莊區"
"242024","613-BX","2018/11/12 08:09:26","新北市新莊區思源路102號","121.460171666667","25.0463666666667","6500500","新莊區"
"242028","612-BX","2018/11/12 08:09:15","新北市新莊區復興路一段123號","121.449646666667","25.0430983333333","6500500","新莊區"
"242043","566-BX","2018/11/12 08:09:11","新北市新莊區富國路65巷5號","121.419856666667","25.02647","6500500","新莊區"
"242047","497-BY","2018/11/12 08:09:20","新北市新莊區萬安街113號","121.420778333333","25.0227616666667","6500500","新莊區"
"242008","442-UM","2018/11/12 08:09:11","新北市新莊區福壽街169巷12號","121.45731","25.0537583333333","6500500","新莊區"
"242052","441-UM","2018/11/12 08:09:19","新北市新莊區保安街一段14巷61弄7號","121.43047","24.996535","6500500","新莊區"
"242038","415-TV","2018/11/12 08:09:13","新北市新莊區民安東路37號","121.428956666667","25.0209733333333","6500500","新莊區"
"242022","362-BY","2018/11/12 08:09:19","新北市新莊區民樂街64號","121.457965","25.041985","6500500","新莊區"
"242059","353-BY","2018/11/12 08:09:19","新北市新莊區瓊林南路237號","121.434815","25.008345","6500500","新莊區"
"242010","132-UY","2018/11/12 08:09:23","新北市新莊區中港路582號","121.451396666667","25.0535866666667","6500500","新莊區"
"242040","133-UY","2018/11/12 08:09:11","新北市泰山區中山路二段841號","121.425781666667","25.03544","6500500","新莊區"
"242049","172-VK","2018/11/12 08:09:30","新北市新莊區西盛街311巷4號","121.428265","25.0152216666667","6500500","新莊區"
"242012","173-VK","2018/11/12 08:09:19","新北市新莊區中誠街123號","121.449346666667","25.0475833333333","6500500","新莊區"
"242018","175-VK","2018/11/12 08:09:23","新北市新莊區中港路269號","121.453545","25.0434733333333","6500500","新莊區"
"242006","176-VK","2018/11/12 08:09:15","新北市新莊區福樂街132巷13號","121.456768333333","25.0484966666667","6500500","新莊區"
"242016","346-TH","2018/11/12 08:09:22","新北市新莊區復興路一段149巷21弄17號","121.449338333333","25.0438583333333","6500500","新莊區"
"242045","347-TH","2018/11/12 08:09:27","新北市新莊區建國一路94號","121.43451","25.0299616666667","6500500","新莊區"
"242030","348-TH","2018/11/12 08:09:30","新北市新莊區新泰路321巷25號","121.443553333333","25.041065","6500500","新莊區"
"242003","349-TH","2018/11/12 08:09:15","新北市新莊區自立街216號","121.457226666667","25.0454016666667","6500500","新莊區"
"242020","350-TH","2018/11/12 08:09:21","新北市新莊區復興路一段212號","121.452876666667","25.0437833333333","6500500","新莊區"
"242014","351-TH","2018/11/12 08:09:11","新北市新莊區新泰路355號","121.444493333333","25.0425016666667","6500500","新莊區"
"242001","281-VK","2018/11/12 08:09:15","新北市新莊區新莊路433號","121.450363333333","25.0335666666667","6500500","新莊區"
"242033","280-VK","2018/11/12 08:09:09","新北市新莊區新莊路608號","121.44363","25.03285","6500500","新莊區"
