"lineid","car","time","location","longitude","latitude","cityid","cityname"
"248004","653-BX","2018/11/12 08:59:17","新北市五股區明德路12巷3號","121.433156666667","25.0717016666667","6501500","五股區"
"232012","291-BY","2018/11/12 08:59:16","新北市坪林區北宜路七段338號","121.696893333333","24.9348683333333","6502000","坪林區"
"232017","705-BZ","2018/11/12 08:59:26","新北市坪林區中心崙2-1號","121.785315","24.9530333333333","6502000","坪林區"
"232005","758-BX","2018/11/12 08:59:16","新北市坪林區魚堀9-13號","121.704651666667","24.9070633333333","6502000","坪林區"
"244022","069-UM","2018/11/12 08:59:25","新北市林口區隆林街101巷14號","121.38528","25.07407","6501700","林口區"
"244006","080-UY","2018/11/12 08:59:21","新北市林口區林口路124巷10弄8號","121.389125","25.081575","6501700","林口區"
"244001","248-BX","2018/11/12 08:59:18","新北市林口區嘉寶里69號","121.333996666667","25.1152566666667","6501700","林口區"
"244018","403-UM","2018/11/12 08:59:24","新北市林口區忠孝路542巷6號","121.372838333333","25.067275","6501700","林口區"
"244012","KEA-2802","2018/11/12 08:59:01","新北市林口區中正路514巷29號","121.38212","25.07794","6501700","林口區"
"244016","485-VK","2018/11/12 08:59:27","新北市林口區八德路48巷7號","121.36677","25.06651","6501700","林口區"
"244008","656-BX","2018/11/12 08:59:23","新北市林口區松柏路97號","121.37882","25.0888533333333","6501700","林口區"
"244010","701-TV","2018/11/12 08:59:24","新北市林口區中原街20號","121.392848333333","25.0782366666667","6501700","林口區"
"244024","837-TS","2018/11/12 08:59:15","新北市林口區南勢47號","121.355265","25.0748066666667","6501700","林口區"
"244020","838-TS","2018/11/12 08:59:32","新北市林口區工六路90號","121.400875","25.076895","6501700","林口區"
"222005","289-BY","2018/11/12 08:59:13","新北市深坑區風格街31巷9號","121.62761","25.0172883333333","6501800","深坑區"
"231007","189-VK","2018/11/12 08:59:30","新北市新店區新潭路三段236號","121.501548333333","24.9032566666667","6500600","新店區"
"231008","192-VK","2018/11/12 08:59:25","新北市新店區廣興路66巷3號","121.538816666667","24.913715","6500600","新店區"
"235001","611-BX","2018/11/12 08:59:31","新北市中和區莒光路191-1號","121.471348333333","24.9974216666667","6500300","中和區"
"226001","7418-A5","2018/11/12 08:45:33","新北市平溪區東勢里東勢格41號","121.76154","24.989825","6502400","平溪區"
"226003","AGD-0702","2018/11/12 08:59:26","新北市平溪區十分里十分街236號","121.778216666667","25.04411","6502400","平溪區"
"223006","022-BY","2018/11/12 08:59:26","新北市深坑區文山路一段69號","121.626998333333","25.0020366666667","6501900","石碇區"
"223002","KEA-2673","2018/11/12 08:59:14","新北市石碇區員潭子坑11號","121.640985","24.9929316666667","6501900","石碇區"
"223003","205-TH","2018/11/12 08:59:23","新北市石碇區北宜路六段水底寮巷26號","121.663535","24.9432933333333","6501900","石碇區"
"223008","406-TH","2018/11/12 08:59:18","新北市石碇區光明路13號","121.679833333333","25.0336016666667","6501900","石碇區"
"223001","592-UM","2018/11/12 08:59:23","新北市石碇區北宜路六段水底寮巷12號","121.666178333333","24.94313","6501900","石碇區"
"223004","660-BX","2018/11/12 08:46:38","新北市石碇區崩山24-2號","121.678633333333","24.9678383333333","6501900","石碇區"
"223005","677-TV","2018/11/12 08:53:50","新北市石碇區崩山24-2號","121.678628333333","24.9678183333333","6501900","石碇區"
"227005","282-VK","2018/11/12 08:56:12","新北市雙溪區泰平里料角坑19號","121.811985","24.97269","6502500","雙溪區"
"249004","440-VK","2018/11/12 08:44:29","新北市八里區博物館路10-1號","121.415228333333","25.1641866666667","6502300","八里區"
"252006","073-UM","2018/11/12 08:59:11","新北市三芝區古庄里山豬堀13-1號","121.493","25.2578116666667","6502100","三芝區"
"252004","249-BX","2018/11/12 08:59:30","新北市三芝區興華里田心子32號","121.48986","25.199875","6502100","三芝區"
"237001","159-UY","2018/11/12 08:59:27","新北市三峽區大義路398號","121.376193333333","24.9496233333333","6500900","三峽區"
"242035","AAC-296","2018/11/12 08:41:38","新北市新莊區後港一路49巷3弄11號","121.425223333333","25.026685","6500500","新莊區"
"242057","986-R7","2018/11/12 08:59:24","新北市新莊區八德街19號","121.425175","25.0225933333333","6500500","新莊區"
"242055","751-BX","2018/11/12 08:59:19","新北市新莊區瓊泰路233號","121.443108333333","25.0327833333333","6500500","新莊區"
"242026","615-BX","2018/11/12 08:59:17","新北市新莊區幸福路838號","121.444933333333","25.0490916666667","6500500","新莊區"
"242024","613-BX","2018/11/12 08:59:32","新北市新莊區五工二路78巷7號","121.460206666667","25.0664766666667","6500500","新莊區"
"242028","612-BX","2018/11/12 08:59:15","新北市新莊區中原路255號","121.44883","25.054275","6500500","新莊區"
"242043","566-BX","2018/11/12 08:59:11","新北市新莊區中正路新旺巷28號","121.416146666667","25.0229133333333","6500500","新莊區"
"242047","497-BY","2018/11/12 08:59:27","新北市新莊區後港二路13號","121.42291","25.0239016666667","6500500","新莊區"
"242008","442-UM","2018/11/12 08:59:31","新北市新莊區福壽街99巷11弄1號","121.45747","25.0504483333333","6500500","新莊區"
"242052","441-UM","2018/11/12 08:59:19","新北市新莊區民安西路264號","121.426066666667","25.0131516666667","6500500","新莊區"
"242038","415-TV","2018/11/12 08:59:13","新北市新莊區民安西路77號","121.427191666667","25.019595","6500500","新莊區"
"242022","362-BY","2018/11/12 08:59:24","新北市新莊區化成路850號","121.464776666667","25.0605216666667","6500500","新莊區"
"242059","353-BY","2018/11/12 08:59:18","新北市新莊區民安路186號","121.425288333333","25.023635","6500500","新莊區"
"242010","132-UY","2018/11/12 08:59:23","新北市新莊區中信街66-18號","121.449366666667","25.0514716666667","6500500","新莊區"
"242040","133-UY","2018/11/12 08:59:11","新北市新莊區青山路一段46號","121.410116666667","25.0276916666667","6500500","新莊區"
"242049","172-VK","2018/11/12 08:59:30","新北市新莊區民安西路252巷5號","121.425431666667","25.0135983333333","6500500","新莊區"
"242012","173-VK","2018/11/12 08:59:19","新北市新莊區中平路270巷7弄24號","121.44606","25.0509016666667","6500500","新莊區"
"242018","175-VK","2018/11/12 08:59:23","新北市新莊區博愛路8巷2號","121.456138333333","25.0439033333333","6500500","新莊區"
"242006","176-VK","2018/11/12 08:59:17","新北市新莊區思源路287巷1弄21號","121.459356666667","25.04747","6500500","新莊區"
"242016","346-TH","2018/11/12 08:59:22","新北市新莊區中和街59巷2號","121.447331666667","25.0468766666667","6500500","新莊區"
"242045","347-TH","2018/11/12 08:59:27","新北市新莊區富國路77巷23號","121.420418333333","25.0264933333333","6500500","新莊區"
"242030","348-TH","2018/11/12 08:59:10","新北市新莊區公園一路112號","121.444446666667","25.0378","6500500","新莊區"
"242003","349-TH","2018/11/12 08:59:15","新北市新莊區思源路94巷21號","121.461561666667","25.0459433333333","6500500","新莊區"
"242020","350-TH","2018/11/12 08:59:21","新北市新莊區新泰路152號","121.44765","25.0373183333333","6500500","新莊區"
"242014","351-TH","2018/11/12 08:59:11","新北市新莊區中和街31巷22號","121.447098333333","25.04389","6500500","新莊區"
"242001","281-VK","2018/11/12 08:59:15","新北市新莊區中正路48-2號","121.46391","25.0410216666667","6500500","新莊區"
"242033","280-VK","2018/11/12 08:59:29","新北市新莊區中正路326號","121.446066666667","25.0348216666667","6500500","新莊區"
