"lineid","car","time","location","longitude","latitude","cityid","cityname"
"248004","653-BX","2018/11/12 09:09:28","新北市五股區水碓路16巷32號","121.433968333333","25.0727983333333","6501500","五股區"
"232017","705-BZ","2018/11/12 09:09:26","新北市坪林區中心崙2-1號","121.785353333333","24.9530466666667","6502000","坪林區"
"232005","758-BX","2018/11/12 09:09:16","新北市坪林區魚堀11-5號","121.707653333333","24.9050033333333","6502000","坪林區"
"244022","069-UM","2018/11/12 09:09:25","新北市林口區東湖路105巷79號","121.38455","25.071515","6501700","林口區"
"244006","080-UY","2018/11/12 09:09:21","新北市林口區林口路296號","121.385913333333","25.085505","6501700","林口區"
"244001","248-BX","2018/11/12 09:09:18","新北市林口區寶斗厝坑7-1號","121.357646666667","25.0986283333333","6501700","林口區"
"244018","403-UM","2018/11/12 09:09:24","新北市林口區文化一路一段124號","121.375041666667","25.072545","6501700","林口區"
"244012","KEA-2802","2018/11/12 09:09:21","新北市林口區麗園一街6巷6-3號","121.37523","25.070635","6501700","林口區"
"244016","485-VK","2018/11/12 09:09:27","新北市林口區八德路78號","121.365516666667","25.0656716666667","6501700","林口區"
"244008","656-BX","2018/11/12 09:09:23","新北市林口區文化三路二段291-11號","121.378063333333","25.0866116666667","6501700","林口區"
"244010","701-TV","2018/11/12 09:09:24","新北市林口區新寮1-66號","121.392585","25.0764933333333","6501700","林口區"
"244024","837-TS","2018/11/12 09:09:15","新北市林口區文化北路一段436號","121.365398333333","25.0770183333333","6501700","林口區"
"222005","289-BY","2018/11/12 09:09:13","新北市深坑區土庫尖路75-1號","121.631315","25.0181733333333","6501800","深坑區"
"231007","189-VK","2018/11/12 09:09:10","新北市新店區新潭路三段215巷25號","121.508086666667","24.9040633333333","6500600","新店區"
"231008","192-VK","2018/11/12 09:09:25","新北市新店區廣興路110號","121.536505","24.911865","6500600","新店區"
"235001","611-BX","2018/11/12 09:09:11","新北市中和區連城路595號","121.478523333333","24.9936883333333","6500300","中和區"
"226001","7418-A5","2018/11/12 08:45:33","新北市平溪區東勢里東勢格41號","121.76154","24.989825","6502400","平溪區"
"226003","AGD-0702","2018/11/12 09:09:26","新北市平溪區十分里十分街204號","121.779046666667","25.0442966666667","6502400","平溪區"
"223006","022-BY","2018/11/12 09:06:37","新北市深坑區昇高坑路51-1號","121.63042","24.9940233333333","6501900","石碇區"
"223003","205-TH","2018/11/12 09:09:23","新北市石碇區北宜路六段十三股巷2-1號","121.649685","24.9445116666667","6501900","石碇區"
"223008","406-TH","2018/11/12 09:09:16","新北市石碇區光明路13號","121.680088333333","25.0336133333333","6501900","石碇區"
"223001","592-UM","2018/11/12 09:09:23","新北市石碇區北宜路六段十三股巷1號","121.651463333333","24.94702","6501900","石碇區"
"223004","660-BX","2018/11/12 09:09:17","新北市石碇區崩山46號","121.680076666667","24.96849","6501900","石碇區"
"223005","677-TV","2018/11/12 09:09:13","新北市石碇區崩山53-1號","121.682408333333","24.9671766666667","6501900","石碇區"
"227005","282-VK","2018/11/12 08:56:12","新北市雙溪區泰平里料角坑19號","121.811985","24.97269","6502500","雙溪區"
"249004","440-VK","2018/11/12 08:44:29","新北市八里區博物館路10-1號","121.415228333333","25.1641866666667","6502300","八里區"
"252006","073-UM","2018/11/12 09:09:31","新北市三芝區埔坪里埔頭坑41號","121.50449","25.2644233333333","6502100","三芝區"
"252004","249-BX","2018/11/12 09:09:30","新北市三芝區興華里車埕69-6號","121.493288333333","25.193905","6502100","三芝區"
"237001","159-UY","2018/11/12 09:09:27","新北市樹林區中山路三段214號","121.379958333333","24.967705","6500900","三峽區"
"242035","AAC-296","2018/11/12 08:41:38","新北市新莊區後港一路49巷3弄11號","121.425223333333","25.026685","6500500","新莊區"
"242057","986-R7","2018/11/12 09:09:16","新北市新莊區八德街135號","121.423845","25.0203016666667","6500500","新莊區"
"242055","751-BX","2018/11/12 09:09:18","新北市新莊區中正路347巷15號","121.447315","25.0344116666667","6500500","新莊區"
"242026","615-BX","2018/11/12 09:09:28","新北市新莊區思源路267號","121.460016666667","25.0476483333333","6500500","新莊區"
"242024","613-BX","2018/11/12 09:09:26","新北市新莊區五工二路70巷1號","121.460263333333","25.0659716666667","6500500","新莊區"
"242028","612-BX","2018/11/12 09:09:15","新北市新莊區昌平街1號","121.454801666667","25.0513983333333","6500500","新莊區"
"242043","566-BX","2018/11/12 09:09:31","新北市新莊區中正路746巷37號","121.41086","25.0248266666667","6500500","新莊區"
"242047","497-BY","2018/11/12 09:09:23","新北市新莊區四維路212巷4弄6號","121.421233333333","25.0204516666667","6500500","新莊區"
"242008","442-UM","2018/11/12 09:09:11","新北市新莊區思源路199號","121.459851666667","25.0456866666667","6500500","新莊區"
"242052","441-UM","2018/11/12 09:09:31","新北市新莊區西盛街344巷22弄2號","121.427408333333","25.01428","6500500","新莊區"
"242038","415-TV","2018/11/12 09:09:13","新北市新莊區龍安路479號","121.425341666667","25.018195","6500500","新莊區"
"242022","362-BY","2018/11/12 09:09:19","新北市新莊區化成路728號","121.46565","25.0570716666667","6500500","新莊區"
"242059","353-BY","2018/11/12 09:09:19","新北市新莊區瓊林路92-1號","121.444371666667","25.027775","6500500","新莊區"
"242010","132-UY","2018/11/12 09:09:23","新北市新莊區中信街49號","121.449758333333","25.050645","6500500","新莊區"
"242040","133-UY","2018/11/12 09:09:31","新北市新莊區壽山路55-5號","121.412331666667","25.0316033333333","6500500","新莊區"
"242049","172-VK","2018/11/12 09:09:30","新北市新莊區民安西路173巷2弄2號","121.426495","25.0158633333333","6500500","新莊區"
"242012","173-VK","2018/11/12 09:09:19","新北市新莊區中和街175巷13號","121.447155","25.0505716666667","6500500","新莊區"
"242018","175-VK","2018/11/12 09:09:23","新北市新莊區銘德街49巷5號","121.457308333333","25.0431166666667","6500500","新莊區"
"242006","176-VK","2018/11/12 09:09:15","新北市新莊區思源路45號","121.459996666667","25.0399233333333","6500500","新莊區"
"242045","347-TH","2018/11/12 09:09:30","新北市新莊區裕民街103巷8號","121.418751666667","25.0229316666667","6500500","新莊區"
"242030","348-TH","2018/11/12 09:09:11","新北市新莊區公園一路55號","121.44319","25.0360483333333","6500500","新莊區"
"242003","349-TH","2018/11/12 09:09:15","新北市新莊區福美街16號","121.460651666667","25.0532133333333","6500500","新莊區"
"242020","350-TH","2018/11/12 09:09:21","新北市新莊區和興街25號","121.44728","25.0394","6500500","新莊區"
"242014","351-TH","2018/11/12 09:09:31","新北市新莊區中平路37號","121.444698333333","25.0439416666667","6500500","新莊區"
"242001","281-VK","2018/11/12 09:09:25","新北市新莊區中正路46號","121.464281666667","25.0414583333333","6500500","新莊區"
"242033","280-VK","2018/11/12 09:09:29","新北市新莊區公園一路148號","121.446726666667","25.0383566666667","6500500","新莊區"
