"lineid","car","time","location","longitude","latitude","cityid","cityname"
"244019","403-UM","2018/11/12 11:19:24","新北市林口區粉寮69號","121.405035","25.0907933333333","6501700","林口區"
"231007","189-VK","2018/11/12 11:19:10","新北市新店區新潭路一段118號","121.528095","24.9361466666667","6500600","新店區"
"231008","192-VK","2018/11/12 11:19:25","新北市新店區頂石厝路72號","121.53537","24.9184316666667","6500600","新店區"
"235029","098-UM","2018/11/12 11:19:07","新北市中和區員山路36巷16-3號","121.485088333333","24.991285","6500300","中和區"
"227005","282-VK","2018/11/12 11:19:12","新北市雙溪區泰平里溪尾寮46號","121.821368333333","24.9675516666667","6502500","雙溪區"
"249004","440-VK","2018/11/12 11:12:44","新北市八里區博物館路10-1號","121.415296666667","25.1642033333333","6502300","八里區"
"237001","159-UY","2018/11/12 11:19:07","新北市三峽區中山路459巷163-1號","121.349333333333","24.933345","6500900","三峽區"
