"lineid","car","time","location","longitude","latitude","cityid","cityname"
"244019","403-UM","2018/11/12 11:56:14","新北市林口區粉寮69號","121.405041666667","25.0907983333333","6501700","林口區"
"231008","192-VK","2018/11/12 11:59:25","新北市新店區柴埕路59號","121.51356","24.964955","6500600","新店區"
"235029","098-UM","2018/11/12 11:59:26","新北市中和區員山路36巷16-3號","121.48509","24.9912566666667","6500300","中和區"
"235031","255-BX","2018/11/12 11:43:40","新北市中和區和城路一段271巷1號","121.485568333333","24.991845","6500300","中和區"
"227005","282-VK","2018/11/12 11:59:06","新北市雙溪區泰平里泰平1-5號","121.847588333333","24.994655","6502500","雙溪區"
"249004","440-VK","2018/11/12 11:29:52","新北市八里區博物館路10-1號","121.415291666667","25.164225","6502300","八里區"
"237001","159-UY","2018/11/12 11:37:36","新北市三峽區中山路459巷163-1號","121.349328333333","24.93335","6500900","三峽區"
"235025","KEA-2875","2018/11/12 11:55:17","新北市中和區員山路36巷16-2號","121.485218333333","24.9917316666667","6500300","中和區"
