"lineid","car","time","location","longitude","latitude","cityid","cityname"
"234044","148-BY","2018/11/12 13:19:11","新北市永和區得和路321號","121.523283333333","24.99962","6500400","永和區"
"234005","207-UY","2018/11/12 13:19:15","新北市永和區中山路一段330號","121.506148333333","25.00654","6500400","永和區"
"234078","298-R6","2018/11/12 13:19:26","新北市永和區福和路7巷7號","121.525295","25.0077866666667","6500400","永和區"
"234036","336-UY","2018/11/12 13:19:18","新北市永和區民樂街49號","121.527488333333","24.998825","6500400","永和區"
"234062","337-UY","2018/11/12 13:19:17","新北市永和區永元路23號","121.521898333333","25.0006283333333","6500400","永和區"
"234084","338-UY","2018/11/12 13:19:19","新北市永和區永利路6號","121.517431666667","25.0057716666667","6500400","永和區"
"234068","552-UM","2018/11/12 13:19:21","新北市永和區豫溪街55號","121.51721","25.0099283333333","6500400","永和區"
"234015","745-BX","2018/11/12 13:19:18","新北市永和區環河西路一段95巷19弄3號","121.511741666667","25.01717","6500400","永和區"
"234028","746-BX","2018/11/12 13:19:16","新北市永和區厚德街58號","121.52446","24.9988916666667","6500400","永和區"
"234052","KEA-2590","2018/11/12 13:19:28","新北市永和區中興街63號","121.516755","25.0117033333333","6500400","永和區"
"234012","KEA-2591","2018/11/12 13:19:12","新北市永和區信義路77號","121.512403333333","25.0131966666667","6500400","永和區"
"234060","AAD-866","2018/11/12 13:19:25","新北市永和區秀朗路一段175號","121.517036666667","25.0036766666667","6500400","永和區"
"234040","862-TW","2018/11/12 13:19:26","新北市永和區保平路203巷13號","121.509603333333","25.00514","6500400","永和區"
"234048","863-TW","2018/11/12 13:19:18","新北市永和區仁愛路142號","121.511075","25.0133466666667","6500400","永和區"
"234025","9371-KE","2018/11/12 13:19:25","新北市永和區豫溪街28巷15號","121.51516","25.0092516666667","6500400","永和區"
"234010","9373-KE","2018/11/12 13:19:30","新北市永和區忠孝街40號","121.514518333333","25.0156983333333","6500400","永和區"
"248015","026-BX","2018/11/12 13:19:12","新北市五股區成泰路三段477巷18號","121.449923333333","25.0989","6501500","五股區"
"248005","077-UY","2018/11/12 13:19:21","新北市五股區中興路一段152號","121.464565","25.07381","6501500","五股區"
"248007","095-VK","2018/11/12 13:19:28","新北市五股區更洲路32巷8弄13-1號","121.459306666667","25.079505","6501500","五股區"
"248019","225-UY","2018/11/12 13:19:16","新北市五股區孝義路47巷10號","121.453586666667","25.1101466666667","6501500","五股區"
"248009","272-BY","2018/11/12 13:19:25","新北市五股區成泰路一段189巷9弄2號","121.434245","25.0766933333333","6501500","五股區"
"248011","655-BX","2018/11/12 13:19:10","新北市五股區御史路1巷75號","121.441191666667","25.0905033333333","6501500","五股區"
"248003","677-BX","2018/11/12 13:19:19","新北市五股區成泰路二段224號","121.439333333333","25.085825","6501500","五股區"
"248001","678-BX","2018/11/12 13:19:20","新北市五股區西雲路63號","121.443521666667","25.0916383333333","6501500","五股區"
"234022","9380-KE","2018/11/12 13:19:17","新北市永和區竹林路109巷9號","121.520428333333","25.0120583333333","6500400","永和區"
"234076","969-R7","2018/11/12 13:19:13","新北市永和區民有街65號","121.51783","24.995795","6500400","永和區"
"234072","AAC-211","2018/11/12 13:19:15","新北市永和區竹林路90號","121.519495","25.0123216666667","6500400","永和區"
"234066","AAC-212","2018/11/12 13:19:14","新北市永和區保平路30巷3號","121.511718333333","25.0075316666667","6500400","永和區"
"234001","AAC-295","2018/11/12 13:19:13","新北市永和區中山路一段117巷2號","121.510848333333","25.0102233333333","6500400","永和區"
"244001","248-BX","2018/11/12 13:19:07","新北市林口區寶斗厝坑67-5號","121.337355","25.112615","6501700","林口區"
"243005","AAD-798","2018/11/12 13:19:22","新北市泰山區南泰路8巷2號","121.418386666667","25.0384283333333","6501600","泰山區"
"231002","002-UM","2018/11/12 13:19:10","新北市新店區安華路28-1號","121.519705","24.9609083333333","6500600","新店區"
"231037","0291-UT","2018/11/12 13:19:11","新北市新店區安華路28-1號","121.519611666667","24.9607016666667","6500600","新店區"
"231027","0293-UT","2018/11/12 13:19:16","新北市新店區安華路8號","121.519815","24.9622533333333","6500600","新店區"
"231028","046-UY","2018/11/12 13:19:28","新北市新店區安華路28-1號","121.519693333333","24.9609333333333","6500600","新店區"
"231001","047-UY","2018/11/12 13:19:30","新北市新店區安華路28-1號","121.519136666667","24.96087","6500600","新店區"
"231005","106-UY","2018/11/12 13:19:25","新北市新店區安華路28-1號","121.519696666667","24.9607433333333","6500600","新店區"
"231010","107-UY","2018/11/12 13:19:22","新北市新店區安康路一段113號","121.528553333333","24.96176","6500600","新店區"
"231019","108-UY","2018/11/12 13:19:13","新北市新店區安康路一段52巷2號","121.530011666667","24.961215","6500600","新店區"
"231031","110-UY","2018/11/12 13:19:23","新北市新店區安一路一段1-1號","121.51922","24.9611616666667","6500600","新店區"
"231011","187-VK","2018/11/12 13:19:22","新北市新店區安一路一段1-1號","121.519668333333","24.9613083333333","6500600","新店區"
"231023","KEA-2219","2018/11/12 13:19:17","新北市新店區安康路一段88號","121.528033333333","24.9619766666667","6500600","新店區"
"231026","256-BX","2018/11/12 13:19:26","新北市新店區安一路一段1-1號","121.519725","24.961175","6500600","新店區"
"231003","268-BY","2018/11/12 13:19:25","新北市新店區安一路一段1-1號","121.519691666667","24.9611883333333","6500600","新店區"
"231018","278-BY","2018/11/12 13:19:16","新北市新店區中央路183-3號","121.53636","24.9685783333333","6500600","新店區"
"231014","AAD-862","2018/11/12 13:19:19","新北市新店區安康路一段5號","121.53373","24.960455","6500600","新店區"
"231038","3712-VJ","2018/11/12 13:19:10","新北市新店區安華路28-1號","121.519273333333","24.960625","6500600","新店區"
"231025","4715-K9","2018/11/12 13:19:24","新北市新店區中央五街55號","121.527713333333","24.9754766666667","6500600","新店區"
"231036","512-UM","2018/11/12 13:18:55","新北市新店區安康路二段362號","121.501731666667","24.9573983333333","6500600","新店區"
"231013","513-UM","2018/11/12 13:19:24","新北市新店區安一路一段1-1號","121.519785","24.9612866666667","6500600","新店區"
"231030","619-UM","2018/11/12 13:19:09","新北市新店區安一路一段1-1號","121.519733333333","24.96107","6500600","新店區"
"231034","641-BX","2018/11/12 13:19:14","新北市新店區安華路28-1號","121.5195","24.96055","6500600","新店區"
"231035","719-UM","2018/11/12 13:19:21","新北市新店區安一路一段1-1號","121.519546666667","24.9612966666667","6500600","新店區"
"231029","897-TW","2018/11/12 13:19:18","新北市新店區安華路28-1號","121.51951","24.9607433333333","6500600","新店區"
"231004","899-TW","2018/11/12 13:19:23","新北市新店區安華路28-1號","121.518905","24.9608533333333","6500600","新店區"
"231024","AKT-0513","2018/11/12 13:19:18","新北市新店區北新路一段91號","121.538796666667","24.9618483333333","6500600","新店區"
"235030","003-UY","2018/11/12 13:19:19","新北市中和區中山路二段120號","121.502698333333","25.00373","6500300","中和區"
"235028","005-UY","2018/11/12 13:19:28","新北市中和區中正路222號","121.49641","24.9939783333333","6500300","中和區"
"235027","006-UY","2018/11/12 13:19:16","新北市中和區中正路585號","121.485926666667","24.9945283333333","6500300","中和區"
"235003","097-UM","2018/11/12 13:19:13","新北市中和區安平路59號","121.50968","24.9949883333333","6500300","中和區"
"235029","098-UM","2018/11/12 13:19:26","新北市中和區莊敬路49巷20弄22號","121.502728333333","25.0058383333333","6500300","中和區"
"235022","151-BY","2018/11/12 13:19:12","新北市中和區圓通路369巷39號","121.489773333333","24.98619","6500300","中和區"
"235019","183-VK","2018/11/12 13:19:10","新北市土城區延壽路41號","121.470866666667","24.99148","6500300","中和區"
"235002","185-VK","2018/11/12 13:19:24","新北市中和區大智街42巷1-5號","121.522083333333","24.9920083333333","6500300","中和區"
"235013","186-VK","2018/11/12 13:19:22","新北市中和區中正路523號","121.488126666667","24.9935833333333","6500300","中和區"
"235031","255-BX","2018/11/12 13:19:21","新北市中和區新生街251號","121.483876666667","24.9985633333333","6500300","中和區"
"235036","301-VK","2018/11/12 13:19:24","新北市中和區連城路265巷1號","121.491465","24.996395","6500300","中和區"
"235006","KEA-2878","2018/11/12 13:19:15","新北市中和區景平路159巷56號","121.512916666667","24.9911916666667","6500300","中和區"
"235014","4979-A6","2018/11/12 13:19:09","新北市中和區中正路13號","121.50302","24.9934216666667","6500300","中和區"
"235033","4980-A6","2018/11/12 13:19:13","新北市中和區錦和路111-1號","121.490195","24.99518","6500300","中和區"
"235034","558-UM","2018/11/12 13:19:26","新北市中和區圓通路115號","121.499348333333","24.9964383333333","6500300","中和區"
"235009","565-BX","2018/11/12 13:19:17","新北市中和區復興路81號","121.503431666667","24.9899866666667","6500300","中和區"
"235018","640-BX","2018/11/12 13:19:17","新北市中和區國光街112巷1弄5號","121.46945","25.00108","6500300","中和區"
"235035","783-BX","2018/11/12 13:19:24","新北市中和區中板路18巷1弄28號","121.483425","25.0126466666667","6500300","中和區"
"235026","800-TS","2018/11/12 13:19:23","新北市中和區景平路999巷1號","121.495426666667","25.005955","6500300","中和區"
"235021","801-TS","2018/11/12 13:19:15","新北市中和區民安街111巷4弄3號","121.476321666667","24.9990216666667","6500300","中和區"
"235005","802-TS","2018/11/12 13:19:15","新北市永和區中和路373號","121.50834","24.9999083333333","6500300","中和區"
"235016","805-TS","2018/11/12 13:19:12","新北市中和區復興路42號","121.504691666667","24.9901516666667","6500300","中和區"
"235012","896-TW","2018/11/12 13:19:17","新北市中和區員山路36巷16-2號","121.485005","24.9919316666667","6500300","中和區"
"235015","157-BY","2018/11/12 13:19:20","新北市中和區忠孝街78號","121.512118333333","24.9842866666667","6500300","中和區"
"235001","AAC-213","2018/11/12 13:19:26","新北市中和區景德街65號","121.517021666667","24.9914483333333","6500300","中和區"
"235023","AAC-215","2018/11/12 13:19:12","新北市中和區員山路36巷16-3號","121.484915","24.991495","6500300","中和區"
"247009","056-VK","2018/11/12 13:19:28","新北市五股區中興路三段2巷10號","121.449018333333","25.081035","6501400","蘆洲區"
"247021","001-UY","2018/11/12 13:19:20","新北市五股區中興路三段163號","121.44906","25.0807916666667","6501400","蘆洲區"
"253003","6232-TK","2018/11/12 13:19:27","新北市石門區內石門89-2號","121.566775","25.2661683333333","6502200","石門區"
"253004","6251-TK","2018/11/12 13:19:11","新北市石門區竹子湖6號","121.616021666667","25.2615966666667","6502200","石門區"
"253002","637-UY","2018/11/12 13:19:15","新北市石門區大溪墘9-7號","121.552838333333","25.2746916666667","6502200","石門區"
"253001","KEC-0718","2018/11/12 13:19:27","新北市石門區楓林11號","121.536866666667","25.2954","6502200","石門區"
"249004","440-VK","2018/11/12 12:58:30","新北市八里區博物館路10-1號","121.415293333333","25.1642216666667","6502300","八里區"
"207002","749-BX","2018/11/12 13:19:10","新北市萬里區崁腳里崁腳路166號","121.645051666667","25.1558466666667","6502800","萬里區"
"252005","073-UM","2018/11/12 13:19:13","新北市三芝區八賢里八連溪65號","121.517555","25.2314283333333","6502100","三芝區"
"207001","662-BX","2018/11/12 13:19:27","新北市萬里區龜吼里玉田路50號","121.681168333333","25.1938683333333","6502800","萬里區"
"237001","159-UY","2018/11/12 13:19:20","新北市三峽區大學路154號","121.37375","24.9450283333333","6500900","三峽區"
"221010","269-BY","2018/11/12 13:19:27","新北市汐止區忠三街8號","121.624728333333","25.0784833333333","6501100","汐止區"
"221032","280-BY","2018/11/12 13:19:15","新北市汐止區龍安路44號","121.654198333333","25.063535","6501100","汐止區"
"221033","647-BX","2018/11/12 13:19:18","新北市汐止區莊敬街119巷11號","121.655523333333","25.0602233333333","6501100","汐止區"
"220025","687-BX","2018/11/12 13:19:12","新北市板橋區華東街1-10號","121.448348333333","24.9949266666667","6500100","板橋區"
"220012","833-TW","2018/11/12 13:19:20","新北市板橋區南雅西路一段7巷5號","121.454523333333","25.0038716666667","6500100","板橋區"
"220021","985-R7","2018/11/12 13:19:12","新北市板橋區華東街1-10號","121.448338333333","24.9949516666667","6500100","板橋區"
"235032","KEA-2873","2018/11/12 13:19:02","新北市中和區員山路36巷16-3號","121.485058333333","24.9913083333333","6500300","中和區"
"235025","KEA-2875","2018/11/12 13:19:16","新北市中和區民德路189巷7號","121.469086666667","24.9991083333333","6500300","中和區"
