"lineid","car","time","location","longitude","latitude","cityid","cityname"
"234044","148-BY","2018/11/12 13:59:30","新北市永和區成功路一段35號","121.527081666667","25.0044666666667","6500400","永和區"
"234005","207-UY","2018/11/12 13:59:15","新北市中和區中和路302號","121.508893333333","24.9998233333333","6500400","永和區"
"234078","298-R6","2018/11/12 13:59:26","新北市永和區林森路112巷12弄2號","121.52229","25.0043133333333","6500400","永和區"
"234036","336-UY","2018/11/12 13:59:18","新北市永和區成功路二段177-1號","121.526635","24.9966966666667","6500400","永和區"
"234062","337-UY","2018/11/12 13:59:28","新北市永和區中正路368巷1弄16號","121.518816666667","25.001","6500400","永和區"
"234068","552-UM","2018/11/12 13:59:21","新北市永和區國光路14號","121.519178333333","25.0084633333333","6500400","永和區"
"234015","745-BX","2018/11/12 13:59:18","新北市永和區文化路128號","121.513055","25.0152766666667","6500400","永和區"
"234028","746-BX","2018/11/12 13:59:16","新北市永和區民生路47巷21號","121.524168333333","24.997735","6500400","永和區"
"234052","KEA-2590","2018/11/12 13:59:15","新北市永和區竹林路39巷38號","121.519835","25.0151866666667","6500400","永和區"
"234012","KEA-2591","2018/11/12 13:59:12","新北市永和區保生路55號","121.504743333333","25.0106083333333","6500400","永和區"
"234060","AAD-866","2018/11/12 13:59:25","新北市永和區中正路283巷53弄2號","121.515871666667","24.99922","6500400","永和區"
"234084","847-RS","2018/11/12 13:59:16","新北市永和區永亨路157號","121.525828333333","25.00392","6500400","永和區"
"234040","862-TW","2018/11/12 13:59:26","新北市永和區中和路335巷14號","121.507538333333","25.00032","6500400","永和區"
"234048","863-TW","2018/11/12 13:59:17","新北市永和區保安路214號","121.507353333333","25.0136233333333","6500400","永和區"
"234010","9373-KE","2018/11/12 13:59:13","新北市永和區仁愛路352巷92弄5號","121.501216666667","25.0081716666667","6500400","永和區"
"248015","026-BX","2018/11/12 13:59:12","新北市五股區成泰路三段543巷18號","121.450896666667","25.102255","6501500","五股區"
"248007","095-VK","2018/11/12 13:59:28","新北市五股區中興路一段128巷38號","121.465783333333","25.0753516666667","6501500","五股區"
"248019","225-UY","2018/11/12 13:59:16","新北市五股區凌雲路三段85-3號","121.422843333333","25.12386","6501500","五股區"
"248009","272-BY","2018/11/12 13:59:13","新北市五股區水碓一路23號","121.430638333333","25.0713133333333","6501500","五股區"
"248011","655-BX","2018/11/12 13:59:29","新北市五股區成泰路二段195巷1號","121.440448333333","25.0873466666667","6501500","五股區"
"248003","677-BX","2018/11/12 13:59:16","新北市五股區民義路三段1號","121.402631666667","25.1143533333333","6501500","五股區"
"248001","678-BX","2018/11/12 13:59:20","新北市五股區凌雲路一段156巷1號","121.448978333333","25.10267","6501500","五股區"
"234022","9380-KE","2018/11/12 13:59:17","新北市永和區永和路二段233號","121.515605","25.0142116666667","6500400","永和區"
"234076","969-R7","2018/11/12 13:59:13","新北市永和區民權路58巷2弄2號","121.519671666667","24.998365","6500400","永和區"
"234072","AAC-211","2018/11/12 13:59:15","新北市永和區豫溪街185號","121.522503333333","25.0104033333333","6500400","永和區"
"234066","AAC-212","2018/11/12 13:59:14","新北市永和區永貞路313號","121.509961666667","25.0064816666667","6500400","永和區"
"234001","AAC-295","2018/11/12 13:59:13","新北市永和區福和路326號","121.515656666667","25.0072633333333","6500400","永和區"
"244001","248-BX","2018/11/12 13:59:29","新北市林口區太平里2-3號","121.361511666667","25.1339","6501700","林口區"
"243005","AAD-798","2018/11/12 13:59:27","新北市泰山區明志路三段206巷3號","121.423308333333","25.03799","6501600","泰山區"
"243008","KEA-2801","2018/11/12 13:59:13","新北市泰山區民權街2號","121.42779","25.05089","6501600","泰山區"
"243007","421-VK","2018/11/12 13:59:13","新北市泰山區泰林路二段282號","121.431293333333","25.062535","6501600","泰山區"
"243003","KEA-2215","2018/11/12 13:59:27","新北市泰山區明志路二段275號","121.426928333333","25.047315","6501600","泰山區"
"243002","KEA-2216","2018/11/12 13:59:27","新北市泰山區辭修路26巷14號","121.429246666667","25.05856","6501600","泰山區"
"243004","646-TV","2018/11/12 13:59:12","新北市泰山區福興三街166號","121.43271","25.05703","6501600","泰山區"
"243006","680-BX","2018/11/12 13:59:14","新北市泰山區黎明路21號","121.420871666667","25.0627866666667","6501600","泰山區"
"231002","002-UM","2018/11/12 13:59:10","新北市新店區復興路108-11號","121.53323","24.99129","6500600","新店區"
"231037","0291-UT","2018/11/12 13:59:11","新北市新店區安康路三段466-2號","121.48407","24.9508883333333","6500600","新店區"
"231027","0293-UT","2018/11/12 13:59:16","新北市新店區北宜路一段39巷20號","121.538795","24.9585033333333","6500600","新店區"
"231028","046-UY","2018/11/12 13:59:28","新北市新店區安和路三段7號","121.518176666667","24.9805266666667","6500600","新店區"
"231001","047-UY","2018/11/12 13:59:30","新北市新店區三民路45號","121.537045","24.9708533333333","6500600","新店區"
"231005","106-UY","2018/11/12 13:59:25","新北市新店區中興路三段227號","121.543073333333","24.9832916666667","6500600","新店區"
"231010","107-UY","2018/11/12 13:59:22","新北市新店區環河路42號","121.536908333333","24.96221","6500600","新店區"
"231019","108-UY","2018/11/12 13:59:13","新北市新店區湖子內路1號","121.542398333333","24.9304166666667","6500600","新店區"
"231031","110-UY","2018/11/12 13:59:23","新北市新店區莒光路44巷21弄11-6號","121.518405","24.95233","6500600","新店區"
"231011","187-VK","2018/11/12 13:59:22","新北市新店區德正街27巷26號","121.545333333333","24.9710066666667","6500600","新店區"
"231023","KEA-2219","2018/11/12 13:59:17","新北市新店區文中路51-5號","121.540333333333","24.9568683333333","6500600","新店區"
"231026","256-BX","2018/11/12 13:59:26","新北市新店區環河路22-1號","121.536936666667","24.9618966666667","6500600","新店區"
"231003","268-BY","2018/11/12 13:59:25","新北市新店區光明街138巷22號","121.540253333333","24.960945","6500600","新店區"
"231018","278-BY","2018/11/12 13:59:16","新北市新店區中央路135號","121.5304","24.9736783333333","6500600","新店區"
"231014","AAD-862","2018/11/12 13:59:19","新北市新店區郵政路1巷6號","121.557365","24.9520933333333","6500600","新店區"
"231038","3712-VJ","2018/11/12 13:59:10","新北市新店區安華路30巷1號","121.519555","24.9592566666667","6500600","新店區"
"231025","4715-K9","2018/11/12 13:59:24","新北市新店區中正路328巷18號","121.537521666667","24.9756966666667","6500600","新店區"
"231036","512-UM","2018/11/12 13:59:12","新北市新店區安祥路108巷51號","121.474423333333","24.957115","6500600","新店區"
"231013","513-UM","2018/11/12 13:59:24","新北市新店區明德路64號","121.541588333333","24.979475","6500600","新店區"
"231006","618-UM","2018/11/12 13:59:28","新北市新店區北宜路二段167巷4弄22號","121.553021666667","24.9535366666667","6500600","新店區"
"231030","619-UM","2018/11/12 13:59:29","新北市新店區安和路一段16號","121.517228333333","24.9652","6500600","新店區"
"231034","641-BX","2018/11/12 13:59:14","新北市新店區達觀路10號","121.50356","24.9436066666667","6500600","新店區"
"231035","719-UM","2018/11/12 13:59:21","新北市新店區安康路二段85巷17號","121.514321666667","24.961865","6500600","新店區"
"231029","897-TW","2018/11/12 13:59:18","新北市新店區安康路二段55號","121.51421","24.9633183333333","6500600","新店區"
"231004","899-TW","2018/11/12 13:59:26","新北市新店區北新路二段125號","121.54296","24.9752216666667","6500600","新店區"
"231024","AKT-0513","2018/11/12 13:59:18","新北市新店區北新路一段271巷9號","121.540476666667","24.9667566666667","6500600","新店區"
"235030","003-UY","2018/11/12 13:59:19","新北市中和區中山路二段131巷5弄5號","121.502926666667","25.0029133333333","6500300","中和區"
"235028","005-UY","2018/11/12 13:59:28","新北市中和區連城路47巷1號","121.498286666667","25.0016366666667","6500300","中和區"
"235027","006-UY","2018/11/12 13:59:16","新北市中和區中正路700號","121.486206666667","24.9963266666667","6500300","中和區"
"235020","096-UM","2018/11/12 13:59:20","新北市中和區中正路1210號","121.479983333333","25.0105216666667","6500300","中和區"
"235003","097-UM","2018/11/12 13:59:13","新北市中和區自立路193號","121.524278333333","24.99133","6500300","中和區"
"235029","098-UM","2018/11/12 13:59:26","新北市中和區福祥路133號","121.498445","25.0072866666667","6500300","中和區"
"235022","151-BY","2018/11/12 13:59:12","新北市中和區員山路77巷1弄1號","121.480608333333","24.9941883333333","6500300","中和區"
"235019","183-VK","2018/11/12 13:59:25","新北市中和區德光路59號","121.469851666667","25.0038833333333","6500300","中和區"
"235002","185-VK","2018/11/12 13:59:10","新北市中和區立人街24-4號","121.518843333333","24.99427","6500300","中和區"
"235013","186-VK","2018/11/12 13:59:22","新北市中和區景安路167巷5號","121.505776666667","24.9946816666667","6500300","中和區"
"235031","255-BX","2018/11/12 13:59:21","新北市中和區新生街166巷23號","121.482608333333","25.00012","6500300","中和區"
"235008","293-VK","2018/11/12 13:59:22","新北市中和區復興路280巷33弄11號","121.501451666667","24.991185","6500300","中和區"
"235036","301-VK","2018/11/12 13:59:24","新北市中和區中山路二段103號","121.50328","25.00396","6500300","中和區"
"235007","352-BY","2018/11/12 13:59:11","新北市中和區成功路56號","121.526046666667","24.9923016666667","6500300","中和區"
"235006","KEA-2878","2018/11/12 13:59:15","新北市中和區秀朗路三段50巷2弄8號","121.52617","24.99587","6500300","中和區"
"247011","KEA-2869","2018/11/12 13:59:23","新北市蘆洲區中興街13號","121.48054","25.0869716666667","6501400","蘆洲區"
"235014","4979-A6","2018/11/12 13:59:29","新北市中和區忠孝街39-1號","121.511483333333","24.9836733333333","6500300","中和區"
"235033","4980-A6","2018/11/12 13:59:22","新北市中和區圓通路109巷7號","121.500093333333","24.996335","6500300","中和區"
"235034","558-UM","2018/11/12 13:59:26","新北市中和區中和路212號","121.506011666667","24.99956","6500300","中和區"
"235009","565-BX","2018/11/12 13:59:17","新北市中和區景新街467巷20弄154號","121.515011666667","24.987595","6500300","中和區"
"235018","640-BX","2018/11/12 13:59:26","新北市中和區民享街29巷1-1號","121.474056666667","25.0045383333333","6500300","中和區"
"235024","647-TV","2018/11/12 13:59:17","新北市中和區民治街1巷2號","121.474955","25.0055083333333","6500300","中和區"
"235011","732-UM","2018/11/12 13:59:13","新北市中和區興南路二段54巷2-8號","121.505991666667","24.9855916666667","6500300","中和區"
"235010","733-UM","2018/11/12 13:59:13","新北市中和區興南路二段3巷11號","121.508213333333","24.9862383333333","6500300","中和區"
"235035","783-BX","2018/11/12 13:59:24","新北市中和區立德街98巷101號","121.488741666667","25.0085883333333","6500300","中和區"
"235026","800-TS","2018/11/12 13:59:23","新北市中和區中山路二段340巷64號","121.49305","25.0048716666667","6500300","中和區"
"235021","801-TS","2018/11/12 13:59:15","新北市中和區民利街60號","121.478945","24.9987233333333","6500300","中和區"
"235005","802-TS","2018/11/12 13:59:15","新北市中和區永貞路239巷13號","121.512703333333","25.00311","6500300","中和區"
"235016","805-TS","2018/11/12 13:59:12","新北市中和區興南路二段131-6號","121.50384","24.9815433333333","6500300","中和區"
"235012","896-TW","2018/11/12 13:59:18","新北市中和區興南路二段49號","121.507336666667","24.9853583333333","6500300","中和區"
"235017","900-TW","2018/11/12 13:59:24","新北市中和區壽德街26號","121.46652","24.9943683333333","6500300","中和區"
"235015","157-BY","2018/11/12 13:59:20","新北市中和區忠孝街13號","121.510003333333","24.9829","6500300","中和區"
"235001","AAC-213","2018/11/12 13:59:12","新北市中和區自立路99巷28號","121.52366","24.9946816666667","6500300","中和區"
"235023","AAC-215","2018/11/12 13:59:12","新北市中和區圓通路369巷19弄7號","121.49126","24.9883933333333","6500300","中和區"
"220013","072-UY","2018/11/12 13:59:29","新北市板橋區漢生東路324號","121.471808333333","25.0079916666667","6500100","板橋區"
"220034","073-UY","2018/11/12 13:59:23","新北市板橋區中正路236巷74號","121.458038333333","25.0194","6500100","板橋區"
"220105","075-UY","2018/11/12 13:59:23","新北市板橋區莒光路42號","121.470438333333","25.0244433333333","6500100","板橋區"
"220017","AAD-861","2018/11/12 13:59:14","新北市板橋區華興街58號","121.457778333333","25.00478","6500100","板橋區"
"247001","893-R6","2018/11/12 13:59:20","新北市蘆洲區永平街32巷62弄1號","121.4601","25.09294","6501400","蘆洲區"
"247015","546-UM","2018/11/12 13:59:16","新北市蘆洲區光華路44號","121.468795","25.083155","6501400","蘆洲區"
"247013","339-TH","2018/11/12 13:59:17","新北市蘆洲區中正路201號","121.468521666667","25.0858233333333","6501400","蘆洲區"
"247005","337-TH","2018/11/12 13:59:15","新北市蘆洲區永安南路二段50號","121.466091666667","25.0776666666667","6501400","蘆洲區"
"247019","057-VK","2018/11/12 13:59:21","新北市蘆洲區民族路422巷19號","121.473863333333","25.0928933333333","6501400","蘆洲區"
"247009","056-VK","2018/11/12 13:59:28","新北市蘆洲區中興街48號","121.481621666667","25.0872083333333","6501400","蘆洲區"
"247007","053-VK","2018/11/12 13:59:12","新北市三重區三和路四段237號","121.480978333333","25.080365","6501400","蘆洲區"
"247017","007-UY","2018/11/12 13:59:19","新北市蘆洲區民族路255巷16號","121.476136666667","25.0894066666667","6501400","蘆洲區"
"247003","002-UY","2018/11/12 13:59:21","新北市蘆洲區中華街2號","121.463648333333","25.08173","6501400","蘆洲區"
"247021","001-UY","2018/11/12 13:59:20","新北市蘆洲區中正路263巷2號","121.467443333333","25.0874433333333","6501400","蘆洲區"
"253003","6232-TK","2018/11/12 13:59:27","新北市石門區尖子鹿52-1號","121.578706666667","25.27343","6502200","石門區"
"253004","6251-TK","2018/11/12 13:59:26","新北市石門區小坑36號","121.597035","25.2671466666667","6502200","石門區"
"253002","637-UY","2018/11/12 13:59:15","新北市石門區尖山湖18號","121.558645","25.2470483333333","6502200","石門區"
"249004","440-VK","2018/11/12 13:29:35","新北市八里區挖子尾街16號","121.415306666667","25.1642416666667","6502300","八里區"
"207002","749-BX","2018/11/12 13:59:30","新北市萬里區溪底里烏塗炭9號","121.63754","25.151645","6502800","萬里區"
"252005","073-UM","2018/11/12 13:59:13","新北市三芝區橫山里大坑43號","121.535611666667","25.2460383333333","6502100","三芝區"
"207001","662-BX","2018/11/12 13:59:27","新北市萬里區磺潭里磺溪12號","121.630313333333","25.2030616666667","6502800","萬里區"
"237001","159-UY","2018/11/12 13:59:20","新北市三峽區中山路459巷163-1號","121.349273333333","24.9334783333333","6500900","三峽區"
"236064","105-UM","2018/11/12 13:59:12","新北市土城區城林路6巷80號","121.438708333333","24.9797016666667","6501300","土城區"
"236040","KED-0685","2018/11/12 13:59:16","新北市土城區城林路6巷80號","121.438451666667","24.9797683333333","6501300","土城區"
"236074","166-UM","2018/11/12 13:59:22","新北市土城區永寧路32巷10弄23號","121.428873333333","24.9610833333333","6501300","土城區"
"236029","253-BX","2018/11/12 13:59:15","新北市土城區城林路6巷80號","121.438575","24.9797816666667","6501300","土城區"
"236024","269-VK","2018/11/12 13:59:17","新北市土城區中華路二段210號","121.437645","24.9688266666667","6501300","土城區"
"236032","271-VK","2018/11/12 13:59:20","新北市土城區城林路6巷80號","121.438513333333","24.979795","6501300","土城區"
"236016","401-BY","2018/11/12 13:59:16","新北市土城區城林路6巷80號","121.43852","24.9798166666667","6501300","土城區"
"236057","912-UM","2018/11/12 13:59:21","新北市土城區中央路三段254號","121.427535","24.9641333333333","6501300","土城區"
"236045","913-UM","2018/11/12 13:59:15","新北市土城區城林路6巷80號","121.438506666667","24.9797233333333","6501300","土城區"
"236060","915-UM","2018/11/12 13:59:22","新北市土城區城林路6巷80號","121.438495","24.9798383333333","6501300","土城區"
"236054","AAC-216","2018/11/12 13:59:13","新北市土城區城林路6巷80號","121.43868","24.979735","6501300","土城區"
"242001","233-RS","2018/11/12 13:59:22","新北市新莊區新北大道四段2號","121.451238333333","25.060145","6500500","新莊區"
"221010","269-BY","2018/11/12 13:59:06","新北市汐止區八連路一段121-3號","121.643783333333","25.0794066666667","6501100","汐止區"
"221033","647-BX","2018/11/12 13:59:18","新北市汐止區大同路一段122號","121.630615","25.0546183333333","6501100","汐止區"
"220027","145-BY","2018/11/12 13:59:21","新北市板橋區民權路202巷7弄33-1號","121.45867","25.0150216666667","6500100","板橋區"
"220028","200-UY","2018/11/12 13:59:21","新北市板橋區合宜路41-2號","121.446765","24.996695","6500100","板橋區"
"220030","610-BX","2018/11/12 13:59:15","新北市板橋區溪北路134號","121.429336666667","24.9889366666667","6500100","板橋區"
"220004","276-BY","2018/11/12 13:59:26","新北市板橋區信義路161號","121.458571666667","24.9923983333333","6500100","板橋區"
"220020","277-BY","2018/11/12 13:59:23","新北市板橋區溪北路152號","121.430416666667","24.9882933333333","6500100","板橋區"
"220043","283-UM","2018/11/12 13:59:29","新北市板橋區光武街6號","121.467906666667","25.0249966666667","6500100","板橋區"
"220019","283-VK","2018/11/12 13:59:30","新北市板橋區忠孝路174巷41弄4號","121.464871666667","25.00112","6500100","板橋區"
"220001","285-VK","2018/11/12 13:59:25","新北市板橋區中山路二段89巷39號","121.473723333333","25.0171033333333","6500100","板橋區"
"220031","286-VK","2018/11/12 13:59:21","新北市板橋區龍興街101巷15號","121.443678333333","25.0034333333333","6500100","板橋區"
"220029","287-VK","2018/11/12 13:59:19","新北市板橋區光華街50號","121.453798333333","25.0130883333333","6500100","板橋區"
"220039","288-VK","2018/11/12 13:59:21","新北市板橋區互助街25巷9號","121.46319","25.0270466666667","6500100","板橋區"
"220009","295-UM","2018/11/12 13:59:21","新北市板橋區富山街100號","121.476336666667","25.0219366666667","6500100","板橋區"
"220032","296-UM","2018/11/12 13:59:27","新北市板橋區大觀路二段281號","121.442521666667","24.9989516666667","6500100","板橋區"
"220023","303-R5","2018/11/12 13:59:13","新北市板橋區大仁街95號","121.453183333333","25.0159","6500100","板橋區"
"220010","305-R5","2018/11/12 13:59:18","新北市板橋區三民路二段245巷38號","121.480673333333","25.0125516666667","6500100","板橋區"
"220041","307-R5","2018/11/12 13:59:24","新北市板橋區文化路一段104巷1號","121.465006666667","25.018","6500100","板橋區"
"220047","317-R6","2018/11/12 13:59:29","新北市板橋區民有街49號","121.465495","25.025925","6500100","板橋區"
"220038","487-VK","2018/11/12 13:59:25","新北市板橋區文化路二段318號","121.472311666667","25.0297666666667","6500100","板橋區"
"220037","491-VK","2018/11/12 13:59:16","新北市板橋區民生路二段208號","121.469513333333","25.0211433333333","6500100","板橋區"
"220104","560-BX","2018/11/12 13:59:15","新北市板橋區中正路379巷3弄38-1號","121.453223333333","25.0213183333333","6500100","板橋區"
"220052","561-BX","2018/11/12 13:59:23","新北市板橋區介壽街106號","121.470513333333","25.0181633333333","6500100","板橋區"
"220011","609-BX","2018/11/12 13:59:22","新北市板橋區中山路二段243號","121.47715","25.0174183333333","6500100","板橋區"
"220040","637-BX","2018/11/12 13:59:23","新北市板橋區大同街55號","121.478626666667","25.0275416666667","6500100","板橋區"
"220005","686-BX","2018/11/12 13:59:23","新北市板橋區重慶路107號","121.462091666667","25.0052366666667","6500100","板橋區"
"220025","687-BX","2018/11/12 13:59:24","新北市板橋區大觀路二段174巷116弄1號","121.44109","25.0018383333333","6500100","板橋區"
"220042","689-BX","2018/11/12 13:59:31","新北市板橋區民生路三段142號","121.466276666667","25.02713","6500100","板橋區"
"220002","741-BX","2018/11/12 13:59:28","新北市板橋區重慶路139巷19號","121.463668333333","25.0047616666667","6500100","板橋區"
"220051","KEA-2699","2018/11/12 13:59:20","新北市板橋區八德路二段62號","121.482188333333","25.0272516666667","6500100","板橋區"
"220003","827-TW","2018/11/12 13:59:27","新北市板橋區中山路一段158巷27-4號","121.466536666667","25.0112","6500100","板橋區"
"220014","829-TW","2018/11/12 13:59:13","新北市板橋區三民路二段正隆巷12弄1號","121.47795","25.0129433333333","6500100","板橋區"
"220045","831-TW","2018/11/12 13:59:16","新北市板橋區莒光路139號","121.47338","25.02402","6500100","板橋區"
"220012","833-TW","2018/11/12 13:59:20","新北市板橋區板新路153號","121.469801666667","25.0156116666667","6500100","板橋區"
"220022","895-R6","2018/11/12 13:59:26","新北市板橋區南雅南路一段46號","121.455735","25.0060316666667","6500100","板橋區"
"220021","985-R7","2018/11/12 13:59:12","新北市板橋區西門街18-5號","121.454381666667","25.011235","6500100","板橋區"
"220046","AAC-210","2018/11/12 13:59:14","新北市板橋區國光路208號","121.462088333333","25.0185583333333","6500100","板橋區"
"220018","AAC-253","2018/11/12 13:59:10","新北市板橋區信義路7號","121.45704","24.9969383333333","6500100","板橋區"
"235032","KEA-2873","2018/11/12 13:59:32","新北市中和區連城路127巷35號","121.497471666667","24.9970983333333","6500300","中和區"
"235025","KEA-2875","2018/11/12 13:59:16","新北市中和區民有街8號","121.475563333333","25.0056483333333","6500300","中和區"
