"lineid","car","time","location","longitude","latitude","cityid","cityname"
"234005","207-UY","2018/11/12 14:19:15","新北市永和區中正路659號","121.514743333333","25.01029","6500400","永和區"
"234078","298-R6","2018/11/12 14:19:28","新北市永和區國中路132巷10號","121.523893333333","25.0074766666667","6500400","永和區"
"234036","336-UY","2018/11/12 14:19:24","新北市永和區成功路一段5號","121.527126666667","25.0051866666667","6500400","永和區"
"234062","337-UY","2018/11/12 14:19:17","新北市永和區中正路340號","121.518005","25.00008","6500400","永和區"
"234068","552-UM","2018/11/12 14:19:21","新北市永和區福和路278號","121.517796666667","25.0074616666667","6500400","永和區"
"234028","746-BX","2018/11/12 14:19:16","新北市永和區民權路45號","121.520105","24.9972666666667","6500400","永和區"
"234052","KEA-2590","2018/11/12 14:19:16","新北市永和區博愛街7號","121.516946666667","25.015925","6500400","永和區"
"234012","KEA-2591","2018/11/12 14:19:22","新北市永和區保生路40巷2號","121.506143333333","25.0082233333333","6500400","永和區"
"234060","AAD-866","2018/11/12 14:19:25","新北市永和區安樂路164號","121.51467","25.00075","6500400","永和區"
"234084","847-RS","2018/11/12 14:19:20","新北市永和區福和路174號","121.521063333333","25.0077866666667","6500400","永和區"
"234040","862-TW","2018/11/12 14:19:26","新北市中和區中安街188號","121.511275","24.9994116666667","6500400","永和區"
"234048","863-TW","2018/11/12 14:19:31","新北市永和區文化路234號","121.50966","25.0170833333333","6500400","永和區"
"234025","9371-KE","2018/11/12 14:19:20","新北市永和區安樂路144巷27號","121.515055","24.9998266666667","6500400","永和區"
"248015","026-BX","2018/11/12 14:19:12","新北市五股區成洲五路12號","121.452266666667","25.101725","6501500","五股區"
"248007","095-VK","2018/11/12 14:19:28","新北市五股區中興路二段83巷26-3號","121.460116666667","25.07531","6501500","五股區"
"248019","225-UY","2018/11/12 14:04:56","新北市五股區凌雲路三段57號","121.42531","25.1250266666667","6501500","五股區"
"248009","272-BY","2018/11/12 14:19:13","新北市五股區水碓二路1號","121.430538333333","25.0711966666667","6501500","五股區"
"248011","655-BX","2018/11/12 14:19:29","新北市五股區成泰路一段241巷9號","121.436025","25.080915","6501500","五股區"
"248003","677-BX","2018/11/12 14:19:27","新北市五股區五福路119號","121.432008333333","25.0911433333333","6501500","五股區"
"248001","678-BX","2018/11/12 14:19:20","新北市五股區成泰路四段6-3號","121.453021666667","25.1064033333333","6501500","五股區"
"234022","9380-KE","2018/11/12 14:19:17","新北市永和區竹林路23號","121.517176666667","25.0147766666667","6500400","永和區"
"234076","969-R7","2018/11/12 14:19:13","新北市永和區民族街81巷48號","121.519818333333","24.9965216666667","6500400","永和區"
"234072","AAC-211","2018/11/12 14:19:27","新北市永和區竹林路119巷30弄11號","121.522668333333","25.0116416666667","6500400","永和區"
"234066","AAC-212","2018/11/12 14:19:14","新北市永和區保平路292巷60號","121.50688","25.00616","6500400","永和區"
"234001","AAC-295","2018/11/12 14:19:13","新北市永和區中正路626號","121.51703","25.0079016666667","6500400","永和區"
"243005","AAD-798","2018/11/12 14:19:27","新北市泰山區明志路三段145巷61號","121.427376666667","25.0391333333333","6501600","泰山區"
"243001","297-R6","2018/11/12 14:19:29","新北市泰山區明志路一段19巷3號","121.434013333333","25.0657366666667","6501600","泰山區"
"243008","KEA-2801","2018/11/12 14:19:13","新北市泰山區明志路三段159號","121.424735","25.03966","6501600","泰山區"
"243007","421-VK","2018/11/12 14:19:13","新北市泰山區明志路二段6號","121.429943333333","25.0538916666667","6501600","泰山區"
"243003","KEA-2215","2018/11/12 14:19:27","新北市泰山區貴子路13-2號","121.426288333333","25.0418233333333","6501600","泰山區"
"243002","KEA-2216","2018/11/12 14:19:27","新北市泰山區明志路二段5號","121.430261666667","25.0536083333333","6501600","泰山區"
"243004","646-TV","2018/11/12 14:19:32","新北市泰山區仁義路224號","121.433101666667","25.0536616666667","6501600","泰山區"
"243006","680-BX","2018/11/12 14:19:20","新北市泰山區泰林路二段93巷1號","121.43477","25.0587933333333","6501600","泰山區"
"231002","002-UM","2018/11/12 14:19:30","新北市新店區中正路485號","121.533908333333","24.9820483333333","6500600","新店區"
"231037","0291-UT","2018/11/12 14:19:31","新北市新店區安康路二段341巷14號","121.49632","24.9547883333333","6500600","新店區"
"231027","0293-UT","2018/11/12 14:19:16","新北市新店區光明街286巷6-3號","121.540738333333","24.963655","6500600","新店區"
"231028","046-UY","2018/11/12 14:19:27","新北市新店區安和路二段218-1號","121.51792","24.97522","6500600","新店區"
"231001","047-UY","2018/11/12 14:19:10","新北市新店區中正路75巷71號","121.543116666667","24.9689516666667","6500600","新店區"
"231005","106-UY","2018/11/12 14:19:25","新北市新店區中興路三段212號","121.543661666667","24.9823766666667","6500600","新店區"
"231019","108-UY","2018/11/12 14:19:13","新北市新店區新烏路二段198巷2弄2號","121.547763333333","24.91699","6500600","新店區"
"231031","110-UY","2018/11/12 14:19:23","新北市新店區永業路51巷2號","121.531876666667","24.95481","6500600","新店區"
"231011","187-VK","2018/11/12 14:19:21","新北市新店區五峰路63巷8弄5號","121.54724","24.9693433333333","6500600","新店區"
"231023","KEA-2219","2018/11/12 14:19:29","新北市新店區光明街51號","121.5386","24.960135","6500600","新店區"
"231003","268-BY","2018/11/12 14:19:25","新北市新店區中興路一段192號","121.543476666667","24.9650133333333","6500600","新店區"
"231018","278-BY","2018/11/12 14:19:16","新北市新店區中央五街1號","121.530206666667","24.9740216666667","6500600","新店區"
"231014","AAD-862","2018/11/12 14:19:18","新北市新店區北宜路三段320號","121.605888333333","24.9557","6500600","新店區"
"231038","3712-VJ","2018/11/12 14:19:30","新北市新店區安康路一段3-1號","121.534106666667","24.960445","6500600","新店區"
"231025","4715-K9","2018/11/12 14:19:24","新北市新店區民族路161號","121.537745","24.9767083333333","6500600","新店區"
"231036","512-UM","2018/11/12 14:19:12","新北市新店區安祥路109巷1弄7號","121.475765","24.9596066666667","6500600","新店區"
"231013","513-UM","2018/11/12 14:19:24","新北市新店區建國路154號","121.538735","24.979285","6500600","新店區"
"231006","618-UM","2018/11/12 14:19:28","新北市新店區北宜路二段599號","121.56827","24.9556783333333","6500600","新店區"
"231030","619-UM","2018/11/12 14:19:29","新北市新店區安民街3巷5號","121.514468333333","24.9642016666667","6500600","新店區"
"231034","641-BX","2018/11/12 14:19:14","新北市新店區車子路11號","121.503113333333","24.9520633333333","6500600","新店區"
"231035","719-UM","2018/11/12 14:18:42","新北市新店區光華街8巷28號","121.518076666667","24.9698733333333","6500600","新店區"
"231029","897-TW","2018/11/12 14:19:18","新北市新店區安康路二段300號","121.507238333333","24.9583966666667","6500600","新店區"
"231004","899-TW","2018/11/12 14:19:22","新北市新店區中正路153號","121.541343333333","24.9717733333333","6500600","新店區"
"235030","003-UY","2018/11/12 14:19:19","新北市中和區景新街2號","121.502568333333","24.9997966666667","6500300","中和區"
"235028","005-UY","2018/11/12 14:19:28","新北市中和區連城路2號","121.499251666667","25.00247","6500300","中和區"
"235027","006-UY","2018/11/12 14:19:16","新北市中和區連城路219巷14號","121.494705","24.99699","6500300","中和區"
"235020","096-UM","2018/11/12 14:19:25","新北市中和區員山路507號","121.479855","25.0064083333333","6500300","中和區"
"235003","097-UM","2018/11/12 14:19:13","新北市中和區秀峰街64號","121.520678333333","24.9905333333333","6500300","中和區"
"235029","098-UM","2018/11/12 14:19:26","新北市中和區中山路二段64巷16弄16號","121.503828333333","25.0062016666667","6500300","中和區"
"235004","150-BY","2018/11/12 14:19:19","新北市中和區保健路106巷71號","121.51143","24.9946283333333","6500300","中和區"
"235022","151-BY","2018/11/12 14:19:12","新北市中和區員山路36巷16-2號","121.485321666667","24.9914016666667","6500300","中和區"
"235019","183-VK","2018/11/12 14:19:10","新北市中和區中山路三段181巷26號","121.473078333333","25.005155","6500300","中和區"
"235002","185-VK","2018/11/12 14:19:30","新北市中和區大仁街10巷51號","121.519885","24.992415","6500300","中和區"
"235013","186-VK","2018/11/12 14:19:22","新北市中和區景新街228-6號","121.50815","24.9941733333333","6500300","中和區"
"235031","255-BX","2018/11/12 14:19:21","新北市中和區連城路282號","121.48433","24.9963483333333","6500300","中和區"
"235008","293-VK","2018/11/12 14:19:22","新北市中和區復興路321號","121.500908333333","24.990275","6500300","中和區"
"235036","301-VK","2018/11/12 14:19:24","新北市中和區莊敬路31巷36-1號","121.499876666667","25.0058716666667","6500300","中和區"
"235007","352-BY","2018/11/12 14:19:11","新北市中和區景平路352號","121.511463333333","24.9928016666667","6500300","中和區"
"235006","KEA-2878","2018/11/12 14:19:15","新北市中和區安樂路191巷20號","121.51429","24.9979366666667","6500300","中和區"
"247011","KEA-2869","2018/11/12 14:19:23","新北市蘆洲區民權路29號","121.476055","25.086425","6501400","蘆洲區"
"235014","4979-A6","2018/11/12 14:19:29","新北市中和區景安路208巷2號","121.503781666667","24.99101","6500300","中和區"
"235033","4980-A6","2018/11/12 14:19:13","新北市中和區景平路756號","121.49633","25.00466","6500300","中和區"
"235034","558-UM","2018/11/12 14:19:26","新北市中和區中山路二段269號","121.496795","25.0021466666667","6500300","中和區"
"235009","565-BX","2018/11/12 14:19:17","新北市中和區景新街423巷33弄16號","121.513636666667","24.990375","6500300","中和區"
"235018","640-BX","2018/11/12 14:19:17","新北市中和區國光街113號","121.469773333333","25.0004733333333","6500300","中和區"
"235024","647-TV","2018/11/12 14:19:17","新北市中和區中山路三段61號","121.476676666667","25.0057816666667","6500300","中和區"
"235011","732-UM","2018/11/12 14:19:13","新北市中和區和平街54巷7號","121.508938333333","24.9915183333333","6500300","中和區"
"235010","733-UM","2018/11/12 14:19:13","新北市中和區華新街162號","121.507528333333","24.9824333333333","6500300","中和區"
"235035","783-BX","2018/11/12 14:19:24","新北市中和區連城路350號","121.482288333333","24.9955016666667","6500300","中和區"
"235026","800-TS","2018/11/12 14:19:23","新北市中和區中山路二段440號","121.489211666667","25.004245","6500300","中和區"
"235021","801-TS","2018/11/12 14:19:15","新北市中和區員山路423巷13號","121.480451666667","25.0028916666667","6500300","中和區"
"235005","802-TS","2018/11/12 14:19:15","新北市中和區中安街218號","121.511895","24.9989116666667","6500300","中和區"
"235016","805-TS","2018/11/12 14:19:12","新北市中和區興南路二段242巷20號","121.502151666667","24.983295","6500300","中和區"
"235012","896-TW","2018/11/12 14:19:17","新北市中和區華新街109巷24號","121.508448333333","24.9804433333333","6500300","中和區"
"235017","900-TW","2018/11/12 14:19:26","新北市中和區華安街17巷43號","121.467998333333","24.9984083333333","6500300","中和區"
"235015","157-BY","2018/11/12 14:19:24","新北市中和區和平街54巷10弄14號","121.509555","24.99167","6500300","中和區"
"235001","AAC-213","2018/11/12 14:19:32","新北市中和區秀朗路三段50巷29弄1號","121.524235","24.9950766666667","6500300","中和區"
"235023","AAC-215","2018/11/12 14:19:12","新北市中和區圓通路286巷1號","121.491365","24.9910766666667","6500300","中和區"
"220013","072-UY","2018/11/12 14:19:29","新北市板橋區國泰街76巷21號","121.467071666667","25.0070883333333","6500100","板橋區"
"220034","073-UY","2018/11/12 14:19:22","新北市板橋區中正路250巷91號","121.459423333333","25.019985","6500100","板橋區"
"220105","075-UY","2018/11/12 14:19:23","新北市板橋區江寧路三段87巷2弄9號","121.472286666667","25.0332616666667","6500100","板橋區"
"220017","AAD-861","2018/11/12 14:19:11","新北市板橋區大華街49號","121.459441666667","25.00351","6500100","板橋區"
"247001","893-R6","2018/11/12 14:19:20","新北市蘆洲區永樂街81號","121.455878333333","25.088615","6501400","蘆洲區"
"247015","546-UM","2018/11/12 14:19:16","新北市蘆洲區中正路185巷31弄30號","121.466891666667","25.083485","6501400","蘆洲區"
"247023","500-BY","2018/11/12 14:19:11","新北市蘆洲區長榮路661號","121.460023333333","25.0913516666667","6501400","蘆洲區"
"247013","339-TH","2018/11/12 14:19:17","新北市蘆洲區中山一路234號","121.472861666667","25.080305","6501400","蘆洲區"
"247005","337-TH","2018/11/12 14:19:20","新北市蘆洲區長安街26號","121.464073333333","25.0792483333333","6501400","蘆洲區"
"247019","057-VK","2018/11/12 14:19:21","新北市蘆洲區民族路341號","121.47278","25.0919466666667","6501400","蘆洲區"
"247009","056-VK","2018/11/12 14:19:28","新北市蘆洲區三民路26巷30號","121.477885","25.082905","6501400","蘆洲區"
"247007","053-VK","2018/11/12 14:19:12","新北市蘆洲區民生街22號","121.475138333333","25.0789716666667","6501400","蘆洲區"
"247017","007-UY","2018/11/12 14:19:19","新北市蘆洲區民權路70號","121.474945","25.0873516666667","6501400","蘆洲區"
"247003","002-UY","2018/11/12 14:19:21","新北市蘆洲區長安街172巷16號","121.459976666667","25.0836366666667","6501400","蘆洲區"
"247021","001-UY","2018/11/12 14:19:20","新北市蘆洲區三民路128巷94號","121.469676666667","25.0903316666667","6501400","蘆洲區"
"253003","6232-TK","2018/11/12 14:19:27","新北市石門區尖子鹿31-1號","121.579361666667","25.2669783333333","6502200","石門區"
"253004","6251-TK","2018/11/12 14:19:26","新北市石門區內阿里磅14號","121.59312","25.24955","6502200","石門區"
"253002","637-UY","2018/11/12 14:19:15","新北市石門區七股30號","121.551901666667","25.263965","6502200","石門區"
"253001","KEC-0718","2018/11/12 14:19:23","新北市石門區八甲74號","121.529603333333","25.2638783333333","6502200","石門區"
"249004","440-VK","2018/11/12 14:19:13","新北市八里區博物館路10-1號","121.415298333333","25.1642233333333","6502300","八里區"
"207002","749-BX","2018/11/12 14:19:10","新北市萬里區溪底里瑞泉路2-6號","121.609675","25.14287","6502800","萬里區"
"252005","073-UM","2018/11/12 14:19:13","新北市三芝區橫山里橫山21號","121.539883333333","25.26277","6502100","三芝區"
"207001","662-BX","2018/11/12 14:19:27","新北市萬里區磺潭里清水18號","121.637838333333","25.197765","6502800","萬里區"
"236064","105-UM","2018/11/12 14:19:12","新北市土城區明德路一段151號","121.46505","24.9800283333333","6501300","土城區"
"236040","KED-0685","2018/11/12 14:19:16","新北市土城區裕生路65號","121.447231666667","24.9850516666667","6501300","土城區"
"236074","166-UM","2018/11/12 14:19:22","新北市土城區中央路三段281巷23弄19號","121.426318333333","24.96159","6501300","土城區"
"236029","253-BX","2018/11/12 14:19:15","新北市土城區順風路30號","121.440131666667","24.977065","6501300","土城區"
"236024","269-VK","2018/11/12 14:19:17","新北市土城區承天路67號","121.439523333333","24.9634916666667","6501300","土城區"
"236012","270-VK","2018/11/12 14:19:12","新北市土城區青雲路39巷7號","121.460335","24.9874383333333","6501300","土城區"
"236032","271-VK","2018/11/12 14:19:20","新北市土城區青雲路483巷1號","121.459361666667","24.9737166666667","6501300","土城區"
"236016","401-BY","2018/11/12 14:19:16","新北市土城區金城路一段112號","121.44627","24.9758666666667","6501300","土城區"
"236057","912-UM","2018/11/12 14:19:22","新北市土城區中央路四段450號","121.410443333333","24.95114","6501300","土城區"
"236045","913-UM","2018/11/12 14:19:15","新北市土城區明德路一段361-3號","121.4561","24.9778166666667","6501300","土城區"
"236060","915-UM","2018/11/12 14:19:22","新北市土城區延壽路44巷15號","121.471485","24.993085","6501300","土城區"
"236054","AAC-216","2018/11/12 14:19:13","新北市土城區中華路二段124號","121.437698333333","24.9737133333333","6501300","土城區"
"242001","233-RS","2018/11/12 14:19:21","新北市新莊區瓊林南路61-71號","121.439396666667","25.01881","6500500","新莊區"
"238012","303-VK","2018/11/12 14:06:03","新北市樹林區育德街78號","121.387486666667","24.9684483333333","6500700","樹林區"
"221010","269-BY","2018/11/12 14:19:26","新北市汐止區長青路210巷83號","121.616253333333","25.1156316666667","6501100","汐止區"
"221032","280-BY","2018/11/12 14:19:15","新北市汐止區龍安路171號","121.653641666667","25.0633","6501100","汐止區"
"221033","647-BX","2018/11/12 14:19:18","新北市汐止區樟樹二路262號","121.64079","25.0679183333333","6501100","汐止區"
"220027","145-BY","2018/11/12 14:19:21","新北市板橋區民權路302巷14號","121.457785","25.0164383333333","6500100","板橋區"
"220028","200-UY","2018/11/12 14:19:28","新北市板橋區大觀路二段3巷30號","121.448188333333","25.0035166666667","6500100","板橋區"
"220030","610-BX","2018/11/12 14:19:15","新北市板橋區篤行路三段99號","121.426323333333","24.9847683333333","6500100","板橋區"
"220050","245-BX","2018/11/12 14:19:10","新北市板橋區莊敬路25巷2號","121.47382","25.0278016666667","6500100","板橋區"
"220004","276-BY","2018/11/12 14:19:18","新北市板橋區信義路52號","121.457106666667","24.99413","6500100","板橋區"
"220020","277-BY","2018/11/12 14:19:23","新北市板橋區金門街335-1號","121.429508333333","24.9855483333333","6500100","板橋區"
"220043","283-UM","2018/11/12 14:19:29","新北市板橋區吳鳳路21巷2號","121.466915","25.0311933333333","6500100","板橋區"
"220019","283-VK","2018/11/12 14:19:10","新北市板橋區忠孝路24巷24號","121.46024","25.0008783333333","6500100","板橋區"
"220001","285-VK","2018/11/12 14:19:18","新北市板橋區富山街12號","121.478563333333","25.021835","6500100","板橋區"
"220031","286-VK","2018/11/12 14:19:21","新北市板橋區龍興街73巷25號","121.442768333333","25.0025066666667","6500100","板橋區"
"220029","287-VK","2018/11/12 14:19:12","新北市板橋區南雅西路一段10巷7弄11號","121.454293333333","25.00436","6500100","板橋區"
"220039","288-VK","2018/11/12 14:19:21","新北市板橋區長江路一段106巷13弄19號","121.460818333333","25.02948","6500100","板橋區"
"220009","295-UM","2018/11/12 14:19:13","新北市板橋區中山路二段255巷7號","121.477016666667","25.0179266666667","6500100","板橋區"
"220032","296-UM","2018/11/12 14:19:27","新北市板橋區溪北路97號","121.428695","24.9892666666667","6500100","板橋區"
"220023","303-R5","2018/11/12 14:19:13","新北市板橋區南雅南路一段4巷19號","121.454441666667","25.005075","6500100","板橋區"
"220010","305-R5","2018/11/12 14:19:30","新北市板橋區三民路二段153巷36弄2號","121.48128","25.0141733333333","6500100","板橋區"
"220041","307-R5","2018/11/12 14:19:24","新北市板橋區光武街48巷49號","121.468288333333","25.0271666666667","6500100","板橋區"
"220047","317-R6","2018/11/12 14:19:08","新北市板橋區四維路257號","121.463476666667","25.0280833333333","6500100","板橋區"
"220038","487-VK","2018/11/12 14:19:25","新北市板橋區文化路一段261號","121.4645","25.0181133333333","6500100","板橋區"
"220037","491-VK","2018/11/12 14:19:17","新北市板橋區雙十路二段221號","121.473036666667","25.0290216666667","6500100","板橋區"
"220104","560-BX","2018/11/12 14:19:22","新北市板橋區中正路433巷15號","121.453615","25.0235166666667","6500100","板橋區"
"220052","561-BX","2018/11/12 14:19:24","新北市板橋區介壽街18號","121.467563333333","25.0201216666667","6500100","板橋區"
"220011","609-BX","2018/11/12 14:19:22","新北市板橋區三民路二段203-2號","121.479235","25.0136516666667","6500100","板橋區"
"220040","637-BX","2018/11/12 14:19:23","新北市板橋區縣民大道三段223號","121.480481666667","25.025435","6500100","板橋區"
"220005","686-BX","2018/11/12 14:19:23","新北市中和區壽德街26-1號","121.46639","24.9944116666667","6500100","板橋區"
"220025","687-BX","2018/11/12 14:19:32","新北市板橋區龍興街4號","121.442743333333","24.9994716666667","6500100","板橋區"
"220042","689-BX","2018/11/12 14:19:19","新北市板橋區漢生西路101號","121.462526666667","25.019975","6500100","板橋區"
"220002","741-BX","2018/11/12 14:18:15","新北市板橋區光明街39號","121.4612","25.00271","6500100","板橋區"
"220051","KEA-2699","2018/11/12 14:19:20","新北市板橋區文聖街205巷4號","121.479986666667","25.0264933333333","6500100","板橋區"
"220003","827-TW","2018/11/12 14:19:27","新北市板橋區館前東路156巷8號","121.464416666667","25.0073333333333","6500100","板橋區"
"220014","829-TW","2018/11/12 14:19:13","新北市板橋區長安街178巷3號","121.474121666667","25.0111516666667","6500100","板橋區"
"220045","831-TW","2018/11/12 14:19:23","新北市板橋區大同街50巷43號","121.479068333333","25.0266216666667","6500100","板橋區"
"220012","833-TW","2018/11/12 14:19:20","新北市板橋區縣民大道二段68-1號","121.463415","25.0131516666667","6500100","板橋區"
"220022","895-R6","2018/11/12 14:19:22","新北市板橋區文化路一段18-1號","121.45822","25.0130816666667","6500100","板橋區"
"220021","985-R7","2018/11/12 14:19:17","新北市板橋區中正路294號","121.454893333333","25.0203283333333","6500100","板橋區"
"220046","AAC-210","2018/11/12 14:19:19","新北市板橋區幸福路32巷1弄12號","121.460993333333","25.0204316666667","6500100","板橋區"
"220018","AAC-253","2018/11/12 14:19:29","新北市板橋區忠孝路28號","121.460246666667","25.00192","6500100","板橋區"
"235032","KEA-2873","2018/11/12 14:19:01","新北市中和區景平路493巷2-4號","121.499798333333","24.997615","6500300","中和區"
"235025","KEA-2875","2018/11/12 14:19:16","新北市中和區員山路152-3號","121.481301666667","24.99857","6500300","中和區"
