"lineid","car","time","location","longitude","latitude","cityid","cityname"
"248007","095-VK","2018/11/12 15:09:28","新北市五股區中興路一段1巷12弄13號","121.469335","25.0709483333333","6501500","五股區"
"248003","677-BX","2018/11/12 15:09:16","新北市五股區成泰路一段130-2號","121.435118333333","25.0751616666667","6501500","五股區"
"244001","248-BX","2018/11/12 15:09:30","新北市林口區林口路76號","121.389696666667","25.0807233333333","6501700","林口區"
"243008","KEA-2801","2018/11/12 15:09:28","新北市泰山區新生路11號","121.426858333333","25.0457","6501600","泰山區"
"243007","421-VK","2018/11/12 15:09:13","新北市泰山區泰林路二段158號","121.433941666667","25.0602783333333","6501600","泰山區"
"243003","KEA-2215","2018/11/12 15:09:27","新北市泰山區新北大道六段385號","121.421798333333","25.0324583333333","6501600","泰山區"
"243004","646-TV","2018/11/12 15:09:12","新北市泰山區忠孝街19巷2弄2號","121.427533333333","25.0655883333333","6501600","泰山區"
"231002","002-UM","2018/11/12 15:09:19","新北市新店區中正路543-2號","121.533535","24.9872383333333","6500600","新店區"
"231037","0291-UT","2018/11/12 15:09:30","新北市新店區薏仁坑路自強巷1號","121.49673","24.9580016666667","6500600","新店區"
"231028","046-UY","2018/11/12 15:09:27","新北市新店區僑信路99號","121.500225","24.9468666666667","6500600","新店區"
"231001","047-UY","2018/11/12 15:09:30","新北市新店區中正路270號","121.538946666667","24.9736","6500600","新店區"
"231005","106-UY","2018/11/12 15:09:25","新北市新店區北新路三段196號","121.541491666667","24.9832316666667","6500600","新店區"
"231019","108-UY","2018/11/12 15:09:13","新北市新店區永福路54-2號","121.55816","24.9287116666667","6500600","新店區"
"231031","110-UY","2018/11/12 15:09:22","新北市新店區安泰路60巷134弄66號","121.483491666667","24.9434683333333","6500600","新店區"
"231011","187-VK","2018/11/12 15:09:21","新北市新店區寶元路一段61號","121.542196666667","24.98601","6500600","新店區"
"231023","KEA-2219","2018/11/12 15:09:17","新北市新店區檳榔路105號","121.544691666667","24.9617366666667","6500600","新店區"
"231026","256-BX","2018/11/12 15:09:20","新北市新店區建興街4號","121.540123333333","24.9765233333333","6500600","新店區"
"231003","268-BY","2018/11/12 15:09:24","新北市新店區寶橋路132號","121.547351666667","24.9759816666667","6500600","新店區"
"231018","278-BY","2018/11/12 15:09:16","新北市新店區溪園路459號","121.525175","24.977325","6500600","新店區"
"231014","AAD-862","2018/11/12 15:09:18","新北市新店區明山路45號","121.563881666667","24.95575","6500600","新店區"
"231038","3712-VJ","2018/11/12 15:09:30","新北市新店區安華路28-1號","121.519606666667","24.9609916666667","6500600","新店區"
"231025","4715-K9","2018/11/12 15:09:24","新北市新店區民權路107-2號","121.536386666667","24.9821916666667","6500600","新店區"
"231036","512-UM","2018/11/12 15:09:27","新北市新店區安祥路102巷46弄51號","121.48628","24.96376","6500600","新店區"
"231006","618-UM","2018/11/12 15:09:27","新北市新店區新坡一街18巷7弄3號","121.550498333333","24.9614883333333","6500600","新店區"
"231030","619-UM","2018/11/12 15:09:29","新北市新店區安民街341-1號","121.516766666667","24.9748816666667","6500600","新店區"
"231034","641-BX","2018/11/12 15:09:14","新北市新店區玫瑰路4-1號","121.493593333333","24.9514566666667","6500600","新店區"
"231039","718-UY","2018/11/12 15:09:24","新北市新店區北新路三段106號","121.542015","24.9813366666667","6500600","新店區"
"231035","719-UM","2018/11/12 15:09:21","新北市新店區永安街56巷8弄2號","121.517995","24.985925","6500600","新店區"
"231029","897-TW","2018/11/12 15:09:18","新北市新店區安康路三段716號","121.473958333333","24.9420516666667","6500600","新店區"
"231004","899-TW","2018/11/12 15:09:23","新北市新店區建國路35巷1號","121.540415","24.974465","6500600","新店區"
"231024","AKT-0513","2018/11/12 15:09:32","新北市新店區中華路48巷27號","121.541143333333","24.9694716666667","6500600","新店區"
"241011","013-R5","2018/11/12 15:09:12","新北市三重區重新路四段121號","121.484643333333","25.0524133333333","6500200","三重區"
"235030","003-UY","2018/11/12 15:09:19","新北市中和區水源路127巷2弄2號","121.508068333333","25.0040783333333","6500300","中和區"
"235029","098-UM","2018/11/12 15:09:26","新北市中和區福美路312巷8號","121.496615","25.005255","6500300","中和區"
"235014","4979-A6","2018/11/12 15:09:29","新北市中和區景平路336號","121.511825","24.9927383333333","6500300","中和區"
"235033","4980-A6","2018/11/12 15:09:13","新北市中和區景新街64巷7弄16號","121.504688333333","24.9985133333333","6500300","中和區"
"235034","558-UM","2018/11/12 15:09:25","新北市中和區圓通路208號","121.496133333333","24.994","6500300","中和區"
"235018","640-BX","2018/11/12 15:09:17","新北市中和區民享街40號","121.473851666667","25.002875","6500300","中和區"
"235035","783-BX","2018/11/12 15:09:24","新北市中和區立德街323號","121.48208","25.010515","6500300","中和區"
"235012","896-TW","2018/11/12 15:09:17","新北市中和區興南路一段159號","121.508576666667","24.9871716666667","6500300","中和區"
"235001","AAC-213","2018/11/12 15:09:32","新北市中和區自強路50號","121.520146666667","24.9948533333333","6500300","中和區"
"235023","AAC-215","2018/11/12 15:09:12","新北市中和區圓通路335巷33弄3號","121.493191666667","24.9892816666667","6500300","中和區"
"220017","AAD-861","2018/11/12 15:09:11","新北市板橋區大明街25巷2弄23號","121.457515","25.0025583333333","6500100","板橋區"
"253003","6232-TK","2018/11/12 15:09:27","新北市石門區阿里磅1號","121.591461666667","25.29095","6502200","石門區"
"253004","6251-TK","2018/11/12 15:09:26","新北市石門區小坑9號","121.594898333333","25.2863116666667","6502200","石門區"
"253002","637-UY","2018/11/12 15:09:15","新北市石門區崁子腳28-2號","121.54009","25.2889333333333","6502200","石門區"
"253001","KEC-0718","2018/11/12 15:09:23","新北市石門區崁子腳31-1號","121.536863333333","25.28373","6502200","石門區"
"249004","440-VK","2018/11/12 14:56:12","新北市八里區博物館路10-1號","121.415191666667","25.1642766666667","6502300","八里區"
"207002","749-BX","2018/11/12 15:09:30","新北市萬里區崁腳里內中福路66號","121.655361666667","25.166825","6502800","萬里區"
"207001","662-BX","2018/11/12 15:09:30","新北市萬里區雙興里麗水路7-2號","121.650833333333","25.18599","6502800","萬里區"
"236064","105-UM","2018/11/12 15:09:12","新北市土城區學成路151號","121.44843","24.98937","6501300","土城區"
"236040","KED-0685","2018/11/12 15:09:16","新北市土城區學士路11號","121.453728333333","24.9829783333333","6501300","土城區"
"236074","166-UM","2018/11/12 15:09:22","新北市土城區中州路24巷11號","121.414868333333","24.95769","6501300","土城區"
"236029","253-BX","2018/11/12 15:09:15","新北市土城區中央路二段80巷8弄2號","121.441876666667","24.9791216666667","6501300","土城區"
"236024","269-VK","2018/11/12 15:09:16","新北市土城區中央路二段232號","121.441926666667","24.97514","6501300","土城區"
"236012","270-VK","2018/11/12 15:09:30","新北市土城區學府路一段39號","121.45788","24.9882616666667","6501300","土城區"
"236032","271-VK","2018/11/12 15:09:20","新北市土城區國際路113號","121.467761666667","24.9757266666667","6501300","土城區"
"236016","401-BY","2018/11/12 15:09:16","新北市土城區延峰街34巷2號","121.469486666667","24.9849716666667","6501300","土城區"
"236057","912-UM","2018/11/12 15:09:21","新北市土城區金城路一段141號","121.445318333333","24.9742533333333","6501300","土城區"
"236045","913-UM","2018/11/12 15:09:24","新北市土城區清水路201號","121.459968333333","24.981735","6501300","土城區"
"236060","915-UM","2018/11/12 15:09:22","新北市土城區延平街77號","121.467348333333","24.9934","6501300","土城區"
"236054","AAC-216","2018/11/12 15:09:33","新北市土城區學府路一段276號","121.450051666667","24.98323","6501300","土城區"
"242001","233-RS","2018/11/12 15:09:21","新北市新莊區環河路636-7號","121.43705","25.0108133333333","6500500","新莊區"
"238002","755-BX","2018/11/12 15:09:27","新北市樹林區中山路三段27號","121.401618333333","24.9755633333333","6500700","樹林區"
"238010","601-UM","2018/11/12 15:09:30","新北市樹林區保安街一段195號","121.420773333333","24.9959466666667","6500700","樹林區"
"238006","599-UM","2018/11/12 15:09:28","新北市樹林區八德街295號","121.422666666667","24.97884","6500700","樹林區"
"238005","571-TV","2018/11/12 15:09:05","新北市板橋區金門街215巷81弄8號","121.434935","24.9892","6500700","樹林區"
"238011","5061-A6","2018/11/12 15:09:18","新北市樹林區水源街13巷2號","121.425036666667","24.9832233333333","6500700","樹林區"
"238008","KEA-2539","2018/11/12 15:09:30","新北市樹林區西圳街一段165巷20弄2-1號","121.395156666667","24.96095","6500700","樹林區"
"238012","303-VK","2018/11/12 15:09:32","新北市樹林區中山路一段376-3號","121.418698333333","24.9856683333333","6500700","樹林區"
"238004","283-BY","2018/11/12 15:09:21","新北市樹林區中山路二段93號","121.410833333333","24.981615","6500700","樹林區"
"238001","282-BY","2018/11/12 15:09:24","新北市樹林區中山路二段89號","121.411431666667","24.9827783333333","6500700","樹林區"
"238013","172-UY","2018/11/12 15:09:27","新北市樹林區東順街119號","121.407145","24.9751733333333","6500700","樹林區"
"221010","269-BY","2018/11/12 15:09:26","新北市汐止區汐萬路一段256巷3號","121.652436666667","25.074575","6501100","汐止區"
"221032","280-BY","2018/11/12 15:09:15","新北市汐止區大同路一段433號","121.642871666667","25.0611616666667","6501100","汐止區"
"221033","647-BX","2018/11/12 15:09:18","新北市汐止區汐萬路一段284號","121.65074","25.0742283333333","6501100","汐止區"
"220030","610-BX","2018/11/12 15:09:15","新北市板橋區大觀路三段201號","121.431748333333","24.9932866666667","6500100","板橋區"
"220050","245-BX","2018/11/12 15:09:30","新北市板橋區莒光路171巷1弄18-3號","121.474483333333","25.0246866666667","6500100","板橋區"
"220020","277-BY","2018/11/12 15:09:22","新北市樹林區八德街495-3號","121.40155","24.9693433333333","6500100","板橋區"
"220001","285-VK","2018/11/12 15:09:18","新北市板橋區懷仁街91號","121.47753","25.0181683333333","6500100","板橋區"
"220031","286-VK","2018/11/12 15:09:21","新北市板橋區大觀路一段38巷156弄166號","121.444136666667","25.009265","6500100","板橋區"
"220029","287-VK","2018/11/12 15:09:32","新北市板橋區僑中一街80巷7弄10號","121.44735","25.0128283333333","6500100","板橋區"
"220009","295-UM","2018/11/12 15:09:23","新北市板橋區四川路一段274巷1弄2號","121.458381666667","25.00131","6500100","板橋區"
"220041","307-R5","2018/11/12 15:09:24","新北市板橋區裕民街128巷3號","121.458835","25.02772","6500100","板橋區"
"220038","487-VK","2018/11/12 15:09:25","新北市板橋區互助街63號","121.460611666667","25.0262366666667","6500100","板橋區"
"220037","491-VK","2018/11/12 15:09:27","新北市板橋區文聖街129號","121.478121666667","25.0286983333333","6500100","板橋區"
"220052","561-BX","2018/11/12 15:09:23","新北市板橋區英士路58巷9號","121.460635","25.0252283333333","6500100","板橋區"
"220011","609-BX","2018/11/12 15:09:22","新北市板橋區中山路二段531巷30號","121.48298","25.0222833333333","6500100","板橋區"
"220025","687-BX","2018/11/12 15:09:12","新北市板橋區僑中一街124巷11弄1號","121.44598","25.0128516666667","6500100","板橋區"
"220042","689-BX","2018/11/12 15:09:22","新北市板橋區長江路三段106號","121.474831666667","25.0343016666667","6500100","板橋區"
"220002","741-BX","2018/11/12 15:09:26","新北市板橋區實踐路93巷19號","121.464941666667","25.0054666666667","6500100","板橋區"
"220051","KEA-2699","2018/11/12 15:09:20","新北市板橋區民治街124號","121.477958333333","25.03101","6500100","板橋區"
"220003","827-TW","2018/11/12 15:09:27","新北市板橋區國慶路213巷5號","121.462996666667","24.99716","6500100","板橋區"
"220014","829-TW","2018/11/12 15:09:30","新北市板橋區中山路一段206巷11號","121.470136666667","25.0134583333333","6500100","板橋區"
"220016","830-TW","2018/11/12 15:09:31","新北市板橋區光復街215號","121.484626666667","25.0212483333333","6500100","板橋區"
"220012","833-TW","2018/11/12 15:08:59","新北市板橋區漢生東路195號","121.47003","25.0114033333333","6500100","板橋區"
"220022","895-R6","2018/11/12 15:09:22","新北市板橋區館前西路86號","121.45758","25.00712","6500100","板橋區"
"220046","AAC-210","2018/11/12 15:09:22","新北市板橋區建國街118號","121.460886666667","25.0174833333333","6500100","板橋區"
"220018","AAC-253","2018/11/12 15:09:29","新北市板橋區四川路一段477號","121.457116666667","24.9974216666667","6500100","板橋區"
