"lineid","car","time","location","longitude","latitude","cityid","cityname"
"248012","655-BX","2018/11/12 15:11:45","新北市五股區中興路二段83巷26-3號","121.460051666667","25.07545","6501500","五股區"
"244001","248-BX","2018/11/12 15:19:11","新北市林口區粉寮路一段70號","121.397156666667","25.0788983333333","6501700","林口區"
"243008","KEA-2801","2018/11/12 15:19:13","新北市泰山區文程路23號","121.428515","25.049175","6501600","泰山區"
"243003","KEA-2215","2018/11/12 15:19:27","新北市泰山區明志路三段83號","121.425035","25.04166","6501600","泰山區"
"231002","002-UM","2018/11/12 15:19:30","新北市新店區中正路700巷3號","121.533451666667","24.9916433333333","6500600","新店區"
"231028","046-UY","2018/11/12 15:19:27","新北市新店區僑信路132巷29號","121.499871666667","24.94527","6500600","新店區"
"231001","047-UY","2018/11/12 15:19:30","新北市新店區北新路一段321號","121.541596666667","24.9682416666667","6500600","新店區"
"231005","106-UY","2018/11/12 15:19:25","新北市新店區建國路189號","121.53804","24.9797416666667","6500600","新店區"
"231019","108-UY","2018/11/12 15:19:13","新北市新店區永福路54-2號","121.558155","24.9287216666667","6500600","新店區"
"231031","110-UY","2018/11/12 15:19:22","新北市新店區安泰路11巷1號","121.485533333333","24.9502283333333","6500600","新店區"
"231011","187-VK","2018/11/12 15:19:21","新北市新店區寶慶街66號","121.541933333333","24.98675","6500600","新店區"
"231023","KEA-2219","2018/11/12 15:19:17","新北市新店區北新路一段64巷39弄2號","121.54237","24.9657983333333","6500600","新店區"
"231026","256-BX","2018/11/12 15:19:15","新北市新店區中正路263號","121.538525","24.9735333333333","6500600","新店區"
"231003","268-BY","2018/11/12 15:19:24","新北市新店區寶橋路230號","121.551528333333","24.978895","6500600","新店區"
"231018","278-BY","2018/11/12 15:19:16","新北市新店區中央六街57號","121.527955","24.9759233333333","6500600","新店區"
"231014","AAD-862","2018/11/12 15:19:18","新北市新店區明山路45號","121.563901666667","24.9557583333333","6500600","新店區"
"231038","3712-VJ","2018/11/12 15:19:30","新北市新店區安華路28-1號","121.51964","24.9609733333333","6500600","新店區"
"231025","4715-K9","2018/11/12 15:19:24","新北市新店區環河路105-12號","121.531858333333","24.970065","6500600","新店區"
"231036","512-UM","2018/11/12 15:19:32","新北市新店區安祥路104巷6弄28號","121.482478333333","24.96287","6500600","新店區"
"231006","618-UM","2018/11/12 15:19:27","新北市新店區北新路一段2號","121.540916666667","24.9651783333333","6500600","新店區"
"231030","619-UM","2018/11/12 15:19:29","新北市新店區安民街341-1號","121.516751666667","24.9748716666667","6500600","新店區"
"231034","641-BX","2018/11/12 15:19:14","新北市新店區如意街4巷1號","121.495536666667","24.9492683333333","6500600","新店區"
"231039","718-UY","2018/11/12 15:19:24","新北市新店區寶元路一段61號","121.542233333333","24.9858916666667","6500600","新店區"
"231035","719-UM","2018/11/12 15:19:21","新北市新店區永平街23巷5號","121.516845","24.9830583333333","6500600","新店區"
"231029","897-TW","2018/11/12 15:19:18","新北市新店區安康路三段716號","121.473898333333","24.9421","6500600","新店區"
"231004","899-TW","2018/11/12 15:19:22","新北市新店區博愛街13巷24號","121.540253333333","24.974085","6500600","新店區"
"231024","AKT-0513","2018/11/12 15:19:18","新北市新店區安康路一段258號","121.520456666667","24.9639516666667","6500600","新店區"
"241011","013-R5","2018/11/12 15:19:32","新北市三重區重新路四段121號","121.484663333333","25.0523733333333","6500200","三重區"
"241017","063-VK","2018/11/12 15:19:26","新北市三重區重新路四段121號","121.48475","25.0520483333333","6500200","三重區"
"235030","003-UY","2018/11/12 15:19:19","新北市中和區保平路326巷5號","121.507035","25.004415","6500300","中和區"
"235014","4979-A6","2018/11/12 15:19:29","新北市中和區景平路464巷2弄2號","121.505746666667","24.9939333333333","6500300","中和區"
"235033","4980-A6","2018/11/12 15:19:33","新北市中和區圓通路198巷2弄2號","121.49625","24.9947883333333","6500300","中和區"
"235034","558-UM","2018/11/12 15:19:25","新北市中和區中正路434號","121.491261666667","24.994225","6500300","中和區"
"235012","896-TW","2018/11/12 15:19:17","新北市中和區景新街379號","121.512345","24.990365","6500300","中和區"
"235001","AAC-213","2018/11/12 15:19:12","新北市板橋區民生路一段91號","121.474485","25.0138216666667","6500300","中和區"
"235023","AAC-215","2018/11/12 15:19:32","新北市中和區圓通路435巷2-8號","121.487178333333","24.9867333333333","6500300","中和區"
"220017","AAD-861","2018/11/12 15:19:31","新北市板橋區貴興路119巷1弄1號","121.455778333333","25.0023683333333","6500100","板橋區"
"253003","6232-TK","2018/11/12 15:19:27","新北市石門區小坑9號","121.594478333333","25.2892033333333","6502200","石門區"
"253004","6251-TK","2018/11/12 15:19:26","新北市石門區小坑9號","121.593948333333","25.28859","6502200","石門區"
"253002","637-UY","2018/11/12 15:18:15","新北市石門區尖子鹿79-1號","121.571996666667","25.296085","6502200","石門區"
"253001","KEC-0718","2018/11/12 15:19:23","新北市石門區海園路37號","121.557476666667","25.2911966666667","6502200","石門區"
"249004","440-VK","2018/11/12 15:19:05","新北市八里區博物館路10-1號","121.415255","25.164235","6502300","八里區"
"207002","749-BX","2018/11/12 15:19:30","新北市萬里區崁腳里內中福路4-4號","121.666531666667","25.1640583333333","6502800","萬里區"
"207001","662-BX","2018/11/12 15:19:27","新北市萬里區磺潭里員潭路1-1號","121.646471666667","25.202455","6502800","萬里區"
"236064","105-UM","2018/11/12 15:19:32","新北市土城區裕民路185巷36弄8號","121.454435","24.9846416666667","6501300","土城區"
"236040","KED-0685","2018/11/12 15:19:16","新北市土城區裕民路267-1號","121.455296666667","24.9822683333333","6501300","土城區"
"236074","166-UM","2018/11/12 15:19:22","新北市土城區中央路四段256號","121.414851666667","24.956985","6501300","土城區"
"236029","253-BX","2018/11/12 15:19:15","新北市土城區中央路一段262巷9號","121.443548333333","24.984035","6501300","土城區"
"236024","269-VK","2018/11/12 15:19:17","新北市土城區員林街20-1號","121.443555","24.9776216666667","6501300","土城區"
"236012","270-VK","2018/11/12 15:19:32","新北市土城區學府路一段23巷25弄7號","121.457981666667","24.9866416666667","6501300","土城區"
"236032","271-VK","2018/11/12 15:19:20","新北市土城區國際路63號","121.46675","24.976515","6501300","土城區"
"236016","401-BY","2018/11/12 15:19:16","新北市土城區峰廷街18號","121.468963333333","24.9872516666667","6501300","土城區"
"236057","912-UM","2018/11/12 15:19:29","新北市土城區中央路三段59號","121.438813333333","24.9695333333333","6501300","土城區"
"236045","913-UM","2018/11/12 15:19:27","新北市土城區明德路一段38號","121.465186666667","24.9845116666667","6501300","土城區"
"236060","915-UM","2018/11/12 15:19:29","新北市土城區金城路三段149巷4弄10號","121.468738333333","24.98911","6501300","土城區"
"236054","AAC-216","2018/11/12 15:19:25","新北市土城區立德路22號","121.462821666667","24.9878633333333","6501300","土城區"
"242001","233-RS","2018/11/12 15:19:21","新北市新莊區環河路636-7號","121.437163333333","25.0108383333333","6500500","新莊區"
"238002","755-BX","2018/11/12 15:19:27","新北市樹林區復興路196號","121.420011666667","24.990995","6500700","樹林區"
"238010","601-UM","2018/11/12 15:19:30","新北市樹林區中正路433-2號","121.415036666667","25.008465","6500700","樹林區"
"238006","599-UM","2018/11/12 15:19:28","新北市樹林區太平路1-9號","121.418725","24.98443","6500700","樹林區"
"238005","571-TV","2018/11/12 15:19:27","新北市新莊區新崑路59號","121.43089","24.99998","6500700","樹林區"
"238011","5061-A6","2018/11/12 15:19:18","新北市樹林區太平路57號","121.419043333333","24.9822133333333","6500700","樹林區"
"238009","KEA-2213","2018/11/12 15:19:15","新北市樹林區中華路37巷12號","121.424058333333","24.9830033333333","6500700","樹林區"
"238008","KEA-2539","2018/11/12 15:19:30","新北市樹林區西圳街一段165巷20弄2-1號","121.395166666667","24.9609633333333","6500700","樹林區"
"238012","303-VK","2018/11/12 15:19:32","新北市樹林區中山路一段29號","121.424475","24.9933916666667","6500700","樹林區"
"238004","283-BY","2018/11/12 15:19:21","新北市樹林區三多路123號","121.41393","25.0066483333333","6500700","樹林區"
"238001","282-BY","2018/11/12 15:19:24","新北市樹林區大安路147號","121.421863333333","24.997025","6500700","樹林區"
"238013","172-UY","2018/11/12 15:19:27","新北市樹林區新興街2-1號","121.400266666667","24.9744366666667","6500700","樹林區"
"238003","169-UY","2018/11/12 15:19:32","新北市樹林區八德街1號","121.417668333333","24.9849766666667","6500700","樹林區"
"221032","280-BY","2018/11/12 15:19:15","新北市汐止區汐萬路一段256巷3號","121.653405","25.0745316666667","6501100","汐止區"
"220050","245-BX","2018/11/12 15:19:30","新北市板橋區莊敬路111號","121.472263333333","25.025775","6500100","板橋區"
"220020","277-BY","2018/11/12 15:19:22","新北市樹林區育德街68號","121.38948","24.9682233333333","6500100","板橋區"
"220031","286-VK","2018/11/12 15:19:21","新北市板橋區僑中二街104巷27-2號","121.444955","25.0080416666667","6500100","板橋區"
"220029","287-VK","2018/11/12 15:19:12","新北市板橋區僑中一街92號","121.447028333333","25.011635","6500100","板橋區"
"220041","307-R5","2018/11/12 15:19:26","新北市板橋區文化路一段71-1號","121.460838333333","25.0140816666667","6500100","板橋區"
"220038","487-VK","2018/11/12 15:19:32","新北市板橋區四維路146號","121.465078333333","25.02553","6500100","板橋區"
"220037","491-VK","2018/11/12 15:19:17","新北市板橋區懷德街78巷1號","121.478338333333","25.0315016666667","6500100","板橋區"
"220052","561-BX","2018/11/12 15:19:23","新北市板橋區漢生西路68號","121.462923333333","25.0189383333333","6500100","板橋區"
"220011","609-BX","2018/11/12 15:19:22","新北市板橋區中山路二段337號","121.47941","25.0189033333333","6500100","板橋區"
"220025","687-BX","2018/11/12 15:19:12","新北市板橋區僑中一街124巷70-5號","121.448668333333","25.0163916666667","6500100","板橋區"
"220042","689-BX","2018/11/12 15:19:19","新北市板橋區長江路二段57號","121.464546666667","25.03134","6500100","板橋區"
"220051","KEA-2699","2018/11/12 15:19:20","新北市板橋區文化路一段90號","121.46427","25.0177716666667","6500100","板橋區"
"220003","827-TW","2018/11/12 15:19:27","新北市板橋區仁愛路23號","121.458898333333","24.99943","6500100","板橋區"
"220018","AAC-253","2018/11/12 15:19:29","新北市板橋區四川路二段245巷71號","121.452763333333","24.99205","6500100","板橋區"
