"lineid","car","time","location","longitude","latitude","cityid","cityname"
"248012","655-BX","2018/11/12 15:11:45","新北市五股區中興路二段83巷26-3號","121.460051666667","25.07545","6501500","五股區"
"244001","248-BX","2018/11/12 15:29:30","新北市林口區粉寮路二段160巷28號","121.405161666667","25.0907883333333","6501700","林口區"
"231002","002-UM","2018/11/12 15:29:30","新北市新店區環河路152號","121.535633333333","24.9656233333333","6500600","新店區"
"231037","0291-UT","2018/11/12 15:29:30","新北市新店區安興路91巷6號","121.514716666667","24.9758183333333","6500600","新店區"
"231028","046-UY","2018/11/12 15:29:08","新北市新店區僑信路105號","121.500393333333","24.94657","6500600","新店區"
"231005","106-UY","2018/11/12 15:29:25","新北市新店區建國路257號","121.53742","24.9832533333333","6500600","新店區"
"231019","108-UY","2018/11/12 15:29:33","新北市新店區永福路90號","121.561006666667","24.9284283333333","6500600","新店區"
"231031","110-UY","2018/11/12 15:29:22","新北市新店區和成街12巷4號","121.488303333333","24.94785","6500600","新店區"
"231011","187-VK","2018/11/12 15:29:22","新北市新店區寶慶街36號","121.543006666667","24.9867533333333","6500600","新店區"
"231023","KEA-2219","2018/11/12 15:29:17","新北市新店區北新路一段339號","121.541891666667","24.9686883333333","6500600","新店區"
"231026","256-BX","2018/11/12 15:29:15","新北市新店區三民路117巷7弄1號","121.534123333333","24.9710316666667","6500600","新店區"
"231003","268-BY","2018/11/12 15:29:24","新北市新店區寶高路120巷1號","121.554593333333","24.976095","6500600","新店區"
"231018","278-BY","2018/11/12 15:29:16","新北市新店區民生路149巷22號","121.529471666667","24.9799316666667","6500600","新店區"
"231014","AAD-862","2018/11/12 15:29:18","新北市新店區明山路45號","121.563871666667","24.9558016666667","6500600","新店區"
"231038","3712-VJ","2018/11/12 15:29:30","新北市新店區安華路28-1號","121.519673333333","24.9609683333333","6500600","新店區"
"231025","4715-K9","2018/11/12 15:29:24","新北市新店區安光路10-1號","121.513783333333","24.963855","6500600","新店區"
"231036","512-UM","2018/11/12 15:29:12","新北市新店區安祥路67巷50弄15號","121.48424","24.958845","6500600","新店區"
"231030","619-UM","2018/11/12 15:29:29","新北市新店區新和街50號","121.519593333333","24.9852066666667","6500600","新店區"
"231034","641-BX","2018/11/12 15:29:14","新北市新店區富貴街8巷2號","121.494446666667","24.949915","6500600","新店區"
"231039","718-UY","2018/11/12 15:29:28","新北市新店區寶慶街38號","121.542925","24.9867233333333","6500600","新店區"
"231035","719-UM","2018/11/12 15:29:21","新北市新店區安興路81號","121.515493333333","24.9753016666667","6500600","新店區"
"231029","897-TW","2018/11/12 15:29:18","新北市新店區安泰路60巷30號","121.482486666667","24.94685","6500600","新店區"
"231004","899-TW","2018/11/12 15:29:22","新北市新店區民族路105號","121.538311666667","24.97753","6500600","新店區"
"241011","013-R5","2018/11/12 15:29:12","新北市三重區環河南路20號","121.50374","25.0624916666667","6500200","三重區"
"241028","022-UY","2018/11/12 15:29:15","新北市三重區重新路四段121號","121.484663333333","25.0521533333333","6500200","三重區"
"241015","062-VK","2018/11/12 15:29:24","新北市三重區重新路四段121號","121.485015","25.0524716666667","6500200","三重區"
"241017","063-VK","2018/11/12 15:29:26","新北市三重區重新路四段121號","121.484783333333","25.052255","6500200","三重區"
"241013","270-UM","2018/11/12 15:29:17","新北市三重區重新路四段121號","121.484725","25.0518933333333","6500200","三重區"
"241019","KEA-2593","2018/11/12 15:29:17","新北市三重區重新路四段121號","121.484658333333","25.05249","6500200","三重區"
"241029","942-UM","2018/11/12 15:29:29","新北市三重區重新路四段121號","121.48503","25.05181","6500200","三重區"
"241033","AAC-255","2018/11/12 15:29:18","新北市三重區重新路四段121號","121.484103333333","25.051795","6500200","三重區"
"235030","003-UY","2018/11/12 15:29:19","新北市中和區光華街59-1號","121.506398333333","25.0031166666667","6500300","中和區"
"235014","4979-A6","2018/11/12 15:29:29","新北市中和區景新街162號","121.505785","24.9971466666667","6500300","中和區"
"235033","4980-A6","2018/11/12 15:29:13","新北市中和區連城路347巷18弄2號","121.488528333333","24.9947216666667","6500300","中和區"
"235001","AAC-213","2018/11/12 15:29:32","新北市五股區天乙路102-22號","121.448181666667","25.1071016666667","6500300","中和區"
"235023","AAC-215","2018/11/12 15:29:13","新北市中和區員山路28-5號","121.482201666667","24.9869016666667","6500300","中和區"
"253003","6232-TK","2018/11/12 15:29:27","新北市石門區小坑9號","121.594713333333","25.288075","6502200","石門區"
"253002","637-UY","2018/11/12 15:29:15","新北市石門區小坑9號","121.594436666667","25.2892483333333","6502200","石門區"
"253001","KEC-0718","2018/11/12 15:29:23","新北市石門區小坑9號","121.59446","25.2891083333333","6502200","石門區"
"249004","440-VK","2018/11/12 15:20:05","新北市八里區博物館路10-1號","121.415265","25.1642516666667","6502300","八里區"
"207001","662-BX","2018/11/12 15:29:27","新北市萬里區野柳里八斗60-1號","121.676616666667","25.2003316666667","6502800","萬里區"
"236064","105-UM","2018/11/12 15:29:12","新北市土城區中正路6號","121.442375","24.9749283333333","6501300","土城區"
"236040","KED-0685","2018/11/12 15:29:16","新北市土城區學府路一段124-2號","121.455175","24.9872983333333","6501300","土城區"
"236074","166-UM","2018/11/12 15:29:22","新北市土城區中央路四段321巷46號","121.41243","24.95105","6501300","土城區"
"236029","253-BX","2018/11/12 15:29:14","新北市土城區中央路一段251-1號","121.445173333333","24.985695","6501300","土城區"
"236024","269-VK","2018/11/12 15:29:17","新北市土城區中央路二段91號","121.442338333333","24.9780383333333","6501300","土城區"
"236012","270-VK","2018/11/12 15:29:32","新北市土城區廣福街131號","121.456178333333","24.9931516666667","6501300","土城區"
"236032","271-VK","2018/11/12 15:29:26","新北市土城區延吉街363巷7號","121.464338333333","24.9835666666667","6501300","土城區"
"236016","401-BY","2018/11/12 15:29:33","新北市土城區延吉街137巷2弄1號","121.470865","24.9858283333333","6501300","土城區"
"236057","912-UM","2018/11/12 15:29:21","新北市土城區中華路二段2號","121.438878333333","24.9798933333333","6501300","土城區"
"236045","913-UM","2018/11/12 15:29:26","新北市土城區青雲路113號","121.459123333333","24.9844433333333","6501300","土城區"
"236060","915-UM","2018/11/12 15:29:21","新北市土城區延和路18巷16號","121.464506666667","24.98794","6501300","土城區"
"236054","AAC-216","2018/11/12 15:29:32","新北市土城區延和路19號","121.464355","24.9882983333333","6501300","土城區"
"242001","233-RS","2018/11/12 15:21:25","新北市新莊區環河路636-7號","121.437426666667","25.01169","6500500","新莊區"
"238002","755-BX","2018/11/12 15:29:27","新北市樹林區復興路168號","121.420523333333","24.9916683333333","6500700","樹林區"
"238010","601-UM","2018/11/12 15:29:30","新北市樹林區三福街73號","121.40758","25.01636","6500700","樹林區"
"238006","599-UM","2018/11/12 15:29:28","新北市樹林區太元街66號","121.41858","24.979085","6500700","樹林區"
"238005","571-TV","2018/11/12 15:29:25","新北市樹林區鎮前街57號","121.425066666667","24.991385","6500700","樹林區"
"238011","5061-A6","2018/11/12 15:29:18","新北市樹林區八德街216-3號","121.41692","24.9729183333333","6500700","樹林區"
"238009","KEA-2213","2018/11/12 15:29:15","新北市樹林區仁愛街69號","121.423166666667","24.9825883333333","6500700","樹林區"
"238008","KEA-2539","2018/11/12 15:29:30","新北市樹林區柑園街一段64號","121.402506666667","24.9605816666667","6500700","樹林區"
"238012","303-VK","2018/11/12 15:29:12","新北市樹林區中山路一段312號","121.419978333333","24.9863333333333","6500700","樹林區"
"238004","283-BY","2018/11/12 15:29:21","新北市樹林區保安街二段333巷2號","121.4123","25.0075316666667","6500700","樹林區"
"238001","282-BY","2018/11/12 15:29:24","新北市樹林區千歲街61巷40弄9號","121.425896666667","24.9990233333333","6500700","樹林區"
"238013","172-UY","2018/11/12 15:29:27","新北市樹林區新興街19巷34弄6號","121.401926666667","24.9732666666667","6500700","樹林區"
"238003","169-UY","2018/11/12 15:29:32","新北市樹林區長壽街28巷4弄11號","121.423625","24.9943466666667","6500700","樹林區"
"220050","245-BX","2018/11/12 15:29:30","新北市板橋區漢生東路83巷1號","121.466371666667","25.0159566666667","6500100","板橋區"
"220020","277-BY","2018/11/12 15:29:22","新北市板橋區溪城路90-2號","121.42955","24.9802416666667","6500100","板橋區"
"220031","286-VK","2018/11/12 15:29:21","新北市板橋區僑中二街112巷13號","121.44497","25.0071816666667","6500100","板橋區"
"220029","287-VK","2018/11/12 15:29:12","新北市板橋區大觀路二段385巷7號","121.440905","24.9974316666667","6500100","板橋區"
"220038","487-VK","2018/11/12 15:29:33","新北市板橋區四維路357號","121.46216","25.03014","6500100","板橋區"
"220037","491-VK","2018/11/12 15:29:17","新北市板橋區懷德街127巷23弄7號","121.47929","25.031785","6500100","板橋區"
"220052","561-BX","2018/11/12 15:29:23","新北市板橋區漢生東路37號","121.46551","25.0168583333333","6500100","板橋區"
"220011","609-BX","2018/11/12 15:29:22","新北市板橋區三民路一段76號","121.479598333333","25.0220033333333","6500100","板橋區"
"220025","687-BX","2018/11/12 15:29:32","新北市板橋區溪城路90-2號","121.428713333333","24.9796766666667","6500100","板橋區"
