"lineid","car","time","location","longitude","latitude","cityid","cityname"
"234050","863-TW","2018/11/12 16:15:41","新北市永和區福和路1號","121.526406666667","25.0100783333333","6500400","永和區"
"231046","107-UY","2018/11/12 16:27:51","新北市新店區灣潭路3-5號","121.537993333333","24.9508033333333","6500600","新店區"
"241011","013-R5","2018/11/12 16:27:52","新北市三重區龍濱路285號","121.501186666667","25.0733583333333","6500200","三重區"
"241028","022-UY","2018/11/12 16:27:55","新北市三重區重安街170巷6號","121.496383333333","25.05486","6500200","三重區"
"241008","059-VK","2018/11/12 16:28:03","新北市三重區力行路二段136巷45弄10號","121.479065","25.075305","6500200","三重區"
"241022","060-VK","2018/11/12 16:27:53","新北市三重區新北大道一段86巷19號","121.486031666667","25.0622366666667","6500200","三重區"
"241031","061-VK","2018/11/12 16:27:47","新北市三重區重陽路一段45號","121.486721666667","25.05816","6500200","三重區"
"241015","062-VK","2018/11/12 16:27:44","新北市三重區福德北路50號","121.50192","25.06579","6500200","三重區"
"241017","063-VK","2018/11/12 16:27:46","新北市三重區大同北路85號","121.494813333333","25.0636666666667","6500200","三重區"
"241024","065-VK","2018/11/12 16:27:50","新北市三重區中正北路255號","121.475491666667","25.0710333333333","6500200","三重區"
"241026","066-VK","2018/11/12 16:27:48","新北市三重區文化南路42號","121.500401666667","25.0604633333333","6500200","三重區"
"241002","090-VK","2018/11/12 16:27:57","新北市三重區五華街7巷53號","121.49617","25.0805633333333","6500200","三重區"
"241003","091-VK","2018/11/12 16:27:49","新北市三重區仁義街220巷32-1號","121.494171666667","25.0832733333333","6500200","三重區"
"241005","262-UM","2018/11/12 16:28:00","新北市三重區溪尾街300-2號","121.487413333333","25.0836066666667","6500200","三重區"
"241016","266-UM","2018/11/12 16:27:44","新北市三重區自強路一段200巷18號","121.494223333333","25.065965","6500200","三重區"
"241009","267-UM","2018/11/12 16:27:55","新北市三重區三和路四段191巷76號","121.484376666667","25.079835","6500200","三重區"
"241018","268-UM","2018/11/12 16:27:58","新北市三重區重陽路三段188號","121.490248333333","25.0682583333333","6500200","三重區"
"241032","269-UM","2018/11/12 16:27:47","新北市三重區三陽路100巷3弄13號","121.483008333333","25.0581033333333","6500200","三重區"
"241013","270-UM","2018/11/12 16:27:57","新北市三重區仁愛街52號","121.495971666667","25.0727833333333","6500200","三重區"
"241025","271-UM","2018/11/12 16:27:47","新北市三重區中正北路560巷100弄2號","121.47256","25.068225","6500200","三重區"
"241004","475-VK","2018/11/12 16:27:57","新北市三重區仁愛街377巷2號","121.491606666667","25.0804083333333","6500200","三重區"
"241020","478-VK","2018/11/12 16:27:47","新北市三重區車路頭街37巷2號","121.483983333333","25.071745","6500200","三重區"
"241014","543-UM","2018/11/12 16:28:00","新北市三重區河邊北街82號","121.50419","25.0689366666667","6500200","三重區"
"241023","545-UM","2018/11/12 16:27:52","新北市三重區忠孝路三段50巷47號","121.482911666667","25.0644016666667","6500200","三重區"
"241001","547-UM","2018/11/12 16:27:59","新北市三重區仁愛街282號","121.492443333333","25.0789416666667","6500200","三重區"
"241019","KEA-2593","2018/11/12 16:27:57","新北市三重區重陽路三段61號","121.489793333333","25.067445","6500200","三重區"
"241006","AAD-863","2018/11/12 16:27:45","新北市三重區力行路二段202號","121.483458333333","25.0776183333333","6500200","三重區"
"241030","743-BX","2018/11/12 16:27:58","新北市三重區成功路110-1號","121.487193333333","25.0518166666667","6500200","三重區"
"241007","887-TS","2018/11/12 16:27:44","新北市三重區溪尾街164號","121.488681666667","25.0802916666667","6500200","三重區"
"241012","941-UM","2018/11/12 16:28:01","新北市三重區河邊北街379-1號","121.501736666667","25.0765533333333","6500200","三重區"
"241029","942-UM","2018/11/12 16:27:49","新北市三重區集美街126巷16號","121.489576666667","25.0537466666667","6500200","三重區"
"241033","AAC-255","2018/11/12 16:27:58","新北市三重區重新路五段328號","121.477105","25.048305","6500200","三重區"
"235026","800-TS","2018/11/12 16:27:59","新北市中和區建八路123號","121.489726666667","24.9986833333333","6500300","中和區"
"224007","275-VK","2018/11/12 16:27:42","新北市瑞芳區大埔路108-3號","121.762381666667","25.1022183333333","6501200","瑞芳區"
"224005","271-BY","2018/11/12 16:27:52","新北市瑞芳區阿美家園5號","121.821621666667","25.1160133333333","6501200","瑞芳區"
"227008","642-TC","2018/11/12 16:27:59","新北市雙溪區三港里雙澳路37-5號","121.872756666667","25.0501666666667","6502500","雙溪區"
"227001","400-TW","2018/11/12 16:27:59","新北市雙溪區上林里內平林111號","121.826371666667","25.0270983333333","6502500","雙溪區"
"251013","KEA-2871","2018/11/12 16:27:51","新北市淡水區北新路三段162號","121.492378333333","25.1914916666667","6501000","淡水區"
"251008","180-VK","2018/11/12 16:27:51","新北市淡水區民生路135巷98號","121.468276666667","25.1412333333333","6501000","淡水區"
"249004","440-VK","2018/11/12 16:09:21","新北市八里區博物館路10-1號","121.415275","25.164165","6502300","八里區"
"236040","KED-0685","2018/11/12 16:27:56","新北市土城區中華路二段257號","121.437641666667","24.9713983333333","6501300","土城區"
"236057","912-UM","2018/11/12 16:28:01","新北市土城區永平街51號","121.427493333333","24.9591466666667","6501300","土城區"
"238006","599-UM","2018/11/12 16:27:48","新北市樹林區中華路162號","121.415681666667","24.9802933333333","6500700","樹林區"
"238025","303-VK","2018/11/12 16:15:58","新北市樹林區中正路22-1號","121.427833333333","24.9993483333333","6500700","樹林區"
"238004","283-BY","2018/11/12 16:28:01","新北市樹林區中正路433-1號","121.4148","25.00812","6500700","樹林區"
"238001","282-BY","2018/11/12 16:27:43","新北市樹林區中正路22-1號","121.427743333333","24.9995983333333","6500700","樹林區"
