"lineid","car","time","location","longitude","latitude","cityid","cityname"
"234050","863-TW","2018/11/12 18:09:49","新北市永和區福和路1號","121.526361666667","25.0099833333333","6500400","永和區"
"234026","9371-KE","2018/11/12 18:09:54","新北市永和區秀朗路一段10巷19號","121.51349","25.006225","6500400","永和區"
"249005","172-UM","2018/11/12 18:10:04","新北市八里區荖阡坑路15-40號","121.401701666667","25.1396816666667","6502300","八里區"
"249001","173-UM","2018/11/12 18:09:48","新北市八里區龍米路二段26號","121.448823333333","25.1393166666667","6502300","八里區"
"249004","303-UY","2018/11/12 18:09:51","新北市八里區龍米路二段200巷3號","121.433691666667","25.1587783333333","6502300","八里區"
"249002","305-UY","2018/11/12 18:10:01","新北市八里區龍米路一段386巷6號","121.452043333333","25.1319783333333","6502300","八里區"
"249003","593-UM","2018/11/12 18:10:00","新北市八里區中華路二段460號","121.401108333333","25.14622","6502300","八里區"
"248016","026-BX","2018/11/12 18:09:48","新北市五股區成泰路三段115-1號","121.444321666667","25.0906333333333","6501500","五股區"
"248006","077-UY","2018/11/12 18:09:55","新北市五股區中興路二段82號","121.4608","25.0772416666667","6501500","五股區"
"248008","095-VK","2018/11/12 18:09:48","新北市五股區更洲路32巷15弄9號","121.458365","25.0804233333333","6501500","五股區"
"248018","225-UY","2018/11/12 18:09:48","新北市五股區成泰路二段222-2號","121.43914","25.0854383333333","6501500","五股區"
"248009","272-BY","2018/11/12 18:10:00","新北市五股區新五路二段258號","121.440745","25.0821966666667","6501500","五股區"
"248012","655-BX","2018/11/12 18:09:50","新北市五股區中興路三段163號","121.449386666667","25.0802566666667","6501500","五股區"
"248004","677-BX","2018/11/12 18:09:54","新北市五股區中興路四段49號","121.438225","25.08292","6501500","五股區"
"248002","678-BX","2018/11/12 18:10:03","新北市五股區中興路三段192號","121.442545","25.0817433333333","6501500","五股區"
"232011","375-UM","2018/11/12 18:10:03","新北市坪林區坪林街10-2號","121.712193333333","24.9358516666667","6502000","坪林區"
"244023","069-UM","2018/11/12 18:09:53","新北市林口區東湖路153巷125號","121.38224","25.0734116666667","6501700","林口區"
"244007","080-UY","2018/11/12 18:09:55","新北市林口區林口路113巷47號","121.387945","25.0798933333333","6501700","林口區"
"244019","403-UM","2018/11/12 18:10:04","新北市林口區忠孝路551號","121.372465","25.068635","6501700","林口區"
"244013","KEA-2802","2018/11/12 18:09:51","新北市林口區中山路160巷17號","121.3914","25.0796066666667","6501700","林口區"
"244017","485-VK","2018/11/12 18:09:58","新北市林口區忠孝路508號","121.370886666667","25.0699266666667","6501700","林口區"
"244009","656-BX","2018/11/12 18:10:02","新北市林口區福林路52巷30號","121.379423333333","25.0894116666667","6501700","林口區"
"244011","701-TV","2018/11/12 18:09:54","新北市林口區粉寮路一段41號","121.396601666667","25.0774016666667","6501700","林口區"
"244025","837-TS","2018/11/12 18:09:52","新北市林口區文化北路一段222號","121.358338333333","25.071015","6501700","林口區"
"244021","838-TS","2018/11/12 18:09:48","新北市林口區自強五街17號","121.399101666667","25.0763216666667","6501700","林口區"
"222003","436-BY","2018/11/12 18:09:59","新北市深坑區文山路三段15號","121.61296","24.99801","6501800","深坑區"
"222002","659-BX","2018/11/12 18:09:59","新北市深坑區文化街42號","121.61909","25.0016833333333","6501800","深坑區"
"231059","046-UY","2018/11/12 18:09:54","新北市新店區安華路28-1號","121.519631666667","24.9609","6500600","新店區"
"231040","047-UY","2018/11/12 18:10:00","新北市新店區安一路一段1-1號","121.519138333333","24.9609733333333","6500600","新店區"
"231046","107-UY","2018/11/12 18:09:51","新北市新店區直潭七街60號","121.532271666667","24.939785","6500600","新店區"
"231052","108-UY","2018/11/12 18:09:51","新北市新店區安一路一段1-1號","121.51952","24.9611433333333","6500600","新店區"
"231047","187-VK","2018/11/12 18:09:45","新北市新店區安一路一段1-1號","121.519453333333","24.9610983333333","6500600","新店區"
"231057","256-BX","2018/11/12 18:09:49","新北市新店區安一路一段1-1號","121.519713333333","24.96114","6500600","新店區"
"231042","268-BY","2018/11/12 18:09:58","新北市新店區安華路28-1號","121.519236666667","24.9605916666667","6500600","新店區"
"231051","278-BY","2018/11/12 18:09:52","新北市新店區安一路一段1-1號","121.519551666667","24.9612266666667","6500600","新店區"
"231050","AAD-862","2018/11/12 18:10:06","新北市新店區安華路28-1號","121.519901666667","24.9607566666667","6500600","新店區"
"231058","3713-VJ","2018/11/12 18:10:03","新北市新店區安華路28-1號","121.519308333333","24.9606716666667","6500600","新店區"
"231056","4715-K9","2018/11/12 18:09:58","新北市新店區安康路一段44號","121.530728333333","24.9610066666667","6500600","新店區"
"231067","4772-VM","2018/11/12 18:09:51","新北市新店區安華路1-1號","121.519396666667","24.96052","6500600","新店區"
"231049","513-UM","2018/11/12 18:09:49","新北市新店區安一路一段1-1號","121.519656666667","24.9611283333333","6500600","新店區"
"231063","641-BX","2018/11/12 18:09:46","新北市新店區安華路28-1號","121.519478333333","24.96066","6500600","新店區"
"231064","719-UM","2018/11/12 18:09:59","新北市新店區安一路一段1-1號","121.519265","24.9613516666667","6500600","新店區"
"231060","897-TW","2018/11/12 18:09:59","新北市新店區安華路28-1號","121.51952","24.96063","6500600","新店區"
"231043","899-TW","2018/11/12 18:09:51","新北市新店區安一路一段1-1號","121.519043333333","24.96101","6500600","新店區"
"231055","AKT-0513","2018/11/12 18:09:58","新北市新店區安華路1-1號","121.5195","24.9604966666667","6500600","新店區"
"251014","742-BX","2018/11/12 18:09:48","新北市淡水區南平15號","121.48838","25.21918","6501000","淡水區"
"241033","AAC-255","2018/11/12 18:09:58","新北市三重區中興北街141號","121.469041666667","25.0518016666667","6500200","三重區"
"235064","005-UY","2018/11/12 18:09:57","新北市中和區錦和路350-1號","121.490881666667","24.9936533333333","6500300","中和區"
"235063","006-UY","2018/11/12 18:09:57","新北市中和區員山路36巷16-3號","121.485003333333","24.9913233333333","6500300","中和區"
"235056","096-UM","2018/11/12 18:09:56","新北市中和區中正路637巷60弄61號","121.485508333333","24.9932","6500300","中和區"
"235039","097-UM","2018/11/12 18:09:56","新北市中和區中正路589巷15號","121.485705","24.9935116666667","6500300","中和區"
"235065","098-UM","2018/11/12 18:10:06","新北市中和區莊敬路49巷27號","121.501593333333","25.00617","6500300","中和區"
"235058","151-BY","2018/11/12 18:09:49","新北市中和區圓通路367巷62號","121.492786666667","24.9830583333333","6500300","中和區"
"235038","185-VK","2018/11/12 18:10:02","新北市中和區景平路91號","121.517681666667","24.9918033333333","6500300","中和區"
"235067","255-BX","2018/11/12 18:09:48","新北市中和區和城路一段271巷1號","121.485848333333","24.991735","6500300","中和區"
"235043","352-BY","2018/11/12 18:09:50","新北市中和區和城路一段271巷1號","121.48541","24.991635","6500300","中和區"
"235042","KEA-2878","2018/11/12 18:09:56","新北市中和區景平路269號","121.508128333333","24.992935","6500300","中和區"
"247012","KEA-2869","2018/11/12 18:10:00","新北市蘆洲區民族路150號","121.479508333333","25.0860933333333","6501400","蘆洲區"
"235050","4979-A6","2018/11/12 18:09:55","新北市中和區員山路36巷16-8號","121.485405","24.99218","6500300","中和區"
"235045","565-BX","2018/11/12 18:09:52","新北市中和區中正路273號","121.495631666667","24.9938533333333","6500300","中和區"
"235054","640-BX","2018/11/12 18:09:55","新北市土城區延壽路119號","121.469001666667","24.9944483333333","6500300","中和區"
"235047","732-UM","2018/11/12 18:09:48","新北市中和區中正路169號","121.49794","24.9937316666667","6500300","中和區"
"235062","800-TS","2018/11/12 18:09:52","新北市中和區新生街274號","121.483668333333","24.9969583333333","6500300","中和區"
"235057","801-TS","2018/11/12 18:09:51","新北市中和區連城路469巷79弄30號","121.484273333333","24.9937083333333","6500300","中和區"
"235052","805-TS","2018/11/12 18:10:07","新北市中和區中正路426號","121.491406666667","24.9936516666667","6500300","中和區"
"235048","896-TW","2018/11/12 18:09:55","新北市中和區員山路36巷16-3號","121.485015","24.99149","6500300","中和區"
"235053","900-TW","2018/11/12 18:10:01","新北市中和區員山路36巷16-2號","121.485025","24.9918866666667","6500300","中和區"
"235051","157-BY","2018/11/12 18:09:53","新北市中和區南山路287號","121.504301666667","24.9921133333333","6500300","中和區"
"235037","AAC-213","2018/11/12 18:09:52","新北市中和區景平路149號","121.513875","24.992095","6500300","中和區"
"235059","AAC-215","2018/11/12 18:10:05","新北市中和區員山路36巷16-3號","121.484955","24.9913716666667","6500300","中和區"
"226004","312-R5","2018/11/12 18:09:56","新北市平溪區白石里白石腳19號","121.720845","25.0216666666667","6502400","平溪區"
"228003","097-TW","2018/11/12 18:09:51","新北市貢寮區真理里美艷山街6-2號","121.92886","25.0607416666667","6502600","貢寮區"
"228002","585-TW","2018/11/12 18:09:58","新北市貢寮區福連里福興街37-2號","121.992321666667","25.01171","6502600","貢寮區"
"224006","676-BX","2018/11/12 18:10:04","新北市瑞芳區中山路28號","121.803883333333","25.1062466666667","6501200","瑞芳區"
"224002","639-TC","2018/11/12 18:09:50","新北市瑞芳區三爪子坑路111巷30號","121.810998333333","25.1058166666667","6501200","瑞芳區"
"224008","285-BY","2018/11/12 18:09:51","新北市瑞芳區員山子路23號","121.821416666667","25.1030416666667","6501200","瑞芳區"
"224007","275-VK","2018/11/12 18:10:02","新北市瑞芳區四腳亭坑路2-4號","121.775993333333","25.1093416666667","6501200","瑞芳區"
"224009","273-VK","2018/11/12 18:10:02","新北市瑞芳區金光路115號","121.853641666667","25.1062433333333","6501200","瑞芳區"
"224005","271-BY","2018/11/12 18:09:52","新北市瑞芳區深澳路67-1號","121.81823","25.13016","6501200","瑞芳區"
"227008","642-TC","2018/11/12 18:09:57","新北市雙溪區三貂里定福路1-2號","121.850733333333","25.063465","6502500","雙溪區"
"253006","032-BX","2018/11/12 18:09:59","新北市石門區老梅路52巷21號","121.546453333333","25.2885","6502200","石門區"
"253005","295-VK","2018/11/12 18:09:56","新北市石門區福安街43號","121.568496666667","25.2919583333333","6502200","石門區"
"222001","KEA-2212","2018/11/12 18:09:50","新北市深坑區北深路二段186號","121.614075","25.00225","6501800","深坑區"
"208002","KEA-2872","2018/11/12 18:09:55","新北市金山區三界壇路111巷14號","121.619038333333","25.2314566666667","6502700","金山區"
"208003","665-BX","2018/11/12 18:09:56","新北市金山區磺港里磺港路11號","121.64967","25.23058","6502700","金山區"
"208001","761-BX","2018/11/12 18:09:57","新北市金山區磺港里磺港路63號","121.647093333333","25.2270233333333","6502700","金山區"
"251009","008-UM","2018/11/12 18:09:51","新北市淡水區大忠街34巷11號","121.443811666667","25.1755783333333","6501000","淡水區"
"251005","010-UM","2018/11/12 18:10:05","新北市淡水區水源街一段139號","121.447183333333","25.17189","6501000","淡水區"
"251001","011-UM","2018/11/12 18:09:47","新北市淡水區自立路10號","121.463016666667","25.12975","6501000","淡水區"
"251002","012-UM","2018/11/12 18:09:58","新北市淡水區中正東路一段2號","121.451806666667","25.163205","6501000","淡水區"
"251013","KEA-2871","2018/11/12 18:09:51","新北市淡水區竹圍子19-2號","121.477253333333","25.1915433333333","6501000","淡水區"
"251016","179-VK","2018/11/12 18:09:55","新北市淡水區下圭柔山18號","121.453605","25.202715","6501000","淡水區"
"251008","180-VK","2018/11/12 18:09:51","新北市淡水區淡金路16巷62弄3號","121.46006","25.1608333333333","6501000","淡水區"
"251015","182-VK","2018/11/12 18:10:01","新北市淡水區興福寮88巷1號","121.485273333333","25.1648883333333","6501000","淡水區"
"251010","413-VK","2018/11/12 18:09:45","新北市淡水區沙崙路129號","121.422493333333","25.1822533333333","6501000","淡水區"
"251012","441-VK","2018/11/12 18:09:51","新北市淡水區北新路三段167號","121.489846666667","25.1906533333333","6501000","淡水區"
"251004","443-VK","2018/11/12 18:09:45","新北市淡水區民族路110巷43弄9號","121.461485","25.1349916666667","6501000","淡水區"
"251006","561-UM","2018/11/12 18:09:55","新北市淡水區真理街3巷24-1號","121.437898333333","25.1765466666667","6501000","淡水區"
"251011","650-BX","2018/11/12 18:09:57","新北市淡水區三空泉9-2號","121.474133333333","25.1634466666667","6501000","淡水區"
"251003","766-UM","2018/11/12 18:09:59","新北市淡水區大忠街113巷24號","121.447503333333","25.17743","6501000","淡水區"
"207003","550-UM","2018/11/12 18:10:02","新北市萬里區野柳里港西路75號","121.685751666667","25.2050866666667","6502800","萬里區"
"207004","225-TW","2018/11/12 18:10:01","新北市萬里區中幅里中福路93號","121.675685","25.1697316666667","6502800","萬里區"
"252002","178-VK","2018/11/12 18:09:49","新北市三芝區中山路二段39號","121.50295","25.25515","6502100","三芝區"
"252003","249-BX","2018/11/12 18:09:48","新北市三芝區埔頭里埔頭37號","121.498473333333","25.2603016666667","6502100","三芝區"
"252001","292-VK","2018/11/12 18:10:03","新北市三芝區中興街二段2號","121.498305","25.256625","6502100","三芝區"
"237004","KEA-2597","2018/11/12 18:09:55","新北市三峽區大埔路150-2號","121.364833333333","24.897835","6500900","三峽區"
"237007","153-BY","2018/11/12 18:09:52","新北市三峽區中正路二段370巷26號","121.364783333333","24.91088","6500900","三峽區"
"237009","210-TH","2018/11/12 18:09:45","新北市三峽區大仁路50巷22號","121.365468333333","24.93832","6500900","三峽區"
"237013","252-BX","2018/11/12 18:10:02","新北市三峽區長泰街55號","121.377373333333","24.9327883333333","6500900","三峽區"
"237012","275-BY","2018/11/12 18:10:03","新北市三峽區民生街1巷1-34號","121.377601666667","24.93495","6500900","三峽區"
"237008","302-VK","2018/11/12 18:10:04","新北市三峽區白雞44-49號","121.378086666667","24.9101683333333","6500900","三峽區"
"237014","433-BY","2018/11/12 18:10:06","新北市三峽區復興路111號","121.371843333333","24.9379333333333","6500900","三峽區"
"237006","5529-G3","2018/11/12 18:09:47","新北市三峽區溪東路178巷13弄13號","121.406158333333","24.93228","6500900","三峽區"
"237011","KEA-2596","2018/11/12 18:10:01","新北市三峽區橫溪路25號","121.396376666667","24.9357366666667","6500900","三峽區"
"237015","649-BX","2018/11/12 18:09:52","新北市三峽區紫新路36巷1號","121.422068333333","24.9224183333333","6500900","三峽區"
"237010","706-TV","2018/11/12 18:10:00","新北市三峽區民權街200號","121.36772","24.9291983333333","6500900","三峽區"
"237005","AKY-6261","2018/11/12 18:10:03","新北市三峽區民生街199號","121.371716666667","24.9348","6500900","三峽區"
"236069","105-UM","2018/11/12 18:10:03","新北市土城區青雲路318號","121.458841666667","24.9770433333333","6501300","土城區"
"236042","KED-0685","2018/11/12 18:09:45","新北市土城區城林路6巷80號","121.438488333333","24.97958","6501300","土城區"
"236078","166-UM","2018/11/12 18:09:57","新北市土城區永和街2巷24號","121.433951666667","24.9644366666667","6501300","土城區"
"236030","253-BX","2018/11/12 18:09:58","新北市土城區城林路6巷80號","121.43847","24.9796566666667","6501300","土城區"
"236026","269-VK","2018/11/12 18:09:48","新北市土城區承天路18號","121.439376666667","24.9635733333333","6501300","土城區"
"236014","270-VK","2018/11/12 18:09:51","新北市土城區學府路一段276號","121.450233333333","24.9832216666667","6501300","土城區"
"236039","271-VK","2018/11/12 18:09:56","新北市土城區明德路一段369-2號","121.453253333333","24.9793783333333","6501300","土城區"
"236020","401-BY","2018/11/12 18:10:00","新北市土城區城林路6巷80號","121.438766666667","24.979695","6501300","土城區"
"236059","912-UM","2018/11/12 18:09:51","新北市土城區中央路四段147號","121.415536666667","24.9570916666667","6501300","土城區"
"236048","913-UM","2018/11/12 18:09:57","新北市土城區明德路一段365-1號","121.453335","24.97927","6501300","土城區"
"236063","915-UM","2018/11/12 18:10:01","新北市土城區金城路二段36號","121.450993333333","24.9786033333333","6501300","土城區"
"236055","AAC-216","2018/11/12 18:10:02","新北市土城區中華路二段80號","121.438648333333","24.9755583333333","6501300","土城區"
"242036","AAC-296","2018/11/12 18:10:01","新北市新莊區後港一路31巷3弄3號","121.424991666667","25.0265133333333","6500500","新莊區"
"242058","986-R7","2018/11/12 18:09:53","新北市新莊區壽山路160巷21號","121.417453333333","25.0319466666667","6500500","新莊區"
"242027","615-BX","2018/11/12 18:09:48","新北市新莊區幸福路589號","121.45363","25.0492216666667","6500500","新莊區"
"242025","613-BX","2018/11/12 18:09:58","新北市新莊區五權一路110號","121.45993","25.06789","6500500","新莊區"
"242029","612-BX","2018/11/12 18:09:48","新北市新莊區幸福路858號","121.44381","25.04902","6500500","新莊區"
"242044","566-BX","2018/11/12 18:09:46","新北市新莊區天泉二街1號","121.41527","25.02461","6500500","新莊區"
"242048","497-BY","2018/11/12 18:10:03","新北市新莊區民安路39號","121.423668333333","25.0266633333333","6500500","新莊區"
"242056","442-UM","2018/11/12 18:09:58","新北市新莊區豐年街豐1巷27號","121.4475","25.0312616666667","6500500","新莊區"
"242053","441-UM","2018/11/12 18:09:49","新北市新莊區民安西路412-3號","121.428875","25.00985","6500500","新莊區"
"242039","415-TV","2018/11/12 18:09:59","新北市新莊區民安西路38巷30號","121.42646","25.0203833333333","6500500","新莊區"
"242009","413-TV","2018/11/12 18:10:01","新北市新莊區中華路二段152-1號","121.453301666667","25.0504566666667","6500500","新莊區"
"242023","362-BY","2018/11/12 18:09:57","新北市新莊區中平路181號","121.444666666667","25.0490816666667","6500500","新莊區"
"242060","353-BY","2018/11/12 18:09:59","新北市新莊區新樹路93號","121.43775","25.02729","6500500","新莊區"
"242011","132-UY","2018/11/12 18:09:56","新北市新莊區中信街94巷11號","121.448488333333","25.0536766666667","6500500","新莊區"
"242042","133-UY","2018/11/12 18:09:51","新北市新莊區壽山路31號","121.42008","25.0289816666667","6500500","新莊區"
"242050","172-VK","2018/11/12 18:09:54","新北市新莊區民本街25巷13號","121.428895","25.0194833333333","6500500","新莊區"
"242013","173-VK","2018/11/12 18:09:56","新北市新莊區中正路400號","121.44189","25.034315","6500500","新莊區"
"242019","175-VK","2018/11/12 18:10:05","新北市新莊區中港路132巷12號","121.455871666667","25.0406583333333","6500500","新莊區"
"242007","176-VK","2018/11/12 18:09:57","新北市新莊區自強街23巷3號","121.454413333333","25.0463366666667","6500500","新莊區"
"242046","347-TH","2018/11/12 18:09:58","新北市新莊區福營路226號","121.42733","25.029345","6500500","新莊區"
"242031","348-TH","2018/11/12 18:09:57","新北市新莊區新泰路279號","121.445661666667","25.040425","6500500","新莊區"
"242004","349-TH","2018/11/12 18:09:54","新北市新莊區自立街62號","121.454051666667","25.0454233333333","6500500","新莊區"
"242021","350-TH","2018/11/12 18:10:04","新北市新莊區新興街54號","121.450821666667","25.03747","6500500","新莊區"
"242015","351-TH","2018/11/12 18:09:47","新北市新莊區中和街59巷28號","121.446205","25.0467233333333","6500500","新莊區"
"238015","755-BX","2018/11/12 18:10:06","新北市樹林區大安路320號","121.41704","24.99135","6500700","樹林區"
"238023","601-UM","2018/11/12 18:09:59","新北市樹林區忠信街15號","121.40777","25.0151266666667","6500700","樹林區"
"238019","599-UM","2018/11/12 18:10:02","新北市樹林區水源街96號","121.425596666667","24.9802","6500700","樹林區"
"238018","571-TV","2018/11/12 18:09:44","新北市板橋區大觀路三段269號","121.428861666667","24.9924683333333","6500700","樹林區"
"238022","KEA-2213","2018/11/12 18:09:55","新北市樹林區福順街75-1號","121.416043333333","24.9780116666667","6500700","樹林區"
"238021","KEA-2539","2018/11/12 18:10:05","新北市樹林區柑園街二段161號","121.38135","24.9538466666667","6500700","樹林區"
"238025","303-VK","2018/11/12 18:09:57","新北市樹林區保安街二段355號","121.41248","25.0098983333333","6500700","樹林區"
"238017","283-BY","2018/11/12 18:10:01","新北市樹林區三德街1號","121.412513333333","25.0127716666667","6500700","樹林區"
"238014","282-BY","2018/11/12 18:10:03","新北市樹林區潭興街101號","121.424703333333","24.9983566666667","6500700","樹林區"
"238026","172-UY","2018/11/12 18:10:05","新北市樹林區育德街40-1號","121.390083333333","24.96922","6500700","樹林區"
"238016","169-UY","2018/11/12 18:09:31","新北市樹林區文化街12號","121.420083333333","24.9873266666667","6500700","樹林區"
"239007","AAC-297","2018/11/12 18:10:02","新北市鶯歌區尖山埔路189號","121.345571666667","24.95063","6500800","鶯歌區"
"239006","891-R6","2018/11/12 18:09:48","新北市鶯歌區鶯桃路455巷10弄12號","121.331143333333","24.9641016666667","6500800","鶯歌區"
"239008","527-UM","2018/11/12 18:09:49","新北市鶯歌區朝陽街53巷25號","121.338363333333","24.97777","6500800","鶯歌區"
"239005","526-UM","2018/11/12 18:10:01","新北市鶯歌區鶯桃路668巷73號","121.329908333333","24.9717833333333","6500800","鶯歌區"
"239001","417-VK","2018/11/12 18:10:02","新北市鶯歌區國中街68號","121.34212","24.94278","6500800","鶯歌區"
"239003","360-BY","2018/11/12 18:10:00","新北市鶯歌區永吉街65號","121.335303333333","24.9566616666667","6500800","鶯歌區"
"239002","359-BY","2018/11/12 18:09:57","新北市鶯歌區中山路329巷6弄6號","121.343583333333","24.9561483333333","6500800","鶯歌區"
"221008","489-VK","2018/11/12 18:10:04","新北市汐止區康寧街315號","121.626981666667","25.06793","6501100","汐止區"
"221036","130-UY","2018/11/12 18:10:03","新北市汐止區長安路5號","121.667691666667","25.07754","6501100","汐止區"
"221015","131-UY","2018/11/12 18:09:56","新北市汐止區長江街355號","121.667705","25.08217","6501100","汐止區"
"221010","269-BY","2018/11/12 18:09:48","新北市汐止區汐萬路二段275巷1弄2號","121.645465","25.088865","6501100","汐止區"
"221012","278-VK","2018/11/12 18:09:51","新北市汐止區保一街81號","121.674685","25.08011","6501100","汐止區"
"221032","280-BY","2018/11/12 18:10:04","新北市汐止區橫科路52巷1號","121.619091666667","25.0506466666667","6501100","汐止區"
"221027","281-BY","2018/11/12 18:10:03","新北市汐止區大同路二段585號","121.663633333333","25.0702216666667","6501100","汐止區"
"221029","298-VK","2018/11/12 18:09:54","新北市汐止區樟樹二路132號","121.639956666667","25.0656066666667","6501100","汐止區"
"221021","299-VK","2018/11/12 18:09:47","新北市汐止區龍安路202巷28號","121.652618333333","25.0633666666667","6501100","汐止區"
"221031","353-TW","2018/11/12 18:09:58","新北市汐止區中興路135號","121.631658333333","25.0655466666667","6501100","汐止區"
"221035","622-UM","2018/11/12 18:09:44","新北市汐止區大同路二段204號","121.653393333333","25.064875","6501100","汐止區"
"221025","623-UM","2018/11/12 18:09:59","新北市汐止區勤進路3巷27號","121.661071666667","25.0617033333333","6501100","汐止區"
"221038","646-BX","2018/11/12 18:10:01","新北市汐止區水源路一段268號","121.654051666667","25.058825","6501100","汐止區"
"221033","647-BX","2018/11/12 18:09:51","新北市汐止區宜興街40巷22弄2號","121.622573333333","25.0410783333333","6501100","汐止區"
"221002","707-TV","2018/11/12 18:09:49","新北市汐止區福德一路213號","121.634756666667","25.065265","6501100","汐止區"
"221018","753-BX","2018/11/12 18:09:56","新北市汐止區忠孝東路397號","121.665716666667","25.0708033333333","6501100","汐止區"
"242002","281-VK","2018/11/12 18:09:43","新北市新莊區新莊路80號","121.457178333333","25.03649","6500500","新莊區"
"242034","280-VK","2018/11/12 18:09:55","新北市新莊區新莊路362號","121.44959","25.0335766666667","6500500","新莊區"
"235068","KEA-2873","2018/11/12 18:09:34","新北市中和區員山路36巷16-3號","121.485023333333","24.9913283333333","6500300","中和區"
"235061","KEA-2875","2018/11/12 18:09:50","新北市土城區延壽路115巷1號","121.469043333333","24.9941416666667","6500300","中和區"
