"lineid","car","time","location","longitude","latitude","cityid","cityname"
"234046","148-BY","2018/11/12 18:29:25","新北市永和區豫溪街217巷11號","121.52498","25.01005","6500400","永和區"
"234007","207-UY","2018/11/12 18:29:31","新北市永和區環河西路二段229巷1號","121.501403333333","25.0099566666667","6500400","永和區"
"234081","298-R6","2018/11/12 18:29:28","新北市永和區福和路7巷15弄20號","121.526216666667","25.00732","6500400","永和區"
"234038","336-UY","2018/11/12 18:29:30","新北市永和區福和路1號","121.526536666667","25.0101283333333","6500400","永和區"
"234086","338-UY","2018/11/12 18:29:19","新北市永和區豫溪街217巷1號","121.524883333333","25.0092366666667","6500400","永和區"
"234017","745-BX","2018/11/12 18:29:25","新北市永和區福和路1號","121.526338333333","25.0095333333333","6500400","永和區"
"234013","KEA-2591","2018/11/12 18:29:34","新北市永和區福和路1號","121.526283333333","25.0095466666667","6500400","永和區"
"234042","862-TW","2018/11/12 18:29:26","新北市永和區福和路271號","121.517711666667","25.0074383333333","6500400","永和區"
"234050","863-TW","2018/11/12 18:29:29","新北市永和區福和路1號","121.526275","25.00982","6500400","永和區"
"234026","9371-KE","2018/11/12 18:29:14","新北市永和區中正路655號","121.515001666667","25.0101966666667","6500400","永和區"
"234011","9373-KE","2018/11/12 18:29:20","新北市永和區保福路二段158巷1號","121.509143333333","25.015045","6500400","永和區"
"249005","172-UM","2018/11/12 18:29:24","新北市八里區中華路三段90號","121.393295","25.1392216666667","6502300","八里區"
"249001","173-UM","2018/11/12 18:29:28","新北市八里區龍米路一段166號","121.452641666667","25.126185","6502300","八里區"
"249004","303-UY","2018/11/12 18:29:31","新北市八里區忠孝路71-1號","121.426431666667","25.1603333333333","6502300","八里區"
"249002","305-UY","2018/11/12 18:29:33","新北市八里區龍形三街26號","121.448016666667","25.131625","6502300","八里區"
"248016","026-BX","2018/11/12 18:29:28","新北市五股區凌雲路一段83巷7弄2號","121.449848333333","25.100735","6501500","五股區"
"248008","095-VK","2018/11/12 18:29:28","新北市五股區四維路185巷42弄7號","121.463708333333","25.0768566666667","6501500","五股區"
"248018","225-UY","2018/11/12 18:29:28","新北市五股區民義路二段52巷22號","121.415963333333","25.1101633333333","6501500","五股區"
"248009","272-BY","2018/11/12 18:29:20","新北市五股區水碓路3-1號","121.433818333333","25.07221","6501500","五股區"
"248012","655-BX","2018/11/12 18:29:29","新北市五股區御成路142號","121.440988333333","25.094325","6501500","五股區"
"248004","677-BX","2018/11/12 18:29:29","新北市五股區工商路150號","121.433176666667","25.0873883333333","6501500","五股區"
"248002","678-BX","2018/11/12 18:29:23","新北市五股區西雲路116-6號","121.444661666667","25.0937283333333","6501500","五股區"
"234067","AAC-212","2018/11/12 18:29:33","新北市永和區福和路1號","121.526338333333","25.0096416666667","6500400","永和區"
"232011","375-UM","2018/11/12 18:22:22","新北市坪林區坪雙路一段41號","121.711696666667","24.9424383333333","6502000","坪林區"
"244023","069-UM","2018/11/12 18:29:33","新北市林口區仁愛路二段98號","121.383851666667","25.0750566666667","6501700","林口區"
"244007","080-UY","2018/11/12 18:29:35","新北市林口區後湖4-3號","121.38958","25.097795","6501700","林口區"
"244019","403-UM","2018/11/12 18:29:24","新北市林口區忠孝路622巷1弄2號","121.377765","25.067695","6501700","林口區"
"244013","KEA-2802","2018/11/12 18:29:31","新北市林口區佳林路102號","121.385168333333","25.0791766666667","6501700","林口區"
"244017","485-VK","2018/11/12 18:29:17","新北市林口區八德路78號","121.365566666667","25.0656233333333","6501700","林口區"
"244009","656-BX","2018/11/12 18:29:22","新北市林口區林口路241號","121.3867","25.0837833333333","6501700","林口區"
"244011","701-TV","2018/11/12 18:29:34","新北市林口區中原街20號","121.392853333333","25.0782233333333","6501700","林口區"
"244025","837-TS","2018/11/12 18:29:32","新北市林口區源泉街62號","121.356658333333","25.0730183333333","6501700","林口區"
"244021","838-TS","2018/11/12 18:29:37","新北市林口區自強四街24號","121.39962","25.07651","6501700","林口區"
"243013","AAD-798","2018/11/12 18:27:24","新北市泰山區明志路三段206巷3號","121.423293333333","25.037905","6501600","泰山區"
"243012","646-TV","2018/11/12 18:29:33","新北市泰山區泰林路二段385巷1號","121.427506666667","25.0642333333333","6501600","泰山區"
"222003","436-BY","2018/11/12 18:29:20","新北市深坑區文山路一段28-1號","121.630823333333","25.0053566666667","6501800","深坑區"
"222002","659-BX","2018/11/12 18:29:19","新北市深坑區雲鄉路141號","121.62221","24.998235","6501800","深坑區"
"231041","002-UM","2018/11/12 18:29:32","新北市新店區安華路28-1號","121.519701666667","24.96077","6500600","新店區"
"231066","0291-UT","2018/11/12 18:29:36","新北市新店區安一路一段1-1號","121.519343333333","24.9613383333333","6500600","新店區"
"231059","046-UY","2018/11/12 18:29:34","新北市新店區安華路28-1號","121.51953","24.9608416666667","6500600","新店區"
"231040","047-UY","2018/11/12 18:29:20","新北市新店區安華路28-1號","121.519066666667","24.9609566666667","6500600","新店區"
"231044","106-UY","2018/11/12 18:29:24","新北市新店區安華路28-1號","121.519728333333","24.9608583333333","6500600","新店區"
"231046","107-UY","2018/11/12 18:29:31","新北市新店區直潭七街60號","121.532298333333","24.9397583333333","6500600","新店區"
"231052","108-UY","2018/11/12 18:29:31","新北市新店區新烏路一段50-2號","121.545628333333","24.9491083333333","6500600","新店區"
"231062","110-UY","2018/11/12 18:29:21","新北市新店區安一路一段1-1號","121.519321666667","24.9611516666667","6500600","新店區"
"231047","187-VK","2018/11/12 18:29:26","新北市新店區安一路一段1-1號","121.519761666667","24.9612183333333","6500600","新店區"
"231054","KEA-2219","2018/11/12 18:29:19","新北市新店區安一路一段1-1號","121.51976","24.9612233333333","6500600","新店區"
"231057","256-BX","2018/11/12 18:29:28","新北市新店區秀山路20號","121.532578333333","24.96037","6500600","新店區"
"231042","268-BY","2018/11/12 18:29:18","新北市新店區安一路一段1-1號","121.51973","24.9611766666667","6500600","新店區"
"231051","278-BY","2018/11/12 18:29:32","新北市新店區安一路一段1-1號","121.519871666667","24.9611833333333","6500600","新店區"
"231050","AAD-862","2018/11/12 18:29:26","新北市新店區安一路一段1-1號","121.519893333333","24.9611066666667","6500600","新店區"
"231058","3713-VJ","2018/11/12 18:29:34","新北市新店區國校路8號","121.537933333333","24.956065","6500600","新店區"
"231056","4715-K9","2018/11/12 18:29:18","新北市新店區二十張路119號","121.536095","24.979495","6500600","新店區"
"231067","4772-VM","2018/11/12 18:29:31","新北市新店區安華路28-1號","121.519225","24.9606916666667","6500600","新店區"
"231065","512-UM","2018/11/12 18:29:34","新北市新店區安一路一段1-1號","121.519053333333","24.9611083333333","6500600","新店區"
"231049","513-UM","2018/11/12 18:29:28","新北市新店區安一路一段1-1號","121.519911666667","24.9612366666667","6500600","新店區"
"231061","619-UM","2018/11/12 18:29:17","新北市新店區安華路28-1號","121.519653333333","24.9606116666667","6500600","新店區"
"231063","641-BX","2018/11/12 18:29:26","新北市新店區安華路28-1號","121.519651666667","24.9605683333333","6500600","新店區"
"231064","719-UM","2018/11/12 18:29:20","新北市新店區安一路一段1-1號","121.519213333333","24.9612833333333","6500600","新店區"
"231060","897-TW","2018/11/12 18:29:19","新北市新店區安華路28-1號","121.519555","24.96059","6500600","新店區"
"231043","899-TW","2018/11/12 18:29:31","新北市新店區安一路一段1-1號","121.518988333333","24.9610233333333","6500600","新店區"
"231055","AKT-0513","2018/11/12 18:29:25","新北市新店區中正路152號","121.541658333333","24.97184","6500600","新店區"
"251014","742-BX","2018/11/12 18:29:32","新北市淡水區南平26-2號","121.493498333333","25.2146533333333","6501000","淡水區"
"235066","003-UY","2018/11/12 18:29:19","新北市中和區中山路二段120號","121.502693333333","25.00383","6500300","中和區"
"235064","005-UY","2018/11/12 18:29:36","新北市中和區圓通路145巷9弄3號","121.498656666667","24.9946333333333","6500300","中和區"
"235063","006-UY","2018/11/12 18:29:17","新北市中和區連城路347巷14號","121.488316666667","24.9951116666667","6500300","中和區"
"235056","096-UM","2018/11/12 18:29:36","新北市中和區員山路611巷1號","121.477871666667","25.0112316666667","6500300","中和區"
"235039","097-UM","2018/11/12 18:29:16","新北市中和區安平路192號","121.513245","24.999225","6500300","中和區"
"235065","098-UM","2018/11/12 18:29:26","新北市中和區中山路二段64巷16弄2號","121.503266666667","25.0057883333333","6500300","中和區"
"235040","150-BY","2018/11/12 18:29:32","新北市中和區保健路50巷66號","121.509358333333","24.9951733333333","6500300","中和區"
"235058","151-BY","2018/11/12 18:29:29","新北市中和區圓通路369巷30弄66號","121.488821666667","24.9848916666667","6500300","中和區"
"235055","183-VK","2018/11/12 18:29:30","新北市中和區莒光路3巷1號","121.471895","25.0061766666667","6500300","中和區"
"235038","185-VK","2018/11/12 18:29:22","新北市中和區自立路143號","121.522371666667","24.9932233333333","6500300","中和區"
"235049","186-VK","2018/11/12 18:29:30","新北市中和區景安路123號","121.505768333333","24.9961983333333","6500300","中和區"
"235067","255-BX","2018/11/12 18:29:28","新北市中和區連城路467-5號","121.483715","24.9959966666667","6500300","中和區"
"235044","293-VK","2018/11/12 18:29:35","新北市中和區復興路300號","121.501476666667","24.9903016666667","6500300","中和區"
"235072","301-VK","2018/11/12 18:29:25","新北市中和區連城路8號","121.499113333333","25.0022683333333","6500300","中和區"
"235043","352-BY","2018/11/12 18:29:30","新北市中和區景平路297號","121.506788333333","24.9931083333333","6500300","中和區"
"235042","KEA-2878","2018/11/12 18:29:16","新北市中和區景平路66號","121.522125","24.990795","6500300","中和區"
"247012","KEA-2869","2018/11/12 18:28:59","新北市五股區中直路17-4號","121.42236","25.1115083333333","6501400","蘆洲區"
"235050","4979-A6","2018/11/12 18:29:35","新北市中和區景新街320號","121.51167","24.9913316666667","6500300","中和區"
"235069","4980-A6","2018/11/12 18:29:24","新北市中和區連城路127巷20號","121.496668333333","24.9982466666667","6500300","中和區"
"235045","565-BX","2018/11/12 18:29:32","新北市中和區南山路236巷24弄52號","121.504473333333","24.9886733333333","6500300","中和區"
"235054","640-BX","2018/11/12 18:29:35","新北市中和區民享街86巷2號","121.474446666667","25.0010083333333","6500300","中和區"
"235060","647-TV","2018/11/12 18:29:22","新北市中和區員山路485號","121.480068333333","25.0055166666667","6500300","中和區"
"235047","732-UM","2018/11/12 18:29:28","新北市中和區南山路250巷2號","121.507675","24.9889783333333","6500300","中和區"
"235046","733-UM","2018/11/12 18:29:28","新北市中和區南山路152號","121.504263333333","24.99209","6500300","中和區"
"235062","800-TS","2018/11/12 18:29:32","新北市中和區景平路792號","121.495783333333","25.005995","6500300","中和區"
"235057","801-TS","2018/11/12 18:29:30","新北市中和區民安街43號","121.479846666667","25.0002283333333","6500300","中和區"
"235041","802-TS","2018/11/12 18:29:20","新北市中和區景安路55號","121.507195","24.998175","6500300","中和區"
"235052","805-TS","2018/11/12 18:29:27","新北市中和區興南路二段96號","121.505166666667","24.9841833333333","6500300","中和區"
"235048","896-TW","2018/11/12 18:29:15","新北市中和區中正路169號","121.497933333333","24.9936283333333","6500300","中和區"
"235053","900-TW","2018/11/12 18:29:22","新北市中和區民享街457號","121.47038","24.9931833333333","6500300","中和區"
"235051","157-BY","2018/11/12 18:29:33","新北市中和區興南路二段142巷25弄4號","121.503008333333","24.98378","6500300","中和區"
"235037","AAC-213","2018/11/12 18:29:32","新北市中和區景德街103號","121.515541666667","24.9911366666667","6500300","中和區"
"235059","AAC-215","2018/11/12 18:29:24","新北市中和區員山路36巷16-3號","121.484913333333","24.99138","6500300","中和區"
"220065","072-UY","2018/11/12 18:29:20","新北市板橋區華東街262號","121.4526","25.0012716666667","6500100","板橋區"
"220086","073-UY","2018/11/12 18:29:26","新北市板橋區四川路二段130巷27號","121.449273333333","24.9943266666667","6500100","板橋區"
"226004","312-R5","2018/11/12 18:29:28","新北市平溪區靜安路二段240號","121.724498333333","25.022035","6502400","平溪區"
"228003","097-TW","2018/11/12 18:29:31","新北市貢寮區和美里和美街40號","121.912596666667","25.0899216666667","6502600","貢寮區"
"228001","212-TW","2018/11/12 18:29:22","新北市貢寮區仁理村仁義街4號","121.92369","25.0520883333333","6502600","貢寮區"
"228002","585-TW","2018/11/12 18:29:18","新北市貢寮區福連里福連街37號","121.988605","25.0110233333333","6502600","貢寮區"
"224006","676-BX","2018/11/12 18:29:22","新北市瑞芳區明燈路二段31號","121.811228333333","25.1079616666667","6501200","瑞芳區"
"224002","639-TC","2018/11/12 18:29:29","新北市瑞芳區正貿新村21號","121.813145","25.105795","6501200","瑞芳區"
"224008","285-BY","2018/11/12 18:29:31","新北市瑞芳區逢甲路204號","121.806776666667","25.1101516666667","6501200","瑞芳區"
"224007","275-VK","2018/11/12 18:29:22","新北市瑞芳區大埔路有勝二村15號","121.763985","25.0998883333333","6501200","瑞芳區"
"224009","273-VK","2018/11/12 18:29:22","新北市瑞芳區祈堂路219號","121.856126666667","25.109135","6501200","瑞芳區"
"224005","271-BY","2018/11/12 18:29:32","新北市瑞芳區台電新村142號","121.811485","25.12804","6501200","瑞芳區"
"227008","642-TC","2018/11/12 18:29:17","新北市雙溪區牡丹里牡丹151號","121.851505","25.05888","6502500","雙溪區"
"227001","400-TW","2018/11/12 18:29:19","新北市雙溪區共和里中山路57號","121.867673333333","25.0316366666667","6502500","雙溪區"
"253006","032-BX","2018/11/12 18:29:18","新北市石門區公地47-1號","121.54559","25.290155","6502200","石門區"
"253005","295-VK","2018/11/12 18:29:25","新北市石門區老崩山2號","121.553255","25.29158","6502200","石門區"
"222001","KEA-2212","2018/11/12 18:29:30","新北市深坑區北深路一段199號","121.630741666667","25.00938","6501800","深坑區"
"208002","KEA-2872","2018/11/12 18:29:15","新北市金山區民生路151-2號","121.644575","25.222815","6502700","金山區"
"208003","665-BX","2018/11/12 18:29:16","新北市金山區中山路116號","121.63926","25.2198566666667","6502700","金山區"
"208001","761-BX","2018/11/12 18:29:28","新北市金山區金包里街158號","121.637683333333","25.2230433333333","6502700","金山區"
"251009","008-UM","2018/11/12 18:29:31","新北市淡水區下圭柔山90-8號","121.431621666667","25.211775","6501000","淡水區"
"251005","010-UM","2018/11/12 18:29:25","新北市淡水區中正東路35巷13號","121.446568333333","25.1687333333333","6501000","淡水區"
"251001","011-UM","2018/11/12 18:29:27","新北市淡水區自強路122-9號","121.46466","25.1332633333333","6501000","淡水區"
"251002","012-UM","2018/11/12 18:29:18","新北市淡水區竿蓁二街65號","121.454866666667","25.1633716666667","6501000","淡水區"
"251013","KEA-2871","2018/11/12 18:29:31","新北市淡水區椿子林20-1號","121.481426666667","25.2035883333333","6501000","淡水區"
"251016","179-VK","2018/11/12 18:29:15","新北市淡水區下圭柔山115號","121.446301666667","25.2124766666667","6501000","淡水區"
"251008","180-VK","2018/11/12 18:29:31","新北市淡水區北投子87-3號","121.469166666667","25.17859","6501000","淡水區"
"251015","182-VK","2018/11/12 18:29:21","新北市淡水區興福寮88巷216號","121.485993333333","25.16656","6501000","淡水區"
"251010","413-VK","2018/11/12 18:29:25","新北市淡水區沙崙路181巷15號","121.423828333333","25.1844583333333","6501000","淡水區"
"249004","440-VK","2018/11/12 18:29:26","新北市八里區博物館路10-1號","121.41525","25.164215","6502300","八里區"
"251012","441-VK","2018/11/12 18:29:30","新北市淡水區北新路一段129-1號","121.457686666667","25.182125","6501000","淡水區"
"251004","443-VK","2018/11/12 18:29:25","新北市淡水區民族路31巷29號","121.462321666667","25.1364733333333","6501000","淡水區"
"251006","561-UM","2018/11/12 18:29:34","新北市淡水區新生街51巷26號","121.440681666667","25.175615","6501000","淡水區"
"251011","650-BX","2018/11/12 18:29:24","新北市淡水區中正東路8-1號","121.447771666667","25.1668633333333","6501000","淡水區"
"251003","766-UM","2018/11/12 18:29:19","新北市淡水區北新路169巷19號","121.449543333333","25.1799966666667","6501000","淡水區"
"207003","550-UM","2018/11/12 18:29:21","新北市萬里區野柳里港東路68號","121.687861666667","25.2044283333333","6502800","萬里區"
"207004","225-TW","2018/11/12 18:29:32","新北市萬里區萬里里瑪鋉路90號","121.690311666667","25.178515","6502800","萬里區"
"252002","178-VK","2018/11/12 18:29:29","新北市三芝區中山路二段39號","121.502933333333","25.2551333333333","6502100","三芝區"
"252003","249-BX","2018/11/12 18:29:28","新北市三芝區後厝里北勢子45-32號","121.469428333333","25.2508333333333","6502100","三芝區"
"252001","292-VK","2018/11/12 18:29:23","新北市三芝區中興街二段6號","121.498466666667","25.25638","6502100","三芝區"
"237004","KEA-2597","2018/11/12 18:29:36","新北市三峽區五寮89-7號","121.359561666667","24.8565783333333","6500900","三峽區"
"237007","153-BY","2018/11/12 18:29:32","新北市三峽區中正路三段166號","121.35271","24.9036516666667","6500900","三峽區"
"237009","210-TH","2018/11/12 18:29:25","新北市三峽區民權街231號","121.368031666667","24.92788","6500900","三峽區"
"237013","252-BX","2018/11/12 18:29:22","新北市三峽區永安街9巷4號","121.37758","24.929745","6500900","三峽區"
"237012","275-BY","2018/11/12 18:29:23","新北市三峽區三樹路38號","121.377791666667","24.9376","6500900","三峽區"
"237008","302-VK","2018/11/12 18:29:24","新北市三峽區白雞68-8號","121.390608333333","24.9091933333333","6500900","三峽區"
"237014","433-BY","2018/11/12 18:29:26","新北市三峽區民生街108號","121.373401666667","24.9353516666667","6500900","三峽區"
"237006","5529-G3","2018/11/12 18:29:27","新北市三峽區溪東路473巷14號","121.414268333333","24.9286766666667","6500900","三峽區"
"237011","KEA-2596","2018/11/12 18:29:21","新北市三峽區成福路101號","121.419295","24.9297216666667","6500900","三峽區"
"237015","649-BX","2018/11/12 18:29:32","新北市三峽區竹崙路149號","121.434165","24.9079583333333","6500900","三峽區"
"237010","706-TV","2018/11/12 18:29:20","新北市三峽區中山路222-1號","121.362858333333","24.9372283333333","6500900","三峽區"
"237005","AKY-6261","2018/11/12 18:29:23","新北市三峽區民族街5巷68號","121.36997","24.9326783333333","6500900","三峽區"
"236069","105-UM","2018/11/12 18:29:23","新北市土城區永豐路255巷12號","121.475385","24.9730766666667","6501300","土城區"
"236042","KED-0685","2018/11/12 18:29:25","新北市土城區裕民路67巷18號","121.449988333333","24.9882966666667","6501300","土城區"
"236078","166-UM","2018/11/12 18:29:17","新北市土城區大暖路19號","121.42279","24.96105","6501300","土城區"
"236030","253-BX","2018/11/12 18:29:18","新北市土城區福仁街30巷10號","121.439466666667","24.9759066666667","6501300","土城區"
"236026","269-VK","2018/11/12 18:29:28","新北市土城區南天母路135巷1-1號","121.447836666667","24.9544133333333","6501300","土城區"
"236014","270-VK","2018/11/12 18:29:30","新北市土城區青雲路39巷7號","121.460305","24.987415","6501300","土城區"
"236039","271-VK","2018/11/12 18:29:16","新北市土城區青雲路369號","121.458896666667","24.97641","6501300","土城區"
"236020","401-BY","2018/11/12 18:29:20","新北市土城區永豐路202巷14號","121.466293333333","24.98334","6501300","土城區"
"236059","912-UM","2018/11/12 18:29:35","新北市土城區中央路四段71號","121.417326666667","24.9582866666667","6501300","土城區"
"236048","913-UM","2018/11/12 18:29:37","新北市土城區青雲路471號","121.458715","24.9740933333333","6501300","土城區"
"236063","915-UM","2018/11/12 18:29:21","新北市土城區延壽路115巷1號","121.46911","24.9940616666667","6501300","土城區"
"236055","AAC-216","2018/11/12 18:29:22","新北市土城區中華路二段1號","121.439646666667","24.9790216666667","6501300","土城區"
"242058","986-R7","2018/11/12 18:29:33","桃園市龜山區萬壽路一段78號","121.408158333333","25.01928","6500500","新莊區"
"242025","613-BX","2018/11/12 18:29:36","新北市新莊區中央路232號","121.454651666667","25.0590566666667","6500500","新莊區"
"242044","566-BX","2018/11/12 18:29:26","新北市新莊區中正路新旺巷4號","121.415666666667","25.0235166666667","6500500","新莊區"
"242056","442-UM","2018/11/12 18:29:32","新北市新莊區瓊泰路77巷16號","121.442626666667","25.0292766666667","6500500","新莊區"
"242053","441-UM","2018/11/12 18:29:29","新北市樹林區八德街262-1號","121.41748","24.972075","6500500","新莊區"
"242009","413-TV","2018/11/12 18:28:35","新北市新莊區新泰路357巷3弄57號","121.442033333333","25.0394866666667","6500500","新莊區"
"242060","353-BY","2018/11/12 18:29:33","新北市新莊區四維路97巷22號","121.424176666667","25.0234983333333","6500500","新莊區"
"242011","132-UY","2018/11/12 18:29:36","新北市新莊區中榮街54號","121.44932","25.05277","6500500","新莊區"
"242042","133-UY","2018/11/12 18:29:36","新北市新莊區天祥街76號","121.415785","25.0293416666667","6500500","新莊區"
"242046","347-TH","2018/11/12 18:29:27","新北市新莊區中正路803巷7號","121.42175","25.0279566666667","6500500","新莊區"
"242015","351-TH","2018/11/12 18:29:27","新北市新莊區新泰路357巷2-2號","121.442011666667","25.0412666666667","6500500","新莊區"
"238015","755-BX","2018/11/12 18:29:26","新北市樹林區大安路515號","121.414053333333","24.986175","6500700","樹林區"
"238023","601-UM","2018/11/12 18:29:29","新北市樹林區三福街114號","121.406556666667","25.0163266666667","6500700","樹林區"
"238019","599-UM","2018/11/12 18:29:35","新北市樹林區中華路190-16號","121.411728333333","24.9805866666667","6500700","樹林區"
"238018","571-TV","2018/11/12 18:29:29","新北市樹林區樹新路50巷20號","121.429518333333","24.99676","6500700","樹林區"
"238024","5061-A6","2018/11/12 18:29:31","新北市樹林區中山路一段31號","121.424723333333","24.9928633333333","6500700","樹林區"
"238022","KEA-2213","2018/11/12 18:29:35","新北市樹林區中山路三段210-2號","121.381521666667","24.965505","6500700","樹林區"
"238025","303-VK","2018/11/12 18:29:17","新北市樹林區保安街一段110號","121.423791666667","24.9948183333333","6500700","樹林區"
"238026","172-UY","2018/11/12 18:29:26","新北市樹林區八德街640號","121.396771666667","24.9693516666667","6500700","樹林區"
"238016","169-UY","2018/11/12 18:29:31","新北市樹林區八德街1號","121.417566666667","24.9848983333333","6500700","樹林區"
"239007","AAC-297","2018/11/12 18:29:21","新北市鶯歌區重慶街69-1號","121.349341666667","24.95174","6500800","鶯歌區"
"239006","891-R6","2018/11/12 18:29:28","新北市鶯歌區德昌街27號","121.333233333333","24.9597066666667","6500800","鶯歌區"
"239008","527-UM","2018/11/12 18:29:28","新北市鶯歌區國際一路179號","121.33622","24.9765233333333","6500800","鶯歌區"
"239005","526-UM","2018/11/12 18:29:21","新北市鶯歌區鶯桃路668巷73號","121.329913333333","24.9717733333333","6500800","鶯歌區"
"239001","417-VK","2018/11/12 18:29:22","新北市鶯歌區國中街197號","121.338188333333","24.9391666666667","6500800","鶯歌區"
"239003","360-BY","2018/11/12 18:29:20","新北市鶯歌區福安街58號","121.335588333333","24.965175","6500800","鶯歌區"
"239002","359-BY","2018/11/12 18:29:17","新北市鶯歌區國慶街182號","121.351276666667","24.95269","6500800","鶯歌區"
"221008","489-VK","2018/11/12 18:29:04","新北市汐止區康寧街901號","121.651401666667","25.0750216666667","6501100","汐止區"
"221036","130-UY","2018/11/12 18:29:23","新北市汐止區南昌街29號","121.663206666667","25.0691533333333","6501100","汐止區"
"221015","131-UY","2018/11/12 18:29:36","新北市汐止區鄉長路二段23巷7號","121.667441666667","25.0825616666667","6501100","汐止區"
"221010","269-BY","2018/11/12 18:29:29","新北市汐止區汐萬路三段21號","121.643176666667","25.0918916666667","6501100","汐止區"
"221012","278-VK","2018/11/12 18:29:31","新北市汐止區保長路37巷8號","121.673103333333","25.07957","6501100","汐止區"
"221032","280-BY","2018/11/12 18:29:27","新北市汐止區民權街二段109巷34號","121.61995","25.0461783333333","6501100","汐止區"
"221027","281-BY","2018/11/12 18:29:25","新北市汐止區和平街46巷9號","121.66245","25.07133","6501100","汐止區"
"221029","298-VK","2018/11/12 18:29:34","新北市汐止區樟樹一路272-6號","121.642733333333","25.0688183333333","6501100","汐止區"
"221021","299-VK","2018/11/12 18:29:26","新北市汐止區復興路53巷2號","121.656855","25.0626333333333","6501100","汐止區"
"221031","353-TW","2018/11/12 18:29:18","新北市汐止區大同路一段403巷1號","121.641451666667","25.060245","6501100","汐止區"
"221035","622-UM","2018/11/12 18:29:24","新北市汐止區大同路二段113號","121.650141666667","25.0634683333333","6501100","汐止區"
"221025","623-UM","2018/11/12 18:29:19","新北市汐止區仁愛路122巷14號","121.663315","25.0633733333333","6501100","汐止區"
"221038","646-BX","2018/11/12 18:29:21","新北市汐止區忠孝東路303號","121.66428","25.0689583333333","6501100","汐止區"
"221033","647-BX","2018/11/12 18:29:31","新北市汐止區宜興街24號","121.621578333333","25.0416816666667","6501100","汐止區"
"221002","707-TV","2018/11/12 18:29:29","新北市汐止區福德一路153號","121.636501666667","25.0666","6501100","汐止區"
"221018","753-BX","2018/11/12 18:29:16","新北市汐止區茄苳路213號","121.67066","25.06889","6501100","汐止區"
"220082","610-BX","2018/11/12 18:29:35","新北市板橋區華東街1-10號","121.448225","24.9949866666667","6500100","板橋區"
"220071","283-VK","2018/11/12 18:29:34","新北市板橋區華東街1-9號","121.448051666667","24.9949116666667","6500100","板橋區"
"220084","296-UM","2018/11/12 18:29:21","新北市板橋區華東街1-9號","121.448146666667","24.9949666666667","6500100","板橋區"
"220077","687-BX","2018/11/12 18:29:31","新北市板橋區華東街1-10號","121.448356666667","24.994925","6500100","板橋區"
"220064","833-TW","2018/11/12 18:29:18","新北市板橋區南雅南路二段144巷60號","121.450138333333","24.9972566666667","6500100","板橋區"
"220074","895-R6","2018/11/12 18:29:35","新北市板橋區華東街1-9號","121.448156666667","24.9949783333333","6500100","板橋區"
"220073","985-R7","2018/11/12 18:29:34","新北市板橋區華東街1-10號","121.44825","24.994995","6500100","板橋區"
"235068","KEA-2873","2018/11/12 18:29:34","新北市中和區錦和路203巷7號","121.491218333333","24.99049","6500300","中和區"
"235061","KEA-2875","2018/11/12 18:29:20","新北市中和區民享街91-12號","121.474696666667","25.0006766666667","6500300","中和區"
