"lineid","car","time","location","longitude","latitude","cityid","cityname"
"234046","148-BY","2018/11/12 18:39:25","新北市永和區永元路52巷14號","121.52274","25.0009166666667","6500400","永和區"
"234007","207-UY","2018/11/12 18:39:30","新北市永和區文化路170號","121.511916666667","25.0154866666667","6500400","永和區"
"234081","298-R6","2018/11/12 18:39:28","新北市永和區林森路87號","121.523753333333","25.0038416666667","6500400","永和區"
"234038","336-UY","2018/11/12 18:39:30","新北市永和區福和路1號","121.526656666667","25.0101183333333","6500400","永和區"
"234086","338-UY","2018/11/12 18:39:19","新北市永和區中正路4號","121.51236","24.9935783333333","6500400","永和區"
"234070","552-UM","2018/11/12 18:39:34","新北市永和區福和路1號","121.525521666667","25.0093416666667","6500400","永和區"
"234017","745-BX","2018/11/12 18:39:25","新北市永和區福和路1號","121.526373333333","25.0095883333333","6500400","永和區"
"234030","746-BX","2018/11/12 18:39:18","新北市永和區林森路101巷4號","121.523303333333","25.003495","6500400","永和區"
"234013","KEA-2591","2018/11/12 18:39:34","新北市永和區保福路二段105號","121.510205","25.0134083333333","6500400","永和區"
"234061","AAD-866","2018/11/12 18:39:21","新北市永和區福和路1號","121.526071666667","25.0095216666667","6500400","永和區"
"234042","862-TW","2018/11/12 18:39:26","新北市永和區永貞路308號","121.511826666667","25.00484","6500400","永和區"
"234050","863-TW","2018/11/12 18:39:29","新北市永和區福和路1號","121.52614","25.0095783333333","6500400","永和區"
"234026","9371-KE","2018/11/12 18:39:34","新北市永和區仁愛路289號","121.505401666667","25.0094533333333","6500400","永和區"
"234011","9373-KE","2018/11/12 18:39:20","新北市永和區文化路9巷22弄38號","121.514321666667","25.0145566666667","6500400","永和區"
"249005","172-UM","2018/11/12 18:39:24","新北市八里區中華路三段232號","121.388335","25.1244533333333","6502300","八里區"
"249001","173-UM","2018/11/12 18:39:28","新北市八里區龍米路一段386巷1號","121.45156","25.1320433333333","6502300","八里區"
"249004","303-UY","2018/11/12 18:39:31","新北市八里區中山路一段42-1號","121.422151666667","25.1590433333333","6502300","八里區"
"249002","305-UY","2018/11/12 18:39:21","新北市八里區龍形一街33巷6-2號","121.449195","25.1295466666667","6502300","八里區"
"248016","026-BX","2018/11/12 18:39:28","新北市五股區凌雲路一段149巷13-1號","121.448595","25.1008866666667","6501500","五股區"
"248008","095-VK","2018/11/12 18:39:28","新北市五股區中興路一段152號","121.464578333333","25.073875","6501500","五股區"
"248018","225-UY","2018/11/12 18:39:28","新北市五股區民義路二段52巷1號","121.410433333333","25.1048216666667","6501500","五股區"
"248009","272-BY","2018/11/12 18:39:20","新北市五股區自強路78號","121.432718333333","25.0730133333333","6501500","五股區"
"248012","655-BX","2018/11/12 18:39:30","新北市五股區御史路1巷1-5號","121.442466666667","25.0897633333333","6501500","五股區"
"248004","677-BX","2018/11/12 18:39:29","新北市五股區民義路一段283號","121.425826666667","25.09273","6501500","五股區"
"248002","678-BX","2018/11/12 18:39:23","新北市五股區西雲路218號","121.448143333333","25.0960433333333","6501500","五股區"
"234023","9380-KE","2018/11/12 18:39:25","新北市永和區福和路76巷5弄9號","121.52227","25.0083466666667","6500400","永和區"
"234077","969-R7","2018/11/12 18:39:25","新北市永和區福和路288號","121.51746","25.0074466666667","6500400","永和區"
"234067","AAC-212","2018/11/12 18:39:33","新北市永和區永貞路144號","121.518068333333","25.004425","6500400","永和區"
"234003","AAC-295","2018/11/12 18:39:23","新北市永和區福和路1號","121.526446666667","25.00986","6500400","永和區"
"232011","375-UM","2018/11/12 18:22:22","新北市坪林區坪雙路一段41號","121.711696666667","24.9424383333333","6502000","坪林區"
"244023","069-UM","2018/11/12 18:39:33","新北市林口區文化一路二段68號","121.381323333333","25.077955","6501700","林口區"
"244007","080-UY","2018/11/12 18:39:35","新北市林口區中湖62號","121.384271666667","25.1011116666667","6501700","林口區"
"244019","403-UM","2018/11/12 18:39:24","新北市林口區麗園二街36巷1號","121.380433333333","25.069105","6501700","林口區"
"244013","KEA-2802","2018/11/12 18:39:31","新北市林口區仁愛路二段201-1號","121.37796","25.0747316666667","6501700","林口區"
"244017","485-VK","2018/11/12 18:39:17","新北市林口區文化二路一段86號","121.366338333333","25.0695833333333","6501700","林口區"
"244009","656-BX","2018/11/12 18:39:22","新北市林口區竹林路344號","121.39146","25.0837133333333","6501700","林口區"
"244011","701-TV","2018/11/12 18:39:34","新北市林口區興林路17巷8號","121.390455","25.0769733333333","6501700","林口區"
"244025","837-TS","2018/11/12 18:39:32","新北市林口區南勢47號","121.355205","25.0749016666667","6501700","林口區"
"244021","838-TS","2018/11/12 18:39:28","新北市林口區工六路26號","121.398276666667","25.0787916666667","6501700","林口區"
"243013","AAD-798","2018/11/12 18:27:24","新北市泰山區明志路三段206巷3號","121.423293333333","25.037905","6501600","泰山區"
"243016","KEA-2801","2018/11/12 18:39:22","新北市泰山區黎明路13號","121.420986666667","25.0631666666667","6501600","泰山區"
"243015","421-VK","2018/11/12 18:39:29","新北市泰山區犁頭窠3-1號","121.421945","25.0604483333333","6501600","泰山區"
"243012","646-TV","2018/11/12 18:39:33","新北市泰山區福興三街11號","121.434495","25.0578283333333","6501600","泰山區"
"222003","436-BY","2018/11/12 18:39:20","新北市深坑區翠谷街20號","121.627006666667","25.0087316666667","6501800","深坑區"
"222002","659-BX","2018/11/12 18:39:19","新北市深坑區雲鄉路1號","121.621015","24.99994","6501800","深坑區"
"231041","002-UM","2018/11/12 18:39:32","新北市新店區安華路28-1號","121.51972","24.9607066666667","6500600","新店區"
"231066","0291-UT","2018/11/12 18:39:36","新北市新店區安一路一段1-1號","121.519365","24.9612833333333","6500600","新店區"
"231059","046-UY","2018/11/12 18:39:33","新北市新店區安華路28-1號","121.519523333333","24.96082","6500600","新店區"
"231040","047-UY","2018/11/12 18:39:20","新北市新店區安華路28-1號","121.519176666667","24.9608933333333","6500600","新店區"
"231044","106-UY","2018/11/12 18:39:24","新北市新店區環河路14號","121.53774","24.9615216666667","6500600","新店區"
"231046","107-UY","2018/11/12 18:39:31","新北市新店區直潭二街1號","121.535516666667","24.9431733333333","6500600","新店區"
"231052","108-UY","2018/11/12 18:39:31","新北市新店區長興路1號","121.545893333333","24.940455","6500600","新店區"
"231062","110-UY","2018/11/12 18:39:21","新北市新店區安一路一段1-1號","121.51923","24.9613616666667","6500600","新店區"
"231047","187-VK","2018/11/12 18:39:26","新北市新店區安一路一段1-1號","121.519551666667","24.9611066666667","6500600","新店區"
"231054","KEA-2219","2018/11/12 18:39:19","新北市新店區安一路一段1-1號","121.51977","24.96125","6500600","新店區"
"231057","256-BX","2018/11/12 18:39:28","新北市新店區新烏路一段215號","121.548628333333","24.9311433333333","6500600","新店區"
"231042","268-BY","2018/11/12 18:39:18","新北市新店區安一路一段1-1號","121.519798333333","24.9611933333333","6500600","新店區"
"231051","278-BY","2018/11/12 18:39:32","新北市新店區中央路91號","121.53198","24.9760516666667","6500600","新店區"
"231050","AAD-862","2018/11/12 18:39:26","新北市新店區安一路一段1-1號","121.519943333333","24.9611066666667","6500600","新店區"
"231058","3713-VJ","2018/11/12 18:39:23","新北市新店區國校路76-1號","121.538526666667","24.9530433333333","6500600","新店區"
"231056","4715-K9","2018/11/12 18:39:18","新北市新店區建國路163-1號","121.538586666667","24.97914","6500600","新店區"
"231067","4772-VM","2018/11/12 18:39:31","新北市新店區安華路28-1號","121.519308333333","24.9605633333333","6500600","新店區"
"231065","512-UM","2018/11/12 18:39:34","新北市新店區安華路28-1號","121.519385","24.9609883333333","6500600","新店區"
"231049","513-UM","2018/11/12 18:39:28","新北市新店區安一路一段1-1號","121.519628333333","24.9611283333333","6500600","新店區"
"231061","619-UM","2018/11/12 18:39:37","新北市新店區安華路28-1號","121.519448333333","24.9609516666667","6500600","新店區"
"231063","641-BX","2018/11/12 18:39:26","新北市新店區安華路1-1號","121.519606666667","24.960465","6500600","新店區"
"231064","719-UM","2018/11/12 18:39:20","新北市新店區安一路一段1-1號","121.51936","24.9612866666667","6500600","新店區"
"231060","897-TW","2018/11/12 18:39:19","新北市新店區安華路28-1號","121.519623333333","24.9606633333333","6500600","新店區"
"231043","899-TW","2018/11/12 18:39:31","新北市新店區安華路28-1號","121.519296666667","24.96091","6500600","新店區"
"231055","AKT-0513","2018/11/12 18:39:18","新北市新店區中華路68號","121.539173333333","24.9690983333333","6500600","新店區"
"251014","742-BX","2018/11/12 18:39:28","新北市淡水區崙頂12-8號","121.495555","25.2172216666667","6501000","淡水區"
"235066","003-UY","2018/11/12 18:39:19","新北市中和區水源路28號","121.504508333333","25.00353","6500300","中和區"
"235064","005-UY","2018/11/12 18:39:17","新北市中和區連城路89巷7-1號","121.497211666667","24.9992766666667","6500300","中和區"
"235063","006-UY","2018/11/12 18:39:37","新北市中和區連城路367號","121.487455","24.9962083333333","6500300","中和區"
"235056","096-UM","2018/11/12 18:39:36","新北市中和區員山路611巷1號","121.477898333333","25.011235","6500300","中和區"
"235039","097-UM","2018/11/12 18:39:16","新北市中和區宜安路18巷9號","121.513685","24.9960916666667","6500300","中和區"
"235065","098-UM","2018/11/12 18:39:26","新北市中和區莊敬路33巷22弄8號","121.500701666667","25.0065","6500300","中和區"
"235040","150-BY","2018/11/12 18:39:32","新北市中和區安平路76號","121.511015","24.9966","6500300","中和區"
"235058","151-BY","2018/11/12 18:39:29","新北市中和區員山路78-3號","121.481628333333","24.992245","6500300","中和區"
"235055","183-VK","2018/11/12 18:39:30","新北市板橋區民族路276巷1弄20號","121.470321666667","25.0062566666667","6500300","中和區"
"235038","185-VK","2018/11/12 18:39:22","新北市中和區大勇街60巷16號","121.518743333333","24.9946983333333","6500300","中和區"
"235049","186-VK","2018/11/12 18:39:30","新北市中和區明義街30號","121.504033333333","24.9951116666667","6500300","中和區"
"235067","255-BX","2018/11/12 18:39:28","新北市中和區新生街7-1號","121.483185","25.0046133333333","6500300","中和區"
"235044","293-VK","2018/11/12 18:39:35","新北市中和區復興路267號","121.502695","24.990235","6500300","中和區"
"235072","301-VK","2018/11/12 18:39:25","新北市中和區中山路二段94號","121.50336","25.0042216666667","6500300","中和區"
"235043","352-BY","2018/11/12 18:39:30","新北市中和區景平路155號","121.513661666667","24.9922333333333","6500300","中和區"
"235042","KEA-2878","2018/11/12 18:39:36","新北市中和區成功路97巷7號","121.526511666667","24.992","6500300","中和區"
"235050","4979-A6","2018/11/12 18:39:35","新北市中和區景新街418巷22弄1號","121.51242","24.988005","6500300","中和區"
"235069","4980-A6","2018/11/12 18:39:24","新北市中和區連城路89巷2號","121.496911666667","24.9996716666667","6500300","中和區"
"235045","565-BX","2018/11/12 18:39:32","新北市中和區南山路236-2號","121.506273333333","24.989465","6500300","中和區"
"235054","640-BX","2018/11/12 18:39:35","新北市中和區莒光路95號","121.472406666667","25.0031066666667","6500300","中和區"
"235060","647-TV","2018/11/12 18:39:22","新北市中和區中山路三段33號","121.479031666667","25.0059416666667","6500300","中和區"
"235047","732-UM","2018/11/12 18:39:28","新北市中和區南山路320巷10弄21號","121.506791666667","24.9866583333333","6500300","中和區"
"235046","733-UM","2018/11/12 18:39:28","新北市中和區忠孝街99-3號","121.511921666667","24.986115","6500300","中和區"
"235062","800-TS","2018/11/12 18:39:32","新北市中和區景平路726-2號","121.496746666667","25.0035116666667","6500300","中和區"
"235057","801-TS","2018/11/12 18:39:30","新北市中和區員山路327巷46號","121.480505","25.0017616666667","6500300","中和區"
"235041","802-TS","2018/11/12 18:39:20","新北市中和區宜安路118巷24號","121.510936666667","24.998785","6500300","中和區"
"235052","805-TS","2018/11/12 18:39:27","新北市中和區興南路三段20巷4號","121.497191666667","24.9794333333333","6500300","中和區"
"235048","896-TW","2018/11/12 18:39:15","新北市中和區南山路303號","121.504735","24.9916366666667","6500300","中和區"
"235053","900-TW","2018/11/12 18:39:22","新北市土城區延壽路118-4號","121.469086666667","24.994315","6500300","中和區"
"235051","157-BY","2018/11/12 18:39:33","新北市中和區華新街143巷66號","121.506003333333","24.9791916666667","6500300","中和區"
"235037","AAC-213","2018/11/12 18:39:32","新北市中和區景平路89號","121.517716666667","24.991545","6500300","中和區"
"235059","AAC-215","2018/11/12 18:39:24","新北市中和區錦和路354巷15號","121.489733333333","24.9915533333333","6500300","中和區"
"220065","072-UY","2018/11/12 18:39:20","新北市板橋區區運路60號","121.466108333333","25.0101983333333","6500100","板橋區"
"220086","073-UY","2018/11/12 18:39:26","新北市板橋區南雅西路二段177號","121.451841666667","25.01255","6500100","板橋區"
"220069","AAD-861","2018/11/12 18:39:31","新北市板橋區華東街1-8號","121.44758","24.995035","6500100","板橋區"
"226004","312-R5","2018/11/12 18:39:16","新北市平溪區石底里公園街18-3號","121.733681666667","25.02541","6502400","平溪區"
"228003","097-TW","2018/11/12 18:39:31","新北市貢寮區和美里龍洞街35號","121.916068333333","25.1116316666667","6502600","貢寮區"
"228001","212-TW","2018/11/12 18:39:22","新北市貢寮區仁理村研海街12-1號","121.923768333333","25.0516283333333","6502600","貢寮區"
"228002","585-TW","2018/11/12 18:39:18","新北市貢寮區福隆里桂安街18號","121.955755","25.02026","6502600","貢寮區"
"224010","AGQ-8101","2018/11/12 18:39:33","新北市瑞芳區烏勢巷118號","121.846343333333","25.1081216666667","6501200","瑞芳區"
"224006","676-BX","2018/11/12 18:39:37","新北市瑞芳區明燈路三段98號","121.80533","25.1083266666667","6501200","瑞芳區"
"224002","639-TC","2018/11/12 18:39:29","新北市瑞芳區國中新村18號","121.817243333333","25.1073066666667","6501200","瑞芳區"
"224008","285-BY","2018/11/12 18:39:31","新北市瑞芳區岳王路162號","121.807973333333","25.11128","6501200","瑞芳區"
"224007","275-VK","2018/11/12 18:39:22","新北市瑞芳區大埔路115巷9號","121.763343333333","25.101","6501200","瑞芳區"
"224009","273-VK","2018/11/12 18:39:22","新北市瑞芳區祈堂路2號","121.859376666667","25.111335","6501200","瑞芳區"
"224005","271-BY","2018/11/12 18:39:32","新北市瑞芳區永龍新村34號","121.818971666667","25.119325","6501200","瑞芳區"
"227008","642-TC","2018/11/12 18:39:37","新北市雙溪區牡丹里下坑11號","121.851036666667","25.05616","6502500","雙溪區"
"227001","400-TW","2018/11/12 18:39:19","新北市雙溪區魚行里坤溪3-4號","121.876205","25.0207016666667","6502500","雙溪區"
"253006","032-BX","2018/11/12 18:39:38","新北市石門區楓林37-6號","121.540645","25.2897833333333","6502200","石門區"
"253005","295-VK","2018/11/12 18:39:25","新北市石門區石門街17號","121.566001666667","25.2908216666667","6502200","石門區"
"222001","KEA-2212","2018/11/12 18:39:29","新北市深坑區北深路一段82號","121.636296666667","25.010715","6501800","深坑區"
"208002","KEA-2872","2018/11/12 18:39:15","新北市金山區忠孝一路19巷7號","121.637778333333","25.21796","6502700","金山區"
"208003","665-BX","2018/11/12 18:39:24","新北市金山區中山路268號","121.63538","25.2240683333333","6502700","金山區"
"208001","761-BX","2018/11/12 18:39:17","新北市金山區文化三路7號","121.635075","25.2249666666667","6502700","金山區"
"251001","011-UM","2018/11/12 18:39:27","新北市淡水區自強路415巷2號","121.465503333333","25.1341866666667","6501000","淡水區"
"251002","012-UM","2018/11/12 18:39:18","新北市淡水區中正東路一段21巷8弄1號","121.452088333333","25.1638733333333","6501000","淡水區"
"251013","KEA-2871","2018/11/12 18:39:31","新北市淡水區奎柔山路1262號","121.482421666667","25.20605","6501000","淡水區"
"251016","179-VK","2018/11/12 18:39:35","新北市淡水區下圭柔山72-3號","121.446096666667","25.2057633333333","6501000","淡水區"
"251008","180-VK","2018/11/12 18:39:31","新北市淡水區北投子14-2號","121.448656666667","25.1837266666667","6501000","淡水區"
"251015","182-VK","2018/11/12 18:39:21","新北市淡水區興福寮66巷309號","121.485248333333","25.1618233333333","6501000","淡水區"
"251010","413-VK","2018/11/12 18:39:25","新北市淡水區沙崙路124號","121.423358333333","25.1828883333333","6501000","淡水區"
"249004","440-VK","2018/11/12 18:30:42","新北市八里區博物館路10-1號","121.415226666667","25.1642183333333","6502300","八里區"
"251012","441-VK","2018/11/12 18:39:30","新北市淡水區北新路136號","121.44835","25.1783366666667","6501000","淡水區"
"251004","443-VK","2018/11/12 18:39:25","新北市淡水區民權路41號","121.46083","25.1403933333333","6501000","淡水區"
"251006","561-UM","2018/11/12 18:39:34","新北市淡水區崁頂36號","121.438903333333","25.1946","6501000","淡水區"
"251011","650-BX","2018/11/12 18:39:24","新北市淡水區鄧公路266號","121.459165","25.1687183333333","6501000","淡水區"
"251003","766-UM","2018/11/12 18:39:19","新北市淡水區北新路69巷26號","121.446733333333","25.1800583333333","6501000","淡水區"
"207003","550-UM","2018/11/12 18:39:21","新北市萬里區野柳里港西路48號","121.68252","25.2044316666667","6502800","萬里區"
"207004","225-TW","2018/11/12 18:39:21","新北市萬里區萬里里獅頭路10-1號","121.692118333333","25.1787","6502800","萬里區"
"252002","178-VK","2018/11/12 18:39:29","新北市三芝區智成街33號","121.503695","25.256505","6502100","三芝區"
"252003","249-BX","2018/11/12 18:39:28","新北市三芝區後厝里土地公坑55號","121.462545","25.2482766666667","6502100","三芝區"
"252001","292-VK","2018/11/12 18:39:23","新北市三芝區中興街二段260號","121.501891666667","25.25288","6502100","三芝區"
"237004","KEA-2597","2018/11/12 18:39:16","新北市三峽區金敏5號","121.384555","24.8751116666667","6500900","三峽區"
"237007","153-BY","2018/11/12 18:39:32","新北市三峽區柑樹路2巷98號","121.361693333333","24.90432","6500900","三峽區"
"237009","210-TH","2018/11/12 18:39:25","新北市三峽區大同路276號","121.365136666667","24.925225","6500900","三峽區"
"237013","252-BX","2018/11/12 18:39:22","新北市三峽區大同路48巷17弄8-1號","121.376725","24.9289966666667","6500900","三峽區"
"237012","275-BY","2018/11/12 18:39:23","新北市三峽區三樹路216號","121.379168333333","24.9422683333333","6500900","三峽區"
"237008","302-VK","2018/11/12 18:39:24","新北市三峽區白雞67號","121.395936666667","24.9111316666667","6500900","三峽區"
"237014","433-BY","2018/11/12 18:39:25","新北市三峽區和平街81號","121.370155","24.9373316666667","6500900","三峽區"
"237006","5529-G3","2018/11/12 18:39:27","新北市三峽區溪東路315巷90號","121.411923333333","24.93162","6500900","三峽區"
"237011","KEA-2596","2018/11/12 18:39:21","新北市三峽區溪東路148號","121.405261666667","24.933075","6500900","三峽區"
"237015","649-BX","2018/11/12 18:39:32","新北市三峽區竹崙路45號","121.429993333333","24.9224783333333","6500900","三峽區"
"237010","706-TV","2018/11/12 18:39:20","新北市三峽區復興路487號","121.36129","24.9384183333333","6500900","三峽區"
"237005","AKY-6261","2018/11/12 18:39:23","新北市三峽區民生街104巷3-1號","121.373593333333","24.9359533333333","6500900","三峽區"
"236069","105-UM","2018/11/12 18:39:23","新北市土城區永豐路157巷29弄6-1號","121.468388333333","24.9814616666667","6501300","土城區"
"236042","KED-0685","2018/11/12 18:39:25","新北市土城區學成路108巷9號","121.450071666667","24.98962","6501300","土城區"
"236078","166-UM","2018/11/12 18:39:37","新北市土城區頂埔街36號","121.417111666667","24.9591033333333","6501300","土城區"
"236030","253-BX","2018/11/12 18:39:18","新北市土城區福仁街65號","121.439533333333","24.9746816666667","6501300","土城區"
"236026","269-VK","2018/11/12 18:39:28","新北市土城區忠義路49-1號","121.440475","24.9690466666667","6501300","土城區"
"236014","270-VK","2018/11/12 18:39:30","新北市土城區清水路207巷25號","121.4598","24.98259","6501300","土城區"
"236039","271-VK","2018/11/12 18:39:16","新北市土城區明德路一段226號","121.460615","24.9774916666667","6501300","土城區"
"236020","401-BY","2018/11/12 18:39:29","新北市土城區延吉街262號","121.466091666667","24.9844883333333","6501300","土城區"
"236059","912-UM","2018/11/12 18:39:31","新北市土城區中央路三段155號","121.432086666667","24.9654383333333","6501300","土城區"
"236048","913-UM","2018/11/12 18:39:17","新北市土城區明德路一段30號","121.465103333333","24.984685","6501300","土城區"
"236063","915-UM","2018/11/12 18:39:24","新北市土城區延壽路20號","121.471356666667","24.9905466666667","6501300","土城區"
"236055","AAC-216","2018/11/12 18:39:22","新北市土城區裕民路2號","121.446608333333","24.9892516666667","6501300","土城區"
"242058","986-R7","2018/11/12 18:39:33","新北市新莊區中正路887-17號","121.416136666667","25.024145","6500500","新莊區"
"242025","613-BX","2018/11/12 18:39:16","新北市新莊區立信一街41號","121.442101666667","25.0494416666667","6500500","新莊區"
"242009","413-TV","2018/11/12 18:28:35","新北市新莊區新泰路357巷3弄57號","121.442033333333","25.0394866666667","6500500","新莊區"
"242011","132-UY","2018/11/12 18:39:16","新北市五股區成泰路一段8巷24號","121.437843333333","25.06719","6500500","新莊區"
"242042","133-UY","2018/11/12 18:39:31","新北市新莊區中正路694巷103號","121.416371666667","25.0298483333333","6500500","新莊區"
"242001","233-RS","2018/11/12 18:39:25","新北市新莊區環河路462號","121.440155","25.0195616666667","6500500","新莊區"
"242046","347-TH","2018/11/12 18:39:18","新北市新莊區福營路364號","121.421075","25.0265083333333","6500500","新莊區"
"238015","755-BX","2018/11/12 18:39:26","新北市樹林區備內街121號","121.405948333333","24.9893783333333","6500700","樹林區"
"238023","601-UM","2018/11/12 18:39:29","新北市樹林區三福街114號","121.406515","25.0162866666667","6500700","樹林區"
"238019","599-UM","2018/11/12 18:39:35","新北市樹林區中華路190-16號","121.411706666667","24.9805816666667","6500700","樹林區"
"238018","571-TV","2018/11/12 18:39:28","新北市樹林區鎮前街18號","121.42606","24.9930433333333","6500700","樹林區"
"238024","5061-A6","2018/11/12 18:39:35","新北市樹林區太順街79巷17號","121.417165","24.97806","6500700","樹林區"
"238022","KEA-2213","2018/11/12 18:39:15","新北市樹林區中華路190-1號","121.411415","24.9804983333333","6500700","樹林區"
"238025","303-VK","2018/11/12 18:39:17","新北市樹林區八德街634號","121.396873333333","24.969455","6500700","樹林區"
"238026","172-UY","2018/11/12 18:39:26","新北市樹林區育德街121巷7號","121.389145","24.9682483333333","6500700","樹林區"
"238016","169-UY","2018/11/12 18:39:31","新北市樹林區中山路二段10號","121.417475","24.985005","6500700","樹林區"
"239008","527-UM","2018/11/12 18:39:28","新北市鶯歌區國際一路179號","121.336226666667","24.9765333333333","6500800","鶯歌區"
"239005","526-UM","2018/11/12 18:39:21","新北市鶯歌區鶯桃路668巷41號","121.329203333333","24.97069","6500800","鶯歌區"
"239001","417-VK","2018/11/12 18:39:22","新北市鶯歌區國中街171-7號","121.337591666667","24.9385766666667","6500800","鶯歌區"
"239003","360-BY","2018/11/12 18:39:20","新北市鶯歌區永和街128號","121.335036666667","24.9695316666667","6500800","鶯歌區"
"239002","359-BY","2018/11/12 18:39:17","新北市鶯歌區中正一路460號","121.36431","24.9564483333333","6500800","鶯歌區"
"239004","193-VK","2018/11/12 18:39:29","新北市鶯歌區尖山路258巷25號","121.341788333333","24.946935","6500800","鶯歌區"
"221008","489-VK","2018/11/12 18:39:24","新北市汐止區康寧街901號","121.651396666667","25.075035","6501100","汐止區"
"221036","130-UY","2018/11/12 18:39:23","新北市汐止區忠孝東路314巷19弄10號","121.664993333333","25.068435","6501100","汐止區"
"221015","131-UY","2018/11/12 18:39:36","新北市汐止區鄉長路二段16號","121.668636666667","25.0813983333333","6501100","汐止區"
"221010","269-BY","2018/11/12 18:39:28","新北市汐止區瑞松街15號","121.645415","25.1051883333333","6501100","汐止區"
"221012","278-VK","2018/11/12 18:39:11","新北市汐止區保長路102號","121.675536666667","25.07799","6501100","汐止區"
"221032","280-BY","2018/11/12 18:39:27","新北市汐止區福山街58巷15號","121.61823","25.04595","6501100","汐止區"
"221027","281-BY","2018/11/12 18:39:25","新北市汐止區汐萬路一段115巷2號","121.654348333333","25.0707416666667","6501100","汐止區"
"221029","298-VK","2018/11/12 18:39:34","新北市汐止區樟樹一路146號","121.642353333333","25.0650733333333","6501100","汐止區"
"221021","299-VK","2018/11/12 18:39:26","新北市汐止區連興街120號","121.653733333333","25.062495","6501100","汐止區"
"221031","353-TW","2018/11/12 18:39:18","新北市汐止區中興路130-1號","121.632946666667","25.0641483333333","6501100","汐止區"
"221035","622-UM","2018/11/12 18:39:24","新北市汐止區大同路二段122號","121.651033333333","25.0638283333333","6501100","汐止區"
"221025","623-UM","2018/11/12 18:39:10","新北市汐止區仁愛路116號","121.662713333333","25.063685","6501100","汐止區"
"221038","646-BX","2018/11/12 18:39:21","新北市汐止區汐萬路一段121號","121.654121666667","25.0710566666667","6501100","汐止區"
"221002","707-TV","2018/11/12 18:39:30","新北市汐止區大同路一段277號","121.636428333333","25.0585116666667","6501100","汐止區"
"221018","753-BX","2018/11/12 18:39:16","新北市汐止區茄苳路262號","121.671878333333","25.0682083333333","6501100","汐止區"
"220079","145-BY","2018/11/12 18:39:36","新北市板橋區大觀路一段35巷2號","121.449036666667","25.00837","6500100","板橋區"
"220080","200-UY","2018/11/12 18:39:31","新北市板橋區大觀路二段265巷76弄30號","121.441343333333","24.9967516666667","6500100","板橋區"
"220082","610-BX","2018/11/12 18:39:15","新北市板橋區篤行路一段33號","121.432053333333","24.9942333333333","6500100","板橋區"
"220056","276-BY","2018/11/12 18:39:23","新北市板橋區四川路二段橋頭6號","121.448308333333","24.9940283333333","6500100","板橋區"
"220072","277-BY","2018/11/12 18:39:26","新北市板橋區大觀路三段121-1號","121.43258","24.99426","6500100","板橋區"
"220094","283-UM","2018/11/12 18:39:26","新北市板橋區民生路二段161巷3號","121.470253333333","25.0197833333333","6500100","板橋區"
"220071","283-VK","2018/11/12 18:39:34","新北市板橋區四川路二段99號","121.451893333333","24.994515","6500100","板橋區"
"220083","286-VK","2018/11/12 18:39:24","新北市板橋區大觀路二段169巷24號","121.446608333333","24.999635","6500100","板橋區"
"220081","287-VK","2018/11/12 18:39:36","新北市板橋區合安一路77-6號","121.448461666667","24.9986783333333","6500100","板橋區"
"220061","295-UM","2018/11/12 18:39:17","新北市板橋區民生路二段161巷1號","121.470216666667","25.019935","6500100","板橋區"
"220084","296-UM","2018/11/12 18:39:21","新北市板橋區板城路421號","121.448033333333","24.99641","6500100","板橋區"
"220075","303-R5","2018/11/12 18:39:33","新北市板橋區南雅西路一段96號","121.452551666667","25.0056016666667","6500100","板橋區"
"220104","560-BX","2018/11/12 18:39:26","新北市板橋區南雅南路二段11-2號","121.45413","25.0025316666667","6500100","板橋區"
"220103","561-BX","2018/11/12 18:39:29","新北市板橋區民生路二段120號","121.470295","25.019895","6500100","板橋區"
"220057","686-BX","2018/11/12 18:39:28","新北市板橋區華東街1-10號","121.448305","24.9949416666667","6500100","板橋區"
"220077","687-BX","2018/11/12 18:39:31","新北市板橋區大觀路二段174巷104弄1號","121.441011666667","25.0014566666667","6500100","板橋區"
"220054","741-BX","2018/11/12 18:39:21","新北市板橋區華東街1-9號","121.448115","24.9949033333333","6500100","板橋區"
"220055","827-TW","2018/11/12 18:39:20","新北市板橋區南雅南路二段144巷40號","121.449738333333","24.99688","6500100","板橋區"
"220067","829-TW","2018/11/12 18:39:27","新北市板橋區民生路二段120號","121.470493333333","25.0196366666667","6500100","板橋區"
"220064","833-TW","2018/11/12 18:39:18","新北市板橋區縣民大道一段310號","121.461426666667","25.0106866666667","6500100","板橋區"
"220074","895-R6","2018/11/12 18:39:35","新北市板橋區南雅南路二段9號","121.454321666667","25.0028233333333","6500100","板橋區"
"220073","985-R7","2018/11/12 18:39:14","新北市板橋區貴興路76號","121.456471666667","25.0028816666667","6500100","板橋區"
"220070","AAC-253","2018/11/12 18:39:32","新北市板橋區板城路407號","121.447435","24.99518","6500100","板橋區"
"235068","KEA-2873","2018/11/12 18:39:34","新北市中和區中正路140號","121.499196666667","24.99374","6500300","中和區"
"235061","KEA-2875","2018/11/12 18:39:20","新北市中和區民享街93-2號","121.47473","25.0004433333333","6500300","中和區"
