"lineid","car","time","location","longitude","latitude","cityid","cityname"
"234046","148-BY","2018/11/12 19:19:31","新北市永和區得和路375號","121.524743333333","24.9994516666667","6500400","永和區"
"234007","207-UY","2018/11/12 19:19:30","新北市永和區中山路一段226號","121.508141666667","25.00813","6500400","永和區"
"234081","298-R6","2018/11/12 19:19:32","新北市永和區福和路7巷5弄1號","121.525178333333","25.00805","6500400","永和區"
"234038","336-UY","2018/11/12 19:19:30","新北市永和區民樂街70號","121.527423333333","24.9984066666667","6500400","永和區"
"234064","337-UY","2018/11/12 19:19:22","新北市永和區永元路17巷6弄1號","121.521348333333","25.0007316666667","6500400","永和區"
"234086","338-UY","2018/11/12 19:19:25","新北市永和區永利路4巷2號","121.5175","25.005515","6500400","永和區"
"234070","552-UM","2018/11/12 19:19:34","新北市永和區豫溪街74巷1號","121.5172","25.009835","6500400","永和區"
"234017","745-BX","2018/11/12 19:19:25","新北市永和區環河西路一段85巷4弄20號","121.512056666667","25.0169016666667","6500400","永和區"
"234030","746-BX","2018/11/12 19:19:18","新北市永和區厚德街67號","121.525016666667","24.9986816666667","6500400","永和區"
"234054","KEA-2590","2018/11/12 19:19:21","新北市永和區中興街27號","121.516081666667","25.0119266666667","6500400","永和區"
"234013","KEA-2591","2018/11/12 19:19:34","新北市永和區信義路38號","121.513405","25.012375","6500400","永和區"
"234061","AAD-866","2018/11/12 19:19:21","新北市永和區秀朗路一段175號","121.517083333333","25.003655","6500400","永和區"
"234042","862-TW","2018/11/12 19:19:28","新北市永和區保平路151巷2弄7-1號","121.50969","25.0053033333333","6500400","永和區"
"234050","863-TW","2018/11/12 19:19:29","新北市永和區仁愛路136號","121.5113","25.0133983333333","6500400","永和區"
"234026","9371-KE","2018/11/12 19:19:35","新北市永和區安樂路144巷29號","121.515083333333","24.9997733333333","6500400","永和區"
"234011","9373-KE","2018/11/12 19:19:20","新北市永和區保福路二段9巷9號","121.5105","25.0108533333333","6500400","永和區"
"249001","173-UM","2018/11/12 19:19:28","新北市八里區中華路二段103-1號","121.409158333333","25.1523816666667","6502300","八里區"
"249003","593-UM","2018/11/12 19:19:30","新北市八里區中山路二段500巷10-1號","121.398391666667","25.1475216666667","6502300","八里區"
"248016","026-BX","2018/11/12 19:19:28","新北市五股區成洲五路12號","121.452315","25.1015566666667","6501500","五股區"
"248008","095-VK","2018/11/12 19:19:28","新北市五股區中興路二段57-6號","121.460361666667","25.075405","6501500","五股區"
"248018","225-UY","2018/11/12 19:19:28","新北市五股區民義路一段220巷32號","121.42852","25.0939333333333","6501500","五股區"
"248009","272-BY","2018/11/12 19:19:20","新北市五股區水碓二路1號","121.430621666667","25.0712383333333","6501500","五股區"
"248012","655-BX","2018/11/12 19:19:29","新北市五股區中興路四段48巷16號","121.438711666667","25.0833616666667","6501500","五股區"
"248004","677-BX","2018/11/12 19:19:29","新北市五股區五福路136號","121.432068333333","25.0913233333333","6501500","五股區"
"248002","678-BX","2018/11/12 19:19:23","新北市五股區凌雲路一段158巷6號","121.447778333333","25.10304","6501500","五股區"
"234023","9380-KE","2018/11/12 19:19:25","新北市永和區竹林路111號","121.519811666667","25.0118133333333","6500400","永和區"
"234077","969-R7","2018/11/12 19:19:25","新北市永和區民族街44號","121.518463333333","24.99876","6500400","永和區"
"234074","AAC-211","2018/11/12 19:19:18","新北市永和區竹林路106號","121.519711666667","25.01189","6500400","永和區"
"234067","AAC-212","2018/11/12 19:19:33","新北市永和區保平路52號","121.511328333333","25.0070766666667","6500400","永和區"
"234003","AAC-295","2018/11/12 19:19:23","新北市永和區永平路183號","121.510255","25.0093083333333","6500400","永和區"
"244023","069-UM","2018/11/12 19:19:33","新北市林口區文化三路一段617巷183號","121.371325","25.0781066666667","6501700","林口區"
"244019","403-UM","2018/11/12 19:19:24","新北市林口區寶林路178號","121.368923333333","25.0942816666667","6501700","林口區"
"244011","701-TV","2018/11/12 19:19:34","新北市林口區中正路264巷13號","121.388888333333","25.0782266666667","6501700","林口區"
"243013","AAD-798","2018/11/12 19:19:30","新北市泰山區明志路三段145巷11弄2號","121.425786666667","25.0397483333333","6501600","泰山區"
"243009","297-R6","2018/11/12 19:19:21","新北市泰山區和平街13巷10號","121.4344","25.064905","6501600","泰山區"
"243016","KEA-2801","2018/11/12 19:19:22","新北市泰山區工專路10號","121.4239","25.0395466666667","6501600","泰山區"
"243015","421-VK","2018/11/12 19:19:29","新北市泰山區明志路二段52號","121.429221666667","25.0528366666667","6501600","泰山區"
"243011","KEA-2215","2018/11/12 19:19:20","新北市泰山區中央路36巷2號","121.426298333333","25.0429816666667","6501600","泰山區"
"243010","KEA-2216","2018/11/12 19:19:21","新北市泰山區明志路一段492巷5號","121.430158333333","25.05471","6501600","泰山區"
"243012","646-TV","2018/11/12 19:19:33","新北市泰山區仁愛路100巷27號","121.43359","25.055105","6501600","泰山區"
"243014","680-BX","2018/11/12 19:19:15","新北市泰山區泰林路二段23號","121.436323333333","25.0563433333333","6501600","泰山區"
"222003","436-BY","2018/11/12 19:19:20","新北市深坑區深南路204號","121.626638333333","25.01604","6501800","深坑區"
"222002","659-BX","2018/11/12 19:19:19","新北市深坑區紅葉街8巷2號","121.633155","25.0115383333333","6501800","深坑區"
"231041","002-UM","2018/11/12 19:19:32","新北市新店區溪園路221號","121.526063333333","24.9838566666667","6500600","新店區"
"231066","0291-UT","2018/11/12 19:19:16","新北市新店區安康路三段267號","121.486405","24.9518216666667","6500600","新店區"
"231059","046-UY","2018/11/12 19:19:34","新北市新店區安和路二段166-10號","121.519068333333","24.974085","6500600","新店區"
"231040","047-UY","2018/11/12 19:19:30","新北市新店區三民路31-3號","121.53798","24.9704416666667","6500600","新店區"
"231044","106-UY","2018/11/12 19:19:30","新北市新店區寶慶街71號","121.541863333333","24.986555","6500600","新店區"
"231046","107-UY","2018/11/12 19:19:31","新北市新店區華城路5-3號","121.529285","24.9578983333333","6500600","新店區"
"231052","108-UY","2018/11/12 19:19:31","新北市新店區屈尺路2號","121.54921","24.9225666666667","6500600","新店區"
"231062","110-UY","2018/11/12 19:19:21","新北市新店區安康路一段219號","121.525833333333","24.9630333333333","6500600","新店區"
"231047","187-VK","2018/11/12 19:19:25","新北市新店區中興路二段79巷6號","121.546531666667","24.9712916666667","6500600","新店區"
"231054","KEA-2219","2018/11/12 19:19:19","新北市新店區國校路65巷1號","121.53832","24.9540916666667","6500600","新店區"
"231042","268-BY","2018/11/12 19:19:18","新北市新店區中興路一段115號","121.541441666667","24.9628083333333","6500600","新店區"
"231051","278-BY","2018/11/12 19:19:32","新北市新店區中央路133巷9號","121.53088","24.9735833333333","6500600","新店區"
"231050","AAD-862","2018/11/12 19:19:26","新北市新店區竹林路30巷1號","121.55228","24.9513116666667","6500600","新店區"
"231058","3713-VJ","2018/11/12 19:19:23","新北市新店區光明街284號","121.540498333333","24.96447","6500600","新店區"
"231056","4715-K9","2018/11/12 19:19:18","新北市新店區安德街116巷46號","121.507773333333","24.9615116666667","6500600","新店區"
"231067","4772-VM","2018/11/12 19:19:31","新北市新店區安康路一段247巷31號","121.524818333333","24.9619416666667","6500600","新店區"
"231065","512-UM","2018/11/12 19:19:34","新北市新店區安祥路142號","121.473978333333","24.955825","6500600","新店區"
"231049","513-UM","2018/11/12 19:19:28","新北市新店區明德路64號","121.54157","24.9794366666667","6500600","新店區"
"231045","618-UM","2018/11/12 19:19:29","新北市新店區北宜路一段260號","121.545706666667","24.9527916666667","6500600","新店區"
"231061","619-UM","2018/11/12 19:19:37","新北市新店區安康路一段48號","121.530366666667","24.961085","6500600","新店區"
"231063","641-BX","2018/11/12 19:19:36","新北市新店區達觀路12號","121.504143333333","24.9408266666667","6500600","新店區"
"231064","719-UM","2018/11/12 19:19:22","新北市新店區安忠路38號","121.51306","24.9595083333333","6500600","新店區"
"231060","897-TW","2018/11/12 19:19:19","新北市新店區安康路二段125-1號","121.512383333333","24.9609066666667","6500600","新店區"
"231043","899-TW","2018/11/12 19:19:31","新北市新店區寶橋路15號","121.54381","24.9738216666667","6500600","新店區"
"241022","060-VK","2018/11/12 19:19:17","新北市三重區重陽路二段50號","121.48716","25.0634033333333","6500200","三重區"
"241031","061-VK","2018/11/12 19:19:26","新北市三重區重新路四段97號","121.485925","25.0549083333333","6500200","三重區"
"241017","063-VK","2018/11/12 19:19:25","新北市三重區大同北路213號","121.491911666667","25.0656283333333","6500200","三重區"
"241026","066-VK","2018/11/12 19:19:27","新北市三重區正義南路86巷2號","121.498936666667","25.0577716666667","6500200","三重區"
"251014","742-BX","2018/11/12 19:19:28","新北市淡水區小中寮19-7號","121.484748333333","25.2295583333333","6501000","淡水區"
"241009","267-UM","2018/11/12 19:19:35","新北市三重區溪尾街230巷42號","121.48629","25.0811283333333","6500200","三重區"
"241032","269-UM","2018/11/12 19:19:31","新北市三重區新生街105號","121.482975","25.05934","6500200","三重區"
"241025","271-UM","2018/11/12 19:19:26","新北市三重區中正北路406號","121.475365","25.0704266666667","6500200","三重區"
"241035","KEA-2210","2018/11/12 19:19:21","新北市三重區新北大道一段21號","121.486361666667","25.06127","6500200","三重區"
"241020","478-VK","2018/11/12 19:19:24","新北市三重區大智街181號","121.489595","25.0727283333333","6500200","三重區"
"241006","AAD-863","2018/11/12 19:19:25","新北市三重區車路頭街180號","121.483653333333","25.077095","6500200","三重區"
"241030","743-BX","2018/11/12 19:19:18","新北市三重區新興路40號","121.491571666667","25.0534483333333","6500200","三重區"
"241007","887-TS","2018/11/12 19:19:26","新北市三重區慈愛街52號","121.486276666667","25.07925","6500200","三重區"
"241029","942-UM","2018/11/12 19:19:29","新北市三重區重安街28號","121.490438333333","25.05789","6500200","三重區"
"235066","003-UY","2018/11/12 19:19:19","新北市中和區中和路155號","121.502686666667","24.9998716666667","6500300","中和區"
"235064","005-UY","2018/11/12 19:19:36","新北市中和區連城路4號","121.49919","25.0023733333333","6500300","中和區"
"235063","006-UY","2018/11/12 19:19:17","新北市中和區連城路317-1號","121.489248333333","24.9962083333333","6500300","中和區"
"235056","096-UM","2018/11/12 19:19:35","新北市中和區中山路二段640號","121.480976666667","25.0056183333333","6500300","中和區"
"235039","097-UM","2018/11/12 19:19:36","新北市中和區秀峰街68號","121.520488333333","24.9905716666667","6500300","中和區"
"235065","098-UM","2018/11/12 19:19:26","新北市中和區中山路二段2巷3弄2號","121.504848333333","25.0061733333333","6500300","中和區"
"235040","150-BY","2018/11/12 19:19:32","新北市中和區保健路50巷53號","121.509563333333","24.9957","6500300","中和區"
"235058","151-BY","2018/11/12 19:19:29","新北市中和區連城路469巷44弄19號","121.482336666667","24.99465","6500300","中和區"
"235055","183-VK","2018/11/12 19:19:30","新北市中和區莒光路4號","121.471891666667","25.0046833333333","6500300","中和區"
"235038","185-VK","2018/11/12 19:19:22","新北市中和區自強路27巷1號","121.520665","24.99287","6500300","中和區"
"235049","186-VK","2018/11/12 19:19:29","新北市中和區景新街235號","121.508133333333","24.9945183333333","6500300","中和區"
"235067","255-BX","2018/11/12 19:19:28","新北市中和區民樂路52號","121.483126666667","25.00124","6500300","中和區"
"235044","293-VK","2018/11/12 19:19:35","新北市中和區復興路308號","121.501235","24.9903033333333","6500300","中和區"
"235072","301-VK","2018/11/12 19:19:25","新北市中和區連城路263號","121.491903333333","24.9965333333333","6500300","中和區"
"235043","352-BY","2018/11/12 19:19:30","新北市中和區景平路428號","121.507358333333","24.993365","6500300","中和區"
"235042","KEA-2878","2018/11/12 19:19:36","新北市永和區中正路226號","121.515991666667","24.997805","6500300","中和區"
"235050","4979-A6","2018/11/12 19:19:35","新北市中和區景安路208巷17號","121.503155","24.9914333333333","6500300","中和區"
"235069","4980-A6","2018/11/12 19:19:24","新北市中和區莊敬路35號","121.50065","25.00491","6500300","中和區"
"235070","558-UM","2018/11/12 19:19:20","新北市中和區中山路二段248號","121.497768333333","25.0024483333333","6500300","中和區"
"235045","565-BX","2018/11/12 19:19:32","新北市中和區景新街383巷28號","121.513476666667","24.9906083333333","6500300","中和區"
"235054","640-BX","2018/11/12 19:19:35","新北市中和區國光街107巷2弄5-4號","121.469953333333","24.9998","6500300","中和區"
"235060","647-TV","2018/11/12 19:19:22","新北市中和區新生街114巷15號","121.483033333333","25.0023333333333","6500300","中和區"
"235047","732-UM","2018/11/12 19:19:34","新北市中和區景平路239巷32號","121.508486666667","24.9921933333333","6500300","中和區"
"235046","733-UM","2018/11/12 19:19:28","新北市中和區忠孝街2巷12號","121.510468333333","24.9818233333333","6500300","中和區"
"235071","783-BX","2018/11/12 19:19:17","新北市中和區中正路637巷52弄1號","121.485495","24.9940333333333","6500300","中和區"
"235057","801-TS","2018/11/12 19:19:30","新北市中和區民利街56號","121.479153333333","24.9986966666667","6500300","中和區"
"235041","802-TS","2018/11/12 19:19:20","新北市中和區中和路294號","121.508556666667","24.9997933333333","6500300","中和區"
"235052","805-TS","2018/11/12 19:19:35","新北市中和區興南路二段159巷31號","121.505515","24.98273","6500300","中和區"
"235048","896-TW","2018/11/12 19:19:35","新北市中和區忠孝街95號","121.512033333333","24.985685","6500300","中和區"
"235053","900-TW","2018/11/12 19:19:21","新北市中和區華安街21巷2號","121.46743","24.997425","6500300","中和區"
"235051","157-BY","2018/11/12 19:19:33","新北市中和區和平街40號","121.509061666667","24.9905566666667","6500300","中和區"
"235037","AAC-213","2018/11/12 19:19:32","新北市中和區秀朗路三段10巷37弄15號","121.524088333333","24.9955483333333","6500300","中和區"
"235059","AAC-215","2018/11/12 19:19:24","新北市中和區錦和路195巷1弄2號","121.49118","24.9908933333333","6500300","中和區"
"220065","072-UY","2018/11/12 19:19:19","新北市板橋區民族路129巷10號","121.467726666667","25.008435","6500100","板橋區"
"220086","073-UY","2018/11/12 19:19:26","新北市板橋區中正路216巷48-1號","121.457343333333","25.0187733333333","6500100","板橋區"
"220106","075-UY","2018/11/12 19:19:18","新北市板橋區長江路二段280-1號","121.469998333333","25.0328033333333","6500100","板橋區"
"220069","AAD-861","2018/11/12 19:19:30","新北市板橋區貴興路55號","121.45745","25.00311","6500100","板橋區"
"226004","312-R5","2018/11/12 19:19:36","新北市平溪區靜安路三段98號","121.771026666667","25.0360116666667","6502400","平溪區"
"228003","097-TW","2018/11/12 19:19:31","新北市貢寮區和美里和美街19-2號","121.91278","25.0826166666667","6502600","貢寮區"
"228001","212-TW","2018/11/12 19:19:27","新北市貢寮區真理里新港街26巷6-3號","121.925588333333","25.0545666666667","6502600","貢寮區"
"228002","585-TW","2018/11/12 19:19:18","新北市貢寮區雙玉里田寮洋街21號","121.926306666667","25.0248583333333","6502600","貢寮區"
"224008","285-BY","2018/11/12 19:19:31","新北市瑞芳區一坑路148號","121.802008333333","25.1089233333333","6501200","瑞芳區"
"224007","275-VK","2018/11/12 19:19:22","新北市瑞芳區大寮路356-1號","121.78469","25.1031516666667","6501200","瑞芳區"
"227008","642-TC","2018/11/12 19:19:37","新北市雙溪區新基里新基北街40號","121.868573333333","25.03806","6502500","雙溪區"
"227001","400-TW","2018/11/12 19:19:19","新北市雙溪區平林里梅竹蹊66-1號","121.86016","25.0358","6502500","雙溪區"
"253006","032-BX","2018/11/12 19:19:18","新北市石門區崁子腳25-2號","121.535106666667","25.290845","6502200","石門區"
"253005","295-VK","2018/11/12 19:19:25","新北市石門區阿里荖5-4號","121.60953","25.2798466666667","6502200","石門區"
"222001","KEA-2212","2018/11/12 19:19:29","新北市深坑區北深路二段97號","121.617685","25.0033883333333","6501800","深坑區"
"208002","KEA-2872","2018/11/12 19:19:35","新北市金山區中正路136號","121.631706666667","25.22159","6502700","金山區"
"208003","665-BX","2018/11/12 19:19:36","新北市金山區中山路110號","121.639621666667","25.2195016666667","6502700","金山區"
"208001","761-BX","2018/11/12 19:19:17","新北市金山區民生路69號","121.640145","25.21966","6502700","金山區"
"251009","008-UM","2018/11/12 19:19:31","新北市淡水區中正路8巷25號","121.441706666667","25.170245","6501000","淡水區"
"251005","010-UM","2018/11/12 19:19:25","新北市淡水區水源街一段26號","121.443101666667","25.1721966666667","6501000","淡水區"
"251001","011-UM","2018/11/12 19:19:27","新北市淡水區自強路201巷39號","121.462135","25.1267983333333","6501000","淡水區"
"251002","012-UM","2018/11/12 19:19:27","新北市淡水區建設街1巷1號","121.4389","25.1729216666667","6501000","淡水區"
"251013","KEA-2871","2018/11/12 19:19:31","新北市淡水區安子內12-1號","121.481498333333","25.2191033333333","6501000","淡水區"
"251016","179-VK","2018/11/12 19:19:35","新北市淡水區下圭柔山119-51號","121.450701666667","25.208475","6501000","淡水區"
"251015","182-VK","2018/11/12 19:19:21","新北市淡水區山子邊5-2號","121.483503333333","25.18434","6501000","淡水區"
"251010","413-VK","2018/11/12 19:19:25","新北市淡水區沙崙路30號","121.421476666667","25.1814283333333","6501000","淡水區"
"249004","440-VK","2018/11/12 18:51:35","新北市八里區挖子尾街12號","121.415351666667","25.1643016666667","6502300","八里區"
"251012","441-VK","2018/11/12 19:19:30","新北市淡水區崁頂61號","121.440186666667","25.2005783333333","6501000","淡水區"
"251007","442-VK","2018/11/12 19:19:17","新北市淡水區民生路145巷36-16號","121.467565","25.1389366666667","6501000","淡水區"
"251006","561-UM","2018/11/12 19:19:34","新北市淡水區大信街33號","121.441988333333","25.1773316666667","6501000","淡水區"
"251003","766-UM","2018/11/12 19:19:19","新北市淡水區中山北路一段204號","121.444625","25.179595","6501000","淡水區"
"207003","550-UM","2018/11/12 19:19:21","新北市萬里區大鵬里萬里加投79-3號","121.64733","25.2123366666667","6502800","萬里區"
"207004","225-TW","2018/11/12 19:19:20","新北市萬里區萬里里成功新村65號","121.688326666667","25.1745733333333","6502800","萬里區"
"252002","178-VK","2018/11/12 19:19:29","新北市三芝區淡金路二段18-1號","121.502658333333","25.2594916666667","6502100","三芝區"
"252001","292-VK","2018/11/12 19:19:23","新北市三芝區長勤街9巷14號","121.501651666667","25.2549583333333","6502100","三芝區"
"237004","KEA-2597","2018/11/12 19:19:15","新北市三峽區有木206號","121.43915","24.8513916666667","6500900","三峽區"
"237007","153-BY","2018/11/12 19:19:32","新北市三峽區二鬮路75號","121.359725","24.907045","6500900","三峽區"
"237009","210-TH","2018/11/12 19:19:25","新北市三峽區民生街231號","121.371188333333","24.934725","6500900","三峽區"
"237013","252-BX","2018/11/12 19:19:22","新北市三峽區大同路39巷33號","121.377901666667","24.9275266666667","6500900","三峽區"
"237012","275-BY","2018/11/12 19:19:23","新北市三峽區三樹路222巷196-35號","121.389683333333","24.9425583333333","6500900","三峽區"
"237008","302-VK","2018/11/12 19:19:24","新北市三峽區光明路106巷73號","121.374923333333","24.9266083333333","6500900","三峽區"
"237014","433-BY","2018/11/12 19:19:25","新北市三峽區中山路184巷2號","121.36399","24.9367133333333","6500900","三峽區"
"237006","5529-G3","2018/11/12 19:19:27","新北市三峽區介壽路二段167號","121.394673333333","24.9360333333333","6500900","三峽區"
"237011","KEA-2596","2018/11/12 19:19:21","新北市三峽區介壽路三段107號","121.395473333333","24.9394416666667","6500900","三峽區"
"237015","649-BX","2018/11/12 19:19:32","新北市三峽區建安73-2號","121.448268333333","24.9264583333333","6500900","三峽區"
"237010","706-TV","2018/11/12 19:19:20","新北市三峽區國光街54號","121.37454","24.9380766666667","6500900","三峽區"
"237005","AKY-6261","2018/11/12 19:19:22","新北市三峽區中山路459巷42號","121.357113333333","24.9374116666667","6500900","三峽區"
"236069","105-UM","2018/11/12 19:19:23","新北市土城區學成路22巷1弄16號","121.452758333333","24.9877783333333","6501300","土城區"
"236042","KED-0685","2018/11/12 19:19:25","新北市土城區學府路一段276號","121.450246666667","24.983265","6501300","土城區"
"236078","166-UM","2018/11/12 19:19:17","新北市土城區中央路四段323號","121.410526666667","24.95108","6501300","土城區"
"236026","269-VK","2018/11/12 19:19:29","新北市土城區中央路二段177巷50號","121.444146666667","24.9760383333333","6501300","土城區"
"236014","270-VK","2018/11/12 19:19:30","新北市土城區學府路一段23巷25弄44號","121.457461666667","24.98614","6501300","土城區"
"236020","401-BY","2018/11/12 19:19:20","新北市土城區峰廷街3號","121.469078333333","24.987315","6501300","土城區"
"236059","912-UM","2018/11/12 19:19:31","新北市土城區光明街28巷30號","121.44137","24.974215","6501300","土城區"
"236048","913-UM","2018/11/12 19:19:37","新北市土城區明德路一段365-1號","121.453641666667","24.9790883333333","6501300","土城區"
"242048","497-BY","2018/11/12 19:19:23","新北市新莊區後港一路3號","121.424123333333","25.0263233333333","6500500","新莊區"
"242023","362-BY","2018/11/12 19:19:31","新北市新莊區新泰路255巷83號","121.442006666667","25.038995","6500500","新莊區"
"242013","173-VK","2018/11/12 19:19:16","新北市新莊區三和路12-21號","121.442023333333","25.0387083333333","6500500","新莊區"
"242001","233-RS","2018/11/12 19:19:28","新北市泰山區中山路二段433號","121.433581666667","25.0449866666667","6500500","新莊區"
"242031","348-TH","2018/11/12 19:19:18","新北市新莊區新泰路357巷3弄57號","121.441823333333","25.0396033333333","6500500","新莊區"
"238015","755-BX","2018/11/12 19:19:32","新北市樹林區備內街57號","121.41146","24.9879266666667","6500700","樹林區"
"238023","601-UM","2018/11/12 19:19:29","新北市樹林區三興路35號","121.396176666667","25.0147133333333","6500700","樹林區"
"238019","599-UM","2018/11/12 19:19:15","新北市樹林區東榮街91巷1弄11號","121.416505","24.9828183333333","6500700","樹林區"
"238024","5061-A6","2018/11/12 19:19:12","新北市樹林區福德街48-14號","121.398705","24.9747583333333","6500700","樹林區"
"238022","KEA-2213","2018/11/12 19:19:35","新北市樹林區中山路二段151巷6弄3號","121.406445","24.9783433333333","6500700","樹林區"
"238021","KEA-2539","2018/11/12 19:19:28","新北市樹林區柑園街二段303巷1號","121.371423333333","24.9503633333333","6500700","樹林區"
"238025","303-VK","2018/11/12 19:19:17","新北市樹林區中山路三段125-1號","121.397248333333","24.9734983333333","6500700","樹林區"
"238017","283-BY","2018/11/12 19:19:26","新北市樹林區光興街158號","121.40707","25.0044783333333","6500700","樹林區"
"238014","282-BY","2018/11/12 19:19:23","新北市樹林區保安二街69號","121.424581666667","24.9949016666667","6500700","樹林區"
"238026","172-UY","2018/11/12 19:19:26","新北市樹林區地政街1號","121.393655","24.971795","6500700","樹林區"
"238016","169-UY","2018/11/12 19:19:31","新北市樹林區中山路二段34-2號","121.417048333333","24.9854416666667","6500700","樹林區"
"239007","AAC-297","2018/11/12 19:19:22","新北市鶯歌區中山路138巷3-2號","121.349616666667","24.9577983333333","6500800","鶯歌區"
"239006","891-R6","2018/11/12 19:19:28","新北市鶯歌區鶯桃路296巷84弄12號","121.337001666667","24.96167","6500800","鶯歌區"
"239008","527-UM","2018/11/12 19:19:28","新北市鶯歌區大湖路534號","121.33741","24.97285","6500800","鶯歌區"
"239005","526-UM","2018/11/12 19:19:21","新北市鶯歌區大湖路361巷24弄14號","121.330076666667","24.977925","6500800","鶯歌區"
"239001","417-VK","2018/11/12 19:19:22","新北市鶯歌區鶯桃路97-3號","121.338996666667","24.9539433333333","6500800","鶯歌區"
"239003","360-BY","2018/11/12 19:19:20","新北市鶯歌區中正二路145號","121.34648","24.950085","6500800","鶯歌區"
"239004","193-VK","2018/11/12 19:19:29","新北市鶯歌區二甲路97-5號","121.332775","24.9321183333333","6500800","鶯歌區"
"221008","489-VK","2018/11/12 19:19:24","新北市汐止區康寧街310號","121.626748333333","25.067245","6501100","汐止區"
"221036","130-UY","2018/11/12 19:19:23","新北市汐止區康寧街901號","121.651645","25.07495","6501100","汐止區"
"221015","131-UY","2018/11/12 19:19:36","新北市汐止區大同路二段645號","121.664701666667","25.0713533333333","6501100","汐止區"
"221010","269-BY","2018/11/12 19:19:28","新北市汐止區康寧街901號","121.65148","25.0750216666667","6501100","汐止區"
"221012","278-VK","2018/11/12 19:19:16","新北市汐止區汐萬路一段310號","121.650338333333","25.0748483333333","6501100","汐止區"
"221027","281-BY","2018/11/12 19:19:25","新北市汐止區汐萬路一段312號","121.650361666667","25.0749966666667","6501100","汐止區"
"221029","298-VK","2018/11/12 19:19:34","新北市汐止區康寧街901號","121.651585","25.07488","6501100","汐止區"
"221021","299-VK","2018/11/12 19:19:26","新北市汐止區康寧街901號","121.651415","25.07504","6501100","汐止區"
"221031","353-TW","2018/11/12 19:19:18","新北市汐止區汐萬路一段256巷3號","121.652485","25.07456","6501100","汐止區"
"221025","623-UM","2018/11/12 19:19:19","新北市汐止區康寧街901號","121.651538333333","25.074995","6501100","汐止區"
"221038","646-BX","2018/11/12 19:19:21","新北市汐止區汐萬路一段312號","121.65068","25.0752683333333","6501100","汐止區"
"221002","707-TV","2018/11/12 19:19:29","新北市汐止區大同路一段337巷17弄1號","121.637408333333","25.0598183333333","6501100","汐止區"
"220079","145-BY","2018/11/12 19:19:36","新北市板橋區民權路202巷17弄7號","121.46043","25.0165466666667","6500100","板橋區"
"220080","200-UY","2018/11/12 19:19:34","新北市板橋區大觀路二段19巷83號","121.44921","25.0028916666667","6500100","板橋區"
"220082","610-BX","2018/11/12 19:19:35","新北市板橋區金門街338號","121.428198333333","24.984585","6500100","板橋區"
"220101","245-BX","2018/11/12 19:19:30","新北市板橋區雙十路二段95號","121.475296666667","25.0276466666667","6500100","板橋區"
"220056","276-BY","2018/11/12 19:19:31","新北市板橋區信義路105-1號","121.457438333333","24.99364","6500100","板橋區"
"220072","277-BY","2018/11/12 19:19:26","新北市板橋區金門街301號","121.430068333333","24.9864566666667","6500100","板橋區"
"220094","283-UM","2018/11/12 19:19:26","新北市板橋區吳鳳路82號","121.467003333333","25.0312283333333","6500100","板橋區"
"220071","283-VK","2018/11/12 19:19:37","新北市板橋區大豐街103號","121.461361666667","25.0011283333333","6500100","板橋區"
"220053","285-VK","2018/11/12 19:19:33","新北市板橋區富山街53巷30號","121.477555","25.0210516666667","6500100","板橋區"
"220083","286-VK","2018/11/12 19:19:34","新北市板橋區大觀路二段174巷166弄8號","121.44219","25.0031816666667","6500100","板橋區"
"220081","287-VK","2018/11/12 19:19:36","新北市板橋區南雅東路89號","121.453216666667","25.0085133333333","6500100","板橋區"
"220090","288-VK","2018/11/12 19:19:18","新北市板橋區長江路一段106巷13弄10號","121.460476666667","25.02925","6500100","板橋區"
"220061","295-UM","2018/11/12 19:19:17","新北市板橋區中山路二段318巷20弄38號","121.481261666667","25.0188166666667","6500100","板橋區"
"220084","296-UM","2018/11/12 19:19:21","新北市板橋區滿平街139號","121.428963333333","24.9880833333333","6500100","板橋區"
"220075","303-R5","2018/11/12 19:19:33","新北市板橋區中正路275巷27號","121.453891666667","25.0182066666667","6500100","板橋區"
"220062","305-R5","2018/11/12 19:19:15","新北市板橋區三民路二段153巷30弄35號","121.481055","25.014615","6500100","板橋區"
"220092","307-R5","2018/11/12 19:19:33","新北市板橋區光武街48巷34號","121.468321666667","25.0270316666667","6500100","板橋區"
"220098","317-R6","2018/11/12 19:19:21","新北市板橋區民有街89巷8弄1號","121.464191666667","25.0273383333333","6500100","板橋區"
"220089","487-VK","2018/11/12 19:19:34","新北市板橋區文化路一段239號","121.4641","25.01778","6500100","板橋區"
"220088","491-VK","2018/11/12 19:19:30","新北市板橋區雙十路一段6號","121.478278333333","25.0240966666667","6500100","板橋區"
"220035","560-BX","2018/11/12 19:19:26","新北市板橋區中正路346號","121.454296666667","25.0236566666667","6500100","板橋區"
"220103","561-BX","2018/11/12 19:19:29","新北市板橋區介壽街22-1號","121.46766","25.0199916666667","6500100","板橋區"
"220063","609-BX","2018/11/12 19:19:30","新北市板橋區三民路二段136-4號","121.479111666667","25.016105","6500100","板橋區"
"220091","637-BX","2018/11/12 19:19:30","新北市板橋區大同街52號","121.478825","25.0275966666667","6500100","板橋區"
"220057","686-BX","2018/11/12 19:19:28","新北市板橋區國慶路256號","121.463601666667","24.998155","6500100","板橋區"
"220077","687-BX","2018/11/12 19:19:31","新北市板橋區僑中二街10巷1號","121.446928333333","25.0107733333333","6500100","板橋區"
"220093","689-BX","2018/11/12 19:19:33","新北市板橋區漢生西路93號","121.462566666667","25.0197966666667","6500100","板橋區"
"220054","741-BX","2018/11/12 19:19:21","新北市板橋區重慶路155巷41號","121.463688333333","25.0041033333333","6500100","板橋區"
"220102","KEA-2699","2018/11/12 19:19:37","新北市板橋區文聖街207號","121.479785","25.0263166666667","6500100","板橋區"
"220055","827-TW","2018/11/12 19:19:20","新北市板橋區館前東路156巷30號","121.464248333333","25.00685","6500100","板橋區"
"220067","829-TW","2018/11/12 19:19:27","新北市板橋區長安街138巷7弄65號","121.474206666667","25.0094783333333","6500100","板橋區"
"220068","830-TW","2018/11/12 19:19:38","新北市板橋區三民路一段1巷49-1號","121.480818333333","25.0248766666667","6500100","板橋區"
"220096","831-TW","2018/11/12 19:19:27","新北市板橋區大同街26巷35號","121.478543333333","25.0263116666667","6500100","板橋區"
"220064","833-TW","2018/11/12 19:19:18","新北市板橋區縣民大道二段101號","121.466088333333","25.0151166666667","6500100","板橋區"
"220074","895-R6","2018/11/12 19:19:35","新北市板橋區中正路39巷15號","121.454878333333","25.0130783333333","6500100","板橋區"
"220073","985-R7","2018/11/12 19:19:34","新北市板橋區新生街37號","121.456693333333","25.0210933333333","6500100","板橋區"
"220097","AAC-210","2018/11/12 19:19:39","新北市板橋區幸福路60巷57號","121.460181666667","25.0214833333333","6500100","板橋區"
"220070","AAC-253","2018/11/12 19:19:32","新北市板橋區忠孝路68號","121.461251666667","25.0018866666667","6500100","板橋區"
"235068","KEA-2873","2018/11/12 19:19:34","新北市中和區連城路89巷64號","121.49783","24.99834","6500300","中和區"
"235061","KEA-2875","2018/11/12 19:19:33","新北市中和區員山路238號","121.481308333333","25.001295","6500300","中和區"
