"lineid","car","time","location","longitude","latitude","cityid","cityname"
"234046","148-BY","2018/11/12 20:09:25","新北市永和區得和路415號","121.525726666667","24.9992016666667","6500400","永和區"
"234007","207-UY","2018/11/12 20:09:30","新北市永和區保順路37巷13號","121.502953333333","25.0103433333333","6500400","永和區"
"234081","298-R6","2018/11/12 20:09:29","新北市永和區國中路96號","121.524348333333","25.006275","6500400","永和區"
"234038","336-UY","2018/11/12 20:09:30","新北市永和區成功路一段47巷8號","121.527545","25.0039766666667","6500400","永和區"
"234064","337-UY","2018/11/12 20:09:22","新北市永和區秀朗路二段43號","121.52148","25.0023833333333","6500400","永和區"
"234086","338-UY","2018/11/12 20:09:25","新北市永和區福和路59號","121.522998333333","25.007955","6500400","永和區"
"234070","552-UM","2018/11/12 20:09:34","新北市永和區福和路183巷1號","121.520041666667","25.0072733333333","6500400","永和區"
"234017","745-BX","2018/11/12 20:09:25","新北市永和區文化路82號","121.514","25.0151633333333","6500400","永和區"
"234030","746-BX","2018/11/12 20:09:31","新北市永和區民權路49巷39號","121.522093333333","24.9976533333333","6500400","永和區"
"234054","KEA-2590","2018/11/12 20:09:21","新北市永和區博愛街15號","121.517156666667","25.0158066666667","6500400","永和區"
"234013","KEA-2591","2018/11/12 20:09:34","新北市永和區永貞路415號","121.507413333333","25.0093316666667","6500400","永和區"
"234061","AAD-866","2018/11/12 20:09:21","新北市永和區安樂路58巷16號","121.515365","24.9982","6500400","永和區"
"234042","862-TW","2018/11/12 20:09:26","新北市永和區雙和街43號","121.508923333333","25.00294","6500400","永和區"
"234050","863-TW","2018/11/12 20:09:29","新北市永和區保安路292號","121.505126666667","25.0118866666667","6500400","永和區"
"234026","9371-KE","2018/11/12 20:09:34","新北市永和區保生路36號","121.506268333333","25.0079216666667","6500400","永和區"
"234011","9373-KE","2018/11/12 20:09:19","新北市永和區仁愛路352巷126號","121.500101666667","25.008565","6500400","永和區"
"249005","172-UM","2018/11/12 20:09:24","新北市八里區下罟子50-1號","121.383245","25.1384016666667","6502300","八里區"
"249001","173-UM","2018/11/12 20:09:23","新北市八里區中華路二段326號","121.40328","25.147895","6502300","八里區"
"249004","303-UY","2018/11/12 20:09:36","新北市八里區中山路一段418-7號","121.410733333333","25.1583316666667","6502300","八里區"
"249002","305-UY","2018/11/12 20:08:41","新北市五股區成泰路四段22巷29-5號","121.455353333333","25.108765","6502300","八里區"
"249003","593-UM","2018/11/12 20:09:31","新北市八里區中山路二段540巷9弄2號","121.396915","25.14708","6502300","八里區"
"248016","026-BX","2018/11/12 20:09:28","新北市五股區凌雲路一段158巷44號","121.4471","25.1038266666667","6501500","五股區"
"248018","225-UY","2018/11/12 20:09:28","新北市五股區登林路118-1號","121.417471666667","25.0745566666667","6501500","五股區"
"248009","272-BY","2018/11/12 20:09:20","新北市五股區成泰路一段7巷38-1號","121.432445","25.0673833333333","6501500","五股區"
"248012","655-BX","2018/11/12 20:09:29","新北市五股區六合街118號","121.430261666667","25.090825","6501500","五股區"
"248004","677-BX","2018/11/12 20:09:32","新北市五股區成泰路一段210號","121.436151666667","25.079175","6501500","五股區"
"248002","678-BX","2018/11/12 20:09:23","新北市五股區成泰路三段355號","121.448645","25.095545","6501500","五股區"
"234023","9380-KE","2018/11/12 20:09:25","新北市永和區永和路二段116號","121.515086666667","25.0120616666667","6500400","永和區"
"234077","969-R7","2018/11/12 20:09:27","新北市永和區智光街107巷8號","121.515688333333","24.9960416666667","6500400","永和區"
"234074","AAC-211","2018/11/12 20:09:38","新北市永和區豫溪街185號","121.522498333333","25.010335","6500400","永和區"
"234067","AAC-212","2018/11/12 20:09:33","新北市永和區保平路236巷12弄5號","121.508675","25.0065166666667","6500400","永和區"
"234003","AAC-295","2018/11/12 20:09:23","新北市永和區中正路618號","121.516971666667","25.0076633333333","6500400","永和區"
"243013","AAD-798","2018/11/12 20:09:15","新北市泰山區明志路三段74巷7號","121.424456666667","25.0417066666667","6501600","泰山區"
"243009","297-R6","2018/11/12 20:09:21","新北市泰山區泰林路二段138號","121.434271666667","25.0597616666667","6501600","泰山區"
"243016","KEA-2801","2018/11/12 20:09:22","新北市泰山區明志路三段405號","121.421238333333","25.0340216666667","6501600","泰山區"
"243015","421-VK","2018/11/12 20:09:29","新北市泰山區明志路一段320號","121.431381666667","25.0592516666667","6501600","泰山區"
"243011","KEA-2215","2018/11/12 20:09:19","新北市泰山區明志路三段440號","121.420911666667","25.0328316666667","6501600","泰山區"
"243010","KEA-2216","2018/11/12 20:09:21","新北市泰山區明志路二段214巷16弄41號","121.426891666667","25.05044","6501600","泰山區"
"243012","646-TV","2018/11/12 20:09:33","新北市泰山區楓江路86巷9號","121.437385","25.06278","6501600","泰山區"
"243014","680-BX","2018/11/12 20:09:35","新北市泰山區明志路一段147號","121.433345","25.062805","6501600","泰山區"
"222003","436-BY","2018/11/12 20:09:27","新北市深坑區埔新街60號","121.620185","25.002475","6501800","深坑區"
"222002","659-BX","2018/11/12 20:09:18","新北市深坑區北深路三段16號","121.609575","25.0010766666667","6501800","深坑區"
"231041","002-UM","2018/11/12 20:09:32","新北市新店區中正路460號","121.534021666667","24.9793916666667","6500600","新店區"
"231059","046-UY","2018/11/12 20:09:33","新北市新店區安成街24號","121.51023","24.9608833333333","6500600","新店區"
"231040","047-UY","2018/11/12 20:09:20","新北市新店區中正路110號","121.542986666667","24.9707266666667","6500600","新店區"
"231044","106-UY","2018/11/12 20:09:24","新北市新店區寶慶街66號","121.542005","24.98685","6500600","新店區"
"231052","108-UY","2018/11/12 20:09:31","新北市新店區新烏路三段寶島巷12號","121.552001666667","24.8987183333333","6500600","新店區"
"231062","110-UY","2018/11/12 20:09:21","新北市新店區安康路一段61號","121.530611666667","24.9607866666667","6500600","新店區"
"231047","187-VK","2018/11/12 20:09:26","新北市新店區永華街34號","121.544691666667","24.97545","6500600","新店區"
"231054","KEA-2219","2018/11/12 20:09:39","新北市新店區檳榔路15-2號","121.541386666667","24.96421","6500600","新店區"
"231057","256-BX","2018/11/12 20:09:34","新北市新店區花園一路一段2號","121.55315","24.9324416666667","6500600","新店區"
"231042","268-BY","2018/11/12 20:09:38","新北市新店區中興路二段89號","121.547065","24.9713866666667","6500600","新店區"
"231051","278-BY","2018/11/12 20:09:32","新北市新店區中央五街3-2號","121.530353333333","24.9744183333333","6500600","新店區"
"231050","AAD-862","2018/11/12 20:09:26","新北市新店區北新路一段90號","121.541918333333","24.9686383333333","6500600","新店區"
"231056","4715-K9","2018/11/12 20:09:38","新北市新店區中正路275巷35號","121.536648333333","24.9726733333333","6500600","新店區"
"231067","4772-VM","2018/11/12 20:09:31","新北市新店區溪洲路54號","121.532766666667","24.96139","6500600","新店區"
"231065","512-UM","2018/11/12 20:09:34","新北市新店區安祥路106巷159號","121.473618333333","24.9591466666667","6500600","新店區"
"231049","513-UM","2018/11/12 20:09:28","新北市新店區北新路二段171巷4號","121.542223333333","24.97665","6500600","新店區"
"231045","618-UM","2018/11/12 20:09:28","新北市新店區北宜路一段144號","121.540138333333","24.9541416666667","6500600","新店區"
"231061","619-UM","2018/11/12 20:09:37","新北市新店區安民街381號","121.516296666667","24.9763833333333","6500600","新店區"
"231063","641-BX","2018/11/12 20:09:25","新北市新店區黎明路57巷1號","121.502396666667","24.94787","6500600","新店區"
"231068","718-UY","2018/11/12 20:09:18","新北市新店區中興路三段88號","121.545373333333","24.97887","6500600","新店區"
"231064","719-UM","2018/11/12 19:59:20","新北市新店區安民街36號","121.515841666667","24.9652366666667","6500600","新店區"
"231060","897-TW","2018/11/12 20:09:19","新北市新店區安康路三段451號","121.483058333333","24.9496933333333","6500600","新店區"
"231043","899-TW","2018/11/12 20:09:31","新北市新店區民族路184號","121.536868333333","24.9761466666667","6500600","新店區"
"241011","013-R5","2018/11/12 20:09:32","新北市三重區秀江街232-1號","121.496525","25.071475","6500200","三重區"
"241028","022-UY","2018/11/12 20:09:35","新北市三重區仁化街152號","121.49471","25.0575533333333","6500200","三重區"
"241008","059-VK","2018/11/12 20:09:25","新北市三重區永福街197巷37弄3號","121.478195","25.074275","6500200","三重區"
"241022","060-VK","2018/11/12 20:09:37","新北市三重區重陽路二段13號","121.486965","25.062215","6500200","三重區"
"241031","061-VK","2018/11/12 20:09:26","新北市三重區過圳街9-1號","121.488746666667","25.0600766666667","6500200","三重區"
"241015","062-VK","2018/11/12 20:09:30","新北市三重區福德北路41號","121.502386666667","25.06485","6500200","三重區"
"241017","063-VK","2018/11/12 20:09:25","新北市三重區大智街108號","121.493213333333","25.0666916666667","6500200","三重區"
"241024","065-VK","2018/11/12 20:09:19","新北市三重區力行路一段178巷16號","121.48145","25.0713583333333","6500200","三重區"
"241026","066-VK","2018/11/12 20:09:27","新北市三重區福德南路65巷2號","121.50237","25.0604766666667","6500200","三重區"
"241002","090-VK","2018/11/12 20:09:27","新北市三重區五華街35巷50號","121.495533333333","25.08175","6500200","三重區"
"241003","091-VK","2018/11/12 20:09:36","新北市三重區仁愛街476號","121.489576666667","25.0824016666667","6500200","三重區"
"251014","742-BX","2018/11/12 20:09:28","新北市淡水區石頭厝1號","121.458703333333","25.2355066666667","6501000","淡水區"
"241005","262-UM","2018/11/12 20:09:20","新北市三重區五華街180巷29號","121.488076666667","25.08546","6500200","三重區"
"241016","266-UM","2018/11/12 20:09:23","新北市三重區正義北路48巷74號","121.495573333333","25.0633816666667","6500200","三重區"
"241009","267-UM","2018/11/12 20:09:35","新北市三重區永福街33號","121.481518333333","25.0781033333333","6500200","三重區"
"241018","268-UM","2018/11/12 20:09:37","新北市三重區正義北路232號","121.49586","25.067765","6500200","三重區"
"241032","269-UM","2018/11/12 20:09:31","新北市三重區捷運路67號","121.48339","25.0555433333333","6500200","三重區"
"241013","270-UM","2018/11/12 20:09:16","新北市三重區三和路三段151巷41號","121.493805","25.074275","6500200","三重區"
"241025","271-UM","2018/11/12 20:09:26","新北市三重區中正北路340號","121.478336666667","25.0692816666667","6500200","三重區"
"241035","KEA-2210","2018/11/12 20:09:21","新北市三重區平安街44號","121.49796","25.0641316666667","6500200","三重區"
"241004","475-VK","2018/11/12 20:09:16","新北市三重區自強路四段112號","121.491641666667","25.0801933333333","6500200","三重區"
"241020","478-VK","2018/11/12 20:09:24","新北市三重區後竹圍街2巷2號","121.49189","25.0734366666667","6500200","三重區"
"241014","543-UM","2018/11/12 20:09:19","新北市三重區長樂街54號","121.500496666667","25.069285","6500200","三重區"
"241023","545-UM","2018/11/12 20:09:32","新北市三重區頂崁街216號","121.476963333333","25.0678516666667","6500200","三重區"
"241001","547-UM","2018/11/12 20:09:25","新北市三重區溪尾街26號","121.490945","25.0763733333333","6500200","三重區"
"241019","KEA-2593","2018/11/12 20:09:21","新北市三重區自強路二段33巷58號","121.490808333333","25.069945","6500200","三重區"
"241006","AAD-863","2018/11/12 20:09:05","新北市三重區力行路二段91巷1弄6號","121.482863333333","25.075815","6500200","三重區"
"241030","743-BX","2018/11/12 20:09:18","新北市三重區成功路145巷32號","121.487586666667","25.0532283333333","6500200","三重區"
"241007","887-TS","2018/11/12 20:09:25","新北市三重區三和路四段111-12號","121.486786666667","25.0776316666667","6500200","三重區"
"241012","941-UM","2018/11/12 20:09:20","新北市三重區仁愛街125巷36號","121.497933333333","25.0759583333333","6500200","三重區"
"241029","942-UM","2018/11/12 20:09:29","新北市三重區光明路32巷28號","121.492023333333","25.058735","6500200","三重區"
"241033","AAC-255","2018/11/12 20:09:35","新北市三重區光復路一段61巷12號","121.472641666667","25.0493283333333","6500200","三重區"
"235066","003-UY","2018/11/12 20:09:19","新北市中和區水源路127巷2號","121.508086666667","25.0037666666667","6500300","中和區"
"235039","097-UM","2018/11/12 20:09:39","新北市中和區大勇街31巷13弄13號","121.517403333333","24.9940383333333","6500300","中和區"
"235065","098-UM","2018/11/12 20:09:26","新北市中和區永和路90巷9號","121.49764","25.0060633333333","6500300","中和區"
"235040","150-BY","2018/11/12 20:09:32","新北市中和區景安路29號","121.507708333333","24.9986933333333","6500300","中和區"
"235042","KEA-2878","2018/11/12 20:09:36","新北市新店區薏仁坑路自強巷1號","121.497336666667","24.9577983333333","6500300","中和區"
"247012","KEA-2869","2018/11/12 20:09:24","新北市蘆洲區民族路248號","121.479208333333","25.0886916666667","6501400","蘆洲區"
"235050","4979-A6","2018/11/12 20:09:35","新北市中和區安樂路1號","121.511655","24.9918616666667","6500300","中和區"
"235069","4980-A6","2018/11/12 20:09:24","新北市中和區景新街34巷10號","121.50327","24.99903","6500300","中和區"
"235070","558-UM","2018/11/12 20:09:20","新北市中和區錦和路91-1號","121.490018333333","24.9956916666667","6500300","中和區"
"235048","896-TW","2018/11/12 20:09:35","新北市中和區景新街357號","121.512055","24.9908433333333","6500300","中和區"
"235051","157-BY","2018/11/12 20:09:33","新北市中和區復興路280巷19號","121.502165","24.9915383333333","6500300","中和區"
"235037","AAC-213","2018/11/12 20:09:32","新北市中和區秀朗路三段128巷17弄41號","121.522868333333","24.993205","6500300","中和區"
"235059","AAC-215","2018/11/12 20:09:24","新北市中和區圓通路335巷33弄33號","121.493721666667","24.9887866666667","6500300","中和區"
"220086","073-UY","2018/11/12 20:09:26","新北市五股區凌雲路三段24巷7號","121.437976666667","25.106425","6500100","板橋區"
"220106","075-UY","2018/11/12 20:09:18","新北市板橋區長江路三段62號","121.47366","25.033775","6500100","板橋區"
"247002","893-R6","2018/11/12 20:09:33","新北市蘆洲區永康街2巷8號","121.459351666667","25.08618","6501400","蘆洲區"
"247024","500-BY","2018/11/12 20:09:33","新北市蘆洲區光明路102號","121.463395","25.0880566666667","6501400","蘆洲區"
"247014","339-TH","2018/11/12 20:09:32","新北市蘆洲區中山二路261號","121.469856666667","25.0797","6501400","蘆洲區"
"247006","337-TH","2018/11/12 20:09:20","新北市蘆洲區中山二路300巷2號","121.468626666667","25.0770083333333","6501400","蘆洲區"
"247020","057-VK","2018/11/12 20:09:32","新北市蘆洲區民義街68巷32號","121.474036666667","25.0892266666667","6501400","蘆洲區"
"247010","056-VK","2018/11/12 20:09:36","新北市蘆洲區信義路154號","121.479351666667","25.0833666666667","6501400","蘆洲區"
"247008","053-VK","2018/11/12 20:09:26","新北市蘆洲區中山一路197巷1號","121.474588333333","25.0808716666667","6501400","蘆洲區"
"247018","007-UY","2018/11/12 20:09:25","新北市蘆洲區民族路314巷5號","121.477565","25.0903433333333","6501400","蘆洲區"
"247004","002-UY","2018/11/12 20:09:35","新北市蘆洲區永安南路二段328巷15弄15號","121.455863333333","25.0835716666667","6501400","蘆洲區"
"247022","001-UY","2018/11/12 20:09:24","新北市蘆洲區三民路171巷4號","121.470685","25.0870433333333","6501400","蘆洲區"
"226004","312-R5","2018/11/12 20:09:36","新北市平溪區十分里十分街66巷8號","121.775253333333","25.0422566666667","6502400","平溪區"
"224010","AGQ-8101","2018/11/12 20:09:36","新北市瑞芳區基山街2號","121.844948333333","25.109735","6501200","瑞芳區"
"224002","639-TC","2018/11/12 20:09:29","新北市瑞芳區蛇子形路7號","121.825998333333","25.10499","6501200","瑞芳區"
"222001","KEA-2212","2018/11/12 20:09:29","新北市深坑區北深路三段212號","121.601186666667","25.003765","6501800","深坑區"
"251009","008-UM","2018/11/12 20:09:31","新北市淡水區清水街1-5號","121.445316666667","25.17035","6501000","淡水區"
"251005","010-UM","2018/11/12 20:09:25","新北市淡水區學府路116號","121.450175","25.17233","6501000","淡水區"
"251001","011-UM","2018/11/12 20:09:27","新北市淡水區淡金路二段15號","121.446098333333","25.1892033333333","6501000","淡水區"
"251002","012-UM","2018/11/12 20:09:18","新北市淡水區中正路334號","121.435806666667","25.1731216666667","6501000","淡水區"
"251013","KEA-2871","2018/11/12 20:09:31","新北市淡水區奎柔山路381號","121.461968333333","25.204795","6501000","淡水區"
"251016","179-VK","2018/11/12 20:09:22","新北市淡水區番子田18-11號","121.45577","25.2302666666667","6501000","淡水區"
"251008","180-VK","2018/11/12 20:09:31","新北市淡水區淡海路72巷30弄3號","121.424568333333","25.1825083333333","6501000","淡水區"
"251015","182-VK","2018/11/12 20:09:21","新北市淡水區淡金路二段600號","121.446691666667","25.1925166666667","6501000","淡水區"
"251010","413-VK","2018/11/12 20:09:25","新北市淡水區後洲路一段157號","121.427768333333","25.1980833333333","6501000","淡水區"
"251012","441-VK","2018/11/12 20:09:36","新北市淡水區淡金路三段282號","121.44886","25.2072416666667","6501000","淡水區"
"251004","443-VK","2018/11/12 20:09:36","新北市淡水區民族路31巷39號","121.462035","25.136645","6501000","淡水區"
"251006","561-UM","2018/11/12 20:09:34","新北市淡水區北新路141巷29號","121.44821","25.179575","6501000","淡水區"
"251003","766-UM","2018/11/12 20:09:18","新北市淡水區中山北路二段189巷15弄29號","121.443353333333","25.1842966666667","6501000","淡水區"
"207003","550-UM","2018/11/12 20:09:21","新北市萬里區大鵬里萬里加投186號","121.642826666667","25.21564","6502800","萬里區"
"207004","225-TW","2018/11/12 20:09:20","新北市萬里區北基里孝七街29號","121.682493333333","25.1766916666667","6502800","萬里區"
"252002","178-VK","2018/11/12 20:09:29","新北市三芝區中正路一段72號","121.50392","25.25764","6502100","三芝區"
"252001","292-VK","2018/11/12 20:09:23","新北市三芝區公正街9號","121.49964","25.25764","6502100","三芝區"
"237007","153-BY","2018/11/12 20:09:32","新北市三峽區大智路69號","121.36091","24.9357116666667","6500900","三峽區"
"237012","275-BY","2018/11/12 20:09:22","新北市三峽區中正路一段216巷1弄3號","121.371788333333","24.9278166666667","6500900","三峽區"
"237014","433-BY","2018/11/12 20:09:05","新北市三峽區正義街76號","121.368968333333","24.9180183333333","6500900","三峽區"
"237006","5529-G3","2018/11/12 20:09:27","新北市三峽區嘉添109-11號","121.369246666667","24.9097033333333","6500900","三峽區"
"237011","KEA-2596","2018/11/12 20:09:21","新北市樹林區柑園街二段363巷15號","121.368995","24.9462966666667","6500900","三峽區"
"237015","649-BX","2018/11/12 20:09:32","新北市三峽區介壽路二段138巷45-2號","121.395236666667","24.9331366666667","6500900","三峽區"
"237010","706-TV","2018/11/12 20:09:20","新北市樹林區柑園街二段237號","121.37514","24.9522116666667","6500900","三峽區"
"237005","AKY-6261","2018/11/12 20:09:22","新北市三峽區三樹路98巷72-2號","121.384266666667","24.9388533333333","6500900","三峽區"
"236069","105-UM","2018/11/12 20:09:23","新北市土城區中央路三段185-6號","121.431721666667","24.964815","6501300","土城區"
"236042","KED-0685","2018/11/12 20:09:25","新北市土城區學府路一段122-2號","121.455431666667","24.98747","6501300","土城區"
"236078","166-UM","2018/11/12 20:09:17","新北市土城區民族街26號","121.418808333333","24.9632566666667","6501300","土城區"
"236030","253-BX","2018/11/12 20:09:18","新北市土城區中央路一段118巷1弄4號","121.446023333333","24.9881183333333","6501300","土城區"
"236026","269-VK","2018/11/12 20:09:28","新北市土城區裕生路102巷20號","121.446305","24.984835","6501300","土城區"
"236014","270-VK","2018/11/12 20:09:30","新北市土城區德興街137號","121.45514","24.99171","6501300","土城區"
"236039","271-VK","2018/11/12 20:09:36","新北市土城區延吉街353巷8號","121.464541666667","24.9834933333333","6501300","土城區"
"236020","401-BY","2018/11/12 20:09:20","新北市土城區延吉街109號","121.471338333333","24.986645","6501300","土城區"
"236059","912-UM","2018/11/12 20:09:31","新北市土城區中央路二段223-5號","121.44058","24.9734366666667","6501300","土城區"
"236048","913-UM","2018/11/12 20:09:37","新北市土城區清水路255號","121.462783333333","24.98419","6501300","土城區"
"236055","AAC-216","2018/11/12 20:09:22","新北市土城區中華路一段178號","121.441161666667","24.9826016666667","6501300","土城區"
"242036","AAC-296","2018/11/12 20:08:51","新北市新莊區後港一路130巷19號","121.4298","25.0265383333333","6500500","新莊區"
"242058","986-R7","2018/11/12 20:09:36","新北市新莊區八德街169號","121.423291666667","25.0190833333333","6500500","新莊區"
"242025","613-BX","2018/11/12 20:09:35","新北市新莊區五權一路12巷25弄19號","121.458596666667","25.0646866666667","6500500","新莊區"
"242029","612-BX","2018/11/12 20:09:22","新北市新莊區中原路263號","121.448423333333","25.054305","6500500","新莊區"
"242044","566-BX","2018/11/12 20:09:32","新北市新莊區萬壽路一段21巷25號","121.410825","25.0199583333333","6500500","新莊區"
"242048","497-BY","2018/11/12 20:09:23","新北市新莊區四維路152巷32號","121.421963333333","25.0224516666667","6500500","新莊區"
"242056","442-UM","2018/11/12 20:09:33","新北市新莊區新莊路649巷15弄3號","121.445105","25.0315216666667","6500500","新莊區"
"242053","441-UM","2018/11/12 20:09:29","新北市新莊區西盛街384號","121.4279","25.0130266666667","6500500","新莊區"
"242039","415-TV","2018/11/12 20:09:39","新北市新莊區民安西路109號","121.426803333333","25.0183883333333","6500500","新莊區"
"242009","413-TV","2018/11/12 20:09:23","新北市新莊區昌隆街30號","121.454131666667","25.050795","6500500","新莊區"
"242023","362-BY","2018/11/12 20:09:25","新北市新莊區化成路652號","121.46601","25.055725","6500500","新莊區"
"242060","353-BY","2018/11/12 20:09:26","新北市新莊區瓊林路100巷1號","121.443481666667","25.026425","6500500","新莊區"
"242011","132-UY","2018/11/12 20:09:36","新北市新莊區中信街52號","121.449276666667","25.0508583333333","6500500","新莊區"
"242042","133-UY","2018/11/12 20:09:31","新北市新莊區新北大道七段372號","121.413395","25.0302516666667","6500500","新莊區"
"242050","172-VK","2018/11/12 20:09:26","新北市新莊區民安西路172巷2弄2號","121.42582","25.015985","6500500","新莊區"
"242013","173-VK","2018/11/12 20:09:36","新北市新莊區幸福路710巷1弄2號","121.449673333333","25.04963","6500500","新莊區"
"242019","175-VK","2018/11/12 20:09:24","新北市新莊區博愛路4巷2號","121.456458333333","25.0429966666667","6500500","新莊區"
"242007","176-VK","2018/11/12 20:09:30","新北市新莊區福壽街164巷19號","121.459296666667","25.0528716666667","6500500","新莊區"
"242001","233-RS","2018/11/12 19:53:32","新北市泰山區中山路二段433號","121.433266666667","25.0449566666667","6500500","新莊區"
"242017","346-TH","2018/11/12 20:09:35","新北市新莊區中港一街4號","121.451858333333","25.0457133333333","6500500","新莊區"
"242046","347-TH","2018/11/12 20:09:31","新北市新莊區裕民街120號","121.418123333333","25.0227266666667","6500500","新莊區"
"242031","348-TH","2018/11/12 20:09:35","新北市新莊區中正路483號","121.441178333333","25.03377","6500500","新莊區"
"242004","349-TH","2018/11/12 20:09:34","新北市新莊區化成路552號","121.4664","25.0538383333333","6500500","新莊區"
"242021","350-TH","2018/11/12 20:09:30","新北市新莊區建中街48巷10弄10號","121.448438333333","25.0384633333333","6500500","新莊區"
"242015","351-TH","2018/11/12 20:09:30","新北市新莊區中平路26巷25號","121.44617","25.0433","6500500","新莊區"
"239006","891-R6","2018/11/12 20:09:27","新北市鶯歌區文化路79號","121.357611666667","24.9557333333333","6500800","鶯歌區"
"221008","489-VK","2018/11/12 20:09:24","新北市汐止區忠三街9巷32號","121.624493333333","25.0802416666667","6501100","汐止區"
"221036","130-UY","2018/11/12 20:09:23","新北市汐止區新台五路二段108號","121.662626666667","25.0660766666667","6501100","汐止區"
"221015","131-UY","2018/11/12 20:09:36","新北市汐止區建成路37巷3號","121.663606666667","25.0727416666667","6501100","汐止區"
"221010","269-BY","2018/11/12 20:09:28","新北市汐止區連峰街225巷36號","121.643011666667","25.0815566666667","6501100","汐止區"
"221012","278-VK","2018/11/12 20:09:16","新北市汐止區汐平路一段59號","121.682625","25.0704783333333","6501100","汐止區"
"221032","280-BY","2018/11/12 20:09:27","新北市汐止區弘道街8巷5弄2號","121.617155","25.0478316666667","6501100","汐止區"
"221027","281-BY","2018/11/12 20:09:26","新北市汐止區民生街4巷2號","121.660191666667","25.0687933333333","6501100","汐止區"
"221029","298-VK","2018/11/12 20:09:34","新北市汐止區樟樹一路119巷10弄1號","121.641213333333","25.0644983333333","6501100","汐止區"
"221021","299-VK","2018/11/12 20:09:26","新北市汐止區新台五路一段159號","121.653928333333","25.0624366666667","6501100","汐止區"
"221031","353-TW","2018/11/12 20:09:18","新北市汐止區原興路74巷1號","121.632","25.0663333333333","6501100","汐止區"
"221035","622-UM","2018/11/12 20:09:24","新北市汐止區長江街67巷2弄2號","121.656738333333","25.0722166666667","6501100","汐止區"
"221025","623-UM","2018/11/12 20:09:19","新北市汐止區秀峰路77號","121.659955","25.0643416666667","6501100","汐止區"
"221038","646-BX","2018/11/12 20:09:20","新北市汐止區大同路三段66號","121.66799","25.077205","6501100","汐止區"
"221033","647-BX","2018/11/12 20:09:30","新北市汐止區東勢街201巷129弄2號","121.633458333333","25.0428133333333","6501100","汐止區"
"221002","707-TV","2018/11/12 20:09:29","新北市汐止區福德一路2巷1號","121.638913333333","25.0698866666667","6501100","汐止區"
"221018","753-BX","2018/11/12 20:09:16","新北市汐止區茄福街35巷31號","121.673316666667","25.0663733333333","6501100","汐止區"
"220080","200-UY","2018/11/12 20:09:30","新北市板橋區大觀路二段179巷8號","121.445301666667","24.9999033333333","6500100","板橋區"
"220101","245-BX","2018/11/12 20:09:30","新北市板橋區雙十路二段47巷2弄13號","121.475645","25.026625","6500100","板橋區"
"220053","285-VK","2018/11/12 20:09:36","新北市板橋區懷仁街62號","121.477028333333","25.0187266666667","6500100","板橋區"
"220083","286-VK","2018/11/12 20:09:24","新北市板橋區僑中二街88巷25號","121.445001666667","25.0095266666667","6500100","板橋區"
"220081","287-VK","2018/11/12 20:09:36","新北市板橋區僑中一街124巷18弄19號","121.446975","25.013665","6500100","板橋區"
"220090","288-VK","2018/11/12 20:09:38","新北市板橋區新海路413號","121.458403333333","25.027145","6500100","板橋區"
"220061","295-UM","2018/11/12 20:09:37","新北市板橋區中山路二段25號","121.472506666667","25.0152366666667","6500100","板橋區"
"242002","281-VK","2018/11/12 20:09:25","新北市新莊區中正路55-4號","121.46188","25.039725","6500500","新莊區"
"220092","307-R5","2018/11/12 20:06:12","新北市板橋區新海路137號","121.460321666667","25.0234783333333","6500100","板橋區"
"220098","317-R6","2018/11/12 20:09:21","新北市板橋區新海路72巷5弄22號","121.46177","25.022715","6500100","板橋區"
"220089","487-VK","2018/11/12 20:09:27","新北市板橋區四維路133號","121.464983333333","25.0251616666667","6500100","板橋區"
"242034","280-VK","2018/11/12 20:09:35","新北市新莊區建中街131號","121.445351666667","25.036485","6500500","新莊區"
"220088","491-VK","2018/11/12 20:09:27","新北市板橋區民治街59號","121.479536666667","25.0332616666667","6500100","板橋區"
"220103","561-BX","2018/11/12 20:09:29","新北市板橋區自由路26巷25號","121.466736666667","25.0225116666667","6500100","板橋區"
"220057","686-BX","2018/11/12 20:09:28","新北市板橋區四川路二段80號","121.45216","24.9947533333333","6500100","板橋區"
"220093","689-BX","2018/11/12 20:09:33","新北市板橋區長江路一段132號","121.460371666667","25.0299683333333","6500100","板橋區"
"220054","741-BX","2018/11/12 20:09:21","新北市板橋區實踐路93巷17號","121.464875","25.0054616666667","6500100","板橋區"
"220102","KEA-2699","2018/11/12 20:09:33","新北市板橋區民治街124號","121.477908333333","25.0310116666667","6500100","板橋區"
"220055","827-TW","2018/11/12 20:09:37","新北市板橋區重慶路290巷11號","121.461048333333","24.9986266666667","6500100","板橋區"
"220067","829-TW","2018/11/12 20:09:27","新北市板橋區中山路一段208號","121.469875","25.0137733333333","6500100","板橋區"
"220068","830-TW","2018/11/12 20:09:33","新北市板橋區中山路二段447號","121.481521666667","25.0201416666667","6500100","板橋區"
"220074","895-R6","2018/11/12 20:09:35","新北市板橋區明德街22號","121.460108333333","25.01092","6500100","板橋區"
"220097","AAC-210","2018/11/12 20:09:19","新北市板橋區光正街9巷2弄2號","121.462813333333","25.016915","6500100","板橋區"
"220070","AAC-253","2018/11/12 20:09:32","新北市板橋區四川路二段245巷55弄1號","121.452396666667","24.9925766666667","6500100","板橋區"
"235068","KEA-2873","2018/11/12 20:09:33","新北市中和區景平路722-2號","121.496736666667","25.0030716666667","6500300","中和區"
