"lineid","car","time","location","longitude","latitude","cityid","cityname"
"234007","207-UY","2018/11/12 20:19:30","新北市永和區環河西路二段229巷5號","121.501553333333","25.0099","6500400","永和區"
"234081","298-R6","2018/11/12 20:19:28","新北市永和區福和路19巷1弄5號","121.524306666667","25.0078733333333","6500400","永和區"
"234038","336-UY","2018/11/12 20:19:30","新北市永和區成功路一段91號","121.526921666667","25.0027833333333","6500400","永和區"
"234064","337-UY","2018/11/12 20:19:22","新北市永和區得和路124號","121.518673333333","25.0001916666667","6500400","永和區"
"234086","338-UY","2018/11/12 20:19:39","新北市永和區中正路628號","121.51694","25.0080066666667","6500400","永和區"
"234070","552-UM","2018/11/12 20:19:34","新北市永和區福和路263巷13號","121.51801","25.0065883333333","6500400","永和區"
"234017","745-BX","2018/11/12 20:19:25","新北市永和區仁愛路54-1號","121.513585","25.0134266666667","6500400","永和區"
"234030","746-BX","2018/11/12 20:19:37","新北市中和區自強路38巷3號","121.519893333333","24.9954483333333","6500400","永和區"
"234054","KEA-2590","2018/11/12 20:19:21","新北市永和區光復街2巷33號","121.517428333333","25.0166633333333","6500400","永和區"
"234013","KEA-2591","2018/11/12 20:19:34","新北市永和區保生路54號","121.50548","25.008665","6500400","永和區"
"234061","AAD-866","2018/11/12 20:19:21","新北市永和區得和路25號","121.515596666667","25.00037","6500400","永和區"
"234042","862-TW","2018/11/12 20:19:26","新北市中和區中安街166號","121.510856666667","25.00007","6500400","永和區"
"234050","863-TW","2018/11/12 20:19:33","新北市永和區環河西路二段49號","121.507203333333","25.0154583333333","6500400","永和區"
"249005","172-UM","2018/11/12 20:19:24","新北市八里區下罟子7號","121.385468333333","25.1403583333333","6502300","八里區"
"249001","173-UM","2018/11/12 20:19:23","新北市八里區中華路二段341-10號","121.399105","25.145025","6502300","八里區"
"249004","303-UY","2018/11/12 20:19:16","新北市八里區中山路一段129巷19-1號","121.413963333333","25.1585783333333","6502300","八里區"
"249002","305-UY","2018/11/12 20:19:21","新北市八里區龍米路一段126號","121.453101666667","25.12535","6502300","八里區"
"249003","593-UM","2018/11/12 20:19:27","新北市八里區中山路二段447巷28號","121.397418333333","25.1452","6502300","八里區"
"248002","678-BX","2018/11/12 20:19:23","新北市五股區成泰路三段169號","121.445285","25.0918583333333","6501500","五股區"
"234023","9380-KE","2018/11/12 20:19:25","新北市永和區永和路二段230號","121.516056666667","25.0142716666667","6500400","永和區"
"234077","969-R7","2018/11/12 20:19:25","新北市永和區中正路39-1號","121.514396666667","24.9959433333333","6500400","永和區"
"234074","AAC-211","2018/11/12 20:19:38","新北市永和區竹林路201巷22弄1號","121.522021666667","25.0093216666667","6500400","永和區"
"234067","AAC-212","2018/11/12 20:19:33","新北市永和區保平路268巷14號","121.507956666667","25.0059716666667","6500400","永和區"
"234003","AAC-295","2018/11/12 20:19:23","新北市永和區大新街14號","121.515015","25.00847","6500400","永和區"
"243013","AAD-798","2018/11/12 20:19:35","新北市泰山區中央路5巷17弄34號","121.427378333333","25.0441533333333","6501600","泰山區"
"243009","297-R6","2018/11/12 20:19:21","新北市泰山區福泰街45號","121.433371666667","25.059935","6501600","泰山區"
"243016","KEA-2801","2018/11/12 20:19:22","新北市泰山區明志路三段1號","121.424838333333","25.0434483333333","6501600","泰山區"
"243015","421-VK","2018/11/12 20:19:29","新北市泰山區同義街47巷4號","121.432041666667","25.0559583333333","6501600","泰山區"
"243011","KEA-2215","2018/11/12 20:19:19","新北市新莊區壽山路160巷21號","121.41748","25.0318483333333","6501600","泰山區"
"243010","KEA-2216","2018/11/12 20:19:28","新北市泰山區明志路二段273巷2號","121.427021666667","25.0472016666667","6501600","泰山區"
"243012","646-TV","2018/11/12 20:19:33","新北市泰山區楓江路59號","121.435955","25.0627","6501600","泰山區"
"243014","680-BX","2018/11/12 20:19:35","新北市泰山區泰林路二段464號","121.425625","25.0641166666667","6501600","泰山區"
"222003","436-BY","2018/11/12 20:19:27","新北市深坑區文化街43號","121.617583333333","25.001895","6501800","深坑區"
"222002","659-BX","2018/11/12 20:19:39","新北市深坑區萬福路69號","121.602003333333","25.0086716666667","6501800","深坑區"
"231041","002-UM","2018/11/12 20:19:32","新北市新店區民權路46號","121.540173333333","24.9829316666667","6500600","新店區"
"231066","0291-UT","2018/11/12 20:19:16","新北市新店區柴埕路57號","121.51363","24.9652083333333","6500600","新店區"
"231059","046-UY","2018/11/12 20:19:33","新北市新店區安德街62號","121.510675","24.9619766666667","6500600","新店區"
"231040","047-UY","2018/11/12 20:19:36","新北市新店區中正路211號","121.539831666667","24.9726483333333","6500600","新店區"
"231044","106-UY","2018/11/12 20:19:24","新北市新店區北新路三段118號","121.541603333333","24.981695","6500600","新店區"
"231052","108-UY","2018/11/12 20:19:31","新北市新店區新烏路二段329號","121.550188333333","24.91061","6500600","新店區"
"231062","110-UY","2018/11/12 20:19:21","新北市新店區安康路二段341巷1號","121.496933333333","24.955335","6500600","新店區"
"231047","187-VK","2018/11/12 20:19:25","新北市新店區寶橋路132號","121.547378333333","24.976015","6500600","新店區"
"231054","KEA-2219","2018/11/12 20:19:19","新北市新店區檳榔路109號","121.544415","24.9616483333333","6500600","新店區"
"231057","256-BX","2018/11/12 20:19:34","新北市新店區花園五路二段27號","121.554765","24.9347216666667","6500600","新店區"
"231042","268-BY","2018/11/12 20:19:38","新北市新店區中興路二段192號","121.548375","24.9733433333333","6500600","新店區"
"231051","278-BY","2018/11/12 20:19:32","新北市新店區中央六街92號","121.526246666667","24.9768133333333","6500600","新店區"
"231050","AAD-862","2018/11/12 20:19:26","新北市新店區博愛街8巷2號","121.541138333333","24.9733966666667","6500600","新店區"
"231056","4715-K9","2018/11/12 20:19:38","新北市新店區建安街45號","121.538488333333","24.9756766666667","6500600","新店區"
"231067","4772-VM","2018/11/12 20:19:31","新北市新店區溪洲路101號","121.532545","24.961825","6500600","新店區"
"231065","512-UM","2018/11/12 20:19:33","新北市新店區安祥路104巷6弄36號","121.483135","24.962935","6500600","新店區"
"231049","513-UM","2018/11/12 20:19:28","新北市新店區北新路二段35號","121.542838333333","24.9724516666667","6500600","新店區"
"231045","618-UM","2018/11/12 20:19:28","新北市新店區新坡一街82號","121.547876666667","24.9620933333333","6500600","新店區"
"231061","619-UM","2018/11/12 20:19:17","新北市新店區安興路61號","121.51607","24.97264","6500600","新店區"
"231063","641-BX","2018/11/12 20:19:25","新北市新店區車子路1-1號","121.504813333333","24.9578316666667","6500600","新店區"
"231068","718-UY","2018/11/12 20:19:38","新北市新店區寶安街30號","121.54206","24.9823466666667","6500600","新店區"
"231064","719-UM","2018/11/12 20:19:40","新北市新店區安和路二段220號","121.518601666667","24.9765233333333","6500600","新店區"
"231060","897-TW","2018/11/12 20:19:19","新北市新店區錦秀路11巷81號","121.480598333333","24.9446116666667","6500600","新店區"
"231043","899-TW","2018/11/12 20:19:31","新北市新店區建國路131號","121.539393333333","24.9781883333333","6500600","新店區"
"231055","AKT-0513","2018/11/12 20:19:38","新北市新店區安康路一段3-1號","121.534906666667","24.96091","6500600","新店區"
"241011","013-R5","2018/11/12 20:19:32","新北市三重區龍濱路190號","121.501075","25.0732683333333","6500200","三重區"
"241028","022-UY","2018/11/12 20:19:35","新北市三重區大同南路160號","121.496603333333","25.0575933333333","6500200","三重區"
"241008","059-VK","2018/11/12 20:19:25","新北市三重區永福街209號","121.479991666667","25.0744133333333","6500200","三重區"
"241022","060-VK","2018/11/12 20:19:36","新北市三重區新北大道一段32號","121.488241666667","25.061465","6500200","三重區"
"241031","061-VK","2018/11/12 20:19:26","新北市三重區三寧街15號","121.48941","25.0597416666667","6500200","三重區"
"241015","062-VK","2018/11/12 20:19:30","新北市三重區重新路一段130號","121.500113333333","25.0629416666667","6500200","三重區"
"241017","063-VK","2018/11/12 20:19:25","新北市三重區自強路一段157號","121.493405","25.0671166666667","6500200","三重區"
"241024","065-VK","2018/11/12 20:19:19","新北市三重區中正北路258號","121.481278333333","25.0682066666667","6500200","三重區"
"241026","066-VK","2018/11/12 20:19:27","新北市三重區福德南路20號","121.502765","25.0631716666667","6500200","三重區"
"241002","090-VK","2018/11/12 20:19:27","新北市三重區仁義街101巷40號","121.499081666667","25.0807783333333","6500200","三重區"
"241003","091-VK","2018/11/12 20:19:16","新北市三重區富華街13號","121.490251666667","25.0828633333333","6500200","三重區"
"251014","742-BX","2018/11/12 20:19:28","新北市淡水區石頭厝1號","121.458703333333","25.2355066666667","6501000","淡水區"
"241005","262-UM","2018/11/12 20:19:20","新北市三重區碧華街237巷6號","121.48926","25.0827033333333","6500200","三重區"
"241016","266-UM","2018/11/12 20:19:23","新北市三重區大同北路97號","121.49459","25.0636766666667","6500200","三重區"
"241009","267-UM","2018/11/12 20:19:35","新北市三重區三和路四段382巷48號","121.48087","25.0783483333333","6500200","三重區"
"241018","268-UM","2018/11/12 20:19:17","新北市三重區正義北路256巷10號","121.495581666667","25.0683933333333","6500200","三重區"
"241032","269-UM","2018/11/12 20:19:31","新北市三重區捷運路19巷6弄18號","121.484396666667","25.0568183333333","6500200","三重區"
"241013","270-UM","2018/11/12 20:19:36","新北市三重區三和路三段167巷24號","121.492688333333","25.0743466666667","6500200","三重區"
"241025","271-UM","2018/11/12 20:19:31","新北市三重區頂崁街210巷26號","121.475988333333","25.06798","6500200","三重區"
"241035","KEA-2210","2018/11/12 20:19:21","新北市三重區正義北路33巷7號","121.497948333333","25.0637266666667","6500200","三重區"
"241004","475-VK","2018/11/12 20:19:16","新北市三重區仁政街201巷3號","121.490673333333","25.0803583333333","6500200","三重區"
"241020","478-VK","2018/11/12 20:19:24","新北市三重區三和路三段170巷9號","121.492201666667","25.0729983333333","6500200","三重區"
"241014","543-UM","2018/11/12 20:19:19","新北市三重區長樂街158號","121.50288","25.0698016666667","6500200","三重區"
"241023","545-UM","2018/11/12 20:19:12","新北市三重區頂崁街189號","121.477506666667","25.0664033333333","6500200","三重區"
"241001","547-UM","2018/11/12 20:19:25","新北市三重區自強路四段3巷50號","121.490441666667","25.0766566666667","6500200","三重區"
"241019","KEA-2593","2018/11/12 20:19:21","新北市三重區忠孝路一段56號","121.490591666667","25.0719766666667","6500200","三重區"
"241006","AAD-863","2018/11/12 20:19:25","新北市三重區車路頭街135-1號","121.484215","25.0761583333333","6500200","三重區"
"241030","743-BX","2018/11/12 20:19:18","新北市三重區集美街89巷29號","121.488233333333","25.0524966666667","6500200","三重區"
"241007","887-TS","2018/11/12 20:19:25","新北市三重區三和路四段117巷31號","121.486525","25.0778933333333","6500200","三重區"
"241012","941-UM","2018/11/12 20:19:40","新北市三重區河邊北街266號","121.501648333333","25.07647","6500200","三重區"
"241029","942-UM","2018/11/12 20:19:29","新北市三重區光明路98號","121.492513333333","25.0565766666667","6500200","三重區"
"241033","AAC-255","2018/11/12 20:19:35","新北市三重區五谷王北街77號","121.47574","25.050185","6500200","三重區"
"235066","003-UY","2018/11/12 20:19:19","新北市中和區保平路326巷1號","121.50707","25.0042466666667","6500300","中和區"
"235039","097-UM","2018/11/12 20:19:16","新北市中和區大勇街29巷10號","121.515983333333","24.9944416666667","6500300","中和區"
"235065","098-UM","2018/11/12 20:19:26","新北市中和區永和路128巷9號","121.497673333333","25.006945","6500300","中和區"
"235040","150-BY","2018/11/12 20:19:32","新北市中和區保健路44巷7號","121.50921","24.996815","6500300","中和區"
"247012","KEA-2869","2018/11/12 20:19:24","新北市蘆洲區中興街30號","121.480836666667","25.08696","6501400","蘆洲區"
"235050","4979-A6","2018/11/12 20:19:35","新北市中和區景平路402號","121.509233333333","24.9931083333333","6500300","中和區"
"235069","4980-A6","2018/11/12 20:19:24","新北市中和區景平路624號","121.500571666667","24.9975233333333","6500300","中和區"
"235037","AAC-213","2018/11/12 20:19:32","新北市中和區秀朗路三段179號","121.52442","24.9906166666667","6500300","中和區"
"235059","AAC-215","2018/11/12 20:19:24","新北市中和區圓通路371號","121.490805","24.9894633333333","6500300","中和區"
"220086","073-UY","2018/11/12 20:19:26","新北市八里區中山路三段386號","121.368483333333","25.13595","6500100","板橋區"
"220106","075-UY","2018/11/12 20:19:18","新北市五股區成泰路四段22巷10-2號","121.45437","25.1045516666667","6500100","板橋區"
"247002","893-R6","2018/11/12 20:19:33","新北市蘆洲區長安街313巷12號","121.456526666667","25.086465","6501400","蘆洲區"
"247016","546-UM","2018/11/12 20:19:23","新北市蘆洲區中正路185巷45弄1號","121.465901666667","25.083765","6501400","蘆洲區"
"247024","500-BY","2018/11/12 20:19:33","新北市蘆洲區光榮路120巷8弄20號","121.464335","25.0878083333333","6501400","蘆洲區"
"247014","339-TH","2018/11/12 20:19:32","新北市蘆洲區成功路60號","121.472546666667","25.0805116666667","6501400","蘆洲區"
"247006","337-TH","2018/11/12 20:19:33","新北市蘆洲區九芎街153巷4號","121.465205","25.0789566666667","6501400","蘆洲區"
"247020","057-VK","2018/11/12 20:19:32","新北市蘆洲區仁愛街57號","121.471923333333","25.0932416666667","6501400","蘆洲區"
"247010","056-VK","2018/11/12 20:19:37","新北市蘆洲區信義路218號","121.478968333333","25.0850733333333","6501400","蘆洲區"
"247008","053-VK","2018/11/12 20:19:26","新北市蘆洲區集賢路231號","121.48212","25.0858166666667","6501400","蘆洲區"
"247018","007-UY","2018/11/12 20:19:25","新北市蘆洲區民族路303號","121.474948333333","25.0911866666667","6501400","蘆洲區"
"247004","002-UY","2018/11/12 20:19:35","新北市蘆洲區長安街220巷21弄4號","121.459558333333","25.0857383333333","6501400","蘆洲區"
"247022","001-UY","2018/11/12 20:19:24","新北市蘆洲區三民路251號","121.468335","25.0893466666667","6501400","蘆洲區"
"222001","KEA-2212","2018/11/12 20:19:29","新北市深坑區北深路三段245號","121.599515","25.0042716666667","6501800","深坑區"
"251001","011-UM","2018/11/12 20:19:27","新北市淡水區淡金路二段15號","121.4461","25.1892033333333","6501000","淡水區"
"251002","012-UM","2018/11/12 20:19:18","新北市淡水區中正路232號","121.43908","25.1707283333333","6501000","淡水區"
"251013","KEA-2871","2018/11/12 20:19:31","新北市淡水區相公山1-2號","121.474305","25.2066683333333","6501000","淡水區"
"251016","179-VK","2018/11/12 20:19:22","新北市淡水區淡金路五段20號","121.452783333333","25.2326516666667","6501000","淡水區"
"251008","180-VK","2018/11/12 20:19:31","新北市淡水區淡海路180巷27號","121.421798333333","25.1845533333333","6501000","淡水區"
"251015","182-VK","2018/11/12 20:19:21","新北市淡水區淡金路四段542巷17號","121.452758333333","25.227095","6501000","淡水區"
"251010","413-VK","2018/11/12 20:19:25","新北市淡水區新民街一段134號","121.427565","25.1888316666667","6501000","淡水區"
"251012","441-VK","2018/11/12 20:19:36","新北市淡水區淡金路三段426號","121.45059","25.2126866666667","6501000","淡水區"
"251006","561-UM","2018/11/12 20:19:34","新北市淡水區淡金路一段575號","121.452466666667","25.180425","6501000","淡水區"
"251003","766-UM","2018/11/12 20:19:19","新北市淡水區中山北路一段229號","121.444466666667","25.17956","6501000","淡水區"
"207003","550-UM","2018/11/12 20:19:21","新北市萬里區野柳里八斗60-1號","121.668655","25.2031783333333","6502800","萬里區"
"207004","225-TW","2018/11/12 20:19:36","新北市萬里區北基里大仁路4號","121.682036666667","25.1752566666667","6502800","萬里區"
"252002","178-VK","2018/11/12 20:19:29","新北市三芝區中正路一段49號","121.50339","25.258105","6502100","三芝區"
"252001","292-VK","2018/11/12 20:19:23","新北市三芝區中山路一段14號","121.500813333333","25.2580616666667","6502100","三芝區"
"237007","153-BY","2018/11/12 20:19:32","新北市鶯歌區中正一路阿四巷3號","121.370605","24.9592683333333","6500900","三峽區"
"237012","275-BY","2018/11/12 20:19:22","新北市三峽區中華路8號","121.375296666667","24.9329666666667","6500900","三峽區"
"237006","5529-G3","2018/11/12 20:19:27","新北市三峽區中正路二段41號","121.366713333333","24.918805","6500900","三峽區"
"237011","KEA-2596","2018/11/12 20:19:21","新北市樹林區中山路三段214號","121.37974","24.9676666666667","6500900","三峽區"
"236069","105-UM","2018/11/12 20:19:23","新北市土城區三民路13號","121.420413333333","24.96333","6501300","土城區"
"236042","KED-0685","2018/11/12 20:19:25","新北市土城區學享街14號","121.451398333333","24.9873483333333","6501300","土城區"
"236030","253-BX","2018/11/12 20:19:18","新北市土城區中央路一段45巷22弄1號","121.44914","24.9899433333333","6501300","土城區"
"236026","269-VK","2018/11/12 20:19:28","新北市土城區中央路一段249巷24號","121.446395","24.9853583333333","6501300","土城區"
"236014","270-VK","2018/11/12 20:19:30","新北市土城區廣明街90巷23號","121.455488333333","24.9945566666667","6501300","土城區"
"236059","912-UM","2018/11/12 20:19:31","新北市土城區大安路101-5號","121.433528333333","24.9685966666667","6501300","土城區"
"242036","AAC-296","2018/11/12 20:18:39","新北市新莊區建安街76巷3弄2號","121.426245","25.0248833333333","6500500","新莊區"
"242058","986-R7","2018/11/12 20:19:36","新北市新莊區龍安路264號","121.421726666667","25.019335","6500500","新莊區"
"242027","615-BX","2018/11/12 20:19:33","新北市新莊區幸福路556號","121.454746666667","25.0493916666667","6500500","新莊區"
"242025","613-BX","2018/11/12 20:19:35","新北市新莊區五工二路70巷11號","121.460598333333","25.0662466666667","6500500","新莊區"
"242029","612-BX","2018/11/12 20:19:22","新北市新莊區中華路二段161號","121.4527","25.0517216666667","6500500","新莊區"
"242044","566-BX","2018/11/12 20:19:33","新北市新莊區中正路893巷38號","121.41389","25.0208533333333","6500500","新莊區"
"242048","497-BY","2018/11/12 20:19:33","新北市新莊區龍安路222號","121.420255","25.019825","6500500","新莊區"
"242056","442-UM","2018/11/12 20:19:32","新北市新莊區豐年街28巷27號","121.445216666667","25.0323","6500500","新莊區"
"242053","441-UM","2018/11/12 20:19:29","新北市新莊區西盛街386號","121.427878333333","25.0129633333333","6500500","新莊區"
"242039","415-TV","2018/11/12 20:19:19","新北市新莊區龍安路437號","121.424111666667","25.0186733333333","6500500","新莊區"
"242009","413-TV","2018/11/12 20:19:33","新北市新莊區昌盛街35巷4弄15號","121.454866666667","25.0505666666667","6500500","新莊區"
"242023","362-BY","2018/11/12 20:19:25","新北市新莊區化成路844號","121.464868333333","25.0604183333333","6500500","新莊區"
"242060","353-BY","2018/11/12 20:19:26","新北市新莊區新樹路279號","121.434003333333","25.0205716666667","6500500","新莊區"
"242011","132-UY","2018/11/12 20:19:36","新北市新莊區幸福路670巷14弄1號","121.451036666667","25.0504466666667","6500500","新莊區"
"242042","133-UY","2018/11/12 20:19:34","新北市新莊區天祥街73號","121.415821666667","25.0292283333333","6500500","新莊區"
"242050","172-VK","2018/11/12 20:19:31","新北市新莊區民安西路228號","121.425901666667","25.014465","6500500","新莊區"
"242013","173-VK","2018/11/12 20:19:36","新北市新莊區中平路270巷7弄47號","121.446556666667","25.05095","6500500","新莊區"
"242019","175-VK","2018/11/12 20:19:24","新北市新莊區銘德街25號","121.458655","25.0436966666667","6500500","新莊區"
"242007","176-VK","2018/11/12 20:19:37","新北市新莊區福壽街112巷24號","121.459296666667","25.0506433333333","6500500","新莊區"
"242001","233-RS","2018/11/12 19:53:32","新北市泰山區中山路二段433號","121.433266666667","25.0449566666667","6500500","新莊區"
"242017","346-TH","2018/11/12 20:19:23","新北市新莊區中港一街137號","121.448116666667","25.0450516666667","6500500","新莊區"
"242046","347-TH","2018/11/12 20:19:38","新北市新莊區裕民街90巷13號","121.41782","25.0237366666667","6500500","新莊區"
"242031","348-TH","2018/11/12 20:19:38","新北市新莊區三和路20-6號","121.43944","25.0374866666667","6500500","新莊區"
"242004","349-TH","2018/11/12 20:19:34","新北市新莊區化成路524巷3號","121.466786666667","25.0528216666667","6500500","新莊區"
"242021","350-TH","2018/11/12 20:19:30","新北市新莊區復興路一段10號","121.445766666667","25.04142","6500500","新莊區"
"242015","351-TH","2018/11/12 20:19:39","新北市新莊區中和街25巷12號","121.447503333333","25.0439266666667","6500500","新莊區"
"221008","489-VK","2018/11/12 20:19:24","新北市汐止區康寧街139號","121.621308333333","25.0666233333333","6501100","汐止區"
"221036","130-UY","2018/11/12 20:19:23","新北市汐止區福安街57巷4號","121.664028333333","25.0639316666667","6501100","汐止區"
"221015","131-UY","2018/11/12 20:19:36","新北市汐止區建成路160巷16號","121.661945","25.0740316666667","6501100","汐止區"
"221010","269-BY","2018/11/12 20:19:27","新北市汐止區八連路二段228巷1-1號","121.63276","25.0973383333333","6501100","汐止區"
"221012","278-VK","2018/11/12 20:19:36","新北市汐止區汐平路一段131號","121.686271666667","25.0694316666667","6501100","汐止區"
"221032","280-BY","2018/11/12 20:19:27","新北市汐止區橫科路52巷9弄5號","121.619656666667","25.05037","6501100","汐止區"
"221027","281-BY","2018/11/12 20:19:27","新北市汐止區大同路二段359號","121.65716","25.067255","6501100","汐止區"
"221029","298-VK","2018/11/12 20:19:34","新北市汐止區工建路48號","121.641138333333","25.0630916666667","6501100","汐止區"
"221021","299-VK","2018/11/12 20:19:26","新北市汐止區水源路一段293號","121.654316666667","25.0582316666667","6501100","汐止區"
"221031","353-TW","2018/11/12 20:19:18","新北市汐止區中興路150巷13號","121.632993333333","25.064935","6501100","汐止區"
"221035","622-UM","2018/11/12 20:19:24","新北市汐止區長江街101-5號","121.6587","25.073215","6501100","汐止區"
"221025","623-UM","2018/11/12 20:19:19","新北市汐止區水源路二段34號","121.6549","25.0571966666667","6501100","汐止區"
"221038","646-BX","2018/11/12 20:19:20","新北市汐止區忠孝東路480號","121.666261666667","25.0737816666667","6501100","汐止區"
"221033","647-BX","2018/11/12 20:19:30","新北市汐止區東勢街201巷2號","121.633671666667","25.0420233333333","6501100","汐止區"
"221002","707-TV","2018/11/12 20:19:29","新北市汐止區福德一路86巷9號","121.637668333333","25.0687666666667","6501100","汐止區"
"221018","753-BX","2018/11/12 20:19:36","新北市汐止區茄安路168號","121.675845","25.0690666666667","6501100","汐止區"
"220101","245-BX","2018/11/12 20:19:29","新北市板橋區萬板路472號","121.479861666667","25.02598","6500100","板橋區"
"220083","286-VK","2018/11/12 20:19:35","新北市板橋區僑中二街92巷31號","121.444671666667","25.0090733333333","6500100","板橋區"
"220081","287-VK","2018/11/12 20:19:36","新北市板橋區僑中一街80巷5弄5號","121.447505","25.0124933333333","6500100","板橋區"
"220061","295-UM","2018/11/12 20:19:17","新北市板橋區四川路一段144號","121.460023333333","25.0036116666667","6500100","板橋區"
"242002","281-VK","2018/11/12 20:19:25","新北市新莊區化成路31號","121.46515","25.043975","6500500","新莊區"
"220092","307-R5","2018/11/12 20:19:27","新北市板橋區文化路一段71號","121.461","25.014","6500100","板橋區"
"220089","487-VK","2018/11/12 20:19:27","新北市板橋區四維路292號","121.46279","25.0292316666667","6500100","板橋區"
"242034","280-VK","2018/11/12 20:19:35","新北市新莊區新泰路199巷8號","121.446588333333","25.0380283333333","6500500","新莊區"
"220103","561-BX","2018/11/12 20:19:29","新北市板橋區陽明街279巷1弄1號","121.461868333333","25.02608","6500100","板橋區"
"220054","741-BX","2018/11/12 20:19:21","新北市板橋區大觀路一段28巷4弄28-2號","121.451285","25.0096383333333","6500100","板橋區"
"220102","KEA-2699","2018/11/12 20:19:37","新北市板橋區文化路一段247號","121.464336666667","25.0180216666667","6500100","板橋區"
"220055","827-TW","2018/11/12 20:19:23","新北市板橋區仁愛路35號","121.459206666667","24.9994466666667","6500100","板橋區"
"220074","895-R6","2018/11/12 20:19:35","新北市板橋區南雅南路一段7巷22弄7號","121.455851666667","25.0047183333333","6500100","板橋區"
"220097","AAC-210","2018/11/12 20:19:19","新北市板橋區文化路一段101巷9號","121.460676666667","25.0145633333333","6500100","板橋區"
"220070","AAC-253","2018/11/12 20:19:32","新北市板橋區四川路二段237號","121.450836666667","24.9940433333333","6500100","板橋區"
"235068","KEA-2873","2018/11/12 20:19:33","新北市中和區勝利路35巷1弄4號","121.499158333333","25.00747","6500300","中和區"
