"lineid","car","time","location","longitude","latitude","cityid","cityname"
"234081","298-R6","2018/11/12 20:29:28","新北市永和區永貞路25號","121.52101","25.0068166666667","6500400","永和區"
"234064","337-UY","2018/11/12 20:29:22","新北市永和區中正路417-1號","121.517036666667","25.0049516666667","6500400","永和區"
"234086","338-UY","2018/11/12 20:29:19","新北市永和區永和路二段131號","121.515065","25.0121766666667","6500400","永和區"
"234070","552-UM","2018/11/12 20:29:34","新北市永和區永亨路7號","121.51941","25.0056616666667","6500400","永和區"
"234030","746-BX","2018/11/12 20:29:37","新北市永和區民族街81巷58號","121.520085","24.996515","6500400","永和區"
"234054","KEA-2590","2018/11/12 20:29:21","新北市永和區環河東路一段80號","121.519558333333","25.0164783333333","6500400","永和區"
"234061","AAD-866","2018/11/12 20:29:21","新北市永和區安樂路194巷17弄2號","121.515988333333","25.0011616666667","6500400","永和區"
"234042","862-TW","2018/11/12 20:29:26","新北市永和區安樂路270號","121.514466666667","25.0041733333333","6500400","永和區"
"234050","863-TW","2018/11/12 20:29:37","新北市永和區新生路25巷2弄20號","121.509061666667","25.0163683333333","6500400","永和區"
"249005","172-UM","2018/11/12 20:29:24","新北市八里區中山路三段279號","121.378993333333","25.1378766666667","6502300","八里區"
"249001","173-UM","2018/11/12 20:29:23","新北市八里區下罟子5-6號","121.387273333333","25.1423583333333","6502300","八里區"
"249004","303-UY","2018/11/12 20:29:16","新北市八里區中山路一段127號","121.413448333333","25.1592733333333","6502300","八里區"
"249002","305-UY","2018/11/12 20:29:21","新北市八里區龍米路二段125巷23號","121.445866666667","25.1455233333333","6502300","八里區"
"249003","593-UM","2018/11/12 20:29:27","新北市八里區華峰一街27-1號","121.399151666667","25.1465483333333","6502300","八里區"
"248002","678-BX","2018/11/12 20:29:23","新北市五股區成泰路三段51號","121.442801666667","25.0892733333333","6501500","五股區"
"234023","9380-KE","2018/11/12 20:29:25","新北市永和區博愛街32巷17-1號","121.51887","25.0152316666667","6500400","永和區"
"234074","AAC-211","2018/11/12 20:29:18","新北市永和區福和路12巷20號","121.52407","25.009385","6500400","永和區"
"234067","AAC-212","2018/11/12 20:29:33","新北市永和區保平路290號","121.508126666667","25.004555","6500400","永和區"
"243009","297-R6","2018/11/12 20:29:21","新北市泰山區忠孝街16巷21號","121.428298333333","25.06507","6501600","泰山區"
"243016","KEA-2801","2018/11/12 20:29:29","新北市泰山區明志路二段218號","121.427256666667","25.0486816666667","6501600","泰山區"
"243015","421-VK","2018/11/12 20:29:29","新北市泰山區泰林路二段100號","121.434801666667","25.0589416666667","6501600","泰山區"
"243011","KEA-2215","2018/11/12 20:29:19","新北市泰山區台麗街79號","121.426498333333","25.0372566666667","6501600","泰山區"
"243010","KEA-2216","2018/11/12 20:29:23","新北市泰山區新生路33-5號","121.427723333333","25.0456333333333","6501600","泰山區"
"243012","646-TV","2018/11/12 20:29:33","新北市泰山區忠孝街19巷3-1號","121.427486666667","25.0657333333333","6501600","泰山區"
"243014","680-BX","2018/11/12 20:29:15","新北市泰山區橫窠雅10-17號","121.414776666667","25.067255","6501600","泰山區"
"222003","436-BY","2018/11/12 20:29:27","新北市深坑區深坑街32號","121.61529","25.0017866666667","6501800","深坑區"
"222002","659-BX","2018/11/12 20:29:18","新北市深坑區萬福路16巷36-1號","121.611765","25.0082633333333","6501800","深坑區"
"231041","002-UM","2018/11/12 20:29:32","新北市新店區中正路501號","121.533695","24.9835683333333","6500600","新店區"
"231066","0291-UT","2018/11/12 20:29:16","新北市新店區安民街115巷18號","121.515125","24.9678266666667","6500600","新店區"
"231059","046-UY","2018/11/12 20:29:34","新北市新店區安德街167號","121.50851","24.9592516666667","6500600","新店區"
"231040","047-UY","2018/11/12 20:29:20","新北市新店區三民路185號","121.535291666667","24.975365","6500600","新店區"
"231044","106-UY","2018/11/12 20:29:27","新北市新店區建國路185號","121.538126666667","24.9795533333333","6500600","新店區"
"231052","108-UY","2018/11/12 20:29:31","新北市新店區松林路36號","121.546221666667","24.9102616666667","6500600","新店區"
"231062","110-UY","2018/11/12 20:29:21","新北市新店區安泰路7巷16號","121.48569","24.9509783333333","6500600","新店區"
"231047","187-VK","2018/11/12 20:29:25","新北市新店區寶元路一段61號","121.542218333333","24.9859683333333","6500600","新店區"
"231054","KEA-2219","2018/11/12 20:29:39","新北市新店區檳榔路109號","121.544451666667","24.9616","6500600","新店區"
"231057","256-BX","2018/11/12 20:29:34","新北市新店區花園五路二段3號","121.553601666667","24.9341816666667","6500600","新店區"
"231042","268-BY","2018/11/12 20:29:18","新北市新店區寶橋路156-2號","121.548625","24.97697","6500600","新店區"
"231051","278-BY","2018/11/12 20:29:32","新北市新店區中央七街21號","121.529808333333","24.9751916666667","6500600","新店區"
"231050","AAD-862","2018/11/12 20:29:26","新北市新店區建國路85號","121.540448333333","24.976505","6500600","新店區"
"231056","4715-K9","2018/11/12 20:29:18","新北市新店區民生路75巷225-2號","121.533233333333","24.9809833333333","6500600","新店區"
"231067","4772-VM","2018/11/12 20:29:31","新北市新店區安華路28-1號","121.519808333333","24.960915","6500600","新店區"
"231065","512-UM","2018/11/12 20:29:34","新北市新店區安祥路102巷46弄77號","121.487021666667","24.9633083333333","6500600","新店區"
"231049","513-UM","2018/11/12 20:29:28","新北市新店區華潭街31號","121.52999","24.9546266666667","6500600","新店區"
"231045","618-UM","2018/11/12 20:29:28","新北市新店區長春路21巷1號","121.549381666667","24.958165","6500600","新店區"
"231061","619-UM","2018/11/12 20:29:37","新北市新店區安民街133巷26號","121.515421666667","24.9695883333333","6500600","新店區"
"231063","641-BX","2018/11/12 20:29:25","新北市新店區安康路二段382號","121.500453333333","24.9569083333333","6500600","新店區"
"231068","718-UY","2018/11/12 20:29:18","新北市新店區中興路三段223號","121.543126666667","24.9829266666667","6500600","新店區"
"231064","719-UM","2018/11/12 20:29:35","新北市新店區新和街59巷17號","121.51928","24.9860366666667","6500600","新店區"
"231060","897-TW","2018/11/12 20:29:39","新北市新店區錦秀路1-1號","121.478986666667","24.9456533333333","6500600","新店區"
"231043","899-TW","2018/11/12 20:29:31","新北市新店區建國路88號","121.54048","24.9771433333333","6500600","新店區"
"231055","AKT-0513","2018/11/12 20:29:18","新北市新店區薏仁坑路6-1號","121.499818333333","24.9585033333333","6500600","新店區"
"241011","013-R5","2018/11/12 20:29:32","新北市三重區龍門路86號","121.497246666667","25.07267","6500200","三重區"
"241028","022-UY","2018/11/12 20:29:35","新北市三重區光興街91號","121.49737","25.0599233333333","6500200","三重區"
"241008","059-VK","2018/11/12 20:29:25","新北市三重區下竹圍街42-1號","121.481051666667","25.0749216666667","6500200","三重區"
"241022","060-VK","2018/11/12 20:29:17","新北市三重區民生街61巷31弄1號","121.487775","25.0630933333333","6500200","三重區"
"241031","061-VK","2018/11/12 20:29:26","新北市三重區三寧街15號","121.489421666667","25.0597383333333","6500200","三重區"
"241015","062-VK","2018/11/12 20:29:30","新北市三重區長元街2-2號","121.498723333333","25.0658733333333","6500200","三重區"
"241017","063-VK","2018/11/12 20:29:25","新北市三重區自強路一段290號","121.491456666667","25.0682883333333","6500200","三重區"
"241024","065-VK","2018/11/12 20:29:39","新北市三重區忠孝路三段15巷28號","121.480493333333","25.0678966666667","6500200","三重區"
"241026","066-VK","2018/11/12 20:29:27","新北市三重區福德南路28號","121.502795","25.062965","6500200","三重區"
"241002","090-VK","2018/11/12 20:29:27","新北市三重區仁義街211巷11號","121.497386666667","25.08202","6500200","三重區"
"241003","091-VK","2018/11/12 20:29:36","新北市三重區富華街158號","121.492471666667","25.084495","6500200","三重區"
"251014","742-BX","2018/11/12 20:29:28","新北市淡水區石頭厝2-7號","121.459996666667","25.2363766666667","6501000","淡水區"
"241005","262-UM","2018/11/12 20:29:20","新北市三重區溪尾街267號","121.487646666667","25.0820466666667","6500200","三重區"
"241016","266-UM","2018/11/12 20:29:23","新北市三重區正義北路89號","121.497096666667","25.0651783333333","6500200","三重區"
"241009","267-UM","2018/11/12 20:29:35","新北市三重區永福街46巷15弄5號","121.481493333333","25.077985","6500200","三重區"
"241018","268-UM","2018/11/12 20:29:38","新北市三重區雙園街84號","121.49535","25.0676316666667","6500200","三重區"
"241032","269-UM","2018/11/12 20:29:31","新北市三重區重陽路一段120巷48號","121.485006666667","25.060195","6500200","三重區"
"241013","270-UM","2018/11/12 20:29:16","新北市三重區溪尾街5巷7號","121.492111666667","25.0744333333333","6500200","三重區"
"241025","271-UM","2018/11/12 20:29:26","新北市三重區頂崁街210巷27號","121.475755","25.068105","6500200","三重區"
"241035","KEA-2210","2018/11/12 20:29:21","新北市三重區正義南路1號","121.497933333333","25.0621033333333","6500200","三重區"
"241004","475-VK","2018/11/12 20:29:16","新北市三重區溪尾街209號","121.488475","25.08084","6500200","三重區"
"241020","478-VK","2018/11/12 20:29:24","新北市三重區重陽路四段146號","121.492956666667","25.0717566666667","6500200","三重區"
"241014","543-UM","2018/11/12 20:29:19","新北市三重區龍濱路190號","121.501156666667","25.07331","6500200","三重區"
"241023","545-UM","2018/11/12 20:29:32","新北市三重區自由街16號","121.479855","25.0664783333333","6500200","三重區"
"241001","547-UM","2018/11/12 20:29:25","新北市三重區福隆路12號","121.49024","25.07742","6500200","三重區"
"241019","KEA-2593","2018/11/12 20:29:21","新北市三重區重陽路四段57號","121.492076666667","25.070535","6500200","三重區"
"241006","AAD-863","2018/11/12 20:29:25","新北市三重區車路頭街139巷14號","121.484263333333","25.0761833333333","6500200","三重區"
"241030","743-BX","2018/11/12 20:29:38","新北市三重區成功路62號","121.488658333333","25.0509983333333","6500200","三重區"
"241007","887-TS","2018/11/12 20:29:25","新北市三重區溪尾街108巷5號","121.489158333333","25.07879","6500200","三重區"
"241012","941-UM","2018/11/12 20:29:20","新北市三重區龍濱路269號","121.501395","25.0730683333333","6500200","三重區"
"241029","942-UM","2018/11/12 20:29:29","新北市三重區集美街225號","121.492033333333","25.0552166666667","6500200","三重區"
"241033","AAC-255","2018/11/12 20:29:35","新北市三重區五谷王北街137號","121.476068333333","25.0520216666667","6500200","三重區"
"235066","003-UY","2018/11/12 20:29:39","新北市中和區光華街67號","121.50647","25.003025","6500300","中和區"
"235065","098-UM","2018/11/12 20:29:26","新北市中和區永和路106號","121.496653333333","25.005635","6500300","中和區"
"247012","KEA-2869","2018/11/12 20:29:24","新北市蘆洲區復興路252號","121.479973333333","25.0895766666667","6501400","蘆洲區"
"235050","4979-A6","2018/11/12 20:29:35","新北市中和區景新街160巷12號","121.505056666667","24.9968516666667","6500300","中和區"
"235069","4980-A6","2018/11/12 20:29:24","新北市中和區中正路450號","121.490816666667","24.994205","6500300","中和區"
"235059","AAC-215","2018/11/12 20:29:24","新北市中和區員山路7-3號","121.48277","24.985205","6500300","中和區"
"220086","073-UY","2018/11/12 20:29:26","新北市八里區中華路三段65號","121.39487","25.14117","6500100","板橋區"
"247002","893-R6","2018/11/12 20:29:33","新北市蘆洲區長安街361巷30號","121.455826666667","25.0876033333333","6501400","蘆洲區"
"247016","546-UM","2018/11/12 20:29:23","新北市蘆洲區光華路49號","121.468671666667","25.08295","6501400","蘆洲區"
"247024","500-BY","2018/11/12 20:29:33","新北市蘆洲區光復路70巷25號","121.464836666667","25.085005","6501400","蘆洲區"
"247014","339-TH","2018/11/12 20:29:32","新北市蘆洲區中山二路19號","121.474816666667","25.0816583333333","6501400","蘆洲區"
"247006","337-TH","2018/11/12 20:29:20","新北市蘆洲區和平路121巷14弄29號","121.466078333333","25.0801166666667","6501400","蘆洲區"
"247020","057-VK","2018/11/12 20:29:32","新北市蘆洲區仁愛街161巷33-1號","121.468595","25.0942666666667","6501400","蘆洲區"
"247010","056-VK","2018/11/12 20:29:37","新北市蘆洲區信義路222巷4號","121.479335","25.085285","6501400","蘆洲區"
"247008","053-VK","2018/11/12 20:29:26","新北市蘆洲區永安北路二段76巷22號","121.482748333333","25.0853783333333","6501400","蘆洲區"
"247018","007-UY","2018/11/12 20:29:24","新北市蘆洲區民族路402號","121.474776666667","25.0913666666667","6501400","蘆洲區"
"247004","002-UY","2018/11/12 20:29:35","新北市蘆洲區長安街301號","121.457998333333","25.0849066666667","6501400","蘆洲區"
"247022","001-UY","2018/11/12 20:29:38","新北市蘆洲區中正路263巷2號","121.467293333333","25.08763","6501400","蘆洲區"
"222001","KEA-2212","2018/11/12 20:29:29","新北市深坑區北深路三段329號","121.597211666667","25.005045","6501800","深坑區"
"251001","011-UM","2018/11/12 20:29:29","新北市淡水區淡金路二段81號","121.451873333333","25.1812783333333","6501000","淡水區"
"251002","012-UM","2018/11/12 20:29:18","新北市淡水區中正路63號","121.44142","25.1695183333333","6501000","淡水區"
"251013","KEA-2871","2018/11/12 20:29:31","新北市淡水區後坑子7號","121.46388","25.2056633333333","6501000","淡水區"
"251016","179-VK","2018/11/12 20:29:22","新北市淡水區新埔子11-7號","121.447455","25.22848","6501000","淡水區"
"251008","180-VK","2018/11/12 20:29:31","新北市淡水區淡海路189巷6號","121.420073333333","25.1844816666667","6501000","淡水區"
"251015","182-VK","2018/11/12 20:29:21","新北市淡水區淡金路四段542巷17號","121.45275","25.2270816666667","6501000","淡水區"
"251010","413-VK","2018/11/12 20:29:25","新北市淡水區沙崙路181巷2號","121.424408333333","25.1840266666667","6501000","淡水區"
"251012","441-VK","2018/11/12 20:29:36","新北市淡水區興仁路108號","121.451663333333","25.21816","6501000","淡水區"
"251006","561-UM","2018/11/12 20:29:34","新北市淡水區商工路296號","121.460638333333","25.18606","6501000","淡水區"
"251003","766-UM","2018/11/12 20:29:39","新北市淡水區新生街108巷2號","121.440128333333","25.17473","6501000","淡水區"
"207003","550-UM","2018/11/12 20:29:21","新北市萬里區萬里里獅頭路23號","121.693465","25.1782133333333","6502800","萬里區"
"207004","225-TW","2018/11/12 20:29:25","新北市萬里區北基里忠四街17號","121.684431666667","25.1759383333333","6502800","萬里區"
"252002","178-VK","2018/11/12 20:29:29","新北市三芝區淡金路二段47-1號","121.50361","25.26051","6502100","三芝區"
"252001","292-VK","2018/11/12 20:29:23","新北市三芝區中山路一段35號","121.500728333333","25.2579483333333","6502100","三芝區"
"237007","153-BY","2018/11/12 20:29:32","新北市樹林區柑園街二段276巷26-1號","121.373338333333","24.95558","6500900","三峽區"
"237011","KEA-2596","2018/11/12 20:29:21","新北市三峽區隆恩街158巷42號","121.366236666667","24.94416","6500900","三峽區"
"236014","270-VK","2018/11/12 20:29:30","新北市土城區廣明街61號","121.455018333333","24.9936183333333","6501300","土城區"
"242036","AAC-296","2018/11/12 20:29:36","新北市新莊區後港一路56巷12號","121.426475","25.02583","6500500","新莊區"
"242058","986-R7","2018/11/12 20:29:36","新北市新莊區四維路149號","121.422656666667","25.02211","6500500","新莊區"
"242027","615-BX","2018/11/12 20:29:33","新北市新莊區思源路307號","121.459905","25.0489033333333","6500500","新莊區"
"242025","613-BX","2018/11/12 20:29:35","新北市新莊區五工三路62巷24號","121.460193333333","25.0652383333333","6500500","新莊區"
"242029","612-BX","2018/11/12 20:29:22","新北市新莊區昌平街31巷9號","121.454271666667","25.0513866666667","6500500","新莊區"
"242044","566-BX","2018/11/12 20:29:32","新北市新莊區中正路新建巷30號","121.414381666667","25.0217833333333","6500500","新莊區"
"242048","497-BY","2018/11/12 20:29:34","新北市新莊區中正路879號","121.41797","25.0268383333333","6500500","新莊區"
"242056","442-UM","2018/11/12 20:29:32","新北市新莊區瓊泰路148號","121.443193333333","25.032315","6500500","新莊區"
"242053","441-UM","2018/11/12 20:29:29","新北市新莊區民安西路229巷24號","121.427273333333","25.014085","6500500","新莊區"
"242039","415-TV","2018/11/12 20:29:39","新北市新莊區成功街9號","121.425798333333","25.0217683333333","6500500","新莊區"
"242009","413-TV","2018/11/12 20:29:23","新北市新莊區昌隆街94號","121.456145","25.05073","6500500","新莊區"
"242023","362-BY","2018/11/12 20:29:27","新北市新莊區化成路610號","121.466173333333","25.0547483333333","6500500","新莊區"
"242060","353-BY","2018/11/12 20:29:26","新北市新莊區民安東路132號","121.430936666667","25.0204883333333","6500500","新莊區"
"242011","132-UY","2018/11/12 20:29:36","新北市新莊區中義街37號","121.449973333333","25.0511633333333","6500500","新莊區"
"242042","133-UY","2018/11/12 20:29:31","新北市新莊區中正路694巷1弄6號","121.418443333333","25.02829","6500500","新莊區"
"242050","172-VK","2018/11/12 20:29:26","新北市新莊區民安西路189巷9號","121.426533333333","25.015385","6500500","新莊區"
"242013","173-VK","2018/11/12 20:29:16","新北市新莊區中平路302巷6號","121.445298333333","25.0516966666667","6500500","新莊區"
"242019","175-VK","2018/11/12 20:29:24","新北市新莊區銘德街63號","121.456745","25.0436466666667","6500500","新莊區"
"242007","176-VK","2018/11/12 20:29:37","新北市新莊區思源路253號","121.459775","25.0472533333333","6500500","新莊區"
"242017","346-TH","2018/11/12 20:29:23","新北市新莊區中港三街13號","121.450941666667","25.046465","6500500","新莊區"
"242046","347-TH","2018/11/12 20:29:18","新北市新莊區富國路22巷35號","121.418276666667","25.0255833333333","6500500","新莊區"
"242031","348-TH","2018/11/12 20:29:38","新北市新莊區義豐街5巷10號","121.440503333333","25.0348883333333","6500500","新莊區"
"242004","349-TH","2018/11/12 20:29:34","新北市新莊區化成路403巷31號","121.463585","25.0586616666667","6500500","新莊區"
"242021","350-TH","2018/11/12 20:29:30","新北市新莊區公園路10巷1號","121.447856666667","25.038765","6500500","新莊區"
"242015","351-TH","2018/11/12 20:29:30","新北市新莊區中平路46巷14號","121.445401666667","25.0438116666667","6500500","新莊區"
"221008","489-VK","2018/11/12 20:29:37","新北市汐止區康寧街543號","121.634253333333","25.06901","6501100","汐止區"
"221036","130-UY","2018/11/12 20:29:23","新北市汐止區新台五路二段138號","121.66385","25.0665233333333","6501100","汐止區"
"221015","131-UY","2018/11/12 20:29:36","新北市汐止區建成路160巷16號","121.661926666667","25.0739633333333","6501100","汐止區"
"221010","269-BY","2018/11/12 20:29:27","新北市汐止區八連路二段233號","121.631973333333","25.0970666666667","6501100","汐止區"
"221012","278-VK","2018/11/12 20:29:36","新北市汐止區大同路三段597號","121.683436666667","25.0732766666667","6501100","汐止區"
"221032","280-BY","2018/11/12 20:29:27","新北市汐止區弘道街53巷16號","121.618753333333","25.0491616666667","6501100","汐止區"
"221027","281-BY","2018/11/12 20:29:25","新北市汐止區中正路223號","121.658086666667","25.06882","6501100","汐止區"
"221029","298-VK","2018/11/12 20:29:34","新北市汐止區樟樹一路129巷32號","121.640501666667","25.0651416666667","6501100","汐止區"
"221021","299-VK","2018/11/12 20:29:26","新北市汐止區水源路一段288號","121.654143333333","25.0581016666667","6501100","汐止區"
"221031","353-TW","2018/11/12 20:29:38","新北市汐止區中興路110巷36號","121.634291666667","25.0646916666667","6501100","汐止區"
"221035","622-UM","2018/11/12 20:29:24","新北市汐止區長江街101-5號","121.658728333333","25.0732183333333","6501100","汐止區"
"221025","623-UM","2018/11/12 20:29:19","新北市汐止區水源路二段88巷1弄7號","121.656456666667","25.0555933333333","6501100","汐止區"
"221038","646-BX","2018/11/12 20:29:21","新北市汐止區水源路一段56-1號","121.6571","25.0654116666667","6501100","汐止區"
"221033","647-BX","2018/11/12 20:29:30","新北市汐止區林森街73巷15號","121.623803333333","25.0413166666667","6501100","汐止區"
"221002","707-TV","2018/11/12 20:29:29","新北市汐止區福德二路49號","121.634268333333","25.0672983333333","6501100","汐止區"
"221018","753-BX","2018/11/12 20:29:36","新北市汐止區茄苳路225巷11弄5號","121.671258333333","25.069495","6501100","汐止區"
"220083","286-VK","2018/11/12 20:29:24","新北市板橋區僑中二街102巷32號","121.444911666667","25.008445","6500100","板橋區"
"220061","295-UM","2018/11/12 20:29:37","新北市板橋區四川路一段316號","121.4583","25.000225","6500100","板橋區"
"242002","281-VK","2018/11/12 20:29:25","新北市新莊區中正路育農巷1號","121.456948333333","25.0379033333333","6500500","新莊區"
"220089","487-VK","2018/11/12 20:29:27","新北市板橋區文化路二段656號","121.479355","25.037935","6500100","板橋區"
"242034","280-VK","2018/11/12 20:29:35","新北市新莊區中正路334巷10號","121.445745","25.0353","6500500","新莊區"
"220103","561-BX","2018/11/12 20:29:09","新北市板橋區漢生東路23巷21號","121.465555","25.0177","6500100","板橋區"
"220070","AAC-253","2018/11/12 20:29:32","新北市新莊區新五路一段6-1號","121.442493333333","25.0577","6500100","板橋區"
