"lineid","car","time","location","longitude","latitude","cityid","cityname"
"231059","046-UY","2018/11/12 21:16:54","新北市新店區僑義路9號","121.500238333333","24.9517666666667","6500600","新店區"
"231040","047-UY","2018/11/12 21:17:03","新北市新店區北新路一段263號","121.541011666667","24.9663933333333","6500600","新店區"
"231047","187-VK","2018/11/12 21:17:06","新北市新店區民生路158巷1號","121.528343333333","24.9804","6500600","新店區"
"231054","KEA-2219","2018/11/12 21:17:03","新北市新店區檳榔路17號","121.54138","24.9641616666667","6500600","新店區"
"231051","278-BY","2018/11/12 21:16:52","台北市文山區景文街146巷22號","121.53282","24.9925816666667","6500600","新店區"
"231050","AAD-862","2018/11/12 21:17:08","新北市新店區中正路183巷4號","121.540485","24.9720183333333","6500600","新店區"
"231065","512-UM","2018/11/12 21:16:53","新北市新店區薏仁坑路自強巷6號","121.496625","24.9584683333333","6500600","新店區"
"231061","619-UM","2018/11/12 21:16:57","新北市新店區永平街14號","121.516901666667","24.9836483333333","6500600","新店區"
"231063","641-BX","2018/11/12 21:17:06","新北市新店區玫瑰路57巷45號","121.49742","24.94648","6500600","新店區"
"231060","897-TW","2018/11/12 21:16:59","新北市新店區薏仁坑路自強巷6號","121.496413333333","24.958335","6500600","新店區"
"241011","013-R5","2018/11/12 21:16:52","新北市三重區龍濱路100號","121.50223","25.070165","6500200","三重區"
"241028","022-UY","2018/11/12 21:16:55","新北市三重區正義南路165-1號","121.498913333333","25.0575566666667","6500200","三重區"
"241008","059-VK","2018/11/12 21:17:05","新北市三重區自強路一段64號","121.497201666667","25.06675","6500200","三重區"
"241031","061-VK","2018/11/12 21:17:07","新北市三重區五谷王南街46巷37號","121.475746666667","25.04553","6500200","三重區"
"241017","063-VK","2018/11/12 21:17:05","新北市三重區國隆路30號","121.492256666667","25.0644066666667","6500200","三重區"
"241024","065-VK","2018/11/12 21:16:59","新北市三重區中正北路145巷14號","121.48415","25.0677983333333","6500200","三重區"
"241026","066-VK","2018/11/12 21:17:07","新北市三重區大同南路218號","121.496805","25.0563616666667","6500200","三重區"
"241002","090-VK","2018/11/12 21:17:07","新北市三重區五華街11號","121.494956666667","25.080315","6500200","三重區"
"241003","091-VK","2018/11/12 21:17:08","新北市三重區仁義街321號","121.495368333333","25.08438","6500200","三重區"
"251014","742-BX","2018/11/12 21:17:08","新北市淡水區六塊厝2-1號","121.450155","25.24045","6501000","淡水區"
"241005","262-UM","2018/11/12 21:17:00","新北市三重區五華街180巷17號","121.488131666667","25.0860216666667","6500200","三重區"
"241016","266-UM","2018/11/12 21:17:03","新北市三重區大智街45號","121.493475","25.0664016666667","6500200","三重區"
"241009","267-UM","2018/11/12 21:16:54","新北市三重區忠孝路二段158號","121.482358333333","25.0679066666667","6500200","三重區"
"241018","268-UM","2018/11/12 21:16:57","新北市三重區忠孝路一段183號","121.487371666667","25.0716933333333","6500200","三重區"
"241032","269-UM","2018/11/12 21:16:51","新北市三重區中興北街134號","121.468976666667","25.0558683333333","6500200","三重區"
"241013","270-UM","2018/11/12 21:16:56","新北市三重區仁愛街81-1號","121.495931666667","25.073145","6500200","三重區"
"241025","271-UM","2018/11/12 21:17:06","新北市三重區中正北路208巷10弄4號","121.482351666667","25.0669366666667","6500200","三重區"
"241004","475-VK","2018/11/12 21:16:56","新北市三重區仁愛街418號","121.490441666667","25.0813933333333","6500200","三重區"
"241014","543-UM","2018/11/12 21:16:59","新北市三重區安和路39號","121.500966666667","25.06926","6500200","三重區"
"241023","545-UM","2018/11/12 21:16:52","新北市三重區中正北路176巷16號","121.482683333333","25.0658866666667","6500200","三重區"
"241001","547-UM","2018/11/12 21:17:04","新北市三重區福隆路48號","121.492395","25.0785333333333","6500200","三重區"
"241019","KEA-2593","2018/11/12 21:17:01","新北市三重區重陽路三段7-3號","121.489211666667","25.06663","6500200","三重區"
"241006","AAD-863","2018/11/12 21:17:05","新北市三重區重陽路二段67號","121.487753333333","25.0638","6500200","三重區"
"241030","743-BX","2018/11/12 21:16:58","新北市三重區五谷王北街20巷15弄1號","121.475048333333","25.048475","6500200","三重區"
"241007","887-TS","2018/11/12 21:16:54","新北市三重區自強路三段80號","121.487136666667","25.074285","6500200","三重區"
"241012","941-UM","2018/11/12 21:17:00","新北市三重區龍門路282號","121.501958333333","25.07414","6500200","三重區"
"241029","942-UM","2018/11/12 21:17:09","新北市三重區電信街86號","121.495808333333","25.05825","6500200","三重區"
"241033","AAC-255","2018/11/12 21:16:55","新北市三重區光復路二段126巷23號","121.471051666667","25.05885","6500200","三重區"
"247012","KEA-2869","2018/11/12 21:17:04","新北市蘆洲區民族路236巷29號","121.48023","25.088615","6501400","蘆洲區"
"247002","893-R6","2018/11/12 21:16:53","新北市蘆洲區永樂街38巷57弄2號","121.458385","25.090205","6501400","蘆洲區"
"247024","500-BY","2018/11/12 21:16:53","新北市蘆洲區光明路100號","121.463255","25.0880433333333","6501400","蘆洲區"
"247014","339-TH","2018/11/12 21:17:09","新北市蘆洲區保和街50-8號","121.469996666667","25.0863633333333","6501400","蘆洲區"
"247006","337-TH","2018/11/12 21:17:00","新北市蘆洲區長安街25號","121.463986666667","25.079185","6501400","蘆洲區"
"247020","057-VK","2018/11/12 21:16:52","新北市蘆洲區民族路422巷116號","121.472548333333","25.0942233333333","6501400","蘆洲區"
"247010","056-VK","2018/11/12 21:16:57","新北市蘆洲區鷺江街16-2號","121.478868333333","25.0824816666667","6501400","蘆洲區"
"247008","053-VK","2018/11/12 21:17:06","新北市蘆洲區民生街26號","121.474963333333","25.078885","6501400","蘆洲區"
"247018","007-UY","2018/11/12 21:17:05","新北市蘆洲區復興路105巷11號","121.476408333333","25.0883666666667","6501400","蘆洲區"
"247004","002-UY","2018/11/12 21:16:55","新北市蘆洲區永安南路二段316號","121.45708","25.0826833333333","6501400","蘆洲區"
"247022","001-UY","2018/11/12 21:17:04","新北市蘆洲區三民路241號","121.469063333333","25.0889","6501400","蘆洲區"
"251009","008-UM","2018/11/12 21:16:51","新北市淡水區民族路112巷31號","121.462076666667","25.134775","6501000","淡水區"
"251005","010-UM","2018/11/12 21:17:05","新北市淡水區博愛街1號","121.446165","25.1703883333333","6501000","淡水區"
"251001","011-UM","2018/11/12 21:17:07","新北市淡水區中山北路二段187號","121.443753333333","25.1852016666667","6501000","淡水區"
"251002","012-UM","2018/11/12 21:16:58","新北市淡水區水源街一段83巷149-14號","121.448086666667","25.1735016666667","6501000","淡水區"
"251013","KEA-2871","2018/11/12 21:17:11","新北市淡水區行忠路328號","121.460498333333","25.1996116666667","6501000","淡水區"
"251016","179-VK","2018/11/12 21:17:02","新北市淡水區前洲子11號","121.441053333333","25.219415","6501000","淡水區"
"251008","180-VK","2018/11/12 21:16:51","新北市淡水區水源街二段246號","121.462638333333","25.17606","6501000","淡水區"
"251015","182-VK","2018/11/12 21:17:01","新北市淡水區淡金路四段542巷41號","121.453445","25.2271833333333","6501000","淡水區"
"251010","413-VK","2018/11/12 21:17:05","新北市淡水區中正路一段112號","121.423736666667","25.1780983333333","6501000","淡水區"
"249004","440-VK","2018/11/12 21:16:58","新北市八里區博物館路10-1號","121.415216666667","25.1642333333333","6502300","八里區"
"251012","441-VK","2018/11/12 21:16:56","新北市淡水區淡金路五段35巷46號","121.452475","25.2347383333333","6501000","淡水區"
"251007","442-VK","2018/11/12 21:16:57","新北市淡水區學府路96號","121.449655","25.1715","6501000","淡水區"
"251011","650-BX","2018/11/12 21:17:02","新北市淡水區新民街120巷29號","121.438883333333","25.1788083333333","6501000","淡水區"
"251003","766-UM","2018/11/12 21:16:59","新北市淡水區崁頂15-5號","121.438998333333","25.1858733333333","6501000","淡水區"
"242001","233-RS","2018/11/12 21:03:47","新北市泰山區新北大道五段299號","121.433531666667","25.044905","6500500","新莊區"
"220070","AAC-253","2018/11/12 21:16:52","新北市八里區荖阡坑路15-66號","121.398465","25.140795","6500100","板橋區"
