"lineid","car","time","location","longitude","latitude","cityid","cityname"
"251008","180-VK","2018/11/12 22:17:51","新北市淡水區學府路104號","121.449881666667","25.17177","6501000","淡水區"
"251010","413-VK","2018/11/12 22:18:05","新北市淡水區沙崙路200號","121.424713333333","25.1839433333333","6501000","淡水區"
"251007","442-VK","2018/11/12 22:17:57","新北市淡水區北新路137號","121.449376666667","25.1789316666667","6501000","淡水區"
"251004","443-VK","2018/11/12 22:17:56","新北市淡水區民族路33號","121.462266666667","25.135825","6501000","淡水區"
"251011","650-BX","2018/11/12 22:18:01","新北市淡水區水碓街15-1號","121.44324","25.1771883333333","6501000","淡水區"
"242001","233-RS","2018/11/12 22:02:19","新北市泰山區新北大道五段299號","121.433526666667","25.0449016666667","6500500","新莊區"
