"lineid","car","time","location","longitude","latitude","cityid","cityname"
"232002","290-BY","2018/11/13 06:59:20","新北市坪林區下坑子口15-1號","121.717326666667","24.94843","6502000","坪林區"
"232013","291-BY","2018/11/13 06:59:15","新北市坪林區灣潭7-6號","121.678125","24.934005","6502000","坪林區"
"232006","758-BX","2018/11/13 06:59:06","新北市坪林區石48-7號","121.731676666667","24.8947183333333","6502000","坪林區"
"244002","248-BX","2018/11/13 06:59:05","新北市林口區粉寮1號","121.397553333333","25.0800183333333","6501700","林口區"
"235001","611-BX","2018/11/13 06:59:18","新北市中和區圓通路367巷6號","121.491421666667","24.9891666666667","6500300","中和區"
"235001","157-BY","2018/11/13 06:59:18","新北市中和區和平街29-1號","121.507405","24.9909633333333","6500300","中和區"
"226006","AGD-0702","2018/11/13 06:59:18","新北市平溪區石底里公園街18-3號","121.73355","25.0255666666667","6502400","平溪區"
"223006","022-BY","2018/11/13 06:59:05","新北市石碇區碇坪路一段38號","121.654258333333","24.996545","6501900","石碇區"
"223002","KEA-2673","2018/11/13 06:59:10","新北市石碇區半路店2-2號","121.64679","24.96681","6501900","石碇區"
"223003","205-TH","2018/11/13 06:59:19","新北市石碇區石崁33-3號","121.65963","24.9926783333333","6501900","石碇區"
"223008","406-TH","2018/11/13 06:59:12","新北市石碇區雙溪84-1號","121.661295","25.0088883333333","6501900","石碇區"
"223001","592-UM","2018/11/13 06:59:08","新北市石碇區石崁33-2號","121.659283333333","24.9922366666667","6501900","石碇區"
"223004","660-BX","2018/11/13 06:59:09","新北市石碇區碇坪路一段58號","121.657068333333","24.9914333333333","6501900","石碇區"
"223007","661-BX","2018/11/13 06:59:10","新北市石碇區靜安路一段97號","121.661186666667","25.0087066666667","6501900","石碇區"
"223005","677-TV","2018/11/13 06:59:16","新北市石碇區碇坪路一段58號","121.657083333333","24.9915033333333","6501900","石碇區"
"227006","400-TW","2018/11/13 06:59:09","新北市雙溪區新基里自強路7號","121.866281666667","25.0390166666667","6502500","雙溪區"
"252007","AAC-283","2018/11/13 06:59:00","新北市三芝區中興街一段12號","121.497426666667","25.25905","6502100","三芝區"
