"lineid","car","time","location","longitude","latitude","cityid","cityname"
"248005","653-BX","2018/10/06 08:17:34","新北市五股區明德路12巷1號","121.433343333333","25.0717633333333","6501500","五股區"
"244005","248-BX","2018/10/06 08:17:45","新北市林口區下福99號","121.291663333333","25.1177566666667","6501700","林口區"
"222004","289-BY","2018/10/06 07:55:51","新北市深坑區昇高坑路43號","121.629243333333","24.9972866666667","6501800","深坑區"
"231007","189-VK","2018/10/06 08:17:42","新北市新店區新潭路一段80-1號","121.52633","24.9392066666667","6500600","新店區"
"231008","192-VK","2018/10/06 08:17:46","新北市新店區新烏路一段171號","121.545135","24.934245","6500600","新店區"
"235001","611-BX","2018/10/06 08:17:30","新北市中和區錦和路201號","121.490821666667","24.99043","6500300","中和區"
"226005","5620-A6","2018/10/06 08:17:48","新北市平溪區南山里南山坪101-1號","121.778941666667","25.042565","6502400","平溪區"
"226007","7418-A5","2018/10/06 08:17:40","新北市平溪區靜安路三段67號","121.766868333333","25.0329783333333","6502400","平溪區"
"226003","AGD-0702","2018/10/06 08:17:45","新北市平溪區十分里十分街51號","121.774933333333","25.04122","6502400","平溪區"
"223006","022-BY","2018/10/06 08:17:33","新北市石碇區北宜路五段58號","121.634091666667","24.9532216666667","6501900","石碇區"
"223003","205-TH","2018/10/06 08:17:38","新北市石碇區北宜路六段塗潭巷2號","121.64444","24.938005","6501900","石碇區"
"223004","437-BY","2018/10/06 08:17:47","新北市石碇區外按11-5號","121.651488333333","24.99944","6501900","石碇區"
"223001","592-UM","2018/10/06 08:17:46","新北市石碇區北宜路六段塗潭巷2號","121.644366666667","24.937285","6501900","石碇區"
"223007","661-BX","2018/10/06 08:17:45","新北市石碇區靜安路一段125號","121.670695","25.005425","6501900","石碇區"
"223005","677-TV","2018/10/06 08:17:34","新北市石碇區外按18-2號","121.651316666667","24.9994866666667","6501900","石碇區"
"227006","282-VK","2018/10/06 08:17:46","新北市雙溪區平林里竹寮坑10號","121.843375","25.04385","6502500","雙溪區"
"252004","249-BX","2018/10/06 08:17:44","新北市三芝區興華里車埕62號","121.498653333333","25.1968233333333","6502100","三芝區"
"252007","AAC-283","2018/10/06 08:17:47","新北市三芝區後厝里大片頭101-3號","121.462715","25.24012","6502100","三芝區"
"237001","159-UY","2018/10/06 08:17:43","新北市三峽區三樹路199號","121.378148333333","24.9422266666667","6500900","三峽區"
