"lineid","car","time","location","longitude","latitude","cityid","cityname"
"234044","148-BY","2018/10/06 13:19:48","新北市永和區得和路375號","121.524726666667","24.999635","6500400","永和區"
"234005","207-UY","2018/10/06 13:19:40","新北市永和區中山路一段343號","121.505716666667","25.0059316666667","6500400","永和區"
"234078","298-R6","2018/10/06 13:19:50","新北市永和區福和路7巷3號","121.525121666667","25.0081916666667","6500400","永和區"
"234036","336-UY","2018/10/06 13:19:40","新北市永和區民樂街62號","121.527393333333","24.9988666666667","6500400","永和區"
"234062","337-UY","2018/10/06 13:19:55","新北市永和區永元路83巷16號","121.52161","25.00144","6500400","永和區"
"234084","338-UY","2018/10/06 13:19:53","新北市永和區永利路39號","121.518818333333","25.00556","6500400","永和區"
"234068","552-UM","2018/10/06 13:19:39","新北市永和區豫溪街55號","121.51721","25.0099116666667","6500400","永和區"
"234015","745-BX","2018/10/06 13:19:56","新北市永和區環河西路一段91號","121.512155","25.0177066666667","6500400","永和區"
"234028","746-BX","2018/10/06 13:19:39","新北市永和區厚德街62號","121.524266666667","24.9988416666667","6500400","永和區"
"234052","KEA-2590","2018/10/06 13:19:49","新北市永和區中興街35號","121.516208333333","25.0118266666667","6500400","永和區"
"234012","KEA-2591","2018/10/06 13:19:47","新北市永和區信義路21號","121.5141","25.0122166666667","6500400","永和區"
"234060","AAD-866","2018/10/06 13:19:56","新北市永和區秀朗路一段175號","121.517091666667","25.003685","6500400","永和區"
"234040","862-TW","2018/10/06 13:19:48","新北市永和區保平路151巷6弄1號","121.510288333333","25.0053366666667","6500400","永和區"
"234048","863-TW","2018/10/06 13:19:46","新北市永和區仁愛路144號","121.51089","25.0132733333333","6500400","永和區"
"234025","9371-KE","2018/10/06 13:19:45","新北市永和區豫溪街28巷14號","121.515161666667","25.0093833333333","6500400","永和區"
"234010","9373-KE","2018/10/06 13:19:41","新北市永和區文化路90巷32弄1號","121.51346","25.01673","6500400","永和區"
"248017","225-UY","2018/10/06 13:19:45","新北市五股區御史路199-7號","121.432626666667","25.0991066666667","6501500","五股區"
"234022","9380-KE","2018/10/06 13:19:38","新北市永和區竹林路91巷21弄11號","121.52085","25.01251","6500400","永和區"
"234076","969-R7","2018/10/06 13:19:56","新北市永和區民有街59號","121.517561666667","24.9958983333333","6500400","永和區"
"234072","AAC-211","2018/10/06 13:19:52","新北市永和區竹林路44-2號","121.517601666667","25.0142366666667","6500400","永和區"
"234066","AAC-212","2018/10/06 13:19:46","新北市永和區保平路50巷8弄1號","121.510936666667","25.0075683333333","6500400","永和區"
"234001","AAC-295","2018/10/06 13:19:54","新北市永和區保福路一段82號","121.512256666667","25.0101633333333","6500400","永和區"
"244005","248-BX","2018/10/06 13:19:41","新北市林口區南勢里95-3號","121.350156666667","25.0777416666667","6501700","林口區"
"231028","001-UM","2018/10/06 13:19:46","新北市新店區安華路28-1號","121.519566666667","24.960995","6500600","新店區"
"231002","002-UM","2018/10/06 13:19:37","新北市新店區安華路28-1號","121.519818333333","24.960815","6500600","新店區"
"231027","0293-UT","2018/10/06 13:19:39","新北市新店區秀山路14號","121.532875","24.9602583333333","6500600","新店區"
"231001","047-UY","2018/10/06 13:19:49","新北市新店區安華路28-1號","121.519325","24.960935","6500600","新店區"
"231005","106-UY","2018/10/06 13:19:43","新北市新店區安華路28-1號","121.519746666667","24.9607833333333","6500600","新店區"
"231010","107-UY","2018/10/06 13:19:52","新北市新店區安康路一段105號","121.528981666667","24.9615783333333","6500600","新店區"
"231012","187-VK","2018/10/06 13:19:44","新北市新店區安一路一段1-1號","121.519788333333","24.9613866666667","6500600","新店區"
"231033","188-VK","2018/10/06 13:19:41","新北市新店區安一路一段1-1號","121.519408333333","24.96132","6500600","新店區"
"231020","189-VK","2018/10/06 13:19:41","新北市新店區安康路一段355-10號","121.520628333333","24.9638483333333","6500600","新店區"
"231023","KEA-2219","2018/10/06 13:19:45","新北市新店區安康路一段126號","121.526833333333","24.9627833333333","6500600","新店區"
"231026","256-BX","2018/10/06 13:19:57","新北市新店區安一路一段1-1號","121.51979","24.9611416666667","6500600","新店區"
"231003","268-BY","2018/10/06 13:19:38","新北市新店區安華路28-1號","121.519433333333","24.960585","6500600","新店區"
"231018","278-BY","2018/10/06 13:19:41","新北市新店區安康路一段201-1號","121.52623","24.9629216666667","6500600","新店區"
"231017","AAD-862","2018/10/06 13:19:50","新北市新店區安康路一段52巷1號","121.529901666667","24.961285","6500600","新店區"
"231038","3712-VJ","2018/10/06 13:19:48","新北市新店區安華路28-1號","121.519268333333","24.9606633333333","6500600","新店區"
"231037","4716-K9","2018/10/06 13:19:52","新北市新店區安華路28-1號","121.51971","24.9609483333333","6500600","新店區"
"231025","4715-K9","2018/10/06 13:19:42","新北市新店區中央七街58號","121.52808","24.9761633333333","6500600","新店區"
"231036","512-UM","2018/10/06 13:19:40","新北市新店區安忠路205巷8號","121.509838333333","24.9552366666667","6500600","新店區"
"231013","513-UM","2018/10/06 13:19:48","新北市新店區安華路8號","121.519846666667","24.9621783333333","6500600","新店區"
"231034","616-UM","2018/10/06 13:19:41","新北市新店區安華路1-1號","121.519531666667","24.9605166666667","6500600","新店區"
"231030","619-UM","2018/10/06 13:19:55","新北市新店區安華路28-1號","121.519698333333","24.9606816666667","6500600","新店區"
"231035","719-UM","2018/10/06 13:19:38","新北市新店區安一路一段1-1號","121.519633333333","24.9613833333333","6500600","新店區"
"231029","897-TW","2018/10/06 13:19:53","新北市新店區安華路28-1號","121.519751666667","24.96086","6500600","新店區"
"231006","898-TW","2018/10/06 13:19:35","新北市新店區安華路28-1號","121.519423333333","24.9610033333333","6500600","新店區"
"231004","899-TW","2018/10/06 13:19:50","新北市新店區安華路28-1號","121.519208333333","24.9608283333333","6500600","新店區"
"231024","AKT-0513","2018/10/06 13:19:43","新北市新店區中正路128巷11號","121.54252","24.9719733333333","6500600","新店區"
"235030","003-UY","2018/10/06 13:19:40","新北市中和區中山路二段117號","121.503023333333","25.0035666666667","6500300","中和區"
"235028","005-UY","2018/10/06 13:19:58","新北市中和區圓通路167巷8號","121.498025","24.9949883333333","6500300","中和區"
"235027","006-UY","2018/10/06 13:19:39","新北市中和區員山路36巷16-3號","121.485063333333","24.99131","6500300","中和區"
"235020","096-UM","2018/10/06 13:19:40","新北市中和區員山路36巷13號","121.484335","24.99151","6500300","中和區"
"235003","097-UM","2018/10/06 13:19:49","新北市中和區安平路29號","121.509293333333","24.9944116666667","6500300","中和區"
"235029","098-UM","2018/10/06 13:19:45","新北市中和區莊敬路49巷20弄24號","121.502775","25.005705","6500300","中和區"
"235004","150-BY","2018/10/06 13:19:44","新北市中和區安平路59號","121.509655","24.995125","6500300","中和區"
"235022","151-BY","2018/10/06 13:19:39","新北市中和區圓通路367巷55弄4號","121.49206","24.983895","6500300","中和區"
"235019","183-VK","2018/10/06 13:19:48","新北市中和區中正路637巷52弄11號","121.484841666667","24.9936883333333","6500300","中和區"
"235002","185-VK","2018/10/06 13:19:47","新北市中和區大智街30號","121.521343333333","24.9920533333333","6500300","中和區"
"235013","186-VK","2018/10/06 13:19:39","新北市中和區和城路一段271巷1號","121.4854","24.9919816666667","6500300","中和區"
"235031","255-BX","2018/10/06 13:19:51","新北市中和區連城路340巷10弄4號","121.482825","24.9965266666667","6500300","中和區"
"235007","352-BY","2018/10/06 13:19:48","新北市中和區景平路379號","121.504085","24.9934483333333","6500300","中和區"
"235006","KEA-2878","2018/10/06 13:19:49","新北市中和區景平路159巷4號","121.512601666667","24.9921683333333","6500300","中和區"
"235014","4979-A6","2018/10/06 13:19:49","新北市中和區捷運路61巷9號","121.509083333333","24.9893666666667","6500300","中和區"
"235033","4980-A6","2018/10/06 13:19:45","新北市中和區圓通路250號","121.494446666667","24.9919816666667","6500300","中和區"
"235034","558-UM","2018/10/06 13:19:39","新北市中和區圓通路114號","121.499278333333","24.9963883333333","6500300","中和區"
"235009","565-BX","2018/10/06 13:19:45","新北市中和區景安路200巷2弄2號","121.503995","24.991405","6500300","中和區"
"235018","640-BX","2018/10/06 13:19:38","新北市中和區莒光路163號","121.472701666667","25.0002383333333","6500300","中和區"
"235035","783-BX","2018/10/06 13:19:48","新北市中和區中板路18巷3弄27號","121.483308333333","25.013155","6500300","中和區"
"235026","800-TS","2018/10/06 13:19:56","新北市中和區景平路999巷2號","121.495363333333","25.0059666666667","6500300","中和區"
"235021","801-TS","2018/10/06 13:19:45","新北市中和區連城路330號","121.483195","24.9959633333333","6500300","中和區"
"235005","802-TS","2018/10/06 13:19:39","新北市中和區景安路34號","121.507103333333","24.9984083333333","6500300","中和區"
"235016","805-TS","2018/10/06 13:19:41","新北市中和區興南路二段21號","121.507911666667","24.9860366666667","6500300","中和區"
"235012","896-TW","2018/10/06 13:19:38","新北市中和區員山路36巷16-3號","121.484961666667","24.9918716666667","6500300","中和區"
"235015","157-BY","2018/10/06 13:19:54","新北市中和區華新街109巷2號","121.508446666667","24.982635","6500300","中和區"
"235001","AAC-213","2018/10/06 13:19:43","新北市中和區景德街67號","121.516871666667","24.99141","6500300","中和區"
"235023","AAC-215","2018/10/06 13:19:46","新北市中和區員山路36巷16-3號","121.485038333333","24.9914183333333","6500300","中和區"
"247009","056-VK","2018/10/06 13:19:51","新北市五股區中興路三段2巷10號","121.449013333333","25.0811083333333","6501400","蘆洲區"
"235011","251-BX","2018/10/06 13:19:43","新北市中和區錦和路350-1號","121.49026","24.9935766666667","6500300","中和區"
"228005","097-TW","2018/10/06 13:19:46","新北市貢寮區美豐里丹裡街18-2號","121.912623333333","25.0572433333333","6502600","貢寮區"
"228004","212-TW","2018/10/06 13:19:33","新北市貢寮區吉林里內寮街23號","121.902021666667","24.9845783333333","6502600","貢寮區"
"253003","6232-TK","2018/10/06 13:19:39","新北市石門區老崩山39-3號","121.565291666667","25.2661716666667","6502200","石門區"
"253001","6251-TK","2018/10/06 13:19:41","新北市石門區崁子腳46-1號","121.533683333333","25.2893933333333","6502200","石門區"
"253002","637-UY","2018/10/06 13:19:41","新北市石門區九芎林1號","121.555668333333","25.2754066666667","6502200","石門區"
"253004","8270-PC","2018/10/06 13:17:38","新北市石門區竹子湖11號","121.617656666667","25.2583583333333","6502200","石門區"
"207002","749-BX","2018/10/06 13:19:42","新北市萬里區崁腳里崁腳路166號","121.645156666667","25.15603","6502800","萬里區"
"252005","073-UM","2018/10/06 13:19:42","新北市三芝區八賢里八連溪88號","121.520493333333","25.2289583333333","6502100","三芝區"
"207001","662-BX","2018/10/06 13:19:43","新北市萬里區龜吼里玉田路27號","121.680425","25.1939466666667","6502800","萬里區"
"237001","159-UY","2018/10/06 13:19:55","新北市三峽區大學路77號","121.37608","24.9416033333333","6500900","三峽區"
"221015","131-UY","2018/10/06 13:19:43","新北市汐止區汐萬路三段197號","121.642228333333","25.0969483333333","6501100","汐止區"
"221010","269-BY","2018/10/06 13:19:58","新北市汐止區長青路124號","121.605758333333","25.1087816666667","6501100","汐止區"
"221012","278-VK","2018/10/06 13:19:37","新北市汐止區康寧街406號","121.63019","25.0679533333333","6501100","汐止區"
"220030","610-BX","2018/10/06 13:19:41","新北市板橋區華東街1-10號","121.448251666667","24.99495","6500100","板橋區"
"235032","KEA-2873","2018/10/06 13:19:44","新北市中和區員山路36巷16-3號","121.485036666667","24.9913366666667","6500300","中和區"
"235025","KEA-2875","2018/10/06 13:19:57","新北市中和區民享街116巷6-1號","121.47422","24.9987866666667","6500300","中和區"
