"lineid","car","time","location","longitude","latitude","cityid","cityname"
"244005","248-BX","2018/10/06 15:50:00","新北市林口區粉寮路二段160巷31號","121.40567","25.09104","6501700","林口區"
"231005","106-UY","2018/10/06 15:49:42","新北市新店區安德街60巷26號","121.511216666667","24.96407","6500600","新店區"
"231046","107-UY","2018/10/06 15:49:56","新北市新店區安一路一段1-1號","121.519743333333","24.961205","6500600","新店區"
"231012","187-VK","2018/10/06 15:49:44","新北市新店區文化路23號","121.54345","24.9797783333333","6500600","新店區"
"231033","188-VK","2018/10/06 15:49:40","新北市新店區雙城路115號","121.492506666667","24.9472366666667","6500600","新店區"
"231020","189-VK","2018/10/06 15:49:41","新北市新店區新烏路一段171號","121.5453","24.9343016666667","6500600","新店區"
"231023","KEA-2219","2018/10/06 15:49:45","新北市新店區光明街221號","121.540133333333","24.9641933333333","6500600","新店區"
"231026","256-BX","2018/10/06 15:49:42","新北市新店區中正路504號","121.533815","24.98246","6500600","新店區"
"231003","268-BY","2018/10/06 15:49:57","新北市新店區寶興路60巷4號","121.549821666667","24.9718433333333","6500600","新店區"
"231018","278-BY","2018/10/06 15:49:41","新北市新店區中正路663巷1弄2號","121.532958333333","24.9900216666667","6500600","新店區"
"231017","AAD-862","2018/10/06 15:49:50","新北市新店區中華路83號","121.539503333333","24.9685233333333","6500600","新店區"
"231038","3712-VJ","2018/10/06 15:49:48","新北市新店區安康路二段228巷2弄1號","121.509431666667","24.9595783333333","6500600","新店區"
"231037","4716-K9","2018/10/06 15:49:51","新北市新店區安興路112號","121.514796666667","24.977475","6500600","新店區"
"231013","513-UM","2018/10/06 15:50:00","新北市新店區永業路81巷3弄1號","121.529948333333","24.9492666666667","6500600","新店區"
"231034","616-UM","2018/10/06 15:49:41","新北市新店區吉祥街5巷2號","121.497333333333","24.9476433333333","6500600","新店區"
"231030","619-UM","2018/10/06 15:49:55","新北市新店區永安街78號","121.520066666667","24.98633","6500600","新店區"
"231039","718-UY","2018/10/06 15:49:56","新北市新店區溪洲路173-3號","121.529511666667","24.96382","6500600","新店區"
"231035","719-UM","2018/10/06 15:49:58","新北市新店區安興路83-3號","121.51528","24.9754466666667","6500600","新店區"
"231029","897-TW","2018/10/06 15:49:53","新北市新店區安華路28-1號","121.519428333333","24.960835","6500600","新店區"
"241028","022-UY","2018/10/06 15:49:50","新北市三重區重新路三段86號","121.493208333333","25.060695","6500200","三重區"
"241003","061-VK","2018/10/06 15:49:51","新北市三重區環河北路45號","121.501756666667","25.077625","6500200","三重區"
"241015","062-VK","2018/10/06 15:49:48","新北市三重區重新路四段121號","121.484828333333","25.05264","6500200","三重區"
"241017","063-VK","2018/10/06 15:49:44","新北市三重區大仁街1號","121.491596666667","25.0636183333333","6500200","三重區"
"241024","065-VK","2018/10/06 15:49:54","新北市三重區成功路108巷8號","121.485603333333","25.0504","6500200","三重區"
"241026","066-VK","2018/10/06 15:49:42","新北市三重區成功路1號","121.490713333333","25.0499866666667","6500200","三重區"
"241002","090-VK","2018/10/06 15:49:54","新北市三重區重新路四段121號","121.484733333333","25.05199","6500200","三重區"
"241005","262-UM","2018/10/06 15:49:47","新北市三重區環河北路353號","121.501953333333","25.0772416666667","6500200","三重區"
"241011","265-UM","2018/10/06 15:49:58","新北市三重區文化北路141號","121.49762","25.0692933333333","6500200","三重區"
"241016","266-UM","2018/10/06 15:49:54","新北市三重區重新路四段121號","121.484766666667","25.052565","6500200","三重區"
"241018","268-UM","2018/10/06 15:49:43","新北市三重區重新路四段121號","121.484965","25.05254","6500200","三重區"
"241032","269-UM","2018/10/06 15:49:46","新北市三重區三陽路100巷3弄13號","121.483018333333","25.0581466666667","6500200","三重區"
"241013","270-UM","2018/10/06 15:49:44","新北市三重區三和路三段40號","121.496013333333","25.0707433333333","6500200","三重區"
"241025","271-UM","2018/10/06 15:49:49","新北市三重區捷運路36號","121.482866666667","25.0552266666667","6500200","三重區"
"241007","398-BY","2018/10/06 15:49:57","新北市三重區新北大道一段250號","121.479933333333","25.061185","6500200","三重區"
"241031","462-BY","2018/10/06 15:38:23","新北市三重區重新路四段121號","121.48465","25.0520833333333","6500200","三重區"
"241004","475-VK","2018/10/06 15:49:42","新北市三重區重新路四段121號","121.485356666667","25.05192","6500200","三重區"
"241020","478-VK","2018/10/06 15:49:45","新北市三重區忠孝路二段54號","121.485011666667","25.0704216666667","6500200","三重區"
"241014","543-UM","2018/10/06 15:49:47","新北市三重區重新路四段121號","121.48512","25.05243","6500200","三重區"
"241023","545-UM","2018/10/06 15:49:59","新北市三重區三民街136號","121.48287","25.0651166666667","6500200","三重區"
"241001","887-TS","2018/10/06 15:49:53","新北市三重區新北大道一段250號","121.47989","25.06135","6500200","三重區"
"241012","941-UM","2018/10/06 15:49:43","新北市三重區長壽街1號","121.498163333333","25.0675383333333","6500200","三重區"
"241029","942-UM","2018/10/06 15:49:39","新北市三重區大同南路159號","121.496951666667","25.0557183333333","6500200","三重區"
"241033","AAC-255","2018/10/06 15:49:52","新北市三重區光復路一段99巷23號","121.47419","25.0508616666667","6500200","三重區"
"235033","4980-A6","2018/10/06 15:49:45","新北市中和區連城路469巷33號","121.483606666667","24.99463","6500300","中和區"
"235023","AAC-215","2018/10/06 15:49:46","新北市中和區員山路66-4號","121.481831666667","24.99185","6500300","中和區"
"220034","073-UY","2018/10/06 15:49:45","新北市板橋區大觀路二段431-1號","121.441103333333","24.994645","6500100","板橋區"
"227002","642-TC","2018/10/06 15:49:50","新北市雙溪區平林里外平林44號","121.852901666667","25.036315","6502500","雙溪區"
"227010","400-TW","2018/10/06 15:49:46","新北市雙溪區新基里自強路11號","121.865561666667","25.0392816666667","6502500","雙溪區"
"253003","6232-TK","2018/10/06 15:49:39","新北市石門區小坑9號","121.594315","25.288385","6502200","石門區"
"236068","105-UM","2018/10/06 15:49:57","新北市土城區福安街44號","121.418955","24.9648666666667","6501300","土城區"
"236074","166-UM","2018/10/06 15:49:52","新北市土城區福安街55巷19號","121.419103333333","24.9636533333333","6501300","土城區"
"236024","269-VK","2018/10/06 15:49:53","新北市土城區中央路一段249巷10弄20號","121.446051666667","24.9851966666667","6501300","土城區"
"236017","401-BY","2018/10/06 15:49:48","新北市土城區金城路三段245號","121.471633333333","24.9898166666667","6501300","土城區"
"236057","912-UM","2018/10/06 15:49:58","新北市土城區中央路二段219-3號","121.440993333333","24.9739333333333","6501300","土城區"
"236054","AAC-216","2018/10/06 15:49:51","新北市土城區中華路二段62號","121.438935","24.9765916666667","6501300","土城區"
"220018","AAC-253","2018/10/06 15:49:54","新北市板橋區華東街1-9號","121.44827","24.9948666666667","6500100","板橋區"
