"lineid","car","time","location","longitude","latitude","cityid","cityname"
"249005","172-UM","2018/10/06 17:09:36","新北市八里區華富山9號","121.418113333333","25.1394616666667","6502300","八里區"
"249001","173-UM","2018/10/06 17:09:52","新北市八里區中華路二段199號","121.406231666667","25.15027","6502300","八里區"
"249002","305-UY","2018/10/06 17:09:55","新北市八里區米倉18號","121.440483333333","25.1498033333333","6502300","八里區"
"249003","593-UM","2018/10/06 17:09:48","新北市八里區中山路二段409號","121.397488333333","25.1464266666667","6502300","八里區"
"249004","759-BX","2018/10/06 17:09:47","新北市八里區博物館路10-1號","121.415116666667","25.1640683333333","6502300","八里區"
"244007","080-UY","2018/10/06 17:09:50","新北市林口區菁埔13鄰39號","121.374593333333","25.09734","6501700","林口區"
"244019","403-UM","2018/10/06 17:09:49","新北市林口區仁愛路二段192巷6號","121.38014","25.0743233333333","6501700","林口區"
"244013","KEA-2802","2018/10/06 17:09:53","新北市林口區粉寮路二段88巷100-12號","121.409596666667","25.0902016666667","6501700","林口區"
"244017","485-VK","2018/10/06 17:09:57","新北市林口區粉寮路二段88巷62-7號","121.410073333333","25.0900683333333","6501700","林口區"
"244025","837-TS","2018/10/06 17:09:48","新北市林口區中山路68-1號","121.393356666667","25.078565","6501700","林口區"
"231046","107-UY","2018/10/06 17:07:21","新北市新店區直潭路92號","121.530948333333","24.937575","6500600","新店區"
"241028","022-UY","2018/10/06 17:09:50","新北市三重區重新路三段120號","121.492245","25.0601483333333","6500200","三重區"
"241008","059-VK","2018/10/06 17:09:55","新北市三重區力行路二段136巷3號","121.482236666667","25.07575","6500200","三重區"
"241022","060-VK","2018/10/06 17:09:46","新北市三重區重陽路二段18巷3號","121.486515","25.06239","6500200","三重區"
"241003","061-VK","2018/10/06 17:09:51","新北市三重區富福街94號","121.49301","25.0852816666667","6500200","三重區"
"241015","062-VK","2018/10/06 17:09:48","新北市三重區長生街25號","121.499536666667","25.0663416666667","6500200","三重區"
"241017","063-VK","2018/10/06 17:09:44","新北市三重區明志街12號","121.492073333333","25.0640433333333","6500200","三重區"
"241024","065-VK","2018/10/06 17:09:54","新北市三重區中正北路193巷11弄40號","121.478633333333","25.0705666666667","6500200","三重區"
"241026","066-VK","2018/10/06 17:09:42","新北市三重區重新路一段71號","121.501431666667","25.0636","6500200","三重區"
"241002","090-VK","2018/10/06 17:09:56","新北市三重區仁義街223號","121.496628333333","25.08209","6500200","三重區"
"251014","742-BX","2018/10/06 17:09:50","新北市淡水區八里堆7-6號","121.460641666667","25.2246683333333","6501000","淡水區"
"241005","262-UM","2018/10/06 17:09:46","新北市三重區仁愛街707號","121.482391666667","25.08059","6500200","三重區"
"241011","265-UM","2018/10/06 17:09:52","新北市三重區龍濱路285號","121.501086666667","25.07336","6500200","三重區"
"241016","266-UM","2018/10/06 17:09:54","新北市三重區大同北路60巷24號","121.493633333333","25.0635866666667","6500200","三重區"
"241009","267-UM","2018/10/06 17:09:49","新北市三重區三和路四段215巷6號","121.482003333333","25.079905","6500200","三重區"
"241018","268-UM","2018/10/06 17:09:43","新北市三重區大智街156號","121.491953333333","25.0688016666667","6500200","三重區"
"241032","269-UM","2018/10/06 17:09:46","新北市三重區興華街79號","121.484721666667","25.0598183333333","6500200","三重區"
"241013","270-UM","2018/10/06 17:09:44","新北市三重區仁愛街88號","121.495588333333","25.0736983333333","6500200","三重區"
"241025","271-UM","2018/10/06 17:09:49","新北市三重區中正北路560巷11號","121.470863333333","25.0715616666667","6500200","三重區"
"241007","398-BY","2018/10/06 17:09:57","新北市三重區三和路四段163巷49號","121.484716666667","25.07901","6500200","三重區"
"241031","462-BY","2018/10/06 17:09:56","新北市三重區重陽路一段113巷3號","121.487508333333","25.0598266666667","6500200","三重區"
"241004","475-VK","2018/10/06 17:09:42","新北市三重區五華街122巷7號","121.491468333333","25.0830316666667","6500200","三重區"
"241020","478-VK","2018/10/06 17:09:45","新北市三重區自強路三段36號","121.486885","25.072605","6500200","三重區"
"241030","480-VK","2018/10/06 17:09:55","新北市三重區集美街138號","121.489366666667","25.0532133333333","6500200","三重區"
"241014","543-UM","2018/10/06 17:09:47","新北市三重區龍濱路120-3號","121.501841666667","25.071075","6500200","三重區"
"241023","545-UM","2018/10/06 17:09:59","新北市三重區忠孝路三段84巷1號","121.480166666667","25.0646733333333","6500200","三重區"
"241019","743-BX","2018/10/06 17:09:48","新北市三重區力行路一段153巷32號","121.486061666667","25.069145","6500200","三重區"
"241001","887-TS","2018/10/06 17:09:53","新北市三重區仁愛街269巷56號","121.494488333333","25.0796466666667","6500200","三重區"
"241012","941-UM","2018/10/06 17:09:50","新北市三重區龍門路274巷35號","121.501143333333","25.07538","6500200","三重區"
"241029","942-UM","2018/10/06 17:09:59","新北市三重區重新路四段116號","121.487116666667","25.0567233333333","6500200","三重區"
"241033","AAC-255","2018/10/06 17:09:52","新北市三重區中興北街271號","121.469293333333","25.0605633333333","6500200","三重區"
"247012","KEA-2869","2018/10/06 17:09:48","新北市蘆洲區信義路292巷7號","121.477955","25.0877433333333","6501400","蘆洲區"
"247002","893-R6","2018/10/06 17:09:57","新北市蘆洲區永樂街61號","121.45644","25.0885216666667","6501400","蘆洲區"
"247016","546-UM","2018/10/06 17:09:51","新北市蘆洲區光華路73巷4號","121.468138333333","25.0824366666667","6501400","蘆洲區"
"247024","500-BY","2018/10/06 17:09:52","新北市蘆洲區長興路62號","121.463286666667","25.0838333333333","6501400","蘆洲區"
"247014","339-TH","2018/10/06 17:09:45","新北市蘆洲區中央路54號","121.473301666667","25.0835433333333","6501400","蘆洲區"
"247006","337-TH","2018/10/06 17:09:50","新北市蘆洲區中華街6巷24號","121.462976666667","25.082185","6501400","蘆洲區"
"247008","336-TH","2018/10/06 17:09:49","新北市蘆洲區信義路30巷97號","121.475016666667","25.0773316666667","6501400","蘆洲區"
"247020","057-VK","2018/10/06 17:09:47","新北市蘆洲區民族路426巷60號","121.472691666667","25.0938716666667","6501400","蘆洲區"
"247010","056-VK","2018/10/06 17:09:54","新北市蘆洲區鷺江街101號","121.476805","25.084015","6501400","蘆洲區"
"247018","007-UY","2018/10/06 17:09:51","新北市蘆洲區復興路109-1號","121.477208333333","25.08791","6501400","蘆洲區"
"247004","002-UY","2018/10/06 17:09:48","新北市蘆洲區長安街201-1號","121.46017","25.0819016666667","6501400","蘆洲區"
"247022","001-UY","2018/10/06 17:09:49","新北市蘆洲區三民路226號","121.46862","25.0893816666667","6501400","蘆洲區"
"228003","097-TW","2018/10/06 17:09:52","新北市貢寮區福隆里東興街31-1號","121.952311666667","25.0206333333333","6502600","貢寮區"
"228001","212-TW","2018/10/06 17:09:52","新北市貢寮區仁理村尖山腳街20號","121.924503333333","25.0478166666667","6502600","貢寮區"
"228002","663-BX","2018/10/06 17:09:59","新北市貢寮區龍崗里嵩陽街38號","121.90954","25.01666","6502600","貢寮區"
"224006","676-BX","2018/10/06 17:09:55","新北市瑞芳區大寮路101-6號","121.777856666667","25.0994666666667","6501200","瑞芳區"
"224008","285-BY","2018/10/06 17:09:57","新北市瑞芳區侯硐路121-1號","121.831331666667","25.089945","6501200","瑞芳區"
"224009","273-VK","2018/10/06 17:09:45","新北市瑞芳區汽車路93-7號","121.842875","25.1096433333333","6501200","瑞芳區"
"224005","271-BY","2018/10/06 17:09:46","新北市瑞芳區鼻頭路247號","121.911585","25.122935","6501200","瑞芳區"
"227002","642-TC","2018/10/06 17:09:49","新北市雙溪區外柑里田寮3號","121.806646666667","25.0169866666667","6502500","雙溪區"
"227010","400-TW","2018/10/06 17:09:46","新北市雙溪區三貂里子崙坑1-6號","121.849926666667","25.057475","6502500","雙溪區"
"251005","010-UM","2018/10/06 17:09:55","新北市淡水區中山路127號","121.441338333333","25.1712166666667","6501000","淡水區"
"251013","KEA-2871","2018/10/06 17:09:53","新北市淡水區大埤頭6號","121.483068333333","25.197235","6501000","淡水區"
"251016","179-VK","2018/10/06 17:09:59","新北市淡水區社厝坑3-6號","121.47497","25.1884766666667","6501000","淡水區"
"251015","180-VK","2018/10/06 17:09:48","新北市淡水區樹林口41號","121.472431666667","25.1680983333333","6501000","淡水區"
"251008","181-VK","2018/10/06 17:09:42","新北市淡水區民生路169號","121.469603333333","25.14224","6501000","淡水區"
"251010","413-VK","2018/10/06 17:09:44","新北市淡水區中正路二段31號","121.419415","25.1814766666667","6501000","淡水區"
"251012","441-VK","2018/10/06 17:09:50","新北市淡水區中山北路一段158號","121.444326666667","25.177885","6501000","淡水區"
"251004","443-VK","2018/10/06 17:09:47","新北市淡水區中正路334號","121.435748333333","25.1731533333333","6501000","淡水區"
"251006","561-UM","2018/10/06 17:09:51","新北市淡水區新民街19巷12號","121.438448333333","25.17476","6501000","淡水區"
"251009","575-R6","2018/10/06 17:09:49","新北市淡水區建設街1號","121.439023333333","25.171915","6501000","淡水區"
"251007","577-R6","2018/10/06 17:09:55","新北市淡水區淡金路39號","121.456213333333","25.1606466666667","6501000","淡水區"
"251011","650-BX","2018/10/06 17:09:48","新北市淡水區坪頂路49號","121.457768333333","25.16251","6501000","淡水區"
"252002","178-VK","2018/10/06 17:09:44","新北市三芝區忠孝街1-1號","121.505673333333","25.2546183333333","6502100","三芝區"
"252001","292-VK","2018/10/06 17:09:50","新北市三芝區埔頭里埔頭37號","121.498566666667","25.2603416666667","6502100","三芝區"
"242058","986-R7","2018/10/06 17:09:54","新北市新莊區新泰路255巷83號","121.44227","25.039165","6500500","新莊區"
"242056","751-BX","2018/10/06 17:09:53","新北市新莊區新莊路664-2號","121.442115","25.0327733333333","6500500","新莊區"
"242029","705-TV","2018/10/06 17:09:42","新北市新莊區新泰路255巷83號","121.442201666667","25.0391383333333","6500500","新莊區"
"242027","615-BX","2018/10/06 17:09:48","新北市新莊區新泰路357巷3弄57號","121.442121666667","25.0392533333333","6500500","新莊區"
"242025","613-BX","2018/10/06 17:10:00","新北市新莊區新泰路357巷3弄57號","121.442148333333","25.0391733333333","6500500","新莊區"
"242044","566-BX","2018/10/06 17:09:46","新北市新莊區新泰路357巷3弄37號","121.442028333333","25.0404166666667","6500500","新莊區"
"242048","497-BY","2018/10/06 17:09:44","新北市新莊區建福路25號","121.426153333333","25.0290616666667","6500500","新莊區"
"242011","442-UM","2018/10/06 17:09:52","新北市新莊區新泰路255巷83號","121.44211","25.038945","6500500","新莊區"
"242053","441-UM","2018/10/06 17:09:43","新北市新莊區新樹路69-67號","121.442106666667","25.0294516666667","6500500","新莊區"
"242039","415-TV","2018/10/06 17:09:53","新北市新莊區中正路384號","121.441928333333","25.0348733333333","6500500","新莊區"
"242009","413-TV","2018/10/06 17:09:57","新北市新莊區新泰路357巷3弄57號","121.442118333333","25.039435","6500500","新莊區"
"242046","400-BY","2018/10/06 17:09:51","新北市新莊區新泰路357巷3弄57號","121.44227","25.0395566666667","6500500","新莊區"
"242023","362-BY","2018/10/06 17:09:57","新北市新莊區新泰路255巷83號","121.442153333333","25.0390066666667","6500500","新莊區"
"242061","353-BY","2018/10/06 17:09:58","新北市新莊區新泰路357巷3弄57號","121.44213","25.039215","6500500","新莊區"
"242042","133-UY","2018/10/06 17:09:58","新北市新莊區新泰路357巷3弄51號","121.442471666667","25.0399933333333","6500500","新莊區"
"242034","135-UY","2018/10/06 17:09:35","新北市新莊區三和路12-21號","121.442178333333","25.038655","6500500","新莊區"
"242019","175-VK","2018/10/06 17:09:51","新北市新莊區三和路12-21號","121.442021666667","25.03872","6500500","新莊區"
"242002","347-TH","2018/10/06 17:09:59","新北市新莊區三和路12-21號","121.442208333333","25.038225","6500500","新莊區"
"242031","348-TH","2018/10/06 17:09:57","新北市新莊區新泰路357巷3弄57號","121.44223","25.0395666666667","6500500","新莊區"
"242004","349-TH","2018/10/06 17:09:46","新北市新莊區三和路12-21號","121.442188333333","25.0383466666667","6500500","新莊區"
"242021","350-TH","2018/10/06 17:09:52","新北市新莊區新泰路255巷83號","121.442038333333","25.03888","6500500","新莊區"
"242015","351-TH","2018/10/06 17:09:46","新北市新莊區新泰路357巷3弄57號","121.442135","25.039545","6500500","新莊區"
"238015","755-BX","2018/10/06 17:09:49","新北市樹林區福德街3號","121.401775","24.9757866666667","6500700","樹林區"
"238019","599-UM","2018/10/06 17:09:54","新北市樹林區太平路273巷23號","121.421208333333","24.9763316666667","6500700","樹林區"
"238018","571-TV","2018/10/06 17:09:59","新北市樹林區博愛街253號","121.42453","24.9846233333333","6500700","樹林區"
"238017","283-BY","2018/10/06 17:09:59","新北市樹林區東和街7號","121.404538333333","24.9795233333333","6500700","樹林區"
"238014","282-BY","2018/10/06 17:09:45","新北市樹林區大安路616號","121.411268333333","24.98298","6500700","樹林區"
"238020","268-VK","2018/10/06 17:09:38","新北市樹林區中山路二段89號","121.411355","24.9826366666667","6500700","樹林區"
"238016","169-UY","2018/10/06 17:09:52","新北市樹林區東興街4巷2號","121.408893333333","24.9797966666667","6500700","樹林區"
"239007","AAC-297","2018/10/06 17:09:50","新北市鶯歌區信義街24號","121.35328","24.9556433333333","6500800","鶯歌區"
"239006","891-R6","2018/10/06 17:09:57","新北市鶯歌區八德路2巷18弄1號","121.33643","24.946715","6500800","鶯歌區"
"239008","527-UM","2018/10/06 17:09:51","新北市鶯歌區文化路138號","121.351978333333","24.951295","6500800","鶯歌區"
"239005","526-UM","2018/10/06 17:09:47","新北市鶯歌區鶯桃路342號","121.333948333333","24.9623966666667","6500800","鶯歌區"
"239001","417-VK","2018/10/06 17:09:50","新北市鶯歌區尖山路140巷25號","121.346281666667","24.9491783333333","6500800","鶯歌區"
"239003","360-BY","2018/10/06 17:09:48","新北市鶯歌區八德路50號","121.330218333333","24.9555733333333","6500800","鶯歌區"
"239002","359-BY","2018/10/06 17:09:43","新北市鶯歌區建國路216號","121.348896666667","24.9534416666667","6500800","鶯歌區"
"239004","193-VK","2018/10/06 17:09:43","新北市鶯歌區文化路537號","121.353078333333","24.9479216666667","6500800","鶯歌區"
"242051","281-VK","2018/10/06 17:09:55","新北市新莊區新莊路769號","121.442141666667","25.032405","6500500","新莊區"
"242007","280-VK","2018/10/06 17:09:41","新北市新莊區三和路12-21號","121.442283333333","25.038415","6500500","新莊區"
