"lineid","car","time","location","longitude","latitude","cityid","cityname"
"249005","172-UM","2018/10/06 17:19:56","新北市八里區荖阡坑路46號","121.410578333333","25.124135","6502300","八里區"
"249001","173-UM","2018/10/06 17:19:52","新北市八里區中華路二段165巷3號","121.407656666667","25.1509","6502300","八里區"
"249002","305-UY","2018/10/06 17:19:55","新北市八里區龍米路二段117巷26號","121.444783333333","25.1428133333333","6502300","八里區"
"249003","593-UM","2018/10/06 17:19:48","新北市八里區中山路二段349號","121.399268333333","25.1471683333333","6502300","八里區"
"249004","759-BX","2018/10/06 17:19:47","新北市八里區忠孝路85號","121.424866666667","25.1603866666667","6502300","八里區"
"244023","069-UM","2018/10/06 17:19:51","新北市林口區隆林街96號","121.3858","25.0751816666667","6501700","林口區"
"244007","080-UY","2018/10/06 17:19:50","新北市林口區中湖40-9號","121.383335","25.0911766666667","6501700","林口區"
"244019","403-UM","2018/10/06 17:19:49","新北市林口區文化二路一段350號","121.372935","25.0752533333333","6501700","林口區"
"244013","KEA-2802","2018/10/06 17:19:53","新北市林口區粉寮路二段88巷100-12號","121.40961","25.0901666666667","6501700","林口區"
"244017","485-VK","2018/10/06 17:19:57","新北市林口區粉寮路一段105號","121.397943333333","25.0803633333333","6501700","林口區"
"244009","656-BX","2018/10/06 17:19:48","新北市林口區文化北路二段550巷29弄13號","121.379456666667","25.0924283333333","6501700","林口區"
"244011","701-TV","2018/10/06 17:19:57","新北市林口區仁愛路一段256號","121.394371666667","25.0759233333333","6501700","林口區"
"244025","837-TS","2018/10/06 17:19:48","新北市林口區文化三路一段557號","121.370213333333","25.0760033333333","6501700","林口區"
"244021","838-TS","2018/10/06 17:19:41","新北市林口區粉寮路二段338號","121.404696666667","25.0969483333333","6501700","林口區"
"231046","107-UY","2018/10/06 17:07:21","新北市新店區直潭路92號","121.530948333333","24.937575","6500600","新店區"
"241028","022-UY","2018/10/06 17:19:50","新北市三重區仁化街77號","121.494123333333","25.058635","6500200","三重區"
"241008","059-VK","2018/10/06 17:19:55","新北市三重區永福街72巷33號","121.48016","25.0763516666667","6500200","三重區"
"241022","060-VK","2018/10/06 17:19:46","新北市三重區中正北路64巷15號","121.48617","25.06392","6500200","三重區"
"241003","061-VK","2018/10/06 17:19:51","新北市三重區富福街26號","121.490578333333","25.0835933333333","6500200","三重區"
"241015","062-VK","2018/10/06 17:19:48","新北市三重區長元街82-1號","121.50186","25.066285","6500200","三重區"
"241017","063-VK","2018/10/06 17:19:44","新北市三重區大同北路52號","121.495073333333","25.06304","6500200","三重區"
"241024","065-VK","2018/10/06 17:19:54","新北市三重區大勇街82巷15弄12號","121.480158333333","25.071725","6500200","三重區"
"241026","066-VK","2018/10/06 17:19:42","新北市三重區福裕街51號","121.49874","25.061595","6500200","三重區"
"241002","090-VK","2018/10/06 17:19:54","新北市三重區自強路五段21-1號","121.493103333333","25.0807816666667","6500200","三重區"
"251014","742-BX","2018/10/06 17:19:50","新北市淡水區番子田120號","121.46422","25.2284866666667","6501000","淡水區"
"241005","262-UM","2018/10/06 17:19:46","新北市三重區永安北路二段25巷60號","121.48346","25.0822883333333","6500200","三重區"
"241011","265-UM","2018/10/06 17:19:52","新北市三重區河邊北街100巷27-1號","121.502718333333","25.0703266666667","6500200","三重區"
"241016","266-UM","2018/10/06 17:19:54","新北市三重區大同北路54巷5號","121.493973333333","25.0635866666667","6500200","三重區"
"241009","267-UM","2018/10/06 17:19:49","新北市三重區仁愛街598號","121.484056666667","25.08104","6500200","三重區"
"241018","268-UM","2018/10/06 17:19:43","新北市三重區安慶街130號","121.494816666667","25.0688933333333","6500200","三重區"
"241032","269-UM","2018/10/06 17:19:46","新北市三重區中華路2巷7號","121.48289","25.0604083333333","6500200","三重區"
"241013","270-UM","2018/10/06 17:19:44","新北市三重區三和路三段107巷19號","121.49494","25.0730333333333","6500200","三重區"
"241025","271-UM","2018/10/06 17:19:49","新北市三重區中正北路201號","121.476996666667","25.0698433333333","6500200","三重區"
"241007","398-BY","2018/10/06 17:19:57","新北市三重區三和路四段155巷31號","121.484798333333","25.07859","6500200","三重區"
"241020","478-VK","2018/10/06 17:19:45","新北市三重區永德街17號","121.489063333333","25.072575","6500200","三重區"
"241030","480-VK","2018/10/06 17:19:55","新北市三重區集美街164號","121.490068333333","25.0531333333333","6500200","三重區"
"241014","543-UM","2018/10/06 17:19:47","新北市三重區三和路二段83號","121.500088333333","25.06843","6500200","三重區"
"241023","545-UM","2018/10/06 17:19:54","新北市三重區三民街148號","121.482603333333","25.0653966666667","6500200","三重區"
"241019","743-BX","2018/10/06 17:19:48","新北市三重區忠孝路二段4號","121.486771666667","25.0713766666667","6500200","三重區"
"241001","887-TS","2018/10/06 17:19:53","新北市三重區集賢路87-1號","121.493723333333","25.0868816666667","6500200","三重區"
"241012","941-UM","2018/10/06 17:19:43","新北市三重區仁昌街107號","121.500116666667","25.0751466666667","6500200","三重區"
"241033","AAC-255","2018/10/06 17:19:52","新北市三重區中興北街191號","121.46904","25.0564466666667","6500200","三重區"
"247012","KEA-2869","2018/10/06 17:19:48","新北市蘆洲區信義路319巷8號","121.477863333333","25.0862516666667","6501400","蘆洲區"
"247002","893-R6","2018/10/06 17:19:57","新北市蘆洲區永樂街38巷43號","121.458246666667","25.089805","6501400","蘆洲區"
"247016","546-UM","2018/10/06 17:19:51","新北市蘆洲區正和街96巷37號","121.467431666667","25.08144","6501400","蘆洲區"
"247024","500-BY","2018/10/06 17:19:43","新北市蘆洲區長榮路416號","121.459506666667","25.0878133333333","6501400","蘆洲區"
"247014","339-TH","2018/10/06 17:19:45","新北市蘆洲區中正路83號","121.470056666667","25.08354","6501400","蘆洲區"
"247006","337-TH","2018/10/06 17:19:50","新北市蘆洲區長安街73巷20號","121.461963333333","25.079575","6501400","蘆洲區"
"247008","336-TH","2018/10/06 17:19:49","新北市蘆洲區永安北路一段72巷5號","121.476743333333","25.0768483333333","6501400","蘆洲區"
"247020","057-VK","2018/10/06 17:19:47","新北市蘆洲區仁愛街8號","121.472486666667","25.0924016666667","6501400","蘆洲區"
"247010","056-VK","2018/10/06 17:19:54","新北市蘆洲區三民路26巷10號","121.47687","25.08262","6501400","蘆洲區"
"247018","007-UY","2018/10/06 17:19:51","新北市蘆洲區民權路94號","121.474176666667","25.0880283333333","6501400","蘆洲區"
"247004","002-UY","2018/10/06 17:19:42","新北市蘆洲區中原路70號","121.458463333333","25.0819766666667","6501400","蘆洲區"
"247022","001-UY","2018/10/06 17:19:49","新北市蘆洲區三民路128巷66號","121.470246666667","25.0891533333333","6501400","蘆洲區"
"228003","097-TW","2018/10/06 17:19:52","新北市貢寮區福隆里興隆街21號","121.943593333333","25.0165583333333","6502600","貢寮區"
"228001","212-TW","2018/10/06 17:19:52","新北市貢寮區仁理村尖山腳街18-3號","121.925543333333","25.0482933333333","6502600","貢寮區"
"228002","663-BX","2018/10/06 17:19:59","新北市貢寮區雙玉里下雙溪街28號","121.924986666667","25.0117216666667","6502600","貢寮區"
"224006","676-BX","2018/10/06 17:19:55","新北市瑞芳區傑魚坑路322號","121.786355","25.1046516666667","6501200","瑞芳區"
"224008","285-BY","2018/10/06 17:19:49","新北市瑞芳區侯硐路36號","121.825436666667","25.0822283333333","6501200","瑞芳區"
"224009","273-VK","2018/10/06 17:19:45","新北市瑞芳區汽車路93-1號","121.843113333333","25.1096933333333","6501200","瑞芳區"
"224005","271-BY","2018/10/06 17:19:46","新北市瑞芳區鼻頭路113號","121.916341666667","25.122735","6501200","瑞芳區"
"227002","642-TC","2018/10/06 17:19:49","新北市雙溪區上林里內平林90號","121.827571666667","25.0274866666667","6502500","雙溪區"
"227010","400-TW","2018/10/06 17:19:46","新北市雙溪區三貂里定福路31號","121.852198333333","25.0757983333333","6502500","雙溪區"
"251005","010-UM","2018/10/06 17:19:55","新北市淡水區鄧公路29巷2號","121.451603333333","25.16992","6501000","淡水區"
"251002","012-UM","2018/10/06 17:19:46","新北市淡水區中正路二段31號","121.419155","25.1818033333333","6501000","淡水區"
"251013","KEA-2871","2018/10/06 17:19:53","新北市淡水區破瓦厝子3-5號","121.47209","25.1975766666667","6501000","淡水區"
"251016","179-VK","2018/10/06 17:19:55","新北市淡水區鄒厝崙12-1號","121.466301666667","25.1898","6501000","淡水區"
"251015","180-VK","2018/10/06 17:19:48","新北市淡水區三空泉18號","121.474718333333","25.1663783333333","6501000","淡水區"
"251008","181-VK","2018/10/06 17:19:42","新北市淡水區大同路233號","121.465608333333","25.1420833333333","6501000","淡水區"
"251010","413-VK","2018/10/06 17:19:44","新北市淡水區新民街一段117號","121.428066666667","25.1879383333333","6501000","淡水區"
"251012","441-VK","2018/10/06 17:19:30","新北市淡水區中山北路一段158號","121.444295","25.1777866666667","6501000","淡水區"
"251004","443-VK","2018/10/06 17:19:47","新北市淡水區中山路141號","121.440803333333","25.17167","6501000","淡水區"
"251006","561-UM","2018/10/06 17:19:51","新北市淡水區中山北路一段6號","121.441588333333","25.17461","6501000","淡水區"
"251009","575-R6","2018/10/06 17:19:49","新北市淡水區三民街19號","121.438996666667","25.1718983333333","6501000","淡水區"
"251007","577-R6","2018/10/06 17:19:55","新北市淡水區民生路117巷43弄2號","121.464606666667","25.1403166666667","6501000","淡水區"
"251011","650-BX","2018/10/06 17:19:48","新北市淡水區坪頂路128號","121.464906666667","25.1612883333333","6501000","淡水區"
"251003","673-BX","2018/10/06 17:19:47","新北市淡水區中正路26巷3號","121.434588333333","25.1739016666667","6501000","淡水區"
"207003","681-TV","2018/10/06 17:20:00","新北市萬里區萬里里獅頭路23號","121.693295","25.17823","6502800","萬里區"
"252002","178-VK","2018/10/06 17:19:44","新北市三芝區忠孝街1-14號","121.50551","25.25398","6502100","三芝區"
"252001","292-VK","2018/10/06 17:19:51","新北市三芝區長安街119號","121.498048333333","25.2596783333333","6502100","三芝區"
"242058","986-R7","2018/10/06 17:19:54","新北市新莊區三和路12-21號","121.44226","25.0382916666667","6500500","新莊區"
"242056","751-BX","2018/10/06 17:19:53","新北市新莊區新莊路765號","121.442413333333","25.0325616666667","6500500","新莊區"
"242029","705-TV","2018/10/06 17:19:42","新北市新莊區中和街186巷2弄7號","121.447853333333","25.049245","6500500","新莊區"
"242027","615-BX","2018/10/06 17:19:48","新北市新莊區中港一街72號","121.449801666667","25.0454883333333","6500500","新莊區"
"242025","613-BX","2018/10/06 17:19:40","新北市新莊區中和街38號","121.448176666667","25.0440366666667","6500500","新莊區"
"242044","566-BX","2018/10/06 17:19:46","新北市新莊區民安路33號","121.423386666667","25.027015","6500500","新莊區"
"242048","497-BY","2018/10/06 17:19:44","新北市新莊區龍安路293號","121.420961666667","25.0196966666667","6500500","新莊區"
"242011","442-UM","2018/10/06 17:19:52","新北市新莊區中和街67號","121.44746","25.0472583333333","6500500","新莊區"
"242053","441-UM","2018/10/06 17:19:43","新北市新莊區環河路636-7號","121.43676","25.010855","6500500","新莊區"
"242039","415-TV","2018/10/06 17:19:53","新北市新莊區民安路302號","121.42827","25.0218216666667","6500500","新莊區"
"242009","413-TV","2018/10/06 17:19:57","新北市新莊區中平路377巷17弄56號","121.442448333333","25.0519083333333","6500500","新莊區"
"242046","400-BY","2018/10/06 17:19:51","新北市新莊區新泰路357巷3弄49號","121.441995","25.0400666666667","6500500","新莊區"
"242023","362-BY","2018/10/06 17:19:57","新北市新莊區中港一街70號","121.449881666667","25.0454766666667","6500500","新莊區"
"242061","353-BY","2018/10/06 17:19:58","新北市新莊區中正路473-1號","121.442016666667","25.03304","6500500","新莊區"
"242042","133-UY","2018/10/06 17:19:58","新北市新莊區新樹路113巷33號","121.439536666667","25.0263916666667","6500500","新莊區"
"242034","135-UY","2018/10/06 17:19:47","新北市新莊區中環路一段287號","121.442128333333","25.0319683333333","6500500","新莊區"
"242019","175-VK","2018/10/06 17:19:51","新北市新莊區中港一街96號","121.449138333333","25.0452716666667","6500500","新莊區"
"242002","347-TH","2018/10/06 17:19:59","新北市新莊區瓊林路46-9號","121.447153333333","25.0290283333333","6500500","新莊區"
"242031","348-TH","2018/10/06 17:19:57","新北市新莊區新泰路464號","121.44316","25.0448433333333","6500500","新莊區"
"242004","349-TH","2018/10/06 17:19:46","新北市新莊區復興路一段35號","121.446586666667","25.0419766666667","6500500","新莊區"
"242021","350-TH","2018/10/06 17:19:52","新北市新莊區新莊路763巷2號","121.442386666667","25.0324583333333","6500500","新莊區"
"242015","351-TH","2018/10/06 17:19:45","新北市新莊區新泰路320號","121.445091666667","25.04162","6500500","新莊區"
"238015","755-BX","2018/10/06 17:19:49","新北市樹林區大安路267號","121.419005","24.9937783333333","6500700","樹林區"
"238019","599-UM","2018/10/06 17:19:54","新北市樹林區八德街136號","121.421455","24.9789333333333","6500700","樹林區"
"238018","571-TV","2018/10/06 17:20:01","新北市樹林區鎮前街269巷17號","121.419985","24.98533","6500700","樹林區"
"238024","5061-A6","2018/10/06 17:19:58","新北市樹林區保安街一段48巷36號","121.426698333333","24.9956666666667","6500700","樹林區"
"238022","KEA-2213","2018/10/06 17:19:51","新北市樹林區中華路37巷12號","121.42402","24.9830033333333","6500700","樹林區"
"238021","KEA-2539","2018/10/06 17:19:43","新北市樹林區西圳街一段61-1號","121.400581666667","24.9624083333333","6500700","樹林區"
"238025","303-VK","2018/10/06 17:19:51","新北市樹林區保安二街77號","121.424395","24.99514","6500700","樹林區"
"238017","283-BY","2018/10/06 17:19:39","新北市樹林區保安街二段179-1號","121.415266666667","25.00306","6500700","樹林區"
"238014","282-BY","2018/10/06 17:19:45","新北市樹林區長壽街70巷35弄2號","121.42139","24.9949683333333","6500700","樹林區"
"238020","268-VK","2018/10/06 17:19:59","新北市樹林區千歲街101號","121.428536666667","25.00086","6500700","樹林區"
"238016","169-UY","2018/10/06 17:19:52","新北市樹林區中山路二段10號","121.417571666667","24.985055","6500700","樹林區"
"239007","AAC-297","2018/10/06 17:19:50","新北市鶯歌區國慶街115巷14號","121.351261666667","24.954105","6500800","鶯歌區"
"239006","891-R6","2018/10/06 17:19:57","新北市鶯歌區福昌街30號","121.332796666667","24.9610016666667","6500800","鶯歌區"
"239008","527-UM","2018/10/06 17:19:51","新北市鶯歌區西湖街279巷15號","121.340543333333","24.9680016666667","6500800","鶯歌區"
"239005","526-UM","2018/10/06 17:19:47","新北市鶯歌區福德三街19號","121.329535","24.9674066666667","6500800","鶯歌區"
"239001","417-VK","2018/10/06 17:19:50","新北市鶯歌區尖山路260號","121.342328333333","24.9460933333333","6500800","鶯歌區"
"239003","360-BY","2018/10/06 17:19:48","新北市鶯歌區德昌街112號","121.331926666667","24.9604266666667","6500800","鶯歌區"
"239002","359-BY","2018/10/06 17:19:43","新北市鶯歌區南雅路3號","121.350023333333","24.95451","6500800","鶯歌區"
"239004","193-VK","2018/10/06 17:19:43","新北市鶯歌區文化路256巷15弄21號","121.352185","24.9470933333333","6500800","鶯歌區"
"221010","269-BY","2018/10/06 17:19:54","新北市汐止區汐萬路一段256巷3號","121.652118333333","25.0747616666667","6501100","汐止區"
"242051","281-VK","2018/10/06 17:19:55","新北市新莊區瓊林南路75-2號","121.434925","25.01435","6500500","新莊區"
"242007","280-VK","2018/10/06 17:20:01","新北市新莊區復興路一段207號","121.452273333333","25.0436483333333","6500500","新莊區"
