"lineid","car","time","location","longitude","latitude","cityid","cityname"
"234026","9371-KE","2018/10/06 17:39:44","新北市永和區中正路657號","121.514926666667","25.0101733333333","6500400","永和區"
"249005","172-UM","2018/10/06 17:39:56","新北市八里區荖阡坑路34-1號","121.402763333333","25.1297616666667","6502300","八里區"
"249001","173-UM","2018/10/06 17:39:52","新北市八里區龍米路二段153-8號","121.440083333333","25.153495","6502300","八里區"
"249002","305-UY","2018/10/06 17:39:55","新北市八里區石壁腳19號","121.441696666667","25.135315","6502300","八里區"
"249003","593-UM","2018/10/06 17:39:48","新北市八里區中山路二段133號","121.405333333333","25.1516066666667","6502300","八里區"
"249004","759-BX","2018/10/06 17:39:47","新北市八里區民享街106號","121.412896666667","25.1573616666667","6502300","八里區"
"232011","375-UM","2018/10/06 17:39:46","新北市坪林區北宜路八段97號","121.705988333333","24.9349266666667","6502000","坪林區"
"244023","069-UM","2018/10/06 17:39:51","新北市林口區興林路221巷27號","121.389725","25.0717733333333","6501700","林口區"
"244007","080-UY","2018/10/06 17:39:50","新北市林口區文化一路二段305號","121.385791666667","25.0858","6501700","林口區"
"244019","403-UM","2018/10/06 17:39:49","新北市林口區文化一路一段135巷7號","121.373171666667","25.0719216666667","6501700","林口區"
"244013","KEA-2802","2018/10/06 17:39:54","新北市林口區中正路504號","121.382106666667","25.0772316666667","6501700","林口區"
"244017","485-VK","2018/10/06 17:39:57","新北市林口區文化二路一段232-3號","121.369841666667","25.072655","6501700","林口區"
"244009","656-BX","2018/10/06 17:39:48","新北市林口區民享路173號","121.382203333333","25.0838566666667","6501700","林口區"
"244011","701-TV","2018/10/06 17:39:57","新北市林口區佳林路148號","121.384196666667","25.0771416666667","6501700","林口區"
"244025","837-TS","2018/10/06 17:39:48","新北市林口區文化三路一段225巷13號","121.361961666667","25.0714133333333","6501700","林口區"
"244021","838-TS","2018/10/06 17:39:49","新北市林口區中正路17號","121.396725","25.0774416666667","6501700","林口區"
"231046","107-UY","2018/10/06 17:39:54","新北市新店區直潭路100號","121.531436666667","24.9368533333333","6500600","新店區"
"241017","063-VK","2018/10/06 17:39:44","新北市三重區大同北路32號","121.495295","25.0626233333333","6500200","三重區"
"241024","065-VK","2018/10/06 17:39:54","新北市三重區力行路二段9巷11號","121.48289","25.0721583333333","6500200","三重區"
"241002","090-VK","2018/10/06 17:39:54","新北市蘆洲區復興路323巷170-9號","121.477511666667","25.0966633333333","6500200","三重區"
"251014","742-BX","2018/10/06 17:39:50","新北市淡水區公埔子15-1號","121.479493333333","25.2258433333333","6501000","淡水區"
"241005","262-UM","2018/10/06 17:39:46","新北市三重區碧華街159號","121.486813333333","25.0820716666667","6500200","三重區"
"241016","266-UM","2018/10/06 17:39:54","新北市三重區重新路二段23號","121.49783","25.06261","6500200","三重區"
"241007","398-BY","2018/10/06 17:39:57","新北市三重區車路頭街79號","121.484438333333","25.0740183333333","6500200","三重區"
"241014","543-UM","2018/10/06 17:39:47","新北市三重區龍濱路42號","121.502713333333","25.0684883333333","6500200","三重區"
"241023","545-UM","2018/10/06 17:39:59","新北市三重區中華路109號","121.483658333333","25.0635183333333","6500200","三重區"
"241019","743-BX","2018/10/06 17:39:49","新北市三重區安慶街387號","121.48696","25.068115","6500200","三重區"
"241012","941-UM","2018/10/06 17:39:43","新北市三重區龍門路300號","121.502525","25.0744366666667","6500200","三重區"
"241033","AAC-255","2018/10/06 17:39:52","新北市三重區光復路一段47號","121.472323333333","25.0486966666667","6500200","三重區"
"235065","098-UM","2018/10/06 17:39:45","新北市中和區員山路36巷16-3號","121.485151666667","24.9911916666667","6500300","中和區"
"247012","KEA-2869","2018/10/06 17:39:48","新北市蘆洲區民權路28號","121.476461666667","25.0860783333333","6501400","蘆洲區"
"247002","893-R6","2018/10/06 17:39:57","新北市蘆洲區永平街32巷11弄19號","121.458193333333","25.0915483333333","6501400","蘆洲區"
"247016","546-UM","2018/10/06 17:39:51","新北市蘆洲區光華路70巷4號","121.46797","25.0831116666667","6501400","蘆洲區"
"247024","500-BY","2018/10/06 17:39:43","新北市蘆洲區長樂路159號","121.462121666667","25.0881233333333","6501400","蘆洲區"
"247014","339-TH","2018/10/06 17:39:45","新北市蘆洲區中山二路76號","121.473205","25.0819766666667","6501400","蘆洲區"
"247006","337-TH","2018/10/06 17:39:50","新北市蘆洲區長安街57號","121.463041666667","25.0797216666667","6501400","蘆洲區"
"247008","336-TH","2018/10/06 17:39:49","新北市蘆洲區和平路29巷15號","121.472046666667","25.07839","6501400","蘆洲區"
"247020","057-VK","2018/10/06 17:39:47","新北市蘆洲區民族路331-18號","121.473371666667","25.0919283333333","6501400","蘆洲區"
"247010","056-VK","2018/10/06 17:39:54","新北市蘆洲區中山一路114號","121.477281666667","25.0814983333333","6501400","蘆洲區"
"247018","007-UY","2018/10/06 17:39:51","新北市蘆洲區水湳街1號","121.47286","25.08874","6501400","蘆洲區"
"247004","002-UY","2018/10/06 17:39:42","新北市蘆洲區長安街249巷34號","121.45794","25.0826816666667","6501400","蘆洲區"
"247022","001-UY","2018/10/06 17:39:48","新北市蘆洲區三民路283號","121.467256666667","25.089765","6501400","蘆洲區"
"228003","097-TW","2018/10/06 17:39:52","新北市貢寮區仁理村仁和路47號","121.924058333333","25.0541216666667","6502600","貢寮區"
"228001","212-TW","2018/10/06 17:39:52","新北市貢寮區仁理村仁愛路95-1號","121.927658333333","25.0554083333333","6502600","貢寮區"
"228002","663-BX","2018/10/06 17:39:59","新北市貢寮區福隆里龜壽谷街26號","121.953608333333","25.0072066666667","6502600","貢寮區"
"224006","676-BX","2018/10/06 17:39:55","新北市瑞芳區中山路340號","121.796221666667","25.1101816666667","6501200","瑞芳區"
"224008","285-BY","2018/10/06 17:39:49","新北市瑞芳區九芎橋路81號","121.833988333333","25.09706","6501200","瑞芳區"
"224009","273-VK","2018/10/06 17:39:44","新北市瑞芳區崙頂路1-6號","121.846908333333","25.1062633333333","6501200","瑞芳區"
"224005","271-BY","2018/10/06 17:37:06","新北市瑞芳區海濱路3巷2-11號","121.849551666667","25.1261433333333","6501200","瑞芳區"
"227002","642-TC","2018/10/06 17:39:49","新北市雙溪區共和里東榮街52號","121.866311666667","25.03368","6502500","雙溪區"
"251005","010-UM","2018/10/06 17:39:55","新北市淡水區鄧公路33巷9號","121.451845","25.1709516666667","6501000","淡水區"
"251001","011-UM","2018/10/06 17:39:50","新北市淡水區民權路92巷35-1號","121.462153333333","25.1266283333333","6501000","淡水區"
"251002","012-UM","2018/10/06 17:39:46","新北市淡水區重建街82號","121.440071666667","25.172415","6501000","淡水區"
"251013","KEA-2871","2018/10/06 17:39:53","新北市淡水區演戲埔腳5號","121.472041666667","25.1936983333333","6501000","淡水區"
"251016","179-VK","2018/10/06 17:39:55","新北市淡水區埤島39-15號","121.452708333333","25.1959033333333","6501000","淡水區"
"251015","180-VK","2018/10/06 17:39:48","新北市淡水區糞箕湖50號","121.485276666667","25.17093","6501000","淡水區"
"251008","181-VK","2018/10/06 17:39:46","新北市淡水區八勢路一段123巷6號","121.466843333333","25.1569433333333","6501000","淡水區"
"251010","413-VK","2018/10/06 17:39:44","新北市淡水區淡海路280巷97號","121.420033333333","25.1885916666667","6501000","淡水區"
"251012","441-VK","2018/10/06 17:39:50","新北市淡水區北新路200巷8號","121.451775","25.1796583333333","6501000","淡水區"
"251004","443-VK","2018/10/06 17:39:47","新北市淡水區中正東路二段88巷37-21號","121.459288333333","25.1443366666667","6501000","淡水區"
"251006","561-UM","2018/10/06 17:39:52","新北市淡水區大信街26號","121.442075","25.1768783333333","6501000","淡水區"
"251009","575-R6","2018/10/06 17:39:29","新北市淡水區中山路8號","121.444611666667","25.168885","6501000","淡水區"
"251007","577-R6","2018/10/06 17:39:55","新北市淡水區民生路124巷24號","121.464113333333","25.1376616666667","6501000","淡水區"
"251011","650-BX","2018/10/06 17:39:48","新北市淡水區小坪頂13-3號","121.48658","25.1561733333333","6501000","淡水區"
"251003","673-BX","2018/10/06 17:39:47","新北市淡水區中山北路一段85號","121.442201666667","25.1760916666667","6501000","淡水區"
"207003","681-TV","2018/10/06 17:40:00","新北市萬里區龜吼里漁澳路16-2號","121.686963333333","25.1949566666667","6502800","萬里區"
"207004","225-TW","2018/10/06 17:39:46","新北市萬里區中幅里中福路6-7號","121.68596","25.1645566666667","6502800","萬里區"
"252002","178-VK","2018/10/06 17:39:44","新北市三芝區智成街83號","121.50504","25.2557083333333","6502100","三芝區"
"252001","292-VK","2018/10/06 17:39:50","新北市三芝區淡金路一段87號","121.50226","25.2590316666667","6502100","三芝區"
"237013","252-BX","2018/10/06 17:39:53","新北市三峽區復興路480巷32號","121.35994","24.938865","6500900","三峽區"
"237012","275-BY","2018/10/06 17:39:50","新北市三峽區中山路459巷163-3號","121.348996666667","24.93327","6500900","三峽區"
"237014","433-BY","2018/10/06 17:39:54","新北市三峽區中山路459巷163-3號","121.349133333333","24.9328883333333","6500900","三峽區"
"237006","5529-G3","2018/10/06 17:39:55","新北市三峽區介壽路一段552巷3號","121.387606666667","24.932935","6500900","三峽區"
"237016","649-BX","2018/10/06 17:39:44","新北市三峽區大同路137號","121.371745","24.9266383333333","6500900","三峽區"
"237010","706-TV","2018/10/06 17:39:44","新北市三峽區中山路138號","121.36525","24.9361066666667","6500900","三峽區"
"236070","105-UM","2018/10/06 17:39:55","新北市土城區中華路二段2號","121.438855","24.9798766666667","6501300","土城區"
"236042","107-UM","2018/10/06 17:39:59","新北市土城區城林路6巷80號","121.438555","24.9797583333333","6501300","土城區"
"236079","166-UM","2018/10/06 17:39:53","新北市土城區城林路6巷80號","121.438441666667","24.9796366666667","6501300","土城區"
"236014","270-VK","2018/10/06 17:39:48","新北市土城區城林路6巷80號","121.43855","24.979615","6501300","土城區"
"236038","271-VK","2018/10/06 17:39:58","新北市土城區城林路6巷80號","121.438446666667","24.979695","6501300","土城區"
"242036","AAC-296","2018/10/06 17:39:44","新北市新莊區建福路59巷40號","121.42848","25.0277283333333","6500500","新莊區"
"242058","986-R7","2018/10/06 17:39:54","新北市新莊區中正路698號","121.418815","25.02782","6500500","新莊區"
"242056","751-BX","2018/10/06 17:39:53","新北市新莊區泰豐街15號","121.448411666667","25.031585","6500500","新莊區"
"242029","705-TV","2018/10/06 17:40:02","新北市新莊區復興路二段5號","121.453543333333","25.0438833333333","6500500","新莊區"
"242027","615-BX","2018/10/06 17:39:48","新北市新莊區福壽街107號","121.457948333333","25.0507866666667","6500500","新莊區"
"242025","613-BX","2018/10/06 17:40:00","新北市新莊區思源路122號","121.460211666667","25.04754","6500500","新莊區"
"242044","566-BX","2018/10/06 17:39:59","新北市新莊區中正路871巷32號","121.419691666667","25.02639","6500500","新莊區"
"242048","497-BY","2018/10/06 17:39:44","新北市新莊區萬安街125號","121.42069","25.0223833333333","6500500","新莊區"
"242011","442-UM","2018/10/06 17:39:57","新北市新莊區中港路635號","121.45106","25.0544266666667","6500500","新莊區"
"242053","441-UM","2018/10/06 17:39:43","新北市新莊區新樹路697號","121.432196666667","25.0024266666667","6500500","新莊區"
"242039","415-TV","2018/10/06 17:39:53","新北市新莊區民全街2號","121.429073333333","25.0211333333333","6500500","新莊區"
"242009","413-TV","2018/10/06 17:39:57","新北市新莊區昌明街14巷8弄2號","121.457381666667","25.0531633333333","6500500","新莊區"
"242046","400-BY","2018/10/06 17:39:51","新北市新莊區福營路63號","121.435063333333","25.0323583333333","6500500","新莊區"
"242023","362-BY","2018/10/06 17:39:57","新北市新莊區民樂街58號","121.457945","25.041835","6500500","新莊區"
"242061","353-BY","2018/10/06 17:39:58","新北市新莊區瓊林南路118-11號","121.434585","25.0088716666667","6500500","新莊區"
"242042","133-UY","2018/10/06 17:39:58","新北市新莊區建國一路3號","121.433743333333","25.0319533333333","6500500","新莊區"
"242034","135-UY","2018/10/06 17:40:00","新北市新莊區新莊路637號","121.44533","25.03281","6500500","新莊區"
"242019","175-VK","2018/10/06 17:39:51","新北市新莊區中港路201號","121.454893333333","25.04187","6500500","新莊區"
"242017","346-TH","2018/10/06 17:39:50","新北市新莊區復興路一段149巷21弄20號","121.449405","25.0441516666667","6500500","新莊區"
"242002","347-TH","2018/10/06 17:39:59","新北市新莊區新莊路280號","121.451571666667","25.033895","6500500","新莊區"
"242031","348-TH","2018/10/06 17:39:56","新北市新莊區新泰路368號","121.444378333333","25.04294","6500500","新莊區"
"242004","349-TH","2018/10/06 17:39:46","新北市新莊區自立街202號","121.456765","25.045625","6500500","新莊區"
"242021","350-TH","2018/10/06 17:39:52","新北市新莊區中華路一段120號","121.452475","25.0406633333333","6500500","新莊區"
"242015","351-TH","2018/10/06 17:39:45","新北市新莊區新泰路329號","121.444963333333","25.0416933333333","6500500","新莊區"
"238015","755-BX","2018/10/06 17:39:50","新北市樹林區樹德街90號","121.42032","24.99245","6500700","樹林區"
"238023","601-UM","2018/10/06 17:39:42","新北市樹林區三福街68號","121.40481","25.0162983333333","6500700","樹林區"
"238019","599-UM","2018/10/06 17:39:54","新北市樹林區太平路127巷12號","121.4198","24.9806416666667","6500700","樹林區"
"238018","571-TV","2018/10/06 17:39:41","新北市樹林區保安街一段1號","121.427296666667","24.993395","6500700","樹林區"
"238022","KEA-2213","2018/10/06 17:39:51","新北市樹林區中華路187巷1號","121.420545","24.9814583333333","6500700","樹林區"
"238021","KEA-2539","2018/10/06 17:39:43","新北市樹林區柑園街一段253巷35號","121.396703333333","24.95385","6500700","樹林區"
"238025","303-VK","2018/10/06 17:39:51","新北市樹林區保安街三段69號","121.412646666667","25.0121483333333","6500700","樹林區"
"238017","283-BY","2018/10/06 17:39:39","新北市樹林區三德街10巷18號","121.413525","25.012315","6500700","樹林區"
"238014","282-BY","2018/10/06 17:39:45","新北市樹林區保安街一段313巷16號","121.417273333333","24.9975866666667","6500700","樹林區"
"238020","268-VK","2018/10/06 17:39:59","新北市樹林區俊英街162號","121.426758333333","25.0065883333333","6500700","樹林區"
"238026","172-UY","2018/10/06 17:39:36","新北市樹林區新興街19巷26號","121.401371666667","24.9732866666667","6500700","樹林區"
"238016","169-UY","2018/10/06 17:38:11","新北市樹林區中山路一段158號","121.422201666667","24.9897066666667","6500700","樹林區"
"239007","AAC-297","2018/10/06 17:39:50","新北市鶯歌區永利街36號","121.339378333333","24.954705","6500800","鶯歌區"
"239006","891-R6","2018/10/06 17:39:57","新北市鶯歌區永和街115巷46號","121.33309","24.9695616666667","6500800","鶯歌區"
"239008","527-UM","2018/10/06 17:39:51","新北市鶯歌區大湖路700巷22弄11號","121.333666666667","24.9773133333333","6500800","鶯歌區"
"239005","526-UM","2018/10/06 17:39:47","新北市鶯歌區福隆二街56號","121.324503333333","24.9715533333333","6500800","鶯歌區"
"239001","417-VK","2018/10/06 17:39:50","新北市鶯歌區中正三路228號","121.33145","24.9375","6500800","鶯歌區"
"239003","360-BY","2018/10/06 17:39:54","新北市鶯歌區鶯桃路295巷2號","121.334526666667","24.9597783333333","6500800","鶯歌區"
"239002","359-BY","2018/10/06 17:39:43","新北市鶯歌區育德街15-4號","121.34418","24.9550683333333","6500800","鶯歌區"
"239004","193-VK","2018/10/06 17:39:43","新北市鶯歌區三鶯路23號","121.355633333333","24.9418566666667","6500800","鶯歌區"
"221010","269-BY","2018/10/06 17:39:53","新北市汐止區汐萬路一段418巷1弄2號","121.650668333333","25.0783566666667","6501100","汐止區"
"221023","279-VK","2018/10/06 17:39:55","新北市汐止區康寧街901號","121.651661666667","25.074885","6501100","汐止區"
"221021","299-VK","2018/10/06 17:39:44","新北市汐止區汐萬路一段312號","121.650695","25.07536","6501100","汐止區"
"242051","281-VK","2018/10/06 17:39:55","新北市新莊區西盛街216號","121.427953333333","25.0173366666667","6500500","新莊區"
"242007","280-VK","2018/10/06 17:39:41","新北市新莊區福樂街118巷7號","121.457333333333","25.0480933333333","6500500","新莊區"
