"lineid","car","time","location","longitude","latitude","cityid","cityname"
"234026","9371-KE","2018/10/06 18:09:44","新北市永和區自由街52號","121.51351","25.0061","6500400","永和區"
"249005","172-UM","2018/10/06 18:09:56","新北市八里區荖阡坑路15-40號","121.40165","25.13997","6502300","八里區"
"249001","173-UM","2018/10/06 18:09:52","新北市八里區龍米路二段26號","121.448741666667","25.1395183333333","6502300","八里區"
"249002","305-UY","2018/10/06 18:09:55","新北市八里區龍米路一段386巷2號","121.451961666667","25.1319283333333","6502300","八里區"
"249003","593-UM","2018/10/06 18:09:48","新北市八里區松子腳4-3號","121.402971666667","25.1442516666667","6502300","八里區"
"249004","759-BX","2018/10/06 18:09:47","新北市八里區龍米路二段159號","121.439075","25.1538233333333","6502300","八里區"
"248016","026-BX","2018/10/06 18:09:51","新北市五股區成泰路三段221巷18號","121.445753333333","25.0934616666667","6501500","五股區"
"248006","077-UY","2018/10/06 18:09:51","新北市五股區中興路二段61號","121.461396666667","25.0768133333333","6501500","五股區"
"248008","095-VK","2018/10/06 18:09:49","新北市五股區更洲路32巷26號","121.459028333333","25.08015","6501500","五股區"
"248020","225-UY","2018/10/06 18:09:51","新北市五股區成泰路三段362號","121.455283333333","25.0971433333333","6501500","五股區"
"248014","261-SL","2018/10/06 18:10:00","新北市五股區成泰路一段189巷34號","121.433446666667","25.0763933333333","6501500","五股區"
"248010","272-BY","2018/10/06 18:09:42","新北市五股區成泰路一段229-1號","121.434206666667","25.0776916666667","6501500","五股區"
"248004","677-BX","2018/10/06 18:09:58","新北市五股區中興路四段29號","121.438668333333","25.08273","6501500","五股區"
"248002","678-BX","2018/10/06 18:09:56","新北市五股區成泰路三段75-1號","121.443556666667","25.0897783333333","6501500","五股區"
"232011","375-UM","2018/10/06 18:09:46","新北市坪林區國中路3號","121.7131","24.9375616666667","6502000","坪林區"
"244023","069-UM","2018/10/06 18:09:51","新北市林口區隆林街220號","121.384226666667","25.0745833333333","6501700","林口區"
"244007","080-UY","2018/10/06 18:09:50","新北市林口區林口路124巷10弄11號","121.389283333333","25.0815066666667","6501700","林口區"
"244019","403-UM","2018/10/06 18:09:49","新北市林口區麗園路54號","121.373721666667","25.0695783333333","6501700","林口區"
"244013","KEA-2802","2018/10/06 18:09:53","新北市林口區中山路160巷7號","121.391016666667","25.079435","6501700","林口區"
"244017","485-VK","2018/10/06 18:09:57","新北市林口區忠孝路506號","121.37085","25.07006","6501700","林口區"
"244009","656-BX","2018/10/06 18:09:48","新北市林口區中山路256-1號","121.385506666667","25.0797633333333","6501700","林口區"
"244011","701-TV","2018/10/06 18:09:57","新北市林口區中正路30巷4號","121.395835","25.0776566666667","6501700","林口區"
"244025","837-TS","2018/10/06 18:09:48","新北市林口區文化北路一段261號","121.358595","25.0715816666667","6501700","林口區"
"244021","838-TS","2018/10/06 18:09:49","新北市林口區自強九街14號","121.400703333333","25.0759233333333","6501700","林口區"
"243013","AAD-798","2018/10/06 18:09:57","新北市泰山區南林路99巷1號","121.41538","25.050535","6501600","泰山區"
"243011","KEA-2215","2018/10/06 18:01:11","新北市泰山區黎明路25號","121.42191","25.06073","6501600","泰山區"
"222002","016-RS","2018/10/06 18:09:53","新北市深坑區文化街52號","121.618938333333","25.0016566666667","6501800","深坑區"
"222003","436-BY","2018/10/06 18:09:45","新北市深坑區文山路三段15號","121.612555","24.998025","6501800","深坑區"
"231059","001-UM","2018/10/06 18:09:51","新北市新店區安華路28-1號","121.519456666667","24.9608216666667","6500600","新店區"
"231041","002-UM","2018/10/06 18:09:46","新北市新店區安華路28-1號","121.519788333333","24.9609016666667","6500600","新店區"
"231040","047-UY","2018/10/06 18:09:51","新北市新店區安一路一段1-1號","121.51904","24.9609783333333","6500600","新店區"
"231044","106-UY","2018/10/06 18:09:55","新北市新店區安華路28-1號","121.519708333333","24.9609066666667","6500600","新店區"
"231046","107-UY","2018/10/06 18:09:54","新北市新店區直潭七街60號","121.532271666667","24.9397883333333","6500600","新店區"
"231047","187-VK","2018/10/06 18:09:43","新北市新店區安一路一段1-1號","121.51959","24.9611616666667","6500600","新店區"
"231052","189-VK","2018/10/06 18:09:47","新北市新店區安華路28-1號","121.519698333333","24.96094","6500600","新店區"
"231054","KEA-2219","2018/10/06 18:09:50","新北市新店區安一路一段1-1號","121.519901666667","24.96123","6500600","新店區"
"231057","256-BX","2018/10/06 18:09:51","新北市新店區安一路一段1-1號","121.519716666667","24.961095","6500600","新店區"
"231051","278-BY","2018/10/06 18:09:50","新北市新店區安一路一段1-1號","121.519743333333","24.9611533333333","6500600","新店區"
"231050","AAD-862","2018/10/06 18:09:44","新北市新店區安一路一段1-1號","121.519711666667","24.9613266666667","6500600","新店區"
"231058","3713-VJ","2018/10/06 18:09:46","新北市新店區安華路28-1號","121.519186666667","24.9606783333333","6500600","新店區"
"231066","4716-K9","2018/10/06 18:09:53","新北市新店區安一路一段1-1號","121.519306666667","24.9613083333333","6500600","新店區"
"231056","4715-K9","2018/10/06 18:09:51","新北市新店區安康路一段24巷2號","121.532638333333","24.960405","6500600","新店區"
"231065","512-UM","2018/10/06 18:09:50","新北市新店區安一路一段1-1號","121.519441666667","24.961215","6500600","新店區"
"231063","616-UM","2018/10/06 18:09:55","新北市新店區安華路1-1號","121.51956","24.9604533333333","6500600","新店區"
"231061","619-UM","2018/10/06 18:09:50","新北市新店區安華路28-1號","121.519458333333","24.960695","6500600","新店區"
"231064","719-UM","2018/10/06 18:09:58","新北市新店區安一路一段1-1號","121.519445","24.9612783333333","6500600","新店區"
"231060","897-TW","2018/10/06 18:09:44","新北市新店區安華路28-1號","121.519525","24.9607233333333","6500600","新店區"
"231045","898-TW","2018/10/06 18:09:57","新北市新店區安一路一段1-1號","121.519328333333","24.961005","6500600","新店區"
"231043","899-TW","2018/10/06 18:09:42","新北市新店區安華路28-1號","121.519291666667","24.9608866666667","6500600","新店區"
"231055","AKT-0513","2018/10/06 18:09:52","新北市新店區安康路一段299-3號","121.520928333333","24.9638333333333","6500600","新店區"
"251014","742-BX","2018/10/06 18:09:50","新北市淡水區南平15號","121.487865","25.2198133333333","6501000","淡水區"
"241033","AAC-255","2018/10/06 18:09:52","新北市三重區中興北街42巷60號","121.467508333333","25.04926","6500200","三重區"
"235066","003-UY","2018/10/06 18:09:59","新北市中和區圓通路169號","121.497635","24.9954066666667","6500300","中和區"
"235064","005-UY","2018/10/06 18:09:55","新北市中和區中正路173號","121.497655","24.993615","6500300","中和區"
"235063","006-UY","2018/10/06 18:09:54","新北市中和區員山路36巷16-3號","121.485043333333","24.9913233333333","6500300","中和區"
"235056","096-UM","2018/10/06 18:09:46","新北市中和區連城路469巷79弄30號","121.484516666667","24.993725","6500300","中和區"
"235039","097-UM","2018/10/06 18:09:51","新北市中和區中正路637巷52弄1號","121.485505","24.9936616666667","6500300","中和區"
"235065","098-UM","2018/10/06 18:09:45","新北市中和區莊敬路49巷18號","121.501688333333","25.0061166666667","6500300","中和區"
"235058","151-BY","2018/10/06 18:09:48","新北市中和區圓通路367巷62-8號","121.492971666667","24.9831116666667","6500300","中和區"
"235038","185-VK","2018/10/06 18:10:00","新北市中和區景平路166號","121.51705","24.9921316666667","6500300","中和區"
"235067","255-BX","2018/10/06 18:09:45","新北市中和區和城路一段271巷1號","121.485755","24.9918","6500300","中和區"
"235043","352-BY","2018/10/06 18:09:59","新北市中和區錦和路350-1號","121.490293333333","24.9935716666667","6500300","中和區"
"235042","KEA-2878","2018/10/06 18:09:43","新北市中和區中正路23號","121.502681666667","24.9935166666667","6500300","中和區"
"247012","KEA-2869","2018/10/06 18:09:51","新北市蘆洲區民族路73號","121.479231666667","25.0858816666667","6501400","蘆洲區"
"235050","4979-A6","2018/10/06 18:09:42","新北市中和區錦和路350-1號","121.490265","24.993555","6500300","中和區"
"235070","558-UM","2018/10/06 18:09:50","新北市中和區中正路275-1號","121.495551666667","24.9935983333333","6500300","中和區"
"235045","565-BX","2018/10/06 18:09:47","新北市中和區錦和路350-1號","121.490533333333","24.993565","6500300","中和區"
"235054","640-BX","2018/10/06 18:09:53","新北市土城區金城路三段259-1號","121.471966666667","24.9902083333333","6500300","中和區"
"235071","783-BX","2018/10/06 18:09:46","新北市中和區員山路36巷16-3號","121.485155","24.9912166666667","6500300","中和區"
"235062","800-TS","2018/10/06 18:09:49","新北市中和區新生街241號","121.483875","24.9989033333333","6500300","中和區"
"235057","801-TS","2018/10/06 18:09:51","新北市中和區連城路330號","121.483221666667","24.9958616666667","6500300","中和區"
"235052","805-TS","2018/10/06 18:09:51","新北市中和區中正路271-1號","121.495725","24.9935716666667","6500300","中和區"
"235048","896-TW","2018/10/06 18:09:55","新北市中和區員山路36巷16-2號","121.48504","24.9918066666667","6500300","中和區"
"235053","900-TW","2018/10/06 18:09:48","新北市中和區員山路36巷16-3號","121.484975","24.99178","6500300","中和區"
"235051","157-BY","2018/10/06 18:09:52","新北市中和區復興路271號","121.502615","24.9903033333333","6500300","中和區"
"235037","AAC-213","2018/10/06 18:09:43","新北市中和區景平路151號","121.513731666667","24.9920816666667","6500300","中和區"
"226004","312-R5","2018/10/06 18:09:48","新北市平溪區白石里白石腳5號","121.721493333333","25.0214916666667","6502400","平溪區"
"235047","251-BX","2018/10/06 18:09:44","新北市中和區中正路637巷52弄1號","121.48559","24.9935266666667","6500300","中和區"
"228003","097-TW","2018/10/06 18:09:52","新北市貢寮區真理里美艷山街6-2號","121.92886","25.0607566666667","6502600","貢寮區"
"228001","212-TW","2018/10/06 18:09:52","新北市貢寮區真理里新港街26巷55弄2-1號","121.927415","25.0528883333333","6502600","貢寮區"
"228002","663-BX","2018/10/06 18:09:59","新北市貢寮區福連里福興街37-1號","121.992016666667","25.0113783333333","6502600","貢寮區"
"224006","676-BX","2018/10/06 18:09:55","新北市瑞芳區中山路72號","121.802723333333","25.1064416666667","6501200","瑞芳區"
"224002","639-TC","2018/10/06 18:09:45","新北市瑞芳區三爪子坑路149巷22-15號","121.811623333333","25.1060116666667","6501200","瑞芳區"
"224008","285-BY","2018/10/06 18:09:49","新北市瑞芳區員山子路23號","121.821356666667","25.1030066666667","6501200","瑞芳區"
"224007","275-VK","2018/10/06 18:09:48","新北市瑞芳區四腳亭坑路2-4號","121.775988333333","25.1093516666667","6501200","瑞芳區"
"224009","273-VK","2018/10/06 18:09:48","新北市瑞芳區金光路241號","121.851368333333","25.1076516666667","6501200","瑞芳區"
"224005","271-BY","2018/10/06 18:09:46","新北市瑞芳區深澳路15號","121.816691666667","25.12912","6501200","瑞芳區"
"227002","642-TC","2018/10/06 18:09:50","新北市雙溪區共和里東榮街52號","121.86634","25.033745","6502500","雙溪區"
"253006","032-BX","2018/10/06 18:09:54","新北市石門區老梅路52巷21號","121.546408333333","25.2885483333333","6502200","石門區"
"253005","295-VK","2018/10/06 18:10:00","新北市石門區福安街35號","121.568691666667","25.292205","6502200","石門區"
"222001","KEA-2212","2018/10/06 18:09:48","新北市深坑區北深路二段188號","121.613978333333","25.0022983333333","6501800","深坑區"
"208002","KEA-2872","2018/10/06 18:09:55","新北市金山區三界壇路111巷14號","121.619073333333","25.231455","6502700","金山區"
"208003","665-BX","2018/10/06 18:09:58","新北市金山區民生路31號","121.64344","25.2212816666667","6502700","金山區"
"208001","761-BX","2018/10/06 18:09:42","新北市金山區磺港里磺港路110號","121.646355","25.2267833333333","6502700","金山區"
"251005","010-UM","2018/10/06 18:09:55","新北市淡水區水源街一段139號","121.447178333333","25.171895","6501000","淡水區"
"251001","011-UM","2018/10/06 18:09:50","新北市淡水區自立路10號","121.463071666667","25.1297666666667","6501000","淡水區"
"251002","012-UM","2018/10/06 18:09:46","新北市淡水區中正東路一段127巷2號","121.455491666667","25.1593716666667","6501000","淡水區"
"251013","KEA-2871","2018/10/06 18:09:53","新北市淡水區竹圍子9-6號","121.476598333333","25.1928283333333","6501000","淡水區"
"251016","179-VK","2018/10/06 18:09:55","新北市淡水區下圭柔山18-1號","121.453755","25.2027733333333","6501000","淡水區"
"251015","180-VK","2018/10/06 18:09:48","新北市淡水區興福寮88巷1號","121.485336666667","25.1649783333333","6501000","淡水區"
"251008","181-VK","2018/10/06 18:09:42","新北市淡水區紅樹林路71號","121.45971","25.1609633333333","6501000","淡水區"
"251010","413-VK","2018/10/06 18:09:44","新北市淡水區中正路二段50巷10號","121.419846666667","25.1833083333333","6501000","淡水區"
"251012","441-VK","2018/10/06 18:09:50","新北市淡水區北新路三段174號","121.492845","25.192845","6501000","淡水區"
"251004","443-VK","2018/10/06 18:09:47","新北市淡水區民族路110巷32號","121.461735","25.1352966666667","6501000","淡水區"
"251006","561-UM","2018/10/06 18:09:51","新北市淡水區新民街79號","121.438108333333","25.17676","6501000","淡水區"
"251009","575-R6","2018/10/06 18:09:49","新北市淡水區大忠街34巷15號","121.44388","25.17572","6501000","淡水區"
"251007","577-R6","2018/10/06 18:09:54","新北市淡水區中正東路二段143巷2弄1號","121.46071","25.1474183333333","6501000","淡水區"
"251011","650-BX","2018/10/06 18:09:47","新北市淡水區三空泉5號","121.47779","25.1615333333333","6501000","淡水區"
"251003","673-BX","2018/10/06 18:09:47","新北市淡水區大忠街113巷24號","121.447391666667","25.1775083333333","6501000","淡水區"
"207003","681-TV","2018/10/06 18:10:00","新北市萬里區野柳里港西路74號","121.685675","25.205045","6502800","萬里區"
"207004","225-TW","2018/10/06 18:09:46","新北市萬里區中幅里中福路111號","121.676408333333","25.16842","6502800","萬里區"
"252002","178-VK","2018/10/06 18:09:44","新北市三芝區中山路二段43號","121.502966666667","25.2550166666667","6502100","三芝區"
"252003","249-BX","2018/10/06 18:09:54","新北市三芝區埔頭里埔頭37號","121.498503333333","25.260355","6502100","三芝區"
"252001","292-VK","2018/10/06 18:09:50","新北市三芝區中興街二段6號","121.498425","25.2565783333333","6502100","三芝區"
"237007","153-BY","2018/10/06 18:09:40","新北市三峽區中正路二段370巷81號","121.364245","24.9116816666667","6500900","三峽區"
"237009","210-TH","2018/10/06 18:09:44","新北市三峽區大仁路50巷16號","121.365355","24.9380616666667","6500900","三峽區"
"237013","252-BX","2018/10/06 18:09:53","新北市三峽區長泰街70-2號","121.376761666667","24.9335566666667","6500900","三峽區"
"237012","275-BY","2018/10/06 18:09:50","新北市三峽區民生街19巷7弄43號","121.377661666667","24.93577","6500900","三峽區"
"237008","302-VK","2018/10/06 18:09:47","新北市三峽區白雞45號","121.382581666667","24.9122883333333","6500900","三峽區"
"237014","433-BY","2018/10/06 18:09:54","新北市三峽區國光街58號","121.374221666667","24.9384766666667","6500900","三峽區"
"237006","5529-G3","2018/10/06 18:09:55","新北市三峽區溪東路178巷13弄13號","121.406098333333","24.9324366666667","6500900","三峽區"
"237011","KEA-2596","2018/10/06 18:09:59","新北市三峽區介壽路一段316號","121.380455","24.93019","6500900","三峽區"
"237016","649-BX","2018/10/06 18:09:44","新北市三峽區紫新路32巷1號","121.422325","24.92196","6500900","三峽區"
"237010","706-TV","2018/10/06 18:09:44","新北市三峽區民族街147號","121.369003333333","24.9281433333333","6500900","三峽區"
"237005","AKY-6261","2018/10/06 18:10:03","新北市三峽區文化路88號","121.37177","24.9362266666667","6500900","三峽區"
"236070","105-UM","2018/10/06 18:09:55","新北市土城區明德路一段317號","121.459303333333","24.9771366666667","6501300","土城區"
"236042","107-UM","2018/10/06 18:09:59","新北市土城區中央路一段262巷33號","121.442563333333","24.9841","6501300","土城區"
"236079","166-UM","2018/10/06 18:09:53","新北市土城區永和街5號","121.434578333333","24.96507","6501300","土城區"
"236026","269-VK","2018/10/06 18:09:57","新北市土城區承天路67號","121.43958","24.9635116666667","6501300","土城區"
"236014","270-VK","2018/10/06 18:09:48","新北市土城區學府路一段231號","121.451128333333","24.9841366666667","6501300","土城區"
"236038","271-VK","2018/10/06 18:09:58","新北市土城區青雲路322巷2弄2號","121.458616666667","24.9771066666667","6501300","土城區"
"236021","401-BY","2018/10/06 18:09:57","新北市土城區城林路6巷80號","121.438671666667","24.9797716666667","6501300","土城區"
"236030","752-BX","2018/10/06 18:09:37","新北市土城區城林路6巷80號","121.438723333333","24.9797016666667","6501300","土城區"
"236059","912-UM","2018/10/06 18:09:48","新北市土城區中央路四段117號","121.416405","24.9577566666667","6501300","土城區"
"236049","913-UM","2018/10/06 18:09:51","新北市土城區金城路二段36號","121.45083","24.9785133333333","6501300","土城區"
"236063","915-UM","2018/10/06 18:09:54","新北市土城區金城路二段48號","121.45133","24.9789233333333","6501300","土城區"
"236055","AAC-216","2018/10/06 18:09:49","新北市土城區中華路二段92號","121.438151666667","24.9745683333333","6501300","土城區"
"242036","AAC-296","2018/10/06 18:09:44","新北市新莊區後港一路49巷6號","121.426026666667","25.0267233333333","6500500","新莊區"
"242058","986-R7","2018/10/06 18:09:53","新北市新莊區新北大道七段120號","121.417413333333","25.0320683333333","6500500","新莊區"
"242056","751-BX","2018/10/06 18:09:53","新北市新莊區豐年街豐1巷9號","121.446973333333","25.0311733333333","6500500","新莊區"
"242029","705-TV","2018/10/06 18:10:02","新北市新莊區中平路124號","121.44479","25.04651","6500500","新莊區"
"242027","615-BX","2018/10/06 18:09:48","新北市新莊區幸福路550號","121.454973333333","25.0493183333333","6500500","新莊區"
"242025","613-BX","2018/10/06 18:09:40","新北市新莊區五工三路94巷27號","121.45906","25.0664933333333","6500500","新莊區"
"242044","566-BX","2018/10/06 18:09:46","新北市新莊區中正路706-1號","121.417223333333","25.02539","6500500","新莊區"
"242048","497-BY","2018/10/06 18:09:44","新北市新莊區民安路98巷5號","121.42364","25.0256583333333","6500500","新莊區"
"242011","442-UM","2018/10/06 18:09:52","新北市新莊區中榮街47號","121.449391666667","25.0527533333333","6500500","新莊區"
"242053","441-UM","2018/10/06 18:09:43","新北市新莊區西盛街406號","121.427485","25.01251","6500500","新莊區"
"242039","415-TV","2018/10/06 18:10:01","新北市新莊區民安西路38巷26號","121.426535","25.0204966666667","6500500","新莊區"
"242009","413-TV","2018/10/06 18:09:57","新北市新莊區昌平街71巷12號","121.45395","25.0536566666667","6500500","新莊區"
"242046","400-BY","2018/10/06 18:09:51","新北市新莊區福營路227巷2號","121.42995","25.0297166666667","6500500","新莊區"
"242061","353-BY","2018/10/06 18:10:02","新北市新莊區新樹路69-29號","121.438485","25.0294066666667","6500500","新莊區"
"242042","133-UY","2018/10/06 18:09:58","新北市新莊區天祥街135巷8弄2號","121.413656666667","25.0294166666667","6500500","新莊區"
"242034","135-UY","2018/10/06 18:09:47","新北市新莊區新豐街65號","121.446343333333","25.0335966666667","6500500","新莊區"
"242019","175-VK","2018/10/06 18:09:51","新北市新莊區中港路132巷12號","121.455868333333","25.0406716666667","6500500","新莊區"
"242017","346-TH","2018/10/06 17:53:21","新北市新莊區永樂街6號","121.452098333333","25.04515","6500500","新莊區"
"242002","347-TH","2018/10/06 18:09:59","新北市新莊區新莊路64號","121.457706666667","25.036715","6500500","新莊區"
"242031","348-TH","2018/10/06 18:09:59","新北市新莊區新泰路277巷3號","121.445511666667","25.0403266666667","6500500","新莊區"
"242004","349-TH","2018/10/06 18:09:46","新北市新莊區自立街80號","121.454511666667","25.0452266666667","6500500","新莊區"
"242021","350-TH","2018/10/06 18:09:54","新北市新莊區建興街85號","121.449913333333","25.038665","6500500","新莊區"
"242015","351-TH","2018/10/06 18:09:45","新北市新莊區中和街59巷28號","121.446258333333","25.0466716666667","6500500","新莊區"
"238015","755-BX","2018/10/06 18:09:49","新北市樹林區大安路325號","121.417296666667","24.9916","6500700","樹林區"
"238023","601-UM","2018/10/06 18:09:55","新北市樹林區三寶街3號","121.406488333333","25.015805","6500700","樹林區"
"238019","599-UM","2018/10/06 18:09:54","新北市樹林區水源街74號","121.425843333333","24.980635","6500700","樹林區"
"238018","571-TV","2018/10/06 18:09:41","新北市板橋區大觀路三段269號","121.428895","24.992445","6500700","樹林區"
"238024","5061-A6","2018/10/06 18:09:58","新北市樹林區保安街一段47號","121.423896666667","24.994775","6500700","樹林區"
"238022","KEA-2213","2018/10/06 18:09:51","新北市樹林區太平路174巷1號","121.418051666667","24.976805","6500700","樹林區"
"238021","KEA-2539","2018/10/06 18:09:43","新北市樹林區柑園街二段121號","121.384725","24.95483","6500700","樹林區"
"238025","303-VK","2018/10/06 18:09:59","新北市樹林區保安街一段356號","121.417743333333","24.998335","6500700","樹林區"
"238017","283-BY","2018/10/06 18:09:59","新北市樹林區中正路837號","121.409163333333","25.0175483333333","6500700","樹林區"
"238014","282-BY","2018/10/06 18:09:45","新北市樹林區潭興街101號","121.4247","24.998515","6500700","樹林區"
"238020","268-VK","2018/10/06 18:09:59","新北市樹林區三俊街129號","121.418033333333","25.01558","6500700","樹林區"
"238026","172-UY","2018/10/06 18:09:56","新北市樹林區佳園路一段50號","121.392841666667","24.97062","6500700","樹林區"
"238016","169-UY","2018/10/06 18:09:52","新北市樹林區育英街106號","121.420373333333","24.9894983333333","6500700","樹林區"
"239007","AAC-297","2018/10/06 18:09:50","新北市鶯歌區建國路278號","121.346935","24.953465","6500800","鶯歌區"
"239006","891-R6","2018/10/06 18:09:57","新北市鶯歌區鶯桃路365巷106號","121.33058","24.9620566666667","6500800","鶯歌區"
"239008","527-UM","2018/10/06 18:09:51","新北市鶯歌區國際一路179號","121.336235","24.9764833333333","6500800","鶯歌區"
"239005","526-UM","2018/10/06 18:09:47","新北市鶯歌區鶯桃路668巷73號","121.329828333333","24.9717266666667","6500800","鶯歌區"
"239001","417-VK","2018/10/06 18:09:50","新北市鶯歌區高職東街3巷7號","121.340011666667","24.94243","6500800","鶯歌區"
"239003","360-BY","2018/10/06 18:09:48","新北市鶯歌區福安街58號","121.335583333333","24.9651966666667","6500800","鶯歌區"
"239002","359-BY","2018/10/06 18:09:43","新北市鶯歌區文昌街2號","121.35055","24.9541416666667","6500800","鶯歌區"
"239004","193-VK","2018/10/06 18:09:43","新北市鶯歌區尖山路168巷22號","121.34481","24.9485983333333","6500800","鶯歌區"
"221008","489-VK","2018/10/06 18:09:56","新北市汐止區康寧街582號","121.6353","25.0700583333333","6501100","汐止區"
"221036","130-UY","2018/10/06 18:09:42","新北市汐止區大同路三段89號","121.667811666667","25.0773366666667","6501100","汐止區"
"221015","131-UY","2018/10/06 18:09:33","新北市汐止區鄉長路二段110號","121.665133333333","25.085955","6501100","汐止區"
"221010","269-BY","2018/10/06 18:09:53","新北市汐止區祥雲街2號","121.64575","25.08959","6501100","汐止區"
"221012","278-VK","2018/10/06 18:09:58","新北市汐止區保一街39號","121.674193333333","25.079895","6501100","汐止區"
"221023","279-VK","2018/10/06 18:09:55","新北市汐止區中興路293號","121.62797","25.0700733333333","6501100","汐止區"
"221032","280-BY","2018/10/06 18:09:44","新北市汐止區力行街39巷1號","121.616673333333","25.0500733333333","6501100","汐止區"
"221027","281-BY","2018/10/06 18:09:51","新北市汐止區大同路二段595號","121.66358","25.0705516666667","6501100","汐止區"
"221029","298-VK","2018/10/06 18:10:02","新北市汐止區樟樹二路134號","121.639958333333","25.065665","6501100","汐止區"
"221021","299-VK","2018/10/06 18:10:03","新北市汐止區龍安路202巷10號","121.652698333333","25.0634216666667","6501100","汐止區"
"221031","353-TW","2018/10/06 18:09:56","新北市汐止區中興路144號","121.632756666667","25.0644183333333","6501100","汐止區"
"221035","622-UM","2018/10/06 18:09:29","新北市汐止區大同路二段207號","121.652748333333","25.0642866666667","6501100","汐止區"
"221025","623-UM","2018/10/06 18:10:00","新北市汐止區勤進路8號","121.659746666667","25.0616333333333","6501100","汐止區"
"221038","646-BX","2018/10/06 18:09:53","新北市汐止區復興路119號","121.659723333333","25.0610066666667","6501100","汐止區"
"221002","707-TV","2018/10/06 18:09:50","新北市汐止區福德一路213巷35號","121.635808333333","25.06478","6501100","汐止區"
"221018","753-BX","2018/10/06 18:10:01","新北市汐止區招商街19巷25號","121.667613333333","25.0682366666667","6501100","汐止區"
"242051","281-VK","2018/10/06 18:09:54","新北市新莊區民本街29巷21號","121.4291","25.0189733333333","6500500","新莊區"
"242007","280-VK","2018/10/06 18:10:01","新北市新莊區自立街79巷9號","121.454385","25.0457883333333","6500500","新莊區"
"235068","KEA-2873","2018/10/06 18:09:44","新北市中和區員山路36巷16-3號","121.48512","24.9911716666667","6500300","中和區"
"235061","KEA-2875","2018/10/06 18:09:34","新北市土城區金城路三段216號","121.472221666667","24.9901783333333","6500300","中和區"
