"lineid","car","time","location","longitude","latitude","cityid","cityname"
"234046","148-BY","2018/10/06 18:50:00","新北市永和區秀朗路二段165號","121.525295","25.0015733333333","6500400","永和區"
"234007","207-UY","2018/10/06 18:50:01","新北市永和區文化路96號","121.513663333333","25.015235","6500400","永和區"
"234081","298-R6","2018/10/06 18:49:44","新北市永和區永利路100號","121.521061666667","25.0035066666667","6500400","永和區"
"234038","336-UY","2018/10/06 18:49:50","新北市永和區成功路二段56號","121.526651666667","24.999855","6500400","永和區"
"234064","337-UY","2018/10/06 18:49:53","新北市永和區豫溪街217巷27號","121.524636666667","25.0104383333333","6500400","永和區"
"234086","338-UY","2018/10/06 18:49:49","新北市永和區中正路39-1號","121.514298333333","24.996","6500400","永和區"
"234070","552-UM","2018/10/06 18:49:45","新北市永和區福和路1號","121.525653333333","25.009755","6500400","永和區"
"234017","745-BX","2018/10/06 18:49:51","新北市永和區忠孝街26巷15號","121.515283333333","25.01667","6500400","永和區"
"234030","746-BX","2018/10/06 18:49:53","新北市永和區得和路327號","121.5235","24.9996633333333","6500400","永和區"
"234054","KEA-2590","2018/10/06 18:49:46","新北市永和區豫溪街193號","121.522683333333","25.0102666666667","6500400","永和區"
"234013","KEA-2591","2018/10/06 18:49:59","新北市永和區保福路二段133巷22號","121.509118333333","25.0136433333333","6500400","永和區"
"234061","AAD-866","2018/10/06 18:49:58","新北市永和區中正路509巷4號","121.51648","25.0071033333333","6500400","永和區"
"234042","862-TW","2018/10/06 18:49:51","新北市永和區永貞路306號","121.511876666667","25.0048616666667","6500400","永和區"
"234050","863-TW","2018/10/06 18:49:45","新北市永和區環河東路二段90號","121.52447","25.01076","6500400","永和區"
"234026","9371-KE","2018/10/06 18:49:44","新北市永和區自由街56號","121.513736666667","25.0059933333333","6500400","永和區"
"234011","9373-KE","2018/10/06 18:49:57","新北市永和區文化路124號","121.513083333333","25.0153783333333","6500400","永和區"
"249005","172-UM","2018/10/06 18:49:56","新北市八里區長道坑16-2號","121.395","25.1170966666667","6502300","八里區"
"249001","173-UM","2018/10/06 18:49:52","新北市八里區龍米路二段58-1號","121.448105","25.1409933333333","6502300","八里區"
"249004","759-BX","2018/10/06 18:49:47","新北市八里區中山路一段150巷80號","121.416073333333","25.1602966666667","6502300","八里區"
"248016","026-BX","2018/10/06 18:49:55","新北市五股區凌雲路一段134巷10號","121.449916666667","25.1025183333333","6501500","五股區"
"248006","077-UY","2018/10/06 18:49:51","新北市五股區四維路38號","121.467293333333","25.071615","6501500","五股區"
"248008","095-VK","2018/10/06 18:49:49","新北市五股區中興路一段151巷1弄1號","121.465051666667","25.0733","6501500","五股區"
"248020","225-UY","2018/10/06 18:47:11","新北市五股區凌雲路三段田埔巷15號","121.434826666667","25.1214","6501500","五股區"
"248012","247-BX","2018/10/06 18:49:54","新北市五股區成泰路二段147巷23-9號","121.437508333333","25.0874166666667","6501500","五股區"
"248014","261-SL","2018/10/06 18:49:54","新北市五股區民義路一段107巷23號","121.43208","25.0845316666667","6501500","五股區"
"248010","272-BY","2018/10/06 18:49:42","新北市五股區水碓九路37號","121.428845","25.07207","6501500","五股區"
"248004","677-BX","2018/10/06 18:49:55","新北市五股區民義路二段50-5號","121.410756666667","25.1041533333333","6501500","五股區"
"248002","678-BX","2018/10/06 18:49:56","新北市五股區西雲路249號","121.44908","25.0979483333333","6501500","五股區"
"234023","9380-KE","2018/10/06 18:49:54","新北市永和區竹林路119巷45號","121.521991666667","25.0118583333333","6500400","永和區"
"234077","969-R7","2018/10/06 18:49:50","新北市永和區中正路42巷6弄1號","121.513391666667","24.99414","6500400","永和區"
"234074","AAC-211","2018/10/06 18:49:59","新北市永和區福和路1號","121.526245","25.0097233333333","6500400","永和區"
"234067","AAC-212","2018/10/06 18:49:55","新北市永和區永和路一段36號","121.513058333333","25.0051216666667","6500400","永和區"
"234003","AAC-295","2018/10/06 18:49:45","新北市永和區中正路742-1號","121.515168333333","25.0102466666667","6500400","永和區"
"232011","375-UM","2018/10/06 18:49:46","新北市坪林區坪林街54號","121.711425","24.9374366666667","6502000","坪林區"
"244023","069-UM","2018/10/06 18:49:53","新北市林口區文化二路二段88巷29號","121.380323333333","25.0803816666667","6501700","林口區"
"244007","080-UY","2018/10/06 18:49:50","新北市林口區太平嶺3-8號","121.378371666667","25.1122116666667","6501700","林口區"
"244019","403-UM","2018/10/06 18:49:49","新北市林口區麗園二街42巷19號","121.381433333333","25.0669066666667","6501700","林口區"
"244013","KEA-2802","2018/10/06 18:49:53","新北市林口區麗園一街6巷5-1號","121.375678333333","25.0702433333333","6501700","林口區"
"244017","485-VK","2018/10/06 18:49:59","新北市林口區文化二路一段68巷12-1號","121.366136666667","25.0680083333333","6501700","林口區"
"244009","656-BX","2018/10/06 18:49:48","新北市林口區竹林路358巷1號","121.391806666667","25.0843383333333","6501700","林口區"
"244011","701-TV","2018/10/06 18:49:57","新北市林口區中正路57巷12弄23號","121.394696666667","25.0761416666667","6501700","林口區"
"244025","837-TS","2018/10/06 18:49:48","新北市林口區南勢街163號","121.359388333333","25.0749583333333","6501700","林口區"
"243013","AAD-798","2018/10/06 18:27:14","新北市泰山區明志路三段206巷3號","121.423315","25.03792","6501600","泰山區"
"243016","KEA-2801","2018/10/06 18:49:41","新北市泰山區明志路二段137號","121.427605","25.050725","6501600","泰山區"
"243015","421-VK","2018/10/06 18:49:54","新北市泰山區美寧街50號","121.430508333333","25.06444","6501600","泰山區"
"243011","KEA-2215","2018/10/06 18:49:51","新北市泰山區明志路二段246巷18弄17號","121.426758333333","25.0481883333333","6501600","泰山區"
"243012","646-TV","2018/10/06 18:49:56","新北市泰山區泰林路二段73巷31號","121.43438","25.057805","6501600","泰山區"
"222002","016-RS","2018/10/06 18:49:53","新北市深坑區文山路一段69號","121.62698","25.0019166666667","6501800","深坑區"
"222003","436-BY","2018/10/06 18:49:45","新北市深坑區翠谷街11號","121.626695","25.0082183333333","6501800","深坑區"
"231059","001-UM","2018/10/06 18:49:51","新北市新店區安華路28-1號","121.519631666667","24.9609966666667","6500600","新店區"
"231041","002-UM","2018/10/06 18:49:46","新北市新店區安華路28-1號","121.519743333333","24.9607083333333","6500600","新店區"
"231040","047-UY","2018/10/06 18:49:50","新北市新店區中央路179-1號","121.535643333333","24.9692266666667","6500600","新店區"
"231044","106-UY","2018/10/06 18:49:55","新北市新店區寶中路45號","121.545286666667","24.9789766666667","6500600","新店區"
"231046","107-UY","2018/10/06 18:49:54","新北市新店區直潭路65號","121.532773333333","24.9423116666667","6500600","新店區"
"231048","187-VK","2018/10/06 18:49:43","新北市新店區北新路一段303號","121.54139","24.9673216666667","6500600","新店區"
"231062","188-VK","2018/10/06 18:49:52","新北市新店區安一路一段1-1號","121.519363333333","24.96136","6500600","新店區"
"231052","189-VK","2018/10/06 18:49:47","新北市新店區新烏路一段140-1號","121.546303333333","24.932275","6500600","新店區"
"231054","KEA-2219","2018/10/06 18:49:50","新北市新店區安康路一段33-1號","121.53237","24.96044","6500600","新店區"
"231042","268-BY","2018/10/06 18:50:02","新北市新店區北新路一段197號","121.540408333333","24.9647883333333","6500600","新店區"
"231051","278-BY","2018/10/06 18:49:50","新北市新店區中央路63號","121.532338333333","24.9770583333333","6500600","新店區"
"231050","AAD-862","2018/10/06 18:49:42","新北市新店區安康路一段35-5號","121.531968333333","24.9606966666667","6500600","新店區"
"231058","3713-VJ","2018/10/06 18:49:46","新北市新店區中興路一段196號","121.543481666667","24.96522","6500600","新店區"
"231066","4716-K9","2018/10/06 18:49:53","新北市新店區安一路一段1-1號","121.519486666667","24.9615066666667","6500600","新店區"
"231056","4715-K9","2018/10/06 18:49:51","新北市新店區大同街20號","121.539298333333","24.9801266666667","6500600","新店區"
"231067","4772-VM","2018/10/06 18:49:57","新北市新店區安華路1-1號","121.51907","24.960595","6500600","新店區"
"231065","512-UM","2018/10/06 18:49:50","新北市新店區安華路16號","121.517373333333","24.958105","6500600","新店區"
"231049","513-UM","2018/10/06 18:49:56","新北市新店區中央路45號","121.532926666667","24.97761","6500600","新店區"
"231063","616-UM","2018/10/06 18:49:55","新北市新店區安華路28-1號","121.519495","24.9605516666667","6500600","新店區"
"231061","619-UM","2018/10/06 18:49:50","新北市新店區安一路一段1-1號","121.51962","24.9610883333333","6500600","新店區"
"231064","719-UM","2018/10/06 18:49:58","新北市新店區安一路一段1-1號","121.519513333333","24.961435","6500600","新店區"
"231060","897-TW","2018/10/06 18:49:44","新北市新店區安華路28-1號","121.519678333333","24.960845","6500600","新店區"
"231045","898-TW","2018/10/06 18:49:57","新北市新店區安康路一段156號","121.526248333333","24.9629433333333","6500600","新店區"
"231043","899-TW","2018/10/06 18:50:02","新北市新店區安康路一段231號","121.525401666667","24.9631316666667","6500600","新店區"
"231055","AKT-0513","2018/10/06 18:49:52","新北市新店區北新路一段271巷35號","121.539516666667","24.9669233333333","6500600","新店區"
"251014","742-BX","2018/10/06 18:49:50","新北市淡水區崙頂4-1號","121.492846666667","25.2238316666667","6501000","淡水區"
"241035","KEA-2210","2018/10/06 18:50:00","新北市三重區重新路四段121號","121.484608333333","25.0523033333333","6500200","三重區"
"235066","003-UY","2018/10/06 18:49:59","新北市中和區水源路18巷3號","121.50406","25.003145","6500300","中和區"
"235064","005-UY","2018/10/06 18:49:55","新北市中和區連城路75巷2-13號","121.49785","24.9991716666667","6500300","中和區"
"235063","006-UY","2018/10/06 18:49:54","新北市中和區錦和路111-1號","121.490165","24.995195","6500300","中和區"
"235056","096-UM","2018/10/06 18:49:46","新北市中和區員山路514號","121.479136666667","25.008835","6500300","中和區"
"235039","097-UM","2018/10/06 18:49:50","新北市中和區安樂路217巷60號","121.512776666667","24.9975983333333","6500300","中和區"
"235065","098-UM","2018/10/06 18:49:45","新北市中和區中山路二段2巷45弄20號","121.501676666667","25.0070166666667","6500300","中和區"
"235040","150-BY","2018/10/06 18:49:44","新北市中和區安平路42號","121.510086666667","24.9954033333333","6500300","中和區"
"235058","151-BY","2018/10/06 18:49:48","新北市中和區連城路532巷34弄18號","121.475163333333","24.9927816666667","6500300","中和區"
"235055","183-VK","2018/10/06 18:49:51","新北市中和區民生街53號","121.469635","25.00519","6500300","中和區"
"235038","185-VK","2018/10/06 18:50:00","新北市中和區大勇街50號","121.517498333333","24.9941483333333","6500300","中和區"
"235049","186-VK","2018/10/06 18:49:48","新北市中和區景安路175-2號","121.505175","24.9941816666667","6500300","中和區"
"235067","255-BX","2018/10/06 18:49:45","新北市中和區中山路二段449巷1弄21號","121.483956666667","25.0035783333333","6500300","中和區"
"235072","301-VK","2018/10/06 18:49:50","新北市中和區中山路二段75號","121.50378","25.0043883333333","6500300","中和區"
"235043","352-BY","2018/10/06 18:49:59","新北市中和區秀朗路三段175巷23號","121.525833333333","24.990805","6500300","中和區"
"235042","KEA-2878","2018/10/06 18:49:43","新北市中和區秀朗路三段70巷16號","121.525785","24.9945366666667","6500300","中和區"
"247012","KEA-2869","2018/10/06 18:49:47","新北市八里區中華路三段15號","121.39693","25.1435416666667","6501400","蘆洲區"
"235050","4979-A6","2018/10/06 18:49:42","新北市中和區忠孝街62巷7弄2號","121.513025","24.983715","6500300","中和區"
"235069","4980-A6","2018/10/06 18:49:56","新北市中和區南山路81巷20號","121.502571666667","24.9978716666667","6500300","中和區"
"235070","558-UM","2018/10/06 18:49:50","新北市中和區南山路27號","121.501986666667","24.9990516666667","6500300","中和區"
"235045","565-BX","2018/10/06 18:49:47","新北市中和區捷運路52號","121.507853333333","24.9905516666667","6500300","中和區"
"235054","640-BX","2018/10/06 18:49:53","新北市中和區民享街68巷2號","121.473953333333","25.0019133333333","6500300","中和區"
"235046","733-UM","2018/10/06 18:50:00","新北市中和區仁愛街36巷44號","121.511341666667","24.9863383333333","6500300","中和區"
"235071","783-BX","2018/10/06 18:49:46","新北市中和區員山路36巷16-3號","121.485136666667","24.99127","6500300","中和區"
"235062","800-TS","2018/10/06 18:49:49","新北市中和區中山路二段312巷33弄22號","121.494798333333","25.0042183333333","6500300","中和區"
"235057","801-TS","2018/10/06 18:49:51","新北市中和區民安街25巷11號","121.480515","25.0003183333333","6500300","中和區"
"235041","802-TS","2018/10/06 18:49:52","新北市中和區中安街192號","121.511288333333","24.9992016666667","6500300","中和區"
"235052","805-TS","2018/10/06 18:49:50","新北市中和區興南路二段399巷98弄70號","121.497931666667","24.976355","6500300","中和區"
"235048","896-TW","2018/10/06 18:49:55","新北市中和區華新街13號","121.507518333333","24.98514","6500300","中和區"
"235053","900-TW","2018/10/06 18:49:48","新北市中和區民德路290巷42號","121.466473333333","24.9960416666667","6500300","中和區"
"235060","911-UM","2018/10/06 18:49:46","新北市中和區中山路三段173號","121.473063333333","25.0062933333333","6500300","中和區"
"235051","157-BY","2018/10/06 18:49:52","新北市中和區忠孝街106巷33號","121.513343333333","24.984395","6500300","中和區"
"235037","AAC-213","2018/10/06 18:50:03","新北市中和區秀朗路三段128巷16弄2號","121.524596666667","24.9929383333333","6500300","中和區"
"235059","AAC-215","2018/10/06 18:49:59","新北市中和區圓通路395號","121.489611666667","24.9889883333333","6500300","中和區"
"220065","072-UY","2018/10/06 18:49:54","新北市板橋區民族路247巷5弄42號","121.470236666667","25.00844","6500100","板橋區"
"220086","073-UY","2018/10/06 18:49:50","新北市板橋區大智街62號","121.454156666667","25.015475","6500100","板橋區"
"220106","075-UY","2018/10/06 18:49:43","新北市板橋區民生路二段161巷7號","121.470075","25.0196083333333","6500100","板橋區"
"220069","AAD-861","2018/10/06 18:50:00","新北市板橋區大華街70號","121.459045","25.0058633333333","6500100","板橋區"
"226004","312-R5","2018/10/06 18:49:48","新北市平溪區平溪里三坑路49-1號","121.732356666667","25.0335683333333","6502400","平溪區"
"235047","251-BX","2018/10/06 18:50:03","新北市中和區興南路二段34巷56弄1號","121.50486","24.9852366666667","6500300","中和區"
"228003","097-TW","2018/10/06 18:49:37","新北市貢寮區和美里龍洞街63-7號","121.917355","25.11842","6502600","貢寮區"
"228001","212-TW","2018/10/06 18:49:51","新北市貢寮區仁理村保健街73號","121.923736666667","25.05165","6502600","貢寮區"
"228002","663-BX","2018/10/06 18:49:59","新北市貢寮區福隆里東興街6-11號","121.950786666667","25.02107","6502600","貢寮區"
"224010","AGQ-8101","2018/10/06 18:47:33","新北市瑞芳區崙頂路3號","121.846526666667","25.1069733333333","6501200","瑞芳區"
"224006","676-BX","2018/10/06 18:49:55","新北市瑞芳區中正路72號","121.80612","25.107525","6501200","瑞芳區"
"224002","639-TC","2018/10/06 18:49:45","新北市瑞芳區靜安路四段36號","121.793236666667","25.1005033333333","6501200","瑞芳區"
"224008","285-BY","2018/10/06 18:49:49","新北市瑞芳區逢甲路343-12號","121.79935","25.11246","6501200","瑞芳區"
"224007","275-VK","2018/10/06 18:49:48","新北市瑞芳區大埔路103巷49號","121.762288333333","25.1006383333333","6501200","瑞芳區"
"224009","273-VK","2018/10/06 18:49:44","新北市瑞芳區五號路253-1號","121.856505","25.1122916666667","6501200","瑞芳區"
"224005","271-BY","2018/10/06 18:49:46","新北市瑞芳區濱二路68-1號","121.82995","25.1198933333333","6501200","瑞芳區"
"227002","642-TC","2018/10/06 18:49:49","新北市雙溪區平林里梅竹蹊24號","121.86171","25.036105","6502500","雙溪區"
"227010","400-TW","2018/10/06 18:49:56","新北市雙溪區牡丹里聖南14號","121.858235","25.0527083333333","6502500","雙溪區"
"253006","032-BX","2018/10/06 18:49:54","新北市石門區下員坑15-10號","121.514121666667","25.283485","6502200","石門區"
"253005","295-VK","2018/10/06 18:50:03","新北市石門區中山路15號","121.565966666667","25.2903066666667","6502200","石門區"
"222001","KEA-2212","2018/10/06 18:49:48","新北市深坑區松柏街30巷2號","121.638626666667","25.0112333333333","6501800","深坑區"
"208002","KEA-2872","2018/10/06 18:49:55","新北市金山區信義路62號","121.635673333333","25.21897","6502700","金山區"
"208003","665-BX","2018/10/06 18:49:46","新北市金山區中山路393號","121.633426666667","25.225265","6502700","金山區"
"208001","761-BX","2018/10/06 18:50:01","新北市金山區文化三路66巷1號","121.634153333333","25.2256316666667","6502700","金山區"
"251001","011-UM","2018/10/06 18:49:56","新北市淡水區自強路277號","121.462448333333","25.1283566666667","6501000","淡水區"
"251002","012-UM","2018/10/06 18:49:46","新北市淡水區學府路88號","121.449095","25.1708933333333","6501000","淡水區"
"251013","KEA-2871","2018/10/06 18:49:33","新北市淡水區小坑子頭2-2號","121.482921666667","25.2127183333333","6501000","淡水區"
"251016","179-VK","2018/10/06 18:49:55","新北市淡水區下圭柔山71-3號","121.447018333333","25.206215","6501000","淡水區"
"251015","180-VK","2018/10/06 18:49:54","新北市淡水區糞箕湖20號","121.485693333333","25.1709166666667","6501000","淡水區"
"251010","413-VK","2018/10/06 18:49:44","新北市淡水區沙崙路14號","121.42103","25.1810933333333","6501000","淡水區"
"251012","441-VK","2018/10/06 18:49:49","新北市淡水區新興街8號","121.443781666667","25.1804583333333","6501000","淡水區"
"251009","575-R6","2018/10/06 18:49:49","新北市淡水區重建街176號","121.440763333333","25.1740633333333","6501000","淡水區"
"251007","577-R6","2018/10/06 18:49:54","新北市淡水區竹林路120號","121.462685","25.143615","6501000","淡水區"
"251011","650-BX","2018/10/06 18:49:48","新北市淡水區學府路35號","121.447825","25.168975","6501000","淡水區"
"251003","673-BX","2018/10/06 18:49:47","新北市淡水區北新路65號","121.446245","25.1783883333333","6501000","淡水區"
"207003","681-TV","2018/10/06 18:50:00","新北市萬里區大鵬里頂社1-2號","121.657246666667","25.209715","6502800","萬里區"
"207004","225-TW","2018/10/06 18:49:46","新北市萬里區萬里里獅頭路23號","121.693321666667","25.178255","6502800","萬里區"
"252002","178-VK","2018/10/06 18:50:04","新北市三芝區中正路二段1號","121.504775","25.25594","6502100","三芝區"
"252003","249-BX","2018/10/06 18:49:54","新北市三芝區後厝里大片頭74號","121.45954","25.2466433333333","6502100","三芝區"
"252001","292-VK","2018/10/06 18:49:50","新北市三芝區中正路三段9號","121.50289","25.25386","6502100","三芝區"
"237004","KEA-2597","2018/10/06 18:49:58","新北市三峽區有木108號","121.433423333333","24.86236","6500900","三峽區"
"237007","153-BY","2018/10/06 18:50:00","新北市三峽區柑樹路2巷19號","121.361905","24.9046366666667","6500900","三峽區"
"237013","252-BX","2018/10/06 18:49:53","新北市三峽區光明路69巷25號","121.376563333333","24.92935","6500900","三峽區"
"237012","275-BY","2018/10/06 18:49:50","新北市三峽區三樹路267號","121.378971666667","24.9429483333333","6500900","三峽區"
"237008","302-VK","2018/10/06 18:49:48","新北市三峽區正義街1號","121.37005","24.9202533333333","6500900","三峽區"
"237014","433-BY","2018/10/06 18:49:54","新北市三峽區隆恩街158巷68號","121.364725","24.9448733333333","6500900","三峽區"
"237006","5529-G3","2018/10/06 18:49:55","新北市三峽區溪東路211巷45號","121.405855","24.9341933333333","6500900","三峽區"
"237011","KEA-2596","2018/10/06 18:49:59","新北市三峽區介壽路三段71號","121.39557","24.9381133333333","6500900","三峽區"
"237016","649-BX","2018/10/06 18:50:04","新北市三峽區安坑1-6號","121.436035","24.92488","6500900","三峽區"
"237010","706-TV","2018/10/06 18:50:04","新北市三峽區復興路174巷8-6號","121.370826666667","24.939285","6500900","三峽區"
"237005","AKY-6261","2018/10/06 18:49:42","新北市三峽區中山路219巷19弄12號","121.363205","24.935735","6500900","三峽區"
"236070","105-UM","2018/10/06 18:49:55","新北市土城區立清街32號","121.460185","24.9864533333333","6501300","土城區"
"236042","107-UM","2018/10/06 18:50:01","新北市土城區裕民路92巷25弄7號","121.449828333333","24.9857716666667","6501300","土城區"
"236079","166-UM","2018/10/06 18:49:53","新北市土城區中央路四段67巷26號","121.417636666667","24.9573483333333","6501300","土城區"
"236026","269-VK","2018/10/06 18:50:00","新北市土城區興城路70號","121.441073333333","24.97217","6501300","土城區"
"236014","270-VK","2018/10/06 18:49:50","新北市土城區清水路235巷5弄3號","121.460755","24.983555","6501300","土城區"
"236038","271-VK","2018/10/06 18:49:58","新北市土城區明德路一段237號","121.462786666667","24.9782816666667","6501300","土城區"
"236021","401-BY","2018/10/06 18:49:57","新北市土城區金城路三段60巷14號","121.466193333333","24.9861783333333","6501300","土城區"
"236030","752-BX","2018/10/06 18:49:57","新北市土城區忠義路26巷10號","121.439818333333","24.969885","6501300","土城區"
"236059","912-UM","2018/10/06 18:49:41","新北市土城區金城路二段8-1號","121.449035","24.9771283333333","6501300","土城區"
"236049","913-UM","2018/10/06 18:49:51","新北市土城區青雲路35號","121.460015","24.988515","6501300","土城區"
"236063","915-UM","2018/10/06 18:49:54","新北市土城區金城路三段151號","121.468625","24.9882283333333","6501300","土城區"
"236055","AAC-216","2018/10/06 18:49:49","新北市土城區裕民路227號","121.454186666667","24.98348","6501300","土城區"
"242058","986-R7","2018/10/06 18:49:53","新北市泰山區中山路二段261號","121.434881666667","25.0468466666667","6500500","新莊區"
"242053","441-UM","2018/10/06 18:49:43","新北市樹林區中山路三段210-2號","121.381941666667","24.9656716666667","6500500","新莊區"
"242004","349-TH","2018/10/06 18:49:46","新北市新莊區三和路12-21號","121.44226","25.0384233333333","6500500","新莊區"
"238023","601-UM","2018/10/06 18:49:42","新北市樹林區工興街14巷1號","121.398891666667","25.0137283333333","6500700","樹林區"
"238019","599-UM","2018/10/06 18:49:54","新北市樹林區中山路三段109號","121.399705","24.9745966666667","6500700","樹林區"
"238024","5061-A6","2018/10/06 18:49:58","新北市樹林區八德街372號","121.40745","24.9697083333333","6500700","樹林區"
"238022","KEA-2213","2018/10/06 18:49:51","新北市樹林區東順街20號","121.411975","24.9785666666667","6500700","樹林區"
"238025","303-VK","2018/10/06 18:49:51","新北市樹林區中山路三段22號","121.395613333333","24.9729483333333","6500700","樹林區"
"238017","283-BY","2018/10/06 18:49:59","新北市樹林區光興街50號","121.409861666667","25.0027066666667","6500700","樹林區"
"238014","282-BY","2018/10/06 18:49:45","新北市樹林區大安路111巷4號","121.423065","24.9975383333333","6500700","樹林區"
"238020","268-VK","2018/10/06 18:49:58","新北市樹林區俊英街282號","121.423745","25.013325","6500700","樹林區"
"238026","172-UY","2018/10/06 18:49:56","新北市樹林區中山路三段202-1號","121.386088333333","24.968335","6500700","樹林區"
"239007","AAC-297","2018/10/06 18:49:50","新北市鶯歌區中山路6號","121.353076666667","24.9571066666667","6500800","鶯歌區"
"239006","891-R6","2018/10/06 18:49:57","新北市鶯歌區鶯桃路296巷92號","121.33688","24.9620666666667","6500800","鶯歌區"
"239008","527-UM","2018/10/06 18:49:51","新北市鶯歌區國際二路20巷17號","121.337005","24.9753916666667","6500800","鶯歌區"
"239005","526-UM","2018/10/06 18:49:47","新北市鶯歌區鳳吉一街170號","121.329111666667","24.9755816666667","6500800","鶯歌區"
"239001","417-VK","2018/10/06 18:49:50","新北市鶯歌區永明街60巷12號","121.340545","24.955705","6500800","鶯歌區"
"239003","360-BY","2018/10/06 18:49:48","新北市鶯歌區鶯桃路421號","121.332665","24.9648166666667","6500800","鶯歌區"
"239002","359-BY","2018/10/06 18:49:43","新北市鶯歌區中正一路221號","121.354056666667","24.9570466666667","6500800","鶯歌區"
"239004","193-VK","2018/10/06 18:49:43","新北市鶯歌區中正三路318巷31弄8號","121.3273","24.9363083333333","6500800","鶯歌區"
"221008","489-VK","2018/10/06 18:49:55","新北市汐止區康寧街901號","121.65149","25.07502","6501100","汐止區"
"221036","130-UY","2018/10/06 18:50:02","新北市汐止區南昌街51號","121.663385","25.068275","6501100","汐止區"
"221015","131-UY","2018/10/06 18:49:52","新北市汐止區鄉長路一段37號","121.665306666667","25.0749416666667","6501100","汐止區"
"221010","269-BY","2018/10/06 18:49:53","新北市汐止區康寧街901號","121.651645","25.0749733333333","6501100","汐止區"
"221012","278-VK","2018/10/06 18:49:58","新北市汐止區康寧街901號","121.65082","25.075295","6501100","汐止區"
"221023","279-VK","2018/10/06 18:49:55","新北市汐止區康寧街901號","121.651008333333","25.0752383333333","6501100","汐止區"
"221032","280-BY","2018/10/06 18:50:04","新北市汐止區橫科路221巷19-1號","121.621401666667","25.0496283333333","6501100","汐止區"
"221027","281-BY","2018/10/06 18:49:51","新北市汐止區康寧街901號","121.651473333333","25.0749916666667","6501100","汐止區"
"221029","298-VK","2018/10/06 18:50:01","新北市汐止區樟樹一路89號","121.641918333333","25.063135","6501100","汐止區"
"221021","299-VK","2018/10/06 18:49:43","新北市汐止區康寧街901號","121.651568333333","25.0750733333333","6501100","汐止區"
"221031","353-TW","2018/10/06 18:49:56","新北市汐止區福德一路300巷29號","121.63051","25.064265","6501100","汐止區"
"221035","622-UM","2018/10/06 18:49:54","新北市汐止區汐萬路一段266號","121.650918333333","25.0739333333333","6501100","汐止區"
"221025","623-UM","2018/10/06 18:50:00","新北市汐止區仁愛路67號","121.660823333333","25.0628183333333","6501100","汐止區"
"221038","646-BX","2018/10/06 18:49:53","新北市汐止區汐萬路一段312號","121.6507","25.0752833333333","6501100","汐止區"
"221002","707-TV","2018/10/06 18:49:49","新北市汐止區大同路一段2號","121.621078333333","25.0550716666667","6501100","汐止區"
"221018","753-BX","2018/10/06 18:50:01","新北市汐止區茄福街1號","121.673303333333","25.0676","6501100","汐止區"
"220079","145-BY","2018/10/06 18:49:44","新北市板橋區民權路202巷7弄25號","121.459091666667","25.0149066666667","6500100","板橋區"
"220080","200-UY","2018/10/06 18:49:49","新北市板橋區大觀路二段265巷3弄3號","121.442996666667","24.9983083333333","6500100","板橋區"
"220082","610-BX","2018/10/06 18:49:52","新北市板橋區篤行路三段99號","121.426208333333","24.9846233333333","6500100","板橋區"
"220103","257-TC","2018/10/06 18:49:46","新北市板橋區民生路二段120號","121.470411666667","25.01983","6500100","板橋區"
"220056","276-BY","2018/10/06 18:49:45","新北市板橋區四川路二段14號","121.455976666667","24.9962233333333","6500100","板橋區"
"220072","277-BY","2018/10/06 18:49:58","新北市板橋區大觀路三段36巷84號","121.434516666667","24.99742","6500100","板橋區"
"220094","283-UM","2018/10/06 18:49:56","新北市板橋區民生路二段161巷1號","121.470251666667","25.01991","6500100","板橋區"
"220071","283-VK","2018/10/06 18:49:44","新北市板橋區重慶路245巷49號","121.465145","25.0009766666667","6500100","板橋區"
"220083","286-VK","2018/10/06 18:49:58","新北市板橋區僑中二街10巷1號","121.446921666667","25.0108133333333","6500100","板橋區"
"220081","287-VK","2018/10/06 18:49:58","新北市板橋區光華街15巷2號","121.454013333333","25.01188","6500100","板橋區"
"220090","288-VK","2018/10/06 18:49:55","新北市板橋區民生路二段120號","121.470543333333","25.0194716666667","6500100","板橋區"
"220061","293-UM","2018/10/06 18:49:51","新北市板橋區民生路二段89-4號","121.471018333333","25.0183833333333","6500100","板橋區"
"220053","295-UM","2018/10/06 18:49:56","新北市板橋區民生路二段89-1號","121.471511666667","25.0180716666667","6500100","板橋區"
"220084","296-UM","2018/10/06 18:50:01","新北市板橋區大觀路二段150巷9號","121.441625","24.99912","6500100","板橋區"
"220097","299-UM","2018/10/06 18:49:56","新北市板橋區民生路二段120號","121.470391666667","25.0197133333333","6500100","板橋區"
"242051","281-VK","2018/10/06 18:49:54","新北市樹林區中山路三段214號","121.379853333333","24.9676833333333","6500500","新莊區"
"220075","303-R5","2018/10/06 18:49:42","新北市板橋區館前西路160巷2號","121.452928333333","25.00867","6500100","板橋區"
"220062","305-R5","2018/10/06 18:49:53","新北市板橋區中山路二段26號","121.472575","25.0151083333333","6500100","板橋區"
"220064","486-VK","2018/10/06 18:50:02","新北市板橋區民生路二段15-1號","121.472776666667","25.0159666666667","6500100","板橋區"
"220089","487-VK","2018/10/06 18:49:56","新北市板橋區民生路二段161巷1號","121.470028333333","25.02021","6500100","板橋區"
"220035","560-BX","2018/10/06 18:49:44","新北市板橋區中正路325巷3弄4號","121.453711666667","25.0188483333333","6500100","板橋區"
"220063","609-BX","2018/10/06 18:49:55","新北市板橋區民生路二段36-1號","121.472236666667","25.0166133333333","6500100","板橋區"
"220057","686-BX","2018/10/06 18:49:49","新北市板橋區館前東路23號","121.46035","25.0073033333333","6500100","板橋區"
"220077","687-BX","2018/10/06 18:49:58","新北市板橋區龍興街97巷2號","121.444226666667","25.0026383333333","6500100","板橋區"
"220093","689-BX","2018/10/06 18:49:55","新北市板橋區民生路二段188號","121.470385","25.020255","6500100","板橋區"
"220054","741-BX","2018/10/06 18:49:44","新北市板橋區後埔街13號","121.460423333333","25.0067816666667","6500100","板橋區"
"220102","KEA-2699","2018/10/06 18:49:45","新北市板橋區民生路二段120號","121.470298333333","25.0198683333333","6500100","板橋區"
"220055","827-TW","2018/10/06 18:49:45","新北市板橋區中山路一段160-6號","121.466353333333","25.0123683333333","6500100","板橋區"
"220067","829-TW","2018/10/06 18:49:54","新北市板橋區中山路二段90巷47弄2號","121.476693333333","25.0146933333333","6500100","板橋區"
"220068","830-TW","2018/10/06 18:49:54","新北市板橋區民生路二段89-1號","121.471425","25.0181766666667","6500100","板橋區"
"220096","831-TW","2018/10/06 18:49:42","新北市板橋區民生路二段161巷3號","121.470256666667","25.019865","6500100","板橋區"
"220088","833-TW","2018/10/06 18:49:52","新北市板橋區民生路二段161巷7號","121.470263333333","25.0197033333333","6500100","板橋區"
"220074","895-R6","2018/10/06 18:49:55","新北市板橋區林園街7-1號","121.453906666667","25.0091383333333","6500100","板橋區"
"220073","985-R7","2018/10/06 18:49:59","新北市板橋區林園街1號","121.453863333333","25.00916","6500100","板橋區"
"220070","AAC-253","2018/10/06 18:50:00","新北市板橋區四川路一段81號","121.459678333333","25.005735","6500100","板橋區"
"235068","KEA-2873","2018/10/06 18:49:43","新北市中和區中正路167巷17號","121.498516666667","24.9927816666667","6500300","中和區"
"235061","KEA-2875","2018/10/06 18:49:41","新北市中和區民享街38-3號","121.47382","25.0029","6500300","中和區"
