"lineid","car","time","location","longitude","latitude","cityid","cityname"
"234046","148-BY","2018/10/06 19:49:54","新北市永和區永利路336號","121.525508333333","25.0033516666667","6500400","永和區"
"234007","207-UY","2018/10/06 19:50:01","新北市中和區中山路二段56號","121.504173333333","25.0048383333333","6500400","永和區"
"234081","298-R6","2018/10/06 19:50:05","新北市永和區國中路4號","121.524388333333","25.004315","6500400","永和區"
"234038","336-UY","2018/10/06 19:49:50","新北市永和區成功路二段80號","121.52667","24.9988933333333","6500400","永和區"
"234064","337-UY","2018/10/06 19:49:53","新北市永和區中正路368巷18號","121.51849","25.0007783333333","6500400","永和區"
"234086","338-UY","2018/10/06 19:50:02","新北市永和區福和路266號","121.518133333333","25.007635","6500400","永和區"
"234070","552-UM","2018/10/06 19:50:05","新北市永和區竹林路81號","121.519523333333","25.0124933333333","6500400","永和區"
"234017","745-BX","2018/10/06 19:49:51","新北市永和區永和路二段299號","121.515985","25.016115","6500400","永和區"
"234030","746-BX","2018/10/06 19:49:53","新北市永和區民生路67巷29號","121.524296666667","24.9973666666667","6500400","永和區"
"234054","KEA-2590","2018/10/06 19:49:47","新北市永和區竹林路73號","121.518921666667","25.013265","6500400","永和區"
"234013","KEA-2591","2018/10/06 19:49:59","新北市永和區仁愛路240號","121.508341666667","25.01158","6500400","永和區"
"234061","AAD-866","2018/10/06 19:49:58","新北市永和區中正路94號","121.514065","24.9954766666667","6500400","永和區"
"234042","862-TW","2018/10/06 19:49:51","新北市永和區中和路389巷43號","121.508163333333","25.0016833333333","6500400","永和區"
"234050","863-TW","2018/10/06 19:49:45","新北市永和區文化路165號","121.51009","25.0165266666667","6500400","永和區"
"234026","9371-KE","2018/10/06 19:50:04","新北市永和區雙和街5號","121.509741666667","25.0017466666667","6500400","永和區"
"234011","9373-KE","2018/10/06 19:49:57","新北市永和區仁愛路352巷80號","121.501746666667","25.0075933333333","6500400","永和區"
"249001","173-UM","2018/10/06 19:49:48","新北市八里區中華路二段250號","121.405396666667","25.14973","6502300","八里區"
"249002","305-UY","2018/10/06 19:49:58","新北市八里區頂寮五街22號","121.451243333333","25.1262283333333","6502300","八里區"
"249003","593-UM","2018/10/06 19:49:44","新北市八里區華峰三街78號","121.398283333333","25.145415","6502300","八里區"
"249004","759-BX","2018/10/06 19:49:56","新北市八里區中華路一段333-1號","121.413096666667","25.154095","6502300","八里區"
"248016","026-BX","2018/10/06 19:49:50","新北市五股區成泰路四段22巷25號","121.454991666667","25.107835","6501500","五股區"
"248008","095-VK","2018/10/06 19:49:49","新北市蘆洲區中山二路300巷1號","121.468458333333","25.07665","6501500","五股區"
"248020","225-UY","2018/10/06 19:49:51","新北市五股區中直路27號","121.42086","25.1140516666667","6501500","五股區"
"248012","247-BX","2018/10/06 19:49:54","新北市五股區蓬萊路1-3號","121.434498333333","25.0796433333333","6501500","五股區"
"248014","261-SL","2018/10/06 19:49:57","新北市五股區五福路42巷10號","121.434275","25.0896416666667","6501500","五股區"
"248010","272-BY","2018/10/06 19:50:02","新北市五股區登林路貿商巷3弄3號","121.430358333333","25.0697416666667","6501500","五股區"
"248004","677-BX","2018/10/06 19:49:54","新北市五股區成泰路一段135號","121.435506666667","25.0728366666667","6501500","五股區"
"248002","678-BX","2018/10/06 19:49:56","新北市五股區成泰路四段15-8號","121.453246666667","25.107195","6501500","五股區"
"234077","969-R7","2018/10/06 19:49:49","新北市永和區中正路169號","121.516575","24.99859","6500400","永和區"
"234074","AAC-211","2018/10/06 19:49:58","新北市永和區竹林路187號","121.520566666667","25.00957","6500400","永和區"
"234067","AAC-212","2018/10/06 19:49:55","新北市永和區中山路一段144號","121.509876666667","25.0095483333333","6500400","永和區"
"234003","AAC-295","2018/10/06 19:49:45","新北市永和區福和路316號","121.516111666667","25.0073916666667","6500400","永和區"
"244023","069-UM","2018/10/06 19:49:50","新北市林口區文化北路二段266號","121.373315","25.086175","6501700","林口區"
"243013","AAD-798","2018/10/06 19:42:12","新北市泰山區應化街7號","121.42386","25.0437516666667","6501600","泰山區"
"243009","297-R6","2018/10/06 19:49:53","新北市泰山區美寧街60號","121.430971666667","25.0646616666667","6501600","泰山區"
"243016","KEA-2801","2018/10/06 19:50:01","新北市泰山區貴鳳街2號","121.421135","25.031285","6501600","泰山區"
"243015","421-VK","2018/10/06 19:49:54","新北市泰山區明志路二段214巷9號","121.426751666667","25.0488216666667","6501600","泰山區"
"243011","KEA-2215","2018/10/06 19:49:51","新北市泰山區明志路三段196巷21弄20號","121.422846666667","25.038595","6501600","泰山區"
"243010","KEA-2216","2018/10/06 19:50:03","新北市泰山區民生路33號","121.430675","25.0521983333333","6501600","泰山區"
"243012","646-TV","2018/10/06 19:49:56","新北市泰山區全興路13號","121.432336666667","25.059005","6501600","泰山區"
"243014","680-BX","2018/10/06 19:49:52","新北市泰山區泰林路二段33-7號","121.435186666667","25.0564066666667","6501600","泰山區"
"222002","016-RS","2018/10/06 19:49:53","新北市深坑區北深路二段16號","121.621106666667","25.0044983333333","6501800","深坑區"
"222003","436-BY","2018/10/06 19:49:45","新北市深坑區深南路51-1號","121.621315","25.0098616666667","6501800","深坑區"
"231059","001-UM","2018/10/06 19:49:51","新北市新店區安和路二段185號","121.518243333333","24.9747616666667","6500600","新店區"
"231041","002-UM","2018/10/06 19:49:46","新北市新店區中央路218號","121.529746666667","24.9731083333333","6500600","新店區"
"231040","047-UY","2018/10/06 19:49:50","新北市新店區大新街7巷1號","121.54328","24.9686566666667","6500600","新店區"
"231044","106-UY","2018/10/06 19:49:55","新北市新店區中正路602號","121.534085","24.9880316666667","6500600","新店區"
"231046","107-UY","2018/10/06 19:49:54","新北市新店區三民路159巷19弄46號","121.53226","24.9732216666667","6500600","新店區"
"231048","187-VK","2018/10/06 19:50:03","新北市新店區寶興路61巷1號","121.550845","24.9720333333333","6500600","新店區"
"231062","188-VK","2018/10/06 19:49:52","新北市新店區永業路28號","121.532888333333","24.95558","6500600","新店區"
"231052","189-VK","2018/10/06 19:49:47","新北市新店區新烏路三段164號","121.551621666667","24.9023666666667","6500600","新店區"
"231054","KEA-2219","2018/10/06 19:49:50","新北市新店區北新路一段2-20號","121.538678333333","24.9599566666667","6500600","新店區"
"231057","256-BX","2018/10/06 19:49:41","新北市新店區梅崗一路9號","121.556121666667","24.9313316666667","6500600","新店區"
"231042","268-BY","2018/10/06 19:50:02","新北市新店區中興路一段267-3號","121.545023333333","24.9678366666667","6500600","新店區"
"231051","278-BY","2018/10/06 19:49:50","新北市新店區中央三街15號","121.529091666667","24.9737283333333","6500600","新店區"
"231050","AAD-862","2018/10/06 19:50:02","新北市新店區北宜路二段535號","121.56414","24.9534583333333","6500600","新店區"
"231066","4716-K9","2018/10/06 19:49:53","新北市新店區安康路二段341巷36號","121.496671666667","24.95436","6500600","新店區"
"231067","4772-VM","2018/10/06 19:49:56","新北市新店區精忠路10-1號","121.532656666667","24.9590616666667","6500600","新店區"
"231065","512-UM","2018/10/06 19:49:49","新北市新店區安祥路109巷90弄18號","121.477526666667","24.9595633333333","6500600","新店區"
"231049","513-UM","2018/10/06 19:49:56","新北市新店區民權路127巷7號","121.535448333333","24.9818616666667","6500600","新店區"
"231063","616-UM","2018/10/06 19:49:55","新北市新店區車子路11號","121.503041666667","24.9520566666667","6500600","新店區"
"231061","619-UM","2018/10/06 19:49:50","新北市新店區安民街193號","121.517075","24.9715066666667","6500600","新店區"
"231068","718-UY","2018/10/06 19:49:46","新北市新店區安華路28-1號","121.519426666667","24.9610033333333","6500600","新店區"
"231064","719-UM","2018/10/06 19:48:58","新北市新店區安和路二段113巷3弄5號","121.518048333333","24.9698833333333","6500600","新店區"
"231060","897-TW","2018/10/06 19:49:44","新北市新店區安康路二段241號","121.508091666667","24.9585516666667","6500600","新店區"
"231045","898-TW","2018/10/06 19:49:57","新北市新店區中生路61號","121.564723333333","24.9523216666667","6500600","新店區"
"231043","899-TW","2018/10/06 19:50:02","新北市新店區中正路282-11號","121.538406666667","24.973905","6500600","新店區"
"231055","AKT-0513","2018/10/06 19:49:52","新北市新店區中華路83巷67號","121.538353333333","24.9673866666667","6500600","新店區"
"241028","022-UY","2018/10/06 19:49:47","新北市三重區中正南路127號","121.49396","25.057175","6500200","三重區"
"241008","059-VK","2018/10/06 19:49:46","新北市三重區永福街96號","121.478885","25.0758833333333","6500200","三重區"
"241022","060-VK","2018/10/06 19:49:56","新北市三重區重新路三段157號","121.489648333333","25.0587733333333","6500200","三重區"
"241003","061-VK","2018/10/06 19:49:55","新北市三重區五華街95號","121.49183","25.0836466666667","6500200","三重區"
"241015","062-VK","2018/10/06 19:49:51","新北市三重區重新路一段1號","121.503703333333","25.0642383333333","6500200","三重區"
"241017","063-VK","2018/10/06 19:50:04","新北市三重區重陽路三段5巷8弄27號","121.48956","25.06656","6500200","三重區"
"241024","065-VK","2018/10/06 19:49:54","新北市三重區後竹圍街305號","121.478548333333","25.0697183333333","6500200","三重區"
"241026","066-VK","2018/10/06 19:49:56","新北市三重區文化南路42號","121.500401666667","25.0602733333333","6500200","三重區"
"251014","742-BX","2018/10/06 19:49:50","新北市淡水區番社前1號","121.468051666667","25.236215","6501000","淡水區"
"241011","265-UM","2018/10/06 19:49:58","新北市三重區文化北路246號","121.497436666667","25.069875","6500200","三重區"
"241016","266-UM","2018/10/06 19:49:56","新北市三重區正德街41巷1號","121.495975","25.0627116666667","6500200","三重區"
"241009","267-UM","2018/10/06 19:49:49","新北市三重區三和路四段396巷38號","121.479768333333","25.0787533333333","6500200","三重區"
"241018","268-UM","2018/10/06 19:49:48","新北市三重區雙園街57巷25號","121.494541666667","25.06839","6500200","三重區"
"241032","269-UM","2018/10/06 19:50:04","新北市三重區重陽路一段44巷66號","121.484406666667","25.057735","6500200","三重區"
"241013","270-UM","2018/10/06 19:49:53","新北市三重區三和路三段116號","121.493911666667","25.07248","6500200","三重區"
"241025","271-UM","2018/10/06 19:50:00","新北市三重區忠孝路三段71號","121.480703333333","25.0659333333333","6500200","三重區"
"241007","398-BY","2018/10/06 19:49:56","新北市三重區三和路四段147號","121.484211666667","25.0782916666667","6500200","三重區"
"241035","KEA-2210","2018/10/06 19:50:00","新北市三重區文化北路6-1號","121.499325","25.0635066666667","6500200","三重區"
"241031","462-BY","2018/10/06 19:49:49","新北市三重區重新路四段242-2號","121.485893333333","25.05359","6500200","三重區"
"241004","475-VK","2018/10/06 19:49:56","新北市三重區五華街74號","121.493518333333","25.0819583333333","6500200","三重區"
"241020","478-VK","2018/10/06 19:49:46","新北市三重區三和路4段20巷26-1號","121.4902","25.073245","6500200","三重區"
"241030","480-VK","2018/10/06 19:49:55","新北市三重區環河南路254巷62號","121.489151666667","25.0515116666667","6500200","三重區"
"241014","543-UM","2018/10/06 19:49:47","新北市三重區長元街98巷18弄29號","121.501813333333","25.0675266666667","6500200","三重區"
"241023","545-UM","2018/10/06 19:49:59","新北市三重區頂崁街172號","121.477423333333","25.0659183333333","6500200","三重區"
"241006","AAD-863","2018/10/06 19:49:48","新北市三重區力行路二段76巷29號","121.48047","25.073705","6500200","三重區"
"241019","743-BX","2018/10/06 19:49:55","新北市三重區三張街106號","121.487781666667","25.0697416666667","6500200","三重區"
"241001","887-TS","2018/10/06 19:49:57","新北市三重區仁愛街327巷23號","121.492895","25.0798866666667","6500200","三重區"
"241012","941-UM","2018/10/06 19:49:54","新北市三重區仁興街56巷6號","121.498786666667","25.0757166666667","6500200","三重區"
"241029","942-UM","2018/10/06 19:49:59","新北市三重區光明路11號","121.490853333333","25.05868","6500200","三重區"
"241033","AAC-255","2018/10/06 19:49:46","新北市三重區中興南街29-1號","121.470598333333","25.043985","6500200","三重區"
"235066","003-UY","2018/10/06 19:49:59","新北市中和區南工路70號","121.50647","25.00209","6500300","中和區"
"235063","006-UY","2018/10/06 19:49:54","新北市中和區連城路263巷6弄8號","121.492296666667","24.9955233333333","6500300","中和區"
"235056","096-UM","2018/10/06 19:49:46","新北市中和區中山路三段114巷3號","121.475191666667","25.0072083333333","6500300","中和區"
"235039","097-UM","2018/10/06 19:49:50","新北市中和區大勇街27巷25號","121.51642","24.9938216666667","6500300","中和區"
"235065","098-UM","2018/10/06 19:49:45","新北市中和區莊敬路31巷21號","121.499888333333","25.0055016666667","6500300","中和區"
"235040","150-BY","2018/10/06 19:50:03","新北市中和區安平路31號","121.509365","24.9947566666667","6500300","中和區"
"235058","151-BY","2018/10/06 19:49:48","新北市中和區員山路142巷23號","121.482451666667","24.9965716666667","6500300","中和區"
"235055","183-VK","2018/10/06 19:49:51","新北市中和區民享街2巷15號","121.47304","25.0053283333333","6500300","中和區"
"235038","185-VK","2018/10/06 19:49:59","新北市永和區民生路42號","121.522461666667","24.996755","6500300","中和區"
"235049","186-VK","2018/10/06 19:49:47","新北市中和區景平路429號","121.501341666667","24.9952233333333","6500300","中和區"
"235067","255-BX","2018/10/06 19:49:45","新北市中和區新生街264號","121.483731666667","24.99718","6500300","中和區"
"235044","293-VK","2018/10/06 19:49:54","新北市中和區南山路269號","121.503973333333","24.9925516666667","6500300","中和區"
"235072","301-VK","2018/10/06 19:49:50","新北市中和區中正路505號","121.488643333333","24.9942166666667","6500300","中和區"
"235043","352-BY","2018/10/06 19:49:59","新北市中和區華新街232巷10號","121.505776666667","24.9821966666667","6500300","中和區"
"235042","KEA-2878","2018/10/06 19:49:43","新北市中和區宜安路120號","121.510138333333","24.998","6500300","中和區"
"235050","4979-A6","2018/10/06 19:50:02","新北市中和區景平路241巷84弄54號","121.50612","24.99232","6500300","中和區"
"235069","4980-A6","2018/10/06 19:49:51","新北市中和區中正路637巷60弄61號","121.48544","24.9925233333333","6500300","中和區"
"235070","558-UM","2018/10/06 19:49:50","新北市中和區景平路495號","121.499938333333","24.9980733333333","6500300","中和區"
"235054","640-BX","2018/10/06 19:49:53","新北市中和區莒光路63號","121.472268333333","25.0038333333333","6500300","中和區"
"235046","733-UM","2018/10/06 19:49:57","新北市中和區仁愛街43號","121.511125","24.98839","6500300","中和區"
"235057","801-TS","2018/10/06 19:49:51","新北市中和區員山路104號","121.481073333333","24.99547","6500300","中和區"
"235041","802-TS","2018/10/06 19:49:52","新北市中和區永貞路274-3號","121.51342","25.0038283333333","6500300","中和區"
"235052","805-TS","2018/10/06 19:49:50","新北市中和區華新街30巷13號","121.507221666667","24.98429","6500300","中和區"
"235048","896-TW","2018/10/06 19:49:55","新北市中和區興南路二段16號","121.507623333333","24.9859266666667","6500300","中和區"
"235053","900-TW","2018/10/06 19:49:48","新北市中和區國光街189巷1號","121.467748333333","25.0011033333333","6500300","中和區"
"235060","911-UM","2018/10/06 19:49:46","新北市中和區員山路390號","121.480476666667","25.0045516666667","6500300","中和區"
"235051","157-BY","2018/10/06 19:49:52","新北市中和區中興街180巷33號","121.498318333333","24.9890766666667","6500300","中和區"
"235037","AAC-213","2018/10/06 19:49:43","新北市中和區秀朗路三段165號","121.524698333333","24.9917883333333","6500300","中和區"
"235059","AAC-215","2018/10/06 19:49:59","新北市中和區圓通路305巷27弄1號","121.495033333333","24.9891433333333","6500300","中和區"
"220065","072-UY","2018/10/06 19:49:54","新北市板橋區海山路45號","121.466893333333","25.00998","6500100","板橋區"
"220086","073-UY","2018/10/06 19:49:50","新北市板橋區南雅西路二段7巷25號","121.451883333333","25.00951","6500100","板橋區"
"220106","075-UY","2018/10/06 19:50:03","新北市板橋區文化路二段608巷64號","121.480121666667","25.03407","6500100","板橋區"
"220069","AAD-861","2018/10/06 19:50:05","新北市板橋區大明街18-9號","121.458765","25.0025966666667","6500100","板橋區"
"247002","893-R6","2018/10/06 19:49:53","新北市蘆洲區永樂街38巷40號","121.458601666667","25.0899966666667","6501400","蘆洲區"
"247014","339-TH","2018/10/06 19:49:45","新北市蘆洲區中央路89號","121.472705","25.084235","6501400","蘆洲區"
"247008","336-TH","2018/10/06 19:49:58","新北市蘆洲區中山一路25號","121.47929","25.08083","6501400","蘆洲區"
"247004","002-UY","2018/10/06 19:50:00","新北市蘆洲區中原路52號","121.459128333333","25.0823416666667","6501400","蘆洲區"
"226004","312-R5","2018/10/06 19:49:48","新北市平溪區靜安路三段392巷3號","121.784468333333","25.0495733333333","6502400","平溪區"
"235047","251-BX","2018/10/06 19:50:03","新北市中和區捷運路20號","121.508671666667","24.9900833333333","6500300","中和區"
"228003","097-TW","2018/10/06 19:49:52","新北市貢寮區真理里美艷山街5-1號","121.926655","25.0597033333333","6502600","貢寮區"
"228001","212-TW","2018/10/06 19:49:51","新北市貢寮區仁理村仁愛路81號","121.927158333333","25.05491","6502600","貢寮區"
"224010","AGQ-8101","2018/10/06 19:47:52","新北市瑞芳區基山街84號","121.844456666667","25.1087316666667","6501200","瑞芳區"
"224002","639-TC","2018/10/06 19:50:05","新北市瑞芳區員山子路員山巷7-1號","121.817298333333","25.103895","6501200","瑞芳區"
"227002","642-TC","2018/10/06 19:49:49","新北市雙溪區雙溪里內挖路47號","121.863208333333","25.0367866666667","6502500","雙溪區"
"227010","400-TW","2018/10/06 19:49:55","新北市雙溪區新基里朝陽街2號","121.866346666667","25.0386266666667","6502500","雙溪區"
"222001","KEA-2212","2018/10/06 19:49:48","新北市深坑區北深路三段110號","121.606806666667","25.0015733333333","6501800","深坑區"
"208002","KEA-2872","2018/10/06 19:49:55","新北市金山區中華路366-1號","121.633236666667","25.2244816666667","6502700","金山區"
"208003","665-BX","2018/10/06 19:49:46","新北市金山區清泉里清水路36號","121.629871666667","25.23132","6502700","金山區"
"208001","761-BX","2018/10/06 19:50:01","新北市金山區重和里六股林口47號","121.602326666667","25.2195216666667","6502700","金山區"
"251005","010-UM","2018/10/06 19:49:54","新北市淡水區中正東路6號","121.446926666667","25.1672216666667","6501000","淡水區"
"251001","011-UM","2018/10/06 19:49:55","新北市淡水區淡金路132號","121.457958333333","25.1647433333333","6501000","淡水區"
"251002","012-UM","2018/10/06 19:49:46","新北市淡水區崁頂75-2號","121.435786666667","25.2038466666667","6501000","淡水區"
"251013","KEA-2871","2018/10/06 19:49:53","新北市淡水區頂田寮1-1號","121.458798333333","25.2143133333333","6501000","淡水區"
"251016","179-VK","2018/10/06 19:49:55","新北市淡水區下圭柔山121-12號","121.455356666667","25.209195","6501000","淡水區"
"251015","180-VK","2018/10/06 19:49:47","新北市淡水區泉洲厝8號","121.485291666667","25.1888833333333","6501000","淡水區"
"251008","181-VK","2018/10/06 19:49:42","新北市淡水區中正路一段24巷7號","121.426671666667","25.1769966666667","6501000","淡水區"
"251010","413-VK","2018/10/06 19:50:04","新北市淡水區下圭柔山91-3號","121.431001666667","25.2098716666667","6501000","淡水區"
"251012","441-VK","2018/10/06 19:49:49","新北市淡水區淡金路三段70巷1號","121.448326666667","25.2008716666667","6501000","淡水區"
"251006","561-UM","2018/10/06 19:49:50","新北市淡水區水碓街15號","121.443463333333","25.1769783333333","6501000","淡水區"
"251009","575-R6","2018/10/06 19:49:49","新北市淡水區中正路13-1號","121.443011666667","25.169635","6501000","淡水區"
"251007","577-R6","2018/10/06 19:49:54","新北市淡水區竿蓁一街51巷5號","121.452616666667","25.1663533333333","6501000","淡水區"
"251011","650-BX","2018/10/06 19:50:01","新北市淡水區埤島3-20號","121.446991666667","25.19151","6501000","淡水區"
"251003","673-BX","2018/10/06 19:49:47","新北市淡水區崁頂69號","121.43946","25.2017366666667","6501000","淡水區"
"207003","681-TV","2018/10/06 19:50:00","新北市萬里區大鵬里萬里加投67-7號","121.64195","25.2135166666667","6502800","萬里區"
"207004","225-TW","2018/10/06 19:49:46","新北市萬里區萬里里瑪鋉路170號","121.689835","25.17984","6502800","萬里區"
"252002","178-VK","2018/10/06 19:49:44","新北市三芝區三民街20號","121.50454","25.2586116666667","6502100","三芝區"
"252001","292-VK","2018/10/06 19:49:50","新北市三芝區公正街9號","121.499691666667","25.25754","6502100","三芝區"
"237004","KEA-2597","2018/10/06 19:49:58","新北市三峽區添福285-5號","121.376583333333","24.890955","6500900","三峽區"
"237007","153-BY","2018/10/06 19:50:00","新北市三峽區二鬮路136巷24弄41號","121.356788333333","24.9106233333333","6500900","三峽區"
"237009","210-TH","2018/10/06 19:49:43","新北市三峽區清水街433號","121.368625","24.9256833333333","6500900","三峽區"
"237013","252-BX","2018/10/06 19:49:53","新北市三峽區溪北街41號","121.396925","24.9360916666667","6500900","三峽區"
"237012","275-BY","2018/10/06 19:49:50","新北市三峽區中華路3巷6-1號","121.375031666667","24.9311883333333","6500900","三峽區"
"237008","302-VK","2018/10/06 19:49:47","新北市三峽區中華路74-5號","121.371428333333","24.9292383333333","6500900","三峽區"
"237014","433-BY","2018/10/06 19:49:54","新北市三峽區添福59-10號","121.373745","24.903295","6500900","三峽區"
"237006","5529-G3","2018/10/06 19:49:55","新北市三峽區中正路一段336巷15弄2號","121.369926666667","24.9249516666667","6500900","三峽區"
"237016","649-BX","2018/10/06 19:50:04","新北市三峽區溪東路1號","121.399188333333","24.9355216666667","6500900","三峽區"
"237005","AKY-6261","2018/10/06 19:49:53","新北市三峽區長泰街18巷1號","121.379068333333","24.9317733333333","6500900","三峽區"
"236070","105-UM","2018/10/06 19:49:55","新北市土城區中央路二段346巷23號","121.439301666667","24.9723633333333","6501300","土城區"
"236042","107-UM","2018/10/06 19:49:59","新北市土城區金城路二段245巷15號","121.455331666667","24.9832483333333","6501300","土城區"
"236079","166-UM","2018/10/06 19:49:53","新北市土城區中央路四段462號","121.410315","24.9509116666667","6501300","土城區"
"236026","269-VK","2018/10/06 19:49:57","新北市土城區中央路二段61巷36號","121.443645","24.9786266666667","6501300","土城區"
"236038","271-VK","2018/10/06 19:50:01","新北市土城區國際路158巷21弄2號","121.468665","24.9759716666667","6501300","土城區"
"236021","401-BY","2018/10/06 19:49:57","新北市土城區延吉街62號","121.471356666667","24.9867983333333","6501300","土城區"
"236030","752-BX","2018/10/06 19:49:57","新北市土城區中央路一段294號","121.443345","24.98234","6501300","土城區"
"236059","912-UM","2018/10/06 19:50:01","新北市土城區中央路一段179號","121.446201666667","24.9873916666667","6501300","土城區"
"236049","913-UM","2018/10/06 19:49:51","新北市土城區青雲路220號","121.458946666667","24.981255","6501300","土城區"
"236063","915-UM","2018/10/06 19:49:54","新北市土城區延和路107號","121.46768","24.9902766666667","6501300","土城區"
"236055","AAC-216","2018/10/06 19:49:49","新北市土城區延和路121號","121.468543333333","24.9904233333333","6501300","土城區"
"242036","AAC-296","2018/10/06 19:49:59","新北市新莊區建安街60號","121.427123333333","25.024735","6500500","新莊區"
"242058","986-R7","2018/10/06 19:49:55","新北市新莊區新樹路72-6號","121.43646","25.0250983333333","6500500","新莊區"
"242056","751-BX","2018/10/06 19:50:03","新北市新莊區新豐街8號","121.448856666667","25.0347633333333","6500500","新莊區"
"242029","705-TV","2018/10/06 19:49:57","新北市新莊區中平路301號","121.444663333333","25.0512416666667","6500500","新莊區"
"242048","497-BY","2018/10/06 19:50:04","新北市新莊區建安街76巷1弄18號","121.42594","25.0243166666667","6500500","新莊區"
"242053","441-UM","2018/10/06 19:49:43","新北市新莊區民安西路415巷3號","121.430731666667","25.00902","6500500","新莊區"
"242039","415-TV","2018/10/06 19:49:52","新北市新莊區民安路299巷38號","121.429671666667","25.0234383333333","6500500","新莊區"
"242023","362-BY","2018/10/06 19:50:03","新北市新莊區化成路288號","121.465685","25.0476783333333","6500500","新莊區"
"242061","353-BY","2018/10/06 19:49:55","新北市新莊區中環路一段10號","121.442791666667","25.02581","6500500","新莊區"
"242034","135-UY","2018/10/06 19:49:46","新北市新莊區建中街90巷7弄17號","121.445605","25.0374866666667","6500500","新莊區"
"242013","173-VK","2018/10/06 19:49:42","新北市新莊區中泰街38巷10號","121.450878333333","25.047355","6500500","新莊區"
"242017","346-TH","2018/10/06 19:49:51","新北市新莊區復興路一段212號","121.45281","25.043755","6500500","新莊區"
"242002","347-TH","2018/10/06 19:49:59","新北市新莊區新泰路69號","121.44939","25.0343233333333","6500500","新莊區"
"242031","348-TH","2018/10/06 19:49:56","新北市新莊區忠孝街15號","121.443881666667","25.0349733333333","6500500","新莊區"
"242004","349-TH","2018/10/06 19:49:46","新北市新莊區化成路63巷24弄21號","121.462576666667","25.0459033333333","6500500","新莊區"
"242015","351-TH","2018/10/06 19:49:45","新北市新莊區中平路82巷36-2號","121.446543333333","25.044865","6500500","新莊區"
"238015","755-BX","2018/10/06 19:49:57","新北市樹林區樹德街35號","121.42156","24.9916966666667","6500700","樹林區"
"238019","599-UM","2018/10/06 19:49:54","新北市樹林區福德街3號","121.401676666667","24.975615","6500700","樹林區"
"238024","5061-A6","2018/10/06 19:48:58","新北市樹林區中山路三段214號","121.380301666667","24.967565","6500700","樹林區"
"238021","KEA-2539","2018/10/06 19:49:52","新北市樹林區佳園路三段181巷110弄1號","121.392713333333","24.9485983333333","6500700","樹林區"
"238025","303-VK","2018/10/06 19:49:51","新北市樹林區中山路二段156號","121.412755","24.9827516666667","6500700","樹林區"
"238017","283-BY","2018/10/06 19:49:59","新北市樹林區保安二街二段6-5號","121.415988333333","25.0010316666667","6500700","樹林區"
"238014","282-BY","2018/10/06 19:49:45","新北市樹林區千歲街68號","121.42619","24.9974983333333","6500700","樹林區"
"238016","169-UY","2018/10/06 19:49:51","新北市樹林區東和街31號","121.402241666667","24.98188","6500700","樹林區"
"239007","AAC-297","2018/10/06 19:49:50","新北市鶯歌區二甲路12-2號","121.345903333333","24.9351683333333","6500800","鶯歌區"
"221008","489-VK","2018/10/06 19:49:55","新北市汐止區康寧街75號","121.619446666667","25.066375","6501100","汐止區"
"221036","130-UY","2018/10/06 19:50:02","新北市汐止區汐萬路一段39-3號","121.654898333333","25.069585","6501100","汐止區"
"221015","131-UY","2018/10/06 19:49:52","新北市汐止區忠孝東路470號","121.666168333333","25.0732466666667","6501100","汐止區"
"221010","269-BY","2018/10/06 19:49:53","新北市汐止區連峰街128號","121.646273333333","25.0791616666667","6501100","汐止區"
"221012","278-VK","2018/10/06 19:49:58","新北市汐止區大同路三段523號","121.680725","25.0713283333333","6501100","汐止區"
"221023","279-VK","2018/10/06 19:49:55","新北市汐止區明峰街149號","121.629451666667","25.0703916666667","6501100","汐止區"
"221032","280-BY","2018/10/06 19:49:44","新北市汐止區橫科路119號","121.620026666667","25.0503816666667","6501100","汐止區"
"221027","281-BY","2018/10/06 19:49:50","新北市汐止區中正路9號","121.66299","25.0701116666667","6501100","汐止區"
"221021","299-VK","2018/10/06 19:50:03","新北市汐止區新興路84巷2號","121.657918333333","25.0615266666667","6501100","汐止區"
"221031","353-TW","2018/10/06 19:49:56","新北市汐止區福德三路127號","121.633698333333","25.0675233333333","6501100","汐止區"
"221035","622-UM","2018/10/06 19:49:49","新北市汐止區長江街13巷5弄2號","121.654585","25.0717633333333","6501100","汐止區"
"221025","623-UM","2018/10/06 19:50:00","新北市汐止區秀峰路81巷23號","121.661133333333","25.0646066666667","6501100","汐止區"
"221038","646-BX","2018/10/06 19:49:53","新北市汐止區忠孝東路431號","121.665921666667","25.0719533333333","6501100","汐止區"
"221002","707-TV","2018/10/06 19:49:49","新北市汐止區大同路一段219巷27號","121.63325","25.058405","6501100","汐止區"
"221018","753-BX","2018/10/06 19:49:41","新北市汐止區汐萬路一段115巷1號","121.654443333333","25.0705633333333","6501100","汐止區"
"220079","145-BY","2018/10/06 19:50:01","新北市板橋區建國街54巷30號","121.459923333333","25.0169766666667","6500100","板橋區"
"220080","200-UY","2018/10/06 19:49:55","新北市板橋區大觀路二段69巷12號","121.447025","25.0021883333333","6500100","板橋區"
"220082","610-BX","2018/10/06 19:49:52","新北市板橋區篤行路二段105號","121.431703333333","24.9911833333333","6500100","板橋區"
"220101","245-BX","2018/10/06 19:49:54","新北市板橋區縣民大道三段105號","121.47636","25.0224633333333","6500100","板橋區"
"220103","257-TC","2018/10/06 19:49:46","新北市板橋區陽明街29巷32號","121.463658333333","25.0227516666667","6500100","板橋區"
"220091","267-BY","2018/10/06 19:49:48","新北市板橋區懷德街191巷26弄4-3號","121.480635","25.0294533333333","6500100","板橋區"
"220056","276-BY","2018/10/06 19:49:45","新北市板橋區四川路二段99巷1號","121.452695","24.9945266666667","6500100","板橋區"
"220072","277-BY","2018/10/06 19:49:58","新北市板橋區篤行路二段31巷26號","121.432775","24.992575","6500100","板橋區"
"220094","283-UM","2018/10/06 19:49:57","新北市板橋區長江路一段105巷1弄1號","121.459333333333","25.030015","6500100","板橋區"
"220071","283-VK","2018/10/06 19:49:44","新北市板橋區五權街30巷24弄19-3號","121.463748333333","24.9934816666667","6500100","板橋區"
"220083","286-VK","2018/10/06 19:49:58","新北市板橋區龍興街71巷2-1號","121.44392","25.0019933333333","6500100","板橋區"
"220081","287-VK","2018/10/06 19:49:58","新北市板橋區大觀路一段28巷60號","121.449803333333","25.01027","6500100","板橋區"
"220090","288-VK","2018/10/06 19:49:55","新北市板橋區龍泉街54巷8弄14號","121.457425","25.0269383333333","6500100","板橋區"
"220061","293-UM","2018/10/06 19:49:51","新北市板橋區中山路一段283巷2弄26號","121.470656666667","25.015105","6500100","板橋區"
"220053","295-UM","2018/10/06 19:49:46","新北市板橋區中山路二段60巷1弄15號","121.474803333333","25.01567","6500100","板橋區"
"220084","296-UM","2018/10/06 19:50:01","新北市板橋區溪崑二街103巷7號","121.427063333333","24.98887","6500100","板橋區"
"220097","299-UM","2018/10/06 19:49:56","新北市板橋區文化路一段285巷1弄14號","121.463838333333","25.01901","6500100","板橋區"
"220075","303-R5","2018/10/06 19:50:04","新北市板橋區大勇街28號","121.454075","25.0171333333333","6500100","板橋區"
"220062","305-R5","2018/10/06 19:49:48","新北市板橋區光復街41號","121.481833333333","25.0189333333333","6500100","板橋區"
"220092","307-R5","2018/10/06 19:49:55","新北市板橋區四維路259巷17號","121.462513333333","25.0276933333333","6500100","板橋區"
"220098","317-R6","2018/10/06 19:49:57","新北市板橋區四維路269巷92號","121.459563333333","25.02663","6500100","板橋區"
"220064","486-VK","2018/10/06 19:50:01","新北市板橋區實踐路193號","121.464436666667","25.0031516666667","6500100","板橋區"
"220089","487-VK","2018/10/06 19:49:56","新北市板橋區龍泉街82巷6號","121.456016666667","25.025555","6500100","板橋區"
"220035","560-BX","2018/10/06 19:49:44","新北市板橋區金華街27號","121.456003333333","25.02064","6500100","板橋區"
"220063","609-BX","2018/10/06 19:49:57","新北市板橋區三民路一段89號","121.479541666667","25.021815","6500100","板橋區"
"220057","686-BX","2018/10/06 19:49:56","新北市板橋區四川路二段113號","121.451508333333","24.9943266666667","6500100","板橋區"
"220077","687-BX","2018/10/06 19:49:45","新北市板橋區僑中一街102巷1弄16號","121.445936666667","25.0122216666667","6500100","板橋區"
"220093","689-BX","2018/10/06 19:49:57","新北市板橋區長江路二段243號","121.468846666667","25.0326366666667","6500100","板橋區"
"220054","741-BX","2018/10/06 19:50:04","新北市板橋區忠孝路忠義巷16弄4號","121.465863333333","25.0036833333333","6500100","板橋區"
"220102","KEA-2699","2018/10/06 19:50:02","新北市板橋區松柏街33巷16號","121.47509","25.0305933333333","6500100","板橋區"
"220055","827-TW","2018/10/06 19:49:45","新北市板橋區國慶路139號","121.461123333333","24.9959616666667","6500100","板橋區"
"220067","829-TW","2018/10/06 19:49:46","新北市板橋區長安街138巷1弄87號","121.474741666667","25.011385","6500100","板橋區"
"220068","830-TW","2018/10/06 19:49:54","新北市板橋區中山路二段412巷18號","121.483383333333","25.0200033333333","6500100","板橋區"
"220096","831-TW","2018/10/06 19:49:42","新北市板橋區莊敬路78-2號","121.471596666667","25.0249883333333","6500100","板橋區"
"220088","833-TW","2018/10/06 19:49:52","新北市板橋區文聖街63號","121.476863333333","25.030945","6500100","板橋區"
"220074","895-R6","2018/10/06 19:49:55","新北市板橋區縣民大道一段193號","121.45885","25.00849","6500100","板橋區"
"220073","985-R7","2018/10/06 19:50:03","新北市板橋區南雅西路二段202號","121.451803333333","25.0148483333333","6500100","板橋區"
"220070","AAC-253","2018/10/06 19:50:00","新北市板橋區實踐路21號","121.463583333333","25.00734","6500100","板橋區"
"235068","KEA-2873","2018/10/06 19:49:43","新北市中和區莊敬路16巷4號","121.499935","25.0040866666667","6500300","中和區"
"235061","KEA-2875","2018/10/06 19:49:34","新北市中和區新生街148巷21號","121.482505","25.0006266666667","6500300","中和區"
