"lineid","car","time","location","longitude","latitude","cityid","cityname"
"234046","148-BY","2018/10/06 20:09:34","新北市永和區得和路361號","121.52457","24.9994066666667","6500400","永和區"
"234007","207-UY","2018/10/06 20:09:20","新北市永和區保順路11號","121.504326666667","25.00973","6500400","永和區"
"234081","298-R6","2018/10/06 20:09:30","新北市永和區國中路8號","121.524336666667","25.0047366666667","6500400","永和區"
"234038","336-UY","2018/10/06 20:09:30","新北市永和區成功路一段47巷19號","121.527721666667","25.0038766666667","6500400","永和區"
"234064","337-UY","2018/10/06 20:09:13","新北市永和區永元路95巷1號","121.522363333333","25.0019733333333","6500400","永和區"
"234086","338-UY","2018/10/06 20:09:28","新北市永和區中正路531號","121.516826666667","25.0077566666667","6500400","永和區"
"234070","552-UM","2018/10/06 20:09:25","新北市永和區永貞路10巷14號","121.520131666667","25.0072683333333","6500400","永和區"
"234017","745-BX","2018/10/06 20:09:31","新北市永和區文化路82號","121.514023333333","25.0151333333333","6500400","永和區"
"234030","746-BX","2018/10/06 20:09:33","新北市永和區民權路49巷5弄30號","121.521941666667","24.9978083333333","6500400","永和區"
"234054","KEA-2590","2018/10/06 20:09:26","新北市永和區博愛街12號","121.516786666667","25.0157883333333","6500400","永和區"
"234013","KEA-2591","2018/10/06 20:09:20","新北市永和區永貞路435號","121.50687","25.0098533333333","6500400","永和區"
"234061","AAD-866","2018/10/06 20:09:32","新北市永和區中正路129巷6號","121.51559","24.998205","6500400","永和區"
"234042","862-TW","2018/10/06 20:09:32","新北市永和區雙和街64巷8號","121.509345","25.00335","6500400","永和區"
"234050","863-TW","2018/10/06 20:09:25","新北市永和區新生路259號","121.50568","25.0131716666667","6500400","永和區"
"234026","9371-KE","2018/10/06 20:09:24","新北市永和區永貞路339號","121.50956","25.0071633333333","6500400","永和區"
"234011","9373-KE","2018/10/06 20:09:17","新北市永和區仁愛路352巷122弄11號","121.500638333333","25.00886","6500400","永和區"
"249005","172-UM","2018/10/06 20:09:16","新北市八里區下罟子60-8號","121.387596666667","25.1369783333333","6502300","八里區"
"249001","173-UM","2018/10/06 20:09:28","新北市八里區中華路二段322號","121.403311666667","25.1479933333333","6502300","八里區"
"249002","305-UY","2018/10/06 20:09:18","新北市五股區成泰路四段40號","121.455663333333","25.1097933333333","6502300","八里區"
"249003","593-UM","2018/10/06 20:09:24","新北市八里區中山路二段540巷9弄18號","121.396555","25.14678","6502300","八里區"
"249004","759-BX","2018/10/06 20:09:20","新北市八里區中山路一段147號","121.41294","25.1590633333333","6502300","八里區"
"248016","026-BX","2018/10/06 20:09:30","新北市五股區成泰路三段577巷80弄72號","121.448921666667","25.104755","6501500","五股區"
"248008","095-VK","2018/10/06 20:09:29","新北市五股區中興路一段1巷11號","121.469408333333","25.0714616666667","6501500","五股區"
"248020","225-UY","2018/10/06 20:09:31","新北市五股區凌雲路三段24巷16-5號","121.435053333333","25.1052566666667","6501500","五股區"
"248012","247-BX","2018/10/06 20:09:14","新北市五股區六合街100號","121.430981666667","25.0909516666667","6501500","五股區"
"248014","261-SL","2018/10/06 20:09:16","新北市五股區成泰路三段75-1號","121.443605","25.0897483333333","6501500","五股區"
"248010","272-BY","2018/10/06 20:09:22","新北市五股區成泰路一段7巷66號","121.432606666667","25.0678616666667","6501500","五股區"
"248004","677-BX","2018/10/06 20:09:34","新北市五股區成泰路一段204號","121.436061666667","25.07881","6501500","五股區"
"248002","678-BX","2018/10/06 20:09:16","新北市五股區成泰路三段369-3號","121.448986666667","25.0959566666667","6501500","五股區"
"234023","9380-KE","2018/10/06 20:09:14","新北市永和區中正路702巷19號","121.51642","25.0106066666667","6500400","永和區"
"234077","969-R7","2018/10/06 20:09:30","新北市永和區智光街107巷15號","121.515863333333","24.9958833333333","6500400","永和區"
"234074","AAC-211","2018/10/06 20:09:19","新北市永和區豫溪街185號","121.522453333333","25.0103833333333","6500400","永和區"
"234067","AAC-212","2018/10/06 20:09:15","新北市永和區保平路214巷5號","121.50923","25.0064916666667","6500400","永和區"
"234003","AAC-295","2018/10/06 20:09:25","新北市永和區中正路614-2號","121.517033333333","25.007645","6500400","永和區"
"243013","AAD-798","2018/10/06 20:09:35","新北市泰山區明志路三段74巷7號","121.424453333333","25.0416633333333","6501600","泰山區"
"243009","297-R6","2018/10/06 20:09:33","新北市泰山區泰林路二段129號","121.43421","25.05981","6501600","泰山區"
"243016","KEA-2801","2018/10/06 20:09:21","新北市泰山區明志路三段405號","121.421238333333","25.034035","6501600","泰山區"
"243015","421-VK","2018/10/06 20:09:14","新北市泰山區明志路一段326號","121.431405","25.0591033333333","6501600","泰山區"
"243011","KEA-2215","2018/10/06 20:09:31","新北市新莊區丹鳳街40號","121.421611666667","25.0296633333333","6501600","泰山區"
"243010","KEA-2216","2018/10/06 20:09:23","新北市泰山區明志路二段136巷15號","121.426288333333","25.051745","6501600","泰山區"
"243012","646-TV","2018/10/06 20:09:16","新北市泰山區楓江路81號","121.436731666667","25.0634033333333","6501600","泰山區"
"243014","680-BX","2018/10/06 20:09:32","新北市泰山區明志路一段139號","121.433416666667","25.06296","6501600","泰山區"
"222002","016-RS","2018/10/06 20:09:33","新北市深坑區北深路三段180號","121.602195","25.003935","6501800","深坑區"
"222003","436-BY","2018/10/06 20:09:25","新北市深坑區埔新街65號","121.620161666667","25.0023433333333","6501800","深坑區"
"231059","001-UM","2018/10/06 20:09:31","新北市新店區安成街26-1號","121.510203333333","24.9609483333333","6500600","新店區"
"231041","002-UM","2018/10/06 20:09:26","新北市新店區中正路468號","121.533965","24.9794033333333","6500600","新店區"
"231040","047-UY","2018/10/06 20:09:30","新北市新店區中正路108號","121.543056666667","24.970595","6500600","新店區"
"231044","106-UY","2018/10/06 20:09:15","新北市新店區寶慶街66號","121.542033333333","24.98686","6500600","新店區"
"231048","187-VK","2018/10/06 20:09:23","新北市新店區永華街33巷2號","121.543916666667","24.9762466666667","6500600","新店區"
"231062","188-VK","2018/10/06 20:09:12","新北市新店區安康路一段72號","121.528311666667","24.9618533333333","6500600","新店區"
"231052","189-VK","2018/10/06 20:09:27","新北市新店區新烏路三段191-1號","121.550413333333","24.90085","6500600","新店區"
"231054","KEA-2219","2018/10/06 20:09:30","新北市新店區檳榔路2-1號","121.540933333333","24.9648966666667","6500600","新店區"
"231057","256-BX","2018/10/06 20:09:28","新北市新店區花園一路一段2號","121.553016666667","24.93239","6500600","新店區"
"231042","268-BY","2018/10/06 20:09:22","新北市新店區中興路二段89號","121.547055","24.9714483333333","6500600","新店區"
"231051","278-BY","2018/10/06 20:09:30","新北市新店區中央六街7號","121.530315","24.9745866666667","6500600","新店區"
"231050","AAD-862","2018/10/06 20:09:22","新北市新店區北新路一段335號","121.541835","24.9686716666667","6500600","新店區"
"231066","4716-K9","2018/10/06 20:09:13","新北市新店區柴埕路2-1號","121.515051666667","24.9659683333333","6500600","新店區"
"231067","4772-VM","2018/10/06 20:09:16","新北市新店區溪洲路61-1號","121.533466666667","24.96102","6500600","新店區"
"231065","512-UM","2018/10/06 20:09:29","新北市新店區安祥路106巷339號","121.472743333333","24.95912","6500600","新店區"
"231049","513-UM","2018/10/06 20:09:36","新北市新店區北新路二段121巷7號","121.54217","24.974905","6500600","新店區"
"231063","616-UM","2018/10/06 20:09:15","新北市新店區黎明路52巷11號","121.501986666667","24.94877","6500600","新店區"
"231061","619-UM","2018/10/06 20:09:30","新北市新店區安興路32號","121.515541666667","24.970075","6500600","新店區"
"231068","718-UY","2018/10/06 20:09:26","新北市新店區中興路三段88號","121.545285","24.9789166666667","6500600","新店區"
"231064","719-UM","2018/10/06 20:00:58","新北市新店區安民街12號","121.515315","24.9644266666667","6500600","新店區"
"231060","897-TW","2018/10/06 20:09:24","新北市新店區安康路三段454號","121.48439","24.95126","6500600","新店區"
"231045","898-TW","2018/10/06 20:09:17","新北市新店區北宜路一段182號","121.540938333333","24.9529583333333","6500600","新店區"
"231043","899-TW","2018/10/06 20:09:22","新北市新店區民族路161號","121.537656666667","24.9767516666667","6500600","新店區"
"231055","AKT-0513","2018/10/06 20:09:32","新北市新店區北新路一段297巷22號","121.54074","24.9679966666667","6500600","新店區"
"241028","022-UY","2018/10/06 20:09:27","新北市三重區仁化街125號","121.494673333333","25.0575433333333","6500200","三重區"
"241008","059-VK","2018/10/06 20:09:26","新北市三重區永福街197巷23號","121.478608333333","25.0743983333333","6500200","三重區"
"241022","060-VK","2018/10/06 20:09:16","新北市三重區重陽路二段1號","121.486846666667","25.06178","6500200","三重區"
"241003","061-VK","2018/10/06 20:09:31","新北市三重區仁愛街474號","121.489665","25.0823816666667","6500200","三重區"
"241015","062-VK","2018/10/06 20:09:31","新北市三重區福德北路26-3號","121.502178333333","25.064915","6500200","三重區"
"241017","063-VK","2018/10/06 20:09:24","新北市三重區大智街124號","121.49301","25.06719","6500200","三重區"
"241024","065-VK","2018/10/06 20:09:22","新北市三重區中正北路165巷2號","121.478791666667","25.0696516666667","6500200","三重區"
"241026","066-VK","2018/10/06 20:09:16","新北市三重區福德南路65巷1號","121.502413333333","25.0605483333333","6500200","三重區"
"241002","090-VK","2018/10/06 20:09:14","新北市三重區仁義街233-1號","121.496395","25.082395","6500200","三重區"
"251014","742-BX","2018/10/06 20:09:29","新北市淡水區石頭厝1號","121.458721666667","25.2355033333333","6501000","淡水區"
"241005","262-UM","2018/10/06 20:09:26","新北市三重區五華街160號","121.488921666667","25.0846433333333","6500200","三重區"
"241011","265-UM","2018/10/06 20:09:32","新北市三重區秀江街265號","121.49566","25.0712916666667","6500200","三重區"
"241016","266-UM","2018/10/06 20:09:14","新北市三重區大同北路54巷1號","121.494186666667","25.0633466666667","6500200","三重區"
"241009","267-UM","2018/10/06 20:09:29","新北市三重區三和路四段382巷96弄1號","121.4791","25.0780716666667","6500200","三重區"
"241018","268-UM","2018/10/06 20:09:28","新北市三重區大智街49-1號","121.493058333333","25.0677283333333","6500200","三重區"
"241032","269-UM","2018/10/06 20:09:23","新北市三重區捷運路67號","121.483275","25.055615","6500200","三重區"
"241013","270-UM","2018/10/06 20:09:33","新北市三重區三和路三段151巷26號","121.492961666667","25.0740766666667","6500200","三重區"
"241025","271-UM","2018/10/06 20:09:19","新北市三重區中正北路428巷17號","121.474526666667","25.0699883333333","6500200","三重區"
"241007","398-BY","2018/10/06 20:09:16","新北市三重區三和路四段111號","121.486043333333","25.077295","6500200","三重區"
"241035","KEA-2210","2018/10/06 20:09:19","新北市三重區平安街46號","121.49795","25.0641283333333","6500200","三重區"
"241031","462-BY","2018/10/06 20:09:29","新北市三重區過圳街9-1號","121.488806666667","25.06012","6500200","三重區"
"241004","475-VK","2018/10/06 20:09:18","新北市三重區自強路四段100號","121.491301666667","25.0797166666667","6500200","三重區"
"241020","478-VK","2018/10/06 20:09:26","新北市三重區三和路三段121號","121.492763333333","25.0731783333333","6500200","三重區"
"241030","480-VK","2018/10/06 20:09:35","新北市三重區成功路145巷33號","121.487676666667","25.05321","6500200","三重區"
"241014","543-UM","2018/10/06 20:09:27","新北市三重區長樂街86號","121.501211666667","25.0694966666667","6500200","三重區"
"241023","545-UM","2018/10/06 20:09:19","新北市三重區頂崁街239號","121.47694","25.0686266666667","6500200","三重區"
"241006","AAD-863","2018/10/06 20:09:29","新北市三重區車路頭街139巷14號","121.48428","25.0762216666667","6500200","三重區"
"241019","743-BX","2018/10/06 20:09:14","新北市三重區自強路二段24號","121.489593333333","25.0692583333333","6500200","三重區"
"241001","887-TS","2018/10/06 20:09:17","新北市三重區溪尾街20號","121.491195","25.0760316666667","6500200","三重區"
"241012","941-UM","2018/10/06 20:09:34","新北市三重區仁愛街125巷97號","121.498393333333","25.0761966666667","6500200","三重區"
"241029","942-UM","2018/10/06 20:09:19","新北市三重區光明路34號","121.491366666667","25.0585366666667","6500200","三重區"
"241033","AAC-255","2018/10/06 20:09:26","新北市三重區光復路一段61巷2號","121.472231666667","25.0493","6500200","三重區"
"235066","003-UY","2018/10/06 20:09:19","新北市中和區水源路127巷2弄2號","121.508053333333","25.004055","6500300","中和區"
"235039","097-UM","2018/10/06 20:09:30","新北市中和區大勇街25巷9弄1號","121.5169","24.9932716666667","6500300","中和區"
"235065","098-UM","2018/10/06 20:09:25","新北市中和區永和路90巷3號","121.497331666667","25.0058783333333","6500300","中和區"
"235040","150-BY","2018/10/06 20:09:23","新北市中和區保健路59號","121.50945","24.99729","6500300","中和區"
"247012","KEA-2869","2018/10/06 20:09:20","新北市蘆洲區民族路266號","121.478763333333","25.0890366666667","6501400","蘆洲區"
"235050","4979-A6","2018/10/06 20:09:22","新北市中和區景平路336號","121.511828333333","24.9928233333333","6500300","中和區"
"235069","4980-A6","2018/10/06 20:09:31","新北市中和區景新街64巷7弄14號","121.504541666667","24.9985016666667","6500300","中和區"
"235070","558-UM","2018/10/06 20:09:30","新北市中和區中正路584號","121.486096666667","24.9949433333333","6500300","中和區"
"235051","157-BY","2018/10/06 20:09:12","新北市中和區捷運路125號","121.507281666667","24.99069","6500300","中和區"
"235037","AAC-213","2018/10/06 20:09:23","新北市中和區立人街51號","121.52051","24.9942083333333","6500300","中和區"
"235059","AAC-215","2018/10/06 20:09:19","新北市中和區圓通路335巷37弄6號","121.4938","24.9891166666667","6500300","中和區"
"247002","893-R6","2018/10/06 20:09:33","新北市蘆洲區永康街2巷8號","121.459426666667","25.0862466666667","6501400","蘆洲區"
"247024","500-BY","2018/10/06 20:09:25","新北市蘆洲區光榮路120巷13號","121.46545","25.0885033333333","6501400","蘆洲區"
"247014","339-TH","2018/10/06 20:09:24","新北市蘆洲區中山二路259號","121.469953333333","25.0797933333333","6501400","蘆洲區"
"247006","337-TH","2018/10/06 20:09:14","新北市蘆洲區九芎街2-3號","121.468755","25.0786233333333","6501400","蘆洲區"
"247008","336-TH","2018/10/06 20:09:18","新北市蘆洲區中山一路195號","121.474431666667","25.0809983333333","6501400","蘆洲區"
"247020","057-VK","2018/10/06 20:09:18","新北市蘆洲區民義街68巷32號","121.474091666667","25.08925","6501400","蘆洲區"
"247010","056-VK","2018/10/06 20:09:22","新北市蘆洲區集賢路406號","121.48012","25.0817216666667","6501400","蘆洲區"
"247018","007-UY","2018/10/06 20:09:20","新北市蘆洲區民族路314巷1號","121.477223333333","25.090135","6501400","蘆洲區"
"247004","002-UY","2018/10/06 20:09:20","新北市蘆洲區環堤大道40號","121.456001666667","25.08345","6501400","蘆洲區"
"247022","001-UY","2018/10/06 20:09:25","新北市蘆洲區三民路171巷14號","121.47051","25.0870133333333","6501400","蘆洲區"
"226004","312-R5","2018/10/06 20:09:28","新北市平溪區十分里十分街58巷6號","121.775496666667","25.0419833333333","6502400","平溪區"
"224010","AGQ-8101","2018/10/06 20:04:12","新北市瑞芳區烏勢巷145號","121.847703333333","25.1090016666667","6501200","瑞芳區"
"222001","KEA-2212","2018/10/06 20:09:28","新北市深坑區北深路三段191號","121.60124","25.003665","6501800","深坑區"
"208002","KEA-2872","2018/10/06 20:09:14","新北市金山區南勢湖66號","121.616238333333","25.2147533333333","6502700","金山區"
"208003","665-BX","2018/10/06 20:09:32","新北市金山區香園6號","121.634368333333","25.2479866666667","6502700","金山區"
"251005","010-UM","2018/10/06 20:09:35","新北市淡水區學府路104號","121.449916666667","25.1720066666667","6501000","淡水區"
"251001","011-UM","2018/10/06 20:09:29","新北市淡水區新市二路四段265號","121.4457","25.1925133333333","6501000","淡水區"
"251002","012-UM","2018/10/06 20:09:26","新北市淡水區中正路233號","121.435743333333","25.1730516666667","6501000","淡水區"
"251013","KEA-2871","2018/10/06 20:09:33","新北市淡水區奎柔山路576號","121.467961666667","25.2050966666667","6501000","淡水區"
"251016","179-VK","2018/10/06 20:09:28","新北市淡水區番子田25-3號","121.456133333333","25.23076","6501000","淡水區"
"251015","180-VK","2018/10/06 20:09:27","新北市淡水區埤島79號","121.449535","25.19037","6501000","淡水區"
"251008","181-VK","2018/10/06 20:09:22","新北市淡水區沙崙路145號","121.423438333333","25.183035","6501000","淡水區"
"251010","413-VK","2018/10/06 20:09:24","新北市淡水區崁頂五路303號","121.423885","25.1969316666667","6501000","淡水區"
"251012","441-VK","2018/10/06 20:09:30","新北市淡水區淡金路三段329號","121.44906","25.2061433333333","6501000","淡水區"
"251004","443-VK","2018/10/06 20:09:20","新北市淡水區民族路31巷31號","121.462271666667","25.1365416666667","6501000","淡水區"
"251006","561-UM","2018/10/06 20:09:30","新北市淡水區北新路141巷29號","121.448148333333","25.1796266666667","6501000","淡水區"
"251009","575-R6","2018/10/06 20:09:29","新北市淡水區英專路41號","121.445415","25.170385","6501000","淡水區"
"251011","650-BX","2018/10/06 20:09:21","新北市淡水區崁頂78-5號","121.429301666667","25.2073366666667","6501000","淡水區"
"251003","673-BX","2018/10/06 20:09:27","新北市淡水區中山北路二段189巷15弄29號","121.443343333333","25.1840283333333","6501000","淡水區"
"207003","681-TV","2018/10/06 20:09:20","新北市萬里區大鵬里萬里加投192號","121.642758333333","25.21566","6502800","萬里區"
"207004","225-TW","2018/10/06 20:09:26","新北市萬里區北基里愛三街11號","121.681843333333","25.176665","6502800","萬里區"
"252002","178-VK","2018/10/06 20:09:24","新北市三芝區中正路一段72號","121.504005","25.25769","6502100","三芝區"
"252001","292-VK","2018/10/06 20:09:30","新北市三芝區公正街9號","121.499701666667","25.257505","6502100","三芝區"
"237007","153-BY","2018/10/06 20:09:30","新北市三峽區麻園40號","121.363788333333","24.9208583333333","6500900","三峽區"
"237006","5529-G3","2018/10/06 20:09:14","新北市三峽區中正路二段299巷35號","121.36705","24.9112833333333","6500900","三峽區"
"236070","105-UM","2018/10/06 20:09:15","新北市土城區大安路37-1號","121.43275","24.9661","6501300","土城區"
"236042","107-UM","2018/10/06 20:09:26","新北市土城區學成路24號","121.453026666667","24.98704","6501300","土城區"
"236079","166-UM","2018/10/06 20:09:13","新北市土城區民族街42號","121.418546666667","24.9636066666667","6501300","土城區"
"236026","269-VK","2018/10/06 20:09:17","新北市土城區裕生路102巷30號","121.445991666667","24.9849566666667","6501300","土城區"
"236014","270-VK","2018/10/06 20:09:27","新北市土城區德興街135號","121.455083333333","24.991695","6501300","土城區"
"236038","271-VK","2018/10/06 20:09:18","新北市土城區延吉街363巷10號","121.46413","24.9834333333333","6501300","土城區"
"236021","401-BY","2018/10/06 20:09:22","新北市土城區金城路三段206巷1號","121.471593333333","24.9897516666667","6501300","土城區"
"236030","752-BX","2018/10/06 20:09:32","新北市土城區中央路一段141號","121.446725","24.9879883333333","6501300","土城區"
"236059","912-UM","2018/10/06 20:09:21","新北市土城區慶安街82號","121.440466666667","24.9727633333333","6501300","土城區"
"236049","913-UM","2018/10/06 20:09:31","新北市土城區清水路259號","121.463043333333","24.98447","6501300","土城區"
"236055","AAC-216","2018/10/06 20:09:29","新北市土城區中華路一段236號","121.439785","24.979785","6501300","土城區"
"242036","AAC-296","2018/10/06 20:09:19","新北市新莊區後港一路130巷41號","121.430091666667","25.0258916666667","6500500","新莊區"
"242058","986-R7","2018/10/06 20:09:15","新北市新莊區八德街107號","121.424203333333","25.021025","6500500","新莊區"
"242056","751-BX","2018/10/06 20:09:33","新北市新莊區新莊路649巷15弄1號","121.44496","25.03147","6500500","新莊區"
"242029","705-TV","2018/10/06 20:09:17","新北市新莊區中原路319號","121.446566666667","25.0543616666667","6500500","新莊區"
"242027","615-BX","2018/10/06 20:09:26","新北市新莊區幸福路815號","121.445525","25.0489666666667","6500500","新莊區"
"242025","613-BX","2018/10/06 20:09:28","新北市新莊區五權一路12巷25弄13號","121.45834","25.064525","6500500","新莊區"
"242044","566-BX","2018/10/06 20:09:34","新北市新莊區萬壽路一段21巷17弄10號","121.411135","25.0200633333333","6500500","新莊區"
"242048","497-BY","2018/10/06 20:09:24","新北市新莊區四維路152巷33號","121.421996666667","25.022395","6500500","新莊區"
"242011","442-UM","2018/10/06 20:09:32","新北市新莊區中信街53號","121.449686666667","25.0506716666667","6500500","新莊區"
"242053","441-UM","2018/10/06 20:09:23","新北市新莊區西盛街421號","121.427283333333","25.01221","6500500","新莊區"
"242039","415-TV","2018/10/06 20:09:32","新北市新莊區民安西路90-2號","121.42684","25.0189566666667","6500500","新莊區"
"242009","413-TV","2018/10/06 20:09:17","新北市新莊區昌盛街35巷1弄2號","121.454031666667","25.0503183333333","6500500","新莊區"
"242046","400-BY","2018/10/06 20:09:19","新北市新莊區裕民街108號","121.418176666667","25.023085","6500500","新莊區"
"242023","362-BY","2018/10/06 20:09:23","新北市新莊區化成路371巷1號","121.465596666667","25.0572683333333","6500500","新莊區"
"242061","353-BY","2018/10/06 20:09:15","新北市新莊區瓊林路100巷1號","121.443473333333","25.0264616666667","6500500","新莊區"
"242042","133-UY","2018/10/06 20:09:29","新北市新莊區新北大道七段225號","121.413513333333","25.0300683333333","6500500","新莊區"
"242034","135-UY","2018/10/06 20:09:26","新北市新莊區華興街12號","121.44609","25.0353416666667","6500500","新莊區"
"242013","173-VK","2018/10/06 20:09:22","新北市新莊區幸福路678巷3弄1號","121.450223333333","25.0498433333333","6500500","新莊區"
"242019","175-VK","2018/10/06 20:09:31","新北市新莊區博愛路2巷2號","121.456528333333","25.0427783333333","6500500","新莊區"
"242017","346-TH","2018/10/06 20:09:31","新北市新莊區中安街5巷29號","121.452118333333","25.0462466666667","6500500","新莊區"
"242002","347-TH","2018/10/06 20:09:26","新北市新莊區中正路20號","121.465266666667","25.0418566666667","6500500","新莊區"
"242031","348-TH","2018/10/06 20:09:16","新北市新莊區中正路418號","121.441001666667","25.0338766666667","6500500","新莊區"
"242004","349-TH","2018/10/06 20:09:27","新北市新莊區化成路554巷53號","121.467923333333","25.054165","6500500","新莊區"
"242021","350-TH","2018/10/06 20:09:32","新北市新莊區建中街48巷10弄11號","121.44836","25.0385083333333","6500500","新莊區"
"242015","351-TH","2018/10/06 20:09:25","新北市新莊區中平路26巷44號","121.446756666667","25.04328","6500500","新莊區"
"221008","489-VK","2018/10/06 20:09:15","台北市內湖區康樂街235號","121.62344","25.0784183333333","6501100","汐止區"
"221036","130-UY","2018/10/06 20:09:22","新北市汐止區新台五路二段102號","121.662561666667","25.0659283333333","6501100","汐止區"
"221015","131-UY","2018/10/06 20:09:33","新北市汐止區建成路52號","121.663686666667","25.072885","6501100","汐止區"
"221010","269-BY","2018/10/06 20:09:33","新北市汐止區八連路一段317號","121.6397","25.0860733333333","6501100","汐止區"
"221012","278-VK","2018/10/06 20:09:18","新北市汐止區汐平路二段36-1號","121.694821666667","25.065335","6501100","汐止區"
"221023","279-VK","2018/10/06 20:09:35","新北市汐止區明峰街298巷7弄2號","121.624886666667","25.0690516666667","6501100","汐止區"
"221032","280-BY","2018/10/06 20:09:24","新北市汐止區弘道街11號","121.617101666667","25.0487066666667","6501100","汐止區"
"221027","281-BY","2018/10/06 20:09:30","新北市汐止區光明街11號","121.660635","25.0686166666667","6501100","汐止區"
"221029","298-VK","2018/10/06 20:09:21","新北市汐止區樟樹一路123巷19號","121.641355","25.064535","6501100","汐止區"
"221021","299-VK","2018/10/06 20:09:25","新北市汐止區連興街120號","121.653733333333","25.0623366666667","6501100","汐止區"
"221031","353-TW","2018/10/06 20:09:15","新北市汐止區原興路73巷1號","121.632105","25.0661716666667","6501100","汐止區"
"221035","622-UM","2018/10/06 20:09:29","新北市汐止區長江街79巷10號","121.65766","25.0727","6501100","汐止區"
"221025","623-UM","2018/10/06 20:09:20","新北市汐止區連興街152-1號","121.654146666667","25.0612366666667","6501100","汐止區"
"221038","646-BX","2018/10/06 20:09:33","新北市汐止區忠孝東路510號","121.666833333333","25.0754033333333","6501100","汐止區"
"221002","707-TV","2018/10/06 20:09:29","新北市汐止區福德一路201巷37號","121.635548333333","25.06403","6501100","汐止區"
"221018","753-BX","2018/10/06 20:09:21","新北市汐止區茄福街35巷11號","121.672826666667","25.0668616666667","6501100","汐止區"
"220101","245-BX","2018/10/06 20:09:34","新北市板橋區莊敬路49號","121.473325","25.0268783333333","6500100","板橋區"
"220103","257-TC","2018/10/06 20:09:26","新北市板橋區陽明街259號","121.462576666667","25.0253716666667","6500100","板橋區"
"220083","286-VK","2018/10/06 20:09:18","新北市板橋區僑中二街48巷4-4號","121.446183333333","25.010395","6500100","板橋區"
"220081","287-VK","2018/10/06 20:09:18","新北市板橋區僑中一街80巷12弄2號","121.448071666667","25.0130533333333","6500100","板橋區"
"220061","293-UM","2018/10/06 20:09:31","新北市板橋區中山路一段143號","121.464071666667","25.0114083333333","6500100","板橋區"
"220053","295-UM","2018/10/06 20:09:26","新北市板橋區懷仁街91號","121.477461666667","25.0182","6500100","板橋區"
"220097","299-UM","2018/10/06 20:09:23","新北市板橋區光正街9巷22弄4號","121.462451666667","25.0165566666667","6500100","板橋區"
"242051","281-VK","2018/10/06 20:09:14","新北市新莊區民安西路150巷5號","121.425691666667","25.0164933333333","6500500","新莊區"
"220075","303-R5","2018/10/06 20:09:22","新北市板橋區金華街10巷110號","121.459075","25.0205483333333","6500100","板橋區"
"220092","307-R5","2018/10/06 20:09:34","新北市板橋區文化路一段45巷20號","121.460405","25.0141333333333","6500100","板橋區"
"220098","317-R6","2018/10/06 20:09:32","新北市板橋區新海路72巷5弄36號","121.461546666667","25.023015","6500100","板橋區"
"220089","487-VK","2018/10/06 20:09:16","新北市板橋區互助街52號","121.461535","25.0269083333333","6500100","板橋區"
"220093","689-BX","2018/10/06 20:09:33","新北市板橋區長江路一段158號","121.461178333333","25.03028","6500100","板橋區"
"220102","KEA-2699","2018/10/06 20:09:25","新北市板橋區民治街135號","121.477693333333","25.0307916666667","6500100","板橋區"
"220055","827-TW","2018/10/06 20:09:25","新北市板橋區仁愛路75號","121.460956666667","24.9996566666667","6500100","板橋區"
"220067","829-TW","2018/10/06 20:09:26","新北市板橋區中山路一段206巷89號","121.471973333333","25.0132183333333","6500100","板橋區"
"220068","830-TW","2018/10/06 20:09:34","新北市板橋區中山路二段348號","121.481498333333","25.0200316666667","6500100","板橋區"
"220088","833-TW","2018/10/06 20:09:32","新北市板橋區民治街59號","121.479526666667","25.0332333333333","6500100","板橋區"
"220074","895-R6","2018/10/06 20:09:32","新北市板橋區館前西路93號","121.457141666667","25.0072883333333","6500100","板橋區"
"220070","AAC-253","2018/10/06 20:09:20","新北市板橋區四川路二段245巷51號","121.452123333333","24.9923983333333","6500100","板橋區"
"235068","KEA-2873","2018/10/06 20:09:32","新北市中和區福美路256巷16弄18號","121.498588333333","25.00605","6500300","中和區"
