"lineid","car","time","location","longitude","latitude","cityid","cityname"
"234081","298-R6","2018/10/06 20:39:25","新北市永和區永貞路78號","121.520241666667","25.0050766666667","6500400","永和區"
"234064","337-UY","2018/10/06 20:39:33","台北市文山區汀州路四段239號","121.535508333333","25.0020466666667","6500400","永和區"
"234070","552-UM","2018/10/06 20:36:45","新北市新店區中正路700巷322-9號","121.534913333333","24.99418","6500400","永和區"
"234030","746-BX","2018/10/06 20:39:33","新北市新店區安和路三段1-1號","121.517065","24.9795016666667","6500400","永和區"
"234061","AAD-866","2018/10/06 20:39:18","新北市永和區秀朗路一段175號","121.51697","25.0036833333333","6500400","永和區"
"234050","863-TW","2018/10/06 20:39:05","新北市永和區保安路134號","121.508745","25.0152433333333","6500400","永和區"
"249001","173-UM","2018/10/06 20:39:28","新北市八里區中山路三段379號","121.372693333333","25.1376566666667","6502300","八里區"
"249003","593-UM","2018/10/06 20:39:24","新北市八里區中山路三段382號","121.368596666667","25.1357916666667","6502300","八里區"
"249004","759-BX","2018/10/06 20:39:17","新北市八里區中山路一段157號","121.412758333333","25.158655","6502300","八里區"
"234023","9380-KE","2018/10/06 20:39:14","新北市永和區竹林路25巷26號","121.51791","25.0148966666667","6500400","永和區"
"234074","AAC-211","2018/10/06 20:39:19","新北市永和區竹林路119巷22弄17號","121.521558333333","25.0115566666667","6500400","永和區"
"244018","403-UM","2018/10/06 20:39:28","新北市林口區粉寮路二段88巷100-12號","121.409615","25.0901966666667","6501700","林口區"
"243011","KEA-2215","2018/10/06 20:39:31","新北市泰山區公園路88-1號","121.423261666667","25.0576983333333","6501600","泰山區"
"243012","646-TV","2018/10/06 20:39:16","新北市泰山區橫窠雅10-18號","121.414373333333","25.0675566666667","6501600","泰山區"
"222002","016-RS","2018/10/06 20:39:32","新北市深坑區萬福路29號","121.598883333333","25.0065233333333","6501800","深坑區"
"222003","436-BY","2018/10/06 20:39:25","新北市深坑區深坑街139號","121.613273333333","25.0011616666667","6501800","深坑區"
"231059","001-UM","2018/10/06 20:39:34","新北市新店區僑愛一路1號","121.499846666667","24.9449816666667","6500600","新店區"
"231041","002-UM","2018/10/06 20:39:26","新北市新店區中正路696號","121.534073333333","24.9905066666667","6500600","新店區"
"231040","047-UY","2018/10/06 20:39:30","新北市新店區中正路261號","121.53867","24.9734333333333","6500600","新店區"
"231044","106-UY","2018/10/06 20:39:15","新北市新店區建國路293巷2號","121.537025","24.9858283333333","6500600","新店區"
"231048","187-VK","2018/10/06 20:39:23","新北市新店區寶慶街34號","121.54306","24.9867116666667","6500600","新店區"
"231062","188-VK","2018/10/06 20:39:32","新北市新店區安泰路60巷55弄39號","121.484445","24.9455666666667","6500600","新店區"
"231052","189-VK","2018/10/06 20:39:26","新北市新店區松林路10號","121.546973333333","24.910495","6500600","新店區"
"231054","KEA-2219","2018/10/06 20:39:30","新北市新店區北新路一段64巷35號","121.542278333333","24.9656983333333","6500600","新店區"
"231057","256-BX","2018/10/06 20:39:28","新北市新店區花園六路二段9-2號","121.555723333333","24.9328666666667","6500600","新店區"
"231042","268-BY","2018/10/06 20:39:22","新北市新店區寶橋路236號","121.551603333333","24.9788383333333","6500600","新店區"
"231051","278-BY","2018/10/06 20:39:30","新北市新店區溪園路397號","121.523693333333","24.9776883333333","6500600","新店區"
"231050","AAD-862","2018/10/06 20:39:22","新北市新店區中正路265號","121.538073333333","24.9739033333333","6500600","新店區"
"231058","3713-VJ","2018/10/06 20:39:26","新北市新店區平等街65號","121.535981666667","24.972505","6500600","新店區"
"231066","4716-K9","2018/10/06 20:39:33","新北市新店區安興路105-1號","121.514656666667","24.9777716666667","6500600","新店區"
"231067","4772-VM","2018/10/06 20:39:16","新北市新店區安華路28-1號","121.51992","24.9608733333333","6500600","新店區"
"231065","512-UM","2018/10/06 20:39:30","新北市新店區安祥路102巷98弄2號","121.487383333333","24.9636983333333","6500600","新店區"
"231049","513-UM","2018/10/06 20:39:17","新北市新店區永業路81巷9弄12號","121.531413333333","24.9507983333333","6500600","新店區"
"231063","616-UM","2018/10/06 20:39:35","新北市新店區玫瑰路14號","121.494591666667","24.95049","6500600","新店區"
"231061","619-UM","2018/10/06 20:39:30","新北市新店區新和街38號","121.519325","24.9849283333333","6500600","新店區"
"231068","718-UY","2018/10/06 20:39:29","新北市新店區寶慶街39號","121.542946666667","24.986575","6500600","新店區"
"231064","719-UM","2018/10/06 20:39:23","新北市新店區安和路三段167號","121.516081666667","24.985985","6500600","新店區"
"231060","897-TW","2018/10/06 20:39:24","新北市新店區安康路三段738號","121.473865","24.9419766666667","6500600","新店區"
"231045","898-TW","2018/10/06 20:39:17","新北市新店區長春路100號","121.551576666667","24.9590716666667","6500600","新店區"
"231043","899-TW","2018/10/06 20:39:22","新北市新店區建國路8-1號","121.539918333333","24.9735133333333","6500600","新店區"
"241028","022-UY","2018/10/06 20:39:27","新北市三重區光興街89號","121.497418333333","25.0599583333333","6500200","三重區"
"241008","059-VK","2018/10/06 20:39:26","新北市三重區下竹圍街42-1號","121.481015","25.0748933333333","6500200","三重區"
"241022","060-VK","2018/10/06 20:39:16","新北市三重區新北大道一段46巷18弄7號","121.48829","25.0620016666667","6500200","三重區"
"241003","061-VK","2018/10/06 20:39:31","新北市三重區集賢路87-1號","121.493645","25.0868083333333","6500200","三重區"
"241015","062-VK","2018/10/06 20:39:31","新北市三重區文化北路103號","121.497886666667","25.06842","6500200","三重區"
"241017","063-VK","2018/10/06 20:39:24","新北市三重區大同北路273號","121.490733333333","25.0674483333333","6500200","三重區"
"241024","065-VK","2018/10/06 20:39:22","新北市三重區三民街206巷2號","121.480793333333","25.06667","6500200","三重區"
"241026","066-VK","2018/10/06 20:39:16","新北市三重區和平街1號","121.50007","25.0623366666667","6500200","三重區"
"241002","090-VK","2018/10/06 20:39:34","新北市三重區仁義街167巷18號","121.497675","25.0819266666667","6500200","三重區"
"251014","742-BX","2018/10/06 20:39:29","新北市淡水區公埔子32-1號","121.462438333333","25.2325266666667","6501000","淡水區"
"241005","262-UM","2018/10/06 20:39:26","新北市三重區碧華街405號","121.493221666667","25.085905","6500200","三重區"
"241011","265-UM","2018/10/06 20:39:18","新北市三重區龍門路144號","121.498408333333","25.07305","6500200","三重區"
"241016","266-UM","2018/10/06 20:39:14","新北市三重區長壽西街143-3號","121.49424","25.066715","6500200","三重區"
"241009","267-UM","2018/10/06 20:39:29","新北市三重區碧華街57號","121.484735","25.0812766666667","6500200","三重區"
"241018","268-UM","2018/10/06 20:39:28","新北市三重區自強路一段316號","121.491103333333","25.0685583333333","6500200","三重區"
"241032","269-UM","2018/10/06 20:39:23","新北市三重區興華街73號","121.484948333333","25.0602133333333","6500200","三重區"
"241013","270-UM","2018/10/06 20:39:33","新北市三重區三和路四段71號","121.48994","25.0747233333333","6500200","三重區"
"241025","271-UM","2018/10/06 20:39:19","新北市三重區頂崁街140號","121.477706666667","25.0650716666667","6500200","三重區"
"241007","398-BY","2018/10/06 20:39:16","新北市三重區自強路四段22號","121.488626666667","25.0765166666667","6500200","三重區"
"241035","KEA-2210","2018/10/06 20:39:19","新北市三重區正義北路275-1號","121.49524","25.0700566666667","6500200","三重區"
"241031","462-BY","2018/10/06 20:39:29","新北市三重區重陽路一段43巷30號","121.488226666667","25.0585366666667","6500200","三重區"
"241004","475-VK","2018/10/06 20:39:28","新北市三重區仁愛街416號","121.490606666667","25.081285","6500200","三重區"
"241020","478-VK","2018/10/06 20:39:26","新北市三重區忠孝路一段101號","121.48935","25.0721466666667","6500200","三重區"
"241030","480-VK","2018/10/06 20:39:35","新北市三重區成功路73巷11號","121.489451666667","25.0519266666667","6500200","三重區"
"241014","543-UM","2018/10/06 20:39:27","新北市三重區萬壽街12號","121.499255","25.0693783333333","6500200","三重區"
"241023","545-UM","2018/10/06 20:39:29","新北市三重區自由街37巷1號","121.478848333333","25.0669433333333","6500200","三重區"
"241006","AAD-863","2018/10/06 20:39:29","新北市三重區車路頭街139巷14號","121.48432","25.0761983333333","6500200","三重區"
"241019","743-BX","2018/10/06 20:35:55","新北市三重區大智街141號","121.490676666667","25.0710383333333","6500200","三重區"
"241001","887-TS","2018/10/06 20:39:17","新北市三重區自強路三段110巷5號","121.486571666667","25.0746133333333","6500200","三重區"
"241012","941-UM","2018/10/06 20:39:14","新北市三重區秀江街26號","121.50253","25.0730216666667","6500200","三重區"
"241029","942-UM","2018/10/06 20:39:19","新北市三重區集美街126巷25號","121.49","25.0538416666667","6500200","三重區"
"241033","AAC-255","2018/10/06 20:39:26","新北市三重區神農街378號","121.474185","25.0560516666667","6500200","三重區"
"247012","KEA-2869","2018/10/06 20:39:20","新北市蘆洲區集賢路224巷64弄5號","121.480895","25.0887516666667","6501400","蘆洲區"
"235069","4980-A6","2018/10/06 20:39:31","新北市中和區新生街238號","121.483801666667","24.9980066666667","6500300","中和區"
"247002","893-R6","2018/10/06 20:39:23","新北市蘆洲區永樂街2號","121.459161666667","25.0882666666667","6501400","蘆洲區"
"247016","546-UM","2018/10/06 20:39:22","新北市蘆洲區中山二路288號","121.468871666667","25.07759","6501400","蘆洲區"
"247024","500-BY","2018/10/06 20:39:25","新北市蘆洲區長樂路125-1號","121.462103333333","25.0879033333333","6501400","蘆洲區"
"247014","339-TH","2018/10/06 20:39:24","新北市蘆洲區中山一路225號","121.473813333333","25.0808216666667","6501400","蘆洲區"
"247006","337-TH","2018/10/06 20:39:14","新北市蘆洲區和平路157號","121.46669","25.080675","6501400","蘆洲區"
"247008","336-TH","2018/10/06 20:39:18","新北市蘆洲區重陽街2號","121.48056","25.0811083333333","6501400","蘆洲區"
"247020","057-VK","2018/10/06 20:39:18","新北市蘆洲區民族路424-1號","121.473811666667","25.0918116666667","6501400","蘆洲區"
"247004","002-UY","2018/10/06 20:39:20","新北市蘆洲區長安街297號","121.458043333333","25.0848966666667","6501400","蘆洲區"
"247022","001-UY","2018/10/06 20:39:25","新北市蘆洲區中正路263巷14號","121.466648333333","25.087035","6501400","蘆洲區"
"224010","AGQ-8101","2018/10/06 20:39:12","新北市瑞芳區豎崎路1號","121.843441666667","25.1088033333333","6501200","瑞芳區"
"222001","KEA-2212","2018/10/06 20:39:28","新北市深坑區北深路三段234號","121.600493333333","25.00416","6501800","深坑區"
"251001","011-UM","2018/10/06 20:39:29","新北市淡水區淡金路一段69號","121.458945","25.1728466666667","6501000","淡水區"
"251002","012-UM","2018/10/06 20:39:26","新北市淡水區中正路38-1號","121.443661666667","25.1692883333333","6501000","淡水區"
"251013","KEA-2871","2018/10/06 20:39:33","新北市淡水區下圭柔山28巷29號","121.458721666667","25.203635","6501000","淡水區"
"251016","179-VK","2018/10/06 20:39:28","新北市淡水區後洲子8-2號","121.449665","25.2240383333333","6501000","淡水區"
"251015","180-VK","2018/10/06 20:39:16","新北市淡水區淡金路四段542巷17號","121.452703333333","25.2270766666667","6501000","淡水區"
"251010","413-VK","2018/10/06 20:39:24","新北市淡水區沙崙路181巷15號","121.423953333333","25.18434","6501000","淡水區"
"251012","441-VK","2018/10/06 20:39:29","新北市淡水區興仁路99號","121.451636666667","25.2181216666667","6501000","淡水區"
"251006","561-UM","2018/10/06 20:39:30","新北市淡水區商工路184號","121.44991","25.1884983333333","6501000","淡水區"
"251009","575-R6","2018/10/06 20:39:29","新北市淡水區民權路187巷30弄9號","121.460398333333","25.1328283333333","6501000","淡水區"
"251007","577-R6","2018/10/06 20:39:14","新北市淡水區新市一路三段151號","121.448653333333","25.1833066666667","6501000","淡水區"
"251003","673-BX","2018/10/06 20:39:27","新北市淡水區新民街152巷6弄22號","121.438751666667","25.1785016666667","6501000","淡水區"
"252002","178-VK","2018/10/06 20:39:24","新北市三芝區淡金路二段47-2號","121.503703333333","25.2605266666667","6502100","三芝區"
"252001","292-VK","2018/10/06 20:39:30","新北市三芝區育英街35號","121.501243333333","25.2571","6502100","三芝區"
"242036","AAC-296","2018/10/06 20:38:39","新北市新莊區後港一路94巷1弄4號","121.427985","25.026505","6500500","新莊區"
"242058","986-R7","2018/10/06 20:39:15","新北市新莊區四維路159號","121.422513333333","25.0218466666667","6500500","新莊區"
"242056","751-BX","2018/10/06 20:39:33","新北市新莊區瓊泰路59號","121.443265","25.0286616666667","6500500","新莊區"
"242029","705-TV","2018/10/06 20:39:17","新北市新莊區中華路二段141號","121.453053333333","25.0508833333333","6500500","新莊區"
"242027","615-BX","2018/10/06 20:39:26","新北市新莊區思源路59號","121.459821666667","25.0403383333333","6500500","新莊區"
"242025","613-BX","2018/10/06 20:39:28","新北市新莊區化成路565號","121.465005","25.0656483333333","6500500","新莊區"
"242044","566-BX","2018/10/06 20:39:34","新北市新莊區中正路新生巷85弄1號","121.417138333333","25.021755","6500500","新莊區"
"242048","497-BY","2018/10/06 20:39:24","新北市新莊區中正路697號","121.425696666667","25.0298316666667","6500500","新莊區"
"242011","442-UM","2018/10/06 20:39:32","新北市新莊區中榮街124號","121.446563333333","25.0526866666667","6500500","新莊區"
"242053","441-UM","2018/10/06 20:39:23","新北市新莊區西盛街324巷16號","121.427315","25.01481","6500500","新莊區"
"242039","415-TV","2018/10/06 20:39:32","新北市新莊區民安路393號","121.432316666667","25.0229666666667","6500500","新莊區"
"242009","413-TV","2018/10/06 20:39:17","新北市新莊區昌隆街116號","121.457118333333","25.0509433333333","6500500","新莊區"
"242046","400-BY","2018/10/06 20:39:19","新北市新莊區裕民街57號","121.418783333333","25.0244983333333","6500500","新莊區"
"242023","362-BY","2018/10/06 20:39:23","新北市新莊區思源路115號","121.45984","25.0421166666667","6500500","新莊區"
"242061","353-BY","2018/10/06 20:39:15","新北市新莊區新樹路270號","121.432576666667","25.013255","6500500","新莊區"
"242042","133-UY","2018/10/06 20:39:09","新北市新莊區天祥街47巷3號","121.416581666667","25.0286033333333","6500500","新莊區"
"242034","135-UY","2018/10/06 20:39:26","新北市新莊區中正路342號","121.444441666667","25.0344583333333","6500500","新莊區"
"242013","173-VK","2018/10/06 20:38:42","新北市新莊區中和街191巷27號","121.447098333333","25.0510083333333","6500500","新莊區"
"242019","175-VK","2018/10/06 20:39:31","新北市新莊區中港路五守新村1巷3號","121.455376666667","25.0383083333333","6500500","新莊區"
"242002","347-TH","2018/10/06 20:39:19","新北市新莊區中港路五守新村37巷2號","121.454505","25.0389","6500500","新莊區"
"242031","348-TH","2018/10/06 20:39:16","新北市新莊區中正路555號","121.435125","25.0326966666667","6500500","新莊區"
"242004","349-TH","2018/10/06 20:39:26","新北市新莊區碧江街16號","121.45604","25.0350083333333","6500500","新莊區"
"242021","350-TH","2018/10/06 20:39:32","新北市新莊區公園路116號","121.45137","25.03997","6500500","新莊區"
"242015","351-TH","2018/10/06 20:39:25","新北市新莊區中和街1號","121.448401666667","25.0429083333333","6500500","新莊區"
"221008","489-VK","2018/10/06 20:39:15","新北市汐止區康寧街861巷1號","121.645283333333","25.0760383333333","6501100","汐止區"
"221036","130-UY","2018/10/06 20:39:22","新北市汐止區新昌路88號","121.663925","25.0691033333333","6501100","汐止區"
"221015","131-UY","2018/10/06 20:39:32","新北市汐止區建成路21號","121.664335","25.072625","6501100","汐止區"
"221023","279-VK","2018/10/06 20:39:35","新北市汐止區明峰街9號","121.635311666667","25.0712633333333","6501100","汐止區"
"221032","280-BY","2018/10/06 20:39:24","新北市汐止區新台五路一段116號","121.649381666667","25.0614133333333","6501100","汐止區"
"221027","281-BY","2018/10/06 20:39:30","新北市汐止區大同路二段565號","121.66288","25.0697366666667","6501100","汐止區"
"221029","298-VK","2018/10/06 20:39:32","新北市汐止區大同路一段421號","121.64276","25.061075","6501100","汐止區"
"221021","299-VK","2018/10/06 20:39:23","新北市汐止區水源路一段284號","121.654186666667","25.0582383333333","6501100","汐止區"
"221035","622-UM","2018/10/06 20:39:28","新北市汐止區長江街101-5號","121.658665","25.0731466666667","6501100","汐止區"
"221025","623-UM","2018/10/06 20:39:29","新北市汐止區水源路二段216號","121.65799","25.0524933333333","6501100","汐止區"
"221038","646-BX","2018/10/06 20:39:13","新北市汐止區汐萬路一段186號","121.65233","25.0719883333333","6501100","汐止區"
"221002","707-TV","2018/10/06 20:39:29","新北市汐止區福德二路134號","121.630945","25.0652233333333","6501100","汐止區"
"221018","753-BX","2018/10/06 20:39:21","新北市汐止區茄苳路89號","121.666966666667","25.0709833333333","6501100","汐止區"
"220103","257-TC","2018/10/06 20:39:26","新北市板橋區縣民大道二段200巷35號","121.470705","25.0181183333333","6500100","板橋區"
"220083","286-VK","2018/10/06 20:39:18","新北市板橋區僑中二街106巷19號","121.445013333333","25.0077","6500100","板橋區"
"242051","281-VK","2018/10/06 20:39:34","新北市新莊區西盛街280巷14號","121.427516666667","25.0153033333333","6500500","新莊區"
"220070","AAC-253","2018/10/06 20:39:20","新北市八里區荖阡坑路4-31號","121.398455","25.1422016666667","6500100","板橋區"
