"lineid","car","time","location","longitude","latitude","cityid","cityname"
"234070","552-UM","2018/10/06 20:59:24","新北市永和區成功路二段201巷10弄10號","121.52836","24.9955","6500400","永和區"
"249003","593-UM","2018/10/06 20:59:24","新北市八里區中山路三段216號","121.378338333333","25.1415916666667","6502300","八里區"
"244018","403-UM","2018/10/06 20:57:34","新北市林口區粉寮路二段88巷100-12號","121.409578333333","25.09021","6501700","林口區"
"231059","001-UM","2018/10/06 20:59:31","新北市新店區僑信路86號","121.499735","24.948065","6500600","新店區"
"231040","047-UY","2018/10/06 20:59:30","新北市新店區中正路162號","121.54137","24.971865","6500600","新店區"
"231048","187-VK","2018/10/06 20:59:23","新北市新店區寶元路一段105號","121.545545","24.9831533333333","6500600","新店區"
"231062","188-VK","2018/10/06 20:59:32","新北市新店區裕合街31號","121.489866666667","24.94967","6500600","新店區"
"231052","189-VK","2018/10/06 20:59:26","新北市新店區新烏路一段65號","121.546163333333","24.9440516666667","6500600","新店區"
"231054","KEA-2219","2018/10/06 20:59:30","新北市新店區中正路75巷71號","121.543156666667","24.968675","6500600","新店區"
"231042","268-BY","2018/10/06 20:59:22","新北市新店區寶高路102巷20號","121.552701666667","24.97405","6500600","新店區"
"231051","278-BY","2018/10/06 20:59:30","新北市新店區中正路663巷1弄2號","121.532888333333","24.990025","6500600","新店區"
"231050","AAD-862","2018/10/06 20:59:22","新北市新店區三民路75巷1弄2號","121.535763333333","24.97116","6500600","新店區"
"231066","4716-K9","2018/10/06 20:59:33","新北市新店區吉安街14號","121.516736666667","24.965785","6500600","新店區"
"231065","512-UM","2018/10/06 20:59:29","新北市新店區安祥路67巷39號","121.484761666667","24.9596683333333","6500600","新店區"
"231063","616-UM","2018/10/06 20:59:34","新北市新店區玫瑰路58巷1號","121.495485","24.9465483333333","6500600","新店區"
"231061","619-UM","2018/10/06 20:59:30","新北市新店區新和街116巷3號","121.52125","24.9862883333333","6500600","新店區"
"231068","718-UY","2018/10/06 20:59:26","新北市新店區寶中路79號","121.547641666667","24.980755","6500600","新店區"
"231064","719-UM","2018/10/06 20:58:18","新北市新店區安民街303巷9弄2號","121.516866666667","24.9733683333333","6500600","新店區"
"231060","897-TW","2018/10/06 20:59:24","新北市新店區安康路三段375號","121.483703333333","24.9504533333333","6500600","新店區"
"231043","899-TW","2018/10/06 20:59:22","新北市新店區中央路91號","121.531726666667","24.9758","6500600","新店區"
"241028","022-UY","2018/10/06 20:59:27","新北市三重區重新路三段90號","121.492933333333","25.060835","6500200","三重區"
"241008","059-VK","2018/10/06 20:59:26","新北市三重區力行路二段136巷1弄17號","121.482365","25.0765516666667","6500200","三重區"
"241022","060-VK","2018/10/06 20:59:16","新北市三重區過圳街27-5號","121.487913333333","25.0624283333333","6500200","三重區"
"241003","061-VK","2018/10/06 20:59:31","新北市三重區仁義街252號","121.493821666667","25.0859966666667","6500200","三重區"
"241015","062-VK","2018/10/06 20:59:31","新北市三重區福德北路61號","121.502133333333","25.0655166666667","6500200","三重區"
"241017","063-VK","2018/10/06 20:59:24","新北市三重區自強路一段236號","121.493165","25.0670216666667","6500200","三重區"
"241024","065-VK","2018/10/06 20:59:22","新北市三重區大勇街49號","121.481356666667","25.07193","6500200","三重區"
"241026","066-VK","2018/10/06 20:59:16","新北市三重區文化南路45號","121.500185","25.0614233333333","6500200","三重區"
"241002","090-VK","2018/10/06 20:59:23","新北市三重區五華街7巷1號","121.495385","25.0799483333333","6500200","三重區"
"251014","742-BX","2018/10/06 20:59:29","新北市淡水區溪口7-3號","121.455601666667","25.236575","6501000","淡水區"
"241005","262-UM","2018/10/06 20:59:26","新北市三重區五華街186號","121.488713333333","25.0864383333333","6500200","三重區"
"241011","265-UM","2018/10/06 20:59:18","新北市三重區秀江街119號","121.499703333333","25.072155","6500200","三重區"
"241016","266-UM","2018/10/06 20:59:34","新北市三重區正義北路90號","121.497118333333","25.06477","6500200","三重區"
"241009","267-UM","2018/10/06 20:59:29","新北市三重區力行路二段151號","121.483613333333","25.07761","6500200","三重區"
"241018","268-UM","2018/10/06 20:59:28","新北市三重區自強路一段155-1號","121.493791666667","25.0672633333333","6500200","三重區"
"241032","269-UM","2018/10/06 20:59:23","新北市三重區興華街142號","121.48293","25.05988","6500200","三重區"
"241013","270-UM","2018/10/06 20:59:33","新北市三重區仁賢街12-1號","121.495685","25.0748933333333","6500200","三重區"
"241025","271-UM","2018/10/06 20:59:19","新北市三重區貴陽街14號","121.484231666667","25.0618416666667","6500200","三重區"
"241007","398-BY","2018/10/06 20:59:16","新北市三重區三和路四段145巷66號","121.485755","25.07899","6500200","三重區"
"241031","462-BY","2018/10/06 20:59:29","新北市三重區重陽路一段113巷3號","121.487528333333","25.0598033333333","6500200","三重區"
"241004","475-VK","2018/10/06 20:59:36","新北市三重區仁愛街423-1號","121.490398333333","25.0814316666667","6500200","三重區"
"241020","478-VK","2018/10/06 20:59:26","新北市三重區忠孝路二段34號","121.48576","25.0709733333333","6500200","三重區"
"241030","480-VK","2018/10/06 20:59:35","新北市三重區環河南路220-8號","121.49336","25.0526833333333","6500200","三重區"
"241014","543-UM","2018/10/06 20:59:27","新北市三重區龍濱路64號","121.502438333333","25.069195","6500200","三重區"
"241023","545-UM","2018/10/06 20:59:19","新北市三重區忠孝路三段84巷63號","121.48233","25.0637416666667","6500200","三重區"
"241006","AAD-863","2018/10/06 20:59:29","新北市三重區永福街46-4號","121.48183","25.0781483333333","6500200","三重區"
"241019","743-BX","2018/10/06 20:56:14","新北市三重區大智街139號","121.490646666667","25.0709516666667","6500200","三重區"
"241001","887-TS","2018/10/06 20:59:17","新北市三重區三和路四段136號","121.488538333333","25.0754066666667","6500200","三重區"
"241012","941-UM","2018/10/06 20:59:34","新北市三重區龍門路274巷45號","121.501203333333","25.075535","6500200","三重區"
"241029","942-UM","2018/10/06 20:59:19","新北市三重區正義南路111號","121.498215","25.05854","6500200","三重區"
"241033","AAC-255","2018/10/06 20:59:25","新北市三重區光復路二段1號","121.472251666667","25.05329","6500200","三重區"
"247012","KEA-2869","2018/10/06 20:59:20","新北市蘆洲區民權路6號","121.476931666667","25.0854633333333","6501400","蘆洲區"
"247002","893-R6","2018/10/06 20:59:33","新北市蘆洲區永樂街38巷18號","121.458258333333","25.08911","6501400","蘆洲區"
"247016","546-UM","2018/10/06 20:59:22","新北市蘆洲區正和街81號","121.468203333333","25.0807583333333","6501400","蘆洲區"
"247024","500-BY","2018/10/06 20:59:25","新北市蘆洲區長興路213號","121.461156666667","25.0863983333333","6501400","蘆洲區"
"247014","339-TH","2018/10/06 20:59:24","新北市蘆洲區得勝街69巷2號","121.473676666667","25.0837866666667","6501400","蘆洲區"
"247006","337-TH","2018/10/06 20:59:34","新北市蘆洲區永安南路二段16巷8號","121.467773333333","25.07716","6501400","蘆洲區"
"247008","336-TH","2018/10/06 20:59:18","新北市蘆洲區民生街76號","121.472888333333","25.0790933333333","6501400","蘆洲區"
"247020","057-VK","2018/10/06 20:59:18","新北市蘆洲區民族路488號","121.471105","25.0913066666667","6501400","蘆洲區"
"247010","056-VK","2018/10/06 20:59:22","新北市蘆洲區鷺江街76號","121.477016666667","25.0838216666667","6501400","蘆洲區"
"247018","007-UY","2018/10/06 20:59:20","新北市蘆洲區民權路87號","121.473111666667","25.0887716666667","6501400","蘆洲區"
"247004","002-UY","2018/10/06 20:59:20","新北市蘆洲區永安南路二段268號","121.458695","25.080745","6501400","蘆洲區"
"247022","001-UY","2018/10/06 20:59:25","新北市蘆洲區民族路492號","121.47001","25.0906166666667","6501400","蘆洲區"
"224010","AGQ-8101","2018/10/06 20:51:32","新北市瑞芳區金光路334號","121.848503333333","25.10972","6501200","瑞芳區"
"251005","010-UM","2018/10/06 20:59:34","新北市淡水區學府路73巷2弄1號","121.447918333333","25.1700566666667","6501000","淡水區"
"251001","011-UM","2018/10/06 20:59:29","新北市淡水區北投子14-5號","121.448901666667","25.1831933333333","6501000","淡水區"
"251002","012-UM","2018/10/06 20:59:26","新北市淡水區英專路59號","121.445656666667","25.1710516666667","6501000","淡水區"
"251013","KEA-2871","2018/10/06 20:59:33","新北市淡水區中洲(子)6號","121.47012","25.2005583333333","6501000","淡水區"
"251016","179-VK","2018/10/06 20:59:28","新北市淡水區牛埔子10-1號","121.450033333333","25.2184316666667","6501000","淡水區"
"251015","180-VK","2018/10/06 20:59:37","新北市淡水區淡金路四段542巷17號","121.452705","25.2270733333333","6501000","淡水區"
"251010","413-VK","2018/10/06 20:59:24","新北市淡水區中正路一段118-3號","121.423883333333","25.1787833333333","6501000","淡水區"
"251012","441-VK","2018/10/06 20:59:29","新北市淡水區淡金路五段120-3號","121.45671","25.2376833333333","6501000","淡水區"
"251009","575-R6","2018/10/06 20:59:29","新北市淡水區民族路112巷68號","121.461838333333","25.1339466666667","6501000","淡水區"
"251007","577-R6","2018/10/06 20:59:14","新北市淡水區仁愛街2巷30號","121.446718333333","25.171435","6501000","淡水區"
"251011","650-BX","2018/10/06 20:59:20","新北市淡水區新民街322巷2號","121.43528","25.18356","6501000","淡水區"
"251003","673-BX","2018/10/06 20:59:27","新北市淡水區新春街125巷7號","121.441461666667","25.1823983333333","6501000","淡水區"
"242053","441-UM","2018/10/06 20:59:23","新北市樹林區八德街365-5號","121.41797","24.9722766666667","6500500","新莊區"
"242042","133-UY","2018/10/06 20:59:29","新北市板橋區大觀路三段59巷15號","121.43426","24.9954116666667","6500500","新莊區"
"221035","622-UM","2018/10/06 20:59:28","新北市汐止區汐萬路一段256巷1號","121.652005","25.0747516666667","6501100","汐止區"
"242051","281-VK","2018/10/06 20:59:14","新北市新莊區新樹路254-1號","121.432788333333","25.0165083333333","6500500","新莊區"
"220070","AAC-253","2018/10/06 20:58:00","新北市林口區太平里180號","121.368326666667","25.134435","6500100","板橋區"
