"lineid","car","time","location","longitude","latitude","cityid","cityname"
"234005","207-UY","2018/10/06 21:39:23","新北市永和區福和路1號","121.526761666667","25.0100516666667","6500400","永和區"
"243001","297-R6","2018/10/06 21:13:35","新北市泰山區黎明路25號","121.421931666667","25.060845","6501600","泰山區"
"243006","680-BX","2018/10/06 21:29:50","新北市泰山區黎明路25號","121.422271666667","25.0606966666667","6501600","泰山區"
"251014","742-BX","2018/10/06 21:39:29","新北市淡水區淡金路三段426號","121.450243333333","25.211935","6501000","淡水區"
"241005","262-UM","2018/10/06 21:39:26","新北市三重區碧華街1號","121.483508333333","25.08121","6500200","三重區"
"247012","KEA-2869","2018/10/06 21:39:20","新北市五股區凌雲路三段24巷21-6號","121.434581666667","25.1074166666667","6501400","蘆洲區"
"235010","733-UM","2018/10/06 21:21:16","新北市中和區員山路36巷13號","121.484175","24.9908716666667","6500300","中和區"
"251005","010-UM","2018/10/06 21:39:14","新北市淡水區水源街一段148號","121.448101666667","25.1715616666667","6501000","淡水區"
"251001","011-UM","2018/10/06 21:39:29","新北市淡水區新市二路三段152號","121.435358333333","25.1942266666667","6501000","淡水區"
"251002","012-UM","2018/10/06 21:39:21","新北市淡水區學府路165號","121.446016666667","25.174195","6501000","淡水區"
"251016","179-VK","2018/10/06 21:39:28","新北市淡水區中山北路三段165-1號","121.444571666667","25.1969866666667","6501000","淡水區"
"251008","181-VK","2018/10/06 21:39:26","新北市淡水區水源街二段2號","121.448733333333","25.1734033333333","6501000","淡水區"
"251010","413-VK","2018/10/06 21:39:24","新北市淡水區沙崙路216巷15號","121.426146666667","25.1841183333333","6501000","淡水區"
"251012","441-VK","2018/10/06 21:39:30","新北市淡水區淡金路四段191號","121.451593333333","25.2216866666667","6501000","淡水區"
"251004","443-VK","2018/10/06 21:39:25","新北市淡水區民生路22號","121.46115","25.1378416666667","6501000","淡水區"
"251006","561-UM","2018/10/06 21:39:30","新北市淡水區中正路67號","121.441011666667","25.1691966666667","6501000","淡水區"
"251009","575-R6","2018/10/06 21:39:29","新北市淡水區民生路52巷22弄12號","121.462478333333","25.1369766666667","6501000","淡水區"
"251007","577-R6","2018/10/06 21:39:34","新北市淡水區水源街二段194號","121.456881666667","25.1759933333333","6501000","淡水區"
"251011","650-BX","2018/10/06 21:39:30","新北市淡水區新民街294號","121.435103333333","25.1823016666667","6501000","淡水區"
"251003","673-BX","2018/10/06 21:39:27","新北市淡水區新春街46-1號","121.437665","25.181775","6501000","淡水區"
"242042","133-UY","2018/10/06 21:39:29","新北市新莊區環漢路四段2號","121.435366666667","25.0003783333333","6500500","新莊區"
"220070","AAC-253","2018/10/06 21:39:20","新北市板橋區華東街1-9號","121.448271666667","24.9948616666667","6500100","板橋區"
