"lineid","car","time","location","longitude","latitude","cityid","cityname"
"234005","207-UY","2018/10/06 21:47:05","新北市永和區福和路1號","121.526683333333","25.0101483333333","6500400","永和區"
"243006","680-BX","2018/10/06 21:29:50","新北市泰山區黎明路25號","121.422271666667","25.0606966666667","6501600","泰山區"
"247012","KEA-2869","2018/10/06 21:49:20","新北市八里區中山路三段409號","121.368701666667","25.1357483333333","6501400","蘆洲區"
"235010","733-UM","2018/10/06 21:21:16","新北市中和區員山路36巷13號","121.484175","24.9908716666667","6500300","中和區"
"251005","010-UM","2018/10/06 21:49:34","新北市淡水區鄧公路30巷6號","121.452788333333","25.1697916666667","6501000","淡水區"
"251002","012-UM","2018/10/06 21:49:21","新北市淡水區學府路196號","121.447041666667","25.1762966666667","6501000","淡水區"
"251008","181-VK","2018/10/06 21:49:26","新北市淡水區學府路104號","121.449851666667","25.1717666666667","6501000","淡水區"
"251010","413-VK","2018/10/06 21:49:24","新北市淡水區中正路二段215號","121.426273333333","25.18935","6501000","淡水區"
"251012","441-VK","2018/10/06 21:49:29","新北市淡水區淡金路三段70巷1號","121.448211666667","25.2009133333333","6501000","淡水區"
"251004","443-VK","2018/10/06 21:49:26","新北市淡水區民權路227號","121.458471666667","25.1308333333333","6501000","淡水區"
"251006","561-UM","2018/10/06 21:49:30","新北市淡水區中正路11巷3號","121.437841666667","25.1707516666667","6501000","淡水區"
"251009","575-R6","2018/10/06 21:49:29","新北市淡水區民族路35巷13號","121.464665","25.13666","6501000","淡水區"
"251007","577-R6","2018/10/06 21:49:34","新北市淡水區水源街二段177巷70號","121.452401666667","25.1775316666667","6501000","淡水區"
"251011","650-BX","2018/10/06 21:49:20","新北市淡水區新民街322巷5弄1-1號","121.436351666667","25.182925","6501000","淡水區"
"251003","673-BX","2018/10/06 21:49:27","新北市淡水區新春街90號","121.438843333333","25.1823133333333","6501000","淡水區"
"242042","133-UY","2018/10/06 21:49:29","新北市新莊區新泰路401巷28-1號","121.442086666667","25.044045","6500500","新莊區"
