"lineid","car","time","location","longitude","latitude","cityid","cityname"
"247012","KEA-2869","2018/10/06 22:19:20","新北市五股區中興路二段182巷3號","121.456131666667","25.0780916666667","6501400","蘆洲區"
"247007","336-TH","2018/10/06 22:19:38","新北市五股區中興路三段2巷10號","121.449156666667","25.0809883333333","6501400","蘆洲區"
"251008","181-VK","2018/10/06 22:19:26","新北市淡水區學府路104號","121.449856666667","25.171755","6501000","淡水區"
"251010","413-VK","2018/10/06 22:19:24","新北市淡水區沙崙路200號","121.424696666667","25.1839733333333","6501000","淡水區"
"251004","443-VK","2018/10/06 22:19:25","新北市淡水區民族路33號","121.462256666667","25.13581","6501000","淡水區"
"251007","577-R6","2018/10/06 22:19:34","新北市淡水區北新路180號","121.44948","25.17878","6501000","淡水區"
"251011","650-BX","2018/10/06 22:19:21","新北市淡水區水碓街7號","121.443191666667","25.1771683333333","6501000","淡水區"
