"lineid","car","time","location","longitude","latitude","cityid","cityname"
"247007","336-TH","2018/10/06 22:29:18","新北市五股區中興路三段2巷10號","121.449146666667","25.0809566666667","6501400","蘆洲區"
"251008","181-VK","2018/10/06 22:29:26","新北市淡水區學府路104號","121.449875","25.171755","6501000","淡水區"
"251010","413-VK","2018/10/06 22:29:24","新北市淡水區沙崙路200號","121.424698333333","25.1839666666667","6501000","淡水區"
"251004","443-VK","2018/10/06 22:29:25","新北市淡水區民族路33號","121.46224","25.1357983333333","6501000","淡水區"
"251007","577-R6","2018/10/06 22:29:34","新北市淡水區北新路180號","121.449468333333","25.17876","6501000","淡水區"
"251011","650-BX","2018/10/06 22:29:20","新北市淡水區水碓街7號","121.44315","25.1771666666667","6501000","淡水區"
