"lineid","car","time","location","longitude","latitude","cityid","cityname"
"248005","653-BX","2018/01/25 07:29:25","新北市五股區明德路12巷6號","121.433406666667","25.0718066666667","6501500","五股區"
"232001","290-BY","2018/01/25 07:29:18","新北市坪林區上坑子口5號","121.699785","24.9596716666667","6502000","坪林區"
"232014","291-BY","2018/01/25 07:29:32","新北市坪林區金瓜寮24-3號","121.679031666667","24.9093116666667","6502000","坪林區"
"232010","375-UM","2018/01/25 07:29:20","新北市坪林區水聳淒坑29號","121.711238333333","24.933405","6502000","坪林區"
"232018","705-BZ","2018/01/25 07:29:22","新北市坪林區樟空子4號","121.726236666667","24.96868","6502000","坪林區"
"232007","758-BX","2018/01/25 07:29:32","新北市坪林區魚堀44-1號","121.701718333333","24.9327666666667","6502000","坪林區"
"244003","248-BX","2018/01/25 07:29:14","新北市林口區頂福里71-109號","121.349146666667","25.083105","6501700","林口區"
"222006","289-BY","2018/01/25 07:11:21","新北市深坑區萬福路36-1號","121.60528","25.01219","6501800","深坑區"
"235001","611-BX","2018/01/25 07:29:27","新北市中和區圓通路367巷6號","121.491435","24.989235","6500300","中和區"
"226005","5620-A6","2018/01/25 07:29:17","新北市平溪區石底里公園街16號","121.737381666667","25.0249033333333","6502400","平溪區"
"226002","7418-A5","2018/01/25 07:27:12","新北市平溪區南山里南山坪6號","121.764786666667","25.0318433333333","6502400","平溪區"
"226003","AGD-0702","2018/01/25 07:29:30","新北市平溪區石底里公園街15號","121.73763","25.0249683333333","6502400","平溪區"
"223006","022-BY","2018/01/25 07:29:28","新北市石碇區靜安路一段292巷10號","121.691896666667","25.0058483333333","6501900","石碇區"
"223002","198-BX","2018/01/25 07:29:20","新北市石碇區北宜路五段坑內巷14號","121.633513333333","24.9558816666667","6501900","石碇區"
"223001","205-TH","2018/01/25 07:29:15","新北市石碇區中楒子腳2-5號","121.637558333333","24.9725","6501900","石碇區"
"223008","406-TH","2018/01/25 07:29:30","新北市石碇區靜安路一段337號","121.698931666667","25.0147183333333","6501900","石碇區"
"223001","437-BY","2018/01/25 07:29:30","新北市石碇區中楒子腳2-5號","121.637696666667","24.97242","6501900","石碇區"
"223007","592-UM","2018/01/25 07:29:29","新北市石碇區大溪墘17號","121.692265","25.00818","6501900","石碇區"
"223004","660-BX","2018/01/25 07:29:22","新北市石碇區八分寮56-1號","121.644956666667","25.01771","6501900","石碇區"
"223005","677-TV","2018/01/25 07:29:19","新北市石碇區新興坑30號","121.648003333333","25.0172633333333","6501900","石碇區"
"227007","282-VK","2018/01/25 07:29:12","新北市雙溪區新基里自強路5號","121.86631","25.03904","6502500","雙溪區"
"252004","249-BX","2018/01/25 07:29:22","新北市三芝區興華里楓子林53-6號","121.501423333333","25.2130116666667","6502100","三芝區"
"252007","AAC-283","2018/01/25 07:29:32","新北市三芝區古庄里茂興店73-1號","121.493378333333","25.2636833333333","6502100","三芝區"
"237001","159-UY","2018/01/25 07:29:32","新北市三峽區隆恩街245號","121.357741666667","24.9409166666667","6500900","三峽區"
"236009","165-UM","2018/01/25 07:29:13","新北市板橋區五權街34-1號","121.46428","24.99224","6501300","土城區"
"236003","339-SR","2018/01/25 07:29:20","新北市土城區忠義路90-3號","121.443555","24.9601433333333","6501300","土城區"
"242028","986-R7","2018/01/25 07:29:13","新北市新莊區新泰路255巷83號","121.442268333333","25.0392083333333","6500500","新莊區"
"242024","615-BX","2018/01/25 07:29:22","新北市新莊區新泰路255巷83號","121.44218","25.0387533333333","6500500","新莊區"
"242026","612-BX","2018/01/25 07:29:13","新北市新莊區新泰路357巷3弄57號","121.442215","25.0393933333333","6500500","新莊區"
"242038","566-BX","2018/01/25 07:29:14","新北市新莊區新泰路255巷83號","121.442081666667","25.0389566666667","6500500","新莊區"
"242047","441-UM","2018/01/25 07:29:13","新北市新莊區三和路12-21號","121.441958333333","25.0383","6500500","新莊區"
"242033","415-TV","2018/01/25 07:29:27","新北市新莊區新泰路357巷3弄57號","121.442081666667","25.0393216666667","6500500","新莊區"
"242003","413-TV","2018/01/25 07:29:28","新北市新莊區新泰路357巷3弄57號","121.441985","25.0393433333333","6500500","新莊區"
"242040","400-BY","2018/01/25 07:29:27","新北市新莊區新泰路357巷3弄57號","121.442195","25.0395916666667","6500500","新莊區"
"242059","362-BY","2018/01/25 07:29:29","新北市新莊區新泰路255巷83號","121.442335","25.03861","6500500","新莊區"
"242035","133-UY","2018/01/25 07:29:13","新北市新莊區三和路12-21號","121.441886666667","25.0388366666667","6500500","新莊區"
"242014","175-VK","2018/01/25 07:29:20","新北市新莊區三和路12-21號","121.442015","25.0386716666667","6500500","新莊區"
"242001","233-RS","2018/01/25 07:29:17","新北市新莊區中港路290號","121.452945","25.0445816666667","6500500","新莊區"
"242018","348-TH","2018/01/25 07:29:15","新北市新莊區新泰路277巷57弄15號","121.443048333333","25.0396266666667","6500500","新莊區"
"242010","351-TH","2018/01/25 07:29:18","新北市新莊區新泰路357巷3弄57號","121.441931666667","25.0394766666667","6500500","新莊區"
"220064","282-UM","2018/01/25 07:20:57","新北市板橋區國光路31巷16號","121.457975","25.0180916666667","6500100","板橋區"
