"lineid","car","time","location","longitude","latitude","cityid","cityname"
"248005","653-BX","2018/10/09 08:09:06","新北市五股區明德路12巷16號","121.43329","25.071865","6501500","五股區"
"244002","248-BX","2018/10/09 08:09:00","新北市林口區下福里46-1號","121.310836666667","25.1133066666667","6501700","林口區"
"222004","289-BY","2018/10/09 08:09:04","新北市深坑區文山路一段62巷15號","121.622346666667","25.0009366666667","6501800","深坑區"
"231007","189-VK","2018/10/09 08:08:58","新北市新店區華潭街26巷1弄1號","121.529421666667","24.9535866666667","6500600","新店區"
"231009","192-VK","2018/10/09 08:08:59","新北市新店區行政街14巷1號","121.543105","24.9661966666667","6500600","新店區"
"235001","611-BX","2018/10/09 08:08:53","新北市中和區圓通路367巷33弄93號","121.495925","24.9845233333333","6500300","中和區"
"226005","5620-A6","2018/10/09 08:08:58","新北市平溪區望古里灰3-1號","121.75511","25.0289683333333","6502400","平溪區"
"226002","7418-A5","2018/10/09 08:09:06","新北市平溪區十分里姜仔坑2號","121.766646666667","25.035325","6502400","平溪區"
"226006","AGD-0702","2018/10/09 08:08:58","新北市平溪區新寮里新寮路1-1號","121.790951666667","25.0586383333333","6502400","平溪區"
"223006","022-BY","2018/10/09 08:09:09","新北市坪林區北宜路八段453號","121.706293333333","24.9237216666667","6501900","石碇區"
"223002","KEA-2673","2018/10/09 08:08:49","新北市石碇區崩山33-2號","121.677503333333","24.96435","6501900","石碇區"
"223004","437-BY","2018/10/09 08:09:07","新北市石碇區外按11-5號","121.651665","24.99906","6501900","石碇區"
"223001","592-UM","2018/10/09 08:08:56","新北市石碇區北宜路五段崙尾寮巷2-1號","121.647733333333","24.952365","6501900","石碇區"
"223005","677-TV","2018/10/09 08:09:02","新北市石碇區外按11-5號","121.65167","24.9992233333333","6501900","石碇區"
"227006","282-VK","2018/10/09 08:09:10","新北市雙溪區牡丹里中正路68號","121.863968333333","25.0437933333333","6502500","雙溪區"
"227012","030-BX","2018/10/09 08:09:12","新北市雙溪區牡丹里聖南14號","121.858673333333","25.0527616666667","6502500","雙溪區"
"252004","249-BX","2018/10/09 08:08:59","新北市三芝區興華里車埕31-3號","121.503676666667","25.1944616666667","6502100","三芝區"
"252007","AAC-283","2018/10/09 08:09:06","新北市三芝區後厝里大片頭74-6號","121.459186666667","25.24507","6502100","三芝區"
"237001","361-BY","2018/10/09 08:08:53","新北市三峽區大學路86號","121.375866666667","24.9421583333333","6500900","三峽區"
