"lineid","car","time","location","longitude","latitude","cityid","cityname"
"248005","653-BX","2018/10/09 08:49:05","新北市五股區明德路12巷1號","121.433293333333","25.0717433333333","6501500","五股區"
"244002","248-BX","2018/10/09 08:49:00","新北市林口區嘉寶里6鄰47號","121.31483","25.12138","6501700","林口區"
"222004","289-BY","2018/10/09 08:49:04","新北市深坑區王軍寮1-3號","121.620783333333","24.9857716666667","6501800","深坑區"
"231007","189-VK","2018/10/09 08:48:58","新北市新店區小坑二路102號","121.51865","24.91236","6500600","新店區"
"231009","192-VK","2018/10/09 08:48:59","新北市新店區廣興路2-1號","121.54627","24.911935","6500600","新店區"
"235001","611-BX","2018/10/09 08:48:53","新北市中和區民德路81號","121.469018333333","25.0011266666667","6500300","中和區"
"226005","5620-A6","2018/10/09 08:49:01","新北市平溪區十分里十分街76號","121.776426666667","25.0418416666667","6502400","平溪區"
"226002","7418-A5","2018/10/09 08:41:25","新北市平溪區東勢里東勢格17號","121.733615","25.0020233333333","6502400","平溪區"
"226006","AGD-0702","2018/10/09 08:48:58","新北市平溪區靜安路三段196號","121.775508333333","25.0393316666667","6502400","平溪區"
"223006","022-BY","2018/10/09 08:49:01","新北市石碇區碇坪路一段49號","121.659158333333","24.9914266666667","6501900","石碇區"
"223004","437-BY","2018/10/09 08:49:07","新北市石碇區碇坪路二段71號","121.685455","24.96538","6501900","石碇區"
"223001","592-UM","2018/10/09 08:48:56","新北市石碇區北宜路五段53號","121.63227","24.952045","6501900","石碇區"
"223005","677-TV","2018/10/09 08:49:02","新北市石碇區磨石坑38號","121.689936666667","24.9650716666667","6501900","石碇區"
"227006","282-VK","2018/10/09 08:49:10","新北市雙溪區上林里大瀨1號","121.829816666667","25.025225","6502500","雙溪區"
"227012","030-BX","2018/10/09 08:44:32","新北市雙溪區泰平里料角坑32號","121.795191666667","24.97503","6502500","雙溪區"
"252004","249-BX","2018/10/09 08:48:59","新北市三芝區興華里田心子16號","121.493375","25.204295","6502100","三芝區"
"252007","AAC-283","2018/10/09 08:49:06","新北市三芝區錫板里番婆林44號","121.493533333333","25.237145","6502100","三芝區"
"237001","361-BY","2018/10/09 08:19:33","新北市三峽區學成路260號","121.37586","24.94282","6500900","三峽區"
