"lineid","car","time","location","longitude","latitude","cityid","cityname"
"248005","653-BX","2018/10/09 09:19:06","新北市五股區自強路78號","121.432766666667","25.072985","6501500","五股區"
"244002","248-BX","2018/10/09 09:19:00","新北市八里區下罟子15-9號","121.380216666667","25.1394483333333","6501700","林口區"
"222004","289-BY","2018/10/09 09:19:04","新北市深坑區王軍寮11-1號","121.620796666667","24.9840733333333","6501800","深坑區"
"231007","189-VK","2018/10/09 09:18:58","新北市新店區新潭路三段76號","121.506053333333","24.9118783333333","6500600","新店區"
"231009","192-VK","2018/10/09 09:18:59","新北市新店區平廣路一段210號","121.513066666667","24.8888066666667","6500600","新店區"
"235001","611-BX","2018/10/09 09:18:53","新北市中和區中山路三段63巷9號","121.477018333333","25.0045833333333","6500300","中和區"
"227006","282-VK","2018/10/09 09:19:10","新北市雙溪區長源里赤皮崙5-2號","121.794295","25.015705","6502500","雙溪區"
"227012","030-BX","2018/10/09 09:18:52","新北市坪林區坪雙路三段5號","121.76963","24.9651233333333","6502500","雙溪區"
"252004","249-BX","2018/10/09 09:19:09","新北市三芝區店子里店子51號","121.502938333333","25.2061883333333","6502100","三芝區"
"252007","AAC-283","2018/10/09 09:19:06","新北市三芝區古庄里四棧橋27-1號","121.48475","25.2625216666667","6502100","三芝區"
"237001","361-BY","2018/10/09 09:18:53","新北市三峽區大義路398號","121.376138333333","24.9494883333333","6500900","三峽區"
