"lineid","car","time","location","longitude","latitude","cityid","cityname"
"248005","653-BX","2018/10/09 09:49:06","新北市五股區成泰路一段82號","121.435665","25.07055","6501500","五股區"
"231007","189-VK","2018/10/09 09:48:58","新北市新店區新潭路三段215巷25號","121.508188333333","24.9041583333333","6500600","新店區"
"231009","192-VK","2018/10/09 09:48:59","新北市新店區小坑一路73巷51號","121.530101666667","24.90678","6500600","新店區"
"235029","098-UM","2018/10/09 09:48:00","新北市中和區員山路36巷16-3號","121.485065","24.9913033333333","6500300","中和區"
"227006","282-VK","2018/10/09 09:39:10","新北市雙溪區長源里盤山坑1-1號","121.792718333333","25.002685","6502500","雙溪區"
"227012","030-BX","2018/10/09 09:49:12","新北市雙溪區泰平里烏山路13-1號","121.794458333333","24.9501133333333","6502500","雙溪區"
"252004","249-BX","2018/10/09 09:48:39","新北市三芝區圓山里石曹子坑64號","121.524065","25.2127033333333","6502100","三芝區"
"252007","AAC-283","2018/10/09 09:49:06","新北市三芝區新庄里新庄子103號","121.516123333333","25.26905","6502100","三芝區"
"237001","361-BY","2018/10/09 09:49:13","新北市樹林區大義路198號","121.378101666667","24.9460733333333","6500900","三峽區"
