"lineid","car","time","location","longitude","latitude","cityid","cityname"
"248005","653-BX","2018/10/09 10:09:05","新北市五股區明德路8號","121.433318333333","25.0716333333333","6501500","五股區"
"231007","189-VK","2018/10/09 10:08:58","新北市新店區新潭路三段215巷25號","121.508155","24.904085","6500600","新店區"
"231009","192-VK","2018/10/09 10:08:59","新北市新店區松林路16巷41號","121.54607","24.9073683333333","6500600","新店區"
"235029","098-UM","2018/10/09 09:48:00","新北市中和區員山路36巷16-3號","121.485065","24.9913033333333","6500300","中和區"
"227006","282-VK","2018/10/09 10:09:10","新北市雙溪區長源里柑腳18號","121.804711666667","25.0141566666667","6502500","雙溪區"
"227012","030-BX","2018/10/09 10:08:52","新北市雙溪區泰平里料角坑43-1號","121.791696666667","24.95455","6502500","雙溪區"
"252004","249-BX","2018/10/09 10:08:59","新北市三芝區福德里埔尾10-1號","121.504228333333","25.24475","6502100","三芝區"
"252007","AAC-283","2018/10/09 10:09:06","新北市三芝區古庄里茂興店77號","121.493008333333","25.2669533333333","6502100","三芝區"
"237001","361-BY","2018/10/09 10:08:53","新北市鶯歌區中正一路497號","121.375708333333","24.9614716666667","6500900","三峽區"
