"lineid","car","time","location","longitude","latitude","cityid","cityname"
"231007","189-VK","2018/10/09 11:08:58","新北市新店區新潭路一段213號","121.529106666667","24.9291666666667","6500600","新店區"
"231009","192-VK","2018/10/09 11:08:59","新北市新店區頂石厝路72號","121.535336666667","24.9185016666667","6500600","新店區"
"235029","098-UM","2018/10/09 11:08:47","新北市中和區員山路36巷16-3號","121.485015","24.991225","6500300","中和區"
"227006","282-VK","2018/10/09 11:09:10","新北市雙溪區魚行里坤溪8號","121.866356666667","25.0212366666667","6502500","雙溪區"
"237001","361-BY","2018/10/09 11:08:52","新北市三峽區中山路459巷163-1號","121.34932","24.93336","6500900","三峽區"
