"lineid","car","time","location","longitude","latitude","cityid","cityname"
"231007","189-VK","2018/10/09 11:18:58","新北市新店區新潭路一段100-2號","121.526993333333","24.938075","6500600","新店區"
"231009","192-VK","2018/10/09 11:18:59","新北市新店區頂石厝路36號","121.53705","24.91718","6500600","新店區"
"235029","098-UM","2018/10/09 11:19:07","新北市中和區員山路36巷16-3號","121.485063333333","24.9912266666667","6500300","中和區"
"227006","282-VK","2018/10/09 11:18:50","新北市雙溪區魚行里坤溪11-6號","121.869058333333","25.0223266666667","6502500","雙溪區"
"237001","361-BY","2018/10/09 11:18:52","新北市三峽區中山路459巷163-1號","121.349296666667","24.93344","6500900","三峽區"
