"lineid","car","time","location","longitude","latitude","cityid","cityname"
"235029","098-UM","2018/10/09 12:08:58","新北市中和區員山路36巷16-3號","121.484998333333","24.9912283333333","6500300","中和區"
"235031","255-BX","2018/10/09 11:48:34","新北市中和區和城路一段271巷1號","121.485505","24.9918433333333","6500300","中和區"
"228004","212-TW","2018/10/09 12:08:52","新北市貢寮區貢寮里貢寮街6號","121.907926666667","25.0189916666667","6502600","貢寮區"
"228005","828-UM","2018/10/09 12:08:56","新北市貢寮區雙玉里田寮洋街25-4號","121.931056666667","25.0201866666667","6502600","貢寮區"
"227006","282-VK","2018/10/09 12:07:09","","121.850703333333","25.0607716666667","6502500","雙溪區"
"237001","361-BY","2018/10/09 12:08:52","新北市三峽區中山路459巷163-1號","121.349325","24.9335283333333","6500900","三峽區"
