"lineid","car","time","location","longitude","latitude","cityid","cityname"
"234040","862-TW","2018/10/09 15:28:58","新北市永和區成功路一段93巷23弄15號","121.528761666667","25.00368","6500400","永和區"
"234072","AAC-211","2018/10/09 15:28:59","新北市新店區薏仁坑路6-1號","121.499763333333","24.9585316666667","6500400","永和區"
"244002","248-BX","2018/10/09 15:29:02","新北市林口區粉寮路二段160巷28號","121.405378333333","25.0908883333333","6501700","林口區"
"231028","001-UM","2018/10/09 15:28:59","新北市新店區僑信路92號","121.499836666667","24.9479283333333","6500600","新店區"
"231002","002-UM","2018/10/09 15:29:01","新北市新店區環河路150-8號","121.534421666667","24.9679116666667","6500600","新店區"
"231005","106-UY","2018/10/09 15:29:02","新北市新店區民權路90巷36號","121.536983333333","24.9850683333333","6500600","新店區"
"231012","187-VK","2018/10/09 15:28:09","新北市新店區寶慶街5號","121.544065","24.9867016666667","6500600","新店區"
"231032","188-VK","2018/10/09 15:29:00","新北市新店區裕合街79號","121.489066666667","24.9496333333333","6500600","新店區"
"231020","189-VK","2018/10/09 15:29:02","新北市新店區湖興路49號","121.562603333333","24.9335483333333","6500600","新店區"
"231023","KEA-2219","2018/10/09 15:28:50","新北市新店區北新路一段339號","121.54191","24.9687016666667","6500600","新店區"
"231026","256-BX","2018/10/09 15:28:49","新北市新店區三民路117巷5弄2號","121.534158333333","24.9711783333333","6500600","新店區"
"231003","268-BY","2018/10/09 15:28:49","新北市新店區寶高路120巷1號","121.554578333333","24.9760583333333","6500600","新店區"
"231018","278-BY","2018/10/09 15:28:56","新北市新店區民生路149巷22號","121.529328333333","24.979835","6500600","新店區"
"231015","AAD-862","2018/10/09 15:28:58","新北市新店區明山路45號","121.563833333333","24.95587","6500600","新店區"
"231038","3712-VJ","2018/10/09 15:28:54","新北市新店區安華路28-1號","121.519706666667","24.960945","6500600","新店區"
"231037","4716-K9","2018/10/09 15:28:47","新北市新店區安興路91巷9號","121.512498333333","24.9750183333333","6500600","新店區"
"231025","4715-K9","2018/10/09 15:28:45","新北市新店區安康路二段1-5號","121.517073333333","24.96393","6500600","新店區"
"231036","512-UM","2018/10/09 15:28:57","新北市新店區安祥路69巷41弄78號","121.482406666667","24.9617633333333","6500600","新店區"
"231034","616-UM","2018/10/09 15:29:00","新北市新店區玫瑰路28號","121.495256666667","24.950185","6500600","新店區"
"231030","619-UM","2018/10/09 15:28:24","新北市新店區安和路三段95號","121.5177","24.9841133333333","6500600","新店區"
"231039","718-UY","2018/10/09 15:29:03","新北市新店區寶慶街35巷1弄2號","121.54316","24.9863016666667","6500600","新店區"
"231035","719-UM","2018/10/09 15:28:52","新北市新店區安興路83號","121.515303333333","24.97541","6500600","新店區"
"231029","897-TW","2018/10/09 15:28:53","新北市新店區安康路三段517號","121.481911666667","24.9484783333333","6500600","新店區"
"231004","899-TW","2018/10/09 15:28:54","新北市新店區民族路105號","121.537993333333","24.9771916666667","6500600","新店區"
"241015","062-VK","2018/10/09 15:28:44","新北市三重區重新路四段121號","121.485073333333","25.0523616666667","6500200","三重區"
"241011","265-UM","2018/10/09 15:28:22","新北市三重區福德南路65巷2號","121.502681666667","25.06002","6500200","三重區"
"241013","270-UM","2018/10/09 15:28:49","新北市三重區重新路四段121號","121.484738333333","25.0518816666667","6500200","三重區"
"241007","398-BY","2018/10/09 15:28:23","新北市三重區重新路四段121號","121.48512","25.0524383333333","6500200","三重區"
"241020","478-VK","2018/10/09 15:28:54","新北市三重區成功路106-2號","121.487268333333","25.0516766666667","6500200","三重區"
"241029","942-UM","2018/10/09 15:29:03","新北市三重區重新路四段121號","121.484781666667","25.0522183333333","6500200","三重區"
"241033","AAC-255","2018/10/09 15:28:25","新北市三重區成功路97號","121.488068333333","25.0515566666667","6500200","三重區"
"235006","KEA-2878","2018/10/09 15:28:45","新北市中和區連勝街121巷16號","121.494996666667","24.9945083333333","6500300","中和區"
"235014","4979-A6","2018/10/09 15:29:02","新北市中和區南華路2號","121.502105","24.9954366666667","6500300","中和區"
"235033","4980-A6","2018/10/09 15:28:50","新北市中和區連城路347巷8號","121.48838","24.9952816666667","6500300","中和區"
"235046","733-UM","2018/10/09 15:25:18","新北市中和區員山路36巷13號","121.484145","24.9908633333333","6500300","中和區"
"235023","AAC-215","2018/10/09 15:28:44","新北市中和區圓通路459號","121.484198333333","24.9857383333333","6500300","中和區"
"235011","251-BX","2018/10/09 15:28:44","新北市新店區安華路16號","121.516516666667","24.9579216666667","6500300","中和區"
"236065","105-UM","2018/10/09 15:29:02","新北市土城區水源街32巷14號","121.441258333333","24.9758766666667","6501300","土城區"
"236040","107-UM","2018/10/09 15:28:42","新北市土城區學享街31號","121.4515","24.9872883333333","6501300","土城區"
"236074","166-UM","2018/10/09 15:29:05","新北市土城區中央路四段321巷32-2號","121.411798333333","24.951195","6501300","土城區"
"236029","253-BX","2018/10/09 15:28:56","新北市土城區日新街6號","121.445526666667","24.9870533333333","6501300","土城區"
"236024","269-VK","2018/10/09 15:28:43","新北市土城區中央路一段264-2號","121.443891666667","24.983585","6501300","土城區"
"236013","270-VK","2018/10/09 15:28:21","新北市土城區廣明街1號","121.455868333333","24.9918333333333","6501300","土城區"
"236032","271-VK","2018/10/09 15:29:00","新北市土城區延吉街363巷7號","121.46437","24.9834883333333","6501300","土城區"
"236017","401-BY","2018/10/09 15:29:01","新北市土城區延吉街96號","121.470528333333","24.9863316666667","6501300","土城區"
"236057","912-UM","2018/10/09 15:28:51","新北市土城區中央路一段278-1號","121.443598333333","24.98281","6501300","土城區"
"236045","913-UM","2018/10/09 15:28:14","新北市土城區金城路二段368號","121.462501666667","24.9853116666667","6501300","土城區"
"236060","915-UM","2018/10/09 15:28:57","新北市土城區立德路135巷5弄1號","121.464935","24.986975","6501300","土城區"
"236054","AAC-216","2018/10/09 15:28:51","新北市土城區金城路三段197號","121.47011","24.9892733333333","6501300","土城區"
"220050","245-BX","2018/10/09 15:28:12","新北市板橋區民生路二段121號","121.470905","25.018285","6500100","板橋區"
"220052","257-TC","2018/10/09 15:28:21","新北市板橋區漢生東路53巷28號","121.46672","25.017355","6500100","板橋區"
"220031","286-VK","2018/10/09 15:28:38","新北市板橋區僑中二街116巷18號","121.444933333333","25.0066466666667","6500100","板橋區"
"220032","296-UM","2018/10/09 15:29:04","新北市土城區城林路6巷80號","121.438153333333","24.9798083333333","6500100","板橋區"
"220038","487-VK","2018/10/09 15:28:23","新北市板橋區四維路321號","121.462846666667","25.029055","6500100","板橋區"
"220046","AAC-210","2018/10/09 15:28:53","新北市五股區五工一路103號","121.458593333333","25.0694183333333","6500100","板橋區"
