"lineid","car","time","location","longitude","latitude","cityid","cityname"
"231028","001-UM","2018/10/09 15:38:59","新北市新店區僑義路21號","121.500425","24.9509816666667","6500600","新店區"
"231005","106-UY","2018/10/09 15:39:02","新北市新店區中正路352號","121.535898333333","24.9755716666667","6500600","新店區"
"231012","187-VK","2018/10/09 15:38:50","新北市新店區寶元路一段105號","121.545626666667","24.983165","6500600","新店區"
"231032","188-VK","2018/10/09 15:39:00","新北市新店區裕合街104號","121.490343333333","24.9489683333333","6500600","新店區"
"231020","189-VK","2018/10/09 15:38:43","新北市新店區金興路20號","121.550673333333","24.92992","6500600","新店區"
"231023","KEA-2219","2018/10/09 15:38:50","新北市新店區中興路一段285號","121.545238333333","24.9685866666667","6500600","新店區"
"231026","256-BX","2018/10/09 15:38:49","新北市新店區三民路75巷3弄1號","121.535803333333","24.971025","6500600","新店區"
"231003","268-BY","2018/10/09 15:38:49","新北市新店區寶高路102巷20號","121.552555","24.974","6500600","新店區"
"231018","278-BY","2018/10/09 15:38:56","新北市新店區中正路663巷7弄15-5號","121.533108333333","24.9903016666667","6500600","新店區"
"231015","AAD-862","2018/10/09 15:38:58","新北市新店區北宜路二段31號","121.548483333333","24.9514283333333","6500600","新店區"
"231038","3712-VJ","2018/10/09 15:38:54","新北市新店區安和路一段16號","121.517226666667","24.9651916666667","6500600","新店區"
"231037","4716-K9","2018/10/09 15:38:47","新北市新店區安民街365巷1弄10號","121.516526666667","24.9753333333333","6500600","新店區"
"231013","513-UM","2018/10/09 15:39:05","新北市新店區永業路81巷1弄6號","121.529956666667","24.9497266666667","6500600","新店區"
"231034","616-UM","2018/10/09 15:39:00","新北市新店區玫瑰路61巷2號","121.495966666667","24.9452133333333","6500600","新店區"
"231030","619-UM","2018/10/09 15:39:04","新北市新店區新和街93巷12號","121.520738333333","24.9867333333333","6500600","新店區"
"231039","718-UY","2018/10/09 15:39:03","新北市新店區寶元路二段17號","121.54625","24.9821366666667","6500600","新店區"
"231035","719-UM","2018/10/09 15:38:52","新北市新店區安興路83-3號","121.5153","24.9754683333333","6500600","新店區"
"231029","897-TW","2018/10/09 15:38:53","新北市新店區安康路二段391號","121.49451","24.95416","6500600","新店區"
"231004","899-TW","2018/10/09 15:38:54","新北市新店區民族路105號","121.53801","24.9771833333333","6500600","新店區"
"241028","022-UY","2018/10/09 15:38:56","新北市三重區成功路112-3號","121.48642","25.0519766666667","6500200","三重區"
"241015","062-VK","2018/10/09 15:39:04","新北市三重區重新路四段121號","121.484998333333","25.0523116666667","6500200","三重區"
"241024","065-VK","2018/10/09 15:38:50","新北市三重區成功路108巷8號","121.485493333333","25.0504066666667","6500200","三重區"
"241003","091-VK","2018/10/09 15:39:07","新北市三重區泉州街84巷18號","121.495855","25.0542916666667","6500200","三重區"
"241005","262-UM","2018/10/09 15:38:51","新北市三重區重新路四段121號","121.484811666667","25.0523033333333","6500200","三重區"
"241011","265-UM","2018/10/09 15:39:02","新北市三重區文化北路248號","121.497311666667","25.0699316666667","6500200","三重區"
"241016","266-UM","2018/10/09 15:38:53","新北市三重區重新路四段121號","121.484891666667","25.0526333333333","6500200","三重區"
"241018","268-UM","2018/10/09 15:38:55","新北市三重區重新路四段121號","121.484838333333","25.0526416666667","6500200","三重區"
"241013","270-UM","2018/10/09 15:38:49","新北市三重區正義北路291號","121.494871666667","25.070585","6500200","三重區"
"241007","398-BY","2018/10/09 15:39:03","新北市三重區重新路四段121號","121.485141666667","25.0524883333333","6500200","三重區"
"241004","475-VK","2018/10/09 15:39:03","新北市三重區重新路四段121號","121.485046666667","25.05247","6500200","三重區"
"241020","478-VK","2018/10/09 15:38:54","新北市三重區忠孝路二段61號","121.485081666667","25.07053","6500200","三重區"
"241030","480-VK","2018/10/09 15:39:08","新北市三重區重新路四段121號","121.485196666667","25.05237","6500200","三重區"
"241014","543-UM","2018/10/09 15:38:51","新北市三重區重新路四段121號","121.484828333333","25.0526166666667","6500200","三重區"
"241019","KEA-2593","2018/10/09 15:39:04","新北市三重區重新路四段121號","121.484673333333","25.0522433333333","6500200","三重區"
"241006","AAD-863","2018/10/09 15:39:03","新北市三重區重新路四段121號","121.4847","25.0522916666667","6500200","三重區"
"241031","743-BX","2018/10/09 15:38:48","新北市三重區重新路四段121號","121.48466","25.0520583333333","6500200","三重區"
"241012","941-UM","2018/10/09 15:39:01","新北市三重區正義南路75號","121.49841","25.0599733333333","6500200","三重區"
"241029","942-UM","2018/10/09 15:39:03","新北市三重區環河南路220-8號","121.493378333333","25.0527033333333","6500200","三重區"
"241033","AAC-255","2018/10/09 15:38:45","新北市三重區重新路五段406-1號","121.476273333333","25.0478533333333","6500200","三重區"
"235033","4980-A6","2018/10/09 15:39:00","新北市中和區員山路327巷7號","121.480666666667","25.0013633333333","6500300","中和區"
"235046","733-UM","2018/10/09 15:25:18","新北市中和區員山路36巷13號","121.484145","24.9908633333333","6500300","中和區"
"235023","AAC-215","2018/10/09 15:39:04","新北市中和區員山路28-29號","121.480906666667","24.9868483333333","6500300","中和區"
"227003","642-TC","2018/10/09 15:38:49","新北市雙溪區牡丹里中正路73號","121.863818333333","25.04482","6502500","雙溪區"
"236065","105-UM","2018/10/09 15:39:02","新北市土城區中央路三段38號","121.438403333333","24.9687766666667","6501300","土城區"
"236074","166-UM","2018/10/09 15:39:06","新北市土城區中山路6號","121.412491666667","24.9604283333333","6501300","土城區"
"236029","253-BX","2018/10/09 15:38:51","新北市土城區中央路一段45巷13號","121.449128333333","24.98999","6501300","土城區"
"236024","269-VK","2018/10/09 15:39:03","新北市土城區裕生路102巷16號","121.446451666667","24.9847533333333","6501300","土城區"
"236013","270-VK","2018/10/09 15:39:01","新北市土城區廣明街90巷26號","121.455713333333","24.9946383333333","6501300","土城區"
"236017","401-BY","2018/10/09 15:39:03","新北市土城區延吉街29號","121.472353333333","24.98821","6501300","土城區"
"236057","912-UM","2018/10/09 15:38:51","新北市土城區中央路一段269-5號","121.444853333333","24.985015","6501300","土城區"
"236045","913-UM","2018/10/09 15:38:54","新北市土城區金城路三段215號","121.470686666667","24.9894133333333","6501300","土城區"
"236054","AAC-216","2018/10/09 15:38:51","新北市土城區學成路96號","121.450203333333","24.9888716666667","6501300","土城區"
"220046","AAC-210","2018/10/09 15:38:53","新北市八里區商港路120號","121.392878333333","25.1500116666667","6500100","板橋區"
