"lineid","car","time","location","longitude","latitude","cityid","cityname"
"231046","107-UY","2018/10/09 15:49:09","新北市新店區安一路一段1-1號","121.519843333333","24.961205","6500600","新店區"
"231012","187-VK","2018/10/09 15:49:09","新北市新店區中興路三段160號","121.544455","24.9807183333333","6500600","新店區"
"231032","188-VK","2018/10/09 15:49:00","新北市新店區雙城路133號","121.497915","24.9388083333333","6500600","新店區"
"231020","189-VK","2018/10/09 15:49:02","新北市新店區新烏路一段85巷2號","121.548265","24.9420383333333","6500600","新店區"
"231023","KEA-2219","2018/10/09 15:49:11","新北市新店區檳榔路10號","121.541086666667","24.96469","6500600","新店區"
"231026","256-BX","2018/10/09 15:49:09","新北市新店區中正路548號","121.533536666667","24.98656","6500600","新店區"
"231003","268-BY","2018/10/09 15:49:09","新北市新店區寶興路60巷4號","121.549825","24.971855","6500600","新店區"
"231018","278-BY","2018/10/09 15:48:56","新北市新店區中正路663巷7弄15號","121.532938333333","24.9900566666667","6500600","新店區"
"231015","AAD-862","2018/10/09 15:48:58","新北市新店區中華路83巷2弄20號","121.53847","24.9691383333333","6500600","新店區"
"231038","3712-VJ","2018/10/09 15:48:54","新北市新店區安德街164號","121.50847","24.95912","6500600","新店區"
"231037","4716-K9","2018/10/09 15:49:07","新北市新店區安民街365巷1弄11號","121.5167","24.9753716666667","6500600","新店區"
"231013","513-UM","2018/10/09 15:49:05","新北市新店區華潭街1巷92號","121.529568333333","24.9507116666667","6500600","新店區"
"231034","616-UM","2018/10/09 15:49:00","新北市新店區吉祥街9巷1號","121.497496666667","24.9469866666667","6500600","新店區"
"231030","619-UM","2018/10/09 15:49:03","新北市新店區永安街32號","121.517788333333","24.9865916666667","6500600","新店區"
"231035","719-UM","2018/10/09 15:48:52","新北市新店區安興路83-3號","121.515256666667","24.97546","6500600","新店區"
"231029","897-TW","2018/10/09 15:49:13","新北市新店區安華路16號","121.517198333333","24.9581233333333","6500600","新店區"
"241028","022-UY","2018/10/09 15:48:56","新北市三重區重新路三段90號","121.493063333333","25.0607233333333","6500200","三重區"
"241015","062-VK","2018/10/09 15:49:04","新北市三重區重新路四段121號","121.484996666667","25.0523083333333","6500200","三重區"
"241017","063-VK","2018/10/09 15:49:06","新北市三重區大仁街1號","121.491588333333","25.0636566666667","6500200","三重區"
"241024","065-VK","2018/10/09 15:49:10","新北市三重區忠孝路三段84巷5號","121.480203333333","25.0643733333333","6500200","三重區"
"241026","066-VK","2018/10/09 15:48:55","新北市三重區重新路四段121號","121.484966666667","25.051795","6500200","三重區"
"241003","091-VK","2018/10/09 15:49:07","新北市三重區自強路五段102號","121.496708333333","25.0835616666667","6500200","三重區"
"241005","262-UM","2018/10/09 15:48:11","新北市三重區長元街105號","121.504568333333","25.0671333333333","6500200","三重區"
"241011","265-UM","2018/10/09 15:49:02","新北市三重區文化北路248號","121.497413333333","25.07003","6500200","三重區"
"241016","266-UM","2018/10/09 15:48:53","新北市三重區重新路四段121號","121.48488","25.052625","6500200","三重區"
"241018","268-UM","2018/10/09 15:48:55","新北市三重區重新路四段121號","121.484846666667","25.0526866666667","6500200","三重區"
"241013","270-UM","2018/10/09 15:49:09","新北市三重區六張街21號","121.495285","25.0706083333333","6500200","三重區"
"241025","271-UM","2018/10/09 15:48:55","新北市三重區重新路四段121號","121.48488","25.0527233333333","6500200","三重區"
"241007","398-BY","2018/10/09 15:49:03","新北市三重區三陽路170-1號","121.481723333333","25.05739","6500200","三重區"
"241004","475-VK","2018/10/09 15:49:03","新北市三重區成功路6號","121.49027","25.0500216666667","6500200","三重區"
"241020","478-VK","2018/10/09 15:49:14","新北市三重區忠孝路二段52號","121.485085","25.070445","6500200","三重區"
"241030","480-VK","2018/10/09 15:49:08","新北市三重區重新路四段121號","121.48522","25.0524083333333","6500200","三重區"
"241014","543-UM","2018/10/09 15:49:11","新北市三重區重新路四段121號","121.484926666667","25.0526983333333","6500200","三重區"
"241023","545-UM","2018/10/09 15:48:58","新北市三重區忠孝路三段84巷18號","121.480801666667","25.06467","6500200","三重區"
"241019","KEA-2593","2018/10/09 15:49:04","新北市三重區新北大道一段36號","121.488223333333","25.0613633333333","6500200","三重區"
"241006","AAD-863","2018/10/09 15:49:03","新北市三重區捷運路36號","121.482866666667","25.055205","6500200","三重區"
"241031","743-BX","2018/10/09 15:49:08","新北市三重區重新路四段121號","121.48463","25.0520416666667","6500200","三重區"
"241012","941-UM","2018/10/09 15:49:01","新北市三重區文化北路83巷2號","121.49834","25.0670933333333","6500200","三重區"
"241029","942-UM","2018/10/09 15:49:03","新北市三重區大同南路159號","121.496916666667","25.055765","6500200","三重區"
"241033","AAC-255","2018/10/09 15:49:05","新北市三重區興德路82號","121.474116666667","25.0535166666667","6500200","三重區"
"235033","4980-A6","2018/10/09 15:49:00","新北市中和區連城路469巷44弄30號","121.482721666667","24.9945583333333","6500300","中和區"
"235046","733-UM","2018/10/09 15:25:18","新北市中和區員山路36巷13號","121.484145","24.9908633333333","6500300","中和區"
"235023","AAC-215","2018/10/09 15:49:04","新北市中和區員山路49-7號","121.480645","24.9914483333333","6500300","中和區"
"235011","251-BX","2018/10/09 15:42:25","新北市中和區員山路36巷13號","121.484178333333","24.99086","6500300","中和區"
"227003","642-TC","2018/10/09 15:49:08","新北市雙溪區平林里外平林44號","121.852953333333","25.0363133333333","6502500","雙溪區"
"227009","400-TW","2018/10/09 15:49:03","新北市雙溪區牡丹里自強路16號","121.865368333333","25.039305","6502500","雙溪區"
"236065","105-UM","2018/10/09 15:49:02","新北市土城區中山路53號","121.422546666667","24.9632416666667","6501300","土城區"
"236074","166-UM","2018/10/09 15:49:06","新北市土城區中山路47號","121.420633333333","24.9630433333333","6501300","土城區"
"236024","269-VK","2018/10/09 15:49:03","新北市土城區裕生路84巷2號","121.447348333333","24.98548","6501300","土城區"
"236017","401-BY","2018/10/09 15:49:01","新北市土城區金城路三段206巷3號","121.471728333333","24.98955","6501300","土城區"
"236057","912-UM","2018/10/09 15:49:12","新北市土城區光明街1號","121.442048333333","24.9750283333333","6501300","土城區"
"236054","AAC-216","2018/10/09 15:49:11","新北市土城區中華路二段62號","121.438901666667","24.9765733333333","6501300","土城區"
