"lineid","car","time","location","longitude","latitude","cityid","cityname"
"231046","107-UY","2018/10/09 16:09:09","新北市新店區灣潭路2-27號","121.536511666667","24.9494983333333","6500600","新店區"
"231012","187-VK","2018/10/09 16:09:09","新北市新店區安興路39-1號","121.516516666667","24.97127","6500600","新店區"
"231018","278-BY","2018/10/09 16:08:56","新北市新店區中正路694巷15號","121.535395","24.9908866666667","6500600","新店區"
"231035","719-UM","2018/10/09 16:08:52","新北市新店區薏仁坑路自強巷1號","121.496978333333","24.95812","6500600","新店區"
"241028","022-UY","2018/10/09 16:08:56","新北市三重區正義南路111號","121.498256666667","25.0585966666667","6500200","三重區"
"241008","059-VK","2018/10/09 16:09:14","新北市三重區忠孝路二段98號","121.483515","25.0693233333333","6500200","三重區"
"241022","060-VK","2018/10/09 16:09:13","新北市三重區市前街14號","121.489125","25.0623133333333","6500200","三重區"
"241015","062-VK","2018/10/09 16:09:04","新北市三重區環河南路121-6號","121.49747","25.05494","6500200","三重區"
"241017","063-VK","2018/10/09 16:09:06","新北市三重區大同北路148巷53號","121.490741666667","25.0647333333333","6500200","三重區"
"241024","065-VK","2018/10/09 16:09:10","新北市三重區中正北路145巷9弄9號","121.485293333333","25.0677766666667","6500200","三重區"
"241026","066-VK","2018/10/09 16:09:00","新北市三重區正義南路32號","121.498178333333","25.06117","6500200","三重區"
"241002","090-VK","2018/10/09 16:08:59","新北市三重區仁義街101巷40號","121.499466666667","25.0799116666667","6500200","三重區"
"241003","091-VK","2018/10/09 16:09:07","新北市三重區仁義街220巷14號","121.494891666667","25.0838333333333","6500200","三重區"
"241005","262-UM","2018/10/09 16:09:11","新北市三重區溪尾街300-2號","121.487296666667","25.0836616666667","6500200","三重區"
"241011","265-UM","2018/10/09 16:09:02","新北市三重區正義北路366-4號","121.493616666667","25.0714033333333","6500200","三重區"
"241016","266-UM","2018/10/09 16:08:53","新北市三重區大仁街52號","121.491998333333","25.064715","6500200","三重區"
"241018","268-UM","2018/10/09 16:08:55","新北市三重區明志街50號","121.490985","25.0637583333333","6500200","三重區"
"241032","269-UM","2018/10/09 16:09:08","新北市三重區三陽路100巷3弄13號","121.483025","25.0581416666667","6500200","三重區"
"241013","270-UM","2018/10/09 16:09:09","新北市三重區三和路三段8號","121.497228333333","25.0702366666667","6500200","三重區"
"241025","271-UM","2018/10/09 16:09:15","新北市三重區中正北路178號","121.483325","25.0668933333333","6500200","三重區"
"241007","398-BY","2018/10/09 16:09:03","新北市三重區慈愛街1號","121.48476","25.07838","6500200","三重區"
"241004","475-VK","2018/10/09 16:09:03","新北市三重區仁愛街377巷132號","121.49357","25.0818566666667","6500200","三重區"
"241020","478-VK","2018/10/09 16:08:54","新北市三重區車路頭街5號","121.483981666667","25.0701816666667","6500200","三重區"
"241030","480-VK","2018/10/09 16:09:08","新北市三重區重新路四段121號","121.485218333333","25.052375","6500200","三重區"
"241014","543-UM","2018/10/09 16:09:12","新北市三重區環河南路118號","121.498228333333","25.0555066666667","6500200","三重區"
"241023","545-UM","2018/10/09 16:09:01","新北市三重區力行路一段60號","121.48458","25.0689933333333","6500200","三重區"
"241001","547-UM","2018/10/09 16:08:57","新北市三重區忠孝路二段102號","121.483375","25.0691483333333","6500200","三重區"
"241019","KEA-2593","2018/10/09 16:09:04","新北市三重區自強路二段74巷5號","121.488273333333","25.07019","6500200","三重區"
"241006","AAD-863","2018/10/09 16:09:16","新北市三重區力行路二段90號","121.481945","25.074435","6500200","三重區"
"241031","743-BX","2018/10/09 16:09:09","新北市三重區重新路四段121號","121.484625","25.0520683333333","6500200","三重區"
"241012","941-UM","2018/10/09 16:09:01","新北市三重區文化北路132巷6號","121.49804","25.0665966666667","6500200","三重區"
"241029","942-UM","2018/10/09 16:09:03","新北市三重區同安街18號","121.496338333333","25.0567616666667","6500200","三重區"
"241033","AAC-255","2018/10/09 16:09:05","新北市三重區重新路五段326巷25-1號","121.477456666667","25.0458683333333","6500200","三重區"
"235026","800-TS","2018/10/09 16:08:57","新北市中和區環河西路三段83號","121.4929","25.0074683333333","6500300","中和區"
"235011","251-BX","2018/10/09 15:42:25","新北市中和區員山路36巷13號","121.484178333333","24.99086","6500300","中和區"
"224007","275-VK","2018/10/09 16:09:05","新北市瑞芳區粗坑口路5號","121.761728333333","25.0978433333333","6501200","瑞芳區"
"227003","642-TC","2018/10/09 16:09:08","新北市雙溪區上林里內平林30號","121.83407","25.03123","6502500","雙溪區"
"227009","400-TW","2018/10/09 16:09:03","新北市雙溪區三港里雙澳路71號","121.88085","25.0535583333333","6502500","雙溪區"
"251008","181-VK","2018/10/09 16:08:57","新北市淡水區中正路二段12號","121.420373333333","25.1806783333333","6501000","淡水區"
