"lineid","car","time","location","longitude","latitude","cityid","cityname"
"249003","593-UM","2018/10/09 16:39:01","新北市八里區博物館路137號","121.407788333333","25.1584333333333","6502300","八里區"
"231046","107-UY","2018/10/09 16:39:09","新北市新店區灣潭路23-1號","121.538548333333","24.9411383333333","6500600","新店區"
"241028","022-UY","2018/10/09 16:39:16","新北市三重區重新路三段86號","121.493196666667","25.06061","6500200","三重區"
"241008","059-VK","2018/10/09 16:39:14","新北市三重區永安北路一段27巷27號","121.477348333333","25.0754866666667","6500200","三重區"
"241022","060-VK","2018/10/09 16:39:18","新北市三重區新北大道一段86巷9號","121.485785","25.0619133333333","6500200","三重區"
"241015","062-VK","2018/10/09 16:39:04","新北市三重區信義街1號","121.499155","25.0647783333333","6500200","三重區"
"241017","063-VK","2018/10/09 16:39:06","新北市三重區中正北路25巷2號","121.493255","25.0626933333333","6500200","三重區"
"241024","065-VK","2018/10/09 16:39:10","新北市三重區中正北路315巷6弄58號","121.47578","25.07246","6500200","三重區"
"241026","066-VK","2018/10/09 16:39:15","新北市三重區和平街34號","121.50184","25.0626583333333","6500200","三重區"
"241002","090-VK","2018/10/09 16:38:59","新北市三重區仁義街241巷11號","121.49668","25.0828116666667","6500200","三重區"
"241003","091-VK","2018/10/09 16:39:07","新北市三重區五華街87巷19號","121.492811666667","25.0837366666667","6500200","三重區"
"251014","742-BX","2018/10/09 16:38:57","新北市淡水區新市二路四段58號","121.4415","25.1926616666667","6501000","淡水區"
"241005","262-UM","2018/10/09 16:39:11","新北市三重區仁華街146號","121.487106666667","25.083165","6500200","三重區"
"241011","265-UM","2018/10/09 16:39:01","新北市三重區仁愛街43巷11號","121.497196666667","25.0718016666667","6500200","三重區"
"241016","266-UM","2018/10/09 16:39:13","新北市三重區大智街24號","121.494721666667","25.0648383333333","6500200","三重區"
"241009","267-UM","2018/10/09 16:39:14","新北市三重區三和路四段203巷76號","121.48368","25.079935","6500200","三重區"
"241018","268-UM","2018/10/09 16:39:15","新北市三重區六張街66號","121.493466666667","25.070035","6500200","三重區"
"241032","269-UM","2018/10/09 16:39:08","新北市三重區三民街19號","121.485786666667","25.0611516666667","6500200","三重區"
"241013","270-UM","2018/10/09 16:39:09","新北市三重區三和路三段101巷116號","121.497783333333","25.0734716666667","6500200","三重區"
"241025","271-UM","2018/10/09 16:38:55","新北市三重區中正北路428巷9號","121.474551666667","25.0703033333333","6500200","三重區"
"241007","398-BY","2018/10/09 16:39:03","新北市三重區三和路四段167巷82號","121.485098333333","25.07946","6500200","三重區"
"241004","475-VK","2018/10/09 16:39:03","新北市三重區五福街18號","121.492751666667","25.0814333333333","6500200","三重區"
"241020","478-VK","2018/10/09 16:39:14","新北市三重區忠孝路二段34號","121.485815","25.071055","6500200","三重區"
"241030","480-VK","2018/10/09 16:39:08","新北市三重區環河南路288號","121.488748333333","25.0490516666667","6500200","三重區"
"241014","543-UM","2018/10/09 16:39:11","新北市三重區龍濱路34號","121.502813333333","25.0682666666667","6500200","三重區"
"241023","545-UM","2018/10/09 16:38:58","新北市三重區忠孝路三段50巷43號","121.482816666667","25.0643516666667","6500200","三重區"
"241001","547-UM","2018/10/09 16:38:58","新北市三重區仁政街95號","121.492455","25.0779183333333","6500200","三重區"
"241019","KEA-2593","2018/10/09 16:39:04","新北市三重區力行路一段85號","121.486631666667","25.0677833333333","6500200","三重區"
"241006","AAD-863","2018/10/09 16:39:15","新北市三重區車路頭街138-6號","121.483845","25.075545","6500200","三重區"
"241031","743-BX","2018/10/09 16:37:28","新北市三重區重新路四段18號","121.488233333333","25.0576183333333","6500200","三重區"
"241012","941-UM","2018/10/09 16:39:01","新北市三重區仁興街4巷35號","121.499106666667","25.0736433333333","6500200","三重區"
"241029","942-UM","2018/10/09 16:39:03","新北市三重區集美街112巷25號","121.489965","25.054385","6500200","三重區"
"241033","AAC-255","2018/10/09 16:39:05","新北市三重區光復路一段61巷24弄27號","121.473665","25.0509466666667","6500200","三重區"
"235064","005-UY","2018/10/09 16:39:09","新北市中和區員山路36巷16-3號","121.485108333333","24.9914033333333","6500300","中和區"
"247024","500-BY","2018/10/09 16:38:57","新北市五股區成泰路三段358號","121.45138","25.098295","6501400","蘆洲區"
"247008","336-TH","2018/10/09 16:38:59","新北市五股區中興路三段173號","121.444693333333","25.08093","6501400","蘆洲區"
"247010","056-VK","2018/10/09 16:38:56","新北市五股區中興路三段163號","121.449221666667","25.0804583333333","6501400","蘆洲區"
"247022","001-UY","2018/10/09 16:39:00","新北市五股區中興路三段2巷10號","121.449291666667","25.080915","6501400","蘆洲區"
"228002","663-BX","2018/10/09 16:39:17","新北市貢寮區貢寮里朝陽街2號","121.912166666667","25.021615","6502600","貢寮區"
"224007","275-VK","2018/10/09 16:39:05","新北市瑞芳區大埔路肯尼士新城10-1號","121.76029","25.105035","6501200","瑞芳區"
"224005","271-BY","2018/10/09 16:39:13","新北市瑞芳區海濱路77-10號","121.831168333333","25.1233883333333","6501200","瑞芳區"
"227003","642-TC","2018/10/09 16:39:08","新北市雙溪區外柑里土地公後2-3號","121.818325","25.0215933333333","6502500","雙溪區"
"227009","400-TW","2018/10/09 16:39:03","新北市雙溪區牡丹里中正路67號","121.864981666667","25.0438033333333","6502500","雙溪區"
"251013","KEA-2871","2018/10/09 16:39:10","新北市淡水區楓樹湖1-5號","121.494525","25.1903983333333","6501000","淡水區"
"251016","179-VK","2018/10/09 16:39:00","新北市淡水區新春街93-3號","121.439301666667","25.1826133333333","6501000","淡水區"
"251008","181-VK","2018/10/09 16:38:57","新北市淡水區樹梅坑9號","121.473016666667","25.1426066666667","6501000","淡水區"
"251012","441-VK","2018/10/09 16:39:00","新北市淡水區中正路二段31號","121.419665","25.1815283333333","6501000","淡水區"
"252002","178-VK","2018/10/09 16:39:03","新北市三芝區芝柏二街1號","121.511478333333","25.2563283333333","6502100","三芝區"
