"lineid","car","time","location","longitude","latitude","cityid","cityname"
"249005","172-UM","2018/10/09 17:19:09","新北市五股區凌雲路三段130號","121.418566666667","25.12897","6502300","八里區"
"249001","173-UM","2018/10/09 17:19:15","新北市八里區中華路二段165巷3號","121.40767","25.15084","6502300","八里區"
"249004","303-UY","2018/10/09 17:19:14","新北市八里區賢三街30號","121.41849","25.1586516666667","6502300","八里區"
"249002","305-UY","2018/10/09 17:19:02","新北市八里區龍米路二段117巷33號","121.445578333333","25.1430333333333","6502300","八里區"
"249003","593-UM","2018/10/09 17:18:41","新北市八里區中山路二段496號","121.398361666667","25.14705","6502300","八里區"
"244023","069-UM","2018/10/09 17:18:55","新北市林口區仁愛路一段641號","121.389001666667","25.0766633333333","6501700","林口區"
"244007","080-UY","2018/10/09 17:19:02","新北市林口區菁埔17鄰18號","121.378018333333","25.0963433333333","6501700","林口區"
"244019","403-UM","2018/10/09 17:19:11","新北市林口區公園路193號","121.372088333333","25.0722966666667","6501700","林口區"
"244013","KEA-2802","2018/10/09 17:19:10","新北市林口區粉寮路二段88巷100-12號","121.409598333333","25.0901283333333","6501700","林口區"
"244017","485-VK","2018/10/09 17:19:01","新北市林口區粉寮路一段149-5號","121.399511666667","25.0816266666667","6501700","林口區"
"244009","656-BX","2018/10/09 17:19:00","新北市林口區中華路123號","121.385953333333","25.0894016666667","6501700","林口區"
"244011","701-TV","2018/10/09 17:18:59","新北市林口區粉寮路一段77-2號","121.397088333333","25.0793516666667","6501700","林口區"
"244025","837-TS","2018/10/09 17:18:57","新北市林口區中山路303號","121.383866666667","25.0804","6501700","林口區"
"244021","838-TS","2018/10/09 17:19:12","新北市林口區粉寮路二段20號","121.402515","25.0860466666667","6501700","林口區"
"231046","107-UY","2018/10/09 17:19:09","新北市新店區直潭路92號","121.530906666667","24.93757","6500600","新店區"
"241028","022-UY","2018/10/09 17:19:16","新北市三重區仁化街77號","121.494131666667","25.0586966666667","6500200","三重區"
"241008","059-VK","2018/10/09 17:19:14","新北市三重區永福街72巷37-4號","121.480471666667","25.0763","6500200","三重區"
"241022","060-VK","2018/10/09 17:19:13","新北市三重區中正北路64巷9號","121.486358333333","25.0641316666667","6500200","三重區"
"241015","062-VK","2018/10/09 17:19:04","新北市三重區福德北路89號","121.501863333333","25.0662566666667","6500200","三重區"
"241017","063-VK","2018/10/09 17:19:06","新北市三重區大同北路44巷3號","121.494958333333","25.06302","6500200","三重區"
"241024","065-VK","2018/10/09 17:19:10","新北市三重區中正北路193巷11弄28號","121.47796","25.070465","6500200","三重區"
"241026","066-VK","2018/10/09 17:19:15","新北市三重區正義南路29號","121.498115","25.0610766666667","6500200","三重區"
"241002","090-VK","2018/10/09 17:18:59","新北市三重區仁義街218號","121.495765","25.0826233333333","6500200","三重區"
"241003","091-VK","2018/10/09 17:19:07","新北市三重區富福街28號","121.490591666667","25.0836716666667","6500200","三重區"
"251014","742-BX","2018/10/09 17:18:57","新北市淡水區公埔子5-2號","121.464396666667","25.226875","6501000","淡水區"
"241005","262-UM","2018/10/09 17:19:11","新北市三重區仁華街28巷1號","121.4835","25.0823683333333","6500200","三重區"
"241011","265-UM","2018/10/09 17:19:01","新北市三重區介壽路39巷168號","121.502073333333","25.0708466666667","6500200","三重區"
"241016","266-UM","2018/10/09 17:18:53","新北市三重區大同北路54巷1號","121.494218333333","25.06367","6500200","三重區"
"241009","267-UM","2018/10/09 17:19:14","新北市三重區慈愛街46號","121.485675","25.079045","6500200","三重區"
"241018","268-UM","2018/10/09 17:19:15","新北市三重區安慶街161號","121.494166666667","25.068685","6500200","三重區"
"241032","269-UM","2018/10/09 17:19:08","新北市三重區中華路2巷29號","121.482251666667","25.0605416666667","6500200","三重區"
"241013","270-UM","2018/10/09 17:19:09","新北市三重區仁愛街82巷13號","121.494711666667","25.073405","6500200","三重區"
"241025","271-UM","2018/10/09 17:19:15","新北市三重區中正北路295號","121.474431666667","25.0713033333333","6500200","三重區"
"241007","398-BY","2018/10/09 17:19:03","新北市三重區慈愛街9號","121.48511","25.078555","6500200","三重區"
"241004","475-VK","2018/10/09 17:19:03","新北市三重區五華街133號","121.491105","25.084385","6500200","三重區"
"241020","478-VK","2018/10/09 17:19:14","新北市三重區自強路三段7巷64號","121.488946666667","25.0725116666667","6500200","三重區"
"241030","480-VK","2018/10/09 17:19:18","新北市三重區成功路73巷17號","121.489603333333","25.052105","6500200","三重區"
"241014","543-UM","2018/10/09 17:19:11","新北市三重區三和路二段83號","121.500078333333","25.0684666666667","6500200","三重區"
"241023","545-UM","2018/10/09 17:19:18","新北市三重區三民街150號","121.482435","25.0654683333333","6500200","三重區"
"241001","547-UM","2018/10/09 17:18:57","新北市三重區碧華街374號","121.490881666667","25.0842366666667","6500200","三重區"
"241019","KEA-2593","2018/10/09 17:19:04","新北市三重區自強路二段50巷19-1號","121.488341666667","25.0694216666667","6500200","三重區"
"241012","941-UM","2018/10/09 17:19:01","新北市三重區仁昌街109號","121.500306666667","25.0751816666667","6500200","三重區"
"241033","AAC-255","2018/10/09 17:19:05","新北市三重區中興北街207號","121.468998333333","25.05772","6500200","三重區"
"235064","005-UY","2018/10/09 17:19:00","新北市中和區員山路36巷16-3號","121.484941666667","24.9911783333333","6500300","中和區"
"247012","KEA-2869","2018/10/09 17:18:55","新北市蘆洲區信義路319巷10弄17號","121.47749","25.086495","6501400","蘆洲區"
"247002","893-R6","2018/10/09 17:18:56","新北市蘆洲區永樂街38巷33弄7號","121.457826666667","25.0894916666667","6501400","蘆洲區"
"247016","546-UM","2018/10/09 17:19:05","新北市蘆洲區正和街96巷27號","121.46752","25.0813966666667","6501400","蘆洲區"
"247024","500-BY","2018/10/09 17:18:57","新北市蘆洲區長榮路256號","121.460471666667","25.0859166666667","6501400","蘆洲區"
"247014","339-TH","2018/10/09 17:18:56","新北市蘆洲區中正路54號","121.47081","25.082775","6501400","蘆洲區"
"247006","337-TH","2018/10/09 17:19:16","新北市蘆洲區長安街73巷28號","121.461846666667","25.0792166666667","6501400","蘆洲區"
"247008","336-TH","2018/10/09 17:18:59","新北市蘆洲區信義路34巷168號","121.476031666667","25.075815","6501400","蘆洲區"
"247020","057-VK","2018/10/09 17:19:00","新北市蘆洲區仁愛街25號","121.47229","25.0926433333333","6501400","蘆洲區"
"247010","056-VK","2018/10/09 17:18:55","新北市蘆洲區中山一路120巷7弄42-1號","121.477033333333","25.08245","6501400","蘆洲區"
"247018","007-UY","2018/10/09 17:19:13","新北市蘆洲區民權路82巷5弄9號","121.474755","25.0884","6501400","蘆洲區"
"247004","002-UY","2018/10/09 17:19:05","新北市蘆洲區永安南路二段276號","121.458195","25.0809283333333","6501400","蘆洲區"
"247022","001-UY","2018/10/09 17:19:00","新北市蘆洲區三民路128巷68號","121.47015","25.0892716666667","6501400","蘆洲區"
"228001","212-TW","2018/10/09 17:19:05","新北市貢寮區仁理村尖山腳街18-3號","121.925495","25.04829","6502600","貢寮區"
"228002","663-BX","2018/10/09 17:19:17","新北市貢寮區雙玉里下雙溪街24號","121.921343333333","25.00988","6502600","貢寮區"
"228003","828-UM","2018/10/09 17:19:00","新北市貢寮區福隆里興隆街24-1號","121.94445","25.0166","6502600","貢寮區"
"224006","676-BX","2018/10/09 17:19:06","新北市瑞芳區傑魚坑路275號","121.786961666667","25.105645","6501200","瑞芳區"
"224008","285-BY","2018/10/09 17:19:15","新北市瑞芳區柴寮路31-3號","121.824725","25.08209","6501200","瑞芳區"
"224009","273-VK","2018/10/09 17:19:07","新北市瑞芳區汽車路9-12號","121.845846666667","25.110955","6501200","瑞芳區"
"224005","271-BY","2018/10/09 17:19:10","新北市瑞芳區鼻頭路247號","121.912765","25.1238816666667","6501200","瑞芳區"
"227003","642-TC","2018/10/09 17:19:08","新北市雙溪區上林里內平林90號","121.827593333333","25.0275366666667","6502500","雙溪區"
"227009","400-TW","2018/10/09 17:19:03","新北市雙溪區三貂里政光路6-5號","121.851318333333","25.07154","6502500","雙溪區"
"251005","010-UM","2018/10/09 17:19:14","新北市淡水區鄧公路19號","121.451425","25.1700266666667","6501000","淡水區"
"251002","012-UM","2018/10/09 17:19:18","新北市淡水區中正路二段31號","121.419433333333","25.18158","6501000","淡水區"
"251013","KEA-2871","2018/10/09 17:19:10","新北市淡水區水尾子2-1號","121.464355","25.194815","6501000","淡水區"
"251016","179-VK","2018/10/09 17:19:00","新北市淡水區鄒厝崙13-1號","121.462573333333","25.1907516666667","6501000","淡水區"
"251015","180-VK","2018/10/09 17:18:34","新北市淡水區樹林口5-1號","121.480111666667","25.1676316666667","6501000","淡水區"
"251008","181-VK","2018/10/09 17:18:57","新北市淡水區大同路263號","121.46702","25.1421866666667","6501000","淡水區"
"251010","413-VK","2018/10/09 17:19:03","新北市淡水區中正路二段208號","121.426316666667","25.1893383333333","6501000","淡水區"
"251012","441-VK","2018/10/09 17:19:00","新北市淡水區中山北路一段158號","121.444285","25.1778116666667","6501000","淡水區"
"251004","443-VK","2018/10/09 17:19:07","新北市淡水區中正東路二段103號","121.459141666667","25.151435","6501000","淡水區"
"251006","561-UM","2018/10/09 17:18:43","新北市淡水區新生街29號","121.439448333333","25.1751183333333","6501000","淡水區"
"251009","575-R6","2018/10/09 17:18:58","新北市淡水區建設街9號","121.439015","25.17233","6501000","淡水區"
"251007","577-R6","2018/10/09 17:18:57","新北市淡水區民生路47-4號","121.461966666667","25.13803","6501000","淡水區"
"251011","650-BX","2018/10/09 17:19:12","新北市淡水區坪頂路128號","121.464781666667","25.1614383333333","6501000","淡水區"
"251003","673-BX","2018/10/09 17:19:00","新北市淡水區中正路二段31號","121.419476666667","25.1814683333333","6501000","淡水區"
"207003","550-UM","2018/10/09 17:18:59","新北市萬里區萬里里獅頭路23號","121.693226666667","25.1783116666667","6502800","萬里區"
"252002","178-VK","2018/10/09 17:19:03","新北市三芝區忠孝街1-14號","121.505491666667","25.25393","6502100","三芝區"
"252001","292-VK","2018/10/09 17:19:03","新北市三芝區淡金路一段3號","121.498086666667","25.2596283333333","6502100","三芝區"
"237016","649-BX","2018/10/09 17:19:10","新北市三峽區中山路459巷163-3號","121.34867","24.9329716666667","6500900","三峽區"
"242058","986-R7","2018/10/09 17:19:07","新北市新莊區三和路12-9號","121.442181666667","25.0365866666667","6500500","新莊區"
"242056","751-BX","2018/10/09 17:19:03","新北市新莊區新莊路658號","121.442428333333","25.0328933333333","6500500","新莊區"
"242029","705-TV","2018/10/09 17:19:05","新北市新莊區幸福路764號","121.447206666667","25.0491833333333","6500500","新莊區"
"242027","615-BX","2018/10/09 17:19:14","新北市新莊區中平路82巷36-2號","121.446291666667","25.0449683333333","6500500","新莊區"
"242025","613-BX","2018/10/09 17:19:17","新北市新莊區中平路103號","121.444601666667","25.0462266666667","6500500","新莊區"
"242044","566-BX","2018/10/09 17:18:59","新北市新莊區福營路345號","121.424895","25.0283266666667","6500500","新莊區"
"242048","497-BY","2018/10/09 17:19:03","新北市新莊區龍安路249巷1號","121.419058333333","25.0208016666667","6500500","新莊區"
"242011","442-UM","2018/10/09 17:19:06","新北市新莊區新泰路488號","121.442455","25.0457416666667","6500500","新莊區"
"242054","441-UM","2018/10/09 17:19:04","新北市新莊區環河路636-1號","121.43651","25.010795","6500500","新莊區"
"242009","413-TV","2018/10/09 17:19:15","新北市新莊區幸福路914號","121.442456666667","25.0484666666667","6500500","新莊區"
"242046","400-BY","2018/10/09 17:19:16","新北市新莊區新泰路357巷2號","121.442021666667","25.04143","6500500","新莊區"
"242023","362-BY","2018/10/09 17:19:13","新北市新莊區中平路82巷29號","121.446078333333","25.0449716666667","6500500","新莊區"
"242061","353-BY","2018/10/09 17:19:12","新北市新莊區中正路400號","121.441963333333","25.0343033333333","6500500","新莊區"
"242042","133-UY","2018/10/09 17:19:09","新北市新莊區新樹路113巷33號","121.439526666667","25.026385","6500500","新莊區"
"242034","135-UY","2018/10/09 17:19:08","新北市新莊區中正路471號","121.441913333333","25.0337283333333","6500500","新莊區"
"242013","173-VK","2018/10/09 17:19:02","新北市新莊區三和路12-21號","121.442115","25.0379916666667","6500500","新莊區"
"242019","175-VK","2018/10/09 17:18:59","新北市新莊區中港路351號","121.452016666667","25.045765","6500500","新莊區"
"242007","176-VK","2018/10/09 17:19:06","新北市新莊區新泰路502巷52號","121.444293333333","25.04631","6500500","新莊區"
"242002","347-TH","2018/10/09 17:19:08","新北市新莊區瓊林路58號","121.445491666667","25.0286816666667","6500500","新莊區"
"242032","348-TH","2018/10/09 17:19:09","新北市新莊區新泰路486號","121.442543333333","25.0457183333333","6500500","新莊區"
"242005","349-TH","2018/10/09 17:19:02","新北市新莊區復興路一段8號","121.445668333333","25.0414816666667","6500500","新莊區"
"242021","350-TH","2018/10/09 17:19:09","新北市新莊區公園路8號","121.447641666667","25.0385366666667","6500500","新莊區"
"242015","351-TH","2018/10/09 17:19:07","新北市新莊區新泰路357巷3弄1號","121.442305","25.0413766666667","6500500","新莊區"
"238019","599-UM","2018/10/09 17:19:08","新北市樹林區八德街170號","121.421615","24.97779","6500700","樹林區"
"238018","571-TV","2018/10/09 17:19:12","新北市樹林區鎮前街267號","121.419933333333","24.98601","6500700","樹林區"
"238024","5061-A6","2018/10/09 17:19:10","新北市樹林區保安街一段48巷36號","121.426725","24.9956116666667","6500700","樹林區"
"238022","KEA-2213","2018/10/09 17:19:05","新北市樹林區仁愛街77號","121.423735","24.9829083333333","6500700","樹林區"
"238021","KEA-2539","2018/10/09 17:19:01","新北市樹林區西圳街一段116巷1號","121.399518333333","24.9646183333333","6500700","樹林區"
"238025","303-VK","2018/10/09 17:19:17","新北市樹林區保安二街32號","121.42472","24.994805","6500700","樹林區"
"238017","283-BY","2018/10/09 17:19:19","新北市樹林區光武街32-1號","121.416571666667","25.0061366666667","6500700","樹林區"
"238014","282-BY","2018/10/09 17:18:59","新北市樹林區長壽街70巷26號","121.421981666667","24.994935","6500700","樹林區"
"238020","268-VK","2018/10/09 17:19:08","新北市樹林區千歲街101號","121.428525","25.0008533333333","6500700","樹林區"
"238016","169-UY","2018/10/09 17:19:07","新北市樹林區八德街1號","121.417525","24.98491","6500700","樹林區"
"239007","AAC-297","2018/10/09 17:19:08","新北市鶯歌區國慶街115巷21號","121.351158333333","24.9544133333333","6500800","鶯歌區"
"239006","891-R6","2018/10/09 17:19:04","新北市鶯歌區德昌二街73號","121.333356666667","24.95783","6500800","鶯歌區"
"239008","527-UM","2018/10/09 17:18:56","新北市鶯歌區西湖街6-2號","121.341276666667","24.9573716666667","6500800","鶯歌區"
"239005","526-UM","2018/10/09 17:19:14","新北市鶯歌區福德三街24號","121.329356666667","24.9673933333333","6500800","鶯歌區"
"239001","417-VK","2018/10/09 17:19:01","新北市鶯歌區尖山路216號","121.343488333333","24.946885","6500800","鶯歌區"
"239003","360-BY","2018/10/09 17:18:59","新北市鶯歌區德昌二街70巷32弄1號","121.332095","24.958175","6500800","鶯歌區"
"239002","359-BY","2018/10/09 17:19:06","新北市鶯歌區南昌街17號","121.349496666667","24.9541283333333","6500800","鶯歌區"
"239004","193-VK","2018/10/09 17:19:06","新北市鶯歌區文化路256巷15弄36號","121.35222","24.9468183333333","6500800","鶯歌區"
"242039","281-VK","2018/10/09 17:19:13","新北市新莊區民安路343號","121.430753333333","25.0228816666667","6500500","新莊區"
"220054","568-UM","2018/10/09 17:18:26","新北市板橋區華東街1-9號","121.448135","24.9947616666667","6500100","板橋區"
