"lineid","car","time","location","longitude","latitude","cityid","cityname"
"234026","9371-KE","2018/10/09 17:39:12","新北市永和區豫溪街84號","121.518133333333","25.0098966666667","6500400","永和區"
"249005","172-UM","2018/10/09 17:39:09","新北市八里區荖阡坑路34-3號","121.402296666667","25.1316766666667","6502300","八里區"
"249001","173-UM","2018/10/09 17:39:15","新北市八里區龍米路二段159-2號","121.439171666667","25.15399","6502300","八里區"
"249004","303-UY","2018/10/09 17:39:14","新北市八里區賢二街32號","121.4188","25.157975","6502300","八里區"
"249002","305-UY","2018/10/09 17:39:02","新北市八里區石壁腳19號","121.44173","25.1353333333333","6502300","八里區"
"249003","593-UM","2018/10/09 17:39:01","新北市八里區中山路二段145號","121.40516","25.1512616666667","6502300","八里區"
"232011","375-UM","2018/10/09 17:39:06","新北市坪林區北宜路八段99號","121.706025","24.93489","6502000","坪林區"
"244023","069-UM","2018/10/09 17:38:55","新北市林口區東明三街344號","121.390811666667","25.0699966666667","6501700","林口區"
"244007","080-UY","2018/10/09 17:39:02","新北市林口區中湖48-8號","121.383258333333","25.0925433333333","6501700","林口區"
"244019","403-UM","2018/10/09 17:39:11","新北市林口區忠孝路512巷15號","121.371248333333","25.0687583333333","6501700","林口區"
"244013","KEA-2802","2018/10/09 17:39:10","新北市林口區中山路262-1號","121.384445","25.08009","6501700","林口區"
"244017","485-VK","2018/10/09 17:39:00","新北市林口區文化一路一段52號","121.371505","25.0699516666667","6501700","林口區"
"244009","656-BX","2018/10/09 17:39:00","新北市林口區文化一路二段179號","121.383261666667","25.0816433333333","6501700","林口區"
"244011","701-TV","2018/10/09 17:38:59","新北市林口區佳林路211號","121.384206666667","25.0771033333333","6501700","林口區"
"244025","837-TS","2018/10/09 17:38:57","新北市林口區南勢街21號","121.364883333333","25.0735733333333","6501700","林口區"
"244021","838-TS","2018/10/09 17:39:12","新北市林口區仁愛路一段211巷18號","121.39779","25.07385","6501700","林口區"
"222002","659-BX","2018/10/09 17:39:01","新北市深坑區深南路88巷1號","121.621201666667","25.01114","6501800","深坑區"
"231046","107-UY","2018/10/09 17:39:09","新北市新店區直潭路92-1號","121.530828333333","24.9374116666667","6500600","新店區"
"241024","065-VK","2018/10/09 17:39:10","新北市三重區大勇街34號","121.481568333333","25.0717933333333","6500200","三重區"
"251014","742-BX","2018/10/09 17:38:57","新北市淡水區公埔子16-6號","121.481011666667","25.2245883333333","6501000","淡水區"
"241005","262-UM","2018/10/09 17:39:11","新北市三重區溪尾街279號","121.487358333333","25.08234","6500200","三重區"
"241016","266-UM","2018/10/09 17:39:13","新北市三重區正義北路21號","121.49757","25.0633766666667","6500200","三重區"
"241007","398-BY","2018/10/09 17:39:03","新北市三重區國道路一段39巷9號","121.483766666667","25.072935","6500200","三重區"
"241014","543-UM","2018/10/09 17:39:11","新北市三重區長元街98巷21弄26號","121.503345","25.0678733333333","6500200","三重區"
"241012","941-UM","2018/10/09 17:39:01","新北市三重區龍濱路287號","121.501025","25.0737583333333","6500200","三重區"
"241033","AAC-255","2018/10/09 17:39:05","新北市三重區光復路一段51號","121.472106666667","25.0488916666667","6500200","三重區"
"235064","005-UY","2018/10/09 17:39:00","新北市中和區員山路36巷16-3號","121.485155","24.99141","6500300","中和區"
"235065","098-UM","2018/10/09 17:38:58","新北市中和區員山路36巷16-3號","121.485103333333","24.9910833333333","6500300","中和區"
"247012","KEA-2869","2018/10/09 17:39:16","新北市蘆洲區民權路3巷12號","121.475921666667","25.0852983333333","6501400","蘆洲區"
"247002","893-R6","2018/10/09 17:39:16","新北市蘆洲區永平街32巷11弄27號","121.457861666667","25.0917466666667","6501400","蘆洲區"
"247016","546-UM","2018/10/09 17:39:05","新北市蘆洲區光華路52號","121.468616666667","25.083005","6501400","蘆洲區"
"247024","500-BY","2018/10/09 17:38:57","新北市蘆洲區長樂路125-1號","121.462148333333","25.08811","6501400","蘆洲區"
"247014","339-TH","2018/10/09 17:39:00","新北市蘆洲區中正路20號","121.471393333333","25.0821016666667","6501400","蘆洲區"
"247006","337-TH","2018/10/09 17:39:16","新北市蘆洲區長安街67號","121.462811666667","25.079925","6501400","蘆洲區"
"247008","336-TH","2018/10/09 17:38:59","新北市蘆洲區中山一路289號","121.471733333333","25.0793433333333","6501400","蘆洲區"
"247020","057-VK","2018/10/09 17:39:00","新北市蘆洲區民族路343-2號","121.472568333333","25.0919266666667","6501400","蘆洲區"
"247010","056-VK","2018/10/09 17:39:16","新北市蘆洲區集賢路407號","121.480033333333","25.08137","6501400","蘆洲區"
"247018","007-UY","2018/10/09 17:39:13","新北市蘆洲區三民路98巷19號","121.47285","25.08743","6501400","蘆洲區"
"247004","002-UY","2018/10/09 17:39:05","新北市蘆洲區長安街249巷21號","121.458146666667","25.0826866666667","6501400","蘆洲區"
"247022","001-UY","2018/10/09 17:39:00","新北市蘆洲區民族路457號","121.467298333333","25.0886466666667","6501400","蘆洲區"
"228001","212-TW","2018/10/09 17:39:05","新北市貢寮區仁理村仁愛路95-1號","121.927673333333","25.0554233333333","6502600","貢寮區"
"228002","663-BX","2018/10/09 17:39:17","新北市貢寮區福隆里龜壽谷街12號","121.95607","25.006225","6502600","貢寮區"
"228003","828-UM","2018/10/09 17:39:00","新北市貢寮區仁理村仁和路35號","121.92399","25.05387","6502600","貢寮區"
"224010","AGQ-8101","2018/10/09 17:38:19","新北市瑞芳區逢甲路43號","121.808335","25.1090016666667","6501200","瑞芳區"
"224006","676-BX","2018/10/09 17:39:07","新北市瑞芳區傑魚坑路37號","121.793688333333","25.110485","6501200","瑞芳區"
"224008","285-BY","2018/10/09 17:39:15","新北市瑞芳區坪林路7號","121.833928333333","25.1007366666667","6501200","瑞芳區"
"224009","273-VK","2018/10/09 17:39:10","新北市瑞芳區新山路179-1號","121.851601666667","25.10909","6501200","瑞芳區"
"224005","271-BY","2018/10/09 17:39:09","新北市瑞芳區海濱路8-6號","121.831685","25.126205","6501200","瑞芳區"
"227003","642-TC","2018/10/09 17:39:08","新北市雙溪區共和里東榮街29號","121.866233333333","25.0336316666667","6502500","雙溪區"
"251005","010-UM","2018/10/09 17:39:14","新北市淡水區鄧公路33巷14號","121.451835","25.1709183333333","6501000","淡水區"
"251002","012-UM","2018/10/09 17:38:58","新北市淡水區中山路151-9號","121.4402","25.1724266666667","6501000","淡水區"
"251013","KEA-2871","2018/10/09 17:39:10","新北市淡水區演戲埔腳6號","121.47173","25.19388","6501000","淡水區"
"251016","179-VK","2018/10/09 17:39:00","新北市淡水區埤島39-15號","121.45275","25.1958366666667","6501000","淡水區"
"251015","180-VK","2018/10/09 17:39:14","新北市淡水區樹林口13-1號","121.480893333333","25.16915","6501000","淡水區"
"251008","181-VK","2018/10/09 17:39:17","新北市淡水區八勢路一段98-3號","121.467606666667","25.1554783333333","6501000","淡水區"
"251010","413-VK","2018/10/09 17:39:03","新北市淡水區淡海路280巷97號","121.419921666667","25.1891916666667","6501000","淡水區"
"251012","441-VK","2018/10/09 17:39:00","新北市淡水區北新路200巷10號","121.451801666667","25.17968","6501000","淡水區"
"251004","443-VK","2018/10/09 17:39:09","新北市淡水區中正東路二段129號","121.4592","25.1484066666667","6501000","淡水區"
"251006","561-UM","2018/10/09 17:39:03","新北市淡水區大信街32號","121.442086666667","25.1770716666667","6501000","淡水區"
"251009","575-R6","2018/10/09 17:38:58","新北市淡水區中正路28號","121.444356666667","25.1691116666667","6501000","淡水區"
"251007","577-R6","2018/10/09 17:38:57","新北市淡水區民生路52巷43號","121.463478333333","25.137935","6501000","淡水區"
"251011","650-BX","2018/10/09 17:39:12","新北市淡水區小坪頂73號","121.484621666667","25.1587316666667","6501000","淡水區"
"251003","673-BX","2018/10/09 17:39:00","新北市淡水區中山北路一段52號","121.441926666667","25.1756216666667","6501000","淡水區"
"207003","550-UM","2018/10/09 17:38:59","新北市萬里區龜吼里漁澳路13號","121.686708333333","25.1945583333333","6502800","萬里區"
"207004","291-VK","2018/10/09 17:38:57","新北市萬里區中幅里中福路8-1號","121.685786666667","25.1649466666667","6502800","萬里區"
"252002","178-VK","2018/10/09 17:39:03","新北市三芝區智成街81號","121.505018333333","25.2557283333333","6502100","三芝區"
"252001","292-VK","2018/10/09 17:39:03","新北市三芝區淡金路一段87號","121.502188333333","25.259045","6502100","三芝區"
"237013","252-BX","2018/10/09 17:39:15","新北市三峽區介壽路一段23號","121.375441666667","24.9332333333333","6500900","三峽區"
"237014","433-BY","2018/10/09 17:38:59","新北市三峽區中山路459巷163-3號","121.348678333333","24.9329266666667","6500900","三峽區"
"237016","649-BX","2018/10/09 17:39:10","新北市三峽區正義街11-5號","121.369796666667","24.9197533333333","6500900","三峽區"
"237010","706-TV","2018/10/09 17:39:07","新北市三峽區中山路121號","121.365456666667","24.9359083333333","6500900","三峽區"
"236070","105-UM","2018/10/09 17:38:59","新北市土城區中華路二段2號","121.43926","24.9797033333333","6501300","土城區"
"236042","107-UM","2018/10/09 17:39:00","新北市土城區城林路6巷80號","121.43855","24.9795783333333","6501300","土城區"
"236079","166-UM","2018/10/09 17:38:58","新北市土城區城林路6巷80號","121.438456666667","24.9797766666667","6501300","土城區"
"236014","270-VK","2018/10/09 17:39:04","新北市土城區城林路6巷80號","121.438533333333","24.9796066666667","6501300","土城區"
"236021","401-BY","2018/10/09 17:39:17","新北市土城區中華路二段2號","121.438828333333","24.9796883333333","6501300","土城區"
"242058","986-R7","2018/10/09 17:39:07","新北市新莊區中正路671號","121.426453333333","25.030055","6500500","新莊區"
"242056","751-BX","2018/10/09 17:39:03","新北市新莊區泰豐街21號","121.4483","25.03186","6500500","新莊區"
"242029","705-TV","2018/10/09 17:39:05","新北市新莊區復興路一段183號","121.45153","25.0435416666667","6500500","新莊區"
"242027","615-BX","2018/10/09 17:39:14","新北市新莊區福壽街107號","121.457938333333","25.05077","6500500","新莊區"
"242025","613-BX","2018/10/09 17:39:16","新北市新莊區思源路98號","121.460175","25.0460166666667","6500500","新莊區"
"242044","566-BX","2018/10/09 17:38:59","新北市新莊區富國路19巷4號","121.418711666667","25.0267116666667","6500500","新莊區"
"242048","497-BY","2018/10/09 17:39:03","新北市新莊區萬安街123號","121.42067","25.02245","6500500","新莊區"
"242011","442-UM","2018/10/09 17:39:11","新北市新莊區中港路617號","121.451253333333","25.0535216666667","6500500","新莊區"
"242054","441-UM","2018/10/09 17:39:04","新北市新莊區新樹路699巷5號","121.432558333333","25.0019833333333","6500500","新莊區"
"242009","413-TV","2018/10/09 17:39:15","新北市新莊區福壽街169巷3號","121.45733","25.0536866666667","6500500","新莊區"
"242046","400-BY","2018/10/09 17:39:16","新北市新莊區福營路35巷12號","121.43722","25.0319166666667","6500500","新莊區"
"242023","362-BY","2018/10/09 17:39:13","新北市新莊區公園路129-5號","121.45733","25.04087","6500500","新莊區"
"242061","353-BY","2018/10/09 17:39:12","新北市新莊區瓊林南路103巷8弄21號","121.435241666667","25.0112166666667","6500500","新莊區"
"242042","133-UY","2018/10/09 17:39:09","新北市新莊區中正路514巷15號","121.433055","25.03295","6500500","新莊區"
"242034","135-UY","2018/10/09 17:39:08","新北市新莊區新莊路532號","121.445625","25.032925","6500500","新莊區"
"242051","172-VK","2018/10/09 17:39:06","新北市新莊區西盛街187-15號","121.428981666667","25.0173933333333","6500500","新莊區"
"242013","173-VK","2018/10/09 17:39:02","新北市新莊區中誠街99號","121.449893333333","25.047735","6500500","新莊區"
"242019","175-VK","2018/10/09 17:38:59","新北市新莊區中港路242號","121.453955","25.0432483333333","6500500","新莊區"
"242007","176-VK","2018/10/09 17:39:06","新北市新莊區福樂街120號","121.45707","25.04783","6500500","新莊區"
"242017","346-TH","2018/10/09 17:39:17","新北市新莊區復興路一段147號","121.450391666667","25.0433933333333","6500500","新莊區"
"242002","347-TH","2018/10/09 17:39:08","新北市新莊區新莊路357號","121.451865","25.0339083333333","6500500","新莊區"
"242032","348-TH","2018/10/09 17:39:09","新北市新莊區新泰路336號","121.444826666667","25.0420216666667","6500500","新莊區"
"242005","349-TH","2018/10/09 17:39:02","新北市新莊區自立街198號","121.456611666667","25.04559","6500500","新莊區"
"242021","350-TH","2018/10/09 17:39:09","新北市新莊區中華路一段166號","121.452706666667","25.04183","6500500","新莊區"
"242015","351-TH","2018/10/09 17:39:07","新北市新莊區新泰路339號","121.444828333333","25.0419566666667","6500500","新莊區"
"238015","755-BX","2018/10/09 17:39:09","新北市樹林區啟智街34號","121.420843333333","24.9933783333333","6500700","樹林區"
"238023","601-UM","2018/10/09 17:39:12","新北市樹林區三福街160號","121.404928333333","25.0161283333333","6500700","樹林區"
"238019","599-UM","2018/10/09 17:39:07","新北市樹林區太平路89號","121.419078333333","24.9813483333333","6500700","樹林區"
"238018","571-TV","2018/10/09 17:39:12","新北市樹林區鎮前街62號","121.425671666667","24.9923666666667","6500700","樹林區"
"238024","5061-A6","2018/10/09 17:39:10","新北市樹林區八德街247巷24-3號","121.419771666667","24.97318","6500700","樹林區"
"238022","KEA-2213","2018/10/09 17:39:05","新北市樹林區中華路187巷1號","121.42054","24.98141","6500700","樹林區"
"238021","KEA-2539","2018/10/09 17:39:01","新北市樹林區柑園街一段253巷25號","121.396515","24.9542866666667","6500700","樹林區"
"238025","303-VK","2018/10/09 17:39:17","新北市樹林區保安街三段71-3號","121.412611666667","25.0123233333333","6500700","樹林區"
"238017","283-BY","2018/10/09 17:39:12","新北市樹林區三俊街74巷47號","121.414356666667","25.0131433333333","6500700","樹林區"
"238014","282-BY","2018/10/09 17:39:05","新北市樹林區保安街一段313巷7號","121.417618333333","24.9976483333333","6500700","樹林區"
"238020","268-VK","2018/10/09 17:39:08","新北市樹林區俊英街116巷41弄35號","121.428258333333","25.0074433333333","6500700","樹林區"
"238026","172-UY","2018/10/09 17:39:19","新北市樹林區中山路三段27巷3弄12-2號","121.401675","24.97369","6500700","樹林區"
"238016","169-UY","2018/10/09 17:38:07","新北市樹林區育英街33號","121.421358333333","24.9890566666667","6500700","樹林區"
"239007","AAC-297","2018/10/09 17:39:08","新北市鶯歌區鶯桃路182巷4號","121.33711","24.9556616666667","6500800","鶯歌區"
"239006","891-R6","2018/10/09 17:39:04","新北市鶯歌區永和街34巷10弄2號","121.333435","24.9673333333333","6500800","鶯歌區"
"239008","527-UM","2018/10/09 17:38:56","新北市鶯歌區大湖路732巷15弄1號","121.332973333333","24.977745","6500800","鶯歌區"
"239005","526-UM","2018/10/09 17:39:14","新北市鶯歌區福隆二街58號","121.32452","24.9715183333333","6500800","鶯歌區"
"239001","417-VK","2018/10/09 17:39:01","新北市鶯歌區中正三路176-1號","121.333233333333","24.93834","6500800","鶯歌區"
"239003","360-BY","2018/10/09 17:38:59","新北市鶯歌區鶯桃路206巷12號","121.337571666667","24.959395","6500800","鶯歌區"
"239002","359-BY","2018/10/09 17:39:06","新北市鶯歌區育樂街61號","121.343575","24.9547233333333","6500800","鶯歌區"
"239004","193-VK","2018/10/09 17:39:06","新北市鶯歌區文化路503號","121.35284","24.9485983333333","6500800","鶯歌區"
"221008","489-VK","2018/10/09 17:39:04","新北市汐止區康寧街901號","121.651408333333","25.0750366666667","6501100","汐止區"
"221015","131-UY","2018/10/09 17:39:03","新北市汐止區汐萬路一段256巷1號","121.651935","25.0747783333333","6501100","汐止區"
"221010","269-BY","2018/10/09 17:38:59","新北市汐止區汐萬路一段418巷30號","121.649995","25.0787083333333","6501100","汐止區"
"221023","279-VK","2018/10/09 17:39:01","新北市汐止區康寧街901號","121.651686666667","25.074885","6501100","汐止區"
"221021","299-VK","2018/10/09 17:39:15","新北市汐止區康寧街901號","121.651393333333","25.0749866666667","6501100","汐止區"
"221031","353-TW","2018/10/09 17:39:12","新北市汐止區康寧街901號","121.651731666667","25.0749233333333","6501100","汐止區"
"242039","281-VK","2018/10/09 17:39:14","新北市新莊區民全街17號","121.428976666667","25.021685","6500500","新莊區"
"220054","568-UM","2018/10/09 17:18:26","新北市板橋區華東街1-9號","121.448135","24.9947616666667","6500100","板橋區"
