"lineid","car","time","location","longitude","latitude","cityid","cityname"
"234046","148-BY","2018/10/09 19:06:33","新北市永和區永元路18巷5-1號","121.522833333333","25.0003366666667","6500400","永和區"
"234007","207-UY","2018/10/09 19:06:39","新北市永和區中山路一段147號","121.510186666667","25.009685","6500400","永和區"
"234081","298-R6","2018/10/09 19:03:53","新北市永和區永貞路40號","121.520881666667","25.0064833333333","6500400","永和區"
"234038","336-UY","2018/10/09 19:03:36","新北市永和區民樂街102巷2號","121.527263333333","24.9964516666667","6500400","永和區"
"234064","337-UY","2018/10/09 19:07:05","新北市永和區秀朗路一段233號","121.520015","25.0031133333333","6500400","永和區"
"234086","338-UY","2018/10/09 19:08:27","新北市永和區永貞路102號","121.5191","25.0046366666667","6500400","永和區"
"234070","552-UM","2018/10/09 19:04:56","新北市永和區豫溪街57巷10弄11號","121.517795","25.0108583333333","6500400","永和區"
"234017","745-BX","2018/10/09 19:04:45","新北市永和區忠孝街11-1號","121.514801666667","25.015715","6500400","永和區"
"234030","746-BX","2018/10/09 19:06:15","新北市永和區民生路25巷22號","121.524373333333","24.9985016666667","6500400","永和區"
"234054","KEA-2590","2018/10/09 19:05:59","新北市永和區中興街133巷26號","121.517773333333","25.0125016666667","6500400","永和區"
"234013","KEA-2591","2018/10/09 19:08:45","新北市永和區永和路二段46號","121.514723333333","25.0106866666667","6500400","永和區"
"234061","AAD-866","2018/10/09 19:04:35","新北市永和區中正路465巷22號","121.516346666667","25.0061316666667","6500400","永和區"
"234042","862-TW","2018/10/09 19:06:08","新北市永和區保平路95號","121.511508333333","25.0069966666667","6500400","永和區"
"234050","863-TW","2018/10/09 19:06:09","新北市永和區文化路135巷6號","121.510776666667","25.0157933333333","6500400","永和區"
"234026","9371-KE","2018/10/09 19:08:52","新北市永和區安樂路272巷9弄7號","121.515025","25.00454","6500400","永和區"
"234011","9373-KE","2018/10/09 19:06:52","新北市永和區保福路二段44巷2弄10號","121.511605","25.0117866666667","6500400","永和區"
"249005","172-UM","2018/10/09 19:07:09","新北市八里區長道坑2號","121.393748333333","25.1242683333333","6502300","八里區"
"249001","173-UM","2018/10/09 19:07:55","新北市八里區龍米路二段228-1號","121.432678333333","25.15853","6502300","八里區"
"249003","593-UM","2018/10/09 19:07:20","新北市八里區中山路一段189巷7弄10號","121.4124","25.158055","6502300","八里區"
"248016","026-BX","2018/10/09 19:06:59","新北市五股區成泰路三段543巷19號","121.45057","25.1024166666667","6501500","五股區"
"248006","077-UY","2018/10/09 19:07:16","新北市五股區四維路128號","121.467988333333","25.074975","6501500","五股區"
"248008","095-VK","2018/10/09 19:08:53","新北市五股區中興路一段118巷2號","121.465966666667","25.073805","6501500","五股區"
"248020","225-UY","2018/10/09 19:08:58","新北市五股區凌雲路三段57號","121.4253","25.1250116666667","6501500","五股區"
"248012","247-BX","2018/10/09 19:06:27","新北市五股區中興路四段48巷16號","121.438621666667","25.08346","6501500","五股區"
"248010","272-BY","2018/10/09 19:09:02","新北市五股區水碓一路23號","121.43062","25.0713","6501500","五股區"
"248004","677-BX","2018/10/09 19:08:12","新北市五股區民義路一段238號","121.427896666667","25.090975","6501500","五股區"
"248002","678-BX","2018/10/09 19:05:44","新北市五股區凌雲路一段163號","121.448841666667","25.1026266666667","6501500","五股區"
"234023","9380-KE","2018/10/09 19:08:20","新北市永和區中興街10巷4號","121.515593333333","25.0116133333333","6500400","永和區"
"234077","969-R7","2018/10/09 19:05:11","新北市永和區得和路131號","121.519106666667","25.0002633333333","6500400","永和區"
"234074","AAC-211","2018/10/09 19:08:33","新北市永和區福和路52號","121.523441666667","25.0081366666667","6500400","永和區"
"234067","AAC-212","2018/10/09 19:07:59","新北市永和區保平路30巷2號","121.511985","25.00727","6500400","永和區"
"234003","AAC-295","2018/10/09 19:06:05","新北市永和區和平街98號","121.510865","25.0100066666667","6500400","永和區"
"244023","069-UM","2018/10/09 19:08:15","新北市林口區文林六街27巷15號","121.370641666667","25.0812033333333","6501700","林口區"
"244007","080-UY","2018/10/09 19:08:42","新北市林口區太平里28號","121.376756666667","25.11839","6501700","林口區"
"244019","403-UM","2018/10/09 19:07:31","新北市林口區文化二路一段555號","121.374831666667","25.0770916666667","6501700","林口區"
"244013","KEA-2802","2018/10/09 19:07:30","新北市林口區麗園二街1巷6號","121.377811666667","25.0703966666667","6501700","林口區"
"244017","485-VK","2018/10/09 19:08:20","新北市林口區公園路131巷3號","121.36892","25.0704083333333","6501700","林口區"
"244011","701-TV","2018/10/09 19:07:19","新北市林口區中正路332號","121.387405","25.0777933333333","6501700","林口區"
"244025","837-TS","2018/10/09 19:03:57","新北市林口區文化北路一段370號","121.362008333333","25.0748366666667","6501700","林口區"
"244021","838-TS","2018/10/09 19:08:52","新北市八里區中山路三段247號","121.381698333333","25.1404066666667","6501700","林口區"
"243013","AAD-798","2018/10/09 19:07:52","新北市泰山區漢口街1號","121.423238333333","25.0367583333333","6501600","泰山區"
"243009","297-R6","2018/10/09 19:08:34","新北市泰山區明志路一段117巷3號","121.433858333333","25.06344","6501600","泰山區"
"243016","KEA-2801","2018/10/09 19:06:50","新北市泰山區明志路二段315號","121.42648","25.0462366666667","6501600","泰山區"
"243015","421-VK","2018/10/09 19:07:15","新北市泰山區明志路一段386號","121.430766666667","25.0573416666667","6501600","泰山區"
"243011","KEA-2215","2018/10/09 19:06:51","新北市泰山區明志路二段320巷2弄2號","121.425995","25.0461416666667","6501600","泰山區"
"243010","KEA-2216","2018/10/09 19:08:39","新北市泰山區明志路一段481號","121.431063333333","25.05543","6501600","泰山區"
"243012","646-TV","2018/10/09 19:08:37","新北市泰山區吳厝窠1號","121.427931666667","25.0586","6501600","泰山區"
"243014","680-BX","2018/10/09 19:08:17","新北市泰山區泰林路二段440號","121.426468333333","25.06424","6501600","泰山區"
"222003","436-BY","2018/10/09 19:06:51","新北市深坑區深南路142號","121.62295","25.0141066666667","6501800","深坑區"
"222002","659-BX","2018/10/09 19:06:00","新北市深坑區烏月路31號","121.632583333333","25.007","6501800","深坑區"
"231059","001-UM","2018/10/09 19:04:31","新北市新店區安康路一段319號","121.522156666667","24.96362","6500600","新店區"
"231041","002-UM","2018/10/09 19:07:41","新北市新店區中央二街73-1號","121.526041666667","24.9748033333333","6500600","新店區"
"231040","047-UY","2018/10/09 19:06:39","新北市新店區三民路183號","121.535133333333","24.97519","6500600","新店區"
"231044","106-UY","2018/10/09 19:05:50","新北市新店區寶中路51號","121.546676666667","24.9800683333333","6500600","新店區"
"231046","107-UY","2018/10/09 19:05:24","新北市新店區永業路81巷12號","121.532043333333","24.945775","6500600","新店區"
"231048","187-VK","2018/10/09 19:07:43","新北市新店區德正街27巷29弄21號","121.545766666667","24.9719433333333","6500600","新店區"
"231062","188-VK","2018/10/09 19:07:24","新北市新店區安和路一段53號","121.51753","24.965975","6500600","新店區"
"231053","189-VK","2018/10/09 19:06:52","新北市新店區櫻花街6號","121.546426666667","24.9268083333333","6500600","新店區"
"231054","KEA-2219","2018/10/09 19:06:11","新北市新店區新店路97號","121.537301666667","24.953735","6500600","新店區"
"231042","268-BY","2018/10/09 19:08:58","新北市新店區中興路一段203號","121.543645","24.96563","6500600","新店區"
"231051","278-BY","2018/10/09 19:07:05","新北市新店區中正路402號","121.53453","24.97752","6500600","新店區"
"231050","AAD-862","2018/10/09 19:08:21","新北市新店區竹林路23號","121.551448333333","24.9515416666667","6500600","新店區"
"231058","3713-VJ","2018/10/09 19:07:07","新北市新店區光明街134號","121.539298333333","24.96124","6500600","新店區"
"231066","4716-K9","2018/10/09 19:08:52","新北市新店區安康路二段456巷6號","121.493618333333","24.9547266666667","6500600","新店區"
"231056","4715-K9","2018/10/09 19:08:37","新北市新店區民權路115號","121.536365","24.9826916666667","6500600","新店區"
"231067","4772-VM","2018/10/09 19:08:02","新北市新店區安康路一段222號","121.52375","24.9635583333333","6500600","新店區"
"231065","512-UM","2018/10/09 19:08:44","新北市新店區安祥路111號","121.475641666667","24.9569316666667","6500600","新店區"
"231049","513-UM","2018/10/09 19:07:44","新北市新店區二十張路24號","121.538451666667","24.9818516666667","6500600","新店區"
"231063","616-UM","2018/10/09 19:08:04","新北市新店區車子路134號","121.505196666667","24.9492683333333","6500600","新店區"
"231061","619-UM","2018/10/09 19:08:34","新北市新店區安康路一段351-1號","121.519555","24.963885","6500600","新店區"
"231064","719-UM","2018/10/09 19:07:57","新北市新店區安忠路20號","121.514481666667","24.96179","6500600","新店區"
"231060","897-TW","2018/10/09 19:06:37","新北市新店區安豐路45號","121.500275","24.9551283333333","6500600","新店區"
"231045","898-TW","2018/10/09 19:05:47","新北市新店區北宜路一段98號","121.539001666667","24.9554616666667","6500600","新店區"
"231043","899-TW","2018/10/09 19:08:13","新北市新店區寶橋路56號","121.54603","24.975465","6500600","新店區"
"231055","AKT-0513","2018/10/09 19:06:45","新北市新店區安德街148巷31號","121.50631","24.9607","6500600","新店區"
"241026","066-VK","2018/10/09 19:07:38","新北市三重區泉州街74號","121.494768333333","25.0546633333333","6500200","三重區"
"251014","742-BX","2018/10/09 19:07:37","新北市淡水區小中寮19-8號","121.486671666667","25.227795","6501000","淡水區"
"241035","462-BY","2018/10/09 19:07:21","新北市三重區新北大道一段7號","121.489823333333","25.0614216666667","6500200","三重區"
"241029","942-UM","2018/10/09 19:06:04","新北市三重區重安街63號","121.492011666667","25.0560916666667","6500200","三重區"
"235066","003-UY","2018/10/09 19:07:06","新北市中和區水源路36巷1弄12號","121.505833333333","25.0029633333333","6500300","中和區"
"235064","005-UY","2018/10/09 19:07:21","新北市中和區泰和街32號","121.499463333333","25.000265","6500300","中和區"
"235063","006-UY","2018/10/09 19:08:46","新北市中和區中正路630號","121.485388333333","24.9958966666667","6500300","中和區"
"235056","096-UM","2018/10/09 19:08:37","新北市中和區中正路1230號","121.47922","25.0108733333333","6500300","中和區"
"235039","097-UM","2018/10/09 19:08:55","新北市中和區景平路64巷13弄1號","121.522028333333","24.9913533333333","6500300","中和區"
"235065","098-UM","2018/10/09 19:07:37","新北市中和區中山路二段136巷25號","121.501266666667","25.0042683333333","6500300","中和區"
"235040","150-BY","2018/10/09 19:08:49","新北市中和區宜安路11巷22號","121.512736666667","24.99513","6500300","中和區"
"235058","151-BY","2018/10/09 19:07:25","新北市中和區員山路143巷24號","121.479901666667","24.9958033333333","6500300","中和區"
"235055","183-VK","2018/10/09 19:06:55","新北市中和區德光路16號","121.47123","25.0044866666667","6500300","中和區"
"235038","185-VK","2018/10/09 19:05:41","新北市中和區大仁街38號","121.517778333333","24.9937583333333","6500300","中和區"
"235049","186-VK","2018/10/09 19:05:05","新北市中和區景新街208號","121.506673333333","24.9955166666667","6500300","中和區"
"235067","255-BX","2018/10/09 19:08:46","新北市中和區新生街174號","121.483735","24.99999","6500300","中和區"
"235044","293-VK","2018/10/09 19:08:14","新北市中和區復興路327巷4號","121.500695","24.9898583333333","6500300","中和區"
"235072","301-VK","2018/10/09 19:08:30","新北市中和區永和路74號","121.497858333333","25.0051716666667","6500300","中和區"
"235043","352-BY","2018/10/09 19:08:27","新北市中和區景平路120號","121.51926","24.9917033333333","6500300","中和區"
"235042","KEA-2878","2018/10/09 19:07:25","新北市中和區自立路16巷3號","121.521791666667","24.9937016666667","6500300","中和區"
"235050","4979-A6","2018/10/09 19:07:15","新北市中和區復興路262-1號","121.50335","24.99028","6500300","中和區"
"235069","4980-A6","2018/10/09 19:08:53","新北市中和區中和路217巷1弄1號","121.504006666667","25.0001866666667","6500300","中和區"
"235070","558-UM","2018/10/09 19:08:24","新北市中和區中和路177號","121.503206666667","24.9998016666667","6500300","中和區"
"235045","565-BX","2018/10/09 19:06:34","新北市中和區景新街467巷35弄4號","121.514615","24.98911","6500300","中和區"
"235054","640-BX","2018/10/09 19:05:45","新北市中和區國光街1號","121.472508333333","25.000205","6500300","中和區"
"235046","733-UM","2018/10/09 19:08:37","新北市中和區興南路二段31巷18號","121.508048333333","24.98515","6500300","中和區"
"235071","783-BX","2018/10/09 19:08:29","新北市中和區連城路469巷79弄2號","121.483486666667","24.99367","6500300","中和區"
"235062","800-TS","2018/10/09 19:05:29","新北市中和區中山路二段359巷2號","121.488348333333","25.0045066666667","6500300","中和區"
"235057","801-TS","2018/10/09 19:08:40","新北市中和區民利街100巷6弄8號","121.477213333333","24.9986166666667","6500300","中和區"
"235041","802-TS","2018/10/09 19:08:40","新北市永和區中和路315號","121.506978333333","24.999675","6500300","中和區"
"235052","805-TS","2018/10/09 19:08:27","新北市中和區興南路二段142巷19弄38號","121.50264","24.9834866666667","6500300","中和區"
"235048","896-TW","2018/10/09 19:06:07","新北市中和區工專路121號","121.508278333333","24.9792716666667","6500300","中和區"
"235053","900-TW","2018/10/09 19:08:55","新北市中和區華福街75號","121.467295","24.9965583333333","6500300","中和區"
"235060","911-UM","2018/10/09 19:08:35","新北市中和區民有街49號","121.476023333333","25.0046216666667","6500300","中和區"
"235051","157-BY","2018/10/09 19:08:59","新北市中和區忠孝街31巷56號","121.509865","24.98577","6500300","中和區"
"235037","AAC-213","2018/10/09 19:07:50","新北市中和區秀朗路三段60巷42號","121.524971666667","24.9949133333333","6500300","中和區"
"235059","AAC-215","2018/10/09 19:08:40","新北市中和區圓通路294巷11弄1號","121.488578333333","24.9900183333333","6500300","中和區"
"220035","015-TV","2018/10/09 19:04:47","新北市板橋區中正路379巷1弄36號","121.453063333333","25.0218483333333","6500100","板橋區"
"220065","072-UY","2018/10/09 19:04:31","新北市板橋區民族路287巷19號","121.470908333333","25.0075683333333","6500100","板橋區"
"220086","073-UY","2018/10/09 19:06:05","新北市板橋區中正路250巷55號","121.457863333333","25.0197216666667","6500100","板橋區"
"220106","075-UY","2018/10/09 19:07:20","新北市板橋區文化路二段263巷12號","121.470991666667","25.029465","6500100","板橋區"
"220069","AAD-861","2018/10/09 19:06:09","新北市板橋區東興街93-2號","121.457576666667","25.0052366666667","6500100","板橋區"
"226004","205-ST","2018/10/09 19:06:21","新北市平溪區靜安路二段500號","121.743796666667","25.026765","6502400","平溪區"
"235047","251-BX","2018/10/09 19:08:52","新北市中和區興南路二段101號","121.505961666667","24.9846633333333","6500300","中和區"
"228001","212-TW","2018/10/09 19:09:05","新北市貢寮區真理里新港街10號","121.925516666667","25.0543866666667","6502600","貢寮區"
"228002","663-BX","2018/10/09 19:07:37","新北市貢寮區福隆里興隆街21-2號","121.933286666667","25.0190233333333","6502600","貢寮區"
"228003","828-UM","2018/10/09 19:06:45","新北市貢寮區和美里和美街46號","121.915231666667","25.09374","6502600","貢寮區"
"224010","AGQ-8101","2018/10/09 19:08:39","新北市瑞芳區山尖路172-1號","121.848678333333","25.111845","6501200","瑞芳區"
"224006","676-BX","2018/10/09 19:04:06","新北市瑞芳區東和路3號","121.804533333333","25.1061766666667","6501200","瑞芳區"
"224008","285-BY","2018/10/09 19:08:15","新北市瑞芳區明燈路三段231號","121.799723333333","25.1115566666667","6501200","瑞芳區"
"224007","275-VK","2018/10/09 19:08:45","新北市瑞芳區瑞竹路46號","121.763483333333","25.10339","6501200","瑞芳區"
"224009","273-VK","2018/10/09 19:04:07","新北市瑞芳區洞頂路158-1號","121.86115","25.11859","6501200","瑞芳區"
"227003","642-TC","2018/10/09 19:08:48","新北市雙溪區平林里外平林9-4號","121.859186666667","25.0380216666667","6502500","雙溪區"
"227009","400-TW","2018/10/09 19:08:43","新北市雙溪區牡丹里中正路23號","121.86461","25.0375983333333","6502500","雙溪區"
"253006","032-BX","2018/10/09 19:08:54","新北市石門區八甲4-3號","121.52089","25.283295","6502200","石門區"
"253005","295-VK","2018/10/09 19:09:03","新北市石門區阿里荖41-1號","121.60566","25.2805916666667","6502200","石門區"
"222001","KEA-2212","2018/10/09 19:07:54","新北市深坑區北深路一段300號","121.624228333333","25.0056666666667","6501800","深坑區"
"208001","AAC-292","2018/10/09 19:05:33","新北市金山區民生路204號","121.641323333333","25.2207733333333","6502700","金山區"
"208002","KEA-2872","2018/10/09 19:07:34","新北市金山區仁愛路67巷28號","121.633996666667","25.2208533333333","6502700","金山區"
"208003","665-BX","2018/10/09 19:06:21","新北市金山區中正路133號","121.632445","25.2215466666667","6502700","金山區"
"251005","010-UM","2018/10/09 19:08:16","新北市淡水區文化路61號","121.43847","25.1728533333333","6501000","淡水區"
"251001","011-UM","2018/10/09 19:04:53","新北市淡水區自強路19號","121.464355","25.1253633333333","6501000","淡水區"
"251002","012-UM","2018/10/09 19:05:18","新北市淡水區中山路88號","121.442708333333","25.1705433333333","6501000","淡水區"
"251013","KEA-2871","2018/10/09 19:08:30","新北市淡水區安子內12號","121.48097","25.2194483333333","6501000","淡水區"
"251016","179-VK","2018/10/09 19:06:00","新北市淡水區淡金路三段66號","121.448231666667","25.199945","6501000","淡水區"
"251015","180-VK","2018/10/09 19:03:54","新北市淡水區白石腳7-6號","121.48538","25.1747433333333","6501000","淡水區"
"251010","413-VK","2018/10/09 19:08:15","新北市淡水區中正路一段156巷3號","121.421196666667","25.1802433333333","6501000","淡水區"
"251009","575-R6","2018/10/09 19:06:38","新北市淡水區清水街216號","121.440346666667","25.171345","6501000","淡水區"
"251007","577-R6","2018/10/09 19:07:37","新北市淡水區民生路145巷46號","121.467076666667","25.1389266666667","6501000","淡水區"
"251003","673-BX","2018/10/09 19:07:00","新北市淡水區中山北路一段149巷27號","121.443021666667","25.1778233333333","6501000","淡水區"
"207003","550-UM","2018/10/09 19:05:59","新北市萬里區大鵬里萬里加投35-1號","121.646091666667","25.2111466666667","6502800","萬里區"
"207004","291-VK","2018/10/09 19:08:37","新北市萬里區萬里里瑪鋉下街58-1號","121.691658333333","25.1795933333333","6502800","萬里區"
"252002","178-VK","2018/10/09 19:06:43","新北市三芝區智成街113號","121.505731666667","25.255335","6502100","三芝區"
"252003","249-BX","2018/10/09 19:07:55","新北市三芝區錫板里南勢崗8號","121.479261666667","25.2616166666667","6502100","三芝區"
"252001","292-VK","2018/10/09 19:07:23","新北市三芝區長勤街82號","121.50026","25.2550966666667","6502100","三芝區"
"237004","KEA-2597","2018/10/09 19:06:30","新北市三峽區有木206號","121.43907","24.8514716666667","6500900","三峽區"
"237009","210-TH","2018/10/09 19:07:18","新北市三峽區中山路130號","121.365375","24.9360766666667","6500900","三峽區"
"237013","252-BX","2018/10/09 19:07:35","新北市三峽區光明路69巷25號","121.376628333333","24.9292183333333","6500900","三峽區"
"237012","275-BY","2018/10/09 19:07:48","新北市三峽區三樹路222巷196-41號","121.390078333333","24.9425033333333","6500900","三峽區"
"237008","302-VK","2018/10/09 19:06:50","新北市三峽區大同路176號","121.372593333333","24.926705","6500900","三峽區"
"237014","433-BY","2018/10/09 19:08:58","新北市三峽區大勇路18-2號","121.36701","24.9380233333333","6500900","三峽區"
"237006","5529-G3","2018/10/09 19:09:02","新北市三峽區橫溪路99巷18號","121.400615","24.9361266666667","6500900","三峽區"
"237011","KEA-2596","2018/10/09 19:07:29","新北市三峽區介壽路三段107號","121.395438333333","24.9392433333333","6500900","三峽區"
"237016","649-BX","2018/10/09 19:06:50","新北市三峽區安坑38號","121.454511666667","24.931965","6500900","三峽區"
"237010","706-TV","2018/10/09 19:07:47","新北市三峽區民生街66號","121.374768333333","24.936005","6500900","三峽區"
"237005","AKY-6261","2018/10/09 19:06:55","新北市三峽區中山路459巷163-3號","121.348691666667","24.9328966666667","6500900","三峽區"
"236070","105-UM","2018/10/09 19:08:39","新北市土城區裕生路71-1號","121.446975","24.9845733333333","6501300","土城區"
"236042","107-UM","2018/10/09 19:08:19","新北市土城區學府路一段239號","121.450368333333","24.9833483333333","6501300","土城區"
"236079","166-UM","2018/10/09 19:08:38","新北市土城區中央路四段323號","121.410723333333","24.951115","6501300","土城區"
"236030","253-BX","2018/10/09 19:08:16","新北市土城區城林路6巷80號","121.438505","24.9796","6501300","土城區"
"236026","269-VK","2018/10/09 19:04:46","新北市土城區中正路74巷3弄1號","121.444756666667","24.97492","6501300","土城區"
"236014","270-VK","2018/10/09 19:08:04","新北市土城區永豐路5號","121.460901666667","24.989435","6501300","土城區"
"236021","401-BY","2018/10/09 19:04:37","新北市土城區延峰街36巷6號","121.469563333333","24.9845733333333","6501300","土城區"
"236059","912-UM","2018/10/09 19:08:53","新北市土城區金城路二段36號","121.451078333333","24.9788766666667","6501300","土城區"
"236049","913-UM","2018/10/09 19:07:23","新北市土城區明德路一段365-1號","121.453648333333","24.9790483333333","6501300","土城區"
"236055","AAC-216","2018/10/09 19:05:36","新北市土城區學府路一段197號","121.451885","24.9847583333333","6501300","土城區"
"242058","986-R7","2018/10/09 19:08:47","新北市新莊區新泰路357巷3弄55號","121.4421","25.0398033333333","6500500","新莊區"
"242054","441-UM","2018/10/09 19:08:44","新北市新莊區民安西路415巷2號","121.430828333333","25.0091966666667","6500500","新莊區"
"242013","173-VK","2018/10/09 19:08:22","新北市新莊區三和路12-21號","121.442055","25.038665","6500500","新莊區"
"238023","601-UM","2018/10/09 19:02:32","新北市樹林區大慶街66號","121.39646","25.0139833333333","6500700","樹林區"
"238019","599-UM","2018/10/09 19:07:07","新北市樹林區東華街33號","121.415178333333","24.981805","6500700","樹林區"
"238022","KEA-2213","2018/10/09 19:07:05","新北市樹林區東順街90巷2號","121.408143333333","24.9762483333333","6500700","樹林區"
"238021","KEA-2539","2018/10/09 19:06:31","新北市樹林區柑園街二段337-6號","121.370468333333","24.950485","6500700","樹林區"
"238025","303-VK","2018/10/09 19:05:37","新北市樹林區民和街83巷10號","121.378683333333","24.9728983333333","6500700","樹林區"
"238017","283-BY","2018/10/09 19:07:25","新北市樹林區光興街376巷2號","121.40633","25.0056566666667","6500700","樹林區"
"238014","282-BY","2018/10/09 19:08:39","新北市樹林區千歲街94號","121.426743333333","24.99781","6500700","樹林區"
"238020","268-VK","2018/10/09 19:08:28","新北市樹林區俊英街133巷26號","121.423368333333","25.01108","6500700","樹林區"
"238026","172-UY","2018/10/09 19:07:19","新北市樹林區山佳街28號","121.39331","24.973285","6500700","樹林區"
"238016","169-UY","2018/10/09 19:06:03","新北市樹林區復興路373巷7弄12號","121.417846666667","24.9867316666667","6500700","樹林區"
"239007","AAC-297","2018/10/09 19:08:48","新北市鶯歌區中山路138巷3-5號","121.349553333333","24.9581433333333","6500800","鶯歌區"
"239006","891-R6","2018/10/09 19:06:44","新北市鶯歌區建國路443號","121.338435","24.9515133333333","6500800","鶯歌區"
"239008","527-UM","2018/10/09 19:04:36","新北市鶯歌區國際二路12巷27號","121.338396666667","24.97489","6500800","鶯歌區"
"239005","526-UM","2018/10/09 19:08:17","新北市鶯歌區中湖街319號","121.34913","24.9753616666667","6500800","鶯歌區"
"239001","417-VK","2018/10/09 19:08:50","新北市鶯歌區鶯桃路95巷79號","121.337035","24.9527483333333","6500800","鶯歌區"
"239003","360-BY","2018/10/09 19:06:39","新北市鶯歌區德昌二街121號","121.333113333333","24.956805","6500800","鶯歌區"
"239002","359-BY","2018/10/09 19:08:06","新北市鶯歌區湖山路34巷1號","121.340311666667","24.9749666666667","6500800","鶯歌區"
"239004","193-VK","2018/10/09 19:06:25","新北市鶯歌區中正三路291巷11號","121.329805","24.935785","6500800","鶯歌區"
"221008","489-VK","2018/10/09 19:07:24","新北市汐止區康寧街506號","121.633101666667","25.06848","6501100","汐止區"
"221036","130-UY","2018/10/09 19:08:43","新北市汐止區汐萬路一段256巷1號","121.651808333333","25.0749066666667","6501100","汐止區"
"221015","131-UY","2018/10/09 19:09:03","新北市汐止區康寧街901號","121.651125","25.07513","6501100","汐止區"
"221010","269-BY","2018/10/09 19:07:58","新北市汐止區康寧街901號","121.651693333333","25.0749116666667","6501100","汐止區"
"221012","278-VK","2018/10/09 19:08:24","新北市汐止區康寧街901號","121.651576666667","25.074985","6501100","汐止區"
"221023","279-VK","2018/10/09 19:08:40","新北市汐止區康寧街901號","121.651663333333","25.0749133333333","6501100","汐止區"
"221032","280-BY","2018/10/09 19:09:05","新北市汐止區橫科路241-3號","121.622331666667","25.0488666666667","6501100","汐止區"
"221027","281-BY","2018/10/09 19:08:58","新北市汐止區康寧街901號","121.651441666667","25.074955","6501100","汐止區"
"221029","297-VK","2018/10/09 19:08:32","新北市汐止區汐萬路一段333巷23號","121.647763333333","25.0761316666667","6501100","汐止區"
"221029","298-VK","2018/10/09 18:44:21","新北市汐止區汐萬路一段256巷3號","121.652718333333","25.0745316666667","6501100","汐止區"
"221021","299-VK","2018/10/09 19:07:15","新北市汐止區康寧街901號","121.651583333333","25.075005","6501100","汐止區"
"221031","353-TW","2018/10/09 19:07:12","新北市汐止區連峰街1巷1號","121.646318333333","25.0759916666667","6501100","汐止區"
"221035","622-UM","2018/10/09 19:06:56","新北市汐止區汐萬路一段244-1號","121.651401666667","25.0732216666667","6501100","汐止區"
"221025","623-UM","2018/10/09 19:08:13","新北市汐止區汐萬路一段256巷3號","121.653345","25.07465","6501100","汐止區"
"221038","646-BX","2018/10/09 19:08:12","新北市汐止區康寧街901號","121.651396666667","25.0750133333333","6501100","汐止區"
"221033","647-BX","2018/10/09 19:08:59","新北市汐止區南勢街3號","121.627091666667","25.0374316666667","6501100","汐止區"
"221002","707-TV","2018/10/09 19:07:31","新北市汐止區大同路一段122號","121.630515","25.0545833333333","6501100","汐止區"
"221018","753-BX","2018/10/09 19:08:54","新北市汐止區汐萬路一段256巷3號","121.652428333333","25.0746083333333","6501100","汐止區"
"220079","145-BY","2018/10/09 19:06:41","新北市板橋區民權路260巷59號","121.460098333333","25.01519","6500100","板橋區"
"220080","200-UY","2018/10/09 18:39:10","新北市板橋區大觀路二段265巷72弄35號","121.44097","24.99713","6500100","板橋區"
"220082","610-BX","2018/10/09 19:06:57","新北市板橋區溪崑二街15-3號","121.428931666667","24.9917366666667","6500100","板橋區"
"220101","245-BX","2018/10/09 19:03:47","新北市板橋區莊敬路142-3號","121.471136666667","25.0231616666667","6500100","板橋區"
"220103","257-TC","2018/10/09 19:05:42","新北市板橋區文化路一段188巷9弄8號","121.4679","25.0184033333333","6500100","板橋區"
"220091","267-BY","2018/10/09 19:06:23","新北市板橋區文聖街211號","121.4802","25.026185","6500100","板橋區"
"220056","276-BY","2018/10/09 19:08:53","新北市土城區廣興街2號","121.456898333333","24.9919816666667","6500100","板橋區"
"220072","277-BY","2018/10/09 19:02:57","新北市板橋區金門街369巷57弄8號","121.429225","24.9840466666667","6500100","板橋區"
"220094","283-UM","2018/10/09 19:04:26","新北市板橋區光武街61號","121.467455","25.0256366666667","6500100","板橋區"
"220071","283-VK","2018/10/09 19:05:51","新北市板橋區重慶路245巷50弄32號","121.46532","25.0005566666667","6500100","板橋區"
"220083","286-VK","2018/10/09 19:07:10","新北市板橋區龍興街99巷1號","121.444193333333","25.0027733333333","6500100","板橋區"
"220081","287-VK","2018/10/09 19:05:10","新北市板橋區光華街39巷27號","121.452991666667","25.0129216666667","6500100","板橋區"
"220090","288-VK","2018/10/09 19:05:38","新北市板橋區四維路291巷4弄1號","121.462255","25.0282216666667","6500100","板橋區"
"220061","293-UM","2018/10/09 19:07:30","新北市板橋區中山路二段295巷17號","121.477801666667","25.018755","6500100","板橋區"
"220053","295-UM","2018/10/09 19:05:49","新北市板橋區懷仁街10巷24號","121.475103333333","25.0196666666667","6500100","板橋區"
"220084","296-UM","2018/10/09 19:08:29","新北市板橋區篤行路二段128-2號","121.431025","24.9906216666667","6500100","板橋區"
"220075","303-R5","2018/10/09 19:07:58","新北市板橋區南雅南路一段3巷25-6號","121.456698333333","25.0059866666667","6500100","板橋區"
"220062","305-R5","2018/10/09 19:03:57","新北市板橋區三民路二段245巷4弄10號","121.480946666667","25.0117616666667","6500100","板橋區"
"220092","307-R5","2018/10/09 19:07:50","新北市板橋區文化路二段225巷60弄2號","121.469338333333","25.0285666666667","6500100","板橋區"
"220098","317-R6","2018/10/09 19:06:36","新北市板橋區四維路103巷11號","121.464951666667","25.0241983333333","6500100","板橋區"
"220064","486-VK","2018/10/09 19:06:07","新北市板橋區板新路17號","121.47489","25.0129266666667","6500100","板橋區"
"220089","487-VK","2018/10/09 19:05:51","新北市板橋區文化路二段505巷7號","121.475968333333","25.0346433333333","6500100","板橋區"
"220088","491-VK","2018/10/09 19:05:00","新北市板橋區莊敬路48-2號","121.472673333333","25.027105","6500100","板橋區"
"220063","609-BX","2018/10/09 19:06:34","新北市板橋區三民路二段36號","121.479051666667","25.017855","6500100","板橋區"
"220057","686-BX","2018/10/09 19:03:58","新北市板橋區重慶路235號","121.463003333333","25.0009633333333","6500100","板橋區"
"220077","687-BX","2018/10/09 19:02:25","新北市板橋區大觀路二段140號","121.442893333333","24.9990733333333","6500100","板橋區"
"220093","689-BX","2018/10/09 19:06:40","新北市板橋區民生路三段283號","121.46412","25.030135","6500100","板橋區"
"220054","741-BX","2018/10/09 19:02:25","新北市板橋區重慶路93巷2號","121.462265","25.0056983333333","6500100","板橋區"
"220102","KEA-2699","2018/10/09 19:04:27","新北市板橋區田單街2巷10號","121.481856666667","25.0286516666667","6500100","板橋區"
"220055","827-TW","2018/10/09 19:08:42","新北市板橋區新民街39號","121.464008333333","25.0106233333333","6500100","板橋區"
"220067","829-TW","2018/10/09 19:04:56","新北市板橋區中山路二段90巷43弄19號","121.477035","25.0152516666667","6500100","板橋區"
"220068","830-TW","2018/10/09 19:08:01","新北市板橋區中山路二段443巷53號","121.480943333333","25.0215233333333","6500100","板橋區"
"220096","831-TW","2018/10/09 19:07:37","新北市板橋區雙十路二段33巷16號","121.476145","25.0255416666667","6500100","板橋區"
"220074","895-R6","2018/10/09 19:07:14","新北市板橋區中正路自強新村45-2號","121.45484","25.0138616666667","6500100","板橋區"
"220073","985-R7","2018/10/09 19:03:49","新北市板橋區中正路142號","121.456961666667","25.0160366666667","6500100","板橋區"
"220097","AAC-210","2018/10/09 19:07:11","新北市板橋區英士路199號","121.458861666667","25.0235383333333","6500100","板橋區"
"220070","AAC-253","2018/10/09 19:08:26","新北市板橋區忠孝路20號","121.459971666667","25.0018066666667","6500100","板橋區"
"235068","KEA-2873","2018/10/09 19:08:56","新北市中和區圓通路162巷37弄1號","121.496351666667","24.995295","6500300","中和區"
"235061","KEA-2875","2018/10/09 19:08:03","新北市中和區中山路三段121號","121.474485","25.0061266666667","6500300","中和區"
