"lineid","car","time","location","longitude","latitude","cityid","cityname"
"234046","148-BY","2018/10/09 19:26:53","新北市永和區秀朗路二段151號","121.524938333333","25.00161","6500400","永和區"
"234007","207-UY","2018/10/09 19:24:39","新北市永和區中山路一段80號","121.512161666667","25.0108033333333","6500400","永和區"
"234081","298-R6","2018/10/09 19:16:12","新北市永和區福和路57巷9號","121.523001666667","25.0074166666667","6500400","永和區"
"234038","336-UY","2018/10/09 19:21:47","新北市永和區民樂街49號","121.527445","24.998835","6500400","永和區"
"234064","337-UY","2018/10/09 19:15:05","新北市永和區永元路34號","121.522245","25.000825","6500400","永和區"
"234086","338-UY","2018/10/09 19:23:50","新北市永和區永利路83-1號","121.521333333333","25.003495","6500400","永和區"
"234070","552-UM","2018/10/09 19:21:16","新北市永和區中正路666巷28號","121.517725","25.0090733333333","6500400","永和區"
"234017","745-BX","2018/10/09 19:21:25","新北市永和區環河西路一段95巷19弄3號","121.511738333333","25.0170683333333","6500400","永和區"
"234030","746-BX","2018/10/09 19:22:55","新北市永和區厚德街61-1號","121.525413333333","24.998565","6500400","永和區"
"234054","KEA-2590","2018/10/09 19:28:39","新北市永和區復興街23號","121.516161666667","25.0130833333333","6500400","永和區"
"234013","KEA-2591","2018/10/09 19:17:45","新北市永和區仁愛路135號","121.511701666667","25.0130216666667","6500400","永和區"
"234061","AAD-866","2018/10/09 19:22:55","新北市永和區永貞路176號","121.516546666667","25.004445","6500400","永和區"
"234042","862-TW","2018/10/09 19:19:48","新北市永和區保平路151巷2弄7-2號","121.509678333333","25.005175","6500400","永和區"
"234050","863-TW","2018/10/09 19:24:49","新北市永和區仁愛路102號","121.512078333333","25.01312","6500400","永和區"
"234026","9371-KE","2018/10/09 19:26:52","新北市永和區安樂路46號","121.514653333333","24.99708","6500400","永和區"
"234011","9373-KE","2018/10/09 19:27:52","新北市永和區保福路二段15巷1號","121.510778333333","25.0110433333333","6500400","永和區"
"249003","593-UM","2018/10/09 19:27:00","新北市八里區中山路二段500巷58號","121.39605","25.1492233333333","6502300","八里區"
"248016","026-BX","2018/10/09 19:27:59","新北市五股區凌雲路一段26號","121.45218","25.1006283333333","6501500","五股區"
"248008","095-VK","2018/10/09 19:29:02","新北市五股區中興路一段105號","121.466398333333","25.07314","6501500","五股區"
"248020","225-UY","2018/10/09 19:26:17","新北市五股區凌雲路三段57號","121.425293333333","25.1249916666667","6501500","五股區"
"248012","247-BX","2018/10/09 19:27:27","新北市五股區中興路四段48巷16號","121.438606666667","25.0834316666667","6501500","五股區"
"248014","261-SL","2018/10/09 19:28:01","新北市五股區民義路一段183巷10號","121.431078333333","25.0872683333333","6501500","五股區"
"248010","272-BY","2018/10/09 19:28:02","新北市五股區水碓二路1號","121.43058","25.0712133333333","6501500","五股區"
"248004","677-BX","2018/10/09 19:24:12","新北市五股區五福路144號","121.432118333333","25.0914483333333","6501500","五股區"
"248002","678-BX","2018/10/09 19:27:04","新北市五股區凌雲路一段158巷6號","121.447788333333","25.1030316666667","6501500","五股區"
"234023","9380-KE","2018/10/09 19:20:49","新北市永和區竹林路109巷7號","121.520223333333","25.0120283333333","6500400","永和區"
"234077","969-R7","2018/10/09 19:12:11","新北市永和區民族街25號","121.518826666667","24.9996016666667","6500400","永和區"
"234074","AAC-211","2018/10/09 19:22:13","新北市永和區竹林路78號","121.519191666667","25.0128133333333","6500400","永和區"
"234067","AAC-212","2018/10/09 19:13:43","新北市永和區保平路18巷13號","121.512065","25.007945","6500400","永和區"
"234003","AAC-295","2018/10/09 19:26:05","新北市永和區中山路一段62號","121.51282","25.0107683333333","6500400","永和區"
"244023","069-UM","2018/10/09 19:28:35","新北市林口區民富街99號","121.370578333333","25.0752966666667","6501700","林口區"
"244019","403-UM","2018/10/09 19:27:51","新北市林口區嘉寶里42號","121.334301666667","25.12271","6501700","林口區"
"244025","837-TS","2018/10/09 19:23:37","新北市林口區民族路216巷13號","121.369443333333","25.07733","6501700","林口區"
"243013","AAD-798","2018/10/09 19:25:08","新北市泰山區明志路三段145巷5弄7-1號","121.425471666667","25.0401683333333","6501600","泰山區"
"243009","297-R6","2018/10/09 19:24:54","新北市泰山區明志路一段17號","121.433666666667","25.0658016666667","6501600","泰山區"
"243016","KEA-2801","2018/10/09 19:16:50","新北市泰山區明志路三段81號","121.42503","25.0417283333333","6501600","泰山區"
"243015","421-VK","2018/10/09 19:21:55","新北市泰山區明志路二段81號","121.428796666667","25.0522983333333","6501600","泰山區"
"243011","KEA-2215","2018/10/09 19:25:31","新北市泰山區貴子路76號","121.427075","25.0413183333333","6501600","泰山區"
"243010","KEA-2216","2018/10/09 19:26:39","新北市泰山區民生路17巷39號","121.42949","25.0515716666667","6501600","泰山區"
"243012","646-TV","2018/10/09 19:28:27","新北市泰山區仁愛路6巷4弄2號","121.431021666667","25.0538033333333","6501600","泰山區"
"243014","680-BX","2018/10/09 19:24:37","新北市泰山區泰林路二段65號","121.435283333333","25.0580433333333","6501600","泰山區"
"222003","436-BY","2018/10/09 19:28:51","新北市深坑區深南路51-1號","121.621356666667","25.0096916666667","6501800","深坑區"
"222002","659-BX","2018/10/09 19:24:01","新北市深坑區北深路一段177號","121.632583333333","25.010905","6501800","深坑區"
"231059","001-UM","2018/10/09 19:25:13","新北市新店區安和路三段33-1號","121.516896666667","24.98004","6500600","新店區"
"231041","002-UM","2018/10/09 19:19:21","新北市新店區溪園路247號","121.525438333333","24.9833283333333","6500600","新店區"
"231040","047-UY","2018/10/09 19:21:57","新北市新店區中華路147號","121.538245","24.9703816666667","6500600","新店區"
"231044","106-UY","2018/10/09 19:25:30","新北市新店區中興路三段227號","121.54321","24.9833066666667","6500600","新店區"
"231046","107-UY","2018/10/09 19:27:29","新北市新店區環河路29巷1號","121.536885","24.9613383333333","6500600","新店區"
"231048","187-VK","2018/10/09 19:22:23","新北市新店區中興路二段57巷24號","121.545535","24.9709883333333","6500600","新店區"
"231062","188-VK","2018/10/09 19:26:24","新北市新店區莒光路87巷10號","121.523958333333","24.9556416666667","6500600","新店區"
"231053","189-VK","2018/10/09 19:29:02","新北市新店區新烏路二段200巷11號","121.54766","24.9166116666667","6500600","新店區"
"231054","KEA-2219","2018/10/09 19:25:15","新北市新店區文中路37號","121.539305","24.9568266666667","6500600","新店區"
"231057","256-BX","2018/10/09 19:28:48","新北市新店區花園一路三段45號","121.550606666667","24.9328966666667","6500600","新店區"
"231042","268-BY","2018/10/09 19:27:58","新北市新店區中興路一段34號","121.538643333333","24.9585616666667","6500600","新店區"
"231051","278-BY","2018/10/09 19:27:59","新北市新店區中央五街75號","121.526888333333","24.9759983333333","6500600","新店區"
"231050","AAD-862","2018/10/09 19:24:47","新北市新店區竹林路71-7號","121.553543333333","24.9513316666667","6500600","新店區"
"231058","3713-VJ","2018/10/09 19:28:47","新北市新店區寶橋路85巷23號","121.545351666667","24.9762633333333","6500600","新店區"
"231066","4716-K9","2018/10/09 19:28:25","新北市新店區安康路三段355巷33號","121.48493","24.9498016666667","6500600","新店區"
"231056","4715-K9","2018/10/09 19:27:17","新北市新店區安康路二段414巷2號","121.496015","24.9578616666667","6500600","新店區"
"231065","512-UM","2018/10/09 19:27:04","新北市新店區安祥路109巷3弄6號","121.475411666667","24.959605","6500600","新店區"
"231049","513-UM","2018/10/09 19:28:24","新北市新店區北新路三段65巷12弄15號","121.540708333333","24.981535","6500600","新店區"
"231063","616-UM","2018/10/09 19:28:04","新北市新店區達觀路16號","121.503193333333","24.9407566666667","6500600","新店區"
"231061","619-UM","2018/10/09 19:23:54","新北市新店區安康路一段105號","121.528923333333","24.9616033333333","6500600","新店區"
"231064","719-UM","2018/10/09 19:19:17","新北市新店區安忠路56巷2號","121.512651666667","24.9591033333333","6500600","新店區"
"231060","897-TW","2018/10/09 19:20:17","新北市新店區安康路二段90號","121.51378","24.96321","6500600","新店區"
"231045","898-TW","2018/10/09 19:23:56","新北市新店區北宜路二段38號","121.548646666667","24.95141","6500600","新店區"
"231043","899-TW","2018/10/09 19:23:38","新北市新店區北新路二段173-3號","121.542846666667","24.9768816666667","6500600","新店區"
"231055","AKT-0513","2018/10/09 19:28:05","新北市新店區環河路180-3號","121.53533","24.9691133333333","6500600","新店區"
"241028","022-UY","2018/10/09 19:28:36","新北市三重區中寮街90號","121.493241666667","25.058025","6500200","三重區"
"241008","059-VK","2018/10/09 19:29:01","新北市三重區永福街135巷40號","121.477103333333","25.0772216666667","6500200","三重區"
"241022","060-VK","2018/10/09 19:28:57","新北市三重區三民街157巷2號","121.48379","25.06461","6500200","三重區"
"241026","066-VK","2018/10/09 19:25:59","新北市三重區文化南路47巷37號","121.499301666667","25.0611783333333","6500200","三重區"
"251014","742-BX","2018/10/09 19:26:16","新北市淡水區小中寮19-7號","121.484733333333","25.2295983333333","6501000","淡水區"
"241009","267-UM","2018/10/09 19:28:54","新北市三重區溪尾街242巷69號","121.486048333333","25.0814283333333","6500200","三重區"
"241032","269-UM","2018/10/09 19:28:54","新北市三重區三陽路38號","121.48519","25.05871","6500200","三重區"
"241013","270-UM","2018/10/09 19:27:17","新北市三重區仁愛街101號","121.495635","25.0739283333333","6500200","三重區"
"241025","271-UM","2018/10/09 19:27:50","新北市三重區頂崁街210巷27號","121.47571","25.068125","6500200","三重區"
"241007","398-BY","2018/10/09 19:29:03","新北市三重區溪尾街124-2號","121.489256666667","25.07933","6500200","三重區"
"241035","462-BY","2018/10/09 19:28:01","新北市三重區信義西街1號","121.498083333333","25.064885","6500200","三重區"
"241020","478-VK","2018/10/09 19:28:44","新北市三重區三和路四段20巷22-1號","121.490246666667","25.0736316666667","6500200","三重區"
"241030","480-VK","2018/10/09 19:28:27","新北市三重區成功路41巷13號","121.490323333333","25.0515983333333","6500200","三重區"
"241006","AAD-863","2018/10/09 19:28:55","新北市三重區自強路三段83號","121.48729","25.07476","6500200","三重區"
"241031","743-BX","2018/10/09 19:28:53","新北市三重區集美街4號","121.487615","25.0567016666667","6500200","三重區"
"241029","942-UM","2018/10/09 19:20:44","新北市三重區重安街77號","121.492188333333","25.056025","6500200","三重區"
"235066","003-UY","2018/10/09 19:27:54","新北市中和區中和路108號","121.502903333333","24.9996333333333","6500300","中和區"
"235064","005-UY","2018/10/09 19:28:00","新北市中和區中和路35-1號","121.500086666667","25.0014566666667","6500300","中和區"
"235063","006-UY","2018/10/09 19:28:02","新北市中和區連勝街121巷18弄7號","121.494978333333","24.9943833333333","6500300","中和區"
"235056","096-UM","2018/10/09 19:26:17","新北市中和區員山路511號","121.479876666667","25.0064883333333","6500300","中和區"
"235039","097-UM","2018/10/09 19:28:35","新北市中和區秀峰街119巷8弄4號","121.519418333333","24.9898016666667","6500300","中和區"
"235065","098-UM","2018/10/09 19:28:58","新北市中和區莊敬路35號","121.500591666667","25.00484","6500300","中和區"
"235040","150-BY","2018/10/09 19:25:09","新北市中和區宜安路121號","121.510028333333","24.9979016666667","6500300","中和區"
"235058","151-BY","2018/10/09 19:28:05","新北市中和區員山路36巷16-2號","121.48522","24.99168","6500300","中和區"
"235055","183-VK","2018/10/09 19:28:55","新北市中和區莒光路120巷15弄2號","121.471638333333","25.0011183333333","6500300","中和區"
"235038","185-VK","2018/10/09 19:27:44","新北市中和區立人街27號","121.521208333333","24.9941016666667","6500300","中和區"
"235049","186-VK","2018/10/09 19:23:25","新北市中和區景新街269號","121.509115","24.99376","6500300","中和區"
"235067","255-BX","2018/10/09 19:28:55","新北市中和區員山路124巷48號","121.482691666667","24.996305","6500300","中和區"
"235044","293-VK","2018/10/09 19:26:06","新北市中和區景安路212號","121.503976666667","24.9907633333333","6500300","中和區"
"235072","301-VK","2018/10/09 19:28:09","新北市中和區連城路263巷4弄12號","121.49176","24.995255","6500300","中和區"
"235043","352-BY","2018/10/09 19:28:57","新北市中和區景新街133號","121.506066666667","24.9972316666667","6500300","中和區"
"235042","KEA-2878","2018/10/09 19:28:25","新北市中和區中和路350巷15弄4號","121.510708333333","25.0009966666667","6500300","中和區"
"235050","4979-A6","2018/10/09 19:28:15","新北市中和區中正路406號","121.492546666667","24.994205","6500300","中和區"
"235069","4980-A6","2018/10/09 19:26:53","新北市中和區景平路736巷1弄5號","121.497223333333","25.00399","6500300","中和區"
"235070","558-UM","2018/10/09 19:27:24","新北市中和區連城路2號","121.499163333333","25.00261","6500300","中和區"
"235045","565-BX","2018/10/09 19:28:34","新北市中和區景新街397號","121.512496666667","24.9898316666667","6500300","中和區"
"235054","640-BX","2018/10/09 19:28:25","新北市中和區國光街112巷9號","121.46964","25.0015","6500300","中和區"
"235046","733-UM","2018/10/09 19:28:17","新北市中和區忠孝街37巷30號","121.510878333333","24.9842866666667","6500300","中和區"
"235071","783-BX","2018/10/09 19:28:09","新北市中和區中正路637巷5號","121.484946666667","24.9953416666667","6500300","中和區"
"235057","801-TS","2018/10/09 19:26:00","新北市中和區員山路423巷11號","121.480541666667","25.0030516666667","6500300","中和區"
"235041","802-TS","2018/10/09 19:28:54","新北市中和區中安街122號","121.511091666667","25.000645","6500300","中和區"
"235052","805-TS","2018/10/09 19:26:47","新北市中和區華新街143巷67弄2號","121.507018333333","24.9788633333333","6500300","中和區"
"235048","896-TW","2018/10/09 19:27:07","新北市中和區四維街16號","121.513091666667","24.9872716666667","6500300","中和區"
"235053","900-TW","2018/10/09 19:27:15","新北市中和區華順街58-1號","121.465843333333","24.9986283333333","6500300","中和區"
"235060","911-UM","2018/10/09 19:25:04","新北市中和區員山路266巷31號","121.482555","25.0019883333333","6500300","中和區"
"235051","157-BY","2018/10/09 19:28:39","新北市中和區景新街216號","121.507123333333","24.99516","6500300","中和區"
"235037","AAC-213","2018/10/09 19:23:50","新北市中和區秀朗路三段10巷14弄106號","121.523015","24.9966433333333","6500300","中和區"
"235059","AAC-215","2018/10/09 19:25:20","新北市中和區圓通路252巷18弄1號","121.492345","24.99241","6500300","中和區"
"220035","015-TV","2018/10/09 19:18:28","新北市板橋區中正路360巷43號","121.455905","25.0232383333333","6500100","板橋區"
"220065","072-UY","2018/10/09 19:10:51","新北市板橋區民族路219巷96-1號","121.46959","25.009155","6500100","板橋區"
"220086","073-UY","2018/10/09 19:15:46","新北市板橋區中正路216巷148號","121.460643333333","25.0193916666667","6500100","板橋區"
"220106","075-UY","2018/10/09 19:26:00","新北市板橋區文化路二段417巷1號","121.473756666667","25.0334133333333","6500100","板橋區"
"220069","AAD-861","2018/10/09 19:17:49","新北市板橋區華興街31巷6號","121.458335","25.0042633333333","6500100","板橋區"
"226004","205-ST","2018/10/09 19:27:22","新北市平溪區十分里十分街156號","121.777881666667","25.0433333333333","6502400","平溪區"
"235047","251-BX","2018/10/09 19:28:52","新北市中和區景平路239巷34號","121.508418333333","24.9921883333333","6500300","中和區"
"228001","212-TW","2018/10/09 19:28:18","新北市貢寮區真理里延平街68號","121.925348333333","25.0573866666667","6502600","貢寮區"
"228002","663-BX","2018/10/09 19:25:16","新北市貢寮區龍門里龍門街49號","121.932468333333","25.026285","6502600","貢寮區"
"228003","828-UM","2018/10/09 19:29:00","新北市貢寮區和美里和美街19-2號","121.912755","25.0825966666667","6502600","貢寮區"
"224010","AGQ-8101","2018/10/09 19:20:59","新北市瑞芳區九份中山巷5號","121.843835","25.107885","6501200","瑞芳區"
"224006","676-BX","2018/10/09 19:12:06","新北市瑞芳區中山路252號","121.799826666667","25.1073333333333","6501200","瑞芳區"
"224002","639-TC","2018/10/09 19:27:08","新北市瑞芳區三爪子坑路63號","121.812665","25.1073383333333","6501200","瑞芳區"
"227003","642-TC","2018/10/09 19:25:08","新北市雙溪區雙溪里太平路8號","121.864128333333","25.035105","6502500","雙溪區"
"227009","400-TW","2018/10/09 19:29:03","新北市雙溪區新基里新基北街43號","121.868181666667","25.0396883333333","6502500","雙溪區"
"253006","032-BX","2018/10/09 19:28:11","新北市石門區楓林23-10號","121.539153333333","25.2910066666667","6502200","石門區"
"253005","295-VK","2018/10/09 19:25:43","新北市石門區小坑9號","121.593855","25.2886033333333","6502200","石門區"
"222001","KEA-2212","2018/10/09 19:27:54","新北市深坑區北深路二段123巷1號","121.616783333333","25.0029833333333","6501800","深坑區"
"208001","AAC-292","2018/10/09 19:25:33","新北市金山區金包里街1-4號","121.640141666667","25.2206516666667","6502700","金山區"
"208002","KEA-2872","2018/10/09 19:24:54","新北市金山區中華路131號","121.633178333333","25.2208916666667","6502700","金山區"
"208003","665-BX","2018/10/09 19:14:01","新北市金山區中山路162號","121.638471666667","25.22093","6502700","金山區"
"251005","010-UM","2018/10/09 19:28:35","新北市淡水區水源街一段71巷18號","121.444408333333","25.1729566666667","6501000","淡水區"
"251001","011-UM","2018/10/09 19:28:53","新北市淡水區民權路177號","121.459806666667","25.1354016666667","6501000","淡水區"
"251013","KEA-2871","2018/10/09 19:27:30","新北市淡水區安子內12號","121.480986666667","25.2194516666667","6501000","淡水區"
"251016","179-VK","2018/10/09 19:28:40","新北市淡水區下圭柔山119-51號","121.450698333333","25.20851","6501000","淡水區"
"251015","180-VK","2018/10/09 19:28:54","新北市淡水區山子頂24-1號","121.491366666667","25.18719","6501000","淡水區"
"251008","181-VK","2018/10/09 19:28:36","新北市淡水區中正路一段102號","121.423966666667","25.1778316666667","6501000","淡水區"
"251010","413-VK","2018/10/09 19:25:43","新北市淡水區淡海路184巷5號","121.420583333333","25.18505","6501000","淡水區"
"251012","441-VK","2018/10/09 19:28:00","新北市淡水區崁頂78-5號","121.42927","25.2073283333333","6501000","淡水區"
"251006","561-UM","2018/10/09 19:24:43","新北市淡水區大信街52巷5弄2號","121.441393333333","25.1777133333333","6501000","淡水區"
"251009","575-R6","2018/10/09 19:28:57","新北市淡水區大忠街5巷9號","121.443351666667","25.176585","6501000","淡水區"
"251007","577-R6","2018/10/09 19:27:37","新北市淡水區紅樹林路66號","121.458411666667","25.16203","6501000","淡水區"
"207003","550-UM","2018/10/09 19:27:39","新北市萬里區大鵬里萬里加投191-4號","121.644766666667","25.2142166666667","6502800","萬里區"
"207004","291-VK","2018/10/09 19:21:17","新北市萬里區萬里里瑪鋉路12-3號","121.68763","25.1755616666667","6502800","萬里區"
"252002","178-VK","2018/10/09 19:28:03","新北市三芝區淡金路二段18-1號","121.50268","25.2595","6502100","三芝區"
"252001","292-VK","2018/10/09 19:29:03","新北市三芝區長勤街63-1號","121.500088333333","25.2561333333333","6502100","三芝區"
"237004","KEA-2597","2018/10/09 19:28:30","新北市三峽區有木206號","121.439141666667","24.8514483333333","6500900","三峽區"
"237009","210-TH","2018/10/09 19:27:18","新北市三峽區民權街33號","121.370016666667","24.9340716666667","6500900","三峽區"
"237013","252-BX","2018/10/09 19:21:55","新北市三峽區介壽路一段276巷108弄30號","121.379356666667","24.9277716666667","6500900","三峽區"
"237012","275-BY","2018/10/09 19:28:48","新北市三峽區光明路33號","121.373686666667","24.930885","6500900","三峽區"
"237008","302-VK","2018/10/09 19:28:50","新北市三峽區中正路一段163號","121.373013333333","24.9285883333333","6500900","三峽區"
"237014","433-BY","2018/10/09 19:27:58","新北市三峽區中山路62號","121.368073333333","24.9345483333333","6500900","三峽區"
"237006","5529-G3","2018/10/09 19:28:02","新北市三峽區中正路一段336巷15弄2號","121.369958333333","24.9249533333333","6500900","三峽區"
"237011","KEA-2596","2018/10/09 19:28:49","新北市三峽區中正路一段224號","121.372191666667","24.9275783333333","6500900","三峽區"
"237016","649-BX","2018/10/09 19:26:50","新北市三峽區安坑41-7號","121.45344","24.9315366666667","6500900","三峽區"
"237005","AKY-6261","2018/10/09 19:28:15","新北市三峽區復興路367巷8號","121.36358","24.9380633333333","6500900","三峽區"
"236070","105-UM","2018/10/09 19:25:39","新北市土城區學府路一段129巷2號","121.454206666667","24.9863333333333","6501300","土城區"
"236042","107-UM","2018/10/09 19:27:59","新北市土城區學府路一段239號","121.450365","24.9833583333333","6501300","土城區"
"236079","166-UM","2018/10/09 19:23:18","新北市土城區中州路12巷24號","121.415293333333","24.95759","6501300","土城區"
"236030","253-BX","2018/10/09 19:23:56","新北市土城區城林路6巷80號","121.438505","24.9796","6501300","土城區"
"236026","269-VK","2018/10/09 19:17:30","新北市土城區中央路二段149巷19號","121.442725","24.97668","6501300","土城區"
"236014","270-VK","2018/10/09 19:22:23","新北市土城區學府路一段31號","121.45808","24.9884283333333","6501300","土城區"
"236021","401-BY","2018/10/09 19:26:57","新北市土城區峰廷街18號","121.469001666667","24.9873266666667","6501300","土城區"
"236059","912-UM","2018/10/09 19:24:13","新北市土城區中央路二段280號","121.44075","24.9741433333333","6501300","土城區"
"236049","913-UM","2018/10/09 19:25:26","新北市土城區清水路95號","121.456531666667","24.981765","6501300","土城區"
"242048","497-BY","2018/10/09 19:28:43","新北市新莊區後港一路3號","121.424118333333","25.0263816666667","6500500","新莊區"
"242023","362-BY","2018/10/09 19:28:13","新北市新莊區中港路300號","121.452728333333","25.0447916666667","6500500","新莊區"
"242013","173-VK","2018/10/09 19:28:41","新北市新莊區三和路12-21號","121.442096666667","25.03873","6500500","新莊區"
"242032","348-TH","2018/10/09 19:24:45","新北市新莊區新泰路277巷42號","121.443775","25.04024","6500500","新莊區"
"238023","601-UM","2018/10/09 19:26:12","新北市樹林區三福街63號","121.407805","25.0163933333333","6500700","樹林區"
"238019","599-UM","2018/10/09 19:26:07","新北市樹林區東榮街91巷1弄3號","121.41619","24.98263","6500700","樹林區"
"238018","571-TV","2018/10/09 19:23:29","新北市樹林區中華路229號","121.418718333333","24.9809583333333","6500700","樹林區"
"238024","5061-A6","2018/10/09 19:24:10","新北市樹林區福德街22號","121.40102","24.97575","6500700","樹林區"
"238022","KEA-2213","2018/10/09 19:25:45","新北市樹林區國凱街46號","121.420003333333","24.9786966666667","6500700","樹林區"
"238021","KEA-2539","2018/10/09 19:22:31","新北市樹林區學府路380號","121.380688333333","24.9507883333333","6500700","樹林區"
"238025","303-VK","2018/10/09 19:27:37","新北市樹林區中山路二段110-6號","121.413751666667","24.9831633333333","6500700","樹林區"
"238017","283-BY","2018/10/09 19:26:04","新北市樹林區保安街二段195-2號","121.414045","25.0036416666667","6500700","樹林區"
"238014","282-BY","2018/10/09 19:28:59","新北市樹林區保安二街64巷17號","121.424448333333","24.9964666666667","6500700","樹林區"
"238020","268-VK","2018/10/09 19:27:48","新北市樹林區俊英街184號","121.426103333333","25.00769","6500700","樹林區"
"238026","172-UY","2018/10/09 19:28:59","新北市樹林區柑園街一段367號","121.388676666667","24.9559816666667","6500700","樹林區"
"238016","169-UY","2018/10/09 19:18:27","新北市樹林區備前街25號","121.417336666667","24.9858183333333","6500700","樹林區"
"239007","AAC-297","2018/10/09 19:28:26","新北市鶯歌區大湖路326巷2弄1號","121.345958333333","24.9704066666667","6500800","鶯歌區"
"239006","891-R6","2018/10/09 19:28:24","新北市鶯歌區文化路145巷2號","121.356468333333","24.9542566666667","6500800","鶯歌區"
"239001","417-VK","2018/10/09 19:26:01","新北市鶯歌區尖山埔路120號","121.34405","24.9499433333333","6500800","鶯歌區"
"239003","360-BY","2018/10/09 19:28:59","新北市樹林區中山路三段210-2號","121.380921666667","24.967085","6500800","鶯歌區"
"239002","359-BY","2018/10/09 19:28:46","新北市鶯歌區中山路145號","121.349068333333","24.9569933333333","6500800","鶯歌區"
"221008","489-VK","2018/10/09 19:22:44","新北市汐止區康寧街273號","121.625751666667","25.0670033333333","6501100","汐止區"
"221036","130-UY","2018/10/09 19:29:03","新北市汐止區汐萬路一段256巷1號","121.651726666667","25.0748466666667","6501100","汐止區"
"221015","131-UY","2018/10/09 19:28:03","新北市汐止區汐萬路一段256巷1號","121.651915","25.0748433333333","6501100","汐止區"
"221010","269-BY","2018/10/09 19:28:19","新北市汐止區汐萬路一段312號","121.650618333333","25.0753666666667","6501100","汐止區"
"221012","278-VK","2018/10/09 19:27:44","新北市汐止區保一街79號","121.674478333333","25.0793366666667","6501100","汐止區"
"221023","279-VK","2018/10/09 19:27:01","新北市汐止區康寧街777-1號","121.64525","25.0759266666667","6501100","汐止區"
"221027","281-BY","2018/10/09 19:28:58","新北市汐止區忠孝東路9號","121.658296666667","25.06597","6501100","汐止區"
"221029","297-VK","2018/10/09 19:27:12","新北市汐止區汐萬路一段256巷3號","121.652738333333","25.0745533333333","6501100","汐止區"
"221021","299-VK","2018/10/09 19:28:55","新北市汐止區康寧街901號","121.651513333333","25.074945","6501100","汐止區"
"221025","623-UM","2018/10/09 19:26:10","新北市汐止區大同路二段426號","121.658965","25.06714","6501100","汐止區"
"221038","646-BX","2018/10/09 19:27:52","新北市汐止區汐萬路一段20號","121.655978333333","25.0676066666667","6501100","汐止區"
"221033","647-BX","2018/10/09 19:28:59","新北市汐止區南勢街3號","121.627088333333","25.0374383333333","6501100","汐止區"
"221002","707-TV","2018/10/09 19:28:51","新北市汐止區大同路一段333號","121.638371666667","25.059325","6501100","汐止區"
"220079","145-BY","2018/10/09 19:13:01","新北市板橋區民權路302巷14號","121.45779","25.0164566666667","6500100","板橋區"
"220080","200-UY","2018/10/09 19:23:30","新北市板橋區大觀路二段3巷7號","121.447695","25.0039083333333","6500100","板橋區"
"220082","610-BX","2018/10/09 19:16:17","新北市板橋區滿平街84巷153號","121.426963333333","24.9864583333333","6500100","板橋區"
"220101","245-BX","2018/10/09 19:24:07","新北市板橋區雙十路一段3號","121.478095","25.0240366666667","6500100","板橋區"
"220103","257-TC","2018/10/09 19:13:22","新北市板橋區介壽街84巷6號","121.469905","25.0185283333333","6500100","板橋區"
"220091","267-BY","2018/10/09 19:20:43","新北市板橋區民治街152號","121.47714","25.030655","6500100","板橋區"
"220056","276-BY","2018/10/09 19:21:33","新北市板橋區信義路201號","121.459333333333","24.9916083333333","6500100","板橋區"
"220072","277-BY","2018/10/09 19:13:49","新北市板橋區金門街337巷9弄1號","121.430548333333","24.9846533333333","6500100","板橋區"
"220094","283-UM","2018/10/09 19:11:25","新北市板橋區光武街167號","121.4653","25.0299983333333","6500100","板橋區"
"220071","283-VK","2018/10/09 19:13:11","新北市板橋區重慶路269巷31-3號","121.46429","24.9992666666667","6500100","板橋區"
"220083","286-VK","2018/10/09 19:14:10","新北市板橋區大觀路二段174巷165弄2-1號","121.4416","25.0033983333333","6500100","板橋區"
"220081","287-VK","2018/10/09 19:20:10","新北市板橋區南雅西路一段61號","121.4535","25.0054666666667","6500100","板橋區"
"220090","288-VK","2018/10/09 19:15:58","新北市板橋區四維路349巷16號","121.461616666667","25.0296183333333","6500100","板橋區"
"220061","293-UM","2018/10/09 19:28:05","新北市板橋區中山路二段311號","121.478811666667","25.018575","6500100","板橋區"
"220053","295-UM","2018/10/09 19:13:29","新北市板橋區富山街53巷56號","121.477391666667","25.0205266666667","6500100","板橋區"
"220084","296-UM","2018/10/09 19:19:29","新北市板橋區滿平街108號","121.428383333333","24.9885566666667","6500100","板橋區"
"220075","303-R5","2018/10/09 19:24:58","新北市板橋區中正路289巷10號","121.454968333333","25.019185","6500100","板橋區"
"220062","305-R5","2018/10/09 19:11:57","新北市板橋區三民路二段居仁巷1弄47號","121.480751666667","25.0136933333333","6500100","板橋區"
"220092","307-R5","2018/10/09 19:22:30","新北市板橋區松江街80號","121.468696666667","25.0280383333333","6500100","板橋區"
"220098","317-R6","2018/10/09 19:14:57","新北市板橋區四維路172巷1號","121.464851666667","25.0264233333333","6500100","板橋區"
"220064","486-VK","2018/10/09 19:12:23","新北市板橋區板新路226號","121.468391666667","25.0160516666667","6500100","板橋區"
"220089","487-VK","2018/10/09 19:13:31","新北市板橋區文化路二段231號","121.470945","25.02839","6500100","板橋區"
"220088","491-VK","2018/10/09 19:16:21","新北市板橋區雙十路二段37-1號","121.476795","25.0259583333333","6500100","板橋區"
"220063","609-BX","2018/10/09 19:15:11","新北市板橋區三民路二段202-17號","121.478996666667","25.01349","6500100","板橋區"
"220057","686-BX","2018/10/09 19:13:58","新北市板橋區國慶路203號","121.46332","24.9970033333333","6500100","板橋區"
"220077","687-BX","2018/10/09 19:10:45","新北市板橋區僑中三街2號","121.446961666667","25.0045666666667","6500100","板橋區"
"220093","689-BX","2018/10/09 19:17:00","新北市板橋區文化路一段419號","121.467646666667","25.022555","6500100","板橋區"
"220054","741-BX","2018/10/09 19:13:25","新北市板橋區校前街17號","121.460601666667","25.003185","6500100","板橋區"
"220102","KEA-2699","2018/10/09 19:14:27","新北市板橋區田單街49巷1弄35號","121.482338333333","25.029525","6500100","板橋區"
"220055","827-TW","2018/10/09 19:18:02","新北市板橋區館前東路154號","121.464578333333","25.0078716666667","6500100","板橋區"
"220067","829-TW","2018/10/09 19:17:37","新北市板橋區長安街138巷1弄48號","121.473816666667","25.0100283333333","6500100","板橋區"
"220068","830-TW","2018/10/09 19:21:24","新北市板橋區縣民大道三段209號","121.480038333333","25.025035","6500100","板橋區"
"220096","831-TW","2018/10/09 19:22:56","新北市板橋區大同街35巷15號","121.477448333333","25.0277716666667","6500100","板橋區"
"220074","895-R6","2018/10/09 19:25:54","新北市板橋區北門街8號","121.457723333333","25.0105466666667","6500100","板橋區"
"220073","985-R7","2018/10/09 19:18:29","新北市板橋區新生街70號","121.457815","25.02109","6500100","板橋區"
"220097","AAC-210","2018/10/09 19:18:11","新北市板橋區幸福路32巷3弄10號","121.460838333333","25.0207866666667","6500100","板橋區"
"220070","AAC-253","2018/10/09 19:16:20","新北市板橋區忠孝路146號","121.463868333333","25.0024416666667","6500100","板橋區"
"235068","KEA-2873","2018/10/09 19:25:56","新北市中和區圓通路158巷3-1號","121.497718333333","24.9961833333333","6500300","中和區"
"235061","KEA-2875","2018/10/09 19:28:03","新北市中和區連城路456巷3號","121.478785","24.9949266666667","6500300","中和區"
