"lineid","car","time","location","longitude","latitude","cityid","cityname"
"234046","148-BY","2018/10/09 20:09:18","新北市永和區得和路417號","121.525825","24.9991933333333","6500400","永和區"
"234007","207-UY","2018/10/09 20:08:59","新北市永和區仁愛路264號","121.504428333333","25.0086916666667","6500400","永和區"
"234081","298-R6","2018/10/09 20:09:12","新北市永和區國中路25號","121.524496666667","25.0053066666667","6500400","永和區"
"234038","336-UY","2018/10/09 20:09:02","新北市永和區成功路一段47巷8號","121.527513333333","25.0040533333333","6500400","永和區"
"234064","337-UY","2018/10/09 20:09:05","新北市永和區永元路95巷1號","121.522336666667","25.0018316666667","6500400","永和區"
"234086","338-UY","2018/10/09 20:09:11","新北市永和區福和路233號","121.518473333333","25.0074933333333","6500400","永和區"
"234070","552-UM","2018/10/09 20:09:16","新北市永和區福和路183巷1號","121.520011666667","25.0073133333333","6500400","永和區"
"234017","745-BX","2018/10/09 20:09:06","新北市永和區文化路111號","121.512793333333","25.0152266666667","6500400","永和區"
"234030","746-BX","2018/10/09 20:09:15","新北市永和區民權路1巷34號","121.521938333333","24.9979133333333","6500400","永和區"
"234054","KEA-2590","2018/10/09 20:09:16","新北市永和區博愛街19巷1號","121.517411666667","25.0158416666667","6500400","永和區"
"234013","KEA-2591","2018/10/09 20:09:05","新北市永和區中山路一段236號","121.507251666667","25.0074483333333","6500400","永和區"
"234061","AAD-866","2018/10/09 20:09:15","新北市永和區中正路129巷7號","121.51541","24.9982316666667","6500400","永和區"
"234042","862-TW","2018/10/09 20:09:08","新北市永和區雙和街14號","121.509618333333","25.0020166666667","6500400","永和區"
"234050","863-TW","2018/10/09 20:09:09","新北市永和區環河西路二段107號","121.506413333333","25.0146466666667","6500400","永和區"
"234026","9371-KE","2018/10/09 20:09:12","新北市永和區水源街21巷12號","121.511605","25.0040433333333","6500400","永和區"
"249005","172-UM","2018/10/09 20:09:09","新北市八里區下罟子61-10號","121.386961666667","25.1360733333333","6502300","八里區"
"249001","173-UM","2018/10/09 20:09:20","新北市八里區中華路二段318號","121.403473333333","25.1481433333333","6502300","八里區"
"249004","303-UY","2018/10/09 20:09:02","新北市八里區中山路一段336號","121.41263","25.158915","6502300","八里區"
"249002","305-UY","2018/10/09 20:09:22","新北市八里區龍米路一段30巷10號","121.457053333333","25.1170233333333","6502300","八里區"
"249003","593-UM","2018/10/09 20:09:20","新北市八里區中山路二段540巷9弄6號","121.396758333333","25.147055","6502300","八里區"
"248016","026-BX","2018/10/09 20:09:19","新北市五股區凌雲路一段158巷57弄1號","121.447085","25.1044583333333","6501500","五股區"
"248008","095-VK","2018/10/09 20:09:12","新北市五股區中興路一段3號","121.469733333333","25.0721283333333","6501500","五股區"
"248020","225-UY","2018/10/09 20:09:18","新北市五股區凌雲路三段24巷21號","121.433828333333","25.1067783333333","6501500","五股區"
"248012","247-BX","2018/10/09 20:09:07","新北市五股區六合街118號","121.430271666667","25.090765","6501500","五股區"
"248014","261-SL","2018/10/09 20:09:01","新北市五股區成泰路三段71號","121.443505","25.089685","6501500","五股區"
"248010","272-BY","2018/10/09 20:09:02","新北市五股區成泰路一段7巷66號","121.432566666667","25.0678766666667","6501500","五股區"
"248004","677-BX","2018/10/09 20:09:12","新北市五股區成泰路一段106-1號","121.435685","25.0720566666667","6501500","五股區"
"248002","678-BX","2018/10/09 20:09:04","新北市五股區成泰路三段323-1號","121.448048333333","25.09513","6501500","五股區"
"234077","969-R7","2018/10/09 20:09:11","新北市永和區智光街107巷8號","121.515728333333","24.995985","6500400","永和區"
"234074","AAC-211","2018/10/09 20:09:12","新北市永和區豫溪街185號","121.522471666667","25.01038","6500400","永和區"
"234067","AAC-212","2018/10/09 20:09:03","新北市永和區永貞路358號","121.510231666667","25.00662","6500400","永和區"
"234003","AAC-295","2018/10/09 20:09:05","新北市永和區中正路618-1號","121.517113333333","25.00776","6500400","永和區"
"243013","AAD-798","2018/10/09 20:09:12","新北市泰山區明志路三段74巷8號","121.424443333333","25.041745","6501600","泰山區"
"243009","297-R6","2018/10/09 20:09:14","新北市泰山區泰林路二段116巷3弄1號","121.435068333333","25.0595116666667","6501600","泰山區"
"243016","KEA-2801","2018/10/09 20:09:10","新北市泰山區明志路三段405號","121.421213333333","25.0340333333333","6501600","泰山區"
"243015","421-VK","2018/10/09 20:09:15","新北市泰山區明志路一段350號","121.430828333333","25.0582733333333","6501600","泰山區"
"243011","KEA-2215","2018/10/09 20:09:11","新北市泰山區明志路三段529號","121.420615","25.030045","6501600","泰山區"
"243010","KEA-2216","2018/10/09 20:09:19","新北市泰山區明志路二段214巷16弄41號","121.42688","25.0504283333333","6501600","泰山區"
"243012","646-TV","2018/10/09 20:09:17","新北市泰山區楓江路81號","121.436786666667","25.0634483333333","6501600","泰山區"
"243014","680-BX","2018/10/09 20:09:19","新北市泰山區明志路一段135號","121.433425","25.06306","6501600","泰山區"
"222003","436-BY","2018/10/09 20:09:11","新北市深坑區埔新街67號","121.6201","25.0023966666667","6501800","深坑區"
"222002","659-BX","2018/10/09 20:09:13","新北市深坑區北深路三段160號","121.602653333333","25.0033383333333","6501800","深坑區"
"231059","001-UM","2018/10/09 20:09:13","新北市新店區安成街24號","121.510191666667","24.9608933333333","6500600","新店區"
"231041","002-UM","2018/10/09 20:09:21","新北市新店區中正路468號","121.534013333333","24.9794283333333","6500600","新店區"
"231040","047-UY","2018/10/09 20:09:17","新北市新店區中正路106號","121.5431","24.9706","6500600","新店區"
"231044","106-UY","2018/10/09 20:09:10","新北市新店區寶慶街66號","121.541988333333","24.9868566666667","6500600","新店區"
"231048","187-VK","2018/10/09 20:09:20","新北市新店區寶橋路61號","121.545178333333","24.97506","6500600","新店區"
"231062","188-VK","2018/10/09 20:09:04","新北市新店區華城路12-1號","121.528941666667","24.95789","6500600","新店區"
"231053","189-VK","2018/10/09 20:09:02","新北市新店區新烏路三段寶島巷2弄1號","121.552046666667","24.8986633333333","6500600","新店區"
"231054","KEA-2219","2018/10/09 20:09:11","新北市新店區檳榔路7號","121.541","24.9649016666667","6500600","新店區"
"231057","256-BX","2018/10/09 20:09:08","新北市新店區花園一路一段2號","121.553093333333","24.9324283333333","6500600","新店區"
"231042","268-BY","2018/10/09 20:09:18","新北市新店區中興路二段89號","121.547066666667","24.9714366666667","6500600","新店區"
"231051","278-BY","2018/10/09 20:09:19","新北市新店區中央六街5號","121.53029","24.9745133333333","6500600","新店區"
"231050","AAD-862","2018/10/09 20:09:06","新北市新店區北新路一段335號","121.541855","24.968625","6500600","新店區"
"231058","3713-VJ","2018/10/09 20:09:07","新北市新店區安興路137-1號","121.516166666667","24.9794133333333","6500600","新店區"
"231066","4716-K9","2018/10/09 20:09:12","新北市新店區安德街60巷19-1號","121.510428333333","24.96326","6500600","新店區"
"231056","4715-K9","2018/10/09 20:09:17","新北市新店區中正路275巷45號","121.536733333333","24.9726183333333","6500600","新店區"
"231067","4772-VM","2018/10/09 20:09:02","新北市新店區溪洲路6巷88號","121.533136666667","24.963965","6500600","新店區"
"231065","512-UM","2018/10/09 20:09:04","新北市新店區安祥路106巷124號","121.473688333333","24.9585583333333","6500600","新店區"
"231049","513-UM","2018/10/09 20:09:04","新北市新店區北新路二段171巷9號","121.54215","24.9763683333333","6500600","新店區"
"231063","616-UM","2018/10/09 20:09:04","新北市新店區黎明路55巷1號","121.502371666667","24.9482866666667","6500600","新店區"
"231061","619-UM","2018/10/09 20:09:14","新北市新店區安民街332號","121.517273333333","24.974965","6500600","新店區"
"231068","718-UY","2018/10/09 20:09:08","新北市新店區中興路三段202號","121.543875","24.981995","6500600","新店區"
"231060","897-TW","2018/10/09 20:09:17","新北市新店區安康路三段454號","121.484336666667","24.9512166666667","6500600","新店區"
"231045","898-TW","2018/10/09 20:09:16","新北市新店區北宜路一段143號","121.541075","24.9529433333333","6500600","新店區"
"231043","899-TW","2018/10/09 20:09:18","新北市新店區民族路164號","121.537461666667","24.976585","6500600","新店區"
"231055","AKT-0513","2018/10/09 20:09:06","新北市新店區中華路42巷10號","121.54038","24.9684866666667","6500600","新店區"
"241028","022-UY","2018/10/09 20:09:16","新北市三重區仁化街137號","121.494683333333","25.0575333333333","6500200","三重區"
"241008","059-VK","2018/10/09 20:09:01","新北市三重區永福街197巷27號","121.478593333333","25.0743433333333","6500200","三重區"
"241022","060-VK","2018/10/09 20:09:17","新北市三重區重陽路二段1號","121.486851666667","25.0617716666667","6500200","三重區"
"241015","062-VK","2018/10/09 20:09:04","新北市三重區福德北路43號","121.502303333333","25.0648733333333","6500200","三重區"
"241017","063-VK","2018/10/09 20:09:06","新北市三重區大同北路221巷62號","121.492798333333","25.0666516666667","6500200","三重區"
"241024","065-VK","2018/10/09 20:09:10","新北市三重區中正北路280號","121.480683333333","25.06883","6500200","三重區"
"241026","066-VK","2018/10/09 20:09:19","新北市三重區福德南路65巷1號","121.502365","25.060525","6500200","三重區"
"241002","090-VK","2018/10/09 20:09:18","新北市三重區五華街35巷68號","121.495906666667","25.0819716666667","6500200","三重區"
"241003","091-VK","2018/10/09 20:09:17","新北市三重區富華街18號","121.489573333333","25.08245","6500200","三重區"
"251014","742-BX","2018/10/09 20:09:16","新北市淡水區石頭厝1號","121.458711666667","25.2355066666667","6501000","淡水區"
"241005","262-UM","2018/10/09 20:09:11","新北市三重區溪尾街327號","121.488468333333","25.0849066666667","6500200","三重區"
"241011","265-UM","2018/10/09 20:09:17","新北市三重區秀江街245號","121.496156666667","25.0716766666667","6500200","三重區"
"241016","266-UM","2018/10/09 20:09:12","新北市三重區正義北路28巷49號","121.495845","25.063285","6500200","三重區"
"241009","267-UM","2018/10/09 20:09:14","新北市三重區永福街123號","121.478883333333","25.0770733333333","6500200","三重區"
"241018","268-UM","2018/10/09 20:09:08","新北市三重區正義北路256巷118號","121.49354","25.0678416666667","6500200","三重區"
"241032","269-UM","2018/10/09 20:09:13","新北市三重區捷運路19巷2弄15號","121.484548333333","25.056095","6500200","三重區"
"241013","270-UM","2018/10/09 20:09:17","新北市三重區三和路三段151巷43號","121.493866666667","25.0743316666667","6500200","三重區"
"241025","271-UM","2018/10/09 20:09:10","新北市三重區中正北路428巷35號","121.474543333333","25.0692283333333","6500200","三重區"
"241007","398-BY","2018/10/09 20:09:02","新北市三重區三和路四段111-10號","121.486616666667","25.0775716666667","6500200","三重區"
"241035","462-BY","2018/10/09 20:09:21","新北市三重區平安街3號","121.498908333333","25.0643033333333","6500200","三重區"
"241004","475-VK","2018/10/09 20:09:03","新北市三重區自強路四段80號","121.490586666667","25.0789033333333","6500200","三重區"
"241020","478-VK","2018/10/09 20:09:04","新北市三重區三和路三段188號","121.492025","25.0736133333333","6500200","三重區"
"241030","480-VK","2018/10/09 20:09:07","新北市三重區成功路145巷28號","121.487531666667","25.0530983333333","6500200","三重區"
"241014","543-UM","2018/10/09 20:08:51","新北市三重區長樂街90號","121.501321666667","25.06952","6500200","三重區"
"241023","545-UM","2018/10/09 20:08:57","新北市三重區頂崁街212號","121.477091666667","25.0677516666667","6500200","三重區"
"241001","547-UM","2018/10/09 20:09:11","新北市三重區三和路四段89巷22號","121.489975","25.075985","6500200","三重區"
"241019","KEA-2593","2018/10/09 20:09:20","新北市三重區自強路二段33巷64-3號","121.490965","25.0699766666667","6500200","三重區"
"241006","AAD-863","2018/10/09 20:09:15","新北市三重區車路頭街135-1號","121.484283333333","25.0761616666667","6500200","三重區"
"241031","743-BX","2018/10/09 20:09:13","新北市三重區過圳街9-1號","121.48876","25.06011","6500200","三重區"
"241012","941-UM","2018/10/09 20:09:01","新北市三重區仁愛街125巷95號","121.498355","25.0761866666667","6500200","三重區"
"241029","942-UM","2018/10/09 20:09:03","新北市三重區光明路32巷14號","121.491698333333","25.0586483333333","6500200","三重區"
"241033","AAC-255","2018/10/09 20:09:22","新北市三重區光復路一段68巷2號","121.471806666667","25.0492883333333","6500200","三重區"
"235066","003-UY","2018/10/09 20:09:06","新北市中和區水源路119號","121.508091666667","25.0036566666667","6500300","中和區"
"235056","096-UM","2018/10/09 20:09:17","新北市中和區民享街30巷1號","121.474025","25.003535","6500300","中和區"
"235039","097-UM","2018/10/09 20:09:18","新北市中和區大勇街25巷5號","121.517003333333","24.9932266666667","6500300","中和區"
"235065","098-UM","2018/10/09 20:09:18","新北市中和區永和路78號","121.497655","25.0050616666667","6500300","中和區"
"235040","150-BY","2018/10/09 20:09:16","新北市中和區保健路51號","121.509295","24.997425","6500300","中和區"
"235058","151-BY","2018/10/09 20:09:05","新北市中和區員山路72號","121.480845","24.99368","6500300","中和區"
"247012","KEA-2869","2018/10/09 20:09:09","新北市蘆洲區民族路252號","121.479103333333","25.0887433333333","6501400","蘆洲區"
"235050","4979-A6","2018/10/09 20:09:15","新北市中和區安樂路37號","121.511901666667","24.9930416666667","6500300","中和區"
"235069","4980-A6","2018/10/09 20:09:13","新北市中和區景新街64巷7弄10號","121.504428333333","24.9985516666667","6500300","中和區"
"235070","558-UM","2018/10/09 20:09:04","新北市中和區圓通路208號","121.49612","24.9939966666667","6500300","中和區"
"235054","640-BX","2018/10/09 20:09:05","新北市中和區中山路三段89號","121.47551","25.006005","6500300","中和區"
"235046","733-UM","2018/10/09 20:09:17","新北市中和區忠孝街76號","121.512098333333","24.9842466666667","6500300","中和區"
"235051","157-BY","2018/10/09 20:09:19","新北市中和區景安路220巷20號","121.502738333333","24.9914383333333","6500300","中和區"
"235037","AAC-213","2018/10/09 20:09:10","新北市中和區秀朗路三段128巷17弄41號","121.522893333333","24.9931866666667","6500300","中和區"
"235059","AAC-215","2018/10/09 20:09:20","新北市中和區圓通路335巷33弄35號","121.493791666667","24.9887966666667","6500300","中和區"
"220069","AAD-861","2018/10/09 20:09:09","新北市板橋區貴興路111號","121.455853333333","25.00255","6500100","板橋區"
"247002","893-R6","2018/10/09 20:09:18","新北市蘆洲區長榮路317號","121.459208333333","25.08631","6501400","蘆洲區"
"247024","500-BY","2018/10/09 20:09:05","新北市蘆洲區光榮路120巷8弄23號","121.464996666667","25.08819","6501400","蘆洲區"
"247014","339-TH","2018/10/09 20:09:16","新北市蘆洲區中山二路263號","121.469748333333","25.0796383333333","6501400","蘆洲區"
"247006","337-TH","2018/10/09 20:09:06","新北市蘆洲區中山二路300巷2號","121.468633333333","25.0771016666667","6501400","蘆洲區"
"247008","336-TH","2018/10/09 20:09:02","新北市蘆洲區中山一路195號","121.474396666667","25.08109","6501400","蘆洲區"
"247020","057-VK","2018/10/09 20:09:02","新北市蘆洲區民義街68巷30號","121.474185","25.0892533333333","6501400","蘆洲區"
"247010","056-VK","2018/10/09 20:09:11","新北市蘆洲區信義路132-1號","121.479608333333","25.0827916666667","6501400","蘆洲區"
"247018","007-UY","2018/10/09 20:09:17","新北市蘆洲區民族路314巷1號","121.477286666667","25.09014","6501400","蘆洲區"
"247022","001-UY","2018/10/09 20:09:05","新北市蘆洲區三民路171巷2號","121.470803333333","25.0870366666667","6501400","蘆洲區"
"226004","205-ST","2018/10/09 20:09:02","新北市平溪區十分里十分街311號","121.77514","25.0435116666667","6502400","平溪區"
"224010","AGQ-8101","2018/10/09 20:09:18","新北市瑞芳區汽車路30號","121.845555","25.1101783333333","6501200","瑞芳區"
"224002","639-TC","2018/10/09 20:09:07","新北市瑞芳區中山路318號","121.796868333333","25.1100083333333","6501200","瑞芳區"
"222001","KEA-2212","2018/10/09 20:09:14","新北市深坑區北深路三段212號","121.601171666667","25.0037833333333","6501800","深坑區"
"208003","665-BX","2018/10/09 20:09:01","新北市金山區海興路6-1號","121.629836666667","25.237185","6502700","金山區"
"251005","010-UM","2018/10/09 20:09:16","新北市淡水區學府路102巷137號","121.454025","25.1713216666667","6501000","淡水區"
"251001","011-UM","2018/10/09 20:09:13","新北市淡水區新市二路四段265號","121.445708333333","25.1925083333333","6501000","淡水區"
"251013","KEA-2871","2018/10/09 20:09:10","新北市淡水區奎柔山路460號","121.463786666667","25.2046366666667","6501000","淡水區"
"251016","179-VK","2018/10/09 20:09:20","新北市淡水區番子田18-1號","121.456746666667","25.2294133333333","6501000","淡水區"
"251015","180-VK","2018/10/09 20:09:14","新北市淡水區淡金路二段600號","121.446716666667","25.19249","6501000","淡水區"
"251008","181-VK","2018/10/09 20:09:17","新北市淡水區沙崙路131巷11號","121.421903333333","25.18299","6501000","淡水區"
"251010","413-VK","2018/10/09 20:09:03","新北市淡水區崁頂五路303號","121.424503333333","25.198465","6501000","淡水區"
"251012","441-VK","2018/10/09 20:09:20","新北市淡水區淡金路三段266號","121.448955","25.2065833333333","6501000","淡水區"
"251004","443-VK","2018/10/09 20:09:17","新北市淡水區民族路29巷60號","121.461898333333","25.1367483333333","6501000","淡水區"
"251006","561-UM","2018/10/09 20:09:03","新北市淡水區北新路141巷29號","121.448175","25.1796433333333","6501000","淡水區"
"251009","575-R6","2018/10/09 20:09:18","新北市淡水區中山路46-1號","121.444383333333","25.1702866666667","6501000","淡水區"
"251003","673-BX","2018/10/09 20:09:20","新北市淡水區中山北路二段189巷15弄29號","121.44337","25.18422","6501000","淡水區"
"207003","550-UM","2018/10/09 20:09:18","新北市萬里區大鵬里萬里加投186號","121.642833333333","25.2156533333333","6502800","萬里區"
"207004","291-VK","2018/10/09 20:09:17","新北市萬里區北基里愛三街11號","121.681786666667","25.176665","6502800","萬里區"
"252002","178-VK","2018/10/09 20:09:03","新北市三芝區中正路一段72號","121.503985","25.2576566666667","6502100","三芝區"
"252001","292-VK","2018/10/09 20:09:03","新北市三芝區公正街9號","121.499708333333","25.2574916666667","6502100","三芝區"
"237004","KEA-2597","2018/10/09 20:09:10","新北市三峽區中正路一段231號","121.371951666667","24.9269066666667","6500900","三峽區"
"237006","5529-G3","2018/10/09 20:09:02","新北市三峽區中正路二段299巷3號","121.366493333333","24.9109533333333","6500900","三峽區"
"237016","649-BX","2018/10/09 20:09:10","新北市三峽區介壽路二段138巷1弄21號","121.39648","24.9335833333333","6500900","三峽區"
"236070","105-UM","2018/10/09 20:09:19","新北市土城區中央路三段183-9號","121.431421666667","24.9648683333333","6501300","土城區"
"236042","107-UM","2018/10/09 20:09:19","新北市土城區學成路22巷1弄1號","121.453138333333","24.9871266666667","6501300","土城區"
"236079","166-UM","2018/10/09 20:09:17","新北市土城區慶安街8-1號","121.422033333333","24.9646833333333","6501300","土城區"
"236030","253-BX","2018/10/09 20:09:16","新北市土城區中央路一段116號","121.44638","24.9881233333333","6501300","土城區"
"236026","269-VK","2018/10/09 20:09:16","新北市土城區中央路一段287號","121.444428333333","24.9843833333333","6501300","土城區"
"236014","270-VK","2018/10/09 20:09:03","新北市土城區廣興街39號","121.454981666667","24.99159","6501300","土城區"
"236038","271-VK","2018/10/09 20:09:03","新北市土城區延吉街353巷10號","121.464556666667","24.9834716666667","6501300","土城區"
"236021","401-BY","2018/10/09 20:09:17","新北市土城區和城路二段255巷66-1號","121.474833333333","24.9873733333333","6501300","土城區"
"236059","912-UM","2018/10/09 20:09:14","新北市土城區光明街4號","121.441951666667","24.9746016666667","6501300","土城區"
"236049","913-UM","2018/10/09 20:09:02","新北市土城區清水路340號","121.46415","24.9858616666667","6501300","土城區"
"236055","AAC-216","2018/10/09 20:09:16","新北市土城區中華路一段166號","121.441475","24.9832033333333","6501300","土城區"
"242037","AAC-296","2018/10/09 20:08:53","新北市新莊區建安街9巷3-1號","121.429038333333","25.0267133333333","6500500","新莊區"
"242058","986-R7","2018/10/09 20:09:15","新北市新莊區八德街81號","121.424676666667","25.0217716666667","6500500","新莊區"
"242029","705-TV","2018/10/09 20:09:19","新北市新莊區中原路319-1號","121.446583333333","25.0543533333333","6500500","新莊區"
"242027","615-BX","2018/10/09 20:09:03","新北市新莊區幸福路829號","121.444871666667","25.04896","6500500","新莊區"
"242025","613-BX","2018/10/09 20:09:17","新北市新莊區五權一路12巷25弄19號","121.45848","25.06469","6500500","新莊區"
"242044","566-BX","2018/10/09 20:09:19","桃園市龜山區萬壽路一段21巷8號","121.41056","25.0203533333333","6500500","新莊區"
"242048","497-BY","2018/10/09 20:09:03","新北市新莊區四維路182巷8號","121.421863333333","25.021835","6500500","新莊區"
"242011","442-UM","2018/10/09 20:09:05","新北市新莊區中信街52號","121.449291666667","25.050845","6500500","新莊區"
"242054","441-UM","2018/10/09 20:09:04","新北市新莊區民安西路299號","121.426635","25.0117716666667","6500500","新莊區"
"242009","413-TV","2018/10/09 20:09:13","新北市新莊區昌隆街42號","121.45445","25.0508783333333","6500500","新莊區"
"242046","400-BY","2018/10/09 20:09:16","新北市新莊區富國路66巷5號","121.41977","25.0253766666667","6500500","新莊區"
"242023","362-BY","2018/10/09 20:09:06","新北市新莊區化成路313號","121.466001666667","25.0555833333333","6500500","新莊區"
"242061","353-BY","2018/10/09 20:09:17","新北市新莊區瓊林路100巷1號","121.443465","25.0264333333333","6500500","新莊區"
"242042","133-UY","2018/10/09 20:09:10","新北市新莊區壽山路61-1號","121.410228333333","25.03267","6500500","新莊區"
"242034","135-UY","2018/10/09 20:09:08","新北市新莊區中正路316號","121.44635","25.0351483333333","6500500","新莊區"
"242051","172-VK","2018/10/09 20:09:15","新北市新莊區民安西路188號","121.426025","25.01561","6500500","新莊區"
"242013","173-VK","2018/10/09 20:09:22","新北市新莊區幸福路710巷6弄2號","121.450196666667","25.0497716666667","6500500","新莊區"
"242019","175-VK","2018/10/09 20:09:19","新北市新莊區博愛路2巷2號","121.456535","25.0427666666667","6500500","新莊區"
"242007","176-VK","2018/10/09 20:09:06","新北市新莊區福壽街124巷41弄14號","121.459281666667","25.0517633333333","6500500","新莊區"
"242017","346-TH","2018/10/09 20:09:17","新北市新莊區中港一街10號","121.451708333333","25.0456716666667","6500500","新莊區"
"242002","347-TH","2018/10/09 20:09:08","新北市新莊區中正路11號","121.46412","25.0410983333333","6500500","新莊區"
"242032","348-TH","2018/10/09 20:09:04","新北市新莊區中正路380號","121.443013333333","25.0341283333333","6500500","新莊區"
"242005","349-TH","2018/10/09 20:09:13","新北市新莊區頭興街7巷1號","121.462655","25.0536166666667","6500500","新莊區"
"242021","350-TH","2018/10/09 20:09:03","新北市新莊區中興街9號","121.449256666667","25.0360566666667","6500500","新莊區"
"242015","351-TH","2018/10/09 20:09:07","新北市新莊區中平路26巷44號","121.446755","25.0433","6500500","新莊區"
"221008","489-VK","2018/10/09 20:09:04","台北市內湖區康樂街87號","121.618738333333","25.0696233333333","6501100","汐止區"
"221036","130-UY","2018/10/09 20:09:03","新北市汐止區新台五路二段37號","121.663123333333","25.06632","6501100","汐止區"
"221015","131-UY","2018/10/09 20:09:03","新北市汐止區建成路40號","121.663995","25.0727616666667","6501100","汐止區"
"221010","269-BY","2018/10/09 20:09:19","新北市汐止區八連路一段317號","121.639683333333","25.086045","6501100","汐止區"
"221012","278-VK","2018/10/09 20:06:24","新北市汐止區汐平路一段149號","121.691731666667","25.0665183333333","6501100","汐止區"
"221023","279-VK","2018/10/09 20:09:20","新北市汐止區明峰街298巷3弄2號","121.625073333333","25.0682933333333","6501100","汐止區"
"221032","280-BY","2018/10/09 20:09:05","新北市汐止區弘道街8巷5弄1號","121.61716","25.047945","6501100","汐止區"
"221027","281-BY","2018/10/09 20:09:18","新北市汐止區光明街18號","121.66052","25.06867","6501100","汐止區"
"221029","297-VK","2018/10/09 20:09:12","新北市汐止區樟樹一路119巷8-6號","121.64129","25.0644883333333","6501100","汐止區"
"221021","299-VK","2018/10/09 20:09:15","新北市汐止區連興街140號","121.653995","25.0615283333333","6501100","汐止區"
"221031","353-TW","2018/10/09 20:09:12","新北市汐止區福德二路94-1號","121.632626666667","25.066135","6501100","汐止區"
"221035","622-UM","2018/10/09 20:09:16","新北市汐止區長江街79巷12號","121.657735","25.0728566666667","6501100","汐止區"
"221025","623-UM","2018/10/09 20:09:13","新北市汐止區秀峰路60號","121.659731666667","25.064725","6501100","汐止區"
"221038","646-BX","2018/10/09 20:09:12","新北市汐止區忠孝東路517號","121.666916666667","25.075645","6501100","汐止區"
"221033","647-BX","2018/10/09 20:09:19","新北市汐止區東勢街201巷104號","121.63349","25.0428866666667","6501100","汐止區"
"221002","707-TV","2018/10/09 20:09:11","新北市汐止區工建路202號","121.636348333333","25.062995","6501100","汐止區"
"220080","200-UY","2018/10/09 20:08:30","新北市板橋區大觀路二段185號","121.444705","24.999805","6500100","板橋區"
"220101","245-BX","2018/10/09 20:09:07","新北市板橋區莊敬路39號","121.473285","25.027145","6500100","板橋區"
"220103","257-TC","2018/10/09 20:09:02","新北市板橋區自由路22號","121.465546666667","25.022675","6500100","板橋區"
"220083","286-VK","2018/10/09 20:09:10","新北市板橋區僑中二街86號","121.446481666667","25.0094766666667","6500100","板橋區"
"220081","287-VK","2018/10/09 20:09:17","新北市板橋區僑中一街124巷20弄29號","121.447355","25.013905","6500100","板橋區"
"220061","293-UM","2018/10/09 20:09:10","新北市板橋區觀光街4巷2弄2號","121.472233333333","25.015735","6500100","板橋區"
"220084","296-UM","2018/10/09 20:09:09","新北市樹林區中華路1-8號","121.425948333333","24.9845683333333","6500100","板橋區"
"242039","281-VK","2018/10/09 20:09:13","新北市新莊區民安西路109號","121.426861666667","25.01837","6500500","新莊區"
"220092","307-R5","2018/10/09 20:09:10","新北市板橋區文化路一段109號","121.461663333333","25.0143616666667","6500100","板橋區"
"220064","486-VK","2018/10/09 20:09:03","新北市板橋區長安街331巷28號","121.473851666667","25.01265","6500100","板橋區"
"220089","487-VK","2018/10/09 20:09:11","新北市板橋區互助街68號","121.461051666667","25.0266166666667","6500100","板橋區"
"220088","491-VK","2018/10/09 20:09:21","新北市板橋區民治街59號","121.479541666667","25.0332483333333","6500100","板橋區"
"220093","689-BX","2018/10/09 20:09:20","新北市板橋區長江路二段197號","121.467306666667","25.0321966666667","6500100","板橋區"
"220102","KEA-2699","2018/10/09 20:09:07","新北市板橋區民治街136號","121.477625","25.0307983333333","6500100","板橋區"
"220055","827-TW","2018/10/09 20:09:02","新北市板橋區仁愛路84號","121.460911666667","24.9996366666667","6500100","板橋區"
"220067","829-TW","2018/10/09 20:09:17","新北市板橋區中山路一段262號","121.471741666667","25.0146833333333","6500100","板橋區"
"220068","830-TW","2018/10/09 20:09:04","新北市板橋區中山路二段284號","121.479515","25.0187916666667","6500100","板橋區"
"220097","AAC-210","2018/10/09 20:09:11","新北市板橋區建國街125號","121.460895","25.017655","6500100","板橋區"
"220070","AAC-253","2018/10/09 20:09:00","新北市板橋區德興街33號","121.45348","24.9938816666667","6500100","板橋區"
"235068","KEA-2873","2018/10/09 20:08:56","新北市中和區永和路39巷14號","121.497506666667","25.005","6500300","中和區"
