"lineid","car","time","location","longitude","latitude","cityid","cityname"
"234081","298-R6","2018/10/09 20:39:12","新北市永和區永貞路82號","121.520246666667","25.0050016666667","6500400","永和區"
"234064","337-UY","2018/10/09 20:39:05","新北市永和區永利路156號","121.522595","25.0029383333333","6500400","永和區"
"234030","746-BX","2018/10/09 20:39:15","新北市新店區安興路83-8號","121.515331666667","24.975775","6500400","永和區"
"234061","AAD-866","2018/10/09 20:39:15","新北市永和區秀朗路一段183號","121.51736","25.00357","6500400","永和區"
"249001","173-UM","2018/10/09 20:39:20","新北市八里區中山路三段335號","121.37739","25.1387733333333","6502300","八里區"
"249004","303-UY","2018/10/09 20:39:22","新北市八里區中山路一段89號","121.416475","25.1592983333333","6502300","八里區"
"249003","593-UM","2018/10/09 20:39:20","新北市林口區汕頭32號","121.366298333333","25.1348166666667","6502300","八里區"
"234074","AAC-211","2018/10/09 20:39:13","新北市永和區竹林路119巷22弄4號","121.521445","25.0115366666667","6500400","永和區"
"243015","421-VK","2018/10/09 20:39:15","新北市泰山區橫窠雅36號","121.403248333333","25.0714","6501600","泰山區"
"243011","KEA-2215","2018/10/09 20:39:11","新北市泰山區公園路80號","121.423683333333","25.0559116666667","6501600","泰山區"
"243012","646-TV","2018/10/09 20:39:17","新北市泰山區泰林路三段778號","121.401525","25.0724083333333","6501600","泰山區"
"222003","436-BY","2018/10/09 20:39:21","新北市深坑區麻竹寮2-9號","121.614196666667","24.9989466666667","6501800","深坑區"
"222002","659-BX","2018/10/09 20:39:00","新北市深坑區萬福路43號","121.599358333333","25.0068383333333","6501800","深坑區"
"231059","001-UM","2018/10/09 20:39:22","新北市新店區僑信路132巷23號","121.500045","24.9454416666667","6500600","新店區"
"231041","002-UM","2018/10/09 20:39:01","新北市新店區中正路695巷2號","121.533991666667","24.99056","6500600","新店區"
"231040","047-UY","2018/10/09 20:39:17","新北市新店區中正路263號","121.538541666667","24.97345","6500600","新店區"
"231044","106-UY","2018/10/09 20:39:10","新北市新店區建國路291巷1號","121.536998333333","24.9855583333333","6500600","新店區"
"231048","187-VK","2018/10/09 20:39:03","新北市新店區寶慶街75號","121.541531666667","24.9866283333333","6500600","新店區"
"231062","188-VK","2018/10/09 20:39:04","新北市新店區安泰路60巷87號","121.484135","24.9444516666667","6500600","新店區"
"231053","189-VK","2018/10/09 20:39:22","新北市新店區松林路1號","121.546898333333","24.912045","6500600","新店區"
"231054","KEA-2219","2018/10/09 20:39:15","新北市新店區行政街26號","121.542868333333","24.9656266666667","6500600","新店區"
"231057","256-BX","2018/10/09 20:39:08","新北市新店區花園六路三段2號","121.556393333333","24.9328433333333","6500600","新店區"
"231042","268-BY","2018/10/09 20:39:18","新北市新店區寶橋路230號","121.551551666667","24.9788266666667","6500600","新店區"
"231051","278-BY","2018/10/09 20:39:19","新北市新店區中央七街99號","121.526226666667","24.977365","6500600","新店區"
"231050","AAD-862","2018/10/09 20:39:06","新北市新店區中正路265號","121.538126666667","24.97391","6500600","新店區"
"231058","3713-VJ","2018/10/09 20:39:07","新北市新店區平等街55號","121.536148333333","24.9727966666667","6500600","新店區"
"231066","4716-K9","2018/10/09 20:39:12","新北市新店區安興路105-1號","121.51469","24.9777416666667","6500600","新店區"
"231056","4715-K9","2018/10/09 20:39:17","新北市新店區中央七街61巷6號","121.528463333333","24.9764983333333","6500600","新店區"
"231067","4772-VM","2018/10/09 20:39:02","新北市新店區安華路28-1號","121.519765","24.9608733333333","6500600","新店區"
"231065","512-UM","2018/10/09 20:39:06","新北市新店區安祥路102巷98弄1號","121.487286666667","24.96388","6500600","新店區"
"231049","513-UM","2018/10/09 20:39:04","新北市新店區永業路81巷3弄1號","121.529881666667","24.9492116666667","6500600","新店區"
"231063","616-UM","2018/10/09 20:39:04","新北市新店區玫瑰路4-1號","121.493611666667","24.9513983333333","6500600","新店區"
"231061","619-UM","2018/10/09 20:39:14","新北市新店區新和街36號","121.519306666667","24.9848916666667","6500600","新店區"
"231068","718-UY","2018/10/09 20:39:08","新北市新店區寶元路一段85巷10號","121.543136666667","24.9860416666667","6500600","新店區"
"231064","719-UM","2018/10/09 20:39:17","新北市新店區安和路三段173號","121.515845","24.98614","6500600","新店區"
"231060","897-TW","2018/10/09 20:39:17","新北市新店區安康路三段740號","121.473798333333","24.941995","6500600","新店區"
"231045","898-TW","2018/10/09 20:39:16","新北市新店區長春路62號","121.551046666667","24.9579883333333","6500600","新店區"
"231043","899-TW","2018/10/09 20:39:18","新北市新店區建國路6-1號","121.53991","24.973435","6500600","新店區"
"241028","022-UY","2018/10/09 20:39:16","新北市三重區光興街91號","121.497368333333","25.059975","6500200","三重區"
"241008","059-VK","2018/10/09 20:39:01","新北市三重區下竹圍街42-1號","121.481003333333","25.074875","6500200","三重區"
"241022","060-VK","2018/10/09 20:39:17","新北市三重區中山路33巷27-5號","121.487923333333","25.0622383333333","6500200","三重區"
"241015","062-VK","2018/10/09 20:39:03","新北市三重區文化北路103號","121.497921666667","25.06842","6500200","三重區"
"241017","063-VK","2018/10/09 20:39:15","新北市三重區安慶街270號","121.490681666667","25.067495","6500200","三重區"
"241024","065-VK","2018/10/09 20:39:10","新北市三重區三民街220號","121.480228333333","25.0671766666667","6500200","三重區"
"241026","066-VK","2018/10/09 20:39:18","新北市三重區文化南路7號","121.500051666667","25.06237","6500200","三重區"
"241002","090-VK","2018/10/09 20:38:59","新北市三重區仁義街167巷6號","121.497291666667","25.0817116666667","6500200","三重區"
"241003","091-VK","2018/10/09 20:39:17","新北市三重區五華街141巷60號","121.49355","25.086745","6500200","三重區"
"251014","742-BX","2018/10/09 20:39:17","新北市淡水區公埔子29號","121.463123333333","25.2327216666667","6501000","淡水區"
"241005","262-UM","2018/10/09 20:39:11","新北市三重區仁義街288號","121.493591666667","25.0861616666667","6500200","三重區"
"241011","265-UM","2018/10/09 20:39:17","新北市三重區龍濱路285號","121.501063333333","25.0733483333333","6500200","三重區"
"241016","266-UM","2018/10/09 20:39:12","新北市三重區長壽西街143-3號","121.494315","25.0667383333333","6500200","三重區"
"241009","267-UM","2018/10/09 20:39:13","新北市三重區碧華街51號","121.484698333333","25.0812616666667","6500200","三重區"
"241018","268-UM","2018/10/09 20:39:08","新北市三重區重陽路三段115號","121.490943333333","25.06865","6500200","三重區"
"241032","269-UM","2018/10/09 20:39:13","新北市三重區重陽路一段120巷35號","121.485156666667","25.06022","6500200","三重區"
"241013","270-UM","2018/10/09 20:39:17","新北市三重區三和路四段128號","121.489055","25.0752433333333","6500200","三重區"
"241025","271-UM","2018/10/09 20:39:10","新北市三重區金華街82號","121.476845","25.0652716666667","6500200","三重區"
"241007","398-BY","2018/10/09 20:39:02","新北市三重區三和路四段101巷20號","121.488755","25.0771633333333","6500200","三重區"
"241035","462-BY","2018/10/09 20:39:01","新北市三重區正義北路310-2號","121.49503","25.0701083333333","6500200","三重區"
"241004","475-VK","2018/10/09 20:39:03","新北市三重區仁愛街394號","121.49085","25.081005","6500200","三重區"
"241020","478-VK","2018/10/09 20:39:04","新北市三重區忠孝路一段101號","121.48949","25.0721683333333","6500200","三重區"
"241030","480-VK","2018/10/09 20:39:08","新北市三重區成功路73巷12號","121.489405","25.051905","6500200","三重區"
"241014","543-UM","2018/10/09 20:39:11","新北市三重區萬壽街1號","121.499208333333","25.0693033333333","6500200","三重區"
"241023","545-UM","2018/10/09 20:39:17","新北市三重區自由街41號","121.478911666667","25.0668916666667","6500200","三重區"
"241001","547-UM","2018/10/09 20:39:12","新北市三重區三和路四段160巷82號","121.485715","25.074615","6500200","三重區"
"241019","KEA-2593","2018/10/09 20:39:00","新北市三重區忠孝路一段10巷24號","121.49152","25.071375","6500200","三重區"
"241006","AAD-863","2018/10/09 20:39:15","新北市三重區車路頭街139巷14號","121.4843","25.0762233333333","6500200","三重區"
"241031","743-BX","2018/10/09 20:30:53","新北市三重區重新路四段1號","121.488861666667","25.0585633333333","6500200","三重區"
"241012","941-UM","2018/10/09 20:39:21","新北市三重區龍濱路243巷12號","121.501906666667","25.072785","6500200","三重區"
"241029","942-UM","2018/10/09 20:39:03","新北市三重區集美街126巷27號","121.490045","25.0538566666667","6500200","三重區"
"241033","AAC-255","2018/10/09 20:39:22","新北市三重區光復路二段87巷39弄1號","121.474466666667","25.05796","6500200","三重區"
"247012","KEA-2869","2018/10/09 20:39:08","新北市蘆洲區中興街66號","121.482178333333","25.0879366666667","6501400","蘆洲區"
"235069","4980-A6","2018/10/09 20:39:13","新北市中和區新生街272號","121.483711666667","24.9970066666667","6500300","中和區"
"235059","AAC-215","2018/10/09 20:39:00","新北市中和區員山路49號","121.4813","24.9926916666667","6500300","中和區"
"247002","893-R6","2018/10/09 20:39:18","新北市蘆洲區永樂街83號","121.455768333333","25.0887433333333","6501400","蘆洲區"
"247016","546-UM","2018/10/09 20:39:14","新北市蘆洲區中山二路309號","121.468781666667","25.0774916666667","6501400","蘆洲區"
"247024","500-BY","2018/10/09 20:39:05","新北市蘆洲區長樂路91號","121.462405","25.087195","6501400","蘆洲區"
"247014","339-TH","2018/10/09 20:39:16","新北市蘆洲區中山一路225號","121.473843333333","25.080835","6501400","蘆洲區"
"247006","337-TH","2018/10/09 20:39:10","新北市蘆洲區和平路121巷1號","121.46733","25.07972","6501400","蘆洲區"
"247008","336-TH","2018/10/09 20:39:15","新北市蘆洲區永安北路2段8巷1-1號","121.480481666667","25.0807933333333","6501400","蘆洲區"
"247020","057-VK","2018/10/09 20:39:02","新北市蘆洲區民族路426號","121.473741666667","25.0918166666667","6501400","蘆洲區"
"247022","001-UY","2018/10/09 20:39:18","新北市蘆洲區中正路263巷10號","121.466891666667","25.0871066666667","6501400","蘆洲區"
"222001","KEA-2212","2018/10/09 20:39:14","新北市深坑區北深路三段230號","121.600683333333","25.00396","6501800","深坑區"
"251001","011-UM","2018/10/09 20:39:13","新北市淡水區淡金路一段69號","121.458826666667","25.1730833333333","6501000","淡水區"
"251002","012-UM","2018/10/09 20:39:18","新北市淡水區中正路38-1號","121.443763333333","25.1692733333333","6501000","淡水區"
"251013","KEA-2871","2018/10/09 20:39:10","新北市淡水區行忠路253號","121.459516666667","25.2012133333333","6501000","淡水區"
"251016","179-VK","2018/10/09 20:39:00","新北市淡水區後洲子8-2號","121.449678333333","25.22403","6501000","淡水區"
"251015","180-VK","2018/10/09 20:39:14","新北市淡水區淡金路四段542巷17號","121.45271","25.227075","6501000","淡水區"
"251010","413-VK","2018/10/09 20:39:03","新北市淡水區沙崙路181巷15號","121.423966666667","25.1843483333333","6501000","淡水區"
"251012","441-VK","2018/10/09 20:39:20","新北市淡水區興仁路99號","121.45161","25.2181116666667","6501000","淡水區"
"251006","561-UM","2018/10/09 20:39:03","新北市淡水區商工路186巷27號","121.450728333333","25.1868433333333","6501000","淡水區"
"251007","577-R6","2018/10/09 20:39:17","新北市淡水區忠愛街4號","121.459363333333","25.1713366666667","6501000","淡水區"
"251003","673-BX","2018/10/09 20:39:20","新北市淡水區新民街152巷6弄20號","121.438715","25.1784416666667","6501000","淡水區"
"252002","178-VK","2018/10/09 20:39:03","新北市三芝區淡金路二段47-2號","121.503676666667","25.2605766666667","6502100","三芝區"
"252001","292-VK","2018/10/09 20:39:03","新北市三芝區育英街35號","121.501243333333","25.2570016666667","6502100","三芝區"
"237004","KEA-2597","2018/10/09 20:39:10","新北市樹林區中山路三段214號","121.379726666667","24.9676583333333","6500900","三峽區"
"242037","AAC-296","2018/10/09 20:39:13","新北市新莊區後港一路112號","121.428536666667","25.02698","6500500","新莊區"
"242058","986-R7","2018/10/09 20:39:15","新北市新莊區四維路177號","121.42226","25.0212966666667","6500500","新莊區"
"242056","751-BX","2018/10/09 20:39:02","新北市新莊區瓊泰路94巷46號","121.444855","25.0294416666667","6500500","新莊區"
"242029","705-TV","2018/10/09 20:39:19","新北市新莊區中華路二段81號","121.452766666667","25.0478116666667","6500500","新莊區"
"242027","615-BX","2018/10/09 20:39:02","新北市新莊區思源路59號","121.459873333333","25.0403316666667","6500500","新莊區"
"242025","613-BX","2018/10/09 20:39:17","新北市新莊區化成路579巷1號","121.464411666667","25.066065","6500500","新莊區"
"242044","566-BX","2018/10/09 20:39:19","新北市新莊區龍安路90號","121.41765","25.0207683333333","6500500","新莊區"
"242048","497-BY","2018/10/09 20:39:03","新北市新莊區中正路639號","121.430948333333","25.0314383333333","6500500","新莊區"
"242011","442-UM","2018/10/09 20:39:05","新北市新莊區中榮街122巷1號","121.446588333333","25.0530633333333","6500500","新莊區"
"242054","441-UM","2018/10/09 20:39:04","新北市新莊區民安西路215號","121.425986666667","25.0145683333333","6500500","新莊區"
"242009","413-TV","2018/10/09 20:39:13","新北市新莊區幸福路564巷2弄2號","121.454465","25.0494966666667","6500500","新莊區"
"242046","400-BY","2018/10/09 20:39:16","新北市新莊區裕民街41號","121.418933333333","25.02499","6500500","新莊區"
"242023","362-BY","2018/10/09 20:39:18","新北市新莊區復興路三段50號","121.461765","25.0444816666667","6500500","新莊區"
"242061","353-BY","2018/10/09 20:39:18","新北市新莊區新樹路443號","121.4326","25.0135866666667","6500500","新莊區"
"242042","133-UY","2018/10/09 20:39:15","新北市新莊區天祥街29號","121.41711","25.0282716666667","6500500","新莊區"
"242034","135-UY","2018/10/09 20:39:20","新北市新莊區中正路360號","121.44372","25.03427","6500500","新莊區"
"242051","172-VK","2018/10/09 20:39:18","新北市新莊區民安西路115號","121.426603333333","25.0179166666667","6500500","新莊區"
"242013","173-VK","2018/10/09 20:39:02","新北市新莊區中和街175巷13號","121.447183333333","25.0506766666667","6500500","新莊區"
"242019","175-VK","2018/10/09 20:39:19","新北市新莊區中港路64號","121.455486666667","25.038755","6500500","新莊區"
"242002","347-TH","2018/10/09 20:39:07","新北市新莊區中港路五守新村37巷1號","121.454638333333","25.03887","6500500","新莊區"
"242032","348-TH","2018/10/09 20:39:04","新北市新莊區中正路563號","121.434941666667","25.03259","6500500","新莊區"
"242005","349-TH","2018/10/09 20:39:13","新北市新莊區化成路349巷74號","121.463251666667","25.0565366666667","6500500","新莊區"
"242015","351-TH","2018/10/09 20:39:07","新北市新莊區永樂街254號","121.445523333333","25.0443833333333","6500500","新莊區"
"221008","489-VK","2018/10/09 20:39:04","新北市汐止區康寧街861巷3號","121.645301666667","25.0761066666667","6501100","汐止區"
"221036","130-UY","2018/10/09 20:39:03","新北市汐止區新昌路85號","121.663991666667","25.0691666666667","6501100","汐止區"
"221015","131-UY","2018/10/09 20:39:03","新北市汐止區建成路21號","121.664261666667","25.0725566666667","6501100","汐止區"
"221023","279-VK","2018/10/09 20:39:00","新北市汐止區明峰街4-1號","121.6354","25.0712933333333","6501100","汐止區"
"221032","280-BY","2018/10/09 20:39:05","新北市汐止區民權街二段28號","121.619311666667","25.0500166666667","6501100","汐止區"
"221027","281-BY","2018/10/09 20:39:18","新北市汐止區大同路二段565號","121.662823333333","25.0698283333333","6501100","汐止區"
"221029","297-VK","2018/10/09 20:39:12","新北市汐止區大同路一段513號","121.645423333333","25.0624316666667","6501100","汐止區"
"221021","299-VK","2018/10/09 20:39:15","新北市汐止區水源路一段284號","121.654235","25.0582866666667","6501100","汐止區"
"221035","622-UM","2018/10/09 20:39:15","新北市汐止區長江街101-5號","121.658731666667","25.07312","6501100","汐止區"
"221025","623-UM","2018/10/09 20:39:13","新北市汐止區水源路二段185號","121.65783","25.05352","6501100","汐止區"
"221038","646-BX","2018/10/09 20:39:12","新北市汐止區汐萬路一段188號","121.652175","25.0721233333333","6501100","汐止區"
"221033","647-BX","2018/10/09 20:39:19","新北市汐止區合順街18巷8弄5號","121.620346666667","25.0419333333333","6501100","汐止區"
"221002","707-TV","2018/10/09 20:39:11","新北市汐止區福德二路123號","121.631188333333","25.0652066666667","6501100","汐止區"
"220103","257-TC","2018/10/09 20:39:02","新北市板橋區漢生東路63巷26號","121.46696","25.0171316666667","6500100","板橋區"
"220083","286-VK","2018/10/09 20:39:10","新北市板橋區僑中二街108巷1號","121.445618333333","25.007125","6500100","板橋區"
"220084","296-UM","2018/10/09 20:39:09","新北市土城區日新街33巷14號","121.440576666667","24.988255","6500100","板橋區"
"242039","281-VK","2018/10/09 20:39:13","新北市新莊區瓊林路204-18號","121.436778333333","25.0215933333333","6500500","新莊區"
"220070","AAC-253","2018/10/09 20:39:20","新北市樹林區八德街286號","121.410305","24.9699716666667","6500100","板橋區"
