"lineid","car","time","location","longitude","latitude","cityid","cityname"
"249004","303-UY","2018/10/09 20:49:02","新北市八里區中山路一段65巷13號","121.418291666667","25.1593683333333","6502300","八里區"
"249003","593-UM","2018/10/09 20:49:00","新北市林口區太平里180號","121.366481666667","25.1346016666667","6502300","八里區"
"234074","AAC-211","2018/10/09 20:49:13","新北市永和區竹林路75巷4弄34號","121.52159","25.0141983333333","6500400","永和區"
"244018","403-UM","2018/10/09 20:49:11","新北市林口區粉寮路二段88巷100-12號","121.409528333333","25.0902083333333","6501700","林口區"
"222003","436-BY","2018/10/09 20:49:11","新北市深坑區文山路三段48-1號","121.609985","24.9985033333333","6501800","深坑區"
"222002","659-BX","2018/10/09 20:49:00","新北市深坑區北深路三段93巷71號","121.60355","25.0011316666667","6501800","深坑區"
"231059","001-UM","2018/10/09 20:49:18","新北市新店區僑愛一路1號","121.499846666667","24.94494","6500600","新店區"
"231040","047-UY","2018/10/09 20:49:17","新北市新店區中正路270號","121.538966666667","24.9735533333333","6500600","新店區"
"231044","106-UY","2018/10/09 20:49:10","新北市新店區中正路347號","121.53532","24.9757783333333","6500600","新店區"
"231048","187-VK","2018/10/09 20:49:23","新北市新店區寶元路一段109號","121.545696666667","24.9831033333333","6500600","新店區"
"231062","188-VK","2018/10/09 20:49:10","新北市新店區和成街14巷1號","121.488003333333","24.9476533333333","6500600","新店區"
"231053","189-VK","2018/10/09 20:49:02","新北市新店區新烏路一段100-2號","121.545126666667","24.9366483333333","6500600","新店區"
"231054","KEA-2219","2018/10/09 20:49:11","新北市新店區北新路一段96巷23號","121.54296","24.9686816666667","6500600","新店區"
"231057","256-BX","2018/10/09 20:49:08","新北市新店區新烏路一段9-1號","121.547203333333","24.9516583333333","6500600","新店區"
"231042","268-BY","2018/10/09 20:49:18","新北市新店區寶高路120巷1號","121.554561666667","24.9760483333333","6500600","新店區"
"231051","278-BY","2018/10/09 20:49:19","新北市新店區溪園路35號","121.53066","24.9883333333333","6500600","新店區"
"231050","AAD-862","2018/10/09 20:49:06","新北市新店區三民路20巷6號","121.537725","24.9707766666667","6500600","新店區"
"231058","3713-VJ","2018/10/09 20:49:07","新北市新店區中央路127巷12號","121.530923333333","24.97372","6500600","新店區"
"231066","4716-K9","2018/10/09 20:49:12","新北市新店區安興路105號","121.514695","24.9776966666667","6500600","新店區"
"231056","4715-K9","2018/10/09 20:49:17","新北市新店區安德街116巷28-1號","121.508508333333","24.961855","6500600","新店區"
"231067","4772-VM","2018/10/09 20:49:02","新北市新店區安華路28-1號","121.519803333333","24.96082","6500600","新店區"
"231065","512-UM","2018/10/09 20:49:04","新北市新店區安祥路69巷19號","121.481916666667","24.9613133333333","6500600","新店區"
"231049","513-UM","2018/10/09 20:49:04","新北市新店區永業路81巷1弄1號","121.529698333333","24.9494366666667","6500600","新店區"
"231063","616-UM","2018/10/09 20:49:04","新北市新店區如意街11-2號","121.49501","24.9483116666667","6500600","新店區"
"231061","619-UM","2018/10/09 20:49:14","新北市新店區新和街90號","121.52063","24.9860233333333","6500600","新店區"
"231068","718-UY","2018/10/09 20:49:08","新北市新店區寶元路一段102號","121.545011666667","24.98326","6500600","新店區"
"231064","719-UM","2018/10/09 20:48:37","新北市新店區安民街365巷10弄7號","121.515853333333","24.9758783333333","6500600","新店區"
"231060","897-TW","2018/10/09 20:49:17","新北市新店區安康路三段635-1號","121.4711","24.9398866666667","6500600","新店區"
"231045","898-TW","2018/10/09 20:49:16","新北市新店區光明街314號","121.540843333333","24.9650333333333","6500600","新店區"
"231043","899-TW","2018/10/09 20:49:18","新北市新店區建國路99巷1號","121.540375","24.977135","6500600","新店區"
"241028","022-UY","2018/10/09 20:49:16","新北市三重區中正南路40號","121.493686666667","25.060085","6500200","三重區"
"241008","059-VK","2018/10/09 20:49:01","新北市三重區永福街72巷11號","121.479383333333","25.0767616666667","6500200","三重區"
"241022","060-VK","2018/10/09 20:49:17","新北市三重區中正北路20巷12號","121.487941666667","25.0624433333333","6500200","三重區"
"241015","062-VK","2018/10/09 20:49:03","新北市三重區自強路一段12號","121.498865","25.0682083333333","6500200","三重區"
"241017","063-VK","2018/10/09 20:49:06","新北市三重區民生街14號","121.492086666667","25.0674533333333","6500200","三重區"
"241024","065-VK","2018/10/09 20:49:09","新北市三重區中正北路237號","121.475655","25.0707883333333","6500200","三重區"
"241026","066-VK","2018/10/09 20:49:18","新北市三重區文化南路3號","121.50004","25.062375","6500200","三重區"
"241002","090-VK","2018/10/09 20:49:19","新北市三重區仁義街143巷104號","121.498883333333","25.0817666666667","6500200","三重區"
"241003","091-VK","2018/10/09 20:49:17","新北市三重區五華街141巷60號","121.493553333333","25.0867433333333","6500200","三重區"
"251014","742-BX","2018/10/09 20:49:16","新北市淡水區公埔子32-8號","121.461676666667","25.2323533333333","6501000","淡水區"
"241005","262-UM","2018/10/09 20:49:11","新北市三重區碧華街400號","121.491693333333","25.0849866666667","6500200","三重區"
"241011","265-UM","2018/10/09 20:49:17","新北市三重區龍濱路207號","121.501971666667","25.071705","6500200","三重區"
"241016","266-UM","2018/10/09 20:49:13","新北市三重區自強路一段101號","121.495695","25.0664033333333","6500200","三重區"
"241009","267-UM","2018/10/09 20:49:13","新北市三重區三和路四段398-2號","121.481501666667","25.0794433333333","6500200","三重區"
"241018","268-UM","2018/10/09 20:49:16","新北市三重區正義北路239號","121.495753333333","25.0692916666667","6500200","三重區"
"241032","269-UM","2018/10/09 20:49:13","新北市三重區重陽路一段120巷35號","121.485146666667","25.060225","6500200","三重區"
"241013","270-UM","2018/10/09 20:49:17","新北市三重區仁愛街129巷2號","121.495663333333","25.0749366666667","6500200","三重區"
"241025","271-UM","2018/10/09 20:49:10","新北市三重區貴陽街14號","121.48412","25.06182","6500200","三重區"
"241007","398-BY","2018/10/09 20:49:02","新北市三重區三和路四段145巷13號","121.484671666667","25.0783283333333","6500200","三重區"
"241004","475-VK","2018/10/09 20:49:03","新北市三重區分子尾街36-1號","121.489461666667","25.0810233333333","6500200","三重區"
"241020","478-VK","2018/10/09 20:49:04","新北市三重區忠孝路一段101號","121.489443333333","25.0721566666667","6500200","三重區"
"241030","480-VK","2018/10/09 20:49:07","新北市三重區昌隆街26號","121.491988333333","25.05223","6500200","三重區"
"241014","543-UM","2018/10/09 20:49:11","新北市三重區萬全街77號","121.501528333333","25.0702783333333","6500200","三重區"
"241023","545-UM","2018/10/09 20:49:17","新北市三重區忠孝路三段84巷5號","121.480178333333","25.0643883333333","6500200","三重區"
"241001","547-UM","2018/10/09 20:49:11","新北市三重區三和路四段124號","121.489206666667","25.0751533333333","6500200","三重區"
"241019","KEA-2593","2018/10/09 20:49:20","新北市三重區三張街104號","121.487868333333","25.069875","6500200","三重區"
"241006","AAD-863","2018/10/09 20:49:15","新北市三重區車路頭街139巷12號","121.484253333333","25.076205","6500200","三重區"
"241031","743-BX","2018/10/09 20:49:13","新北市三重區重陽路一段113巷1弄1號","121.487448333333","25.05983","6500200","三重區"
"241012","941-UM","2018/10/09 20:49:21","新北市三重區龍門路274巷45號","121.501221666667","25.0755433333333","6500200","三重區"
"241029","942-UM","2018/10/09 20:49:03","新北市三重區重安街14號","121.490246666667","25.0581366666667","6500200","三重區"
"241033","AAC-255","2018/10/09 20:49:02","新北市三重區光復路二段2號","121.472165","25.05333","6500200","三重區"
"247012","KEA-2869","2018/10/09 20:49:08","新北市蘆洲區集賢路222巷30號","121.482136666667","25.0873633333333","6501400","蘆洲區"
"235069","4980-A6","2018/10/09 20:49:13","新北市中和區新生街215號","121.483851666667","24.9995633333333","6500300","中和區"
"247002","893-R6","2018/10/09 20:49:18","新北市蘆洲區長安街240號","121.457661666667","25.085895","6501400","蘆洲區"
"247016","546-UM","2018/10/09 20:49:14","新北市蘆洲區中正路69號","121.470365","25.0827333333333","6501400","蘆洲區"
"247024","500-BY","2018/10/09 20:49:05","新北市蘆洲區長樂路136號","121.462118333333","25.0901383333333","6501400","蘆洲區"
"247014","339-TH","2018/10/09 20:49:16","新北市蘆洲區三民路95號","121.473915","25.08485","6501400","蘆洲區"
"247006","337-TH","2018/10/09 20:49:06","新北市蘆洲區永安南路二段16巷7號","121.467695","25.0774183333333","6501400","蘆洲區"
"247008","336-TH","2018/10/09 20:49:02","新北市三重區三和路四段237號","121.480825","25.0801966666667","6501400","蘆洲區"
"247020","057-VK","2018/10/09 20:49:22","新北市蘆洲區仁愛街60號","121.471533333333","25.0938233333333","6501400","蘆洲區"
"247022","001-UY","2018/10/09 20:49:05","新北市蘆洲區民權路131巷10號","121.471273333333","25.0898883333333","6501400","蘆洲區"
"222001","KEA-2212","2018/10/09 20:49:14","新北市深坑區北深路三段154號","121.603113333333","25.00304","6501800","深坑區"
"251001","011-UM","2018/10/09 20:49:13","新北市淡水區淡金路一段69號","121.458838333333","25.1730866666667","6501000","淡水區"
"251002","012-UM","2018/10/09 20:49:18","新北市淡水區中正東路6號","121.447011666667","25.16703","6501000","淡水區"
"251013","KEA-2871","2018/10/09 20:49:10","新北市淡水區行忠路132號","121.454596666667","25.198395","6501000","淡水區"
"251016","179-VK","2018/10/09 20:49:20","新北市淡水區興仁路165號","121.451511666667","25.2200433333333","6501000","淡水區"
"251015","180-VK","2018/10/09 20:49:14","新北市淡水區淡金路四段542巷17號","121.452703333333","25.2270733333333","6501000","淡水區"
"251010","413-VK","2018/10/09 20:49:03","新北市淡水區沙崙路147號","121.423645","25.1831083333333","6501000","淡水區"
"251012","441-VK","2018/10/09 20:49:20","新北市淡水區淡金路四段514號","121.452068333333","25.2257266666667","6501000","淡水區"
"251009","575-R6","2018/10/09 20:49:13","新北市淡水區民權路187巷15號","121.460093333333","25.1332016666667","6501000","淡水區"
"251007","577-R6","2018/10/09 20:49:17","新北市淡水區鄧公路29巷24號","121.452681666667","25.1701866666667","6501000","淡水區"
"251011","650-BX","2018/10/09 20:49:17","新北市淡水區新民街一段23號","121.432531666667","25.1848316666667","6501000","淡水區"
"251003","673-BX","2018/10/09 20:49:00","新北市淡水區中山北路一段247巷94號","121.442235","25.1793916666667","6501000","淡水區"
"237004","KEA-2597","2018/10/09 20:49:10","新北市三峽區隆恩街158巷46號","121.367991666667","24.9456233333333","6500900","三峽區"
"242037","AAC-296","2018/10/09 20:49:13","新北市新莊區中正路402號","121.441431666667","25.03392","6500500","新莊區"
"242058","986-R7","2018/10/09 20:49:15","新北市新莊區四維路95號","121.423363333333","25.02372","6500500","新莊區"
"242029","705-TV","2018/10/09 20:49:19","新北市新莊區公園路2-2號","121.447308333333","25.0386016666667","6500500","新莊區"
"242027","615-BX","2018/10/09 20:49:02","新北市新莊區環河路636-7號","121.43708","25.0116166666667","6500500","新莊區"
"242054","441-UM","2018/10/09 20:49:04","新北市新莊區環漢路四段1號","121.435036666667","25.0003983333333","6500500","新莊區"
"242023","362-BY","2018/10/09 20:49:03","新北市新莊區瓊林路1-1號","121.450973333333","25.032205","6500500","新莊區"
"242015","132-UY","2018/10/09 20:49:20","新北市新莊區中平路48號","121.444876666667","25.0438933333333","6500500","新莊區"
"242042","133-UY","2018/10/09 20:49:08","新北市樹林區三俊街127號","121.417941666667","25.0158","6500500","新莊區"
"242002","347-TH","2018/10/09 20:49:07","新北市新莊區中港路10號","121.454978333333","25.03695","6500500","新莊區"
"242005","349-TH","2018/10/09 20:49:13","新北市新莊區瓊林路1號","121.450673333333","25.0319216666667","6500500","新莊區"
"221036","130-UY","2018/10/09 20:49:03","新北市汐止區大同路二段179號","121.65174","25.0642","6501100","汐止區"
"221027","281-BY","2018/10/09 20:49:18","新北市汐止區水源路一段3號","121.657258333333","25.0671466666667","6501100","汐止區"
"221029","297-VK","2018/10/09 20:49:12","新北市汐止區樟樹二路345號","121.641885","25.0733333333333","6501100","汐止區"
"221035","622-UM","2018/10/09 20:49:15","新北市汐止區汐萬路一段310號","121.650413333333","25.0747083333333","6501100","汐止區"
"221038","646-BX","2018/10/09 20:49:12","新北市汐止區汐萬路一段256巷3號","121.652056666667","25.0747316666667","6501100","汐止區"
"221033","647-BX","2018/10/09 20:49:19","新北市汐止區合順街18巷8弄5號","121.620335","25.04191","6501100","汐止區"
"221002","707-TV","2018/10/09 20:49:11","新北市汐止區福德一路310巷7弄1-1號","121.629188333333","25.0647183333333","6501100","汐止區"
"220070","AAC-253","2018/10/09 20:49:00","新北市樹林區中山路三段210-2號","121.381458333333","24.9655766666667","6500100","板橋區"
