"lineid","car","time","location","longitude","latitude","cityid","cityname"
"244018","403-UM","2018/10/09 20:58:22","新北市林口區粉寮路二段88巷100-12號","121.409545","25.0902116666667","6501700","林口區"
"243006","680-BX","2018/10/09 21:09:17","新北市泰山區黎明路25號","121.422146666667","25.0606633333333","6501600","泰山區"
"231059","001-UM","2018/10/09 21:09:13","新北市新店區僑信路25號","121.499468333333","24.9511583333333","6500600","新店區"
"231040","047-UY","2018/10/09 21:09:17","新北市新店區北新路一段351號","121.541895","24.96932","6500600","新店區"
"231048","187-VK","2018/10/09 21:09:03","新北市新店區中興路三段162號","121.544661666667","24.9808566666667","6500600","新店區"
"231062","188-VK","2018/10/09 21:09:04","新北市新店區雙城路60巷16弄13號","121.49172","24.9478866666667","6500600","新店區"
"231054","KEA-2219","2018/10/09 21:09:11","新北市新店區大新街7巷38號","121.544283333333","24.96764","6500600","新店區"
"231042","268-BY","2018/10/09 21:09:18","新北市新店區寶興路60巷4號","121.549851666667","24.9718183333333","6500600","新店區"
"231051","278-BY","2018/10/09 21:09:19","新北市新店區中正路700巷82號","121.535893333333","24.993265","6500600","新店區"
"231050","AAD-862","2018/10/09 21:09:06","新北市新店區中華路117巷1號","121.538066666667","24.96858","6500600","新店區"
"231065","512-UM","2018/10/09 21:09:04","新北市新店區安祥路67巷59號","121.486365","24.9595433333333","6500600","新店區"
"231063","616-UM","2018/10/09 21:09:04","新北市新店區玫瑰路64巷1號","121.495808333333","24.9456366666667","6500600","新店區"
"231061","619-UM","2018/10/09 21:09:14","新北市新店區永安街28-2號","121.517556666667","24.9865133333333","6500600","新店區"
"231064","719-UM","2018/10/09 21:08:57","新北市新店區薏仁坑路自強巷1號","121.497596666667","24.957805","6500600","新店區"
"231060","897-TW","2018/10/09 21:09:17","新北市新店區薏仁坑路自強巷6號","121.496655","24.9584033333333","6500600","新店區"
"241028","022-UY","2018/10/09 21:09:16","新北市三重區正義南路54號","121.498295","25.0606666666667","6500200","三重區"
"241008","059-VK","2018/10/09 21:09:01","新北市三重區自強路一段11號","121.49871","25.0682266666667","6500200","三重區"
"241022","060-VK","2018/10/09 21:09:17","新北市三重區中正北路64巷24號","121.486133333333","25.06373","6500200","三重區"
"241015","062-VK","2018/10/09 21:09:13","新北市三重區三和路一段101號","121.50215","25.0664566666667","6500200","三重區"
"241017","063-VK","2018/10/09 21:09:06","新北市三重區國隆路31號","121.492348333333","25.064545","6500200","三重區"
"241024","065-VK","2018/10/09 21:09:09","新北市三重區國道路一段58巷20號","121.481251666667","25.07202","6500200","三重區"
"241026","066-VK","2018/10/09 21:09:18","新北市三重區文化南路42號","121.500418333333","25.06025","6500200","三重區"
"241002","090-VK","2018/10/09 21:09:19","新北市三重區五華街14號","121.49493","25.0802666666667","6500200","三重區"
"241003","091-VK","2018/10/09 21:09:17","新北市三重區仁義街228巷2號","121.494805","25.0846883333333","6500200","三重區"
"251014","742-BX","2018/10/09 21:09:16","新北市淡水區六塊厝1-1號","121.450226666667","25.2428066666667","6501000","淡水區"
"241005","262-UM","2018/10/09 21:09:11","新北市三重區五華街180巷19號","121.488073333333","25.08599","6500200","三重區"
"241011","265-UM","2018/10/09 21:09:17","新北市三重區龍濱路170號","121.501235","25.07265","6500200","三重區"
"241016","266-UM","2018/10/09 21:09:12","新北市三重區信義西街118號","121.495706666667","25.0642666666667","6500200","三重區"
"241009","267-UM","2018/10/09 21:09:13","新北市三重區忠孝路二段122號","121.483025","25.0687966666667","6500200","三重區"
"241018","268-UM","2018/10/09 21:09:08","新北市三重區正義北路332-1號","121.494358333333","25.0705166666667","6500200","三重區"
"241032","269-UM","2018/10/09 21:09:13","新北市三重區光復路二段143巷16號","121.474251666667","25.0615316666667","6500200","三重區"
"241013","270-UM","2018/10/09 21:09:17","新北市三重區仁愛街141巷20號","121.496516666667","25.07575","6500200","三重區"
"241025","271-UM","2018/10/09 21:09:10","新北市三重區忠孝路三段40巷16弄10號","121.482293333333","25.0669116666667","6500200","三重區"
"241007","398-BY","2018/10/09 21:09:23","新北市三重區三和路四段145巷81號","121.486346666667","25.078785","6500200","三重區"
"241004","475-VK","2018/10/09 21:09:03","新北市三重區仁愛街420號","121.490376666667","25.081405","6500200","三重區"
"241020","478-VK","2018/10/09 21:09:04","新北市三重區忠孝路二段34號","121.485791666667","25.0710033333333","6500200","三重區"
"241030","480-VK","2018/10/09 21:09:07","新北市三重區五谷王北街20巷15弄1號","121.47504","25.0484316666667","6500200","三重區"
"241014","543-UM","2018/10/09 21:09:11","新北市三重區長安街82-1號","121.501408333333","25.0676816666667","6500200","三重區"
"241023","545-UM","2018/10/09 21:09:17","新北市三重區洛陽街45巷15號","121.48234","25.06374","6500200","三重區"
"241001","547-UM","2018/10/09 21:09:11","新北市三重區福隆路103號","121.492468333333","25.0783883333333","6500200","三重區"
"241019","KEA-2593","2018/10/09 21:09:00","新北市三重區自強路二段74巷21號","121.487961666667","25.06984","6500200","三重區"
"241006","AAD-863","2018/10/09 21:09:15","新北市三重區重陽路三段5巷1號","121.490725","25.0653766666667","6500200","三重區"
"241031","743-BX","2018/10/09 21:09:12","新北市三重區重新路五段283號","121.479685","25.0494216666667","6500200","三重區"
"241012","941-UM","2018/10/09 21:09:21","新北市三重區河邊北街242號","121.501828333333","25.0757533333333","6500200","三重區"
"241029","942-UM","2018/10/09 21:09:03","新北市三重區正義南路111號","121.498233333333","25.0585233333333","6500200","三重區"
"241033","AAC-255","2018/10/09 21:09:22","新北市三重區重光街107-1號","121.46638","25.0646766666667","6500200","三重區"
"247012","KEA-2869","2018/10/09 21:09:08","新北市蘆洲區民族路44號","121.476815","25.0844633333333","6501400","蘆洲區"
"235010","733-UM","2018/10/09 21:09:17","新北市中和區員山路36巷13號","121.484141666667","24.9908433333333","6500300","中和區"
"247002","893-R6","2018/10/09 21:09:24","新北市蘆洲區永樂街38巷42弄6號","121.458783333333","25.0899333333333","6501400","蘆洲區"
"247024","500-BY","2018/10/09 21:09:05","新北市蘆洲區長興路50巷1號","121.463748333333","25.0838066666667","6501400","蘆洲區"
"247014","339-TH","2018/10/09 21:09:16","新北市蘆洲區中央路155號","121.472651666667","25.0846833333333","6501400","蘆洲區"
"247006","337-TH","2018/10/09 21:09:06","新北市蘆洲區永安南路二段16巷8號","121.46781","25.0772966666667","6501400","蘆洲區"
"247008","336-TH","2018/10/09 21:09:21","新北市蘆洲區民生街26號","121.474955","25.0789","6501400","蘆洲區"
"247020","057-VK","2018/10/09 21:09:02","新北市蘆洲區民族路448號","121.472446666667","25.0919333333333","6501400","蘆洲區"
"247018","007-UY","2018/10/09 21:09:17","新北市蘆洲區民族路408巷6號","121.474806666667","25.091805","6501400","蘆洲區"
"247022","001-UY","2018/10/09 21:09:10","新北市蘆洲區民族路435號","121.467901666667","25.0890416666667","6501400","蘆洲區"
"251005","010-UM","2018/10/09 21:09:16","新北市淡水區英專路2巷27號","121.446415","25.1694066666667","6501000","淡水區"
"251001","011-UM","2018/10/09 21:09:13","新北市淡水區新市一路三段101巷16弄1號","121.446336666667","25.1838533333333","6501000","淡水區"
"251002","012-UM","2018/10/09 21:09:18","新北市淡水區水源街一段160號","121.448566666667","25.1714033333333","6501000","淡水區"
"251013","KEA-2871","2018/10/09 21:09:10","新北市淡水區行忠路328號","121.46046","25.19959","6501000","淡水區"
"251016","179-VK","2018/10/09 21:09:00","新北市淡水區前洲子12號","121.44102","25.219195","6501000","淡水區"
"251015","180-VK","2018/10/09 21:09:14","新北市淡水區淡金路四段542巷52-2號","121.455656666667","25.226115","6501000","淡水區"
"251010","413-VK","2018/10/09 21:09:03","新北市淡水區中正路一段88號","121.42457","25.1775933333333","6501000","淡水區"
"251012","441-VK","2018/10/09 21:09:20","新北市淡水區淡金路五段172號","121.457026666667","25.2400516666667","6501000","淡水區"
"251009","575-R6","2018/10/09 21:09:13","新北市淡水區民權路187巷74弄9號","121.462065","25.134385","6501000","淡水區"
"251011","650-BX","2018/10/09 21:09:17","新北市淡水區新民街180巷25號","121.437831666667","25.1796783333333","6501000","淡水區"
"251003","673-BX","2018/10/09 21:09:20","新北市淡水區新春街96號","121.43911","25.182425","6501000","淡水區"
"220070","AAC-253","2018/10/09 21:09:00","新北市板橋區四川路二段140巷16弄28號","121.448688333333","24.99439","6500100","板橋區"
