"lineid","car","time","location","longitude","latitude","cityid","cityname"
"232001","290-BY","2018/07/30 06:49:42","新北市坪林區水柳腳132號","121.70892","24.934885","6502000","坪林區"
"232012","291-BY","2018/07/30 06:49:34","新北市坪林區北宜路八段52號","121.704603333333","24.9355366666667","6502000","坪林區"
"232010","375-UM","2018/07/30 06:49:47","新北市坪林區北宜路八段337號","121.710931666667","24.9337283333333","6502000","坪林區"
"232017","705-BZ","2018/07/30 06:49:29","新北市坪林區北宜路八段367號","121.709413333333","24.93233","6502000","坪林區"
"232005","758-BX","2018/07/30 06:49:41","新北市坪林區九芎林14-4號","121.706341666667","24.9318616666667","6502000","坪林區"
"244001","248-BX","2018/07/30 06:49:49","新北市林口區粉寮路1號","121.397781666667","25.080225","6501700","林口區"
"222005","628-TS","2018/07/30 06:49:36","新北市深坑區深南路31號","121.620063333333","25.00974","6501800","深坑區"
"235001","611-BX","2018/07/30 06:49:44","新北市中和區圓通路333號","121.491915","24.9905933333333","6500300","中和區"
"223006","022-BY","2018/07/30 06:49:46","新北市石碇區楓子林54-3號","121.64287","25.008185","6501900","石碇區"
"223002","KEA-2673","2018/07/30 06:49:43","新北市石碇區烏塗窟36號","121.65512","24.9738316666667","6501900","石碇區"
"223003","205-TH","2018/07/30 06:49:49","新北市石碇區石崁40-9號","121.65907","24.9952733333333","6501900","石碇區"
"223008","406-TH","2018/07/30 06:49:35","新北市石碇區雙溪37-2號","121.656521666667","25.0079616666667","6501900","石碇區"
"223001","592-UM","2018/07/30 06:49:02","新北市石碇區湳窟31-5號","121.663728333333","24.993035","6501900","石碇區"
"223004","660-BX","2018/07/30 06:49:46","新北市石碇區碇坪路一段87號","121.66217","24.990695","6501900","石碇區"
"223007","661-BX","2018/07/30 06:49:31","新北市石碇區雙溪36號","121.650225","25.0089","6501900","石碇區"
"223005","677-TV","2018/07/30 06:49:30","新北市石碇區碇坪路一段89號","121.66216","24.990245","6501900","石碇區"
"227005","282-VK","2018/07/30 06:49:37","新北市雙溪區新基里自強路5號","121.866401666667","25.039","6502500","雙溪區"
"252006","073-UM","2018/07/30 06:49:51","新北市三芝區埔坪里埔頭坑41號","121.504588333333","25.264575","6502100","三芝區"
