"lineid","car","time","location","longitude","latitude","cityid","cityname"
"248005","653-BX","2018/05/31 10:09:45","新北市五股區中興路三段163號","121.447608333333","25.08011","6501500","五股區"
"244018","403-UM","2018/05/31 10:09:47","新北市林口區麗園一街35號","121.377681666667","25.0688116666667","6501700","林口區"
"244022","483-VK","2018/05/31 10:09:39","新北市林口區民富街99號","121.370495","25.0754216666667","6501700","林口區"
"222006","289-BY","2018/05/31 10:09:50","新北市深坑區大崙尾1-1號","121.61572","24.9751466666667","6501800","深坑區"
"231069","189-VK","2018/05/31 10:09:35","新北市新店區新潭路三段215巷25號","121.508146666667","24.9040883333333","6500600","新店區"
"231008","192-VK","2018/05/31 10:09:34","新北市新店區平廣路一段79號","121.53142","24.8994","6500600","新店區"
"252004","249-BX","2018/05/31 10:09:51","新北市三芝區中興街二段60號","121.499686666667","25.254845","6502100","三芝區"
"252007","AAC-283","2018/05/31 10:09:42","新北市三芝區新庄里番社后12號","121.500778333333","25.268515","6502100","三芝區"
"237001","159-UY","2018/05/31 10:09:42","新北市三峽區大學路77號","121.376161666667","24.9416366666667","6500900","三峽區"
"236005","498-BY","2018/05/31 10:09:43","新北市土城區城林路6巷80號","121.438725","24.9797566666667","6501300","土城區"
"242010","173-VK","2018/05/31 10:09:49","新北市八里區中山路三段380號","121.369248333333","25.1361666666667","6500500","新莊區"
