"lineid","car","time","location","longitude","latitude","cityid","cityname"
"222006","289-BY","2018/05/31 10:29:50","新北市深坑區文山路三段16-1號","121.6128","24.9981566666667","6501800","深坑區"
"231069","189-VK","2018/05/31 10:29:35","新北市新店區新潭路三段130-1號","121.510165","24.9099","6500600","新店區"
"231008","192-VK","2018/05/31 10:29:14","新北市新店區小坑一路41號","121.527256666667","24.910175","6500600","新店區"
"252007","AAC-283","2018/05/31 10:29:42","新北市三芝區新庄里番社后11號","121.50196","25.2694933333333","6502100","三芝區"
"242010","173-VK","2018/05/31 10:29:29","新北市泰山區新五路一段104號","121.440328333333","25.0612733333333","6500500","新莊區"
