"lineid","car","time","location","longitude","latitude","cityid","cityname"
"243008","380-SR","2018/05/31 12:10:58","新北市泰山區黎明路25號","121.42226","25.061135","6501600","泰山區"
"231008","192-VK","2018/05/31 12:19:14","新北市新店區環河路14號","121.537751666667","24.961635","6500600","新店區"
"235031","255-BX","2018/05/31 12:08:59","新北市中和區和城路一段271巷1號","121.485721666667","24.991715","6500300","中和區"
"228005","097-TW","2018/05/31 12:19:06","新北市貢寮區福連里福連街1號","121.988173333333","25.0155633333333","6502600","貢寮區"
"228004","212-TW","2018/05/31 12:19:19","新北市貢寮區貢寮里長泰路15-1號","121.895075","25.0206166666667","6502600","貢寮區"
"235025","KEA-2875","2018/05/31 12:19:24","新北市中和區員山路36巷16-3號","121.484768333333","24.991085","6500300","中和區"
