"lineid","car","time","location","longitude","latitude","cityid","cityname"
"234044","148-BY","2018/05/31 13:19:36","新北市永和區得和路373巷6弄1號","121.524841666667","24.9998683333333","6500400","永和區"
"234005","207-UY","2018/05/31 13:19:26","新北市永和區中山路一段320號","121.50653","25.0070566666667","6500400","永和區"
"234081","298-R6","2018/05/31 13:19:24","新北市永和區福和路7巷8-2號","121.525271666667","25.0077466666667","6500400","永和區"
"234036","336-UY","2018/05/31 13:19:25","新北市永和區民樂街59巷5號","121.527958333333","24.9983333333333","6500400","永和區"
"234062","337-UY","2018/05/31 13:19:31","新北市永和區永元路17巷6弄2號","121.521325","25.0006483333333","6500400","永和區"
"234084","338-UY","2018/05/31 13:19:27","新北市永和區永利路6號","121.51744","25.0059266666667","6500400","永和區"
"234068","552-UM","2018/05/31 13:19:33","新北市永和區豫溪街86號","121.518391666667","25.009925","6500400","永和區"
"234015","745-BX","2018/05/31 13:19:32","新北市永和區環河西路一段85巷4弄20號","121.512028333333","25.01697","6500400","永和區"
"234028","746-BX","2018/05/31 13:19:35","新北市永和區厚德街93號","121.523721666667","24.99886","6500400","永和區"
"234052","KEA-2590","2018/05/31 13:19:36","新北市永和區中興街12號","121.515913333333","25.0119","6500400","永和區"
"234012","KEA-2591","2018/05/31 13:19:35","新北市永和區信義路79號","121.512423333333","25.013345","6500400","永和區"
"234060","AAD-866","2018/05/31 13:19:26","新北市永和區秀朗路一段175號","121.517003333333","25.0036083333333","6500400","永和區"
"234040","862-TW","2018/05/31 13:19:36","新北市永和區保平路177巷6弄2號","121.509828333333","25.004905","6500400","永和區"
"234048","863-TW","2018/05/31 13:19:30","新北市永和區保福路二段88巷27號","121.511858333333","25.01367","6500400","永和區"
"234025","9371-KE","2018/05/31 13:19:35","新北市永和區豫溪街28巷19號","121.515081666667","25.008985","6500400","永和區"
"234010","9373-KE","2018/05/31 13:19:32","新北市永和區文化路126巷10弄1號","121.513126666667","25.0160216666667","6500400","永和區"
"248013","025-BX","2018/05/31 13:19:20","新北市五股區自強路45號","121.43336","25.0737416666667","6501500","五股區"
"248015","026-BX","2018/05/31 13:19:34","新北市五股區成泰路三段477巷18號","121.449846666667","25.0989333333333","6501500","五股區"
"248005","077-UY","2018/05/31 13:19:26","新北市五股區中興路一段193號","121.464095","25.07392","6501500","五股區"
"248007","095-VK","2018/05/31 13:19:36","新北市五股區更洲路32巷8弄13-1號","121.45931","25.07949","6501500","五股區"
"248017","225-UY","2018/05/31 13:19:27","新北市五股區御史路130-3號","121.434123333333","25.0988516666667","6501500","五股區"
"248011","247-BX","2018/05/31 13:19:17","新北市五股區御史路1巷75號","121.44116","25.0904833333333","6501500","五股區"
"248003","677-BX","2018/05/31 13:19:27","新北市五股區成泰路二段101號","121.438246666667","25.08423","6501500","五股區"
"248001","678-BX","2018/05/31 13:19:23","新北市五股區西雲路66號","121.443561666667","25.0913183333333","6501500","五股區"
"248009","682-TV","2018/05/31 13:19:17","新北市五股區成泰路一段193號","121.434913333333","25.0765683333333","6501500","五股區"
"234022","9380-KE","2018/05/31 13:19:32","新北市永和區竹林路101號","121.519736666667","25.0119833333333","6500400","永和區"
"234076","969-R7","2018/05/31 13:19:35","新北市永和區民有街100號","121.517823333333","24.9956733333333","6500400","永和區"
"234072","AAC-211","2018/05/31 13:19:27","新北市永和區竹林路46號","121.517705","25.01426","6500400","永和區"
"234066","AAC-212","2018/05/31 13:19:15","新北市永和區保平路44號","121.51135","25.0071566666667","6500400","永和區"
"234001","AAC-295","2018/05/31 13:19:32","新北市永和區和平街109巷2號","121.51086","25.009825","6500400","永和區"
"244003","248-BX","2018/05/31 13:16:50","新北市林口區寶斗厝坑89-2號","121.334286666667","25.11952","6501700","林口區"
"243005","AAD-798","2018/05/31 13:19:35","新北市泰山區明志路三段196巷50弄7號","121.422033333333","25.04041","6501600","泰山區"
"231002","002-UM","2018/05/31 13:19:33","新北市新店區安華路28-1號","121.519628333333","24.9608816666667","6500600","新店區"
"231028","046-UY","2018/05/31 13:19:31","新北市新店區安華路28-1號","121.51963","24.960925","6500600","新店區"
"231001","047-UY","2018/05/31 13:19:16","新北市新店區安華路28-1號","121.519026666667","24.96075","6500600","新店區"
"231005","106-UY","2018/05/31 13:19:30","新北市新店區安康路一段355-10號","121.52057","24.96386","6500600","新店區"
"231021","108-UY","2018/05/31 13:19:35","新北市新店區安康路一段3-1號","121.534186666667","24.9606166666667","6500600","新店區"
"231011","187-VK","2018/05/31 13:19:31","新北市新店區安一路一段1-1號","121.519613333333","24.961255","6500600","新店區"
"231010","188-VK","2018/05/31 13:19:26","新北市新店區秀山路68號","121.53095","24.9609916666667","6500600","新店區"
"231023","KEA-2219","2018/05/31 13:19:22","新北市新店區光明街5號","121.538371666667","24.9591883333333","6500600","新店區"
"231026","256-BX","2018/05/31 13:19:20","新北市新店區安一路一段1-1號","121.519708333333","24.9611216666667","6500600","新店區"
"231003","268-BY","2018/05/31 13:19:18","新北市新店區安華路28-1號","121.519436666667","24.9605533333333","6500600","新店區"
"231018","278-BY","2018/05/31 13:19:23","新北市新店區中央路183-1號","121.53607","24.9688333333333","6500600","新店區"
"231017","AAD-862","2018/05/31 13:19:20","新北市新店區秀山路20號","121.532431666667","24.960425","6500600","新店區"
"231038","3712-VJ","2018/05/31 13:19:27","新北市新店區安華路28-1號","121.519411666667","24.9606716666667","6500600","新店區"
"231027","3713-VJ","2018/05/31 13:19:30","新北市新店區安康路一段35號","121.531848333333","24.9606833333333","6500600","新店區"
"231037","4716-K9","2018/05/31 13:19:33","新北市新店區安華路28-1號","121.519745","24.9610216666667","6500600","新店區"
"231025","4715-K9","2018/05/31 13:19:24","新北市新店區中央路183-1號","121.536056666667","24.968915","6500600","新店區"
"231036","512-UM","2018/05/31 13:19:24","新北市新店區安康路二段362號","121.501795","24.9574183333333","6500600","新店區"
"231013","513-UM","2018/05/31 13:19:17","新北市新店區安一路一段1-1號","121.519671666667","24.9611833333333","6500600","新店區"
"231030","619-UM","2018/05/31 13:19:29","新北市新店區安華路28-1號","121.519585","24.96087","6500600","新店區"
"231034","641-BX","2018/05/31 13:19:20","新北市新店區安華路28-1號","121.519553333333","24.9605816666667","6500600","新店區"
"231035","719-UM","2018/05/31 13:19:18","新北市新店區安一路一段1-1號","121.519605","24.96138","6500600","新店區"
"231031","720-UM","2018/05/31 13:19:20","新北市新店區安一路一段1-1號","121.519843333333","24.9619433333333","6500600","新店區"
"231029","897-TW","2018/05/31 13:19:25","新北市新店區安華路28-1號","121.519596666667","24.9608566666667","6500600","新店區"
"231006","898-TW","2018/05/31 13:19:32","新北市新店區安華路28-1號","121.519443333333","24.960915","6500600","新店區"
"231004","899-TW","2018/05/31 13:19:24","新北市新店區安華路28-1號","121.519601666667","24.9607983333333","6500600","新店區"
"231024","AKT-0513","2018/05/31 13:19:28","新北市新店區安康路一段3-1號","121.53546","24.96096","6500600","新店區"
"235028","005-UY","2018/05/31 13:19:21","新北市中和區中正路222號","121.496378333333","24.99399","6500300","中和區"
"235027","006-UY","2018/05/31 13:19:38","新北市中和區中正路589巷1號","121.485856666667","24.994445","6500300","中和區"
"235020","096-UM","2018/05/31 13:19:33","新北市中和區和城路一段271巷1號","121.485396666667","24.9918733333333","6500300","中和區"
"235003","097-UM","2018/05/31 13:19:20","新北市中和區中正路13號","121.503078333333","24.99348","6500300","中和區"
"235029","098-UM","2018/05/31 13:19:29","新北市中和區莊敬路49巷20弄18號","121.502576666667","25.0057866666667","6500300","中和區"
"235022","151-BY","2018/05/31 13:19:29","新北市中和區圓通路369巷39-29號","121.489793333333","24.9855566666667","6500300","中和區"
"235019","183-VK","2018/05/31 13:19:34","新北市中和區中正路637巷52弄1號","121.485466666667","24.993465","6500300","中和區"
"235002","185-VK","2018/05/31 13:19:17","新北市中和區秀朗路三段128巷7弄1號","121.524538333333","24.9927033333333","6500300","中和區"
"235013","186-VK","2018/05/31 13:19:20","新北市中和區中正路637巷60弄61號","121.485421666667","24.9932983333333","6500300","中和區"
"235031","255-BX","2018/05/31 13:19:24","新北市中和區新生街222號","121.483785","24.9984466666667","6500300","中和區"
"235036","301-VK","2018/05/31 13:19:27","新北市中和區連城路263巷4弄10號","121.491713333333","24.9953783333333","6500300","中和區"
"235007","352-BY","2018/05/31 13:19:31","新北市中和區景平路379號","121.504075","24.9934166666667","6500300","中和區"
"235018","269-TV","2018/05/31 13:19:29","新北市中和區國光街8巷1號","121.471615","25.0002983333333","6500300","中和區"
"235014","4979-A6","2018/05/31 13:19:34","新北市中和區捷運路61巷7號","121.508925","24.9893266666667","6500300","中和區"
"235033","4980-A6","2018/05/31 13:19:27","新北市中和區錦和路91-1號","121.489996666667","24.9956966666667","6500300","中和區"
"235034","558-UM","2018/05/31 13:19:23","新北市中和區圓通路113號","121.499371666667","24.99649","6500300","中和區"
"235009","565-BX","2018/05/31 13:19:28","新北市中和區復興路249巷8號","121.5034","24.9899533333333","6500300","中和區"
"235001","611-BX","2018/05/31 13:19:25","新北市板橋區長安街138巷7弄66號","121.474493333333","25.0092616666667","6500300","中和區"
"235035","783-BX","2018/05/31 13:19:33","新北市中和區中板路18巷2弄2號","121.483975","25.0121266666667","6500300","中和區"
"235026","800-TS","2018/05/31 13:19:38","新北市中和區景平路999巷2號","121.495241666667","25.0063683333333","6500300","中和區"
"235005","802-TS","2018/05/31 13:19:35","新北市中和區中和路260-1號","121.508081666667","24.9993733333333","6500300","中和區"
"235017","900-TW","2018/05/31 13:19:28","新北市中和區員山路36巷16-2號","121.485098333333","24.9918966666667","6500300","中和區"
"235030","911-UM","2018/05/31 13:19:32","新北市中和區中山路二段120號","121.502706666667","25.0037116666667","6500300","中和區"
"235015","157-BY","2018/05/31 13:19:21","新北市中和區信義街107號","121.512048333333","24.98703","6500300","中和區"
"235001","AAC-213","2018/05/31 13:19:37","新北市中和區景德街78號","121.516576666667","24.9915016666667","6500300","中和區"
"220034","073-UY","2018/05/31 13:19:30","新北市板橋區華東街1-10號","121.448545","24.9949966666667","6500100","板橋區"
"247003","053-VK","2018/05/31 13:19:26","新北市五股區新五路二段279號","121.442825","25.0861316666667","6501400","蘆洲區"
"235011","251-BX","2018/05/31 13:19:29","新北市中和區南山路300號","121.507891666667","24.9871683333333","6500300","中和區"
"228005","097-TW","2018/05/31 13:19:06","新北市貢寮區美豐里丹裡街18-2號","121.911928333333","25.05822","6502600","貢寮區"
"228004","212-TW","2018/05/31 13:19:19","新北市貢寮區吉林里內寮街23號","121.90173","24.984065","6502600","貢寮區"
"253003","6232-TK","2018/05/31 13:19:36","新北市石門區內石門50-2號","121.57263","25.2623583333333","6502200","石門區"
"253001","6251-TK","2018/05/31 13:19:17","新北市石門區楓林6-1號","121.53831","25.2948166666667","6502200","石門區"
"253002","637-UY","2018/05/31 13:19:17","新北市石門區九芎林17號","121.553321666667","25.2703883333333","6502200","石門區"
"253004","8270-PC","2018/05/31 13:18:47","新北市石門區阿里荖67號","121.609506666667","25.2718316666667","6502200","石門區"
"249004","440-VK","2018/05/31 13:19:36","新北市八里區賢三街75號","121.418223333333","25.158505","6502300","八里區"
"207002","749-BX","2018/05/31 13:19:27","新北市萬里區崁腳里崁腳路166號","121.645066666667","25.1558166666667","6502800","萬里區"
"207001","662-BX","2018/05/31 13:19:26","新北市萬里區龜吼里玉田路21號","121.680536666667","25.1942616666667","6502800","萬里區"
"252005","AAC-283","2018/05/31 13:19:31","新北市三芝區福德里土地公埔65號","121.518675","25.226965","6502100","三芝區"
"236005","498-BY","2018/05/31 13:19:23","新北市土城區大安路138巷24號","121.434238333333","24.9713466666667","6501300","土城區"
"221032","280-BY","2018/05/31 13:19:23","新北市汐止區連興街62號","121.654138333333","25.063405","6501100","汐止區"
"220005","686-BX","2018/05/31 13:19:19","新北市板橋區華東街1-9號","121.448173333333","24.9948983333333","6500100","板橋區"
"220025","687-BX","2018/05/31 13:19:32","新北市板橋區華東街1-10號","121.448266666667","24.9949733333333","6500100","板橋區"
"220002","741-BX","2018/05/31 13:19:34","新北市板橋區華東街1-9號","121.448086666667","24.9949683333333","6500100","板橋區"
"220022","895-R6","2018/05/31 13:19:18","新北市板橋區華東街1-10號","121.448215","24.9950016666667","6500100","板橋區"
"235032","KEA-2873","2018/05/31 13:19:37","新北市中和區員山路36巷16-3號","121.485096666667","24.99138","6500300","中和區"
"235025","KEA-2875","2018/05/31 13:19:20","新北市中和區國光街215巷24弄10號","121.466726666667","25.0000533333333","6500300","中和區"
