"lineid","car","time","location","longitude","latitude","cityid","cityname"
"234044","148-BY","2018/05/31 13:29:43","新北市永和區秀朗路二段149號","121.524713333333","25.001685","6500400","永和區"
"234005","207-UY","2018/05/31 13:29:26","新北市永和區中山路一段230號","121.507981666667","25.008095","6500400","永和區"
"234081","298-R6","2018/05/31 13:29:42","新北市永和區福和路5-9號","121.52542","25.0085","6500400","永和區"
"234036","336-UY","2018/05/31 13:29:27","新北市永和區民樂街38號","121.527553333333","25.0007283333333","6500400","永和區"
"234062","337-UY","2018/05/31 13:29:31","新北市永和區得和路243巷26號","121.52081","25.0010816666667","6500400","永和區"
"234084","338-UY","2018/05/31 13:29:27","新北市永和區永利路99號","121.521838333333","25.0030233333333","6500400","永和區"
"234068","552-UM","2018/05/31 13:29:33","新北市永和區中正路666巷59號","121.518995","25.0090883333333","6500400","永和區"
"234015","745-BX","2018/05/31 13:29:32","新北市永和區環河西路一段51巷1號","121.514148333333","25.0181433333333","6500400","永和區"
"234028","746-BX","2018/05/31 13:29:25","新北市永和區民生路29號","121.523001666667","24.9983833333333","6500400","永和區"
"234052","KEA-2590","2018/05/31 13:29:38","新北市永和區復興街7號","121.515865","25.0129816666667","6500400","永和區"
"234012","KEA-2591","2018/05/31 13:29:35","新北市永和區永和路二段70號","121.51483","25.0111666666667","6500400","永和區"
"234060","AAD-866","2018/05/31 13:29:42","新北市永和區中正路570號","121.517101666667","25.0062283333333","6500400","永和區"
"234040","862-TW","2018/05/31 13:29:45","新北市永和區中和路519巷16號","121.510745","25.0032383333333","6500400","永和區"
"234048","863-TW","2018/05/31 13:29:36","新北市永和區保福路二段100號","121.510146666667","25.01361","6500400","永和區"
"234025","9371-KE","2018/05/31 13:29:35","新北市永和區中正路742-1號","121.51509","25.01027","6500400","永和區"
"234010","9373-KE","2018/05/31 13:29:31","新北市永和區仁愛路141巷3弄6號","121.511961666667","25.012445","6500400","永和區"
"248013","025-BX","2018/05/31 13:29:40","新北市五股區成泰路一段198號","121.435788333333","25.0784666666667","6501500","五股區"
"248015","026-BX","2018/05/31 13:29:34","新北市五股區凌雲路一段83巷22弄1號","121.44984","25.100775","6501500","五股區"
"248005","077-UY","2018/05/31 13:29:22","新北市五股區四維路62號","121.467336666667","25.072275","6501500","五股區"
"248007","095-VK","2018/05/31 13:29:36","新北市五股區四維路185巷42弄1號","121.463508333333","25.0768566666667","6501500","五股區"
"248017","225-UY","2018/05/31 13:29:27","新北市五股區御史路300號","121.417323333333","25.1083566666667","6501500","五股區"
"248011","247-BX","2018/05/31 13:29:37","新北市五股區御成路146號","121.440891666667","25.0944216666667","6501500","五股區"
"248003","677-BX","2018/05/31 13:29:27","新北市五股區民義路一段152號","121.433045","25.0874116666667","6501500","五股區"
"248001","678-BX","2018/05/31 13:29:37","新北市五股區西雲路152號","121.446285","25.0944466666667","6501500","五股區"
"248009","682-TV","2018/05/31 13:29:37","新北市五股區明德路12巷6號","121.433393333333","25.0717983333333","6501500","五股區"
"234022","9380-KE","2018/05/31 13:29:32","新北市永和區竹林路91巷45號","121.521285","25.012945","6500400","永和區"
"234076","969-R7","2018/05/31 13:29:35","新北市永和區智光街37號","121.517803333333","24.9987083333333","6500400","永和區"
"234072","AAC-211","2018/05/31 13:29:27","新北市永和區光復街60巷4弄20號","121.517421666667","25.017685","6500400","永和區"
"234066","AAC-212","2018/05/31 13:29:35","新北市永和區保平路113號","121.51091","25.006665","6500400","永和區"
"234001","AAC-295","2018/05/31 13:29:32","新北市永和區永平路79號","121.511566666667","25.0083283333333","6500400","永和區"
"244003","248-BX","2018/05/31 13:29:30","新北市林口區瑞平里8鄰52號","121.350151666667","25.1179816666667","6501700","林口區"
"243005","AAD-798","2018/05/31 13:27:22","新北市泰山區明志路三段206巷3號","121.423281666667","25.037915","6501600","泰山區"
"243004","646-TV","2018/05/31 13:29:35","新北市泰山區黎明路3號","121.421165","25.0633066666667","6501600","泰山區"
"231002","002-UM","2018/05/31 13:29:33","新北市新店區環河路62號","121.537056666667","24.9626266666667","6500600","新店區"
"231028","046-UY","2018/05/31 13:29:31","新北市新店區安華路28-1號","121.51953","24.96082","6500600","新店區"
"231001","047-UY","2018/05/31 13:29:36","新北市新店區中央路183-3號","121.536321666667","24.968765","6500600","新店區"
"231005","106-UY","2018/05/31 13:29:30","新北市新店區中正路12號","121.545371666667","24.9695316666667","6500600","新店區"
"231021","108-UY","2018/05/31 13:29:35","新北市新店區新烏路一段159號","121.544776666667","24.9352333333333","6500600","新店區"
"231011","187-VK","2018/05/31 13:29:31","新北市新店區光明街123號","121.539081666667","24.9618666666667","6500600","新店區"
"231010","188-VK","2018/05/31 13:29:26","新北市新店區中正路366號","121.53517","24.976135","6500600","新店區"
"231023","KEA-2219","2018/05/31 13:29:41","新北市新店區新店路23號","121.540213333333","24.9528233333333","6500600","新店區"
"231026","256-BX","2018/05/31 13:29:40","新北市新店區北新路一段35號","121.537965","24.9591383333333","6500600","新店區"
"231003","268-BY","2018/05/31 13:29:38","新北市新店區光明街161號","121.539546666667","24.96247","6500600","新店區"
"231018","278-BY","2018/05/31 13:29:23","新北市新店區中央路91號","121.531933333333","24.9761166666667","6500600","新店區"
"231017","AAD-862","2018/05/31 13:29:40","新北市新店區北宜路二段30巷5弄3號","121.548373333333","24.9507966666667","6500600","新店區"
"231038","3712-VJ","2018/05/31 13:29:27","新北市新店區安華路30巷1號","121.519578333333","24.95927","6500600","新店區"
"231027","3713-VJ","2018/05/31 13:29:29","新北市新店區環河路19巷13-1號","121.537661666667","24.9603766666667","6500600","新店區"
"231037","4716-K9","2018/05/31 13:29:33","新北市新店區安康路二段382號","121.50049","24.95704","6500600","新店區"
"231025","4715-K9","2018/05/31 13:29:44","新北市新店區中央七街61巷30號","121.529613333333","24.9757166666667","6500600","新店區"
"231036","512-UM","2018/05/31 13:29:34","新北市新店區建業路43號","121.47988","24.95518","6500600","新店區"
"231013","513-UM","2018/05/31 13:29:37","新北市新店區中央路226號","121.529608333333","24.972865","6500600","新店區"
"231030","619-UM","2018/05/31 13:29:29","新北市新店區安華路28-1號","121.519505","24.96065","6500600","新店區"
"231034","641-BX","2018/05/31 13:29:40","新北市新店區安華路16號","121.516498333333","24.9580116666667","6500600","新店區"
"231035","719-UM","2018/05/31 13:29:39","新北市新店區安一路一段1-1號","121.519498333333","24.96109","6500600","新店區"
"231031","720-UM","2018/05/31 13:29:40","新北市新店區安豐路60-1號","121.49782","24.953665","6500600","新店區"
"231029","897-TW","2018/05/31 13:29:25","新北市新店區安華路16號","121.516708333333","24.957985","6500600","新店區"
"231006","898-TW","2018/05/31 13:29:32","新北市新店區安康路一段35號","121.531671666667","24.960715","6500600","新店區"
"231004","899-TW","2018/05/31 13:29:24","新北市新店區安康路一段247-1號","121.524885","24.9632466666667","6500600","新店區"
"231024","AKT-0513","2018/05/31 13:29:28","新北市新店區中正路128巷17號","121.542428333333","24.9723966666667","6500600","新店區"
"235028","005-UY","2018/05/31 13:29:41","新北市中和區圓通路137號","121.49894","24.9956566666667","6500300","中和區"
"235027","006-UY","2018/05/31 13:29:38","新北市中和區連城路347巷2弄1號","121.488193333333","24.9957766666667","6500300","中和區"
"235020","096-UM","2018/05/31 13:29:32","新北市中和區中山路二段594號","121.482361666667","25.00551","6500300","中和區"
"235003","097-UM","2018/05/31 13:29:40","新北市中和區景新街269號","121.509061666667","24.9938533333333","6500300","中和區"
"235029","098-UM","2018/05/31 13:29:29","新北市中和區中山路二段64巷14弄1號","121.503421666667","25.005545","6500300","中和區"
"235022","151-BY","2018/05/31 13:29:29","新北市中和區圓通路369巷165號","121.490151666667","24.98215","6500300","中和區"
"235019","183-VK","2018/05/31 13:29:34","新北市中和區民享街287號","121.470483333333","24.9957783333333","6500300","中和區"
"235002","185-VK","2018/05/31 13:29:37","新北市中和區立人街14巷27號","121.519485","24.9952783333333","6500300","中和區"
"235013","186-VK","2018/05/31 13:29:41","新北市中和區景安路123號","121.505721666667","24.9961516666667","6500300","中和區"
"235031","255-BX","2018/05/31 13:29:24","新北市中和區新生街242巷11弄5號","121.482988333333","24.997435","6500300","中和區"
"235036","301-VK","2018/05/31 13:29:27","新北市中和區連城路221號","121.494295","24.9976516666667","6500300","中和區"
"235007","352-BY","2018/05/31 13:29:31","新北市中和區景平路331號","121.505831666667","24.9933016666667","6500300","中和區"
"235018","269-TV","2018/05/31 13:29:39","新北市中和區民享街90巷2號","121.474698333333","25.00045","6500300","中和區"
"235014","4979-A6","2018/05/31 13:29:34","新北市中和區景新街362巷14號","121.511701666667","24.9900366666667","6500300","中和區"
"235033","4980-A6","2018/05/31 13:29:27","新北市中和區連城路127巷13號","121.496648333333","24.9984316666667","6500300","中和區"
"235034","558-UM","2018/05/31 13:29:43","新北市中和區南華路11號","121.502301666667","24.995605","6500300","中和區"
"235009","565-BX","2018/05/31 13:29:28","新北市中和區南山路236巷22弄23號","121.504941666667","24.989265","6500300","中和區"
"235024","647-TV","2018/05/31 13:29:31","新北市中和區員山路283號","121.481296666667","24.99976","6500300","中和區"
"235035","783-BX","2018/05/31 13:29:41","新北市中和區環中路128號","121.481913333333","25.0127183333333","6500300","中和區"
"235026","800-TS","2018/05/31 13:29:38","新北市中和區中山路二段312巷53號","121.495126666667","25.0046083333333","6500300","中和區"
"235005","802-TS","2018/05/31 13:29:35","新北市中和區中和路318號","121.509573333333","25.0004666666667","6500300","中和區"
"235016","805-TS","2018/05/31 13:29:45","新北市中和區興南路二段104號","121.504863333333","24.9840083333333","6500300","中和區"
"235012","896-TW","2018/05/31 13:29:26","新北市中和區中正路637巷60弄61號","121.485445","24.9929716666667","6500300","中和區"
"235017","900-TW","2018/05/31 13:29:28","新北市土城區金城路三段257號","121.471801666667","24.9900316666667","6500300","中和區"
"235030","911-UM","2018/05/31 13:29:32","新北市中和區中山路二段120號","121.50269","25.0036866666667","6500300","中和區"
"235015","157-BY","2018/05/31 13:29:41","新北市中和區興南路二段142巷35弄1號","121.5024","24.9845366666667","6500300","中和區"
"235001","AAC-213","2018/05/31 13:29:32","新北市中和區景德街95號","121.515758333333","24.9913583333333","6500300","中和區"
"220013","072-UY","2018/05/31 13:29:37","新北市板橋區南雅南路二段1-1號","121.454821666667","25.00385","6500100","板橋區"
"220034","073-UY","2018/05/31 13:29:30","新北市板橋區華東街1-10號","121.448546666667","24.9949816666667","6500100","板橋區"
"247007","056-VK","2018/05/31 13:29:31","新北市五股區中興路三段192號","121.442478333333","25.0817266666667","6501400","蘆洲區"
"247003","053-VK","2018/05/31 13:29:29","新北市五股區中興路二段182巷15弄13號","121.457068333333","25.0817083333333","6501400","蘆洲區"
"235011","251-BX","2018/05/31 13:29:29","新北市中和區南山路300號","121.507913333333","24.9871483333333","6500300","中和區"
"228005","097-TW","2018/05/31 13:29:26","新北市貢寮區美豐里文秀坑8號","121.902655","25.0504683333333","6502600","貢寮區"
"228004","212-TW","2018/05/31 13:29:19","新北市貢寮區龍崗里石壁坑街17號","121.91034","24.9894666666667","6502600","貢寮區"
"253003","6232-TK","2018/05/31 13:29:36","新北市石門區內石門17號","121.573451666667","25.2746733333333","6502200","石門區"
"253001","6251-TK","2018/05/31 13:29:37","新北市石門區崁子腳13號","121.532941666667","25.2882933333333","6502200","石門區"
"253002","637-UY","2018/05/31 13:29:37","新北市石門區九芎林13-1號","121.56503","25.2636883333333","6502200","石門區"
"253004","8270-PC","2018/05/31 13:29:27","新北市石門區竹子湖4號","121.616923333333","25.2616666666667","6502200","石門區"
"249004","440-VK","2018/05/31 13:29:36","新北市八里區忠孝路276號","121.420535","25.1610833333333","6502300","八里區"
"207002","749-BX","2018/05/31 13:29:27","新北市萬里區崁腳里崁腳路166號","121.64505","25.1557616666667","6502800","萬里區"
"207001","662-BX","2018/05/31 13:29:25","新北市萬里區野柳里八斗60號","121.663213333333","25.206065","6502800","萬里區"
"252005","AAC-283","2018/05/31 13:29:31","新北市三芝區圓山里木屐寮30號","121.53153","25.2225966666667","6502100","三芝區"
"236074","166-UM","2018/05/31 13:29:29","新北市土城區城林路6巷80號","121.438718333333","24.9796916666667","6501300","土城區"
"236005","498-BY","2018/05/31 13:29:23","新北市土城區亞洲路11巷1弄17號","121.435555","24.9718533333333","6501300","土城區"
"221032","280-BY","2018/05/31 13:29:43","新北市汐止區龍安路15號","121.655666666667","25.0639916666667","6501100","汐止區"
"220027","145-BY","2018/05/31 13:29:34","","0","0","6500100","板橋區"
"220028","200-UY","2018/05/31 13:29:29","新北市板橋區華東街1-9號","121.448148333333","24.9948333333333","6500100","板橋區"
"220030","610-BX","2018/05/31 13:29:36","新北市樹林區樹新路106巷1號","121.430025","24.9977866666667","6500100","板橋區"
"220019","283-VK","2018/05/31 13:29:44","新北市板橋區華東街1-9號","121.448066666667","24.994975","6500100","板橋區"
"220043","285-UM","2018/05/31 13:29:22","新北市板橋區民生路二段161巷1號","121.470128333333","25.0198816666667","6500100","板橋區"
"220029","287-VK","2018/05/31 13:29:26","新北市板橋區華東街1-10號","121.448261666667","24.9950416666667","6500100","板橋區"
"220032","296-UM","2018/05/31 13:29:24","新北市板橋區華東街1-9號","121.448136666667","24.9949616666667","6500100","板橋區"
"220023","303-R5","2018/05/31 13:29:32","新北市板橋區華東街1-10號","121.448225","24.994995","6500100","板橋區"
"220010","305-R5","2018/05/31 13:29:26","新北市板橋區民生路二段120號","121.470666666667","25.0199666666667","6500100","板橋區"
"220012","486-VK","2018/05/31 13:29:23","新北市板橋區南雅南路二段120-8號","121.452241666667","24.9995166666667","6500100","板橋區"
"220104","560-BX","2018/05/31 13:29:31","新北市板橋區南雅南路二段146號","121.45167","24.9961933333333","6500100","板橋區"
"220005","686-BX","2018/05/31 13:29:39","新北市板橋區華東街1-9號","121.448196666667","24.9949066666667","6500100","板橋區"
"220025","687-BX","2018/05/31 13:29:32","新北市板橋區篤行路一段37號","121.43194","24.9940116666667","6500100","板橋區"
"220002","741-BX","2018/05/31 13:29:34","新北市板橋區華東街1-9號","121.448098333333","24.99495","6500100","板橋區"
"220014","829-TW","2018/05/31 13:29:37","新北市板橋區民生路二段120號","121.470653333333","25.0195183333333","6500100","板橋區"
"220022","895-R6","2018/05/31 13:29:38","新北市板橋區四川路二段130巷25弄2號","121.449216666667","24.9943866666667","6500100","板橋區"
"220021","985-R7","2018/05/31 13:29:29","新北市板橋區華東街1-10號","121.448315","24.995055","6500100","板橋區"
"235032","KEA-2873","2018/05/31 13:29:37","新北市中和區圓通路269號","121.495733333333","24.9931766666667","6500300","中和區"
"235025","KEA-2875","2018/05/31 13:29:20","新北市中和區民治街29巷2弄6號","121.475595","25.0007283333333","6500300","中和區"
