"lineid","car","time","location","longitude","latitude","cityid","cityname"
"234044","148-BY","2018/05/31 13:39:16","新北市永和區永元路96號","121.522656666667","25.0017933333333","6500400","永和區"
"234005","207-UY","2018/05/31 13:39:08","新北市永和區中山路一段50號","121.513206666667","25.0105766666667","6500400","永和區"
"234081","298-R6","2018/05/31 13:39:04","新北市永和區林森路20巷7號","121.525893333333","25.00563","6500400","永和區"
"234036","336-UY","2018/05/31 13:39:05","新北市永和區民樂街29號","121.527741666667","25.0014916666667","6500400","永和區"
"234062","337-UY","2018/05/31 13:39:11","新北市永和區秀朗路一段192巷6弄14號","121.519065","25.0022983333333","6500400","永和區"
"234084","338-UY","2018/05/31 13:39:07","新北市永和區成功路一段18巷15號","121.526278333333","25.004985","6500400","永和區"
"234068","552-UM","2018/05/31 13:39:13","新北市永和區永和路二段194號","121.515556666667","25.0137","6500400","永和區"
"234015","745-BX","2018/05/31 13:39:12","新北市永和區永和路二段425巷29號","121.51455","25.0176483333333","6500400","永和區"
"234028","746-BX","2018/05/31 13:39:12","新北市永和區民權路1巷18號","121.521183333333","24.9981716666667","6500400","永和區"
"234052","KEA-2590","2018/05/31 13:39:16","新北市永和區竹林路39巷12號","121.51841","25.0145283333333","6500400","永和區"
"234012","KEA-2591","2018/05/31 13:39:15","新北市永和區永平路222號","121.509056666667","25.0105716666667","6500400","永和區"
"234060","AAD-866","2018/05/31 13:39:06","新北市永和區中正路393號","121.517276666667","25.0040566666667","6500400","永和區"
"234040","862-TW","2018/05/31 13:39:16","新北市中和區中和路302-1號","121.508701666667","24.9999266666667","6500400","永和區"
"234048","863-TW","2018/05/31 13:39:10","新北市永和區保安路29號","121.510011666667","25.0163733333333","6500400","永和區"
"234025","9371-KE","2018/05/31 13:39:15","新北市永和區永平路164號","121.511055","25.0089383333333","6500400","永和區"
"234010","9373-KE","2018/05/31 13:39:11","新北市永和區保福路二段14-1號","121.510901666667","25.01143","6500400","永和區"
"248013","025-BX","2018/05/31 13:39:19","新北市五股區民義路一段107巷11號","121.433206666667","25.0854166666667","6501500","五股區"
"248015","026-BX","2018/05/31 13:39:14","新北市五股區凌雲路一段149巷42號","121.448611666667","25.1009216666667","6501500","五股區"
"248005","077-UY","2018/05/31 13:39:17","新北市五股區中興路一段13號","121.469236666667","25.0723433333333","6501500","五股區"
"248007","095-VK","2018/05/31 13:39:16","新北市五股區中興路一段150巷10號","121.464703333333","25.074375","6501500","五股區"
"248017","225-UY","2018/05/31 13:39:07","新北市五股區民義路二段78號","121.405933333333","25.1089883333333","6501500","五股區"
"248011","247-BX","2018/05/31 13:39:17","新北市五股區成泰路三段2巷1-20號","121.441235","25.0866616666667","6501500","五股區"
"248003","677-BX","2018/05/31 13:39:07","新北市五股區民義路一段222號","121.429146666667","25.09048","6501500","五股區"
"248001","678-BX","2018/05/31 13:39:16","新北市五股區西雲路248號","121.448848333333","25.096935","6501500","五股區"
"248009","682-TV","2018/05/31 13:39:08","新北市五股區水碓五路172號","121.43162","25.0739316666667","6501500","五股區"
"234076","969-R7","2018/05/31 13:39:15","新北市永和區得和路233-1號","121.520061666667","25.0001233333333","6500400","永和區"
"234072","AAC-211","2018/05/31 13:39:07","新北市永和區竹林路213巷3號","121.521175","25.0088916666667","6500400","永和區"
"234066","AAC-212","2018/05/31 13:39:15","新北市永和區永貞路406巷28號","121.509745","25.0079933333333","6500400","永和區"
"234001","AAC-295","2018/05/31 13:39:15","新北市永和區秀朗路一段22號","121.513978333333","25.0067716666667","6500400","永和區"
"244003","248-BX","2018/05/31 13:39:10","新北市林口區瑞樹坑63號","121.344605","25.12672","6501700","林口區"
"243005","AAD-798","2018/05/31 13:27:22","新北市泰山區明志路三段206巷3號","121.423281666667","25.037915","6501600","泰山區"
"243008","380-SR","2018/05/31 13:39:08","新北市泰山區犁頭窠3-1號","121.422226666667","25.06022","6501600","泰山區"
"243004","646-TV","2018/05/31 13:39:15","新北市泰山區福興三街13號","121.434423333333","25.0577416666667","6501600","泰山區"
"231002","002-UM","2018/05/31 13:39:13","新北市新店區中央三街127號","121.524075","24.976855","6500600","新店區"
"231028","046-UY","2018/05/31 13:39:11","新北市新店區安和路一段52巷2-1號","121.51769","24.9664383333333","6500600","新店區"
"231001","047-UY","2018/05/31 13:39:16","新北市新店區中正路434號","121.534171666667","24.9781983333333","6500600","新店區"
"231005","106-UY","2018/05/31 13:39:10","新北市新店區寶中路72號","121.547903333333","24.9806233333333","6500600","新店區"
"231021","108-UY","2018/05/31 13:39:15","新北市新店區永興路95-3號","121.544546666667","24.9324483333333","6500600","新店區"
"231011","187-VK","2018/05/31 13:39:11","新北市新店區德正街23巷2號","121.544173333333","24.9719066666667","6500600","新店區"
"231010","188-VK","2018/05/31 13:39:06","新北市新店區中正路307巷17號","121.535846666667","24.973585","6500600","新店區"
"231023","KEA-2219","2018/05/31 13:39:01","新北市新店區新店路122號","121.537115","24.95488","6500600","新店區"
"231026","256-BX","2018/05/31 13:39:00","新北市新店區中正路226號","121.540066666667","24.9727983333333","6500600","新店區"
"231003","268-BY","2018/05/31 13:39:18","新北市新店區中正路71號","121.543563333333","24.96956","6500600","新店區"
"231018","278-BY","2018/05/31 13:39:03","新北市新店區百忍街31號","121.533753333333","24.9757116666667","6500600","新店區"
"231017","AAD-862","2018/05/31 13:39:00","新北市新店區竹林路2巷27弄11號","121.550945","24.950915","6500600","新店區"
"231038","3712-VJ","2018/05/31 13:39:07","新北市新店區安華路30巷1號","121.519573333333","24.95929","6500600","新店區"
"231027","3713-VJ","2018/05/31 13:39:10","新北市新店區國校路68號","121.538558333333","24.9531433333333","6500600","新店區"
"231037","4716-K9","2018/05/31 13:39:13","新北市新店區薏仁坑路33號","121.494206666667","24.9621283333333","6500600","新店區"
"231025","4715-K9","2018/05/31 13:39:04","新北市新店區中央六街52號","121.52812","24.9756483333333","6500600","新店區"
"231036","512-UM","2018/05/31 13:39:12","新北市新店區安祥路160號","121.477811666667","24.956185","6500600","新店區"
"231013","513-UM","2018/05/31 13:38:57","新北市新店區中正路454-5號","121.534406666667","24.979045","6500600","新店區"
"231030","619-UM","2018/05/31 13:39:09","新北市新店區安康路一段222-1號","121.522816666667","24.9636733333333","6500600","新店區"
"231034","641-BX","2018/05/31 13:39:00","新北市新店區車子路134號","121.505178333333","24.949815","6500600","新店區"
"231035","719-UM","2018/05/31 13:39:06","新北市新店區安康路二段85巷44號","121.514318333333","24.961175","6500600","新店區"
"231031","720-UM","2018/05/31 13:39:00","新北市新店區安康路一段277號","121.523841666667","24.963475","6500600","新店區"
"231029","897-TW","2018/05/31 13:39:05","新北市新店區安康路二段239號","121.508143333333","24.9585683333333","6500600","新店區"
"231006","898-TW","2018/05/31 13:39:12","新北市新店區北宜路一段76號","121.538563333333","24.955875","6500600","新店區"
"231004","899-TW","2018/05/31 13:39:04","新北市新店區北新路二段12號","121.542781666667","24.971235","6500600","新店區"
"231024","AKT-0513","2018/05/31 13:39:08","新北市新店區中華路44號","121.539773333333","24.9682866666667","6500600","新店區"
"235028","005-UY","2018/05/31 13:39:01","新北市中和區連勝街31號","121.49839","24.9978816666667","6500300","中和區"
"235027","006-UY","2018/05/31 13:39:18","新北市中和區連城路389巷6號","121.486551666667","24.99575","6500300","中和區"
"235020","096-UM","2018/05/31 13:39:12","新北市中和區員山路466巷21弄1號","121.480603333333","25.0069816666667","6500300","中和區"
"235003","097-UM","2018/05/31 13:38:59","新北市中和區大勇街27巷16號","121.516725","24.9937566666667","6500300","中和區"
"235029","098-UM","2018/05/31 13:39:13","新北市中和區莊敬路33巷13號","121.500253333333","25.0068583333333","6500300","中和區"
"235022","151-BY","2018/05/31 13:39:09","新北市中和區員山路31-10號","121.481488333333","24.98862","6500300","中和區"
"235019","183-VK","2018/05/31 13:39:14","新北市中和區莒光路120巷17弄2號","121.471715","25.0009633333333","6500300","中和區"
"235002","185-VK","2018/05/31 13:39:17","新北市中和區立人街24-5號","121.518843333333","24.9941833333333","6500300","中和區"
"235013","186-VK","2018/05/31 13:39:00","新北市中和區明義街10號","121.504853333333","24.9949483333333","6500300","中和區"
"235031","255-BX","2018/05/31 13:39:04","新北市中和區新生街220巷4號","121.482913333333","24.9986433333333","6500300","中和區"
"235044","293-VK","2018/05/31 13:39:10","新北市中和區復興路274巷12號","121.502761666667","24.990815","6500300","中和區"
"235036","301-VK","2018/05/31 13:39:07","新北市中和區景平路597號","121.497051666667","25.0006183333333","6500300","中和區"
"235007","352-BY","2018/05/31 13:39:11","新北市中和區景平路165號","121.51232","24.9924383333333","6500300","中和區"
"235018","269-TV","2018/05/31 13:39:09","新北市中和區莒光路149號","121.472708333333","25.001105","6500300","中和區"
"235014","4979-A6","2018/05/31 13:39:14","新北市中和區景新街496巷35弄1號","121.513513333333","24.9856216666667","6500300","中和區"
"235033","4980-A6","2018/05/31 13:39:07","新北市中和區連城路87號","121.496856666667","25.0002916666667","6500300","中和區"
"235034","558-UM","2018/05/31 13:39:03","新北市中和區南華路65號","121.504578333333","24.9972383333333","6500300","中和區"
"235009","565-BX","2018/05/31 13:39:08","新北市中和區南山路236巷63弄1號","121.503826666667","24.9876133333333","6500300","中和區"
"235024","647-TV","2018/05/31 13:39:11","新北市中和區員山路483號","121.480066666667","25.0054666666667","6500300","中和區"
"235035","783-BX","2018/05/31 13:39:01","新北市中和區永和路356巷446-16號","121.486806666667","25.0137566666667","6500300","中和區"
"235026","800-TS","2018/05/31 13:38:18","新北市中和區中山路二段284號","121.496236666667","25.0024433333333","6500300","中和區"
"235005","802-TS","2018/05/31 13:39:15","新北市中和區中安街80巷3號","121.511981666667","25.00197","6500300","中和區"
"235016","805-TS","2018/05/31 13:39:18","新北市中和區興南路三段42號","121.496013333333","24.9773816666667","6500300","中和區"
"235012","896-TW","2018/05/31 13:39:06","新北市中和區中正路83號","121.500681666667","24.99345","6500300","中和區"
"235017","900-TW","2018/05/31 13:39:07","新北市中和區民享街457號","121.470435","24.993155","6500300","中和區"
"235030","911-UM","2018/05/31 13:39:12","新北市中和區水源路39號","121.504636666667","25.0035883333333","6500300","中和區"
"235015","157-BY","2018/05/31 13:39:01","新北市中和區華新街143巷106弄32號","121.506236666667","24.9787233333333","6500300","中和區"
"235001","AAC-213","2018/05/31 13:39:13","新北市中和區景新街383巷62號","121.514656666667","24.990455","6500300","中和區"
"235023","AAC-215","2018/05/31 13:39:15","新北市中和區錦和路354巷15號","121.489495","24.9915766666667","6500300","中和區"
"220013","072-UY","2018/05/31 13:39:17","新北市板橋區漢生東路215號","121.470655","25.0102116666667","6500100","板橋區"
"220034","073-UY","2018/05/31 13:39:10","新北市板橋區館前西路168-1號","121.451856666667","25.0088466666667","6500100","板橋區"
"247007","056-VK","2018/05/31 13:39:11","新北市五股區四維路171巷8號","121.467486666667","25.0753883333333","6501400","蘆洲區"
"247003","053-VK","2018/05/31 13:39:09","新北市蘆洲區中原路32號","121.460028333333","25.08276","6501400","蘆洲區"
"247019","001-UY","2018/05/31 13:39:17","新北市五股區新五路三段159號","121.448578333333","25.09164","6501400","蘆洲區"
"235011","251-BX","2018/05/31 13:39:09","新北市中和區興南路二段30巷10號","121.507095","24.9862666666667","6500300","中和區"
"228005","097-TW","2018/05/31 13:39:06","新北市貢寮區美豐里文秀坑8號","121.902658333333","25.050485","6502600","貢寮區"
"228004","212-TW","2018/05/31 13:36:59","新北市貢寮區龍崗里石壁坑街30號","121.909795","25.00222","6502600","貢寮區"
"253003","6232-TK","2018/05/31 13:39:17","新北市石門區尖子鹿8-1號","121.575221666667","25.2799216666667","6502200","石門區"
"253001","6251-TK","2018/05/31 13:38:57","新北市石門區下員坑21號","121.511083333333","25.2775633333333","6502200","石門區"
"253002","637-UY","2018/05/31 13:39:17","新北市石門區九芎林35號","121.566536666667","25.25546","6502200","石門區"
"253004","8270-PC","2018/05/31 13:37:46","新北市石門區竹子湖13號","121.617435","25.2556533333333","6502200","石門區"
"249004","440-VK","2018/05/31 13:39:16","新北市八里區忠孝路262號","121.420566666667","25.1611283333333","6502300","八里區"
"207002","749-BX","2018/05/31 13:39:07","新北市萬里區崁腳里崁腳路166號","121.645036666667","25.15581","6502800","萬里區"
"207001","662-BX","2018/05/31 13:39:06","新北市萬里區磺潭里公館崙24號","121.63499","25.2127966666667","6502800","萬里區"
"252005","AAC-283","2018/05/31 13:39:11","新北市三芝區圓山里內柑宅27-1號","121.538186666667","25.2203283333333","6502100","三芝區"
"236074","166-UM","2018/05/31 13:39:09","新北市土城區城林路6巷80號","121.438698333333","24.9796716666667","6501300","土城區"
"236012","270-VK","2018/05/31 13:39:14","新北市土城區城林路6巷80號","121.438568333333","24.9798016666667","6501300","土城區"
"236032","271-VK","2018/05/31 13:39:11","新北市土城區城林路6巷80號","121.43841","24.979775","6501300","土城區"
"236068","KEA-2877","2018/05/31 13:39:05","新北市土城區城林路6巷80號","121.438791666667","24.9796683333333","6501300","土城區"
"236005","498-BY","2018/05/31 13:39:07","新北市土城區慶祥街18號","121.437746666667","24.974865","6501300","土城區"
"236060","915-UM","2018/05/31 13:39:06","新北市土城區城林路6巷80號","121.438473333333","24.9797933333333","6501300","土城區"
"221032","280-BY","2018/05/31 13:39:03","新北市汐止區忠孝東路9號","121.657875","25.0657716666667","6501100","汐止區"
"220027","145-BY","2018/05/31 13:39:14","新北市板橋區南雅西路二段185號","121.451885","25.012855","6500100","板橋區"
"220028","200-UY","2018/05/31 13:39:09","新北市板橋區大觀路二段265巷76弄37號","121.441116666667","24.99677","6500100","板橋區"
"220030","610-BX","2018/05/31 13:39:16","新北市板橋區篤行路二段135號","121.430248333333","24.9889666666667","6500100","板橋區"
"220004","276-BY","2018/05/31 13:39:14","新北市板橋區四川路二段140巷20號","121.449071666667","24.9934533333333","6500100","板橋區"
"220020","277-BY","2018/05/31 13:39:18","新北市板橋區大觀路二段443-2號","121.44007","24.9950883333333","6500100","板橋區"
"220019","283-VK","2018/05/31 13:39:04","新北市板橋區華東街1號","121.448321666667","24.9941916666667","6500100","板橋區"
"220043","285-UM","2018/05/31 13:39:02","新北市板橋區民生路二段161巷3號","121.469938333333","25.019675","6500100","板橋區"
"220031","286-VK","2018/05/31 13:39:08","新北市板橋區大觀路二段153巷44弄11號","121.447038333333","24.99919","6500100","板橋區"
"220029","287-VK","2018/05/31 13:39:06","新北市板橋區大觀路二段153巷44弄5號","121.446608333333","24.999375","6500100","板橋區"
"220009","293-UM","2018/05/31 13:39:03","新北市板橋區民生路二段161巷1號","121.470286666667","25.019915","6500100","板橋區"
"220032","296-UM","2018/05/31 13:39:04","新北市板橋區大觀路二段153巷44弄11號","121.446946666667","24.999215","6500100","板橋區"
"220023","303-R5","2018/05/31 13:39:13","新北市板橋區華東街300號","121.452741666667","25.0028616666667","6500100","板橋區"
"220010","305-R5","2018/05/31 13:39:06","新北市板橋區民生路二段120號","121.470503333333","25.0199283333333","6500100","板橋區"
"220012","486-VK","2018/05/31 13:39:03","新北市板橋區縣民大道二段82號","121.46541","25.0142183333333","6500100","板橋區"
"220104","560-BX","2018/05/31 13:39:11","新北市板橋區南雅西路二段175巷1號","121.451523333333","25.0124133333333","6500100","板橋區"
"220052","561-BX","2018/05/31 13:39:10","新北市板橋區民生路二段161巷1號","121.470125","25.0199066666667","6500100","板橋區"
"220011","609-BX","2018/05/31 13:39:15","新北市板橋區民生路二段226巷10弄13號","121.471186666667","25.021445","6500100","板橋區"
"220005","686-BX","2018/05/31 13:38:59","新北市板橋區華東街1-9號","121.448181666667","24.9949133333333","6500100","板橋區"
"220025","687-BX","2018/05/31 13:39:12","新北市板橋區大觀路三段160巷36號","121.429988333333","24.9940216666667","6500100","板橋區"
"220002","741-BX","2018/05/31 13:39:14","新北市板橋區華東街1-9號","121.448098333333","24.994935","6500100","板橋區"
"220003","827-TW","2018/05/31 13:39:07","新北市板橋區大觀路二段266號","121.449035","24.9964033333333","6500100","板橋區"
"220014","829-TW","2018/05/31 13:39:17","新北市板橋區民生路二段120號","121.470391666667","25.0199266666667","6500100","板橋區"
"220022","895-R6","2018/05/31 13:39:18","新北市板橋區南雅南路一段2-3號","121.456246666667","25.0067933333333","6500100","板橋區"
"220021","985-R7","2018/05/31 13:39:09","新北市板橋區南雅南路二段116號","121.453193333333","25.0001416666667","6500100","板橋區"
"220018","AAC-253","2018/05/31 13:39:16","新北市板橋區板城路421號","121.448193333333","24.9957333333333","6500100","板橋區"
"235032","KEA-2873","2018/05/31 13:39:07","新北市中和區中正路167巷13號","121.498183333333","24.992955","6500300","中和區"
"235025","KEA-2875","2018/05/31 13:38:50","新北市中和區民享街92巷23號","121.473775","24.99948","6500300","中和區"
"235021","KEA-2876","2018/05/31 13:39:11","新北市中和區民安街57號","121.478981666667","24.9996966666667","6500300","中和區"
