"lineid","car","time","location","longitude","latitude","cityid","cityname"
"244003","248-BX","2018/05/31 15:29:30","新北市林口區粉寮路二段160巷28號","121.40515","25.0907716666667","6501700","林口區"
"243014","680-BX","2018/05/31 15:26:55","新北市泰山區黎明路25號","121.422011666667","25.0606683333333","6501600","泰山區"
"231002","002-UM","2018/05/31 15:29:33","新北市新店區環河路112-1號","121.534728333333","24.9676166666667","6500600","新店區"
"231028","046-UY","2018/05/31 15:29:31","新北市新店區僑信路76號","121.499601666667","24.94852","6500600","新店區"
"231001","047-UY","2018/05/31 15:29:36","新北市新店區光明街185號","121.539911666667","24.963225","6500600","新店區"
"231005","106-UY","2018/05/31 15:29:30","新北市新店區建國路293巷1號","121.536663333333","24.9861833333333","6500600","新店區"
"231021","108-UY","2018/05/31 15:29:35","新北市新店區梅崗三路1號","121.55782","24.931155","6500600","新店區"
"231011","187-VK","2018/05/31 15:29:31","新北市新店區寶慶街32巷5弄10號","121.542808333333","24.987535","6500600","新店區"
"231023","KEA-2219","2018/05/31 15:29:41","新北市新店區北新路一段90號","121.541956666667","24.9686466666667","6500600","新店區"
"231026","256-BX","2018/05/31 15:29:37","新北市新店區三民路117巷5弄2號","121.534171666667","24.97114","6500600","新店區"
"231003","268-BY","2018/05/31 15:29:37","新北市新店區寶高路120巷1號","121.554566666667","24.9760566666667","6500600","新店區"
"231018","278-BY","2018/05/31 15:29:43","新北市新店區民生路149巷22號","121.528525","24.9786883333333","6500600","新店區"
"231017","AAD-862","2018/05/31 15:29:40","新北市新店區明山路45號","121.563816666667","24.9558983333333","6500600","新店區"
"231038","3712-VJ","2018/05/31 15:29:27","新北市新店區安華路28-1號","121.519711666667","24.9608116666667","6500600","新店區"
"231037","4716-K9","2018/05/31 15:29:43","新北市新店區安興路112號","121.514706666667","24.976985","6500600","新店區"
"231036","512-UM","2018/05/31 15:29:32","新北市新店區安祥路67巷50弄2號","121.484883333333","24.9590383333333","6500600","新店區"
"231013","513-UM","2018/05/31 15:29:46","新北市新店區永業路81巷5弄1號","121.530175","24.949","6500600","新店區"
"231030","619-UM","2018/05/31 15:29:29","新北市新店區永安街56巷49號","121.519566666667","24.9852166666667","6500600","新店區"
"231034","641-BX","2018/05/31 15:29:40","新北市新店區富貴街12巷2號","121.494123333333","24.9494233333333","6500600","新店區"
"231039","718-UY","2018/05/31 15:29:30","新北市新店區寶元路一段85巷4號","121.543101666667","24.9857333333333","6500600","新店區"
"231035","719-UM","2018/05/31 15:29:38","新北市新店區安民街365巷7弄2號","121.51601","24.9753433333333","6500600","新店區"
"231031","720-UM","2018/05/31 15:29:40","新北市新店區裕合街82號","121.49033","24.9486016666667","6500600","新店區"
"231029","897-TW","2018/05/31 15:29:45","新北市新店區安康路三段517號","121.482295","24.9480183333333","6500600","新店區"
"231006","898-TW","2018/05/31 15:29:32","新北市新店區安華路1-1號","121.519556666667","24.96027","6500600","新店區"
"231004","899-TW","2018/05/31 15:29:44","新北市新店區建國路127號","121.539641666667","24.9780216666667","6500600","新店區"
"241008","059-VK","2018/05/31 15:29:25","新北市三重區重新路四段121號","121.484941666667","25.0519866666667","6500200","三重區"
"241017","063-VK","2018/05/31 15:29:43","新北市三重區重新路四段121號","121.484923333333","25.0519316666667","6500200","三重區"
"241024","065-VK","2018/05/31 15:29:39","新北市三重區重新路四段121號","121.48491","25.0519266666667","6500200","三重區"
"241002","090-VK","2018/05/31 15:29:31","新北市三重區重新路四段121號","121.4848","25.05206","6500200","三重區"
"241003","091-VK","2018/05/31 15:29:46","新北市三重區重新路四段121號","121.484881666667","25.0518733333333","6500200","三重區"
"241022","742-BX","2018/05/31 15:29:35","新北市三重區重新路四段121號","121.484753333333","25.0523383333333","6500200","三重區"
"241013","270-UM","2018/05/31 15:29:37","新北市三重區重新路四段121號","121.484838333333","25.0525666666667","6500200","三重區"
"241007","398-BY","2018/05/31 15:29:33","新北市三重區重新路四段121號","121.48526","25.0521366666667","6500200","三重區"
"241025","413-TH","2018/05/31 15:29:13","新北市三重區重新路四段121號","121.484653333333","25.052385","6500200","三重區"
"241004","475-VK","2018/05/31 15:29:32","新北市三重區重新路四段121號","121.484745","25.05212","6500200","三重區"
"241020","478-VK","2018/05/31 15:29:40","新北市三重區忠孝路二段52號","121.48509","25.07047","6500200","三重區"
"241014","543-UM","2018/05/31 15:29:27","新北市三重區重新路四段121號","121.485075","25.0523033333333","6500200","三重區"
"241006","AAD-863","2018/05/31 15:29:36","新北市三重區重新路四段121號","121.4847","25.0521666666667","6500200","三重區"
"241029","942-UM","2018/05/31 15:29:29","新北市三重區重新路四段121號","121.484966666667","25.0520266666667","6500200","三重區"
"241033","AAC-255","2018/05/31 15:29:34","新北市三重區重新路四段121號","121.483838333333","25.0517683333333","6500200","三重區"
"235014","4979-A6","2018/05/31 15:29:47","新北市中和區景平路385巷9弄13號","121.502205","24.9941433333333","6500300","中和區"
"235033","4980-A6","2018/05/31 15:29:26","新北市中和區連城路300號","121.48392","24.99632","6500300","中和區"
"235030","911-UM","2018/05/31 15:29:32","新北市中和區保平路362巷11號","121.505873333333","25.0039433333333","6500300","中和區"
"235023","AAC-215","2018/05/31 15:29:35","新北市中和區員山路14-12號","121.483985","24.9834466666667","6500300","中和區"
"253003","6232-TK","2018/05/31 15:29:36","新北市石門區小坑9號","121.594383333333","25.28834","6502200","石門區"
"253001","6251-TK","2018/05/31 15:29:37","新北市石門區小坑9號","121.594406666667","25.28838","6502200","石門區"
"253004","8270-PC","2018/05/31 15:28:40","新北市石門區小坑29-1號","121.598063333333","25.2721016666667","6502200","石門區"
"252005","AAC-283","2018/05/31 15:29:31","新北市三芝區埔坪里埔頭坑33號","121.501713333333","25.2613666666667","6502100","三芝區"
"236040","107-UM","2018/05/31 15:29:44","新北市土城區學府路一段114號","121.45552","24.9877016666667","6501300","土城區"
"236074","166-UM","2018/05/31 15:29:29","新北市土城區龍泉路15號","121.411245","24.9475166666667","6501300","土城區"
"236029","253-BX","2018/05/31 15:29:38","新北市土城區中央路一段225-1號","121.445601666667","24.9863516666667","6501300","土城區"
"236024","269-VK","2018/05/31 15:29:36","新北市土城區中央路一段315號","121.443816666667","24.9834083333333","6501300","土城區"
"236012","270-VK","2018/05/31 15:29:34","新北市土城區德興街135號","121.455155","24.9917616666667","6501300","土城區"
"236032","271-VK","2018/05/31 15:29:30","新北市土城區延吉街296巷1弄1號","121.464453333333","24.9843933333333","6501300","土城區"
"236068","KEA-2877","2018/05/31 15:29:45","新北市土城區學府路2段185巷37-1號","121.447526666667","24.9776466666667","6501300","土城區"
"236017","401-BY","2018/05/31 15:29:36","新北市土城區延吉街139號","121.470581666667","24.9862833333333","6501300","土城區"
"236057","912-UM","2018/05/31 15:29:29","新北市土城區中央路二段227號","121.4404","24.9725783333333","6501300","土城區"
"236045","913-UM","2018/05/31 15:29:45","新北市土城區青雲路250-1號","121.45902","24.9799866666667","6501300","土城區"
"236060","915-UM","2018/05/31 15:29:26","新北市土城區延和路18巷13號","121.464823333333","24.987705","6501300","土城區"
"236054","AAC-216","2018/05/31 15:29:29","新北市土城區金城路三段179號","121.469525","24.9887883333333","6501300","土城區"
"238002","755-BX","2018/05/31 15:29:41","新北市樹林區復興路196號","121.420046666667","24.9910166666667","6500700","樹林區"
"238010","601-UM","2018/05/31 15:29:30","新北市樹林區三福街38號","121.408141666667","25.0165416666667","6500700","樹林區"
"238006","599-UM","2018/05/31 15:29:26","新北市樹林區名園街4號","121.418881666667","24.97943","6500700","樹林區"
"238018","571-TV","2018/05/31 15:29:43","新北市樹林區鎮前街277-3號","121.418928333333","24.9854316666667","6500700","樹林區"
"238011","5061-A6","2018/05/31 15:29:43","新北市樹林區八德街212巷24號","121.41511","24.973485","6500700","樹林區"
"238009","KEA-2213","2018/05/31 15:29:29","新北市樹林區仁愛街18號","121.422216666667","24.9819916666667","6500700","樹林區"
"238008","KEA-2539","2018/05/31 15:29:47","新北市樹林區柑園街一段57號","121.402853333333","24.960305","6500700","樹林區"
"238012","303-VK","2018/05/31 15:29:42","新北市樹林區中山路一段175號","121.421611666667","24.9882933333333","6500700","樹林區"
"238001","283-BY","2018/05/31 15:29:37","新北市樹林區保安街二段333巷2號","121.4123","25.00762","6500700","樹林區"
"238001","282-BY","2018/05/31 15:29:33","新北市樹林區中正路55巷11號","121.426275","24.9993233333333","6500700","樹林區"
"238007","268-VK","2018/05/31 15:29:35","新北市樹林區俊英街160巷10-1號","121.42782","25.00702","6500700","樹林區"
"238013","172-UY","2018/05/31 15:29:38","新北市樹林區新興街19巷2弄18號","121.401191666667","24.9727533333333","6500700","樹林區"
"238003","169-UY","2018/05/31 15:29:24","新北市樹林區長壽街2巷2號","121.424201666667","24.993605","6500700","樹林區"
"220050","245-BX","2018/05/31 15:29:34","新北市板橋區漢生東路83巷1號","121.466521666667","25.0157683333333","6500100","板橋區"
"220031","286-VK","2018/05/31 15:29:34","新北市板橋區僑中二街116巷12號","121.445168333333","25.0065383333333","6500100","板橋區"
"220052","561-BX","2018/05/31 15:29:30","新北市板橋區漢生東路35號","121.46543","25.0169783333333","6500100","板橋區"
"220011","609-BX","2018/05/31 15:29:41","新北市板橋區中山路二段132號","121.476363333333","25.01688","6500100","板橋區"
"220042","689-BX","2018/05/31 15:29:43","新北市板橋區長江路一段142號","121.460708333333","25.030185","6500100","板橋區"
"220051","KEA-2699","2018/05/31 15:29:45","新北市板橋區文化路一段280-1號","121.467123333333","25.0211733333333","6500100","板橋區"
"220016","830-TW","2018/05/31 15:27:48","新北市五股區中直路21號","121.421476666667","25.111925","6500100","板橋區"
"220038","833-TW","2018/05/31 15:29:40","新北市板橋區四維路255號","121.463498333333","25.027955","6500100","板橋區"
"220018","AAC-253","2018/05/31 15:29:35","新北市板橋區四川路二段245巷55弄1號","121.452411666667","24.9925733333333","6500100","板橋區"
