"lineid","car","time","location","longitude","latitude","cityid","cityname"
"248010","682-TV","2018/05/31 15:36:31","新北市五股區中興路二段63巷17號","121.460305","25.075255","6501500","五股區"
"243014","680-BX","2018/05/31 15:26:55","新北市泰山區黎明路25號","121.422011666667","25.0606683333333","6501600","泰山區"
"231021","108-UY","2018/05/31 15:49:35","新北市新店區新烏路一段85巷6-6號","121.549755","24.942735","6500600","新店區"
"231011","187-VK","2018/05/31 15:49:31","新北市新店區中興路三段160號","121.54445","24.9806666666667","6500600","新店區"
"231046","188-VK","2018/05/31 15:49:35","新北市新店區安康路一段275-1號","121.523903333333","24.9634733333333","6500600","新店區"
"231023","KEA-2219","2018/05/31 15:49:41","新北市新店區檳榔路2號","121.540808333333","24.9648533333333","6500600","新店區"
"231026","256-BX","2018/05/31 15:49:37","新北市新店區民生路13號","121.53313","24.9867766666667","6500600","新店區"
"231003","268-BY","2018/05/31 15:49:37","新北市新店區寶興路60巷3號","121.549873333333","24.9718366666667","6500600","新店區"
"231018","278-BY","2018/05/31 15:49:43","新北市新店區中正路663巷1弄4號","121.533043333333","24.9899983333333","6500600","新店區"
"231017","AAD-862","2018/05/31 15:49:40","新北市新店區中華路83巷2弄20號","121.538423333333","24.969215","6500600","新店區"
"231038","3712-VJ","2018/05/31 15:49:47","新北市新店區安康路二段228巷4號","121.509425","24.9597416666667","6500600","新店區"
"231037","4716-K9","2018/05/31 15:49:33","新北市新店區安興路65巷6號","121.515965","24.9728333333333","6500600","新店區"
"231013","513-UM","2018/05/31 15:49:37","新北市新店區華潭街52號","121.528926666667","24.9551316666667","6500600","新店區"
"231030","619-UM","2018/05/31 15:49:29","新北市新店區永安街52號","121.518426666667","24.9867333333333","6500600","新店區"
"231034","641-BX","2018/05/31 15:49:40","新北市新店區玫瑰路57巷13號","121.496201666667","24.94628","6500600","新店區"
"231035","719-UM","2018/05/31 15:49:38","新北市新店區安興路102號","121.515328333333","24.97662","6500600","新店區"
"231031","720-UM","2018/05/31 15:49:40","新北市新店區雙城路129號","121.492616666667","24.94698","6500600","新店區"
"231029","897-TW","2018/05/31 15:49:45","新北市新店區薏仁坑路自強巷1號","121.497481666667","24.9577566666667","6500600","新店區"
"231004","899-TW","2018/05/31 15:49:44","新北市新店區中正路429-1號","121.534065","24.9782766666667","6500600","新店區"
"241011","013-R5","2018/05/31 15:49:43","新北市三重區文化北路149-1號","121.497601666667","25.0695316666667","6500200","三重區"
"241028","022-UY","2018/05/31 15:49:34","新北市三重區中正南路46號","121.493906666667","25.0600066666667","6500200","三重區"
"241008","059-VK","2018/05/31 15:49:45","新北市三重區重新路四段121號","121.48491","25.0521416666667","6500200","三重區"
"241031","061-VK","2018/05/31 15:49:42","新北市三重區重新路四段121號","121.484686666667","25.0521983333333","6500200","三重區"
"241015","062-VK","2018/05/31 15:49:41","新北市三重區重新路四段121號","121.4851","25.0518883333333","6500200","三重區"
"241017","063-VK","2018/05/31 15:49:43","新北市三重區大仁街36巷4號","121.491388333333","25.0640833333333","6500200","三重區"
"241024","065-VK","2018/05/31 15:49:39","新北市三重區重新路四段121號","121.485201666667","25.050635","6500200","三重區"
"241026","066-VK","2018/05/31 15:49:26","新北市三重區環河南路262號","121.49009","25.0498766666667","6500200","三重區"
"241002","090-VK","2018/05/31 15:49:31","新北市三重區忠孝路三段56-1號","121.48052","25.0654233333333","6500200","三重區"
"241003","091-VK","2018/05/31 15:49:46","新北市三重區長元街105號","121.504636666667","25.06706","6500200","三重區"
"241016","266-UM","2018/05/31 15:49:47","新北市三重區重新路四段121號","121.485178333333","25.052085","6500200","三重區"
"241032","269-UM","2018/05/31 15:49:33","新北市三重區重新路四段121號","121.484926666667","25.0529233333333","6500200","三重區"
"241013","270-UM","2018/05/31 15:49:37","新北市三重區三和路三段40號","121.495943333333","25.0707383333333","6500200","三重區"
"241007","398-BY","2018/05/31 15:49:33","新北市三重區捷運路36號","121.482806666667","25.0553383333333","6500200","三重區"
"241025","413-TH","2018/05/31 15:49:33","新北市三重區新北大道一段250號","121.479943333333","25.0611533333333","6500200","三重區"
"241004","475-VK","2018/05/31 15:49:32","新北市三重區成功路112-5號","121.486635","25.0519516666667","6500200","三重區"
"241020","478-VK","2018/05/31 15:49:40","新北市三重區忠孝路二段54號","121.485048333333","25.0703283333333","6500200","三重區"
"241030","480-VK","2018/05/31 15:49:39","新北市三重區重新路四段121號","121.484753333333","25.052695","6500200","三重區"
"241014","543-UM","2018/05/31 15:49:27","新北市三重區重新路四段121號","121.485101666667","25.0518683333333","6500200","三重區"
"241023","545-UM","2018/05/31 15:49:42","新北市三重區新北大道一段250號","121.479943333333","25.061205","6500200","三重區"
"241019","KEA-2593","2018/05/31 15:49:31","新北市三重區重新路四段121號","121.484986666667","25.052145","6500200","三重區"
"241006","AAD-863","2018/05/31 15:49:34","新北市三重區新北大道一段3-1號","121.489976666667","25.0611666666667","6500200","三重區"
"241012","941-UM","2018/05/31 15:49:40","新北市三重區文化北路83巷2-1號","121.498401666667","25.067065","6500200","三重區"
"241029","942-UM","2018/05/31 15:49:29","新北市三重區大同南路242號","121.496931666667","25.0559216666667","6500200","三重區"
"241033","AAC-255","2018/05/31 15:49:33","新北市三重區光復路一段13號","121.472123333333","25.0472983333333","6500200","三重區"
"235033","4980-A6","2018/05/31 15:49:27","新北市中和區中正路637巷42號","121.485336666667","24.99438","6500300","中和區"
"235026","800-TS","2018/05/31 15:49:38","新北市中和區橋和路88-12號","121.48996","25.0052616666667","6500300","中和區"
"227010","642-TC","2018/05/31 15:49:45","新北市雙溪區牡丹里中正路56號","121.865678333333","25.0405966666667","6502500","雙溪區"
"227004","400-TW","2018/05/31 15:49:45","新北市雙溪區平林里外平林44號","121.852935","25.036345","6502500","雙溪區"
"252005","AAC-283","2018/05/31 15:49:31","新北市三芝區埔坪里埔頭坑41號","121.504498333333","25.2643966666667","6502100","三芝區"
"236074","166-UM","2018/05/31 15:49:42","新北市土城區三民路49巷6號","121.419373333333","24.9640166666667","6501300","土城區"
"236024","269-VK","2018/05/31 15:49:36","新北市土城區裕生路82巷10號","121.447015","24.9858533333333","6501300","土城區"
"236068","KEA-2877","2018/05/31 15:49:36","新北市土城區大安路14號","121.432708333333","24.96603","6501300","土城區"
"236017","401-BY","2018/05/31 15:49:36","新北市土城區金城路三段208號","121.471691666667","24.9898066666667","6501300","土城區"
"236057","912-UM","2018/05/31 15:49:29","新北市土城區中央路一段303號","121.44392","24.9835883333333","6501300","土城區"
"236045","913-UM","2018/05/31 15:49:33","新北市土城區金城路三段75號","121.466538333333","24.9871716666667","6501300","土城區"
"236054","AAC-216","2018/05/31 15:49:29","新北市土城區中華路一段213號","121.442451666667","24.9845266666667","6501300","土城區"
"238002","755-BX","2018/05/31 15:49:41","新北市樹林區樹德街123號","121.41962","24.9926583333333","6500700","樹林區"
"238010","601-UM","2018/05/31 15:49:35","新北市樹林區龍興街34號","121.402951666667","25.015865","6500700","樹林區"
"238006","599-UM","2018/05/31 15:49:45","新北市樹林區水源街32巷13號","121.42519","24.9811733333333","6500700","樹林區"
"238005","571-TV","2018/05/31 15:49:43","新北市樹林區水源街213號","121.424303333333","24.9873","6500700","樹林區"
"238011","5061-A6","2018/05/31 15:49:43","新北市樹林區山佳街57-1號","121.392943333333","24.9724816666667","6500700","樹林區"
"238009","KEA-2213","2018/05/31 15:49:33","新北市樹林區太順街62巷3弄16號","121.416986666667","24.9795366666667","6500700","樹林區"
"238008","KEA-2539","2018/05/31 15:49:35","新北市樹林區柑園街二段175號","121.380661666667","24.9533083333333","6500700","樹林區"
"238012","303-VK","2018/05/31 15:49:42","新北市樹林區保安二街50號","121.424415","24.99521","6500700","樹林區"
"238001","283-BY","2018/05/31 15:49:37","新北市樹林區光興街8-8號","121.413381666667","25.0030766666667","6500700","樹林區"
"238001","282-BY","2018/05/31 15:49:33","新北市樹林區保安二街40巷18號","121.425691666667","24.9946266666667","6500700","樹林區"
"238007","268-VK","2018/05/31 15:49:35","新北市樹林區三俊街213-1號","121.420608333333","25.015395","6500700","樹林區"
"238013","172-UY","2018/05/31 15:49:38","新北市樹林區育德街2號","121.392815","24.9706216666667","6500700","樹林區"
"238003","169-UY","2018/05/31 15:49:44","新北市樹林區啟智街173巷10號","121.416018333333","24.9873116666667","6500700","樹林區"
