"lineid","car","time","location","longitude","latitude","cityid","cityname"
"248010","682-TV","2018/05/31 15:36:31","新北市五股區中興路二段63巷17號","121.460305","25.075255","6501500","五股區"
"231021","108-UY","2018/05/31 15:59:35","新北市新店區北宜路一段188-1號","121.541018333333","24.9529183333333","6500600","新店區"
"231011","187-VK","2018/05/31 15:59:31","新北市新店區中正路374號","121.534956666667","24.97657","6500600","新店區"
"231046","188-VK","2018/05/31 15:59:35","新北市新店區永業路81巷28號","121.53032","24.9479633333333","6500600","新店區"
"231003","268-BY","2018/05/31 15:59:37","新北市新店區寶興路55號","121.549736666667","24.972445","6500600","新店區"
"231018","278-BY","2018/05/31 15:59:43","新北市新店區中正路663巷1弄31號","121.532515","24.9896766666667","6500600","新店區"
"231017","AAD-862","2018/05/31 15:59:40","新北市新店區中正路284巷2號","121.538456666667","24.9746883333333","6500600","新店區"
"231038","3712-VJ","2018/05/31 15:59:27","新北市新店區薏仁坑路自強巷6號","121.49691","24.9586283333333","6500600","新店區"
"231037","4716-K9","2018/05/31 15:59:33","新北市新店區吉安街14號","121.516748333333","24.9657733333333","6500600","新店區"
"231013","513-UM","2018/05/31 15:59:37","新北市新店區柴埕路38-8號","121.51322","24.9649316666667","6500600","新店區"
"231030","619-UM","2018/05/31 15:59:49","新北市新店區永平街60號","121.516238333333","24.9847333333333","6500600","新店區"
"231034","641-BX","2018/05/31 15:59:40","新北市新店區玫瑰路51巷20-1號","121.497231666667","24.9478666666667","6500600","新店區"
"231035","719-UM","2018/05/31 15:59:38","新北市新店區安民街221號","121.516976666667","24.9723766666667","6500600","新店區"
"241011","013-R5","2018/05/31 15:59:43","新北市三重區雙園街20號","121.497195","25.0682416666667","6500200","三重區"
"241028","022-UY","2018/05/31 15:59:34","新北市三重區大同南路128-2號","121.49648","25.058325","6500200","三重區"
"241008","059-VK","2018/05/31 15:59:45","新北市三重區重新路四段121號","121.484903333333","25.052245","6500200","三重區"
"241031","061-VK","2018/05/31 15:59:43","新北市三重區重新路四段121號","121.484688333333","25.052215","6500200","三重區"
"241015","062-VK","2018/05/31 15:59:41","新北市三重區重新路四段121號","121.485088333333","25.0518783333333","6500200","三重區"
"241017","063-VK","2018/05/31 15:59:43","新北市三重區大仁街50號","121.491811666667","25.0646533333333","6500200","三重區"
"241024","065-VK","2018/05/31 15:59:39","新北市三重區力行路一段38巷2號","121.485458333333","25.0667933333333","6500200","三重區"
"241026","066-VK","2018/05/31 15:59:41","新北市三重區大同南路62號","121.496171666667","25.0597116666667","6500200","三重區"
"241002","090-VK","2018/05/31 15:59:31","新北市三重區自強路四段32-2號","121.489038333333","25.0770316666667","6500200","三重區"
"241003","091-VK","2018/05/31 15:59:26","新北市三重區自強路五段100號","121.496733333333","25.0836833333333","6500200","三重區"
"241022","742-BX","2018/05/31 15:59:35","新北市三重區中正北路176巷2號","121.483153333333","25.0664566666667","6500200","三重區"
"241016","266-UM","2018/05/31 15:59:47","新北市三重區成功路110-1號","121.487221666667","25.051755","6500200","三重區"
"241018","268-UM","2018/05/31 15:59:45","新北市三重區大仁街18-1號","121.491346666667","25.0635133333333","6500200","三重區"
"241032","269-UM","2018/05/31 15:59:32","新北市三重區三陽路100巷3弄13號","121.483038333333","25.0581216666667","6500200","三重區"
"241013","270-UM","2018/05/31 15:59:37","新北市三重區三和路三段18號","121.496886666667","25.0702116666667","6500200","三重區"
"241007","398-BY","2018/05/31 15:59:33","新北市三重區力行路二段170號","121.483121666667","25.0768483333333","6500200","三重區"
"241025","413-TH","2018/05/31 15:59:33","新北市三重區三民街211號","121.48148","25.0661","6500200","三重區"
"241004","475-VK","2018/05/31 15:59:32","新北市三重區福德南路108-14號","121.501353333333","25.0581933333333","6500200","三重區"
"241020","478-VK","2018/05/31 15:59:40","新北市三重區車路頭街4巷23號","121.48327","25.0702033333333","6500200","三重區"
"241030","480-VK","2018/05/31 15:59:39","新北市三重區重新路四段121號","121.48474","25.052695","6500200","三重區"
"241014","543-UM","2018/05/31 15:59:48","新北市三重區重新路四段121號","121.485103333333","25.05191","6500200","三重區"
"241023","545-UM","2018/05/31 15:59:42","新北市三重區中正北路174號","121.48388","25.0665016666667","6500200","三重區"
"241019","KEA-2593","2018/05/31 15:59:31","新北市三重區忠孝路二段5號","121.486965","25.0714783333333","6500200","三重區"
"241006","AAD-863","2018/05/31 15:59:34","新北市三重區車路頭街135-1號","121.484353333333","25.076125","6500200","三重區"
"241012","941-UM","2018/05/31 15:59:40","新北市三重區文化北路118巷64號","121.497165","25.0660333333333","6500200","三重區"
"241029","942-UM","2018/05/31 15:59:29","新北市三重區大同南路212巷27號","121.497591666667","25.056645","6500200","三重區"
"241033","AAC-255","2018/05/31 15:59:33","新北市三重區光復路一段29號","121.472058333333","25.0478266666667","6500200","三重區"
"235026","800-TS","2018/05/31 15:59:38","新北市中和區永和路220號","121.491263333333","25.007455","6500300","中和區"
"224007","275-VK","2018/05/31 15:59:25","新北市瑞芳區大寮路58-2號","121.781675","25.0979833333333","6501200","瑞芳區"
"227010","642-TC","2018/05/31 15:59:25","新北市雙溪區三港里雙澳路33-3號","121.870381666667","25.049335","6502500","雙溪區"
"227004","400-TW","2018/05/31 15:59:45","新北市雙溪區平林里外平林76號","121.841948333333","25.0348533333333","6502500","雙溪區"
"252005","AAC-283","2018/05/31 15:59:31","新北市三芝區埔坪里埔頭坑41號","121.504486666667","25.2644033333333","6502100","三芝區"
"236074","166-UM","2018/05/31 15:59:29","新北市土城區德安街4巷2號","121.422248333333","24.9648","6501300","土城區"
"236068","KEA-2877","2018/05/31 15:59:47","新北市土城區福安街44號","121.418936666667","24.9649033333333","6501300","土城區"
"236057","912-UM","2018/05/31 15:59:29","新北市土城區中央路一段269-4號","121.444888333333","24.985045","6501300","土城區"
"238002","755-BX","2018/05/31 15:59:43","新北市樹林區啟智街80巷6號","121.41912","24.9923483333333","6500700","樹林區"
"238010","601-UM","2018/05/31 15:59:30","新北市樹林區龍興街46巷7號","121.402703333333","25.0153916666667","6500700","樹林區"
"238006","599-UM","2018/05/31 15:59:45","新北市樹林區國凱街116號","121.422431666667","24.9798966666667","6500700","樹林區"
"238005","571-TV","2018/05/31 15:59:43","新北市樹林區博愛街29巷10號","121.427403333333","24.9924733333333","6500700","樹林區"
"238011","5061-A6","2018/05/31 15:59:43","新北市樹林區佳園路一段70號","121.393125","24.9700983333333","6500700","樹林區"
"238009","KEA-2213","2018/05/31 15:59:29","新北市樹林區太順街60號","121.417973333333","24.979255","6500700","樹林區"
"238012","303-VK","2018/05/31 15:59:42","新北市樹林區保安街一段118號","121.423536666667","24.995","6500700","樹林區"
"238001","283-BY","2018/05/31 15:59:37","新北市樹林區中正路433-2號","121.414978333333","25.008165","6500700","樹林區"
"238001","282-BY","2018/05/31 15:59:33","新北市樹林區千歲街12號","121.425133333333","24.9957216666667","6500700","樹林區"
"238007","268-VK","2018/05/31 15:59:35","新北市樹林區三俊街175號","121.419453333333","25.01565","6500700","樹林區"
"238013","172-UY","2018/05/31 15:59:40","新北市樹林區佳園路一段75巷22號","121.395468333333","24.9702966666667","6500700","樹林區"
"238003","169-UY","2018/05/31 15:59:44","新北市樹林區中山路一段250號","121.420983333333","24.9874166666667","6500700","樹林區"
