"lineid","car","time","location","longitude","latitude","cityid","cityname"
"243009","297-R6","2018/05/31 16:06:11","新北市泰山區黎明路25號","121.421946666667","25.0609466666667","6501600","泰山區"
"231046","188-VK","2018/05/31 16:19:35","新北市新店區灣潭路3-2號","121.538285","24.95084","6500600","新店區"
"231018","278-BY","2018/05/31 16:19:43","新北市新店區中正路700巷82號","121.53596","24.99318","6500600","新店區"
"231034","641-BX","2018/05/31 16:19:40","新北市新店區薏仁坑路自強巷1號","121.497825","24.9575733333333","6500600","新店區"
"241011","013-R5","2018/05/31 16:19:43","新北市三重區龍濱路277號","121.501305","25.073205","6500200","三重區"
"241028","022-UY","2018/05/31 16:19:34","新北市三重區正義南路169號","121.498875","25.0574716666667","6500200","三重區"
"241008","059-VK","2018/05/31 16:19:45","新北市三重區力行路二段136巷45弄10號","121.479143333333","25.07534","6500200","三重區"
"241031","061-VK","2018/05/31 16:19:43","新北市三重區重新路四段242號","121.48575","25.0538216666667","6500200","三重區"
"241015","062-VK","2018/05/31 16:19:41","新北市三重區福德北路79號","121.501956666667","25.065885","6500200","三重區"
"241017","063-VK","2018/05/31 16:19:43","新北市三重區大同北路83號","121.494936666667","25.063585","6500200","三重區"
"241024","065-VK","2018/05/31 16:19:39","新北市三重區中正北路169號","121.478593333333","25.0692816666667","6500200","三重區"
"241026","066-VK","2018/05/31 16:19:41","新北市三重區正義南路46號","121.49828","25.0608766666667","6500200","三重區"
"241002","090-VK","2018/05/31 16:19:31","新北市三重區仁義街91號","121.499783333333","25.07958","6500200","三重區"
"241003","091-VK","2018/05/31 16:19:46","新北市三重區五華街57巷6號","121.493045","25.0827633333333","6500200","三重區"
"241022","742-BX","2018/05/31 16:19:35","新北市三重區過圳街31巷2號","121.489168333333","25.060595","6500200","三重區"
"241009","265-UM","2018/05/31 16:19:26","新北市三重區溪尾街196巷192-1號","121.488038333333","25.08084","6500200","三重區"
"241016","266-UM","2018/05/31 16:19:47","新北市三重區大仁街86號","121.492876666667","25.0654316666667","6500200","三重區"
"241018","268-UM","2018/05/31 16:19:45","新北市三重區重陽路三段43號","121.489496666667","25.067055","6500200","三重區"
"241032","269-UM","2018/05/31 16:19:32","新北市三重區三陽路100巷3弄13號","121.483016666667","25.05805","6500200","三重區"
"241013","270-UM","2018/05/31 16:19:37","新北市三重區仁愛街65號","121.496303333333","25.0726516666667","6500200","三重區"
"241007","398-BY","2018/05/31 16:19:33","新北市三重區慈愛街60號","121.486755","25.0794766666667","6500200","三重區"
"241025","413-TH","2018/05/31 16:19:33","新北市三重區中正北路560巷100弄2號","121.472543333333","25.0682283333333","6500200","三重區"
"241004","475-VK","2018/05/31 16:19:32","新北市三重區五華街70號","121.4935","25.0819416666667","6500200","三重區"
"241020","478-VK","2018/05/31 16:19:44","新北市三重區車路頭街17巷1號","121.484141666667","25.0703316666667","6500200","三重區"
"241030","480-VK","2018/05/31 16:19:39","新北市三重區重新路四段121號","121.484671666667","25.0527166666667","6500200","三重區"
"241014","543-UM","2018/05/31 16:19:27","新北市三重區河邊北街100巷23-1號","121.502888333333","25.0703633333333","6500200","三重區"
"241023","545-UM","2018/05/31 16:19:42","新北市三重區中正北路145巷4弄17號","121.482986666667","25.06797","6500200","三重區"
"241019","KEA-2593","2018/05/31 16:19:31","新北市三重區重陽路三段95號","121.49027","25.0679233333333","6500200","三重區"
"241006","AAD-863","2018/05/31 16:19:34","新北市三重區永福街46巷31弄8號","121.481913333333","25.0774516666667","6500200","三重區"
"241012","941-UM","2018/05/31 16:19:40","新北市三重區龍門路300號","121.502446666667","25.0742866666667","6500200","三重區"
"241029","942-UM","2018/05/31 16:19:29","新北市三重區環河南路220-8號","121.493383333333","25.0526633333333","6500200","三重區"
"241033","AAC-255","2018/05/31 16:19:33","新北市三重區重新路五段438號","121.474925","25.0473633333333","6500200","三重區"
"235026","800-TS","2018/05/31 16:19:38","新北市中和區建八路137號","121.490166666667","24.99867","6500300","中和區"
"224007","275-VK","2018/05/31 16:19:25","新北市瑞芳區大埔路180-2號","121.762216666667","25.1017133333333","6501200","瑞芳區"
"224005","271-BY","2018/05/31 16:19:30","新北市瑞芳區三爪子坑路32巷124號","121.809233333333","25.106645","6501200","瑞芳區"
"227010","642-TC","2018/05/31 16:19:45","新北市雙溪區三港里雙澳路80號","121.883828333333","25.05384","6502500","雙溪區"
"227004","400-TW","2018/05/31 16:19:45","新北市雙溪區上林里內平林80號","121.82829","25.0279466666667","6502500","雙溪區"
"251013","KEA-2871","2018/05/31 16:19:42","新北市淡水區北新路三段162號","121.492381666667","25.19148","6501000","淡水區"
"251008","181-VK","2018/05/31 16:19:47","新北市淡水區中正路28號","121.44437","25.1690783333333","6501000","淡水區"
"236057","912-UM","2018/05/31 16:19:29","新北市土城區中央路三段38號","121.438368333333","24.96881","6501300","土城區"
"238002","755-BX","2018/05/31 16:19:41","新北市樹林區中山路二段219號","121.402435","24.9762283333333","6500700","樹林區"
"238010","601-UM","2018/05/31 16:19:30","新北市樹林區忠信街15號","121.407661666667","25.0150333333333","6500700","樹林區"
"238006","599-UM","2018/05/31 16:19:45","新北市樹林區東華街17號","121.414666666667","24.982335","6500700","樹林區"
"238025","303-VK","2018/05/31 16:12:17","新北市樹林區中正路22-1號","121.42786","24.99942","6500700","樹林區"
"238001","283-BY","2018/05/31 16:19:37","新北市樹林區中正路433-2號","121.414888333333","25.0082066666667","6500700","樹林區"
"238001","282-BY","2018/05/31 16:19:33","新北市樹林區千歲街63-14號","121.42698","24.99872","6500700","樹林區"
"238007","268-VK","2018/05/31 16:19:35","新北市樹林區三龍街94巷6號","121.414415","25.0182333333333","6500700","樹林區"
