"lineid","car","time","location","longitude","latitude","cityid","cityname"
"243009","297-R6","2018/05/31 16:06:11","新北市泰山區黎明路25號","121.421946666667","25.0609466666667","6501600","泰山區"
"231046","188-VK","2018/05/31 16:29:35","新北市新店區灣潭路3-2號","121.538331666667","24.9508133333333","6500600","新店區"
"231034","641-BX","2018/05/31 16:29:40","新北市新店區安康路二段382號","121.50043","24.9572716666667","6500600","新店區"
"241011","013-R5","2018/05/31 16:29:43","新北市三重區秀江街71號","121.50059","25.0726966666667","6500200","三重區"
"241028","022-UY","2018/05/31 16:29:34","新北市三重區中正南路165號","121.493831666667","25.055945","6500200","三重區"
"241008","059-VK","2018/05/31 16:29:45","新北市三重區力行路二段136巷45弄10號","121.479176666667","25.07528","6500200","三重區"
"241031","061-VK","2018/05/31 16:29:43","新北市三重區重陽路一段78號","121.486475","25.059105","6500200","三重區"
"241015","062-VK","2018/05/31 16:29:41","新北市三重區福德北路36-1號","121.50179","25.06516","6500200","三重區"
"241017","063-VK","2018/05/31 16:29:43","新北市三重區大同北路65號","121.495026666667","25.0635183333333","6500200","三重區"
"241024","065-VK","2018/05/31 16:29:39","新北市三重區中正北路315巷16弄6號","121.475221666667","25.0716683333333","6500200","三重區"
"241026","066-VK","2018/05/31 16:29:40","新北市三重區光興街1號","121.500338333333","25.0604016666667","6500200","三重區"
"241002","090-VK","2018/05/31 16:29:31","新北市三重區五華街9-2號","121.49516","25.0800983333333","6500200","三重區"
"241003","091-VK","2018/05/31 16:29:46","新北市三重區仁義街230巷11號","121.494105","25.0846883333333","6500200","三重區"
"241022","742-BX","2018/05/31 16:29:35","新北市三重區過圳街98號","121.486133333333","25.0619933333333","6500200","三重區"
"241009","265-UM","2018/05/31 16:29:45","新北市三重區三和路四段191巷61號","121.484088333333","25.0796583333333","6500200","三重區"
"241016","266-UM","2018/05/31 16:29:47","新北市三重區自強路一段160巷2弄55號","121.49436","25.065765","6500200","三重區"
"241018","268-UM","2018/05/31 16:29:45","新北市三重區正義北路364巷48-1號","121.492875","25.0707766666667","6500200","三重區"
"241032","269-UM","2018/05/31 16:29:32","新北市三重區三陽路100巷3弄13號","121.483031666667","25.0580633333333","6500200","三重區"
"241013","270-UM","2018/05/31 16:29:37","新北市三重區龍門路51號","121.49629","25.0722816666667","6500200","三重區"
"241007","398-BY","2018/05/31 16:29:33","新北市三重區三和路四段167巷137號","121.487883333333","25.0802083333333","6500200","三重區"
"241025","413-TH","2018/05/31 16:29:33","新北市三重區中正北路560巷100弄2號","121.47253","25.0682433333333","6500200","三重區"
"241004","475-VK","2018/05/31 16:29:32","新北市三重區仁愛街377巷3號","121.492006666667","25.0805883333333","6500200","三重區"
"241020","478-VK","2018/05/31 16:29:40","新北市三重區後竹圍街227號","121.484418333333","25.0715433333333","6500200","三重區"
"241030","480-VK","2018/05/31 16:29:39","新北市三重區成功路92號","121.487925","25.0513333333333","6500200","三重區"
"241014","543-UM","2018/05/31 16:29:27","新北市三重區河邊北街72-6號","121.504343333333","25.0686033333333","6500200","三重區"
"241023","545-UM","2018/05/31 16:29:45","新北市三重區忠孝路三段50巷47號","121.48314","25.06434","6500200","三重區"
"241019","KEA-2593","2018/05/31 16:29:31","新北市三重區重陽路三段95號","121.490315","25.0678866666667","6500200","三重區"
"241006","AAD-863","2018/05/31 16:29:34","新北市三重區力行路二段131號","121.48335","25.076885","6500200","三重區"
"241012","941-UM","2018/05/31 16:29:43","新北市三重區河邊北街379-1號","121.501723333333","25.0765133333333","6500200","三重區"
"241029","942-UM","2018/05/31 16:29:29","新北市三重區集美街126巷2號","121.489096666667","25.05364","6500200","三重區"
"241033","AAC-255","2018/05/31 16:29:33","新北市三重區五谷王北街20巷15弄2號","121.474918333333","25.04837","6500200","三重區"
"235026","800-TS","2018/05/31 16:29:38","新北市中和區連城路224號","121.491128333333","24.9967666666667","6500300","中和區"
"224008","285-BY","2018/05/31 16:29:39","新北市瑞芳區傑魚坑路319-1號","121.78586","25.1031083333333","6501200","瑞芳區"
"224007","275-VK","2018/05/31 16:29:27","新北市瑞芳區瑞竹路77號","121.763848333333","25.102555","6501200","瑞芳區"
"224005","271-BY","2018/05/31 16:29:30","新北市瑞芳區阿美家園34號","121.821435","25.11682","6501200","瑞芳區"
"227010","642-TC","2018/05/31 16:29:45","新北市雙溪區三港里雙澳路22號","121.86949","25.0499466666667","6502500","雙溪區"
"227004","400-TW","2018/05/31 16:29:45","新北市雙溪區上林里內平林120-2號","121.824461666667","25.0262633333333","6502500","雙溪區"
"251013","KEA-2871","2018/05/31 16:29:42","新北市淡水區北新路三段162號","121.492385","25.1915233333333","6501000","淡水區"
"251016","179-VK","2018/05/31 16:29:33","新北市淡水區中正路二段31號","121.419118333333","25.182125","6501000","淡水區"
"251014","180-VK","2018/05/31 16:29:43","新北市淡水區義山路一段35號","121.437695","25.187865","6501000","淡水區"
"251008","181-VK","2018/05/31 16:29:26","新北市淡水區民生路14號","121.460951666667","25.13783","6501000","淡水區"
"238025","303-VK","2018/05/31 16:12:17","新北市樹林區中正路22-1號","121.42786","24.99942","6500700","樹林區"
"238001","283-BY","2018/05/31 16:29:37","新北市樹林區中正路433-2號","121.414738333333","25.008265","6500700","樹林區"
"238001","282-BY","2018/05/31 16:29:33","新北市樹林區中正路22-1號","121.427893333333","24.9994966666667","6500700","樹林區"
"238007","268-VK","2018/05/31 16:29:35","新北市樹林區俊英街280號","121.423803333333","25.0132333333333","6500700","樹林區"
