"lineid","car","time","location","longitude","latitude","cityid","cityname"
"234007","207-UY","2018/05/31 18:09:43","新北市永和區福和路1號","121.526165","25.0095383333333","6500400","永和區"
"234042","862-TW","2018/05/31 18:09:30","新北市永和區福和路1號","121.526358333333","25.0097333333333","6500400","永和區"
"234026","9371-KE","2018/05/31 18:09:45","新北市永和區永和路一段72巷4號","121.513408333333","25.0061283333333","6500400","永和區"
"234011","9373-KE","2018/05/31 17:48:05","新北市永和區福和路1號","121.525591666667","25.0095166666667","6500400","永和區"
"249005","172-UM","2018/05/31 18:09:34","新北市八里區荖阡坑路15-40號","121.401723333333","25.139735","6502300","八里區"
"249001","173-UM","2018/05/31 18:09:37","新北市八里區龍米路二段26號","121.448821666667","25.13959","6502300","八里區"
"249004","303-UY","2018/05/31 18:09:34","新北市八里區龍米路二段159-2號","121.439211666667","25.1539916666667","6502300","八里區"
"249002","305-UY","2018/05/31 18:09:36","新北市八里區龍米路一段356巷46號","121.45216","25.130285","6502300","八里區"
"249003","593-UM","2018/05/31 18:09:37","新北市八里區松子腳4-3號","121.403003333333","25.1442766666667","6502300","八里區"
"248014","025-BX","2018/05/31 18:09:42","新北市五股區成泰路一段210號","121.436085","25.0790333333333","6501500","五股區"
"248016","026-BX","2018/05/31 18:09:37","新北市五股區成泰路三段152號","121.444641666667","25.0910933333333","6501500","五股區"
"248006","077-UY","2018/05/31 18:09:41","新北市五股區中興路二段82號","121.46081","25.0772466666667","6501500","五股區"
"248008","095-VK","2018/05/31 18:09:33","新北市五股區中興路二段182巷15弄16號","121.458163333333","25.08052","6501500","五股區"
"248020","225-UY","2018/05/31 18:09:37","新北市五股區成泰路三段544-1號","121.454275","25.10237","6501500","五股區"
"248012","247-BX","2018/05/31 18:09:37","新北市五股區新五路二段258號","121.440981666667","25.0821883333333","6501500","五股區"
"248004","677-BX","2018/05/31 18:09:46","新北市五股區工商路48號","121.439168333333","25.0839766666667","6501500","五股區"
"248002","678-BX","2018/05/31 18:09:28","新北市五股區新五路三段12號","121.44394","25.0872666666667","6501500","五股區"
"248010","682-TV","2018/05/31 18:09:42","新北市五股區成泰路一段219-19號","121.434518333333","25.077685","6501500","五股區"
"232011","375-UM","2018/05/31 18:09:38","新北市坪林區坪林街16-1號","121.7125","24.9363033333333","6502000","坪林區"
"244013","069-UM","2018/05/31 18:09:38","新北市林口區中山路48號","121.395303333333","25.0784466666667","6501700","林口區"
"244007","080-UY","2018/05/31 18:09:39","新北市林口區林口路124巷10弄11號","121.38936","25.0814733333333","6501700","林口區"
"244019","403-UM","2018/05/31 18:09:37","新北市林口區文化一路一段26號","121.370535","25.0689783333333","6501700","林口區"
"244009","410-SL","2018/05/31 18:09:43","新北市林口區中山路305號","121.383743333333","25.0804833333333","6501700","林口區"
"244023","483-VK","2018/05/31 18:09:46","新北市林口區東湖路153巷135號","121.38219","25.0735466666667","6501700","林口區"
"244017","485-VK","2018/05/31 18:09:34","新北市林口區忠孝路504巷56號","121.36931","25.0695533333333","6501700","林口區"
"244011","657-BX","2018/05/31 18:09:48","新北市林口區中正路30巷7號","121.395906666667","25.07781","6501700","林口區"
"244025","837-TS","2018/05/31 18:09:36","新北市林口區文明街183號","121.36135","25.0728466666667","6501700","林口區"
"244021","838-TS","2018/05/31 18:09:26","新北市林口區自強三街15號","121.39755","25.0775766666667","6501700","林口區"
"243013","AAD-798","2018/05/31 18:09:50","新北市泰山區南林路99巷1-1號","121.41539","25.0508566666667","6501600","泰山區"
"222003","436-BY","2018/05/31 18:09:42","新北市深坑區阿柔洋47號","121.612273333333","24.9972966666667","6501800","深坑區"
"222002","659-BX","2018/05/31 18:09:40","新北市深坑區文化街52號","121.618961666667","25.001525","6501800","深坑區"
"231041","002-UM","2018/05/31 18:09:43","新北市新店區安華路28-1號","121.519825","24.9608066666667","6500600","新店區"
"231040","047-UY","2018/05/31 18:09:43","新北市新店區安華路28-1號","121.519206666667","24.9609783333333","6500600","新店區"
"231044","106-UY","2018/05/31 18:09:41","新北市新店區安華路28-1號","121.519681666667","24.9607966666667","6500600","新店區"
"231052","108-UY","2018/05/31 18:09:42","新北市新店區安一路一段1-1號","121.519628333333","24.96133","6500600","新店區"
"231046","188-VK","2018/05/31 18:09:35","新北市新店區直潭七街60號","121.532265","24.93982","6500600","新店區"
"231051","278-BY","2018/05/31 18:09:49","新北市新店區安一路一段1-1號","121.519345","24.9610333333333","6500600","新店區"
"231050","AAD-862","2018/05/31 18:09:36","新北市新店區安一路一段1-1號","121.519851666667","24.9611466666667","6500600","新店區"
"231058","3713-VJ","2018/05/31 18:09:40","新北市新店區安華路28-1號","121.519233333333","24.9608416666667","6500600","新店區"
"231066","4716-K9","2018/05/31 18:09:36","新北市新店區安一路一段1-1號","121.51931","24.96113","6500600","新店區"
"231056","4715-K9","2018/05/31 18:09:36","新北市新店區安華路28-1號","121.519763333333","24.9605816666667","6500600","新店區"
"231049","513-UM","2018/05/31 18:09:44","新北市新店區安一路一段1-1號","121.519611666667","24.9610816666667","6500600","新店區"
"231061","619-UM","2018/05/31 18:09:37","新北市新店區安華路28-1號","121.519493333333","24.9609533333333","6500600","新店區"
"231060","897-TW","2018/05/31 18:09:43","新北市新店區安華路28-1號","121.51974","24.9608066666667","6500600","新店區"
"231045","898-TW","2018/05/31 18:09:45","新北市新店區安華路28-1號","121.51934","24.960745","6500600","新店區"
"231043","899-TW","2018/05/31 18:09:41","新北市新店區安華路28-1號","121.519355","24.9607783333333","6500600","新店區"
"231055","AKT-0513","2018/05/31 18:09:46","新北市新店區安華路28-1號","121.519535","24.9605666666667","6500600","新店區"
"241033","AAC-255","2018/05/31 18:09:33","新北市三重區中興北街62號","121.468986666667","25.0517216666667","6500200","三重區"
"235064","005-UY","2018/05/31 18:09:41","新北市中和區中正路271號","121.495771666667","24.9937233333333","6500300","中和區"
"235063","006-UY","2018/05/31 18:09:47","新北市中和區員山路36巷16-3號","121.485126666667","24.9912166666667","6500300","中和區"
"235056","096-UM","2018/05/31 18:09:42","新北市中和區建八路1號","121.485578333333","24.998645","6500300","中和區"
"235065","098-UM","2018/05/31 18:09:45","新北市中和區中山路二段2巷45弄28號","121.502011666667","25.0065683333333","6500300","中和區"
"235058","151-BY","2018/05/31 18:09:45","新北市中和區圓通路367巷33弄1號","121.493961666667","24.9854633333333","6500300","中和區"
"235038","185-VK","2018/05/31 18:09:35","新北市中和區大仁街120號","121.520926666667","24.9920816666667","6500300","中和區"
"235067","255-BX","2018/05/31 18:09:38","新北市中和區和城路一段271巷1號","121.485678333333","24.9918166666667","6500300","中和區"
"235072","301-VK","2018/05/31 18:09:43","新北市中和區員山路36巷13號","121.484063333333","24.9909216666667","6500300","中和區"
"235054","269-TV","2018/05/31 18:09:38","新北市土城區金城路三段257號","121.471788333333","24.989995","6500300","中和區"
"235050","4979-A6","2018/05/31 18:09:28","新北市中和區中正路169號","121.497921666667","24.9936683333333","6500300","中和區"
"235042","551-UM","2018/05/31 18:09:32","新北市中和區中興街169號","121.499858333333","24.9905183333333","6500300","中和區"
"235070","558-UM","2018/05/31 18:09:39","新北市中和區中正路395號","121.489913333333","24.993595","6500300","中和區"
"235045","565-BX","2018/05/31 18:09:40","新北市中和區錦和路350-1號","121.490555","24.993655","6500300","中和區"
"235046","733-UM","2018/05/31 18:09:46","新北市中和區員山路36巷12號","121.48402","24.9908316666667","6500300","中和區"
"235062","800-TS","2018/05/31 18:09:00","新北市中和區民利街31巷2弄2號","121.479983333333","24.9987716666667","6500300","中和區"
"235052","805-TS","2018/05/31 18:09:49","新北市中和區中正路271-1號","121.495738333333","24.99367","6500300","中和區"
"235048","896-TW","2018/05/31 18:09:28","新北市中和區員山路36巷16-2號","121.485036666667","24.991785","6500300","中和區"
"235053","900-TW","2018/05/31 18:09:37","新北市中和區員山路36巷16-3號","121.485045","24.9916883333333","6500300","中和區"
"235066","911-UM","2018/05/31 18:09:34","新北市中和區圓通路33號","121.500961666667","24.9977316666667","6500300","中和區"
"235051","157-BY","2018/05/31 18:09:40","新北市中和區南山路287號","121.504281666667","24.9921533333333","6500300","中和區"
"235037","AAC-213","2018/05/31 18:09:28","新北市中和區景平路253號","121.50874","24.9929666666667","6500300","中和區"
"247002","002-UY","2018/05/31 18:09:38","新北市蘆洲區永平街32巷69弄23號","121.459116666667","25.0936283333333","6501400","蘆洲區"
"226004","312-R5","2018/05/31 18:09:50","新北市平溪區白石里白石腳43號","121.717631666667","25.0208733333333","6502400","平溪區"
"235047","251-BX","2018/05/31 18:09:36","新北市中和區中正路169號","121.49801","24.9937333333333","6500300","中和區"
"228003","097-TW","2018/05/31 18:09:38","新北市貢寮區真理里美艷山街6-2號","121.928881666667","25.0607633333333","6502600","貢寮區"
"228001","212-TW","2018/05/31 18:09:38","新北市貢寮區真理里新港街26巷55弄2-1號","121.927393333333","25.0528733333333","6502600","貢寮區"
"228002","585-TW","2018/05/31 18:09:48","新北市貢寮區福連里馬崗街1號","121.998383333333","25.0149916666667","6502600","貢寮區"
"224010","AGQ-8101","2018/05/31 17:59:29","新北市瑞芳區汽車路3號","121.84847","25.1106933333333","6501200","瑞芳區"
"224006","676-BX","2018/05/31 18:09:35","新北市瑞芳區中正路2號","121.809301666667","25.10703","6501200","瑞芳區"
"224002","639-TC","2018/05/31 18:09:37","新北市瑞芳區三爪子坑路64-35號","121.808938333333","25.1058016666667","6501200","瑞芳區"
"224008","285-BY","2018/05/31 18:09:44","新北市瑞芳區員山子路23號","121.821375","25.1031216666667","6501200","瑞芳區"
"224007","275-VK","2018/05/31 18:09:45","新北市瑞芳區四腳亭坑路2-4號","121.776041666667","25.10928","6501200","瑞芳區"
"224009","273-VK","2018/05/31 18:09:49","新北市瑞芳區金光路117號","121.853043333333","25.10619","6501200","瑞芳區"
"224005","271-BY","2018/05/31 18:09:50","新北市瑞芳區建基路二段8號","121.815708333333","25.1283566666667","6501200","瑞芳區"
"227010","642-TC","2018/05/31 18:09:45","新北市雙溪區三貂里定福路1-2號","121.850753333333","25.06341","6502500","雙溪區"
"253005","032-BX","2018/05/31 18:09:40","新北市石門區福安街1號","121.568406666667","25.2929666666667","6502200","石門區"
"253006","295-VK","2018/05/31 18:09:37","新北市石門區老梅路52巷25弄1號","121.546483333333","25.2880566666667","6502200","石門區"
"222001","KEA-2212","2018/05/31 18:09:45","新北市深坑區北深路二段184號","121.614101666667","25.0022866666667","6501800","深坑區"
"208002","KEA-2872","2018/05/31 18:09:41","新北市金山區三界壇路99巷16號","121.620376666667","25.2276416666667","6502700","金山區"
"208003","665-BX","2018/05/31 18:09:36","新北市金山區磺港里磺港路8號","121.649691666667","25.2306583333333","6502700","金山區"
"208001","761-BX","2018/05/31 18:09:41","新北市金山區磺港里磺港路113號","121.646223333333","25.2266666666667","6502700","金山區"
"251009","008-UM","2018/05/31 18:09:44","新北市淡水區大忠街34巷11號","121.443846666667","25.1755766666667","6501000","淡水區"
"251004","009-UM","2018/05/31 18:09:44","新北市淡水區民權路187巷86弄1號","121.46144","25.13482","6501000","淡水區"
"251005","010-UM","2018/05/31 18:09:37","新北市淡水區水源街一段139號","121.447171666667","25.171865","6501000","淡水區"
"251013","KEA-2871","2018/05/31 18:09:42","新北市淡水區竹圍子10號","121.476125","25.1941733333333","6501000","淡水區"
"251016","179-VK","2018/05/31 18:09:47","新北市淡水區下圭柔山18-1號","121.453743333333","25.2027833333333","6501000","淡水區"
"251014","180-VK","2018/05/31 18:09:43","新北市淡水區南平15號","121.488553333333","25.2190066666667","6501000","淡水區"
"251008","181-VK","2018/05/31 18:09:15","新北市淡水區坪頂路70巷41號","121.460696666667","25.16046","6501000","淡水區"
"251015","182-VK","2018/05/31 18:09:44","新北市淡水區興福寮66巷16號","121.486795","25.16231","6501000","淡水區"
"251010","413-VK","2018/05/31 18:09:32","新北市淡水區淡海路162號","121.420836666667","25.1832766666667","6501000","淡水區"
"251012","443-VK","2018/05/31 18:09:30","新北市淡水區北新路三段174號","121.492855","25.1928516666667","6501000","淡水區"
"251001","559-UM","2018/05/31 18:09:39","新北市淡水區自立路10號","121.463035","25.12972","6501000","淡水區"
"251006","561-UM","2018/05/31 18:09:48","新北市淡水區真理街3巷24-1號","121.437768333333","25.1765866666667","6501000","淡水區"
"251011","650-BX","2018/05/31 18:09:31","新北市淡水區三空泉9-2號","121.474003333333","25.1634566666667","6501000","淡水區"
"251002","672-BX","2018/05/31 18:09:40","新北市淡水區中正東路一段127巷2號","121.45557","25.159445","6501000","淡水區"
"251003","766-UM","2018/05/31 18:09:44","新北市淡水區大忠街113巷29號","121.447468333333","25.1775116666667","6501000","淡水區"
"207003","550-UM","2018/05/31 18:09:49","新北市萬里區野柳里港西路74號","121.685575","25.2049316666667","6502800","萬里區"
"207004","225-TW","2018/05/31 18:09:46","新北市萬里區中幅里中福路116-1號","121.675726666667","25.16728","6502800","萬里區"
"252002","178-VK","2018/05/31 18:09:33","新北市三芝區中山路二段41號","121.502908333333","25.25506","6502100","三芝區"
"252003","249-BX","2018/05/31 18:09:30","新北市三芝區埔頭里埔頭37號","121.498478333333","25.260365","6502100","三芝區"
"252001","292-VK","2018/05/31 18:09:31","新北市三芝區中興街二段2號","121.498295","25.2566316666667","6502100","三芝區"
"237004","KEA-2597","2018/05/31 18:09:35","新北市三峽區大埔路150-2號","121.365048333333","24.89753","6500900","三峽區"
"237007","153-BY","2018/05/31 18:09:34","新北市三峽區中正路二段370巷22號","121.36498","24.9106816666667","6500900","三峽區"
"237009","210-TH","2018/05/31 18:09:41","新北市三峽區大仁路50巷19號","121.365255","24.938225","6500900","三峽區"
"237013","252-BX","2018/05/31 18:09:47","新北市三峽區長泰街51號","121.37749","24.9328283333333","6500900","三峽區"
"237012","275-BY","2018/05/31 18:09:42","新北市三峽區民生街1巷1-44號","121.377483333333","24.9361783333333","6500900","三峽區"
"237008","302-VK","2018/05/31 18:09:44","新北市三峽區白雞44-39號","121.3773","24.9101283333333","6500900","三峽區"
"237006","5529-G3","2018/05/31 18:09:46","新北市三峽區溪東路235號","121.406491666667","24.932625","6500900","三峽區"
"237011","KEA-2596","2018/05/31 18:09:48","新北市三峽區溪東路182號","121.40668","24.9325866666667","6500900","三峽區"
"237016","649-BX","2018/05/31 18:09:47","新北市三峽區紫新路47號","121.422156666667","24.92178","6500900","三峽區"
"237010","706-TV","2018/05/31 18:09:48","新北市三峽區大同路202-2號","121.367985","24.9273766666667","6500900","三峽區"
"237005","AKY-6261","2018/05/31 18:09:35","新北市三峽區文化路65巷12號","121.37198","24.935565","6500900","三峽區"
"236070","105-UM","2018/05/31 18:09:37","新北市土城區石門路19號","121.45947","24.9670533333333","6501300","土城區"
"236042","107-UM","2018/05/31 18:09:48","新北市土城區中華路二段2號","121.439465","24.9796033333333","6501300","土城區"
"236078","166-UM","2018/05/31 18:09:36","新北市土城區永和街5號","121.434595","24.9650933333333","6501300","土城區"
"236030","253-BX","2018/05/31 18:09:35","新北市土城區城林路6巷80號","121.438445","24.9797866666667","6501300","土城區"
"236026","269-VK","2018/05/31 18:09:48","新北市土城區承天路18號","121.439331666667","24.9637266666667","6501300","土城區"
"236014","270-VK","2018/05/31 18:09:29","新北市土城區城林路6巷80號","121.438683333333","24.9797233333333","6501300","土城區"
"236038","271-VK","2018/05/31 18:09:30","新北市土城區員福街6號","121.441861666667","24.9785083333333","6501300","土城區"
"236021","401-BY","2018/05/31 18:09:31","新北市土城區城林路6巷80號","121.438585","24.9798166666667","6501300","土城區"
"236059","912-UM","2018/05/31 18:09:49","新北市土城區中央路四段157-1號","121.415456666667","24.956925","6501300","土城區"
"236049","913-UM","2018/05/31 18:09:38","新北市土城區員林街1號","121.4423","24.97822","6501300","土城區"
"236063","915-UM","2018/05/31 18:09:45","新北市土城區金城路二段210-1號","121.455626666667","24.9823016666667","6501300","土城區"
"236055","AAC-216","2018/05/31 18:09:40","新北市土城區城林路6巷80號","121.438675","24.979665","6501300","土城區"
"242034","AAC-296","2018/05/31 18:09:50","新北市新莊區福海街24巷11號","121.445995","25.0342483333333","6500500","新莊區"
"242058","986-R7","2018/05/31 18:09:35","新北市新莊區壽山路49-4號","121.414341666667","25.0308933333333","6500500","新莊區"
"242053","751-BX","2018/05/31 18:09:44","新北市新莊區民安西路325號","121.427686666667","25.01112","6500500","新莊區"
"242027","615-BX","2018/05/31 18:09:47","新北市新莊區幸福路519號","121.455508333333","25.0492816666667","6500500","新莊區"
"242025","613-BX","2018/05/31 18:09:46","新北市新莊區五權一路108號","121.459898333333","25.067905","6500500","新莊區"
"242029","612-BX","2018/05/31 18:09:49","新北市新莊區中平路135號","121.444648333333","25.048125","6500500","新莊區"
"242042","566-BX","2018/05/31 18:09:47","新北市新莊區天祥街46號","121.416765","25.0288533333333","6500500","新莊區"
"242046","497-BY","2018/05/31 18:09:28","新北市新莊區福營路279號","121.427381666667","25.0293566666667","6500500","新莊區"
"242056","440-UM","2018/05/31 18:09:39","新北市新莊區豐年街豐1巷21號","121.44731","25.0313583333333","6500500","新莊區"
"242036","415-TV","2018/05/31 18:09:38","新北市新莊區後港一路49巷5弄2號","121.425605","25.0273083333333","6500500","新莊區"
"242007","413-TV","2018/05/31 18:09:45","新北市新莊區自強街23巷3號","121.454361666667","25.046325","6500500","新莊區"
"242044","400-BY","2018/05/31 18:09:34","新北市新莊區天泉二街22巷2號","121.414916666667","25.024985","6500500","新莊區"
"242023","362-BY","2018/05/31 18:09:38","新北市泰山區泰林路一段2號","121.441945","25.0478316666667","6500500","新莊區"
"242061","353-BY","2018/05/31 18:09:50","新北市新莊區新樹路172號","121.434651666667","25.021785","6500500","新莊區"
"242009","132-UY","2018/05/31 18:09:45","新北市新莊區昌平街59巷40號","121.453653333333","25.0533316666667","6500500","新莊區"
"242031","135-UY","2018/05/31 18:09:40","新北市新莊區新泰路275號","121.445753333333","25.0404283333333","6500500","新莊區"
"242048","172-VK","2018/05/31 18:09:42","新北市新莊區民安路98巷29號","121.42339","25.025105","6500500","新莊區"
"242017","175-VK","2018/05/31 18:09:40","新北市新莊區復興路一段213號","121.45256","25.0437033333333","6500500","新莊區"
"242004","176-VK","2018/05/31 18:09:31","新北市新莊區自由街46號","121.455748333333","25.0459933333333","6500500","新莊區"
"242015","346-TH","2018/05/31 18:09:50","新北市新莊區中平路152巷45號","121.44674","25.0475266666667","6500500","新莊區"
"242021","348-TH","2018/05/31 18:09:37","新北市新莊區建興街56巷18號","121.45047","25.0384783333333","6500500","新莊區"
"242051","349-TH","2018/05/31 18:09:47","新北市新莊區民本街27巷20號","121.429086666667","25.0191066666667","6500500","新莊區"
"242019","350-TH","2018/05/31 18:09:39","新北市新莊區中港路132巷10號","121.455805","25.04061","6500500","新莊區"
"242013","351-TH","2018/05/31 18:09:28","新北市新莊區新樹路67巷1號","121.442138333333","25.0300383333333","6500500","新莊區"
"238015","755-BX","2018/05/31 18:09:41","新北市樹林區大安路347號","121.416513333333","24.9906916666667","6500700","樹林區"
"238023","601-UM","2018/05/31 18:09:30","新北市樹林區龍興街31巷27號","121.403875","25.016195","6500700","樹林區"
"238019","599-UM","2018/05/31 18:09:45","新北市樹林區國凱街160號","121.424446666667","24.98071","6500700","樹林區"
"238018","571-TV","2018/05/31 18:09:37","新北市板橋區大觀路三段271號","121.42881","24.9924783333333","6500700","樹林區"
"238024","5061-A6","2018/05/31 18:09:43","新北市樹林區文化街59號","121.41727","24.9888916666667","6500700","樹林區"
"238022","KEA-2213","2018/05/31 18:09:39","新北市樹林區太順街105號","121.414821666667","24.97717","6500700","樹林區"
"238021","KEA-2539","2018/05/31 18:09:35","新北市樹林區柑園街二段18號","121.387986666667","24.95579","6500700","樹林區"
"238025","303-VK","2018/05/31 18:09:38","新北市樹林區保安街二段101號","121.415708333333","25.00129","6500700","樹林區"
"238017","283-BY","2018/05/31 18:09:37","新北市樹林區中正路803號","121.409543333333","25.0166183333333","6500700","樹林區"
"238014","282-BY","2018/05/31 18:09:26","新北市樹林區千歲街61巷40弄17號","121.426066666667","24.9992083333333","6500700","樹林區"
"238020","268-VK","2018/05/31 18:09:35","新北市樹林區俊興街284號","121.418595","25.01698","6500700","樹林區"
"238026","172-UY","2018/05/31 18:09:38","新北市樹林區育德街57號","121.391371666667","24.97016","6500700","樹林區"
"238016","169-UY","2018/05/31 18:09:44","新北市樹林區育英街135巷36號","121.419065","24.9881233333333","6500700","樹林區"
"239007","AAC-297","2018/05/31 18:09:42","新北市鶯歌區尖山埔路191號","121.345426666667","24.9505816666667","6500800","鶯歌區"
"239006","891-R6","2018/05/31 18:09:33","新北市鶯歌區鶯桃路451-1號","121.332153333333","24.9656533333333","6500800","鶯歌區"
"239008","527-UM","2018/05/31 18:09:42","新北市鶯歌區朝陽街4號","121.336251666667","24.9766166666667","6500800","鶯歌區"
"239001","417-VK","2018/05/31 18:09:49","新北市鶯歌區中正三路曾厝巷7號","121.34189","24.9451616666667","6500800","鶯歌區"
"239003","360-BY","2018/05/31 18:09:36","新北市鶯歌區福安街30號","121.334666666667","24.9639833333333","6500800","鶯歌區"
"239002","359-BY","2018/05/31 18:09:49","新北市鶯歌區光明街102巷18號","121.345941666667","24.9564383333333","6500800","鶯歌區"
"221008","489-VK","2018/05/31 18:09:31","新北市汐止區康寧街315號","121.627105","25.0679116666667","6501100","汐止區"
"221036","130-UY","2018/05/31 18:09:44","新北市汐止區大同路三段141號","121.6693","25.0777766666667","6501100","汐止區"
"221015","131-UY","2018/05/31 18:09:33","新北市汐止區鄉長路二段99號","121.665288333333","25.0858933333333","6501100","汐止區"
"221010","269-BY","2018/05/31 18:09:32","新北市汐止區汐萬路二段275巷3弄1號","121.645276666667","25.088795","6501100","汐止區"
"221012","278-VK","2018/05/31 18:09:40","新北市汐止區保一街67號","121.67424","25.0799083333333","6501100","汐止區"
"221023","279-VK","2018/05/31 18:09:50","新北市汐止區明峰街183號","121.628425","25.0698783333333","6501100","汐止區"
"221032","280-BY","2018/05/31 18:09:36","新北市汐止區橫科路73巷5號","121.61935","25.05082","6501100","汐止區"
"221027","281-BY","2018/05/31 18:09:50","新北市汐止區大同路二段509號","121.661338333333","25.0686666666667","6501100","汐止區"
"221029","298-VK","2018/05/31 18:09:41","新北市汐止區樟樹二路134號","121.639921666667","25.0657916666667","6501100","汐止區"
"221021","299-VK","2018/05/31 18:09:45","新北市汐止區龍安路20號","121.655506666667","25.0642383333333","6501100","汐止區"
"221031","353-TW","2018/05/31 18:09:37","新北市汐止區中興路181號","121.63027","25.0668383333333","6501100","汐止區"
"221035","622-UM","2018/05/31 18:09:44","新北市汐止區大同路二段204號","121.653338333333","25.0650116666667","6501100","汐止區"
"221025","623-UM","2018/05/31 18:09:42","新北市汐止區秀峰路145號","121.660485","25.0621883333333","6501100","汐止區"
"221038","646-BX","2018/05/31 18:09:30","新北市汐止區南興路83巷5號","121.653185","25.0591483333333","6501100","汐止區"
"221033","647-BX","2018/05/31 18:09:36","新北市汐止區宜興街10巷21號","121.622023333333","25.0407233333333","6501100","汐止區"
"221002","707-TV","2018/05/31 18:09:29","新北市汐止區福德一路213號","121.634805","25.065275","6501100","汐止區"
"221018","753-BX","2018/05/31 18:09:36","新北市汐止區忠孝東路351號","121.66561","25.070475","6501100","汐止區"
"242002","KEA-2550","2018/05/31 18:09:43","新北市新莊區新莊路22號","121.458691666667","25.03734","6500500","新莊區"
"242039","280-VK","2018/05/31 18:09:40","新北市新莊區民安西路24巷23號","121.426013333333","25.0205383333333","6500500","新莊區"
"235068","KEA-2873","2018/05/31 18:09:37","新北市中和區員山路36巷16-3號","121.485083333333","24.9913183333333","6500300","中和區"
"235061","KEA-2875","2018/05/31 18:09:40","新北市中和區員山路82巷6-3號","121.481225","24.9935883333333","6500300","中和區"
"235057","KEA-2876","2018/05/31 18:09:49","新北市中和區員山路36巷16-3號","121.485015","24.99138","6500300","中和區"
