"lineid","car","time","location","longitude","latitude","cityid","cityname"
"249002","305-UY","2018/05/31 20:49:36","新北市八里區商港路105巷15號","121.388463333333","25.1470983333333","6502300","八里區"
"234074","AAC-211","2018/05/31 20:49:46","新北市永和區環河東路二段30號","121.522556666667","25.0126733333333","6500400","永和區"
"222003","436-BY","2018/05/31 20:49:42","新北市深坑區文山路三段48-1號","121.609916666667","24.9985266666667","6501800","深坑區"
"222002","659-BX","2018/05/31 20:49:20","新北市深坑區北深路三段93巷57號","121.604093333333","25.0005866666667","6501800","深坑區"
"231041","002-UM","2018/05/31 20:49:43","新北市新店區溪園路365-8號","121.522513333333","24.9806616666667","6500600","新店區"
"231059","046-UY","2018/05/31 20:49:43","新北市新店區僑信路132巷38號","121.499771666667","24.9453916666667","6500600","新店區"
"231040","047-UY","2018/05/31 20:49:43","新北市新店區中正路266號","121.539063333333","24.9735233333333","6500600","新店區"
"231044","106-UY","2018/05/31 20:49:41","新北市新店區民族路239號","121.536495","24.9756433333333","6500600","新店區"
"231052","108-UY","2018/05/31 20:49:43","新北市新店區新烏路一段145-5號","121.546555","24.9363983333333","6500600","新店區"
"231047","187-VK","2018/05/31 20:49:45","新北市新店區寶元路二段1巷2號","121.550733333333","24.98407","6500600","新店區"
"231054","KEA-2219","2018/05/31 20:49:49","新北市新店區北新路一段126巷27號","121.543235","24.9696283333333","6500600","新店區"
"231057","256-BX","2018/05/31 20:49:43","新北市新店區新烏路一段100-2號","121.546098333333","24.9371533333333","6500600","新店區"
"231042","268-BY","2018/05/31 20:49:37","新北市新店區寶高路120巷1號","121.554631666667","24.9760316666667","6500600","新店區"
"231051","278-BY","2018/05/31 20:49:49","新北市新店區溪園路245號","121.526713333333","24.9827566666667","6500600","新店區"
"231050","AAD-862","2018/05/31 20:49:52","新北市新店區三民路117巷3弄1號","121.534591666667","24.971695","6500600","新店區"
"231058","3713-VJ","2018/05/31 20:49:43","新北市新店區中央路133巷2號","121.53052","24.9736166666667","6500600","新店區"
"231066","4716-K9","2018/05/31 20:49:36","新北市新店區安興路56號","121.516601666667","24.9748383333333","6500600","新店區"
"231056","4715-K9","2018/05/31 20:49:36","新北市新店區中央七街61巷1號","121.52829","24.9765366666667","6500600","新店區"
"231067","4772-VM","2018/05/31 20:49:51","新北市新店區安康路一段355號","121.519881666667","24.9636633333333","6500600","新店區"
"231065","512-UM","2018/05/31 20:49:42","新北市新店區安祥路104巷6弄40號","121.483078333333","24.96337","6500600","新店區"
"231049","513-UM","2018/05/31 20:49:44","新北市新店區永業路81巷3弄33號","121.530781666667","24.95026","6500600","新店區"
"231061","619-UM","2018/05/31 20:49:48","新北市新店區新和街74號","121.520216666667","24.9857","6500600","新店區"
"231063","641-BX","2018/05/31 20:49:32","新北市新店區如意街11-2號","121.494995","24.94829","6500600","新店區"
"231068","718-UY","2018/05/31 20:49:46","新北市新店區寶元路一段84巷1號","121.54453","24.9837183333333","6500600","新店區"
"231064","719-UM","2018/05/31 20:49:51","新北市新店區安民街365巷10弄22號","121.515873333333","24.9759683333333","6500600","新店區"
"231062","720-UM","2018/05/31 20:49:52","新北市新店區和成街19巷24號","121.487668333333","24.9460716666667","6500600","新店區"
"231060","897-TW","2018/05/31 20:49:43","新北市新店區安康路三段571巷5-1號","121.475043333333","24.9428616666667","6500600","新店區"
"231045","898-TW","2018/05/31 20:49:44","新北市新店區環河路14-3號","121.537971666667","24.9616333333333","6500600","新店區"
"231043","899-TW","2018/05/31 20:49:41","新北市新店區博愛街13巷24號","121.540278333333","24.974065","6500600","新店區"
"241011","013-R5","2018/05/31 20:49:43","新北市三重區環河北路一段350號","121.502965","25.0725616666667","6500200","三重區"
"241028","022-UY","2018/05/31 20:49:49","新北市三重區中正南路50號","121.493923333333","25.0599116666667","6500200","三重區"
"241008","059-VK","2018/05/31 20:49:45","新北市三重區永福街72巷11號","121.479405","25.076805","6500200","三重區"
"241031","061-VK","2018/05/31 20:49:43","新北市三重區重陽路一段113巷2弄2號","121.487568333333","25.0598783333333","6500200","三重區"
"241015","062-VK","2018/05/31 20:49:41","新北市三重區自強路一段10-2號","121.498928333333","25.0681983333333","6500200","三重區"
"241017","063-VK","2018/05/31 20:49:42","新北市三重區民生街36號","121.491711666667","25.0670366666667","6500200","三重區"
"241024","065-VK","2018/05/31 20:49:36","新北市三重區國道路一段58巷20號","121.481268333333","25.0720833333333","6500200","三重區"
"241026","066-VK","2018/05/31 20:49:50","新北市三重區和平街1號","121.500098333333","25.0623633333333","6500200","三重區"
"241002","090-VK","2018/05/31 20:49:51","新北市三重區仁義街167巷55號","121.498976666667","25.0823666666667","6500200","三重區"
"241003","091-VK","2018/05/31 20:49:46","新北市三重區五華街141巷60號","121.49352","25.0866883333333","6500200","三重區"
"241022","742-BX","2018/05/31 20:49:36","新北市三重區中正北路20巷12號","121.48799","25.0625683333333","6500200","三重區"
"241009","265-UM","2018/05/31 20:49:46","新北市三重區三和路四段388-2號","121.482083333333","25.0791116666667","6500200","三重區"
"241016","266-UM","2018/05/31 20:49:46","新北市三重區自強路一段103號","121.495556666667","25.0664","6500200","三重區"
"241018","268-UM","2018/05/31 20:49:39","新北市三重區正義北路268號","121.495911666667","25.0687866666667","6500200","三重區"
"241032","269-UM","2018/05/31 20:49:42","新北市三重區重陽路一段120巷48號","121.485076666667","25.0601516666667","6500200","三重區"
"241013","270-UM","2018/05/31 20:49:45","新北市三重區仁愛街129巷2號","121.495633333333","25.0749116666667","6500200","三重區"
"241007","398-BY","2018/05/31 20:49:52","新北市三重區慈愛街10號","121.484515","25.0784666666667","6500200","三重區"
"241025","413-TH","2018/05/31 20:49:47","新北市三重區貴陽街14號","121.484225","25.0617516666667","6500200","三重區"
"241024","462-BY","2018/05/31 20:49:50","新北市三重區文化北路101號","121.497901666667","25.0683833333333","6500200","三重區"
"241004","475-VK","2018/05/31 20:49:43","新北市三重區分子尾街29號","121.489436666667","25.0813166666667","6500200","三重區"
"241020","478-VK","2018/05/31 20:49:48","新北市三重區忠孝路一段101號","121.489538333333","25.0721916666667","6500200","三重區"
"241030","480-VK","2018/05/31 20:49:38","新北市三重區昌隆街26號","121.491975","25.05226","6500200","三重區"
"241014","543-UM","2018/05/31 20:49:47","新北市三重區萬全街82號","121.501688333333","25.0701766666667","6500200","三重區"
"241023","545-UM","2018/05/31 20:49:42","新北市三重區忠孝路三段84巷5號","121.480201666667","25.0643383333333","6500200","三重區"
"241019","KEA-2593","2018/05/31 20:49:37","新北市三重區大智街139號","121.490783333333","25.0709333333333","6500200","三重區"
"241006","AAD-863","2018/05/31 20:49:38","新北市三重區車路頭街137號","121.484145","25.0761383333333","6500200","三重區"
"241012","941-UM","2018/05/31 20:49:39","新北市三重區仁信街27號","121.50129","25.0755116666667","6500200","三重區"
"241029","942-UM","2018/05/31 20:49:49","新北市三重區重安街18號","121.490291666667","25.05811","6500200","三重區"
"241033","AAC-255","2018/05/31 20:49:34","新北市三重區光復路二段1號","121.472225","25.0533166666667","6500200","三重區"
"235069","4980-A6","2018/05/31 20:49:48","新北市中和區連城路469巷4號","121.483553333333","24.995555","6500300","中和區"
"247024","893-R6","2018/05/31 20:49:50","新北市蘆洲區長樂路136號","121.462058333333","25.090085","6501400","蘆洲區"
"247014","546-UM","2018/05/31 20:49:33","新北市蘆洲區三民路95號","121.473876666667","25.0849033333333","6501400","蘆洲區"
"247022","500-BY","2018/05/31 20:49:39","新北市蘆洲區保和街50-9號","121.470108333333","25.0863716666667","6501400","蘆洲區"
"247010","341-TH","2018/05/31 20:49:40","新北市蘆洲區鷺江街91號","121.476886666667","25.0837716666667","6501400","蘆洲區"
"247012","339-TH","2018/05/31 20:49:42","新北市蘆洲區集賢路224巷2號","121.482346666667","25.0867983333333","6501400","蘆洲區"
"247006","336-TH","2018/05/31 20:49:44","新北市蘆洲區和平路121巷10號","121.467093333333","25.0796816666667","6501400","蘆洲區"
"247008","056-VK","2018/05/31 20:49:46","新北市蘆洲區集賢路269巷19號","121.482233333333","25.083385","6501400","蘆洲區"
"247004","053-VK","2018/05/31 20:49:45","新北市蘆洲區長安街100號","121.461681666667","25.0809066666667","6501400","蘆洲區"
"247016","007-UY","2018/05/31 20:49:47","新北市蘆洲區中山二路134號","121.471478333333","25.0815083333333","6501400","蘆洲區"
"247002","002-UY","2018/05/31 20:49:36","新北市蘆洲區長安街240號","121.457728333333","25.0857366666667","6501400","蘆洲區"
"247020","001-UY","2018/05/31 20:49:44","新北市蘆洲區仁愛街66號","121.471516666667","25.093845","6501400","蘆洲區"
"222001","KEA-2212","2018/05/31 20:49:44","新北市深坑區北深路三段137號","121.603971666667","25.0026033333333","6501800","深坑區"
"251013","KEA-2871","2018/05/31 20:49:41","新北市淡水區行忠路112號","121.452301666667","25.1989966666667","6501000","淡水區"
"251016","179-VK","2018/05/31 20:49:52","新北市淡水區淡金路四段455號","121.451783333333","25.2228833333333","6501000","淡水區"
"251014","180-VK","2018/05/31 20:49:43","新北市淡水區公埔子32-8號","121.461648333333","25.2323516666667","6501000","淡水區"
"251010","413-VK","2018/05/31 20:49:52","新北市淡水區沙崙路126號","121.423456666667","25.1829716666667","6501000","淡水區"
"251007","442-VK","2018/05/31 20:49:35","新北市淡水區淡金路一段102號","121.457728333333","25.174285","6501000","淡水區"
"251012","443-VK","2018/05/31 20:49:50","新北市淡水區淡金路四段516號","121.452025","25.2258616666667","6501000","淡水區"
"251001","559-UM","2018/05/31 20:49:39","新北市淡水區淡金路一段69號","121.45878","25.1731016666667","6501000","淡水區"
"251011","650-BX","2018/05/31 20:49:40","新北市淡水區新市一路一段240號","121.432838333333","25.18572","6501000","淡水區"
"251002","672-BX","2018/05/31 20:49:40","新北市淡水區仁愛街1號","121.445695","25.170455","6501000","淡水區"
"251003","766-UM","2018/05/31 20:49:44","新北市淡水區新興街45號","121.442105","25.17974","6501000","淡水區"
"242034","AAC-296","2018/05/31 20:49:35","新北市新莊區中正路316號","121.446408333333","25.0349283333333","6500500","新莊區"
"242058","986-R7","2018/05/31 20:49:35","新北市新莊區民安路138號","121.424178333333","25.0254683333333","6500500","新莊區"
"242053","751-BX","2018/05/31 20:49:44","新北市新莊區民安西路229巷6號","121.4265","25.0141483333333","6500500","新莊區"
"242029","612-BX","2018/05/31 20:49:48","新北市新莊區化成路364巷10號","121.466238333333","25.0493233333333","6500500","新莊區"
"242042","566-BX","2018/05/31 20:49:39","新北市新莊區天祥街31巷1號","121.41696","25.0280683333333","6500500","新莊區"
"242036","415-TV","2018/05/31 20:49:37","新北市新莊區中正路517-2號","121.439671666667","25.0334483333333","6500500","新莊區"
"242007","413-TV","2018/05/31 20:49:45","新北市新莊區思源路63號","121.459911666667","25.0403483333333","6500500","新莊區"
"242044","400-BY","2018/05/31 20:49:44","新北市新莊區中正路591號","121.43304","25.0322183333333","6500500","新莊區"
"242023","362-BY","2018/05/31 20:49:46","新北市新莊區頭前路96號","121.463673333333","25.0524466666667","6500500","新莊區"
"242009","132-UY","2018/05/31 20:49:52","新北市新莊區幸福路562號","121.45445","25.0494433333333","6500500","新莊區"
"242048","172-VK","2018/05/31 20:49:42","新北市泰山區新五路一段91號","121.441138333333","25.060595","6500500","新莊區"
"242051","349-TH","2018/05/31 20:49:47","新北市新莊區民安西路157號","121.426195","25.0164783333333","6500500","新莊區"
"242013","351-TH","2018/05/31 20:49:48","新北市五股區成泰路一段98巷2-2號","121.437103333333","25.0713983333333","6500500","新莊區"
"221036","130-UY","2018/05/31 20:49:44","新北市汐止區新台五路二段91號","121.66515","25.0671716666667","6501100","汐止區"
"221032","280-BY","2018/05/31 20:49:36","新北市汐止區橫科路241-4號","121.622341666667","25.0488533333333","6501100","汐止區"
"221027","281-BY","2018/05/31 20:49:50","新北市汐止區水源路一段3號","121.657158333333","25.0671733333333","6501100","汐止區"
"221035","622-UM","2018/05/31 20:49:44","新北市汐止區汐萬路一段256巷3號","121.652086666667","25.074715","6501100","汐止區"
"221033","647-BX","2018/05/31 20:49:35","新北市汐止區合順街18巷8弄5號","121.620315","25.041895","6501100","汐止區"
"221002","707-TV","2018/05/31 20:49:49","新北市汐止區福德二路二段170號","121.629366666667","25.064925","6501100","汐止區"
"242002","KEA-2550","2018/05/31 20:49:40","新北市新莊區中港路五守新村12號","121.45469","25.0386133333333","6500500","新莊區"
"242039","280-VK","2018/05/31 20:49:40","新北市新莊區瓊林北路17號","121.439146666667","25.021955","6500500","新莊區"
"220103","561-BX","2018/05/31 20:49:34","新北市板橋區漢生東路63巷25號","121.466868333333","25.0172233333333","6500100","板橋區"
"220070","AAC-253","2018/05/31 20:49:36","新北市林口區汕頭32號","121.366693333333","25.135055","6500100","板橋區"
