"lineid","car","time","location","longitude","latitude","cityid","cityname"
"222003","436-BY","2018/05/31 20:59:42","新北市深坑區深南路88巷1號","121.621058333333","25.0116533333333","6501800","深坑區"
"231059","046-UY","2018/05/31 20:59:36","新北市新店區僑信路113號","121.500613333333","24.9461983333333","6500600","新店區"
"231040","047-UY","2018/05/31 20:59:43","新北市新店區北新路一段351號","121.541998333333","24.969295","6500600","新店區"
"231052","108-UY","2018/05/31 20:59:43","新北市新店區環河路29巷1號","121.535866666667","24.9611933333333","6500600","新店區"
"231047","187-VK","2018/05/31 20:59:45","新北市新店區寶元路二段1巷2號","121.55042","24.9841483333333","6500600","新店區"
"231054","KEA-2219","2018/05/31 20:59:49","新北市新店區北新路一段126巷32號","121.543331666667","24.968905","6500600","新店區"
"231042","268-BY","2018/05/31 20:59:37","新北市新店區中興路二段233號","121.547643333333","24.9751566666667","6500600","新店區"
"231051","278-BY","2018/05/31 20:59:49","新北市新店區中正路663巷1弄24號","121.532556666667","24.9897866666667","6500600","新店區"
"231050","AAD-862","2018/05/31 20:59:35","新北市新店區三民路45號","121.53715","24.9709516666667","6500600","新店區"
"231058","3713-VJ","2018/05/31 20:59:43","新北市新店區薏仁坑路6-3號","121.499753333333","24.9586116666667","6500600","新店區"
"231066","4716-K9","2018/05/31 20:59:50","新北市新店區吉安街14號","121.516806666667","24.9658166666667","6500600","新店區"
"231067","4772-VM","2018/05/31 20:59:51","新北市新店區安德街130巷11號","121.508195","24.9607583333333","6500600","新店區"
"231065","512-UM","2018/05/31 20:59:42","新北市新店區安祥路69巷104號","121.483146666667","24.95892","6500600","新店區"
"231049","513-UM","2018/05/31 20:59:44","新北市新店區安康路一段266巷4號","121.520071666667","24.964025","6500600","新店區"
"231061","619-UM","2018/05/31 20:59:49","新北市新店區新和街116巷3號","121.521343333333","24.9863866666667","6500600","新店區"
"231063","641-BX","2018/05/31 20:59:52","新北市新店區玫瑰路16號","121.494786666667","24.9503266666667","6500600","新店區"
"231068","718-UY","2018/05/31 20:59:46","新北市新店區寶中路77號","121.547575","24.9808066666667","6500600","新店區"
"231064","719-UM","2018/05/31 20:59:51","新北市新店區安民街251巷8號","121.516728333333","24.9726416666667","6500600","新店區"
"231062","720-UM","2018/05/31 20:59:52","新北市新店區裕合街82號","121.490301666667","24.948545","6500600","新店區"
"231060","897-TW","2018/05/31 20:59:43","新北市新店區安康路三段371號","121.483736666667","24.9505266666667","6500600","新店區"
"231043","899-TW","2018/05/31 20:59:46","新北市新店區民族路235號","121.536643333333","24.9756916666667","6500600","新店區"
"241011","013-R5","2018/05/31 20:59:23","新北市三重區秀江街119-1號","121.49968","25.07215","6500200","三重區"
"241028","022-UY","2018/05/31 20:59:49","新北市三重區重新路三段82號","121.493085","25.060955","6500200","三重區"
"241008","059-VK","2018/05/31 20:59:45","新北市三重區車路頭街135-1號","121.484308333333","25.0761533333333","6500200","三重區"
"241031","061-VK","2018/05/31 20:59:43","新北市三重區重陽路一段113巷8號","121.487831666667","25.0599166666667","6500200","三重區"
"241015","062-VK","2018/05/31 20:59:41","新北市三重區福德北路46號","121.502035","25.0654866666667","6500200","三重區"
"241017","063-VK","2018/05/31 20:59:42","新北市三重區民生街38巷2弄30號","121.492338333333","25.0673766666667","6500200","三重區"
"241024","065-VK","2018/05/31 20:59:36","新北市三重區國道路一段58巷20號","121.481303333333","25.07208","6500200","三重區"
"241026","066-VK","2018/05/31 20:59:50","新北市三重區文化南路45號","121.500245","25.061385","6500200","三重區"
"241002","090-VK","2018/05/31 20:59:51","新北市三重區五華街1巷2號","121.495585","25.0797783333333","6500200","三重區"
"241003","091-VK","2018/05/31 20:59:46","新北市三重區進安街198號","121.49398","25.0859316666667","6500200","三重區"
"241022","742-BX","2018/05/31 20:59:36","新北市三重區中正北路20巷12號","121.488006666667","25.0624783333333","6500200","三重區"
"241009","265-UM","2018/05/31 20:59:46","新北市三重區三和路四段157號","121.48383","25.0783116666667","6500200","三重區"
"241016","266-UM","2018/05/31 20:59:46","新北市三重區自強路一段91號","121.495953333333","25.066475","6500200","三重區"
"241018","268-UM","2018/05/31 20:59:39","新北市三重區雙園街95號","121.493898333333","25.0673483333333","6500200","三重區"
"241032","269-UM","2018/05/31 20:59:47","新北市三重區新生街96號","121.483423333333","25.0592866666667","6500200","三重區"
"241013","270-UM","2018/05/31 20:59:45","新北市三重區仁愛街129巷2號","121.495621666667","25.0749166666667","6500200","三重區"
"241007","398-BY","2018/05/31 20:59:32","新北市三重區慈愛街48號","121.485748333333","25.0790383333333","6500200","三重區"
"241025","413-TH","2018/05/31 20:59:47","新北市三重區貴陽街14號","121.48416","25.0617816666667","6500200","三重區"
"241024","462-BY","2018/05/31 20:59:50","新北市三重區重新路三段150號","121.490861666667","25.05932","6500200","三重區"
"241004","475-VK","2018/05/31 20:59:36","新北市三重區仁愛街418號","121.490416666667","25.08139","6500200","三重區"
"241020","478-VK","2018/05/31 20:59:48","新北市三重區忠孝路二段34號","121.485901666667","25.0710066666667","6500200","三重區"
"241030","480-VK","2018/05/31 20:59:38","新北市三重區環河南路220-8號","121.493361666667","25.05264","6500200","三重區"
"241014","543-UM","2018/05/31 20:59:47","新北市三重區長榮路75號","121.502596666667","25.0691016666667","6500200","三重區"
"241023","545-UM","2018/05/31 20:59:42","新北市三重區洛陽街45巷15號","121.482338333333","25.06374","6500200","三重區"
"241019","KEA-2593","2018/05/31 20:59:37","新北市三重區自強路二段74巷21號","121.487926666667","25.0699","6500200","三重區"
"241006","AAD-863","2018/05/31 20:59:38","新北市三重區永福街46-4號","121.481785","25.0781133333333","6500200","三重區"
"241012","941-UM","2018/05/31 20:59:39","新北市三重區仁信街27號","121.501291666667","25.0755016666667","6500200","三重區"
"241029","942-UM","2018/05/31 20:59:49","新北市三重區正義南路111號","121.498243333333","25.05858","6500200","三重區"
"241033","AAC-255","2018/05/31 20:59:54","新北市三重區光復路二段28號","121.472133333333","25.0542183333333","6500200","三重區"
"247024","893-R6","2018/05/31 20:59:50","新北市蘆洲區長興路213號","121.461135","25.0863216666667","6501400","蘆洲區"
"247014","546-UM","2018/05/31 20:59:33","新北市蘆洲區中山二路36巷31號","121.474153333333","25.08318","6501400","蘆洲區"
"247022","500-BY","2018/05/31 20:59:51","新北市蘆洲區中正路202號","121.466708333333","25.0883416666667","6501400","蘆洲區"
"247010","341-TH","2018/05/31 20:59:40","新北市蘆洲區鷺江街72號","121.47717","25.08379","6501400","蘆洲區"
"247012","339-TH","2018/05/31 20:59:42","新北市蘆洲區民權路8-1號","121.476681666667","25.0859433333333","6501400","蘆洲區"
"247006","336-TH","2018/05/31 20:59:44","新北市蘆洲區永安南路二段18號","121.467738333333","25.077175","6501400","蘆洲區"
"247018","057-VK","2018/05/31 20:59:46","新北市蘆洲區民權路136-2號","121.473145","25.0888816666667","6501400","蘆洲區"
"247004","053-VK","2018/05/31 20:59:45","新北市蘆洲區永安南路二段268號","121.458616666667","25.0807066666667","6501400","蘆洲區"
"247016","007-UY","2018/05/31 20:59:47","新北市蘆洲區正和街94號","121.46812","25.0807683333333","6501400","蘆洲區"
"247020","001-UY","2018/05/31 20:59:44","新北市蘆洲區民族路371號","121.471181666667","25.0913","6501400","蘆洲區"
"251005","010-UM","2018/05/31 20:59:50","新北市淡水區學府路73巷2弄1號","121.447881666667","25.1701216666667","6501000","淡水區"
"251013","KEA-2871","2018/05/31 20:59:41","新北市淡水區水汴頭12號","121.469805","25.2036016666667","6501000","淡水區"
"251016","179-VK","2018/05/31 20:59:32","新北市淡水區牛埔子11-1號","121.450198333333","25.2184516666667","6501000","淡水區"
"251014","180-VK","2018/05/31 20:59:43","新北市淡水區溪口7-3號","121.45559","25.2366016666667","6501000","淡水區"
"251010","413-VK","2018/05/31 20:59:52","新北市淡水區淡海路23號","121.423741666667","25.1790466666667","6501000","淡水區"
"251007","442-VK","2018/05/31 20:59:35","新北市淡水區鄧公路29巷2-1號","121.451651666667","25.1700933333333","6501000","淡水區"
"251012","443-VK","2018/05/31 20:59:50","新北市淡水區淡金路五段98號","121.456265","25.2360966666667","6501000","淡水區"
"251001","559-UM","2018/05/31 20:59:39","新北市淡水區淡金路二段147號","121.449961666667","25.1826616666667","6501000","淡水區"
"251011","650-BX","2018/05/31 20:59:40","新北市淡水區新民街294號","121.435133333333","25.1821733333333","6501000","淡水區"
"251002","672-BX","2018/05/31 20:59:40","新北市淡水區水源街一段116號","121.446966666667","25.1718766666667","6501000","淡水區"
"251003","766-UM","2018/05/31 20:59:44","新北市淡水區新春街148-2號","121.44259","25.18114","6501000","淡水區"
"242048","172-VK","2018/05/31 20:58:22","新北市五股區中直路15-2號","121.423573333333","25.1109183333333","6500500","新莊區"
"242051","349-TH","2018/05/31 20:59:47","新北市新莊區新樹路206巷3號","121.433506666667","25.0204316666667","6500500","新莊區"
"242013","351-TH","2018/05/31 20:58:08","新北市五股區中直路21號","121.421305","25.1119616666667","6500500","新莊區"
"242002","KEA-2550","2018/05/31 20:59:40","新北市新莊區中正路354號","121.443908333333","25.034325","6500500","新莊區"
"220103","561-BX","2018/05/31 20:59:34","新北市板橋區縣民大道三段254號","121.47763","25.0230633333333","6500100","板橋區"
"220070","AAC-253","2018/05/31 20:59:36","新北市八里區中山路三段409號","121.368556666667","25.13491","6500100","板橋區"
