"lineid","car","time","location","longitude","latitude","cityid","cityname"
"222003","436-BY","2018/05/31 21:05:32","新北市深坑區深南路88巷1號","121.620998333333","25.0116933333333","6501800","深坑區"
"231059","046-UY","2018/05/31 21:09:42","新北市新店區僑義路28號","121.500598333333","24.94991","6500600","新店區"
"231040","047-UY","2018/05/31 21:09:43","新北市新店區北新路一段351號","121.54201","24.969275","6500600","新店區"
"231047","187-VK","2018/05/31 21:09:45","新北市新店區中興路三段160號","121.544456666667","24.980505","6500600","新店區"
"231054","KEA-2219","2018/05/31 21:09:49","新北市新店區大新街7巷26號","121.544081666667","24.9677966666667","6500600","新店區"
"231042","268-BY","2018/05/31 21:09:37","新北市新店區寶興路60巷4號","121.549836666667","24.9718183333333","6500600","新店區"
"231051","278-BY","2018/05/31 21:09:49","新北市新店區中正路700巷26號","121.535261666667","24.9911716666667","6500600","新店區"
"231050","AAD-862","2018/05/31 21:09:35","新北市新店區中華路117巷6弄1號","121.537738333333","24.96861","6500600","新店區"
"231067","4772-VM","2018/05/31 21:09:51","新北市新店區薏仁坑路自強巷1號","121.496798333333","24.958155","6500600","新店區"
"231065","512-UM","2018/05/31 21:09:42","新北市新店區安祥路69巷41弄5號","121.482056666667","24.9605366666667","6500600","新店區"
"231061","619-UM","2018/05/31 21:09:37","新北市新店區永安街30號","121.517685","24.9865766666667","6500600","新店區"
"231063","641-BX","2018/05/31 21:09:52","新北市新店區玫瑰路66巷2號","121.49581","24.9453783333333","6500600","新店區"
"231064","719-UM","2018/05/31 21:09:51","新北市新店區薏仁坑路自強巷1號","121.496856666667","24.957855","6500600","新店區"
"231062","720-UM","2018/05/31 21:09:52","新北市新店區雙城路2巷2號","121.491278333333","24.9512683333333","6500600","新店區"
"231060","897-TW","2018/05/31 21:09:43","新北市新店區安康路二段382號","121.500448333333","24.95698","6500600","新店區"
"241011","013-R5","2018/05/31 21:09:49","新北市三重區龍濱路120-2號","121.501936666667","25.0710666666667","6500200","三重區"
"241028","022-UY","2018/05/31 21:09:49","新北市三重區正義南路47號","121.498196666667","25.060755","6500200","三重區"
"241008","059-VK","2018/05/31 21:09:45","新北市三重區自強路一段66號","121.497158333333","25.0665416666667","6500200","三重區"
"241031","061-VK","2018/05/31 21:09:43","新北市三重區重新路五段406-1號","121.47625","25.0476866666667","6500200","三重區"
"241015","062-VK","2018/05/31 21:09:41","新北市三重區長元街79號","121.503315","25.0667616666667","6500200","三重區"
"241017","063-VK","2018/05/31 21:09:42","新北市三重區大同北路132巷8號","121.492275","25.0646683333333","6500200","三重區"
"241024","065-VK","2018/05/31 21:09:36","新北市三重區國道路一段58巷13號","121.481316666667","25.0721033333333","6500200","三重區"
"241026","066-VK","2018/05/31 21:09:50","新北市三重區福德南路150號","121.50042","25.0580116666667","6500200","三重區"
"241002","090-VK","2018/05/31 21:09:51","新北市三重區五華街19號","121.494895","25.0803683333333","6500200","三重區"
"241003","091-VK","2018/05/31 21:09:46","新北市三重區仁義街337-1號","121.494966666667","25.0847616666667","6500200","三重區"
"241022","742-BX","2018/05/31 21:09:36","新北市三重區中正北路64巷24號","121.486145","25.0636916666667","6500200","三重區"
"241009","265-UM","2018/05/31 21:09:46","新北市三重區忠孝路二段124號","121.482983333333","25.06897","6500200","三重區"
"241016","266-UM","2018/05/31 21:09:46","新北市三重區信義西街122號","121.49566","25.0639866666667","6500200","三重區"
"241018","268-UM","2018/05/31 21:09:39","新北市三重區正義北路340號","121.494365","25.0707133333333","6500200","三重區"
"241032","269-UM","2018/05/31 21:09:41","新北市三重區光復路二段175號","121.472693333333","25.0615383333333","6500200","三重區"
"241013","270-UM","2018/05/31 21:09:45","新北市三重區仁愛街124號","121.494961666667","25.0749733333333","6500200","三重區"
"241007","398-BY","2018/05/31 21:09:52","新北市三重區三和路四段145巷81號","121.48639","25.07867","6500200","三重區"
"241025","413-TH","2018/05/31 21:09:47","新北市三重區忠孝路三段40巷16弄10號","121.482281666667","25.0669016666667","6500200","三重區"
"241024","462-BY","2018/05/31 21:09:50","新北市三重區重新路四段121號","121.484893333333","25.051875","6500200","三重區"
"241004","475-VK","2018/05/31 21:09:36","新北市三重區仁愛街418號","121.490473333333","25.0813433333333","6500200","三重區"
"241020","478-VK","2018/05/31 21:09:48","新北市三重區忠孝路二段34號","121.48592","25.0709266666667","6500200","三重區"
"241030","480-VK","2018/05/31 21:09:38","新北市三重區五谷王北街20巷15弄1號","121.475073333333","25.048445","6500200","三重區"
"241014","543-UM","2018/05/31 21:09:47","新北市三重區三和路二段37-9號","121.501316666667","25.0677333333333","6500200","三重區"
"241023","545-UM","2018/05/31 21:09:42","新北市三重區洛陽街45巷15號","121.482345","25.0637083333333","6500200","三重區"
"241019","KEA-2593","2018/05/31 21:09:37","新北市三重區自強路二段74巷21號","121.48796","25.06984","6500200","三重區"
"241006","AAD-863","2018/05/31 21:09:38","新北市三重區中正北路105號","121.489383333333","25.06321","6500200","三重區"
"241012","941-UM","2018/05/31 21:09:39","新北市三重區河邊北街238號","121.50194","25.0757166666667","6500200","三重區"
"241029","942-UM","2018/05/31 21:09:49","新北市三重區正義南路111號","121.498216666667","25.0585216666667","6500200","三重區"
"241033","AAC-255","2018/05/31 21:09:34","新北市三重區重光街107-2號","121.466376666667","25.0647966666667","6500200","三重區"
"247024","893-R6","2018/05/31 21:09:50","新北市蘆洲區長興路50巷1號","121.463741666667","25.0837666666667","6501400","蘆洲區"
"247014","546-UM","2018/05/31 21:09:33","新北市蘆洲區中央路155號","121.47267","25.0846933333333","6501400","蘆洲區"
"247022","500-BY","2018/05/31 21:09:44","新北市蘆洲區中正路263巷2號","121.467285","25.0876516666667","6501400","蘆洲區"
"247010","341-TH","2018/05/31 21:09:40","新北市蘆洲區鷺江街40號","121.477281666667","25.0830683333333","6501400","蘆洲區"
"247012","339-TH","2018/05/31 21:09:42","新北市蘆洲區民權路6-1號","121.476748333333","25.0856933333333","6501400","蘆洲區"
"247006","336-TH","2018/05/31 21:09:44","新北市蘆洲區永安南路二段16巷18號","121.467936666667","25.0777883333333","6501400","蘆洲區"
"247018","057-VK","2018/05/31 21:09:46","新北市蘆洲區民族路408巷7號","121.474701666667","25.091965","6501400","蘆洲區"
"247008","056-VK","2018/05/31 21:09:46","新北市蘆洲區民生街28號","121.474905","25.0789066666667","6501400","蘆洲區"
"247004","053-VK","2018/05/31 21:09:45","新北市蘆洲區永安南路二段286號","121.457551666667","25.0813333333333","6501400","蘆洲區"
"247016","007-UY","2018/05/31 21:09:46","新北市蘆洲區中正路185巷47號","121.465676666667","25.0839616666667","6501400","蘆洲區"
"247002","002-UY","2018/05/31 21:09:36","新北市蘆洲區永平街6號","121.459558333333","25.0903816666667","6501400","蘆洲區"
"247020","001-UY","2018/05/31 21:09:44","新北市蘆洲區民族路488號","121.471156666667","25.0913733333333","6501400","蘆洲區"
"251005","010-UM","2018/05/31 21:09:50","新北市淡水區中正東路35巷28號","121.446751666667","25.16889","6501000","淡水區"
"251013","KEA-2871","2018/05/31 21:09:41","新北市淡水區行忠路328號","121.460481666667","25.19959","6501000","淡水區"
"251016","179-VK","2018/05/31 21:09:32","新北市淡水區牛埔子7-8號","121.447978333333","25.2183783333333","6501000","淡水區"
"251014","180-VK","2018/05/31 21:09:43","新北市淡水區六塊厝1-1號","121.449491666667","25.2420683333333","6501000","淡水區"
"251015","182-VK","2018/05/31 21:09:36","新北市淡水區淡金路四段542巷66號","121.455355","25.2263583333333","6501000","淡水區"
"251010","413-VK","2018/05/31 21:09:52","新北市淡水區中正路一段86號","121.424391666667","25.1776366666667","6501000","淡水區"
"251007","442-VK","2018/05/31 21:09:35","新北市淡水區仁愛街13號","121.446148333333","25.1705766666667","6501000","淡水區"
"251012","443-VK","2018/05/31 21:09:50","新北市淡水區淡金路五段168號","121.456855","25.239215","6501000","淡水區"
"251001","559-UM","2018/05/31 21:09:39","新北市淡水區新市一路三段101巷16弄3號","121.446666666667","25.1839916666667","6501000","淡水區"
"251011","650-BX","2018/05/31 21:09:40","新北市淡水區新民街222巷16弄8號","121.436975","25.18021","6501000","淡水區"
"251002","672-BX","2018/05/31 21:09:40","新北市淡水區學府路172巷21號","121.448298333333","25.174845","6501000","淡水區"
"251003","766-UM","2018/05/31 21:09:44","新北市淡水區新春街103-10號","121.44059","25.181895","6501000","淡水區"
"242013","351-TH","2018/05/31 21:09:48","新北市八里區中山路三段409號","121.368676666667","25.1347916666667","6500500","新莊區"
"242002","KEA-2550","2018/05/31 21:09:40","新北市五股區凌雲路一段25號","121.452266666667","25.099535","6500500","新莊區"
"220070","AAC-253","2018/05/31 21:07:56","新北市林口區太平里180號","121.368276666667","25.1343816666667","6500100","板橋區"
