"lineid","car","time","location","longitude","latitude","cityid","cityname"
"222003","436-BY","2018/05/31 21:05:32","新北市深坑區深南路88巷1號","121.620998333333","25.0116933333333","6501800","深坑區"
"231047","187-VK","2018/05/31 21:29:45","新北市新店區安德街148巷37號","121.50742","24.96139","6500600","新店區"
"231063","641-BX","2018/05/31 21:29:52","新北市新店區如意街106號","121.49646","24.94699","6500600","新店區"
"231060","897-TW","2018/05/31 21:29:43","新北市新店區薏仁坑路自強巷6號","121.49645","24.9583016666667","6500600","新店區"
"241024","065-VK","2018/05/31 21:29:36","新北市三重區中正北路115巷6號","121.483988333333","25.0676333333333","6500200","三重區"
"241003","091-VK","2018/05/31 21:29:46","新北市三重區集賢路71-1號","121.494436666667","25.08647","6500200","三重區"
"241016","266-UM","2018/05/31 21:29:46","新北市三重區新北大道一段3-1號","121.490126666667","25.061395","6500200","三重區"
"241013","270-UM","2018/05/31 21:29:45","新北市三重區正義南路181巷1號","121.499563333333","25.056875","6500200","三重區"
"241007","398-BY","2018/05/31 21:29:52","新北市三重區正義北路110號","121.496901666667","25.065225","6500200","三重區"
"241024","462-BY","2018/05/31 21:14:45","新北市三重區重新路四段121號","121.484895","25.0518633333333","6500200","三重區"
"241006","AAD-863","2018/05/31 21:29:38","新北市五股區凌雲路二段18巷62-2號","121.442091666667","25.1064766666667","6500200","三重區"
"241033","AAC-255","2018/05/31 21:29:54","新北市三重區中興北街195號","121.468978333333","25.057235","6500200","三重區"
"247022","500-BY","2018/05/31 21:29:39","新北市蘆洲區長安街313巷46號","121.455315","25.085715","6501400","蘆洲區"
"247006","336-TH","2018/05/31 21:29:44","新北市蘆洲區中原路62號","121.458745","25.082125","6501400","蘆洲區"
"251009","008-UM","2018/05/31 21:29:45","新北市淡水區民族路65巷60號","121.463475","25.1359616666667","6501000","淡水區"
"251004","009-UM","2018/05/31 21:29:56","新北市淡水區民族路2號","121.460393333333","25.1368766666667","6501000","淡水區"
"251005","010-UM","2018/05/31 21:29:50","新北市淡水區水源街一段51號","121.443936666667","25.1722666666667","6501000","淡水區"
"251013","KEA-2871","2018/05/31 21:29:42","新北市淡水區埤島59-2號","121.459558333333","25.1953183333333","6501000","淡水區"
"251016","179-VK","2018/05/31 21:29:32","新北市淡水區前洲子28號","121.441116666667","25.21918","6501000","淡水區"
"251014","180-VK","2018/05/31 21:29:43","新北市淡水區六塊厝2-5號","121.448378333333","25.2403733333333","6501000","淡水區"
"251008","181-VK","2018/05/31 21:29:52","新北市淡水區水源街二段128巷1號","121.453283333333","25.174705","6501000","淡水區"
"251015","182-VK","2018/05/31 21:29:36","新北市淡水區崁頂59號","121.441161666667","25.1994533333333","6501000","淡水區"
"251010","413-VK","2018/05/31 21:29:52","新北市淡水區沙崙路25巷21號","121.420543333333","25.1824083333333","6501000","淡水區"
"251007","442-VK","2018/05/31 21:29:55","新北市淡水區淡金路一段69號","121.458015","25.1734633333333","6501000","淡水區"
"251012","443-VK","2018/05/31 21:29:50","新北市淡水區淡金路五段35巷46號","121.452483333333","25.2347583333333","6501000","淡水區"
"251001","559-UM","2018/05/31 21:29:39","新北市淡水區濱海路二段202巷65弄37號","121.434061666667","25.19369","6501000","淡水區"
"251006","561-UM","2018/05/31 21:29:48","新北市淡水區公明街62號","121.443623333333","25.1685816666667","6501000","淡水區"
"251011","650-BX","2018/05/31 21:29:40","新北市淡水區真理街32號","121.43695","25.1784283333333","6501000","淡水區"
"251003","766-UM","2018/05/31 21:29:44","新北市淡水區崁頂15-5號","121.439093333333","25.185765","6501000","淡水區"
"220070","AAC-253","2018/05/31 21:29:36","新北市泰山區楓江路112巷6號","121.43904","25.063825","6500100","板橋區"
