"lineid","car","time","location","longitude","latitude","cityid","cityname"
"234040","862-TW","2018/05/31 21:59:50","新北市永和區福和路1號","121.526408333333","25.0097283333333","6500400","永和區"
"235010","733-UM","2018/05/31 21:45:09","新北市中和區員山路36巷13號","121.484185","24.9909383333333","6500300","中和區"
"251004","009-UM","2018/05/31 21:59:36","新北市淡水區民權路92巷35-1號","121.462121666667","25.1267316666667","6501000","淡水區"
"251005","010-UM","2018/05/31 21:59:50","新北市淡水區鄧公路30巷1弄68號","121.454446666667","25.1694833333333","6501000","淡水區"
"251008","181-VK","2018/05/31 21:59:52","新北市淡水區學府路104號","121.449803333333","25.1717783333333","6501000","淡水區"
"251010","413-VK","2018/05/31 21:59:52","新北市淡水區中正路二段211號","121.426206666667","25.1890733333333","6501000","淡水區"
"251007","442-VK","2018/05/31 21:59:46","新北市淡水區北新路184巷63號","121.451285","25.1775916666667","6501000","淡水區"
"251006","561-UM","2018/05/31 21:59:48","新北市淡水區中正路11巷3號","121.437815","25.1707716666667","6501000","淡水區"
"251011","650-BX","2018/05/31 21:59:40","新北市淡水區水碓街7號","121.443148333333","25.1770783333333","6501000","淡水區"
"251003","766-UM","2018/05/31 21:59:44","新北市淡水區新春街94號","121.438985","25.1824316666667","6501000","淡水區"
"220070","AAC-253","2018/05/31 21:59:56","新北市板橋區華東街1-10號","121.448238333333","24.994955","6500100","板橋區"
