"lineid","car","time","location","longitude","latitude","cityid","cityname"
"234040","862-TW","2018/05/31 22:05:27","新北市永和區福和路1號","121.526418333333","25.0096883333333","6500400","永和區"
"247005","336-TH","2018/05/31 22:29:44","新北市五股區中興路三段163號","121.449138333333","25.0808066666667","6501400","蘆洲區"
"251004","009-UM","2018/05/31 22:29:56","新北市淡水區民族路33號","121.462291666667","25.1358066666667","6501000","淡水區"
"251008","181-VK","2018/05/31 22:29:52","新北市淡水區學府路104號","121.449871666667","25.1718533333333","6501000","淡水區"
"251010","413-VK","2018/05/31 22:29:51","新北市淡水區沙崙路200號","121.424706666667","25.18393","6501000","淡水區"
"251007","442-VK","2018/05/31 22:29:46","新北市淡水區北新路180號","121.44947","25.17878","6501000","淡水區"
"251011","650-BX","2018/05/31 22:29:40","新北市淡水區中山北路一段173號","121.44362","25.1777133333333","6501000","淡水區"
