"lineid","car","time","location","longitude","latitude","cityid","cityname"
"248005","653-BX","2018/06/01 06:59:17","新北市五股區中興路二段163號","121.457561666667","25.0777466666667","6501500","五股區"
"232003","290-BY","2018/06/01 06:59:21","新北市坪林區坪雙路一段83號","121.717196666667","24.9439183333333","6502000","坪林區"
"232015","291-BY","2018/06/01 06:57:18","新北市坪林區粗窟3號","121.68039","24.9357883333333","6502000","坪林區"
"232019","705-BZ","2018/06/01 06:59:22","新北市坪林區大粗坑6-1號","121.731133333333","24.9488083333333","6502000","坪林區"
"232008","758-BX","2018/06/01 06:59:30","新北市坪林區鶯子瀨2-11號","121.707103333333","24.9156233333333","6502000","坪林區"
"244004","248-BX","2018/06/01 06:59:19","新北市林口區中山路498號","121.379508333333","25.0827666666667","6501700","林口區"
"222005","289-BY","2018/06/01 06:54:33","新北市深坑區深坑街69號","121.614851666667","25.0012783333333","6501800","深坑區"
"235001","611-BX","2018/06/01 06:59:22","新北市中和區圓通路367巷6號","121.491521666667","24.989235","6500300","中和區"
"226006","AGD-0702","2018/06/01 06:59:21","新北市平溪區石底里公園街18-3號","121.734233333333","25.025655","6502400","平溪區"
"223006","022-BY","2018/06/01 06:58:11","新北市石碇區石碇東街3號","121.662125","24.9902566666667","6501900","石碇區"
"223002","KEA-2673","2018/06/01 06:59:35","新北市石碇區半路店1-1號","121.648218333333","24.9700216666667","6501900","石碇區"
"223003","205-TH","2018/06/01 06:59:24","新北市石碇區石碇東街143號","121.65891","24.9891683333333","6501900","石碇區"
"223008","406-TH","2018/06/01 06:59:32","新北市石碇區十八重溪16-2號","121.677333333333","25.0112766666667","6501900","石碇區"
"223001","592-UM","2018/06/01 06:59:35","新北市石碇區石碇西街8號","121.659098333333","24.9908733333333","6501900","石碇區"
"223004","660-BX","2018/06/01 06:59:21","新北市石碇區碇坪路一段62號","121.657156666667","24.9914966666667","6501900","石碇區"
"223007","661-BX","2018/06/01 06:59:24","新北市石碇區番子坑38-9號","121.678148333333","25.0111783333333","6501900","石碇區"
"223005","677-TV","2018/06/01 06:59:30","新北市石碇區碇坪路一段60號","121.657136666667","24.99149","6501900","石碇區"
"227005","282-VK","2018/06/01 06:59:15","新北市雙溪區新基里自強路5號","121.86638","25.0390533333333","6502500","雙溪區"
"252003","249-BX","2018/06/01 06:59:28","新北市三芝區中山路二段50號","121.503243333333","25.2542383333333","6502100","三芝區"
"236010","165-UM","2018/06/01 06:59:24","新北市土城區永平街51號","121.427975","24.9591716666667","6501300","土城區"
