"lineid","car","time","location","longitude","latitude","cityid","cityname"
"232001","290-BY","2018/12/20 07:49:30","新北市坪林區上坑子口19-1號","121.705591666667","24.9486683333333","6502000","坪林區"
"232014","291-BY","2018/12/20 07:49:18","新北市坪林區金瓜寮35號","121.67355","24.9000766666667","6502000","坪林區"
"232010","375-UM","2018/12/20 07:49:34","新北市坪林區厚德岡坑8-5號","121.733155","24.9409133333333","6502000","坪林區"
"232007","758-BX","2018/12/20 07:49:26","新北市坪林區魚堀48-5號","121.702305","24.9329783333333","6502000","坪林區"
"244003","248-BX","2018/12/20 07:49:32","新北市林口區頂福里24號","121.352505","25.0949733333333","6501700","林口區"
"244012","KEA-2802","2018/12/20 07:49:22","新北市林口區粉寮69號","121.404756666667","25.0907716666667","6501700","林口區"
"222006","289-BY","2018/12/20 07:49:27","新北市深坑區文化街45號","121.61691","25.0017366666667","6501800","深坑區"
"231008","192-VK","2018/12/20 07:49:23","新北市新店區安一路一段1-1號","121.519388333333","24.9613616666667","6500600","新店區"
"226005","5620-A6","2018/12/20 07:49:24","新北市平溪區嶺腳里中華街61號","121.739415","25.02504","6502400","平溪區"
"226007","7418-A5","2018/12/20 07:49:31","新北市平溪區平湖里坑頭3號","121.782943333333","25.026195","6502400","平溪區"
"226003","AGD-0702","2018/12/20 07:37:06","新北市平溪區嶺腳里嶺腳寮83-2號","121.75048","25.0350533333333","6502400","平溪區"
"223006","022-BY","2018/12/20 07:49:31","新北市石碇區靜安路一段292巷10號","121.691883333333","25.0058416666667","6501900","石碇區"
"223003","205-TH","2018/12/20 07:49:21","新北市石碇區烏塗窟8號","121.65592","24.9751","6501900","石碇區"
"223001","592-UM","2018/12/20 07:49:26","新北市石碇區烏塗窟8號","121.655916666667","24.9750416666667","6501900","石碇區"
"223004","660-BX","2018/12/20 07:49:34","新北市石碇區楓子林36-3號","121.64234","25.0095216666667","6501900","石碇區"
"223007","661-BX","2018/12/20 07:39:37","新北市石碇區靜安路一段337號","121.698875","25.0144883333333","6501900","石碇區"
"223005","677-TV","2018/12/20 07:49:29","新北市石碇區楓子林30號","121.64227","25.0096516666667","6501900","石碇區"
"227007","282-VK","2018/12/20 07:49:30","新北市雙溪區雙溪里太平路54號","121.864771666667","25.0354133333333","6502500","雙溪區"
"252004","249-BX","2018/12/20 07:49:18","新北市三芝區店子里菜公坑97號","121.515306666667","25.2074316666667","6502100","三芝區"
"252007","AAC-283","2018/12/20 07:49:35","新北市三芝區後厝里北勢子45-33號","121.470171666667","25.251095","6502100","三芝區"
"237001","361-BY","2018/12/20 07:49:38","新北市三峽區三樹路150號","121.378431666667","24.9402933333333","6500900","三峽區"
"242035","AAC-296","2018/12/20 07:49:16","新北市新莊區中正路459號","121.442281666667","25.0335333333333","6500500","新莊區"
"242057","986-R7","2018/12/20 07:49:29","新北市新莊區中正路400號","121.441973333333","25.0343633333333","6500500","新莊區"
"242026","615-BX","2018/12/20 07:49:24","新北市新莊區中港路304號","121.452695","25.04492","6500500","新莊區"
"242024","613-BX","2018/12/20 07:49:36","新北市新莊區泰順街69號","121.448161666667","25.0432083333333","6500500","新莊區"
"242028","612-BX","2018/12/20 07:49:16","新北市新莊區幸福路609號","121.452128333333","25.04919","6500500","新莊區"
"242043","566-BX","2018/12/20 07:49:27","新北市新莊區中正路400號","121.441973333333","25.0342283333333","6500500","新莊區"
"242047","497-BY","2018/12/20 07:49:20","新北市新莊區龍安路255號","121.419718333333","25.02","6500500","新莊區"
"242001","440-UM","2018/12/20 07:49:25","新北市新莊區瓊林路56-70號","121.442621666667","25.0256483333333","6500500","新莊區"
"242038","415-TV","2018/12/20 07:49:26","新北市新莊區民安路432-2號","121.43418","25.0225566666667","6500500","新莊區"
"242045","400-BY","2018/12/20 07:49:22","新北市新莊區新泰路357巷2號","121.442248333333","25.0414966666667","6500500","新莊區"
"242022","362-BY","2018/12/20 07:49:34","新北市新莊區中港路306號","121.452641666667","25.04499","6500500","新莊區"
"242059","353-BY","2018/12/20 07:49:21","新北市新莊區三和路12-21號","121.442161666667","25.0381233333333","6500500","新莊區"
"242010","132-UY","2018/12/20 07:49:27","新北市新莊區三和路12-13號","121.442178333333","25.03714","6500500","新莊區"
"242033","135-UY","2018/12/20 07:49:23","新北市新莊區三和路12-18號","121.441891666667","25.0375983333333","6500500","新莊區"
"242049","172-VK","2018/12/20 07:49:32","新北市新莊區瓊林南路75-2號","121.434978333333","25.014155","6500500","新莊區"
"242012","173-VK","2018/12/20 07:49:16","新北市新莊區三和路12-21號","121.442086666667","25.0387116666667","6500500","新莊區"
"242018","175-VK","2018/12/20 07:49:16","新北市新莊區中平路82巷36號","121.446241666667","25.0448883333333","6500500","新莊區"
"242006","176-VK","2018/12/20 07:49:17","新北市新莊區中和街59巷24號","121.446405","25.0467516666667","6500500","新莊區"
"242016","KED-0687","2018/12/20 07:49:30","新北市新莊區中港路273號","121.453496666667","25.0435866666667","6500500","新莊區"
"242052","346-TH","2018/12/20 07:49:25","新北市新莊區環河路636-1號","121.436681666667","25.0107783333333","6500500","新莊區"
"242008","347-TH","2018/12/20 07:49:14","新北市新莊區中平路385號","121.444118333333","25.054275","6500500","新莊區"
"242030","348-TH","2018/12/20 07:49:22","新北市新莊區新泰路361巷23號","121.44236","25.0430733333333","6500500","新莊區"
"242003","349-TH","2018/12/20 07:49:26","新北市新莊區復興路一段209號","121.452326666667","25.0436083333333","6500500","新莊區"
"242020","350-TH","2018/12/20 07:49:16","新北市新莊區中港路297號","121.452923333333","25.0444016666667","6500500","新莊區"
"242014","351-TH","2018/12/20 07:49:31","新北市新莊區新泰路488號","121.442385","25.0458433333333","6500500","新莊區"
"242040","281-VK","2018/12/20 07:49:29","新北市新莊區新樹路113巷33號","121.43952","25.0263716666667","6500500","新莊區"
"242055","280-VK","2018/12/20 07:49:27","新北市新莊區新泰路357巷2-2號","121.441985","25.0413516666667","6500500","新莊區"
