"lineid","car","time","location","longitude","latitude","cityid","cityname"
"248005","653-BX","2018/02/14 08:39:42","新北市五股區明德路12巷12號","121.433338333333","25.0721566666667","6501500","五股區"
"244012","069-UM","2018/02/14 08:39:43","新北市林口區中山路38號","121.395535","25.0784833333333","6501700","林口區"
"244006","080-UY","2018/02/14 08:39:36","新北市林口區林口路194號","121.387313333333","25.0829966666667","6501700","林口區"
"244018","402-UM","2018/02/14 08:39:39","新北市林口區文化一路一段89-5號","121.37198","25.0703683333333","6501700","林口區"
"244022","483-VK","2018/02/14 08:39:43","新北市林口區東明二街90號","121.389525","25.0701616666667","6501700","林口區"
"244016","485-VK","2018/02/14 08:39:39","新北市林口區八德路78號","121.365571666667","25.06557","6501700","林口區"
"244008","657-BX","2018/02/14 08:39:32","新北市林口區佳林路56巷33號","121.385228333333","25.0809366666667","6501700","林口區"
"244010","701-TV","2018/02/14 08:39:42","新北市林口區中正路74巷5弄2號","121.394573333333","25.0780383333333","6501700","林口區"
"244024","837-TS","2018/02/14 08:39:45","新北市林口區南勢四街328號","121.35747","25.0762","6501700","林口區"
"244020","838-TS","2018/02/14 08:39:39","新北市林口區新寮44號","121.403915","25.0651466666667","6501700","林口區"
"222005","289-BY","2018/02/14 08:39:44","新北市深坑區風格街31巷29號","121.627473333333","25.0176883333333","6501800","深坑區"
"231009","192-VK","2018/02/14 08:39:33","新北市新店區新烏路三段1號","121.55182","24.9067166666667","6500600","新店區"
"235001","611-BX","2018/02/14 08:39:38","新北市中和區民利街68巷2弄8號","121.478898333333","24.99883","6500300","中和區"
"220083","015-TV","2018/02/14 08:39:43","新北市土城區福安街30-11號","121.419098333333","24.9657533333333","6500100","板橋區"
"226005","5620-A6","2018/02/14 08:39:49","新北市平溪區南山里南山坪125號","121.786588333333","25.0454466666667","6502400","平溪區"
"226001","7418-A5","2018/02/14 08:39:43","新北市平溪區東勢里芊蓁林51-2號","121.752806666667","25.0100383333333","6502400","平溪區"
"226003","AGD-0702","2018/02/14 08:39:46","新北市平溪區十分里十分街271-3號","121.779053333333","25.0447916666667","6502400","平溪區"
"223001","205-TH","2018/02/14 08:39:34","新北市石碇區北宜路六段十三股巷1號","121.648755","24.9481333333333","6501900","石碇區"
"223008","406-TH","2018/02/14 08:39:43","新北市石碇區光明路13號","121.680143333333","25.0336366666667","6501900","石碇區"
"223004","437-BY","2018/02/14 08:39:46","新北市石碇區崩山3-2號","121.675265","24.9735183333333","6501900","石碇區"
"223001","592-UM","2018/02/14 08:39:50","新北市石碇區北宜路五段十股寮巷12號","121.643338333333","24.9528883333333","6501900","石碇區"
"223007","661-BX","2018/02/14 08:39:42","新北市石碇區碇南路二段7號","121.668828333333","25.03104","6501900","石碇區"
"223005","677-TV","2018/02/14 08:39:35","新北市石碇區外按6-1號","121.649923333333","24.9947283333333","6501900","石碇區"
"224006","676-BX","2018/02/14 08:39:34","新北市瑞芳區傑魚坑路195-4號","121.787711666667","25.107095","6501200","瑞芳區"
"224007","273-VK","2018/02/14 08:39:39","新北市瑞芳區大埔路182號","121.761693333333","25.1022566666667","6501200","瑞芳區"
"224005","271-BY","2018/02/14 08:39:37","新北市瑞芳區瑞芳街32-10號","121.821993333333","25.1205","6501200","瑞芳區"
"227006","282-VK","2018/02/14 08:39:42","新北市雙溪區上林里大瀨1號","121.82995","25.025265","6502500","雙溪區"
"237001","159-UY","2018/02/14 08:39:39","新北市三峽區大觀路68號","121.374691666667","24.9454566666667","6500900","三峽區"
"239007","AAC-297","2018/02/14 08:39:33","新北市鶯歌區鶯桃路120巷12號","121.338808333333","24.9550883333333","6500800","鶯歌區"
"239006","891-R6","2018/02/14 08:39:38","新北市鶯歌區永和街34巷22號","121.333726666667","24.96702","6500800","鶯歌區"
"239008","527-UM","2018/02/14 08:39:47","新北市鶯歌區香賓街3巷2號","121.336211666667","24.9785083333333","6500800","鶯歌區"
"239005","526-UM","2018/02/14 08:39:46","新北市鶯歌區福隆二街63號","121.324243333333","24.97151","6500800","鶯歌區"
"239003","360-BY","2018/02/14 08:39:39","新北市鶯歌區鶯桃路206巷20號","121.337635","24.9595733333333","6500800","鶯歌區"
"239004","193-VK","2018/02/14 08:39:35","新北市鶯歌區三鶯路17-1號","121.356071666667","24.9413","6500800","鶯歌區"
