"lineid","car","time","location","longitude","latitude","cityid","cityname"
"248005","653-BX","2018/02/14 08:49:42","新北市五股區明德路12巷16號","121.43331","25.07198","6501500","五股區"
"244012","069-UM","2018/02/14 08:49:43","新北市林口區林口路43號","121.39","25.0789016666667","6501700","林口區"
"244006","080-UY","2018/02/14 08:49:36","新北市林口區林口路78號","121.389211666667","25.08061","6501700","林口區"
"244018","402-UM","2018/02/14 08:49:39","新北市林口區麗園路121號","121.371513333333","25.0676483333333","6501700","林口區"
"244022","483-VK","2018/02/14 08:49:43","新北市林口區東湖路41巷8號","121.386153333333","25.0736366666667","6501700","林口區"
"244016","485-VK","2018/02/14 08:49:39","新北市林口區文化二路一段20巷59號","121.365373333333","25.066275","6501700","林口區"
"244008","657-BX","2018/02/14 08:49:32","新北市林口區中山路270號","121.382943333333","25.080935","6501700","林口區"
"244010","701-TV","2018/02/14 08:49:42","新北市林口區中山路73號","121.392841666667","25.07845","6501700","林口區"
"244024","837-TS","2018/02/14 08:49:52","新北市林口區南勢街192巷1號","121.360653333333","25.0746866666667","6501700","林口區"
"244020","838-TS","2018/02/14 08:49:48","新北市林口區自強八街23號","121.399891666667","25.07587","6501700","林口區"
"222005","289-BY","2018/02/14 08:48:14","新北市深坑區土庫尖路75-1號","121.631216666667","25.0182683333333","6501800","深坑區"
"231009","192-VK","2018/02/14 08:49:41","新北市新店區新烏路三段165巷22號","121.552295","24.901015","6500600","新店區"
"235001","611-BX","2018/02/14 08:49:38","新北市中和區華安街19巷9號","121.467218333333","24.99807","6500300","中和區"
"226005","5620-A6","2018/02/14 08:49:29","新北市平溪區十分里十分街195號","121.778456666667","25.043845","6502400","平溪區"
"226001","7418-A5","2018/02/14 08:49:43","新北市平溪區東勢里火燒寮6號","121.747021666667","25.00133","6502400","平溪區"
"226003","AGD-0702","2018/02/14 08:49:46","新北市平溪區十分里十分街247號","121.77774","25.0445083333333","6502400","平溪區"
"223001","205-TH","2018/02/14 08:49:34","新北市石碇區北宜路五段11號","121.630933333333","24.9555266666667","6501900","石碇區"
"223008","406-TH","2018/02/14 08:49:43","新北市石碇區光明路15號","121.68016","25.0336783333333","6501900","石碇區"
"223004","437-BY","2018/02/14 08:49:46","新北市石碇區崩山26-1號","121.676788333333","24.9670966666667","6501900","石碇區"
"223001","592-UM","2018/02/14 08:49:30","新北市石碇區北宜路五段22號","121.63058","24.956815","6501900","石碇區"
"223007","661-BX","2018/02/14 08:49:32","新北市石碇區光明路8號","121.679396666667","25.027115","6501900","石碇區"
"223005","677-TV","2018/02/14 08:49:35","新北市石碇區碇坪路一段79號","121.660581666667","24.9910083333333","6501900","石碇區"
"224006","676-BX","2018/02/14 08:49:43","新北市瑞芳區傑魚坑路68號","121.793101666667","25.1105416666667","6501200","瑞芳區"
"224007","273-VK","2018/02/14 08:49:39","新北市瑞芳區月眉路10-1號","121.76056","25.1067966666667","6501200","瑞芳區"
"224005","271-BY","2018/02/14 08:49:36","新北市瑞芳區洞頂路63號","121.861678333333","25.1205816666667","6501200","瑞芳區"
"227006","282-VK","2018/02/14 08:49:42","新北市雙溪區上林里大瀨1號","121.829975","25.02524","6502500","雙溪區"
"237001","159-UY","2018/02/14 08:49:39","新北市三峽區大學路192號","121.372461666667","24.9467416666667","6500900","三峽區"
"239007","AAC-297","2018/02/14 08:49:32","新北市鶯歌區鶯桃路94巷59弄6號","121.341638333333","24.9553516666667","6500800","鶯歌區"
"239006","891-R6","2018/02/14 08:49:38","新北市鶯歌區鶯桃路413巷52號","121.330168333333","24.963235","6500800","鶯歌區"
"239008","527-UM","2018/02/14 08:49:38","新北市鶯歌區明圓街21號","121.336213333333","24.977295","6500800","鶯歌區"
"239005","526-UM","2018/02/14 08:49:46","新北市鶯歌區鳳吉五街9號","121.326695","24.9722916666667","6500800","鶯歌區"
"239003","360-BY","2018/02/14 08:49:39","新北市鶯歌區鶯桃路295巷10號","121.334466666667","24.959675","6500800","鶯歌區"
"239004","193-VK","2018/02/14 08:49:35","新北市鶯歌區尖山路140巷6弄2號","121.346821666667","24.9487716666667","6500800","鶯歌區"
