"lineid","car","time","location","longitude","latitude","cityid","cityname"
"248005","653-BX","2018/02/14 09:29:33","新北市五股區登林路貿商巷3弄13號","121.429786666667","25.0698166666667","6501500","五股區"
"244012","069-UM","2018/02/14 09:29:43","新北市林口區麗園二街1巷6-1號","121.37785","25.0704033333333","6501700","林口區"
"244006","080-UY","2018/02/14 09:29:45","新北市林口區中湖62號","121.384685","25.1008866666667","6501700","林口區"
"244018","402-UM","2018/02/14 09:29:39","新北市林口區麗園二街51號","121.381048333333","25.0688566666667","6501700","林口區"
"244022","483-VK","2018/02/14 09:29:43","新北市林口區民權路203號","121.375381666667","25.0853916666667","6501700","林口區"
"244008","657-BX","2018/02/14 09:29:52","新北市林口區竹林路430巷1弄12號","121.388546666667","25.0857366666667","6501700","林口區"
"244010","701-TV","2018/02/14 09:29:42","新北市林口區中正路272-1號","121.38921","25.07795","6501700","林口區"
"222005","289-BY","2018/02/14 09:29:41","新北市深坑區北深路一段185號","121.63136","25.0101416666667","6501800","深坑區"
"231009","192-VK","2018/02/14 09:29:49","新北市新店區廣興路159號","121.536923333333","24.908915","6500600","新店區"
"223008","406-TH","2018/02/14 09:29:43","新北市石碇區西勢坑7號","121.693333333333","24.990755","6501900","石碇區"
"223007","661-BX","2018/02/14 09:25:12","新北市石碇區南勢坑4-1號","121.697976666667","24.98323","6501900","石碇區"
"223005","677-TV","2018/02/14 09:29:48","新北市石碇區小粗坑(潭邊里)6-1號","121.675323333333","24.9837316666667","6501900","石碇區"
"224010","AGQ-8101","2018/02/14 09:29:35","新北市瑞芳區九芎橋路23號","121.832625","25.0931616666667","6501200","瑞芳區"
"224006","676-BX","2018/02/14 09:29:50","新北市瑞芳區中山路56號","121.803126666667","25.1064366666667","6501200","瑞芳區"
"224007","273-VK","2018/02/14 09:29:48","新北市瑞芳區大埔路67巷5-1號","121.76428","25.1016633333333","6501200","瑞芳區"
"224005","271-BY","2018/02/14 09:29:50","新北市瑞芳區籠山路21號","121.832171666667","25.1234316666667","6501200","瑞芳區"
"227006","282-VK","2018/02/14 09:29:22","新北市雙溪區外柑里三叉坑1-2號","121.825203333333","25.020695","6502500","雙溪區"
"237001","159-UY","2018/02/14 09:29:39","新北市樹林區柑園街二段276巷12弄15號","121.374315","24.95389","6500900","三峽區"
"239007","AAC-297","2018/02/14 09:29:52","新北市鶯歌區中正一路建德巷16號","121.364858333333","24.9571916666667","6500800","鶯歌區"
"239006","891-R6","2018/02/14 09:29:38","新北市鶯歌區鶯桃路296巷72弄14號","121.337051666667","24.96132","6500800","鶯歌區"
"239008","527-UM","2018/02/14 09:29:38","新北市鶯歌區國際一路14號","121.336223333333","24.97655","6500800","鶯歌區"
"239005","526-UM","2018/02/14 09:29:46","新北市鶯歌區鳳吉二街140號","121.32843","24.9748583333333","6500800","鶯歌區"
"239003","360-BY","2018/02/14 09:29:39","新北市鶯歌區鶯桃路392號","121.33392","24.96374","6500800","鶯歌區"
"239004","193-VK","2018/02/14 09:29:35","新北市鶯歌區中正三路192號","121.332881666667","24.9383","6500800","鶯歌區"
