"lineid","car","time","location","longitude","latitude","cityid","cityname"
"248005","655-BX","2018/02/14 10:38:20","新北市五股區中興路二段83巷26-6號","121.459963333333","25.0752733333333","6501500","五股區"
"231009","192-VK","2018/02/14 10:39:32","新北市新店區小坑一路21-1號","121.530906666667","24.9117466666667","6500600","新店區"
"223005","677-TV","2018/02/14 10:35:32","新北市石碇區碇坪路二段86號","121.685478333333","24.9616466666667","6501900","石碇區"
"224005","271-BY","2018/02/14 10:39:16","新北市瑞芳區瑞濱路185號","121.817546666667","25.1136916666667","6501200","瑞芳區"
"227006","282-VK","2018/02/14 10:31:22","新北市雙溪區泰平里溪尾寮1號","121.821085","24.9600733333333","6502500","雙溪區"
"252005","AAC-283","2018/02/14 10:28:56","新北市三芝區埔坪里埔頭坑41號","121.504455","25.2644333333333","6502100","三芝區"
"239006","891-R6","2018/02/14 10:39:38","新北市鶯歌區中正一路460號","121.364385","24.9564233333333","6500800","鶯歌區"
