"lineid","car","time","location","longitude","latitude","cityid","cityname"
"244002","248-BX","2018/02/14 11:56:30","新北市林口區下福里1鄰3-1號","121.323945","25.0952616666667","6501700","林口區"
"231009","192-VK","2018/02/14 11:59:35","新北市新店區屈尺路55-2號","121.545971666667","24.922545","6500600","新店區"
"235025","378-QA","2018/02/14 11:50:32","新北市中和區和城路一段271巷1號","121.485571666667","24.9911683333333","6500300","中和區"
"228005","097-TW","2018/02/14 11:59:43","新北市貢寮區貢寮里朝陽街1-2號","121.912128333333","25.0213366666667","6502600","貢寮區"
"228004","212-TW","2018/02/14 11:59:49","新北市貢寮區貢寮里朝陽街1-2號","121.912188333333","25.02127","6502600","貢寮區"
"227006","282-VK","2018/02/14 11:59:41","新北市雙溪區魚行里丁子蘭坑6-2號","121.871681666667","25.01394","6502500","雙溪區"
