"lineid","car","time","location","longitude","latitude","cityid","cityname"
"234040","862-TW","2018/02/14 12:09:50","","121.526295","25.0094866666667","6500400","永和區"
"244002","248-BX","2018/02/14 11:56:30","新北市林口區下福里1鄰3-1號","121.323945","25.0952616666667","6501700","林口區"
"231009","192-VK","2018/02/14 12:09:35","","121.542305","24.9227716666667","6500600","新店區"
"235031","255-BX","2018/02/14 12:09:02","","121.485505","24.991915","6500300","中和區"
"235025","378-QA","2018/02/14 11:50:32","新北市中和區和城路一段271巷1號","121.485571666667","24.9911683333333","6500300","中和區"
"228005","097-TW","2018/02/14 12:09:43","新北市貢寮區雙玉里田寮洋街21號","121.927241666667","25.02381","6502600","貢寮區"
"228004","212-TW","2018/02/14 12:09:49","新北市貢寮區貢寮里貢寮街2號","121.907738333333","25.0188833333333","6502600","貢寮區"
"227006","282-VK","2018/02/14 12:09:41","新北市雙溪區魚行里丁子蘭坑47號","121.865956666667","24.9990066666667","6502500","雙溪區"
