"lineid","car","time","location","longitude","latitude","cityid","cityname"
"234044","148-BY","2018/02/14 12:59:43","新北市永和區永元路52巷52號","121.524593333333","25.0007016666667","6500400","永和區"
"234066","149-BY","2018/02/14 12:59:41","新北市永和區永和路一段32號","121.513058333333","25.004975","6500400","永和區"
"234005","207-UY","2018/02/14 12:59:50","新北市永和區永和路二段48號","121.514728333333","25.010725","6500400","永和區"
"234078","298-R6","2018/02/14 12:59:44","新北市永和區林森路112巷9弄7號","121.521948333333","25.00407","6500400","永和區"
"234036","336-UY","2018/02/14 12:59:41","新北市永和區成功路二段207號","121.526535","24.9959083333333","6500400","永和區"
"234062","337-UY","2018/02/14 12:59:43","新北市永和區秀朗路一段198號","121.519353333333","25.003235","6500400","永和區"
"234086","338-UY","2018/02/14 12:59:45","新北市永和區永利路18號","121.518001666667","25.0057583333333","6500400","永和區"
"234068","552-UM","2018/02/14 12:59:56","新北市永和區竹林路96巷21號","121.518608333333","25.0116783333333","6500400","永和區"
"234015","745-BX","2018/02/14 12:59:51","新北市永和區永和路二段297號","121.516085","25.0160483333333","6500400","永和區"
"234028","746-BX","2018/02/14 12:59:53","新北市永和區秀朗路二段281號","121.526173333333","24.99816","6500400","永和區"
"234052","KEA-2590","2018/02/14 12:59:58","新北市永和區竹林路66巷4號","121.518201666667","25.0133266666667","6500400","永和區"
"234012","KEA-2591","2018/02/14 12:59:38","新北市永和區信義路17巷9弄1號","121.513928333333","25.01164","6500400","永和區"
"234060","AAD-866","2018/02/14 12:59:39","新北市永和區福和路313號","121.516148333333","25.0072083333333","6500400","永和區"
"234040","862-TW","2018/02/14 12:59:50","新北市永和區永貞路285號","121.511213333333","25.0053033333333","6500400","永和區"
"234048","863-TW","2018/02/14 12:59:55","新北市永和區文化路194號","121.510811666667","25.01623","6500400","永和區"
"234025","9371-KE","2018/02/14 12:59:53","新北市永和區永和路一段41號","121.51283","25.006225","6500400","永和區"
"234022","9381-KE","2018/02/14 12:59:48","新北市永和區竹林路39巷28弄39號","121.520063333333","25.0141066666667","6500400","永和區"
"234010","9373-KE","2018/02/14 12:59:45","新北市永和區文化路113巷23弄1號","121.513328333333","25.01403","6500400","永和區"
"248015","026-BX","2018/02/14 12:59:56","新北市五股區中興路二段83巷26-6號","121.460128333333","25.075235","6501500","五股區"
"248007","095-VK","2018/02/14 12:59:38","新北市五股區更洲路26號","121.457996666667","25.0791483333333","6501500","五股區"
"248019","225-UY","2018/02/14 12:59:44","新北市五股區中興路二段83巷26-6號","121.46","25.07522","6501500","五股區"
"248003","677-BX","2018/02/14 12:59:52","新北市五股區中興路二段83巷26-6號","121.45976","25.0749616666667","6501500","五股區"
"248001","678-BX","2018/02/14 12:59:52","新北市五股區中興路二段37巷26號","121.460353333333","25.0749166666667","6501500","五股區"
"248009","682-TV","2018/02/14 12:59:38","新北市五股區中興路二段83巷26-3號","121.460156666667","25.0753333333333","6501500","五股區"
"234076","969-R7","2018/02/14 12:59:42","新北市永和區智光街126號","121.515055","24.99561","6500400","永和區"
"234072","AAC-211","2018/02/14 12:59:46","新北市永和區環河東路二段98號","121.524118333333","25.0103533333333","6500400","永和區"
"234001","AAC-295","2018/02/14 12:59:48","新北市永和區永和路一段174號","121.514186666667","25.0087833333333","6500400","永和區"
"231029","106-UY","2018/02/14 12:59:53","新北市新店區安華路28-1號","121.51977","24.9609016666667","6500600","新店區"
"231034","268-BY","2018/02/14 12:59:53","新北市新店區安華路28-1號","121.51949","24.9605516666667","6500600","新店區"
"231038","4715-K9","2018/02/14 12:59:46","新北市新店區安華路1-1號","121.51946","24.9604366666667","6500600","新店區"
"231005","897-TW","2018/02/14 12:59:47","新北市新店區安華路28-1號","121.519683333333","24.96077","6500600","新店區"
"235028","005-UY","2018/02/14 12:59:51","新北市中和區員山路36巷16-3號","121.485025","24.9913466666667","6500300","中和區"
"235027","006-UY","2018/02/14 12:59:44","新北市中和區員山路36巷16-3號","121.485183333333","24.99108","6500300","中和區"
"235029","098-UM","2018/02/14 12:59:37","新北市中和區景平路763-2號","121.496078333333","25.0052516666667","6500300","中和區"
"235022","151-BY","2018/02/14 12:59:46","新北市中和區錦和路350-1號","121.490525","24.9934916666667","6500300","中和區"
"235002","185-VK","2018/02/14 12:59:53","新北市中和區秀朗路三段10巷14弄54號","121.524173333333","24.996455","6500300","中和區"
"235031","255-BX","2018/02/14 12:59:46","新北市中和區中山路二段449號","121.484013333333","25.0049833333333","6500300","中和區"
"235035","269-TV","2018/02/14 12:59:43","新北市中和區中正路808號","121.485081666667","25.0028466666667","6500300","中和區"
"235006","551-UM","2018/02/14 12:59:55","新北市中和區錦和路350-1號","121.490495","24.9936083333333","6500300","中和區"
"235001","611-BX","2018/02/14 12:59:35","新北市中和區中山路三段136巷85號","121.473811666667","25.0079083333333","6500300","中和區"
"235026","800-TS","2018/02/14 12:59:26","新北市中和區中正路395號","121.489501666667","24.9941966666667","6500300","中和區"
"235016","805-TS","2018/02/14 12:59:46","新北市中和區員山路36巷16號","121.484428333333","24.9914566666667","6500300","中和區"
"235015","157-BY","2018/02/14 12:59:47","新北市中和區員山路36巷13號","121.48417","24.9910533333333","6500300","中和區"
"235001","AAC-213","2018/02/14 12:59:43","新北市中和區錦和路350-1號","121.490098333333","24.993565","6500300","中和區"
"223006","022-BY","2018/02/14 12:59:38","新北市石碇區湳窟19-1號","121.660433333333","24.9912533333333","6501900","石碇區"
"235005","251-BX","2018/02/14 12:59:35","新北市中和區和城路一段271巷1號","121.485425","24.9916816666667","6500300","中和區"
"228005","097-TW","2018/02/14 12:59:43","新北市貢寮區福連里香蘭街9號","121.9776","25.02385","6502600","貢寮區"
"228004","212-TW","2018/02/14 12:59:49","新北市貢寮區吉林里內寮街19號","121.887245","24.9886383333333","6502600","貢寮區"
"208003","665-BX","2018/02/14 12:59:34","新北市金山區磺清路135號","121.639443333333","25.22759","6502700","金山區"
"208001","761-BX","2018/02/14 12:59:47","新北市金山區磺清路135號","121.639645","25.2277083333333","6502700","金山區"
"207002","749-BX","2018/02/14 12:59:49","新北市萬里區雙興里大坪路39號","121.625393333333","25.171505","6502800","萬里區"
"207001","662-BX","2018/02/14 12:59:53","新北市萬里區萬里里獅頭路23號","121.693125","25.178295","6502800","萬里區"
"237008","302-VK","2018/02/14 12:59:45","新北市三峽區中山路184巷1弄1號","121.363633333333","24.9369433333333","6500900","三峽區"
"242028","986-R7","2018/02/14 12:59:41","新北市新莊區幸福路44號","121.457763333333","25.0495116666667","6500500","新莊區"
"242049","751-BX","2018/02/14 12:59:48","新北市新莊區瓊林路59-14號","121.441391666667","25.0237533333333","6500500","新莊區"
"242024","615-BX","2018/02/14 12:59:41","新北市新莊區中和街186巷39號","121.448486666667","25.0499016666667","6500500","新莊區"
"242022","613-BX","2018/02/14 12:59:38","新北市新莊區中華路一段112號","121.452408333333","25.0403166666667","6500500","新莊區"
"242026","612-BX","2018/02/14 12:59:54","新北市新莊區復興路二段145號","121.457655","25.0445133333333","6500500","新莊區"
"242038","566-BX","2018/02/14 12:59:45","新北市新莊區新樹路223號","121.435308333333","25.022955","6500500","新莊區"
"242043","497-BY","2018/02/14 12:59:36","新北市新莊區新樹路239-1號","121.435155","25.022305","6500500","新莊區"
"242047","441-UM","2018/02/14 12:59:38","新北市新莊區富國路80號","121.420093333333","25.0259066666667","6500500","新莊區"
"242052","440-UM","2018/02/14 12:59:44","新北市新莊區瓊林南路305巷18號","121.435168333333","25.0051433333333","6500500","新莊區"
"242033","415-TV","2018/02/14 12:59:48","新北市新莊區新泰路2號","121.449781666667","25.0323566666667","6500500","新莊區"
"242003","413-TV","2018/02/14 12:59:45","新北市新莊區中港路280號","121.453033333333","25.04411","6500500","新莊區"
"242040","400-BY","2018/02/14 12:59:41","新北市新莊區新樹路115-1號","121.438035","25.0257","6500500","新莊區"
"242059","362-BY","2018/02/14 12:59:52","新北市新莊區瓊林南路12-6號","121.436096666667","25.0185033333333","6500500","新莊區"
"242057","353-BY","2018/02/14 12:59:46","新北市新莊區中正路530號","121.431025","25.0316183333333","6500500","新莊區"
"242006","132-UY","2018/02/14 12:59:38","新北市新莊區中環路二段392-1號","121.442503333333","25.0454916666667","6500500","新莊區"
"242035","133-UY","2018/02/14 12:59:48","新北市新莊區瓊林南路61-71號","121.439715","25.0179983333333","6500500","新莊區"
"242020","135-UY","2018/02/14 12:59:51","新北市新莊區中港一街37號","121.450881666667","25.04543","6500500","新莊區"
"242045","172-VK","2018/02/14 12:59:50","新北市新莊區新樹路49號","121.440225","25.03198","6500500","新莊區"
"242014","175-VK","2018/02/14 12:59:52","新北市新莊區新泰路207號","121.446995","25.0383266666667","6500500","新莊區"
"242001","176-VK","2018/02/14 12:59:52","新北市新莊區中正路283號","121.448943333333","25.0352133333333","6500500","新莊區"
"242012","346-TH","2018/02/14 12:59:44","新北市新莊區中和街114號","121.447565","25.0474183333333","6500500","新莊區"
"242018","348-TH","2018/02/14 12:59:45","新北市新莊區明中街20號","121.457385","25.0393866666667","6500500","新莊區"
"242055","349-TH","2018/02/14 12:59:49","新北市新莊區新泰路52號","121.449348333333","25.034565","6500500","新莊區"
"242016","350-TH","2018/02/14 12:59:38","新北市新莊區中港路268號","121.453165","25.0438833333333","6500500","新莊區"
"242010","351-TH","2018/02/14 12:59:43","新北市新莊區中榮街49巷1號","121.449461666667","25.05256","6500500","新莊區"
"238004","283-BY","2018/02/14 12:59:49","新北市樹林區育德街78號","121.38753","24.9684033333333","6500700","樹林區"
"221032","280-BY","2018/02/14 12:59:37","新北市汐止區大同路二段533號","121.661818333333","25.0690533333333","6501100","汐止區"
"242030","280-VK","2018/02/14 12:59:53","新北市新莊區瓊林南路61-71號","121.43989","25.018805","6500500","新莊區"
