"lineid","car","time","location","longitude","latitude","cityid","cityname"
"234044","148-BY","2018/02/14 14:19:23","新北市永和區永元路12號","121.522023333333","25.0002283333333","6500400","永和區"
"234066","149-BY","2018/02/14 14:19:21","新北市永和區保平路268巷32號","121.507485","25.0065216666667","6500400","永和區"
"234005","207-UY","2018/02/14 14:19:10","新北市中和區中和路298號","121.508685","24.9998783333333","6500400","永和區"
"234078","298-R6","2018/02/14 14:19:24","新北市永和區國中路148號","121.523075","25.0070583333333","6500400","永和區"
"234036","336-UY","2018/02/14 14:19:21","新北市永和區成功路一段93巷21弄2號","121.528368333333","25.002645","6500400","永和區"
"234062","337-UY","2018/02/14 14:19:23","新北市永和區得和路198號","121.520505","24.9998683333333","6500400","永和區"
"234086","338-UY","2018/02/14 14:19:25","新北市永和區中正路575-1號","121.516786666667","25.0087066666667","6500400","永和區"
"234068","552-UM","2018/02/14 14:19:15","新北市永和區永利路25號","121.518118333333","25.0061","6500400","永和區"
"234015","745-BX","2018/02/14 14:19:19","新北市永和區仁愛路36號","121.514363333333","25.01341","6500400","永和區"
"234028","746-BX","2018/02/14 14:19:25","新北市永和區民生路22巷7號","121.522028333333","24.9971916666667","6500400","永和區"
"234052","KEA-2590","2018/02/14 14:19:27","新北市永和區博愛街19巷1號","121.51742","25.0158566666667","6500400","永和區"
"234012","KEA-2591","2018/02/14 14:19:18","新北市永和區保生路5巷1號","121.506056666667","25.007135","6500400","永和區"
"234060","AAD-866","2018/02/14 14:19:24","新北市中和區安樂路189號","121.514775","24.99818","6500400","永和區"
"234040","862-TW","2018/02/14 14:19:10","新北市中和區中安街188號","121.511266666667","24.9994266666667","6500400","永和區"
"234048","863-TW","2018/02/14 14:19:15","新北市永和區保安路2號","121.510701666667","25.0174466666667","6500400","永和區"
"234025","9371-KE","2018/02/14 14:19:13","新北市永和區安樂路198巷安和二弄2號","121.515565","25.0018766666667","6500400","永和區"
"234022","9381-KE","2018/02/14 14:19:10","新北市永和區中正路654巷60號","121.518515","25.0085033333333","6500400","永和區"
"248015","026-BX","2018/02/14 14:19:15","新北市五股區凌雲路一段83巷22弄1號","121.449863333333","25.100815","6501500","五股區"
"248019","225-UY","2018/02/14 14:05:33","新北市五股區凌雲路三段57號","121.425356666667","25.1250333333333","6501500","五股區"
"248011","247-BX","2018/02/14 14:19:14","新北市五股區工商路85巷12號","121.437831666667","25.0847533333333","6501500","五股區"
"248005","655-BX","2018/02/14 14:14:41","新北市五股區中興路二段83巷26-6號","121.459788333333","25.0752383333333","6501500","五股區"
"248003","677-BX","2018/02/14 14:19:12","新北市五股區五福路27號","121.433935","25.08919","6501500","五股區"
"248001","678-BX","2018/02/14 14:19:12","新北市五股區成泰路三段577巷12號","121.451876666667","25.1027766666667","6501500","五股區"
"248009","682-TV","2018/02/14 14:19:18","新北市五股區水碓一路23號","121.430551666667","25.071305","6501500","五股區"
"234076","969-R7","2018/02/14 14:19:22","新北市永和區民有街75巷10弄49號","121.519606666667","24.99599","6500400","永和區"
"234072","AAC-211","2018/02/14 14:19:29","新北市永和區豫溪街191巷7弄18號","121.523381666667","25.0109516666667","6500400","永和區"
"234001","AAC-295","2018/02/14 14:19:28","新北市永和區中正路605號","121.516391666667","25.0097416666667","6500400","永和區"
"244002","248-BX","2018/02/14 14:19:15","新北市林口區粉寮路二段160巷28號","121.405165","25.0907816666667","6501700","林口區"
"231002","002-UM","2018/02/14 14:19:28","新北市新店區中正路468-2號","121.533896666667","24.979795","6500600","新店區"
"231025","0293-UT","2018/02/14 14:19:15","新北市新店區中正路304號","121.537585","24.97466","6500600","新店區"
"231053","187-VK","2018/02/14 14:19:19","新北市新店區桂山路35號","121.558586666667","24.902855","6500600","新店區"
"231034","268-BY","2018/02/14 14:19:12","新北市新店區黎明路3號","121.503528333333","24.9524766666667","6500600","新店區"
"231005","897-TW","2018/02/14 14:19:27","新北市新店區中興路三段226號","121.543388333333","24.9831883333333","6500600","新店區"
"231037","AKT-0513","2018/02/14 14:19:24","新北市新店區車子路47號","121.504158333333","24.9519716666667","6500600","新店區"
"235030","003-UY","2018/02/14 14:19:10","新北市中和區廣福路81號","121.502196666667","25.0010683333333","6500300","中和區"
"235028","005-UY","2018/02/14 14:19:11","新北市中和區中和路40巷3號","121.499563333333","25.0012233333333","6500300","中和區"
"235020","096-UM","2018/02/14 14:19:25","新北市中和區員山路501號","121.479906666667","25.0062466666667","6500300","中和區"
"235003","097-UM","2018/02/14 14:19:12","新北市中和區秀峰街119巷6弄8號","121.51931","24.9901583333333","6500300","中和區"
"235029","098-UM","2018/02/14 14:19:17","新北市中和區中山路二段64巷14弄26號","121.503865","25.00617","6500300","中和區"
"235004","150-BY","2018/02/14 14:18:50","新北市中和區宜安路80號","121.51099","24.9975016666667","6500300","中和區"
"235022","151-BY","2018/02/14 14:19:26","新北市中和區連城路523巷9弄9號","121.482128333333","24.994695","6500300","中和區"
"235019","183-VK","2018/02/14 14:19:10","新北市中和區中山路三段145號","121.473788333333","25.0059733333333","6500300","中和區"
"235013","186-VK","2018/02/14 14:19:19","新北市中和區景新街230巷2號","121.50811","24.9941266666667","6500300","中和區"
"235031","255-BX","2018/02/14 14:19:06","新北市中和區新生街277號","121.483775","24.9978683333333","6500300","中和區"
"235008","293-VK","2018/02/14 14:19:08","新北市中和區中興街262號","121.499016666667","24.9874766666667","6500300","中和區"
"235036","301-VK","2018/02/14 14:19:23","新北市中和區中山路二段3巷22弄1號","121.50642","25.00531","6500300","中和區"
"235007","352-BY","2018/02/14 14:19:07","新北市中和區景平路120號","121.519253333333","24.9917533333333","6500300","中和區"
"235032","377-QA","2018/02/14 14:19:19","新北市中和區景平路493巷15號","121.499483333333","24.9970866666667","6500300","中和區"
"235025","378-QA","2018/02/14 14:19:19","新北市中和區連城路426號","121.480181666667","24.9950133333333","6500300","中和區"
"235035","269-TV","2018/02/14 14:19:23","新北市中和區立德街98巷101號","121.488701666667","25.0085783333333","6500300","中和區"
"235014","4979-A6","2018/02/14 14:19:24","新北市中和區景安路208巷28號","121.502855","24.9916216666667","6500300","中和區"
"235033","4980-A6","2018/02/14 14:19:12","新北市中和區福祥路56號","121.499315","25.0046783333333","6500300","中和區"
"235006","551-UM","2018/02/14 14:19:15","新北市新店區薏仁坑路自強巷1號","121.497713333333","24.9576666666667","6500300","中和區"
"235034","558-UM","2018/02/14 14:19:26","新北市中和區連城路66-1號","121.497673333333","25.00159","6500300","中和區"
"235009","565-BX","2018/02/14 14:19:21","新北市中和區景新街423巷20號","121.514128333333","24.98962","6500300","中和區"
"235018","640-BX","2018/02/14 14:19:22","新北市中和區國光街109巷2弄10號","121.469266666667","25.0006516666667","6500300","中和區"
"235024","647-TV","2018/02/14 14:19:13","新北市中和區民有街3號","121.47561","25.0057133333333","6500300","中和區"
"235011","732-UM","2018/02/14 14:19:25","新北市中和區景平路239巷38號","121.508256666667","24.99218","6500300","中和區"
"235010","733-UM","2018/02/14 14:19:21","新北市中和區忠孝街2巷11弄2號","121.510445","24.9819816666667","6500300","中和區"
"235026","800-TS","2018/02/14 14:19:05","新北市中和區橋和路115號","121.491301666667","25.0056616666667","6500300","中和區"
"235021","801-TS","2018/02/14 14:19:16","新北市中和區員山路318號","121.4813","25.0028966666667","6500300","中和區"
"235016","805-TS","2018/02/14 14:19:07","新北市中和區興南路二段128巷7弄5號","121.503371666667","24.98411","6500300","中和區"
"235012","896-TW","2018/02/14 14:19:21","新北市中和區華新街109巷4號","121.508825","24.9817616666667","6500300","中和區"
"235017","900-TW","2018/02/14 14:19:18","新北市中和區華安街21巷2號","121.467448333333","24.9975133333333","6500300","中和區"
"235015","157-BY","2018/02/14 14:19:07","新北市中和區和平街2巷1號","121.51016","24.9902633333333","6500300","中和區"
"235001","AAC-213","2018/02/14 14:19:22","新北市中和區秀朗路三段60巷46號","121.524786666667","24.99507","6500300","中和區"
"235023","AAC-215","2018/02/14 14:19:20","新北市中和區錦和路408號","121.491245","24.98961","6500300","中和區"
"220016","013-TV","2018/02/14 14:19:11","新北市板橋區萬安街125號","121.483481666667","25.025135","6500100","板橋區"
"220013","072-UY","2018/02/14 14:19:19","新北市板橋區民族路278號","121.469931666667","25.00696","6500100","板橋區"
"220105","075-UY","2018/02/14 14:19:20","新北市板橋區長江路二段280-8號","121.470038333333","25.0328383333333","6500100","板橋區"
"220017","AAD-861","2018/02/14 14:19:24","新北市板橋區四川路一段102號","121.459521666667","25.004675","6500100","板橋區"
"247021","893-R6","2018/02/14 14:19:19","新北市蘆洲區三民路300巷3號","121.466335","25.091075","6501400","蘆洲區"
"247011","546-UM","2018/02/14 14:19:12","新北市蘆洲區民權路21號","121.476213333333","25.0862516666667","6501400","蘆洲區"
"247019","500-BY","2018/02/14 14:19:17","新北市蘆洲區仁愛街37號","121.472226666667","25.0927833333333","6501400","蘆洲區"
"247007","341-TH","2018/02/14 14:19:09","新北市蘆洲區中山一路197巷6弄22號","121.47415","25.0803566666667","6501400","蘆洲區"
"247009","339-TH","2018/02/14 14:19:22","新北市蘆洲區中山一路122巷53號","121.476316666667","25.0827166666667","6501400","蘆洲區"
"247001","337-TH","2018/02/14 14:19:20","新北市蘆洲區永樂街75號","121.456138333333","25.0886316666667","6501400","蘆洲區"
"247003","336-TH","2018/02/14 14:19:11","新北市蘆洲區長安街239號","121.45926","25.0829816666667","6501400","蘆洲區"
"247015","057-VK","2018/02/14 14:18:13","新北市蘆洲區中正路185巷31弄43號","121.467323333333","25.0832783333333","6501400","蘆洲區"
"247005","056-VK","2018/02/14 14:19:13","新北市蘆洲區九芎街90巷10號","121.46556","25.080445","6501400","蘆洲區"
"247013","007-UY","2018/02/14 14:19:18","新北市蘆洲區三民路125號","121.472251666667","25.0862633333333","6501400","蘆洲區"
"247023","002-UY","2018/02/14 14:19:19","新北市蘆洲區長榮路309-1號","121.459468333333","25.08989","6501400","蘆洲區"
"247017","001-UY","2018/02/14 14:19:22","新北市蘆洲區民權路87號","121.473156666667","25.088785","6501400","蘆洲區"
"235005","251-BX","2018/02/14 14:19:15","新北市中和區中安街178巷13弄5號","121.510436666667","24.998575","6500300","中和區"
"228005","097-TW","2018/02/14 14:19:23","新北市貢寮區美豐里土地公嶺54號","121.89453","25.065065","6502600","貢寮區"
"228004","212-TW","2018/02/14 14:19:09","新北市貢寮區雙玉里下雙溪街28-1號","121.925143333333","25.0119483333333","6502600","貢寮區"
"227008","400-TW","2018/02/14 14:19:24","新北市雙溪區三貂里政光路3-1號","121.850841666667","25.0630883333333","6502500","雙溪區"
"253001","4710-YM","2018/02/14 14:19:06","新北市石門區八甲40號","121.532073333333","25.26908","6502200","石門區"
"253003","6232-TK","2018/02/14 14:19:08","新北市石門區內石門62號","121.577918333333","25.2659116666667","6502200","石門區"
"253002","637-UY","2018/02/14 14:19:15","新北市石門區七股35號","121.552816666667","25.2607783333333","6502200","石門區"
"253004","8270-PC","2018/02/14 14:19:12","新北市石門區坪林26號","121.593611666667","25.26911","6502200","石門區"
"208002","742-BX","2018/02/14 14:19:19","新北市金山區仁愛路67巷20號","121.634283333333","25.2210016666667","6502700","金山區"
"208003","665-BX","2018/02/14 14:19:14","新北市金山區忠孝一路82號","121.636828333333","25.2210916666667","6502700","金山區"
"208001","761-BX","2018/02/14 14:19:07","新北市金山區金包里街44號","121.639565","25.2211383333333","6502700","金山區"
"207002","749-BX","2018/02/14 14:19:09","新北市萬里區溪底里瑞泉路10號","121.603941666667","25.1453383333333","6502800","萬里區"
"207001","662-BX","2018/02/14 14:19:13","新北市萬里區磺潭里清水18號","121.63788","25.1977733333333","6502800","萬里區"
"237004","KEA-2597","2018/02/14 14:19:26","新北市三峽區有木206號","121.439096666667","24.8515933333333","6500900","三峽區"
"237007","153-BY","2018/02/14 14:19:26","新北市三峽區中正路二段60號","121.366691666667","24.9185833333333","6500900","三峽區"
"237009","210-TH","2018/02/14 14:19:16","新北市三峽區文化路151號","121.368408333333","24.9358816666667","6500900","三峽區"
"237013","252-BX","2018/02/14 14:19:17","新北市三峽區介壽路一段516號","121.386036666667","24.93265","6500900","三峽區"
"237008","302-VK","2018/02/14 14:19:25","新北市三峽區大同路99號","121.374645","24.92702","6500900","三峽區"
"237006","5529-G3","2018/02/14 14:19:15","新北市三峽區橫溪路99巷18-2號","121.400633333333","24.9360066666667","6500900","三峽區"
"237010","706-TV","2018/02/14 14:19:10","新北市三峽區國光街22號","121.375228333333","24.9373516666667","6500900","三峽區"
"237005","AKY-6261","2018/02/14 14:19:09","新北市三峽區中山路219巷7號","121.363245","24.936265","6500900","三峽區"
"236079","166-UM","2018/02/14 14:19:18","新北市土城區永安街42號","121.433336666667","24.964525","6501300","土城區"
"236029","253-BX","2018/02/14 14:19:24","新北市土城區順風路66號","121.440326666667","24.97758","6501300","土城區"
"236026","269-VK","2018/02/14 14:19:22","新北市土城區承天路18號","121.439481666667","24.96349","6501300","土城區"
"236038","271-VK","2018/02/14 14:19:17","新北市土城區青雲路483巷9號","121.45941","24.9736","6501300","土城區"
"236054","AAC-216","2018/02/14 14:19:28","新北市土城區中華路二段102號","121.438103333333","24.97433","6501300","土城區"
"242028","986-R7","2018/02/14 14:19:21","新北市新莊區中華路二段229號","121.452056666667","25.0533583333333","6500500","新莊區"
"242049","751-BX","2018/02/14 14:19:07","新北市新莊區民安西路103號","121.426868333333","25.0186416666667","6500500","新莊區"
"242024","615-BX","2018/02/14 14:19:21","新北市新莊區五工三路70巷32號","121.460208333333","25.065875","6500500","新莊區"
"242022","613-BX","2018/02/14 14:19:18","新北市新莊區化成路964號","121.465071666667","25.06314","6500500","新莊區"
"242026","612-BX","2018/02/14 14:19:13","新北市新莊區幸福路797號","121.44627","25.0489433333333","6500500","新莊區"
"242038","566-BX","2018/02/14 14:19:25","新北市新莊區民安路232號","121.426158333333","25.0222483333333","6500500","新莊區"
"242043","497-BY","2018/02/14 14:19:16","新北市新莊區天祥街21號","121.417426666667","25.0279283333333","6500500","新莊區"
"242047","441-UM","2018/02/14 14:19:25","新北市新莊區後港二路18-1號","121.422653333333","25.0236066666667","6500500","新莊區"
"242052","440-UM","2018/02/14 14:19:24","新北市新莊區西盛街344巷15號","121.4274","25.014115","6500500","新莊區"
"242033","415-TV","2018/02/14 14:19:26","新北市新莊區新泰路204號","121.4469","25.0385116666667","6500500","新莊區"
"242040","400-BY","2018/02/14 14:19:21","新北市新莊區壽山路49號","121.41444","25.031245","6500500","新莊區"
"242059","362-BY","2018/02/14 14:19:16","新北市新莊區瓊林路瓊英巷4弄2號","121.443603333333","25.027435","6500500","新莊區"
"242057","353-BY","2018/02/14 14:19:12","新北市新莊區龍安路266巷30號","121.421585","25.0184766666667","6500500","新莊區"
"242006","132-UY","2018/02/14 14:19:18","新北市新莊區思源路583號","121.459725","25.0589433333333","6500500","新莊區"
"242035","133-UY","2018/02/14 14:19:07","新北市新莊區建安街23號","121.429031666667","25.02603","6500500","新莊區"
"242020","135-UY","2018/02/14 14:19:11","新北市新莊區新泰路143號","121.448106666667","25.03657","6500500","新莊區"
"242014","175-VK","2018/02/14 14:19:11","新北市新莊區中平路26巷66號","121.447838333333","25.0434633333333","6500500","新莊區"
"242001","176-VK","2018/02/14 14:19:14","新北市新莊區化成路3號","121.464378333333","25.0417133333333","6500500","新莊區"
"242012","346-TH","2018/02/14 14:19:24","新北市新莊區中和街204巷12號","121.448455","25.050155","6500500","新莊區"
"242018","348-TH","2018/02/14 14:19:25","新北市新莊區復興路二段191號","121.459306666667","25.0445516666667","6500500","新莊區"
"242055","349-TH","2018/02/14 14:19:23","新北市新莊區新莊路496-1號","121.44632","25.0334533333333","6500500","新莊區"
"242010","351-TH","2018/02/14 14:19:23","新北市新莊區中港路519號","121.451728333333","25.05079","6500500","新莊區"
"238002","755-BX","2018/02/14 14:19:17","新北市樹林區啟智街172號","121.414876666667","24.986995","6500700","樹林區"
"238010","601-UM","2018/02/14 14:19:12","新北市樹林區龍興街48號","121.402901666667","25.0154333333333","6500700","樹林區"
"238005","571-TV","2018/02/14 14:19:26","新北市樹林區樹新路81號","121.427576666667","24.995225","6500700","樹林區"
"238011","5061-A6","2018/02/14 14:19:25","新北市樹林區太順街49巷20弄12號","121.41785","24.9784483333333","6500700","樹林區"
"238009","KEA-2213","2018/02/14 14:19:18","新北市樹林區太順街31號","121.419163333333","24.9796683333333","6500700","樹林區"
"238012","303-VK","2018/02/14 14:19:26","新北市樹林區保安二街55號","121.424596666667","24.9945166666667","6500700","樹林區"
"238004","283-BY","2018/02/14 14:19:09","新北市樹林區中正路644號","121.409926666667","25.01618","6500700","樹林區"
"238001","282-BY","2018/02/14 14:19:20","新北市樹林區大安路47-1號","121.424203333333","24.9996133333333","6500700","樹林區"
"238007","268-VK","2018/02/14 14:19:20","新北市樹林區三俊街63號","121.413633333333","25.01595","6500700","樹林區"
"238013","172-UY","2018/02/14 14:19:18","新北市樹林區佳園路一段41巷28弄14號","121.394703333333","24.9703633333333","6500700","樹林區"
"238003","169-UY","2018/02/14 14:19:24","新北市樹林區復興路335巷8號","121.418405","24.9876016666667","6500700","樹林區"
"221032","280-BY","2018/02/14 14:19:17","新北市汐止區汐萬路一段158號","121.65269","25.07128","6501100","汐止區"
"220027","145-BY","2018/02/14 14:19:26","新北市板橋區民權路202巷7弄2-5號","121.46013","25.0150366666667","6500100","板橋區"
"220028","200-UY","2018/02/14 14:19:19","新北市板橋區大觀路二段19巷96號","121.449403333333","25.0027733333333","6500100","板橋區"
"220030","610-BX","2018/02/14 14:19:09","新北市板橋區溪崑二街75號","121.42795","24.9902683333333","6500100","板橋區"
"220050","245-BX","2018/02/14 14:19:18","新北市板橋區莊敬路25巷2號","121.473656666667","25.027855","6500100","板橋區"
"220004","276-BY","2018/02/14 14:19:09","新北市板橋區四川路二段239號","121.450785","24.993995","6500100","板橋區"
"220020","277-BY","2018/02/14 14:19:13","新北市板橋區金門街260巷10弄2號","121.429326666667","24.9867933333333","6500100","板橋區"
"220043","283-UM","2018/02/14 14:19:13","新北市板橋區光武街136巷1-1號","121.465648333333","25.0300683333333","6500100","板橋區"
"220019","283-VK","2018/02/14 14:19:22","新北市板橋區重慶路269巷13號","121.463845","24.9994866666667","6500100","板橋區"
"220001","285-VK","2018/02/14 14:19:09","新北市板橋區富山街5號","121.478548333333","25.02163","6500100","板橋區"
"220031","286-VK","2018/02/14 14:19:26","新北市板橋區大觀路二段174巷186弄9號","121.442818333333","25.003505","6500100","板橋區"
"220029","287-VK","2018/02/14 14:19:12","新北市板橋區南雅西路一段63巷2號","121.452603333333","25.0077083333333","6500100","板橋區"
"220039","288-VK","2018/02/14 14:19:27","新北市板橋區長江路一段106巷13弄2號","121.460185","25.0290683333333","6500100","板橋區"
"220009","293-UM","2018/02/14 14:19:20","新北市板橋區中山路二段253號","121.477521666667","25.0176183333333","6500100","板橋區"
"220032","296-UM","2018/02/14 14:19:12","新北市板橋區溪崑二街56巷20號","121.427913333333","24.9911616666667","6500100","板橋區"
"220023","303-R5","2018/02/14 14:19:10","新北市板橋區館前西路132號","121.45639","25.0079366666667","6500100","板橋區"
"220010","305-R5","2018/02/14 14:19:23","新北市板橋區三民路二段153巷36弄2號","121.481131666667","25.0141716666667","6500100","板橋區"
"220041","307-R5","2018/02/14 14:19:17","新北市板橋區光武街36巷30號","121.468493333333","25.0263383333333","6500100","板橋區"
"220047","317-R6","2018/02/14 14:19:08","新北市板橋區四維路206號","121.463976666667","25.0272616666667","6500100","板橋區"
"220064","486-VK","2018/02/14 14:19:25","新北市板橋區板新路219號","121.468238333333","25.0159433333333","6500100","板橋區"
"220038","487-VK","2018/02/14 14:19:25","新北市板橋區文化路二段39號","121.469023333333","25.0249083333333","6500100","板橋區"
"242030","280-VK","2018/02/14 14:19:13","新北市新莊區環河路636-7號","121.437211666667","25.0111216666667","6500500","新莊區"
"220037","491-VK","2018/02/14 14:19:18","新北市板橋區文化路二段182巷1弄4號","121.471141666667","25.0275583333333","6500100","板橋區"
"220104","560-BX","2018/02/14 14:19:16","新北市板橋區中正路433巷25號","121.453278333333","25.0236316666667","6500100","板橋區"
"220052","561-BX","2018/02/14 14:19:16","新北市板橋區文化路一段188巷9號","121.466431666667","25.0194883333333","6500100","板橋區"
"220011","609-BX","2018/02/14 14:19:19","新北市板橋區三民路二段202-18號","121.478971666667","25.01347","6500100","板橋區"
"220003","630-UY","2018/02/14 14:19:29","新北市板橋區新民街13號","121.464016666667","25.0098633333333","6500100","板橋區"
"220040","637-BX","2018/02/14 14:19:22","新北市板橋區文聖街206號","121.480283333333","25.02578","6500100","板橋區"
"220005","686-BX","2018/02/14 14:19:15","新北市板橋區和平路161巷22號","121.463311666667","24.9966833333333","6500100","板橋區"
"220025","687-BX","2018/02/14 14:19:23","新北市板橋區大觀路二段235號","121.443846666667","24.9992066666667","6500100","板橋區"
"220042","689-BX","2018/02/14 14:19:12","新北市板橋區漢生西路90號","121.462685","25.0195016666667","6500100","板橋區"
"220002","741-BX","2018/02/14 14:19:24","新北市板橋區重慶路155巷17號","121.462951666667","25.0040266666667","6500100","板橋區"
"220014","829-TW","2018/02/14 14:19:26","新北市板橋區長安街178巷3號","121.47412","25.0110983333333","6500100","板橋區"
"220045","830-TW","2018/02/14 14:19:12","新北市板橋區大同街26巷35號","121.478623333333","25.0263366666667","6500100","板橋區"
"220022","895-R6","2018/02/14 14:19:24","新北市板橋區府中路120號","121.455406666667","25.0094816666667","6500100","板橋區"
"220021","985-R7","2018/02/14 14:19:25","新北市板橋區中正路291號","121.455448333333","25.0192933333333","6500100","板橋區"
"220046","AAC-210","2018/02/14 14:19:19","新北市板橋區新生街96號","121.458423333333","25.022065","6500100","板橋區"
"220018","AAC-253","2018/02/14 14:19:22","新北市板橋區忠孝路170號","121.4644","25.0025","6500100","板橋區"
