"lineid","car","time","location","longitude","latitude","cityid","cityname"
"234066","149-BY","2018/02/14 14:29:21","新北市永和區保平路290號","121.508021666667","25.0044766666667","6500400","永和區"
"234005","207-UY","2018/02/14 14:29:10","新北市中和區光華街59-1號","121.506278333333","25.0032966666667","6500400","永和區"
"234078","298-R6","2018/02/14 14:29:24","新北市永和區永貞路80號","121.520196666667","25.0050633333333","6500400","永和區"
"234036","336-UY","2018/02/14 14:29:21","新北市永和區民樂街31巷6弄14號","121.52889","25.001555","6500400","永和區"
"234062","337-UY","2018/02/14 14:29:22","新北市永和區中正路446號","121.517446666667","25.0028","6500400","永和區"
"234086","338-UY","2018/02/14 14:29:25","新北市永和區永和路二段207號","121.51538","25.0137316666667","6500400","永和區"
"234068","552-UM","2018/02/14 14:29:15","新北市永和區永寧街16號","121.520216666667","25.0068933333333","6500400","永和區"
"234028","746-BX","2018/02/14 14:29:25","新北市永和區民權路49巷31號","121.521753333333","24.9975366666667","6500400","永和區"
"234052","KEA-2590","2018/02/14 14:29:18","新北市永和區光復街2巷39號","121.517563333333","25.0166833333333","6500400","永和區"
"234060","AAD-866","2018/02/14 14:29:19","新北市永和區得和路29號","121.515895","25.0002383333333","6500400","永和區"
"234040","862-TW","2018/02/14 14:29:10","新北市永和區安樂路336號","121.514381666667","25.0059366666667","6500400","永和區"
"234048","863-TW","2018/02/14 14:29:16","新北市永和區新生路74號","121.50756","25.015115","6500400","永和區"
"234025","9371-KE","2018/02/14 14:29:25","新北市永和區安樂路104巷2弄2號","121.514381666667","24.999595","6500400","永和區"
"234022","9381-KE","2018/02/14 14:29:08","新北市永和區復興街16巷2號","121.515546666667","25.0127116666667","6500400","永和區"
"248015","026-BX","2018/02/14 14:29:15","新北市五股區凌雲路一段83巷22弄1號","121.449871666667","25.100835","6501500","五股區"
"248019","225-UY","2018/02/14 14:29:17","新北市五股區凌雲路三段57號","121.425356666667","25.1250266666667","6501500","五股區"
"248011","247-BX","2018/02/14 14:29:24","新北市五股區蓬萊路6巷2號","121.43562","25.079665","6501500","五股區"
"248005","655-BX","2018/02/14 14:14:41","新北市五股區中興路二段83巷26-6號","121.459788333333","25.0752383333333","6501500","五股區"
"248003","677-BX","2018/02/14 14:29:12","新北市五股區五福路39號","121.433346666667","25.08951","6501500","五股區"
"248001","678-BX","2018/02/14 14:29:12","新北市五股區成泰路四段2號","121.452768333333","25.106065","6501500","五股區"
"248009","682-TV","2018/02/14 14:29:18","新北市五股區水碓一路23號","121.430545","25.071275","6501500","五股區"
"234076","969-R7","2018/02/14 14:29:22","新北市永和區民族街81巷50-1號","121.519973333333","24.996485","6500400","永和區"
"234072","AAC-211","2018/02/14 14:29:26","新北市永和區竹林路39巷14號","121.518466666667","25.014545","6500400","永和區"
"234001","AAC-295","2018/02/14 14:29:28","新北市永和區自強街4號","121.514273333333","25.00801","6500400","永和區"
"244002","248-BX","2018/02/14 14:29:15","新北市林口區粉寮路二段160巷28號","121.405151666667","25.090775","6501700","林口區"
"231002","002-UM","2018/02/14 14:29:08","新北市新店區中央路204號","121.530403333333","24.97412","6500600","新店區"
"231025","0293-UT","2018/02/14 14:29:14","新北市新店區中華路83巷67號","121.538203333333","24.9670716666667","6500600","新店區"
"231053","187-VK","2018/02/14 14:29:19","新北市新店區桂山路69號","121.566533333333","24.9007033333333","6500600","新店區"
"231034","268-BY","2018/02/14 14:29:12","新北市新店區黎明路67巷1號","121.502508333333","24.9455816666667","6500600","新店區"
"231005","897-TW","2018/02/14 14:29:27","新北市新店區中興路三段136號","121.544603333333","24.9799","6500600","新店區"
"231037","AKT-0513","2018/02/14 14:29:24","新北市新店區安康路二段269號","121.504545","24.9574","6500600","新店區"
"235030","003-UY","2018/02/14 14:29:10","新北市中和區景新街49號","121.504335","24.99901","6500300","中和區"
"235028","005-UY","2018/02/14 14:29:11","新北市中和區中和路27號","121.499843333333","25.0019316666667","6500300","中和區"
"235020","096-UM","2018/02/14 14:29:25","新北市中和區民富街48號","121.476691666667","25.006945","6500300","中和區"
"235003","097-UM","2018/02/14 14:29:12","新北市中和區秀峰街103巷7弄4號","121.519531666667","24.98892","6500300","中和區"
"235004","150-BY","2018/02/14 14:29:10","新北市中和區安平路36巷59號","121.510691666667","24.9946683333333","6500300","中和區"
"235022","151-BY","2018/02/14 14:29:06","新北市中和區員山路36巷16-2號","121.485361666667","24.9913233333333","6500300","中和區"
"235019","183-VK","2018/02/14 14:29:09","新北市中和區民享街2巷15號","121.47299","25.0054733333333","6500300","中和區"
"235013","186-VK","2018/02/14 14:29:19","新北市中和區景新街283號","121.509656666667","24.993365","6500300","中和區"
"235031","255-BX","2018/02/14 14:29:26","新北市中和區中正路751巷3弄11號","121.484548333333","24.99919","6500300","中和區"
"235008","293-VK","2018/02/14 14:29:08","新北市中和區景安路206號","121.503973333333","24.9910033333333","6500300","中和區"
"235036","301-VK","2018/02/14 14:29:23","新北市中和區光華街31巷22弄28號","121.505915","25.004375","6500300","中和區"
"235007","352-BY","2018/02/14 14:29:27","新北市中和區景平路296號","121.512818333333","24.992505","6500300","中和區"
"235032","377-QA","2018/02/14 14:29:19","新北市中和區枋寮街43號","121.501906666667","25.00061","6500300","中和區"
"235025","378-QA","2018/02/14 14:29:19","新北市中和區民利街31巷2弄12號","121.479611666667","24.9985966666667","6500300","中和區"
"235014","4979-A6","2018/02/14 14:29:24","新北市中和區中正路410號","121.492195","24.9941816666667","6500300","中和區"
"235006","551-UM","2018/02/14 14:29:15","新北市新店區安興路137-1號","121.516081666667","24.9792983333333","6500300","中和區"
"235034","558-UM","2018/02/14 14:29:26","新北市中和區中和路49號","121.50026","25.0012683333333","6500300","中和區"
"235009","565-BX","2018/02/14 14:29:21","新北市中和區景新街467巷20弄110號","121.514835","24.9867033333333","6500300","中和區"
"235018","640-BX","2018/02/14 14:29:22","新北市中和區國光街112巷2弄1號","121.470011666667","25.00085","6500300","中和區"
"235024","647-TV","2018/02/14 14:29:08","新北市中和區員山路318號","121.48134","25.0029","6500300","中和區"
"235011","732-UM","2018/02/14 14:29:25","新北市中和區景平路259巷18號","121.50779","24.9927033333333","6500300","中和區"
"235010","733-UM","2018/02/14 14:29:21","新北市中和區忠孝街37巷52號","121.511101666667","24.9849433333333","6500300","中和區"
"235026","800-TS","2018/02/14 14:29:05","新北市中和區中山路二段426號","121.489565","25.0041316666667","6500300","中和區"
"235021","801-TS","2018/02/14 14:29:16","新北市中和區員山路471號","121.479958333333","25.0047183333333","6500300","中和區"
"235016","805-TS","2018/02/14 14:29:07","新北市中和區興南路二段142巷17弄15號","121.503276666667","24.9831516666667","6500300","中和區"
"235012","896-TW","2018/02/14 14:29:23","新北市中和區忠孝街60巷2弄4號","121.51163","24.9837166666667","6500300","中和區"
"235017","900-TW","2018/02/14 14:29:18","新北市中和區華順街2巷6號","121.46759","24.9988983333333","6500300","中和區"
"235015","157-BY","2018/02/14 14:29:07","新北市中和區和平街54巷12號","121.509045","24.991545","6500300","中和區"
"235001","AAC-213","2018/02/14 14:29:22","新北市中和區秀朗路三段10巷14弄51號","121.52363","24.996505","6500300","中和區"
"235023","AAC-215","2018/02/14 14:29:20","新北市中和區錦和路195巷1弄2號","121.491198333333","24.99089","6500300","中和區"
"220016","013-TV","2018/02/14 14:29:10","新北市板橋區萬安街103巷12號","121.483023333333","25.024635","6500100","板橋區"
"220013","072-UY","2018/02/14 14:29:19","新北市板橋區國泰街111巷15號","121.46612","25.0059866666667","6500100","板橋區"
"220105","075-UY","2018/02/14 14:29:20","新北市板橋區文化路二段417巷8號","121.474263333333","25.0329916666667","6500100","板橋區"
"220017","AAD-861","2018/02/14 14:29:24","新北市板橋區華興街37號","121.458191666667","25.0046933333333","6500100","板橋區"
"247021","893-R6","2018/02/14 14:29:19","新北市蘆洲區中正路453-1號","121.462558333333","25.0946933333333","6501400","蘆洲區"
"247011","546-UM","2018/02/14 14:29:12","新北市蘆洲區復興路186號","121.478043333333","25.0887416666667","6501400","蘆洲區"
"247019","500-BY","2018/02/14 14:29:17","新北市蘆洲區仁愛街64號","121.471373333333","25.0939166666667","6501400","蘆洲區"
"247007","341-TH","2018/02/14 14:29:09","新北市蘆洲區中山一路95巷18號","121.477268333333","25.0808983333333","6501400","蘆洲區"
"247009","339-TH","2018/02/14 14:29:22","新北市蘆洲區信義路138號","121.47962","25.083085","6501400","蘆洲區"
"247001","337-TH","2018/02/14 14:29:20","新北市蘆洲區永樂街38巷33弄46號","121.4568","25.0898266666667","6501400","蘆洲區"
"247003","336-TH","2018/02/14 14:29:11","新北市蘆洲區長安街194巷1號","121.458943333333","25.0840666666667","6501400","蘆洲區"
"247015","057-VK","2018/02/14 14:29:13","新北市蘆洲區中正路185巷23弄5號","121.467213333333","25.0845083333333","6501400","蘆洲區"
"247005","056-VK","2018/02/14 14:29:26","新北市蘆洲區中華街48號","121.461961666667","25.080425","6501400","蘆洲區"
"247013","007-UY","2018/02/14 14:29:18","新北市蘆洲區成功路84號","121.473006666667","25.0813533333333","6501400","蘆洲區"
"247023","002-UY","2018/02/14 14:29:19","新北市蘆洲區中正路263巷2號","121.46725","25.0875516666667","6501400","蘆洲區"
"247017","001-UY","2018/02/14 14:29:22","新北市蘆洲區復興路252號","121.479761666667","25.0896166666667","6501400","蘆洲區"
"235005","251-BX","2018/02/14 14:29:15","新北市中和區安平路145巷10號","121.51174","24.998255","6500300","中和區"
"228005","097-TW","2018/02/14 14:29:23","新北市貢寮區美豐里巫里岸9-1號","121.901956666667","25.0701066666667","6502600","貢寮區"
"228004","212-TW","2018/02/14 14:29:08","新北市貢寮區雙玉里田寮洋街33-1號","121.932171666667","25.0136033333333","6502600","貢寮區"
"227008","400-TW","2018/02/14 14:29:24","新北市雙溪區三貂里政光路3-1號","121.850815","25.0631133333333","6502500","雙溪區"
"253001","4710-YM","2018/02/14 14:29:26","新北市石門區八甲16-1號","121.524641666667","25.280865","6502200","石門區"
"253003","6232-TK","2018/02/14 14:29:08","新北市石門區內石門67-5號","121.575276666667","25.2552483333333","6502200","石門區"
"253002","637-UY","2018/02/14 14:29:15","新北市石門區大丘田51號","121.55013","25.2716233333333","6502200","石門區"
"253004","8270-PC","2018/02/14 14:29:12","新北市石門區內阿里磅2-1號","121.590351666667","25.2539333333333","6502200","石門區"
"208002","742-BX","2018/02/14 14:29:19","新北市金山區中正路73號","121.633836666667","25.2216666666667","6502700","金山區"
"208003","665-BX","2018/02/14 14:29:20","新北市金山區中山路263巷10號","121.636271666667","25.2217","6502700","金山區"
"208001","761-BX","2018/02/14 14:29:27","新北市金山區金包里街50號","121.63939","25.2211783333333","6502700","金山區"
"207002","749-BX","2018/02/14 14:29:09","新北市萬里區溪底里福德坑路24-1號","121.621846666667","25.15264","6502800","萬里區"
"207001","662-BX","2018/02/14 14:29:17","新北市萬里區磺潭里員潭路35號","121.644256666667","25.1952783333333","6502800","萬里區"
"237004","KEA-2597","2018/02/14 14:29:06","新北市三峽區有木206號","121.439108333333","24.8516633333333","6500900","三峽區"
"237007","153-BY","2018/02/14 14:29:26","新北市三峽區二鬮路69號","121.359751666667","24.9073066666667","6500900","三峽區"
"237009","210-TH","2018/02/14 14:29:16","新北市三峽區民生街233號","121.37111","24.93473","6500900","三峽區"
"237013","252-BX","2018/02/14 14:29:17","新北市三峽區橫溪路82號","121.397531666667","24.9353083333333","6500900","三峽區"
"237008","302-VK","2018/02/14 14:29:28","新北市三峽區永安街183號","121.373156666667","24.9267916666667","6500900","三峽區"
"237006","5529-G3","2018/02/14 14:29:15","新北市三峽區介壽路一段383號","121.38398","24.93107","6500900","三峽區"
"237010","706-TV","2018/02/14 14:29:10","新北市三峽區復興路126號","121.372151666667","24.937955","6500900","三峽區"
"237005","AKY-6261","2018/02/14 14:29:09","新北市三峽區長泰街20號","121.378998333333","24.93173","6500900","三峽區"
"236079","166-UM","2018/02/14 14:29:18","新北市土城區中央路三段281巷23弄19號","121.426341666667","24.9615566666667","6501300","土城區"
"236029","253-BX","2018/02/14 14:29:24","新北市土城區順風路7號","121.440011666667","24.97637","6501300","土城區"
"236038","271-VK","2018/02/14 14:29:17","新北市土城區明德路一段323號","121.458905","24.9767216666667","6501300","土城區"
"236023","401-BY","2018/02/14 14:29:23","新北市土城區延吉街253巷18弄8號","121.467205","24.984055","6501300","土城區"
"236054","AAC-216","2018/02/14 14:29:28","新北市土城區中華路二段51號","121.439345","24.9780816666667","6501300","土城區"
"242028","986-R7","2018/02/14 14:29:21","新北市新莊區中華路二段290號","121.452376666667","25.05347","6500500","新莊區"
"242024","615-BX","2018/02/14 14:29:21","新北市新莊區五工三路64號","121.459468333333","25.0645033333333","6500500","新莊區"
"242022","613-BX","2018/02/14 14:29:18","新北市新莊區化成路654號","121.465991666667","25.0558766666667","6500500","新莊區"
"242026","612-BX","2018/02/14 14:29:13","新北市新莊區幸福路563號","121.454306666667","25.0492333333333","6500500","新莊區"
"242038","566-BX","2018/02/14 14:29:25","新北市新莊區新樹路239-1號","121.43501","25.022385","6500500","新莊區"
"242043","497-BY","2018/02/14 14:29:16","新北市新莊區中正路925號","121.410506666667","25.0211766666667","6500500","新莊區"
"242047","441-UM","2018/02/14 14:29:18","新北市新莊區萬安街149巷23弄1號","121.421323333333","25.0211766666667","6500500","新莊區"
"242052","440-UM","2018/02/14 14:29:24","新北市新莊區民安西路213號","121.426003333333","25.0146083333333","6500500","新莊區"
"242033","415-TV","2018/02/14 14:29:07","新北市新莊區建中街127號","121.445365","25.036475","6500500","新莊區"
"242040","400-BY","2018/02/14 14:29:21","新北市新莊區天祥街54巷3弄2號","121.416935","25.0295816666667","6500500","新莊區"
"242059","362-BY","2018/02/14 14:29:12","新北市新莊區新樹路259-6號","121.434335","25.02112","6500500","新莊區"
"242057","353-BY","2018/02/14 14:29:26","新北市新莊區四維路183號","121.422113333333","25.0211066666667","6500500","新莊區"
"242006","132-UY","2018/02/14 14:29:18","新北市新莊區思源路419巷1弄3號","121.459336666667","25.0523266666667","6500500","新莊區"
"242035","133-UY","2018/02/14 14:29:28","新北市新莊區建安街50號","121.427435","25.02474","6500500","新莊區"
"242020","135-UY","2018/02/14 14:29:11","新北市新莊區和興街11號","121.447648333333","25.0391533333333","6500500","新莊區"
"242014","175-VK","2018/02/14 14:29:11","新北市新莊區永樂街273號","121.44514","25.0443566666667","6500500","新莊區"
"242001","176-VK","2018/02/14 14:29:12","新北市新莊區中正路78-1號","121.458535","25.0378433333333","6500500","新莊區"
"242012","346-TH","2018/02/14 14:29:04","新北市新莊區中平路310號","121.444775","25.052145","6500500","新莊區"
"242018","348-TH","2018/02/14 14:29:27","新北市新莊區銘德街48號","121.457215","25.043805","6500500","新莊區"
"242055","349-TH","2018/02/14 14:29:09","新北市新莊區豐年街33號","121.446453333333","25.0322216666667","6500500","新莊區"
"242010","351-TH","2018/02/14 14:29:23","新北市新莊區新泰路357巷3弄57號","121.441951666667","25.039485","6500500","新莊區"
"238010","601-UM","2018/02/14 14:29:20","新北市樹林區三福街72號","121.40448","25.01617","6500700","樹林區"
"238005","571-TV","2018/02/14 14:29:26","新北市樹林區樹新路59號","121.427356666667","24.9949466666667","6500700","樹林區"
"238011","5061-A6","2018/02/14 14:29:25","新北市樹林區八德街212巷24號","121.41506","24.9735116666667","6500700","樹林區"
"238009","KEA-2213","2018/02/14 14:29:18","新北市樹林區國凱街50巷3號","121.420473333333","24.9785266666667","6500700","樹林區"
"238012","303-VK","2018/02/14 14:29:26","新北市樹林區文化街2號","121.42038","24.9870733333333","6500700","樹林區"
"238004","283-BY","2018/02/14 14:29:23","新北市樹林區保安街二段335號","121.412416666667","25.007815","6500700","樹林區"
"238001","282-BY","2018/02/14 14:29:20","新北市樹林區潭興街143巷18號","121.425193333333","24.9999466666667","6500700","樹林區"
"238007","268-VK","2018/02/14 14:29:20","新北市樹林區三龍街113號","121.417296666667","25.0182866666667","6500700","樹林區"
"238013","172-UY","2018/02/14 14:29:18","新北市樹林區八德街828-3號","121.39329","24.9686733333333","6500700","樹林區"
"238003","169-UY","2018/02/14 14:29:24","新北市樹林區中山路二段10號","121.41759","24.9852183333333","6500700","樹林區"
"221032","280-BY","2018/02/14 14:29:17","新北市汐止區橫科路407巷21號","121.625691666667","25.0480333333333","6501100","汐止區"
"220027","145-BY","2018/02/14 14:29:19","新北市板橋區民權路202巷13弄30號","121.458748333333","25.01644","6500100","板橋區"
"220028","200-UY","2018/02/14 14:29:19","新北市板橋區大觀路二段3巷72號","121.449631666667","25.0033666666667","6500100","板橋區"
"220030","610-BX","2018/02/14 14:29:09","新北市板橋區篤行路三段99號","121.426075","24.9845966666667","6500100","板橋區"
"220050","245-BX","2018/02/14 14:29:19","新北市板橋區縣民大道三段133巷19號","121.477016666667","25.0237883333333","6500100","板橋區"
"220034","259-TC","2018/02/14 14:29:28","新北市板橋區中正路214號","121.456028333333","25.0183583333333","6500100","板橋區"
"220020","277-BY","2018/02/14 14:29:13","新北市板橋區篤行路二段161巷22-2號","121.429901666667","24.9872366666667","6500100","板橋區"
"220043","283-UM","2018/02/14 14:29:13","新北市板橋區松江街124巷7號","121.469513333333","25.0303083333333","6500100","板橋區"
"220019","283-VK","2018/02/14 14:29:23","新北市板橋區忠孝路48巷9弄19號","121.462046666667","25.000365","6500100","板橋區"
"220001","285-VK","2018/02/14 14:29:29","新北市板橋區永豐街205號","121.476518333333","25.0209683333333","6500100","板橋區"
"220031","286-VK","2018/02/14 14:29:25","新北市板橋區龍興街73巷48號","121.44216","25.002895","6500100","板橋區"
"220029","287-VK","2018/02/14 14:29:12","新北市板橋區南雅南路一段106號","121.454988333333","25.0042883333333","6500100","板橋區"
"220039","288-VK","2018/02/14 14:29:27","新北市板橋區長江路一段106巷13弄21號","121.460823333333","25.0296366666667","6500100","板橋區"
"220009","293-UM","2018/02/14 14:29:20","新北市板橋區中山路一段272巷18-1號","121.469366666667","25.0136766666667","6500100","板橋區"
"220032","296-UM","2018/02/14 14:29:26","新北市板橋區滿平街136巷2弄1號","121.428566666667","24.9879466666667","6500100","板橋區"
"220023","303-R5","2018/02/14 14:29:10","新北市板橋區南雅南路一段4巷12-1號","121.454811666667","25.0052416666667","6500100","板橋區"
"220010","305-R5","2018/02/14 14:29:23","新北市板橋區三民路二段153巷4號","121.479633333333","25.01488","6500100","板橋區"
"220041","307-R5","2018/02/14 14:29:17","新北市板橋區松江街70號","121.468635","25.0277816666667","6500100","板橋區"
"220047","317-R6","2018/02/14 14:29:22","新北市板橋區民生路三段263巷4弄1號","121.463855","25.0295116666667","6500100","板橋區"
"220004","461-BY","2018/02/14 14:29:26","新北市土城區四川路3號","121.45578","24.9960366666667","6500100","板橋區"
"220064","486-VK","2018/02/14 14:29:24","新北市板橋區中山路一段3號","121.459866666667","25.00775","6500100","板橋區"
"220038","487-VK","2018/02/14 14:29:25","新北市板橋區文化路一段213號","121.46357","25.0168866666667","6500100","板橋區"
"220037","491-VK","2018/02/14 14:29:18","新北市板橋區雙十路一段22號","121.477905","25.0243466666667","6500100","板橋區"
"220104","560-BX","2018/02/14 14:29:16","新北市板橋區中正路330號","121.454425","25.0217833333333","6500100","板橋區"
"220052","561-BX","2018/02/14 14:29:16","新北市板橋區文化路一段270巷3弄15-1號","121.4684","25.0208083333333","6500100","板橋區"
"220011","609-BX","2018/02/14 14:29:19","新北市板橋區三民路二段243號","121.479146666667","25.0125616666667","6500100","板橋區"
"220003","630-UY","2018/02/14 14:29:09","新北市板橋區實踐路205號","121.464506666667","25.0027933333333","6500100","板橋區"
"220040","637-BX","2018/02/14 14:29:22","新北市板橋區文聖街149巷25號","121.479508333333","25.0286083333333","6500100","板橋區"
"220005","686-BX","2018/02/14 14:29:15","新北市板橋區五權街53號","121.464696666667","24.9936","6500100","板橋區"
"220025","687-BX","2018/02/14 14:29:26","新北市板橋區大觀路一段39巷1號","121.448611666667","25.008185","6500100","板橋區"
"220042","689-BX","2018/02/14 14:29:12","新北市板橋區新海路360號","121.45981","25.02503","6500100","板橋區"
"220002","741-BX","2018/02/14 14:29:24","新北市板橋區光明街4號","121.460075","25.0024483333333","6500100","板橋區"
"220014","829-TW","2018/02/14 14:29:23","新北市板橋區長安街138巷7弄24號","121.473641666667","25.00864","6500100","板橋區"
"220045","830-TW","2018/02/14 14:29:12","新北市板橋區大同街7號","121.47691","25.02691","6500100","板橋區"
"220022","895-R6","2018/02/14 14:29:19","新北市板橋區文化路一段30號","121.459066666667","25.01144","6500100","板橋區"
"220021","985-R7","2018/02/14 14:29:29","新北市板橋區新生街89巷4號","121.458061666667","25.02215","6500100","板橋區"
"220046","AAC-210","2018/02/14 14:29:19","新北市板橋區幸福路32巷4弄16號","121.46144","25.0215516666667","6500100","板橋區"
"220018","AAC-253","2018/02/14 14:29:22","新北市板橋區四川路一段55號","121.459645","25.0062516666667","6500100","板橋區"
