"lineid","car","time","location","longitude","latitude","cityid","cityname"
"234025","9371-KE","2018/02/14 14:59:13","新北市永和區水源街33巷7號","121.51089","25.004135","6500400","永和區"
"248015","026-BX","2018/02/14 14:59:15","新北市五股區成泰路三段543巷21號","121.45039","25.10227","6501500","五股區"
"248007","095-VK","2018/02/14 14:59:19","新北市五股區四維路118巷12號","121.469066666667","25.0742483333333","6501500","五股區"
"248019","225-UY","2018/02/14 14:59:17","新北市五股區中直路3-11號","121.429248333333","25.11119","6501500","五股區"
"248011","247-BX","2018/02/14 14:59:14","新北市五股區五福路99號","121.431853333333","25.0904266666667","6501500","五股區"
"248003","677-BX","2018/02/14 14:59:12","新北市五股區成泰路一段8巷2-3號","121.434851666667","25.0669483333333","6501500","五股區"
"248001","678-BX","2018/02/14 14:59:12","新北市五股區成泰路二段195巷1號","121.440533333333","25.08746","6501500","五股區"
"248009","682-TV","2018/02/14 14:59:18","新北市五股區成泰路一段7巷7號","121.4332","25.0667316666667","6501500","五股區"
"244002","248-BX","2018/02/14 14:59:15","新北市林口區粉寮69號","121.405128333333","25.0907983333333","6501700","林口區"
"231002","002-UM","2018/02/14 14:59:08","新北市新店區民權路79號","121.538368333333","24.9829266666667","6500600","新店區"
"231025","0293-UT","2018/02/14 14:59:15","新北市新店區民族路106號","121.539018333333","24.9779666666667","6500600","新店區"
"231053","187-VK","2018/02/14 14:59:19","新北市新店區永福路61號","121.55728","24.929675","6500600","新店區"
"231062","720-UM","2018/02/14 14:59:12","新北市新店區安泰路60巷53-5號","121.484046666667","24.9454","6500600","新店區"
"231005","897-TW","2018/02/14 14:59:06","新北市新店區復興路59-1號","121.535691666667","24.9874233333333","6500600","新店區"
"231037","AKT-0513","2018/02/14 14:42:24","新北市新店區薏仁坑路自強巷2號","121.497483333333","24.9588633333333","6500600","新店區"
"235030","003-UY","2018/02/14 14:59:10","新北市中和區光華街36號","121.504925","25.0039633333333","6500300","中和區"
"235027","006-UY","2018/02/14 14:59:24","新北市中和區連勝街135號","121.4949","24.99568","6500300","中和區"
"235020","096-UM","2018/02/14 14:59:25","新北市中和區中山路三段136巷10弄1號","121.474243333333","25.0070716666667","6500300","中和區"
"235003","097-UM","2018/02/14 14:59:12","新北市新店區安康路二段320巷15弄2號","121.503991666667","24.9595433333333","6500300","中和區"
"235004","150-BY","2018/02/14 14:58:50","新北市中和區安平路93號","121.510995","24.9967","6500300","中和區"
"235022","151-BY","2018/02/14 14:59:06","新北市中和區員山路150巷2弄7號","121.481851666667","24.9980183333333","6500300","中和區"
"235019","183-VK","2018/02/14 14:59:09","新北市中和區民德路21號","121.468851666667","25.00275","6500300","中和區"
"235002","185-VK","2018/02/14 14:59:12","新北市中和區自立路109號","121.521978333333","24.9946233333333","6500300","中和區"
"235013","186-VK","2018/02/14 14:59:19","新北市中和區景平路415號","121.50206","24.9949916666667","6500300","中和區"
"235008","293-VK","2018/02/14 14:59:29","新北市中和區板南路128巷1號","121.502638333333","24.992655","6500300","中和區"
"235036","301-VK","2018/02/14 14:59:23","新北市中和區連城路66-1號","121.497696666667","25.0015816666667","6500300","中和區"
"235007","352-BY","2018/02/14 14:59:07","新北市中和區興南路一段107號","121.509306666667","24.98819","6500300","中和區"
"235032","377-QA","2018/02/14 14:59:19","新北市中和區福祥路87號","121.498935","25.0057833333333","6500300","中和區"
"235014","4979-A6","2018/02/14 14:59:24","新北市中和區景平路241巷64弄12號","121.507546666667","24.9924783333333","6500300","中和區"
"235033","4980-A6","2018/02/14 14:59:12","新北市中和區景新街34巷2弄7號","121.502836666667","24.99909","6500300","中和區"
"235006","551-UM","2018/02/14 14:59:15","新北市中和區安平路156巷4號","121.512888333333","24.99814","6500300","中和區"
"235034","558-UM","2018/02/14 14:58:47","新北市中和區連勝街38巷16號","121.497781666667","24.9978833333333","6500300","中和區"
"235018","640-BX","2018/02/14 14:59:22","新北市中和區莒光路205-1號","121.471156666667","24.9971916666667","6500300","中和區"
"235024","647-TV","2018/02/14 14:59:21","新北市中和區員山路394巷5號","121.480963333333","25.00466","6500300","中和區"
"235010","733-UM","2018/02/14 14:59:21","新北市中和區興南路一段63號","121.510533333333","24.9893733333333","6500300","中和區"
"235016","805-TS","2018/02/14 14:59:26","新北市中和區興南路二段121號","121.50563","24.9841283333333","6500300","中和區"
"235012","896-TW","2018/02/14 14:59:21","新北市中和區華新街83號","121.508321666667","24.9835916666667","6500300","中和區"
"235017","900-TW","2018/02/14 14:59:18","新北市中和區國光街186巷1-2號","121.466521666667","25.00195","6500300","中和區"
"235015","157-BY","2018/02/14 14:59:27","新北市中和區中興街204號","121.49987","24.99033","6500300","中和區"
"235001","AAC-213","2018/02/14 14:59:22","新北市中和區自立路36-22號","121.52276","24.9925733333333","6500300","中和區"
"235023","AAC-215","2018/02/14 14:59:20","新北市中和區圓通路305巷5弄55號","121.494983333333","24.9902","6500300","中和區"
"220016","013-TV","2018/02/14 14:59:10","新北市板橋區中山路二段412巷29弄2號","121.484083333333","25.019955","6500100","板橋區"
"220013","072-UY","2018/02/14 14:59:19","新北市板橋區長安街5號","121.466181666667","25.0086616666667","6500100","板橋區"
"220105","075-UY","2018/02/14 14:59:26","新北市板橋區民治街69號","121.479661666667","25.0328133333333","6500100","板橋區"
"220017","AAD-861","2018/02/14 14:59:24","新北市板橋區南雅南路二段1-1號","121.454701666667","25.0036783333333","6500100","板橋區"
"247019","500-BY","2018/02/14 14:59:17","新北市蘆洲區仁愛街72號","121.471128333333","25.0941333333333","6501400","蘆洲區"
"247007","341-TH","2018/02/14 14:59:09","新北市蘆洲區中山一路97巷32弄5號","121.47568","25.08121","6501400","蘆洲區"
"247013","007-UY","2018/02/14 14:59:18","新北市蘆洲區成功路137號","121.47226","25.08244","6501400","蘆洲區"
"228004","212-TW","2018/02/14 14:59:08","新北市貢寮區雙玉里田寮洋街25號","121.929298333333","25.017675","6502600","貢寮區"
"227008","400-TW","2018/02/14 14:49:31","新北市雙溪區三貂里政光路3-1號","121.850783333333","25.06307","6502500","雙溪區"
"253001","4710-YM","2018/02/14 14:59:26","新北市石門區崁子腳35-2號","121.540016666667","25.2697733333333","6502200","石門區"
"253003","6232-TK","2018/02/14 14:59:28","新北市石門區尖子鹿103-3號","121.580733333333","25.2938633333333","6502200","石門區"
"253002","637-UY","2018/02/14 14:59:15","新北市石門區楓林62-1號","121.542196666667","25.27303","6502200","石門區"
"253004","8270-PC","2018/02/14 14:58:52","新北市石門區內阿里磅31-4號","121.589095","25.2422566666667","6502200","石門區"
"208002","742-BX","2018/02/14 14:59:19","新北市金山區三民街34號","121.6349","25.2235783333333","6502700","金山區"
"208003","665-BX","2018/02/14 14:59:13","新北市金山區香園5號","121.634348333333","25.2466366666667","6502700","金山區"
"208001","761-BX","2018/02/14 14:59:27","新北市金山區重和里茅埔頭22號","121.601553333333","25.2132866666667","6502700","金山區"
"207002","749-BX","2018/02/14 14:59:28","新北市萬里區崁腳里崁腳路73號","121.647608333333","25.1595733333333","6502800","萬里區"
"207001","662-BX","2018/02/14 14:59:13","新北市萬里區雙興里豐稟路6-1號","121.648881666667","25.1852516666667","6502800","萬里區"
"237004","KEA-2597","2018/02/14 14:59:26","新北市三峽區嘉添127號","121.369358333333","24.9110533333333","6500900","三峽區"
"237007","153-BY","2018/02/14 14:59:26","新北市三峽區二鬮路21號","121.362545","24.9109433333333","6500900","三峽區"
"237009","210-TH","2018/02/14 14:59:16","新北市三峽區中園街13-1號","121.368646666667","24.92712","6500900","三峽區"
"237008","302-VK","2018/02/14 14:59:25","新北市三峽區中華路138號","121.370761666667","24.9270833333333","6500900","三峽區"
"237006","5529-G3","2018/02/14 14:59:15","新北市三峽區中正路二段168號","121.366028333333","24.9156983333333","6500900","三峽區"
"236079","166-UM","2018/02/14 14:59:18","新北市土城區中央路四段125巷1-1號","121.416491666667","24.957365","6501300","土城區"
"236029","253-BX","2018/02/14 14:59:24","新北市土城區慶利街18號","121.4396","24.9737083333333","6501300","土城區"
"236038","271-VK","2018/02/14 14:59:17","新北市土城區仁愛路17巷1號","121.460525","24.9805933333333","6501300","土城區"
"236023","401-BY","2018/02/14 14:59:23","新北市土城區明峰街50號","121.467816666667","24.9864483333333","6501300","土城區"
"236054","AAC-216","2018/02/14 14:59:10","新北市土城區裕民路55號","121.448731666667","24.9880816666667","6501300","土城區"
"242022","613-BX","2018/02/14 14:59:18","新北市新莊區新泰路357巷3弄57號","121.442055","25.0391766666667","6500500","新莊區"
"242043","497-BY","2018/02/14 14:59:16","新北市新莊區龍安路66-3號","121.414863333333","25.021355","6500500","新莊區"
"242047","441-UM","2018/02/14 14:59:18","新北市新莊區環漢路三段525號","121.435588333333","25.0023316666667","6500500","新莊區"
"242003","413-TV","2018/02/14 14:59:25","新北市新莊區頭前路14號","121.468143333333","25.0525","6500500","新莊區"
"242059","362-BY","2018/02/14 14:59:12","新北市新莊區環漢路四段1號","121.435071666667","25.000435","6500500","新莊區"
"242057","353-BY","2018/02/14 14:59:26","新北市新莊區龍安路100號","121.41833","25.0205433333333","6500500","新莊區"
"242006","132-UY","2018/02/14 14:59:18","新北市新莊區中正路119號","121.460508333333","25.0381483333333","6500500","新莊區"
"242035","133-UY","2018/02/14 14:59:28","新北市新莊區中正路543號","121.435365","25.0327033333333","6500500","新莊區"
"242055","349-TH","2018/02/14 14:59:09","新北市新莊區瓊泰路94巷32號","121.444275","25.0294316666667","6500500","新莊區"
"242010","351-TH","2018/02/14 14:59:23","新北市新莊區瓊林路59-13號","121.44232","25.0251833333333","6500500","新莊區"
"238002","755-BX","2018/02/14 14:59:12","新北市樹林區光明街3號","121.410908333333","24.9891333333333","6500700","樹林區"
"238005","571-TV","2018/02/14 14:59:26","新北市樹林區保安街一段22號","121.42752","24.9935066666667","6500700","樹林區"
"238011","5061-A6","2018/02/14 14:59:04","新北市樹林區中山路三段155巷8弄2-1號","121.39564","24.9725383333333","6500700","樹林區"
"238008","KEA-2217","2018/02/14 14:59:27","新北市樹林區柑園街二段342巷37號","121.371381666667","24.95212","6500700","樹林區"
"238012","303-VK","2018/02/14 14:59:06","新北市樹林區中山路三段127-1號","121.396678333333","24.97333","6500700","樹林區"
"238004","283-BY","2018/02/14 14:59:09","新北市樹林區光興街78-1號","121.407696666667","25.00271","6500700","樹林區"
"238001","282-BY","2018/02/14 14:59:20","新北市樹林區中正路22-1號","121.427858333333","24.9994583333333","6500700","樹林區"
"238007","268-VK","2018/02/14 14:59:20","新北市樹林區大安路349號","121.4164","24.990695","6500700","樹林區"
"238013","172-UY","2018/02/14 14:59:18","新北市樹林區中山路三段118號","121.39244","24.9721583333333","6500700","樹林區"
"221032","280-BY","2018/02/14 14:59:17","新北市汐止區和平街46巷13弄2號","121.662288333333","25.07183","6501100","汐止區"
"220027","145-BY","2018/02/14 14:59:19","新北市板橋區建國街72號","121.459175","25.0172216666667","6500100","板橋區"
"220050","245-BX","2018/02/14 14:59:18","新北市板橋區縣民大道三段103巷20號","121.475283333333","25.0227666666667","6500100","板橋區"
"220034","259-TC","2018/02/14 14:59:28","新北市板橋區中正路142號","121.456861666667","25.0160533333333","6500100","板橋區"
"220043","283-UM","2018/02/14 14:59:13","新北市板橋區雨農路32號","121.461315","25.0243566666667","6500100","板橋區"
"220019","283-VK","2018/02/14 14:59:22","新北市板橋區廣權路79號","121.463961666667","24.9924033333333","6500100","板橋區"
"220001","285-VK","2018/02/14 14:59:10","新北市板橋區中山路二段60巷1弄21號","121.474983333333","25.015745","6500100","板橋區"
"220031","286-VK","2018/02/14 14:59:25","新北市板橋區僑中一街125巷8弄1號","121.445138333333","25.010895","6500100","板橋區"
"220029","287-VK","2018/02/14 14:59:12","新北市板橋區大觀路一段28巷91-2號","121.450158333333","25.0115633333333","6500100","板橋區"
"220009","293-UM","2018/02/14 14:59:20","新北市板橋區觀光街88號","121.469466666667","25.0168666666667","6500100","板橋區"
"220023","303-R5","2018/02/14 14:59:10","新北市板橋區中正路212號","121.456033333333","25.0181816666667","6500100","板橋區"
"220010","305-R5","2018/02/14 14:59:23","新北市板橋區光復街172巷31弄5-2號","121.486245","25.018985","6500100","板橋區"
"220041","307-R5","2018/02/14 14:59:17","新北市板橋區四維路103巷32號","121.464376666667","25.0239916666667","6500100","板橋區"
"220047","317-R6","2018/02/14 14:59:08","新北市板橋區新海路394巷10號","121.459443333333","25.0267316666667","6500100","板橋區"
"220004","461-BY","2018/02/14 14:59:24","新北市板橋區信義路185號","121.45905","24.9918783333333","6500100","板橋區"
"220064","486-VK","2018/02/14 14:59:24","新北市板橋區實踐路5-1號","121.463323333333","25.0078866666667","6500100","板橋區"
"220038","487-VK","2018/02/14 14:59:25","新北市板橋區龍泉街82巷11-4號","121.455855","25.0255283333333","6500100","板橋區"
"242030","280-VK","2018/02/14 14:59:13","新北市新莊區中正路352號","121.443938333333","25.0345433333333","6500500","新莊區"
"220037","491-VK","2018/02/14 14:59:18","新北市板橋區仁化街87號","121.47623","25.0319483333333","6500100","板橋區"
"220104","560-BX","2018/02/14 14:59:16","新北市板橋區新生街87巷10號","121.457638333333","25.0218216666667","6500100","板橋區"
"220052","561-BX","2018/02/14 14:59:16","新北市板橋區自由路13號","121.465498333333","25.0227116666667","6500100","板橋區"
"220003","568-UM","2018/02/14 14:59:21","新北市板橋區四川路一段387號","121.457675","24.99888","6500100","板橋區"
"220011","609-BX","2018/02/14 14:59:19","新北市板橋區三民路一段31巷39-1號","121.480561666667","25.0231633333333","6500100","板橋區"
"220003","630-UY","2018/02/14 14:59:25","新北市板橋區國慶路149巷27號","121.460938333333","24.997725","6500100","板橋區"
"220040","637-BX","2018/02/14 14:59:22","新北市板橋區懷德街127巷23弄31號","121.48023","25.0322316666667","6500100","板橋區"
"220005","686-BX","2018/02/14 14:59:15","新北市板橋區和平路14巷38號","121.461785","24.9915683333333","6500100","板橋區"
"220025","687-BX","2018/02/14 14:59:08","新北市板橋區僑中一街106號","121.446516666667","25.0117333333333","6500100","板橋區"
"220042","689-BX","2018/02/14 14:59:24","新北市板橋區長江路二段215號","121.46801","25.032485","6500100","板橋區"
"220014","829-TW","2018/02/14 14:59:27","新北市板橋區長安街138巷1弄73號","121.474603333333","25.0108066666667","6500100","板橋區"
"220045","830-TW","2018/02/14 14:59:12","新北市板橋區莒光路40巷18號","121.47019","25.0236483333333","6500100","板橋區"
"220022","895-R6","2018/02/14 14:59:19","新北市板橋區文化路一段46巷23號","121.460375","25.0114016666667","6500100","板橋區"
"220021","985-R7","2018/02/14 14:59:09","新北市板橋區南雅西路二段202號","121.451761666667","25.014795","6500100","板橋區"
"220046","AAC-210","2018/02/14 14:59:19","新北市板橋區文化路一段221巷14號","121.463188333333","25.0177983333333","6500100","板橋區"
"220018","AAC-253","2018/02/14 14:59:22","新北市板橋區成都街72-3號","121.463465","25.0052866666667","6500100","板橋區"
