"lineid","car","time","location","longitude","latitude","cityid","cityname"
"234025","9371-KE","2018/02/14 15:09:13","新北市永和區中山路一段281巷1號","121.507196666667","25.00681","6500400","永和區"
"248015","026-BX","2018/02/14 15:09:15","新北市五股區成泰路三段544-18號","121.45275","25.10335","6501500","五股區"
"248007","095-VK","2018/02/14 15:09:18","新北市五股區四維路171巷20號","121.466913333333","25.075295","6501500","五股區"
"248019","225-UY","2018/02/14 15:09:17","新北市五股區凌雲路三段24巷20-3號","121.434813333333","25.1063683333333","6501500","五股區"
"248003","677-BX","2018/02/14 15:09:19","新北市五股區成泰路一段70-1號","121.43554","25.0697683333333","6501500","五股區"
"244002","248-BX","2018/02/14 15:09:15","新北市林口區粉寮69號","121.405128333333","25.090805","6501700","林口區"
"231002","002-UM","2018/02/14 15:09:08","新北市新店區中正路548號","121.533611666667","24.9865516666667","6500600","新店區"
"231025","0293-UT","2018/02/14 15:09:14","新北市新店區民族路108號","121.537961666667","24.9771233333333","6500600","新店區"
"231053","187-VK","2018/02/14 15:09:19","新北市新店區永福路61號","121.557401666667","24.92897","6500600","新店區"
"231034","268-BY","2018/02/14 15:09:12","新北市新店區玫瑰路4-1號","121.493486666667","24.9514583333333","6500600","新店區"
"231062","720-UM","2018/02/14 15:09:12","新北市新店區安泰路76號","121.485943333333","24.9457383333333","6500600","新店區"
"231005","897-TW","2018/02/14 15:09:06","新北市新店區順安街2-1號","121.541163333333","24.98469","6500600","新店區"
"231037","AKT-0513","2018/02/14 14:42:24","新北市新店區薏仁坑路自強巷2號","121.497483333333","24.9588633333333","6500600","新店區"
"235030","003-UY","2018/02/14 15:09:10","新北市中和區中山路二段3巷60號","121.507718333333","25.0046733333333","6500300","中和區"
"235027","006-UY","2018/02/14 15:09:24","新北市中和區連城路203巷10弄31號","121.495326666667","24.9963683333333","6500300","中和區"
"235002","185-VK","2018/02/14 15:09:12","新北市中和區大智街55巷30弄32號","121.52156","24.9932616666667","6500300","中和區"
"235007","352-BY","2018/02/14 15:09:27","新北市中和區興南路二段159巷7號","121.505256666667","24.9831883333333","6500300","中和區"
"235032","377-QA","2018/02/14 15:09:19","新北市中和區勝利路35巷1弄35號","121.500273333333","25.0079783333333","6500300","中和區"
"235035","269-TV","2018/02/14 15:09:23","新北市中和區中正路589巷1號","121.485856666667","24.9943616666667","6500300","中和區"
"235014","4979-A6","2018/02/14 15:09:24","新北市中和區安樂路66號","121.512208333333","24.9932366666667","6500300","中和區"
"235033","4980-A6","2018/02/14 15:09:12","新北市中和區南山路127巷27弄32號","121.503551666667","24.998055","6500300","中和區"
"235006","551-UM","2018/02/14 15:09:15","新北市中和區宜安路174號","121.508756666667","24.999165","6500300","中和區"
"235034","558-UM","2018/02/14 15:09:26","新北市中和區圓通路118號","121.499225","24.9962066666667","6500300","中和區"
"235018","640-BX","2018/02/14 15:09:22","新北市中和區莒光路3巷1號","121.471921666667","25.0061416666667","6500300","中和區"
"235010","733-UM","2018/02/14 15:09:21","新北市中和區興南路一段105巷20弄16號","121.510376666667","24.985415","6500300","中和區"
"235012","896-TW","2018/02/14 15:09:21","新北市中和區興南路一段91號","121.50969","24.9887483333333","6500300","中和區"
"235017","900-TW","2018/02/14 15:09:26","新北市中和區民德路197-1號","121.468435","24.9989283333333","6500300","中和區"
"235015","157-BY","2018/02/14 15:09:27","新北市中和區景安路196號","121.504301666667","24.9914633333333","6500300","中和區"
"235001","AAC-213","2018/02/14 15:09:22","新北市中和區自立路143號","121.52245","24.9932","6500300","中和區"
"235023","AAC-215","2018/02/14 15:09:20","新北市中和區員山路36巷2-1號","121.483205","24.9901683333333","6500300","中和區"
"220016","013-TV","2018/02/14 15:09:10","新北市板橋區光復街103號","121.484171666667","25.0191533333333","6500100","板橋區"
"220105","075-UY","2018/02/14 15:09:20","新北市板橋區文聖街11巷7號","121.475641666667","25.0325033333333","6500100","板橋區"
"220017","AAD-861","2018/02/14 15:09:24","新北市板橋區貴興路119巷1弄1號","121.455756666667","25.0022266666667","6500100","板橋區"
"247007","341-TH","2018/02/14 15:09:09","新北市五股區中興路二段182巷15弄13-1號","121.45718","25.0812366666667","6501400","蘆洲區"
"247013","007-UY","2018/02/14 15:09:18","新北市蘆洲區得勝街88號","121.472161666667","25.0833533333333","6501400","蘆洲區"
"228004","212-TW","2018/02/14 15:08:54","新北市貢寮區雙玉里田寮洋街17號","121.921865","25.0248516666667","6502600","貢寮區"
"227008","400-TW","2018/02/14 14:49:31","新北市雙溪區三貂里政光路3-1號","121.850783333333","25.06307","6502500","雙溪區"
"253001","4710-YM","2018/02/14 15:09:26","新北市石門區崁子腳31-2號","121.537405","25.2849783333333","6502200","石門區"
"253003","6232-TK","2018/02/14 15:09:07","新北市石門區小坑9號","121.594236666667","25.2873683333333","6502200","石門區"
"253002","637-UY","2018/02/14 15:09:15","新北市石門區楓林46號","121.542846666667","25.27862","6502200","石門區"
"253004","8270-PC","2018/02/14 15:09:12","新北市石門區茂林社區227-1號","121.591658333333","25.270405","6502200","石門區"
"208002","742-BX","2018/02/14 15:09:19","新北市金山區中華路360號","121.633155","25.22432","6502700","金山區"
"208003","665-BX","2018/02/14 15:09:13","新北市金山區永興里濆水路1-1號","121.630173333333","25.26406","6502700","金山區"
"207002","749-BX","2018/02/14 15:09:28","新北市萬里區崁腳里崁腳路27號","121.651488333333","25.1604816666667","6502800","萬里區"
"207001","662-BX","2018/02/14 15:09:13","新北市萬里區雙興里麗水路8-1號","121.6499","25.1872966666667","6502800","萬里區"
"237009","210-TH","2018/02/14 15:09:16","新北市三峽區民族街78巷2弄8號","121.368388333333","24.929955","6500900","三峽區"
"237008","302-VK","2018/02/14 15:09:25","新北市三峽區中正路一段174巷9號","121.371863333333","24.9289266666667","6500900","三峽區"
"237006","5529-G3","2018/02/14 15:09:15","新北市三峽區嘉添53-1號","121.368726666667","24.9107766666667","6500900","三峽區"
"236079","166-UM","2018/02/14 15:09:18","新北市土城區中央路四段125巷9弄3號","121.41698","24.9575333333333","6501300","土城區"
"236023","401-BY","2018/02/14 15:09:23","新北市土城區延吉街217巷3弄1號","121.4687","24.9848416666667","6501300","土城區"
"236054","AAC-216","2018/02/14 15:09:08","新北市土城區學府路一段153號","121.453293333333","24.985985","6501300","土城區"
"242022","613-BX","2018/02/14 15:09:18","新北市新莊區新泰路255巷83號","121.441973333333","25.03891","6500500","新莊區"
"242043","497-BY","2018/02/14 15:09:16","新北市新莊區中正路893巷38號","121.413958333333","25.0207433333333","6500500","新莊區"
"242047","441-UM","2018/02/14 15:09:18","新北市樹林區俊英街284號","121.423741666667","25.0136683333333","6500500","新莊區"
"242003","413-TV","2018/02/14 15:09:25","新北市新莊區化成路746巷32號","121.467083333333","25.0580583333333","6500500","新莊區"
"242059","362-BY","2018/02/14 15:09:12","新北市樹林區八德街491-8號","121.402981666667","24.969385","6500500","新莊區"
"242035","133-UY","2018/02/14 15:09:28","新北市新莊區瓊林路108號","121.442073333333","25.0265416666667","6500500","新莊區"
"242010","351-TH","2018/02/14 15:09:23","新北市新莊區中港路498號","121.45174","25.0516883333333","6500500","新莊區"
"238002","755-BX","2018/02/14 15:09:12","新北市樹林區復興路239號","121.419603333333","24.99047","6500700","樹林區"
"238005","571-TV","2018/02/14 15:09:26","新北市樹林區樹新路34巷12號","121.427708333333","24.9943816666667","6500700","樹林區"
"238011","5061-A6","2018/02/14 15:09:24","新北市樹林區育德街19巷16號","121.392356666667","24.9698283333333","6500700","樹林區"
"238008","KEA-2217","2018/02/14 15:09:07","新北市樹林區柑園街二段386巷2號","121.36773","24.9491216666667","6500700","樹林區"
"238012","303-VK","2018/02/14 15:09:26","新北市樹林區中山路三段22號","121.395718333333","24.9729683333333","6500700","樹林區"
"238004","283-BY","2018/02/14 15:09:09","新北市樹林區光興街78-1號","121.407715","25.002725","6500700","樹林區"
"238001","282-BY","2018/02/14 15:09:20","新北市樹林區中正路22-1號","121.427835","24.99961","6500700","樹林區"
"238013","172-UY","2018/02/14 15:09:18","新北市樹林區佳園路一段60號","121.393141666667","24.9703","6500700","樹林區"
"221032","280-BY","2018/02/14 15:09:17","新北市汐止區忠孝東路421號","121.665858333333","25.07156","6501100","汐止區"
"220027","145-BY","2018/02/14 15:09:28","新北市板橋區中正路135巷12弄6號","121.455671666667","25.01589","6500100","板橋區"
"220050","245-BX","2018/02/14 15:09:18","新北市板橋區莒光路184號","121.474081666667","25.0227166666667","6500100","板橋區"
"220034","259-TC","2018/02/14 15:09:13","新北市板橋區光華街1號","121.454251666667","25.011095","6500100","板橋區"
"220043","283-UM","2018/02/14 15:09:13","新北市板橋區新海路162號","121.460478333333","25.0236233333333","6500100","板橋區"
"220019","283-VK","2018/02/14 15:09:22","新北市板橋區五權街30巷24弄33號","121.463643333333","24.9939366666667","6500100","板橋區"
"220001","285-VK","2018/02/14 15:09:26","新北市板橋區永豐街151號","121.475235","25.0201483333333","6500100","板橋區"
"220031","286-VK","2018/02/14 15:09:25","新北市板橋區僑中二街90巷21號","121.445193333333","25.009275","6500100","板橋區"
"220029","287-VK","2018/02/14 15:09:12","新北市板橋區僑中一街124巷20弄35號","121.447598333333","25.0139416666667","6500100","板橋區"
"220009","293-UM","2018/02/14 15:09:20","新北市板橋區中山路一段156號","121.465005","25.0115933333333","6500100","板橋區"
"220023","303-R5","2018/02/14 15:09:30","新北市板橋區金華街10巷48弄59號","121.459075","25.0201883333333","6500100","板橋區"
"220041","307-R5","2018/02/14 15:09:17","新北市板橋區四維路259巷25號","121.461978333333","25.0274233333333","6500100","板橋區"
"220004","461-BY","2018/02/14 15:09:26","新北市板橋區干城路146號","121.459728333333","24.99325","6500100","板橋區"
"220064","486-VK","2018/02/14 15:09:24","新北市板橋區館前東路152號","121.46439","25.0079283333333","6500100","板橋區"
"220038","487-VK","2018/02/14 15:09:25","新北市板橋區龍泉街55巷2號","121.457186666667","25.0257916666667","6500100","板橋區"
"242030","280-VK","2018/02/14 15:09:13","新北市新莊區忠孝街29巷20號","121.443655","25.0363783333333","6500500","新莊區"
"220037","491-VK","2018/02/14 15:09:18","新北市板橋區懷德街181巷5號","121.479428333333","25.03001","6500100","板橋區"
"220052","561-BX","2018/02/14 15:09:16","新北市板橋區自由路1號","121.465366666667","25.0222616666667","6500100","板橋區"
"220003","568-UM","2018/02/14 15:09:21","新北市板橋區實踐路61號","121.463826666667","25.00651","6500100","板橋區"
"220011","609-BX","2018/02/14 15:09:19","新北市板橋區中山路二段531巷28號","121.482945","25.0222616666667","6500100","板橋區"
"220003","630-UY","2018/02/14 15:09:29","新北市板橋區仁愛路78號","121.460511666667","24.999555","6500100","板橋區"
"220040","637-BX","2018/02/14 15:09:22","新北市板橋區文聖街101巷10號","121.478176666667","25.0296533333333","6500100","板橋區"
"220005","686-BX","2018/02/14 15:09:15","新北市板橋區四川路二段85號","121.452948333333","24.9949866666667","6500100","板橋區"
"220025","687-BX","2018/02/14 15:09:08","新北市板橋區僑中一街124巷18弄1號","121.446155","25.0137983333333","6500100","板橋區"
"220042","689-BX","2018/02/14 15:09:12","新北市板橋區文化路二段606號","121.477255","25.035055","6500100","板橋區"
"220014","829-TW","2018/02/14 15:09:23","新北市板橋區漢生東路193巷77號","121.472585","25.011795","6500100","板橋區"
"220022","895-R6","2018/02/14 15:09:19","新北市板橋區府中路9號","121.4598","25.0095866666667","6500100","板橋區"
"220021","985-R7","2018/02/14 15:09:09","新北市板橋區南雅西路二段2-1號","121.453225","25.0090383333333","6500100","板橋區"
"220046","AAC-210","2018/02/14 15:09:27","新北市板橋區復興街139號","121.461153333333","25.0181466666667","6500100","板橋區"
"220018","AAC-253","2018/02/14 15:09:23","新北市板橋區四川路一段127號","121.459871666667","25.0047266666667","6500100","板橋區"
