"lineid","car","time","location","longitude","latitude","cityid","cityname"
"244002","248-BX","2018/02/14 15:39:14","新北市林口區粉寮路二段160巷28號","121.405131666667","25.0907716666667","6501700","林口區"
"231025","0293-UT","2018/02/14 15:39:15","新北市新店區大同街30號","121.539025","24.9804233333333","6500600","新店區"
"231053","187-VK","2018/02/14 15:39:19","新北市新店區新烏路一段87巷3號","121.546193333333","24.9418866666667","6500600","新店區"
"231034","268-BY","2018/02/14 15:39:12","新北市新店區如意街67號","121.494","24.9472216666667","6500600","新店區"
"231062","720-UM","2018/02/14 15:39:12","新北市新店區雙城路133號","121.49792","24.93882","6500600","新店區"
"231005","897-TW","2018/02/14 15:39:26","新北市新店區民族路161號","121.53783","24.9768883333333","6500600","新店區"
"241011","013-R5","2018/02/14 15:39:15","新北市三重區文化北路246號","121.497475","25.0698883333333","6500200","三重區"
"241028","022-UY","2018/02/14 15:39:19","新北市三重區重新路四段121號","121.484791666667","25.05252","6500200","三重區"
"241017","063-VK","2018/02/14 15:39:21","新北市三重區大仁街20-1號","121.491606666667","25.0634716666667","6500200","三重區"
"241005","262-UM","2018/02/14 15:39:11","新北市三重區重新路四段121號","121.484741666667","25.0519566666667","6500200","三重區"
"241013","270-UM","2018/02/14 15:39:08","新北市三重區忠孝路一段133號","121.488453333333","25.07196","6500200","三重區"
"241007","398-BY","2018/02/14 15:39:16","新北市三重區捷運路73號","121.482583333333","25.0556533333333","6500200","三重區"
"241014","543-UM","2018/02/14 15:39:23","新北市三重區重新路四段121號","121.485066666667","25.0519516666667","6500200","三重區"
"241023","545-UM","2018/02/14 15:39:15","新北市三重區重新路三段150號","121.490971666667","25.0594566666667","6500200","三重區"
"241001","547-UM","2018/02/14 15:39:15","新北市三重區捷運路36號","121.482858333333","25.0551933333333","6500200","三重區"
"241003","887-TS","2018/02/14 15:39:13","新北市三重區重新路四段121號","121.484806666667","25.0523416666667","6500200","三重區"
"241029","942-UM","2018/02/14 15:39:23","新北市三重區大同南路153號","121.496661666667","25.0568416666667","6500200","三重區"
"241033","AAC-255","2018/02/14 15:39:29","新北市三重區中興南街72號","121.470941666667","25.0438233333333","6500200","三重區"
"235003","097-UM","2018/02/14 15:39:16","新北市永和區安樂路46號","121.51473","24.9970783333333","6500300","中和區"
"235029","098-UM","2018/02/14 15:39:17","新北市中和區福祥路112號","121.499033333333","25.0063516666667","6500300","中和區"
"235035","269-TV","2018/02/14 15:39:23","新北市中和區建一路130號","121.487943333333","24.9998483333333","6500300","中和區"
"235014","4979-A6","2018/02/14 15:39:23","新北市中和區南華路1巷3號","121.501931666667","24.99553","6500300","中和區"
"235033","4980-A6","2018/02/14 15:39:12","新北市中和區員山路292號","121.481286666667","25.0024633333333","6500300","中和區"
"235026","800-TS","2018/02/14 15:39:26","新北市中和區建六路67巷8號","121.486808333333","25.0025583333333","6500300","中和區"
"235023","AAC-215","2018/02/14 15:39:20","新北市中和區錦和路169號","121.49073","24.991655","6500300","中和區"
"247007","341-TH","2018/02/14 15:37:29","新北市林口區太平里17號","121.364135","25.136435","6501400","蘆洲區"
"235005","251-BX","2018/02/14 15:39:20","新北市中和區宜安路171號","121.508401666667","24.9992783333333","6500300","中和區"
"227001","642-TC","2018/02/14 15:39:11","新北市雙溪區牡丹里中正路39號","121.864538333333","25.0386066666667","6502500","雙溪區"
"227008","400-TW","2018/02/14 15:39:23","新北市雙溪區三貂里定福路1-1號","121.849648333333","25.0625266666667","6502500","雙溪區"
"253002","637-UY","2018/02/14 15:39:15","新北市石門區阿里磅1號","121.590208333333","25.291","6502200","石門區"
"253004","8270-PC","2018/02/14 15:39:12","新北市石門區小坑9號","121.594678333333","25.287175","6502200","石門區"
"236079","166-UM","2018/02/14 15:39:17","新北市土城區中央路三段254-1號","121.427498333333","24.9641316666667","6501300","土城區"
"236029","253-BX","2018/02/14 15:39:24","新北市土城區中央路一段260巷20號","121.443211666667","24.9845033333333","6501300","土城區"
"236038","271-VK","2018/02/14 15:39:17","新北市土城區國際路158巷19號","121.468708333333","24.97609","6501300","土城區"
"236054","AAC-216","2018/02/14 15:39:08","新北市土城區學府路一段276號","121.450143333333","24.98312","6501300","土城區"
"238002","755-BX","2018/02/14 15:39:12","新北市樹林區中山路三段210-2號","121.381471666667","24.9656066666667","6500700","樹林區"
"238008","KEA-2217","2018/02/14 15:39:27","新北市樹林區佳園路三段181巷110弄1號","121.392711666667","24.9486416666667","6500700","樹林區"
"238009","KEA-2213","2018/02/14 15:39:18","新北市樹林區中山路二段249巷2號","121.401885","24.97577","6500700","樹林區"
"238004","283-BY","2018/02/14 15:39:09","新北市樹林區光興街63巷8號","121.410753333333","25.0022883333333","6500700","樹林區"
"238001","282-BY","2018/02/14 15:39:20","新北市樹林區千歲街4號","121.425041666667","24.9957283333333","6500700","樹林區"
"221032","280-BY","2018/02/14 15:39:17","新北市汐止區大同路二段298號","121.655173333333","25.0666716666667","6501100","汐止區"
"220020","277-BY","2018/02/14 15:39:25","新北市板橋區金門街92號","121.432911666667","24.9925666666667","6500100","板橋區"
"220031","286-VK","2018/02/14 15:39:25","新北市板橋區僑中二街108巷7號","121.445403333333","25.0072116666667","6500100","板橋區"
"220029","287-VK","2018/02/14 15:39:12","新北市板橋區大觀路三段59巷17弄7號","121.434683333333","24.99539","6500100","板橋區"
"220032","296-UM","2018/02/14 15:39:12","新北市樹林區博愛街207號","121.424143333333","24.9875783333333","6500100","板橋區"
"220041","307-R5","2018/02/14 15:39:23","新北市板橋區文化路一段45巷1弄5號","121.460516666667","25.01398","6500100","板橋區"
"220038","487-VK","2018/02/14 15:39:24","新北市板橋區陽明街162號","121.4634","25.0244833333333","6500100","板橋區"
"242030","280-VK","2018/02/14 15:39:21","新北市新莊區三泰路17號","121.438106666667","25.0351183333333","6500500","新莊區"
"220003","630-UY","2018/02/14 15:39:09","新北市板橋區四川路一段367號","121.458338333333","24.9995916666667","6500100","板橋區"
"220018","AAC-253","2018/02/14 15:39:22","新北市板橋區華東街1-10號","121.448653333333","24.99501","6500100","板橋區"
