"lineid","car","time","location","longitude","latitude","cityid","cityname"
"248015","026-BX","2018/02/14 16:09:17","新北市五股區成泰路三段577巷80弄50號","121.449663333333","25.1048816666667","6501500","五股區"
"244002","248-BX","2018/02/14 15:52:24","新北市林口區粉寮路二段160巷28號","121.405126666667","25.09077","6501700","林口區"
"231025","0293-UT","2018/02/14 16:09:14","新北市新店區環河路105-12號","121.531845","24.97006","6500600","新店區"
"231034","268-BY","2018/02/14 16:09:12","新北市新店區富貴街9巷2號","121.49415","24.9492483333333","6500600","新店區"
"241011","013-R5","2018/02/14 16:09:15","新北市三重區龍濱路190號","121.501183333333","25.0732966666667","6500200","三重區"
"241028","022-UY","2018/02/14 16:09:19","新北市三重區正義南路107號","121.498253333333","25.0585533333333","6500200","三重區"
"241008","059-VK","2018/02/14 16:09:18","新北市三重區自強路四段32-2號","121.488995","25.0769633333333","6500200","三重區"
"241031","061-VK","2018/02/14 16:09:18","新北市三重區重新路四段121號","121.484818333333","25.0520083333333","6500200","三重區"
"241015","062-VK","2018/02/14 16:09:22","新北市三重區三和路一段36號","121.502935","25.0652983333333","6500200","三重區"
"241017","063-VK","2018/02/14 16:09:21","新北市三重區大同北路148巷2-3號","121.491858333333","25.0649183333333","6500200","三重區"
"241026","066-VK","2018/02/14 16:09:25","新北市三重區重新路二段92號","121.497128333333","25.0615416666667","6500200","三重區"
"241002","090-VK","2018/02/14 16:09:11","新北市三重區五華街27號","121.494713333333","25.0807266666667","6500200","三重區"
"241005","262-UM","2018/02/14 16:09:11","新北市三重區溪尾街305號","121.487553333333","25.0837133333333","6500200","三重區"
"241016","265-UM","2018/02/14 16:09:29","新北市三重區大仁街86號","121.492853333333","25.0654516666667","6500200","三重區"
"241022","267-UM","2018/02/14 16:09:21","新北市三重區新北大道一段6號","121.488878333333","25.061565","6500200","三重區"
"241018","268-UM","2018/02/14 16:09:20","新北市三重區大仁街30號","121.491451666667","25.06392","6500200","三重區"
"241013","270-UM","2018/02/14 16:09:28","新北市三重區三和路三段45-1號","121.495503333333","25.0713716666667","6500200","三重區"
"241025","271-UM","2018/02/14 16:09:28","新北市三重區忠孝路三段40巷16弄1號","121.482305","25.0664733333333","6500200","三重區"
"241007","398-BY","2018/02/14 16:09:16","新北市三重區慈愛街8號","121.48448","25.0784","6500200","三重區"
"241020","413-TH","2018/02/14 16:09:26","新北市三重區車路頭街25號","121.48377","25.0706766666667","6500200","三重區"
"241004","475-VK","2018/02/14 16:09:22","新北市三重區自強路五段63號","121.494735","25.0819716666667","6500200","三重區"
"241024","478-VK","2018/02/14 16:09:29","新北市三重區中正北路145巷32號","121.485118333333","25.0680416666667","6500200","三重區"
"241014","543-UM","2018/02/14 16:09:22","新北市三重區河邊北街70-3號","121.50439","25.06839","6500200","三重區"
"241023","545-UM","2018/02/14 16:09:15","新北市三重區力行路一段161號","121.48488","25.0691483333333","6500200","三重區"
"241001","547-UM","2018/02/14 16:09:15","新北市三重區自強路四段82號","121.490661666667","25.0789333333333","6500200","三重區"
"241019","KEA-2593","2018/02/14 16:09:16","新北市三重區重陽路三段97號","121.490333333333","25.0679566666667","6500200","三重區"
"241003","887-TS","2018/02/14 16:09:13","新北市三重區自強路五段112號","121.496945","25.083675","6500200","三重區"
"241012","941-UM","2018/02/14 16:09:14","新北市三重區正義北路204號","121.496413333333","25.067215","6500200","三重區"
"241029","942-UM","2018/02/14 16:09:23","新北市三重區泉州街4號","121.494803333333","25.0564516666667","6500200","三重區"
"241033","AAC-255","2018/02/14 16:09:09","新北市三重區中興南街80巷9號","121.471646666667","25.0437633333333","6500200","三重區"
"235029","098-UM","2018/02/14 16:09:17","新北市中和區福美路310號","121.496831666667","25.004775","6500300","中和區"
"235004","150-BY","2018/02/14 16:09:10","新北市中和區保健路10巷3號","121.507765","24.9974916666667","6500300","中和區"
"235035","269-TV","2018/02/14 16:09:23","新北市中和區中正路880號","121.48381","25.0065716666667","6500300","中和區"
"235026","800-TS","2018/02/14 16:09:26","新北市中和區永和路191巷9號","121.491323333333","25.006805","6500300","中和區"
"235016","805-TS","2018/02/14 16:09:26","新北市中和區華新街192巷22弄12號","121.507031666667","24.983505","6500300","中和區"
"235023","AAC-215","2018/02/14 16:09:20","新北市中和區圓通路435巷2-10號","121.487453333333","24.9866816666667","6500300","中和區"
"247007","341-TH","2018/02/14 16:09:29","新北市五股區中興路三段163號","121.44919","25.0807433333333","6501400","蘆洲區"
"247004","336-TH","2018/02/14 16:04:29","新北市五股區中興路三段163號","121.449143333333","25.0807233333333","6501400","蘆洲區"
"226005","5620-A6","2018/02/14 16:09:27","新北市平溪區石底里石筍尖4號","121.735876666667","25.025585","6502400","平溪區"
"235005","251-BX","2018/02/14 16:09:15","新北市永和區中和路373號","121.508353333333","24.9997216666667","6500300","中和區"
"224008","275-VK","2018/02/14 15:48:21","新北市瑞芳區大寮路356-1號","121.784506666667","25.1033216666667","6501200","瑞芳區"
"224007","273-VK","2018/02/14 16:09:11","新北市瑞芳區粗坑口路44號","121.762066666667","25.09916","6501200","瑞芳區"
"224005","271-BY","2018/02/14 16:09:11","新北市瑞芳區三爪子坑路118號","121.806241666667","25.1053733333333","6501200","瑞芳區"
"227001","642-TC","2018/02/14 16:09:23","新北市雙溪區上林里內平林26號","121.834156666667","25.0316416666667","6502500","雙溪區"
"227008","400-TW","2018/02/14 16:09:23","新北市雙溪區三港里雙澳路86號","121.885355","25.0544166666667","6502500","雙溪區"
"253004","8270-PC","2018/02/14 16:09:12","新北市石門區尖子鹿104-4號","121.578528333333","25.2973966666667","6502200","石門區"
"251013","179-VK","2018/02/14 16:09:23","新北市淡水區行忠路250號","121.457346666667","25.2003966666667","6501000","淡水區"
"251008","181-VK","2018/02/14 16:09:18","新北市淡水區中正路一段33號","121.425756666667","25.1766933333333","6501000","淡水區"
"236079","166-UM","2018/02/14 16:09:18","新北市土城區龍泉路347號","121.409498333333","24.9504333333333","6501300","土城區"
"236023","401-BY","2018/02/14 16:09:23","新北市土城區明峰街83號","121.468895","24.98731","6501300","土城區"
"236054","AAC-216","2018/02/14 16:09:27","新北市土城區延和路258號","121.470048333333","24.9894166666667","6501300","土城區"
"238019","599-UM","2018/02/14 16:09:21","新北市樹林區育德街78-1號","121.388115","24.9682716666667","6500700","樹林區"
"238001","282-BY","2018/02/14 16:09:20","新北市樹林區八德街67號","121.399931666667","24.96935","6500700","樹林區"
"221032","280-BY","2018/02/14 16:09:17","新北市汐止區新江北路30巷15號","121.652656666667","25.0683333333333","6501100","汐止區"
"220029","287-VK","2018/02/14 16:09:12","新北市樹林區中山路三段210-2號","121.380628333333","24.9676366666667","6500100","板橋區"
