"lineid","car","time","location","longitude","latitude","cityid","cityname"
"248015","026-BX","2018/02/14 16:29:17","新北市五股區天乙路16號","121.448503333333","25.10348","6501500","五股區"
"241011","013-R5","2018/02/14 16:29:15","新北市三重區仁愛街53巷92號","121.498321666667","25.072365","6500200","三重區"
"241028","022-UY","2018/02/14 16:29:19","新北市三重區中正南路41巷1號","121.49382","25.059975","6500200","三重區"
"241008","059-VK","2018/02/14 16:29:18","新北市三重區永福街161巷8號","121.478266666667","25.0755366666667","6500200","三重區"
"241009","060-VK","2018/02/14 16:29:16","新北市三重區三和路四段203巷46號","121.483096666667","25.0797433333333","6500200","三重區"
"241031","061-VK","2018/02/14 16:29:18","新北市三重區重陽路一段97號","121.486741666667","25.0594016666667","6500200","三重區"
"241015","062-VK","2018/02/14 16:29:22","新北市三重區文化北路39巷2號","121.499201666667","25.0652533333333","6500200","三重區"
"241017","063-VK","2018/02/14 16:29:21","新北市三重區大同北路148巷2-2號","121.491663333333","25.0648633333333","6500200","三重區"
"241026","066-VK","2018/02/14 16:29:25","新北市三重區正義南路86巷2號","121.498938333333","25.05766","6500200","三重區"
"241002","090-VK","2018/02/14 16:29:21","新北市三重區仁義街237號","121.496383333333","25.082505","6500200","三重區"
"241005","262-UM","2018/02/14 16:29:31","新北市三重區溪尾街305號","121.487583333333","25.083715","6500200","三重區"
"241016","265-UM","2018/02/14 16:29:29","新北市三重區自強路一段160巷2弄28號","121.494861666667","25.0657916666667","6500200","三重區"
"241022","267-UM","2018/02/14 16:29:21","新北市三重區重陽路二段18巷6號","121.486515","25.0621083333333","6500200","三重區"
"241018","268-UM","2018/02/14 16:29:20","新北市三重區重陽路4段37-1號","121.491645","25.0698383333333","6500200","三重區"
"241032","269-UM","2018/02/14 16:29:19","新北市三重區三陽路100巷3弄13號","121.48299","25.0580733333333","6500200","三重區"
"241013","270-UM","2018/02/14 16:29:28","新北市三重區仁愛街50號","121.49604","25.0728283333333","6500200","三重區"
"241025","271-UM","2018/02/14 16:29:28","新北市三重區中正北路560巷100弄2號","121.472558333333","25.0682583333333","6500200","三重區"
"241007","398-BY","2018/02/14 16:29:16","新北市三重區溪尾街174號","121.488543333333","25.080545","6500200","三重區"
"241020","413-TH","2018/02/14 16:29:23","新北市三重區後竹圍街225號","121.484501666667","25.0714133333333","6500200","三重區"
"241004","475-VK","2018/02/14 16:29:22","新北市三重區仁愛街377巷134號","121.493726666667","25.081655","6500200","三重區"
"241024","478-VK","2018/02/14 16:29:09","新北市三重區中正北路193巷27號","121.476176666667","25.0706216666667","6500200","三重區"
"241030","480-VK","2018/02/14 16:29:32","新北市三重區成功路75號","121.48872","25.0510483333333","6500200","三重區"
"241014","543-UM","2018/02/14 16:29:22","新北市三重區龍濱路64號","121.502455","25.069285","6500200","三重區"
"241023","545-UM","2018/02/14 16:29:15","新北市三重區忠孝路三段84巷1號","121.480331666667","25.064675","6500200","三重區"
"241001","547-UM","2018/02/14 16:29:18","新北市三重區福隆路52號","121.492578333333","25.0786016666667","6500200","三重區"
"241019","KEA-2593","2018/02/14 16:29:16","新北市三重區安慶街315號","121.488261666667","25.0671866666667","6500200","三重區"
"241006","AAD-863","2018/02/14 16:29:29","新北市三重區力行路二段136巷23弄35號","121.48145","25.07641","6500200","三重區"
"241003","887-TS","2018/02/14 16:29:13","新北市三重區仁義街232號","121.494535","25.085045","6500200","三重區"
"241012","941-UM","2018/02/14 16:29:14","新北市三重區河邊北街200號","121.502298333333","25.074645","6500200","三重區"
"241029","942-UM","2018/02/14 16:29:23","新北市三重區集美街126巷36號","121.490416666667","25.0539283333333","6500200","三重區"
"241033","AAC-255","2018/02/14 16:29:09","新北市三重區重新路五段315號","121.478178333333","25.0493283333333","6500200","三重區"
"235030","003-UY","2018/02/14 16:29:30","新北市中和區廣福路12-1號","121.505523333333","25.002845","6500300","中和區"
"235004","150-BY","2018/02/14 16:29:08","新北市中和區保健路50巷2號","121.5103","24.9969833333333","6500300","中和區"
"235026","800-TS","2018/02/14 16:29:26","新北市中和區永和路163號","121.492871666667","25.0073166666667","6500300","中和區"
"235023","AAC-215","2018/02/14 16:29:20","新北市中和區員山路8-7號","121.484275","24.9823266666667","6500300","中和區"
"247007","341-TH","2018/02/14 16:29:29","新北市五股區中興路三段163號","121.449141666667","25.080685","6501400","蘆洲區"
"247004","336-TH","2018/02/14 16:04:29","新北市五股區中興路三段163號","121.449143333333","25.0807233333333","6501400","蘆洲區"
"224008","275-VK","2018/02/14 16:29:16","新北市瑞芳區民權街3-1號","121.809298333333","25.1083583333333","6501200","瑞芳區"
"224007","273-VK","2018/02/14 16:29:31","新北市瑞芳區瑞竹路87號","121.764186666667","25.103365","6501200","瑞芳區"
"224005","271-BY","2018/02/14 16:29:31","新北市瑞芳區瑞芳街32-10號","121.822428333333","25.1208533333333","6501200","瑞芳區"
"227001","642-TC","2018/02/14 16:29:23","新北市雙溪區上林里內平林120-2號","121.824463333333","25.0262533333333","6502500","雙溪區"
"227008","400-TW","2018/02/14 16:29:23","新北市雙溪區三港里雙澳路37-5號","121.872468333333","25.0507633333333","6502500","雙溪區"
"251013","179-VK","2018/02/14 16:28:43","新北市淡水區大溪8號","121.495045","25.19093","6501000","淡水區"
"251008","181-VK","2018/02/14 16:29:18","新北市淡水區樹梅坑14號","121.470946666667","25.1429433333333","6501000","淡水區"
"251015","182-VK","2018/02/14 16:29:25","新北市淡水區中正路二段38號","121.419536666667","25.1822966666667","6501000","淡水區"
"236079","166-UM","2018/02/14 16:29:17","新北市土城區福安街53號","121.418578333333","24.96439","6501300","土城區"
"236023","401-BY","2018/02/14 16:29:23","新北市土城區延吉街111巷12弄15-3號","121.47159","24.9849966666667","6501300","土城區"
"236054","AAC-216","2018/02/14 16:29:27","新北市土城區中華路一段182號","121.440833333333","24.9819433333333","6501300","土城區"
"238019","599-UM","2018/02/14 16:13:48","新北市樹林區育德街78號","121.387525","24.9684316666667","6500700","樹林區"
