"lineid","car","time","location","longitude","latitude","cityid","cityname"
"249005","172-UM","2018/02/14 17:09:20","新北市八里區大堀湖28號","121.418541666667","25.1460183333333","6502300","八里區"
"249001","173-UM","2018/02/14 17:09:23","新北市八里區中華路二段341-8號","121.398908333333","25.144745","6502300","八里區"
"249004","303-UY","2018/02/14 17:09:17","新北市八里區忠孝路181號","121.422991666667","25.160825","6502300","八里區"
"249002","305-UY","2018/02/14 17:09:11","新北市八里區米倉13-2號","121.43861","25.14956","6502300","八里區"
"249003","593-UM","2018/02/14 17:09:26","新北市八里區中山路二段548號","121.397295","25.1464833333333","6502300","八里區"
"244013","069-UM","2018/02/14 17:09:19","新北市林口區粉寮69號","121.405033333333","25.0908516666667","6501700","林口區"
"244007","080-UY","2018/02/14 17:09:23","新北市林口區菁埔37-8號","121.376641666667","25.097145","6501700","林口區"
"244019","402-UM","2018/02/14 17:09:26","新北市林口區四維路156-1號","121.38072","25.0752266666667","6501700","林口區"
"244023","483-VK","2018/02/14 17:09:29","新北市林口區仁愛路一段246號","121.395766666667","25.0758183333333","6501700","林口區"
"244017","485-VK","2018/02/14 17:09:18","新北市林口區粉寮69號","121.40497","25.0908916666667","6501700","林口區"
"244009","657-BX","2018/02/14 17:09:23","新北市林口區林口路296號","121.386336666667","25.08535","6501700","林口區"
"244011","701-TV","2018/02/14 17:09:16","新北市林口區粉寮路二段160巷28號","121.405201666667","25.090775","6501700","林口區"
"244025","837-TS","2018/02/14 17:09:31","新北市林口區中山路158號","121.390671666667","25.0787466666667","6501700","林口區"
"244021","838-TS","2018/02/14 17:09:26","新北市林口區粉寮35號","121.404281666667","25.0864516666667","6501700","林口區"
"241008","059-VK","2018/02/14 17:09:18","新北市三重區永福街179巷13號","121.478398333333","25.0749233333333","6500200","三重區"
"241009","060-VK","2018/02/14 17:09:16","新北市三重區仁愛街668號","121.482406666667","25.0803266666667","6500200","三重區"
"241031","061-VK","2018/02/14 17:09:18","新北市三重區重新路三段115巷2號","121.490631666667","25.06005","6500200","三重區"
"241015","062-VK","2018/02/14 17:09:22","新北市三重區長元街82-1號","121.501816666667","25.0663116666667","6500200","三重區"
"241017","063-VK","2018/02/14 17:09:22","新北市三重區國隆路8巷19號","121.492945","25.063535","6500200","三重區"
"241026","066-VK","2018/02/14 17:09:25","新北市三重區中央南路95巷25-3號","121.500355","25.0606766666667","6500200","三重區"
"241002","090-VK","2018/02/14 17:09:27","新北市三重區自強路五段58號","121.493673333333","25.0813133333333","6500200","三重區"
"241005","262-UM","2018/02/14 17:09:11","新北市三重區碧華街54號","121.483861666667","25.0814","6500200","三重區"
"241016","265-UM","2018/02/14 17:09:29","新北市三重區國隆路23號","121.493118333333","25.064235","6500200","三重區"
"241018","268-UM","2018/02/14 17:09:20","新北市三重區六張街126巷29號","121.49258","25.06846","6500200","三重區"
"241032","269-UM","2018/02/14 17:09:19","新北市三重區新北大道一段33號","121.486035","25.061285","6500200","三重區"
"241025","271-UM","2018/02/14 17:09:27","新北市三重區中正北路560巷39號","121.470858333333","25.0707516666667","6500200","三重區"
"241007","398-BY","2018/02/14 17:09:16","新北市三重區三和路四段135巷59號","121.487975","25.07909","6500200","三重區"
"241020","413-TH","2018/02/14 17:09:23","新北市三重區車路頭街66號","121.484258333333","25.0728116666667","6500200","三重區"
"241004","475-VK","2018/02/14 17:09:22","新北市三重區五華街98巷2號","121.49244","25.0822483333333","6500200","三重區"
"241024","478-VK","2018/02/14 17:09:29","新北市三重區中正北路317巷25號","121.475655","25.0729516666667","6500200","三重區"
"241030","480-VK","2018/02/14 17:09:11","新北市三重區集成路11號","121.488645","25.052075","6500200","三重區"
"241023","545-UM","2018/02/14 17:09:15","新北市三重區忠孝路三段99巷4號","121.480163333333","25.0642383333333","6500200","三重區"
"241001","547-UM","2018/02/14 17:09:15","新北市三重區仁政街9號","121.493381666667","25.07632","6500200","三重區"
"241019","KEA-2593","2018/02/14 17:09:15","新北市三重區力行路一段125號","121.48617","25.0683866666667","6500200","三重區"
"241006","AAD-863","2018/02/14 17:09:29","新北市三重區車路頭街135-1號","121.484325","25.0760333333333","6500200","三重區"
"241003","887-TS","2018/02/14 17:09:13","新北市三重區集賢路87-1號","121.493686666667","25.0868316666667","6500200","三重區"
"241012","941-UM","2018/02/14 17:09:14","新北市三重區仁壽街198號","121.500873333333","25.0747616666667","6500200","三重區"
"241033","AAC-255","2018/02/14 17:09:09","新北市三重區中興北街178號","121.468955","25.0577566666667","6500200","三重區"
"235046","733-UM","2018/02/14 16:52:51","新北市中和區員山路36巷13號","121.484168333333","24.9908183333333","6500300","中和區"
"247022","893-R6","2018/02/14 17:09:22","新北市蘆洲區三民路251號","121.468453333333","25.0893883333333","6501400","蘆洲區"
"247012","546-UM","2018/02/14 17:09:11","新北市蘆洲區信義路292巷6號","121.47808","25.0877066666667","6501400","蘆洲區"
"247020","500-BY","2018/02/14 17:09:14","新北市蘆洲區民族路422巷114弄55號","121.47204","25.0949316666667","6501400","蘆洲區"
"247008","341-TH","2018/02/14 17:09:29","新北市蘆洲區信義路30巷69號","121.474888333333","25.0777566666667","6501400","蘆洲區"
"247010","339-TH","2018/02/14 17:09:24","新北市蘆洲區民族路5號","121.47564","25.0839933333333","6501400","蘆洲區"
"247004","336-TH","2018/02/14 17:09:12","新北市蘆洲區長安街136-1號","121.46034","25.082015","6501400","蘆洲區"
"247016","057-VK","2018/02/14 17:09:12","新北市蘆洲區光華路73巷23號","121.468526666667","25.0821616666667","6501400","蘆洲區"
"247006","056-VK","2018/02/14 17:09:13","新北市蘆洲區長安街102巷47號","121.462345","25.0818316666667","6501400","蘆洲區"
"247014","007-UY","2018/02/14 17:09:18","新北市蘆洲區中央路61-4號","121.473403333333","25.0832633333333","6501400","蘆洲區"
"247024","002-UY","2018/02/14 17:09:21","新北市蘆洲區長興路52號","121.463456666667","25.0836233333333","6501400","蘆洲區"
"247018","001-UY","2018/02/14 17:09:18","新北市蘆洲區復興路182號","121.477861666667","25.0886016666667","6501400","蘆洲區"
"228003","097-TW","2018/02/14 17:09:18","新北市貢寮區福隆里東興街11號","121.950413333333","25.0182833333333","6502600","貢寮區"
"228001","212-TW","2018/02/14 17:09:27","新北市貢寮區仁理村研海街62-2號","121.925761666667","25.0431866666667","6502600","貢寮區"
"228002","585-TW","2018/02/14 17:09:26","新北市貢寮區貢寮里長泰路14號","121.90739","25.0194583333333","6502600","貢寮區"
"224009","285-BY","2018/02/14 17:09:27","新北市瑞芳區輕便路130號","121.844681666667","25.11231","6501200","瑞芳區"
"224008","275-VK","2018/02/14 17:09:16","新北市瑞芳區侯硐路59號","121.82942","25.0886283333333","6501200","瑞芳區"
"224007","273-VK","2018/02/14 17:09:11","新北市瑞芳區粗坑口路100-9號","121.759773333333","25.0993766666667","6501200","瑞芳區"
"224005","271-BY","2018/02/14 17:09:11","新北市瑞芳區鼻頭路177號","121.915721666667","25.1230183333333","6501200","瑞芳區"
"224006","201-TW","2018/02/14 17:09:23","新北市瑞芳區大寮路95-1號","121.77924","25.0988833333333","6501200","瑞芳區"
"227001","642-TC","2018/02/14 17:09:23","新北市雙溪區外柑里田寮1號","121.806696666667","25.017055","6502500","雙溪區"
"227008","400-TW","2018/02/14 17:09:23","新北市雙溪區三貂里子崙坑1-6號","121.849911666667","25.0574616666667","6502500","雙溪區"
"251009","008-UM","2018/02/14 17:09:18","新北市淡水區三民街20號","121.438996666667","25.1717433333333","6501000","淡水區"
"251004","009-UM","2018/02/14 17:09:01","新北市淡水區中正東路二段87-10號","121.459503333333","25.1526116666667","6501000","淡水區"
"251013","179-VK","2018/02/14 17:09:23","新北市淡水區桂花樹1-3號","121.482655","25.1963733333333","6501000","淡水區"
"251014","180-VK","2018/02/14 17:09:29","新北市淡水區八里堆7-5號","121.460191666667","25.22525","6501000","淡水區"
"251008","181-VK","2018/02/14 17:09:18","新北市淡水區樹梅坑7-6號","121.471925","25.1440583333333","6501000","淡水區"
"251015","182-VK","2018/02/14 17:09:25","新北市淡水區樹林口41號","121.471456666667","25.16825","6501000","淡水區"
"251010","413-VK","2018/02/14 17:09:11","新北市淡水區新市五路二段75號","121.431271666667","25.1982833333333","6501000","淡水區"
"251012","441-VK","2018/02/14 17:09:14","新北市淡水區沙崙路242號","121.425933333333","25.1849016666667","6501000","淡水區"
"251016","442-VK","2018/02/14 17:09:23","新北市淡水區社厝坑1號","121.476475","25.18886","6501000","淡水區"
"251005","443-VK","2018/02/14 17:09:12","新北市淡水區英專路111號","121.445835","25.1722683333333","6501000","淡水區"
"251006","561-UM","2018/02/14 17:09:27","新北市淡水區中正路22巷1-4號","121.43641","25.1732166666667","6501000","淡水區"
"251007","577-R6","2018/02/14 17:09:16","新北市淡水區中正東路二段153號","121.459858333333","25.1465666666667","6501000","淡水區"
"251011","650-BX","2018/02/14 17:09:24","新北市淡水區坪頂路50號","121.457958333333","25.1625966666667","6501000","淡水區"
"251003","766-UM","2018/02/14 17:09:27","新北市淡水區中正路二段31號","121.419438333333","25.18148","6501000","淡水區"
"242029","986-R7","2018/02/14 17:09:22","新北市新莊區中港一街153號","121.447568333333","25.045035","6500500","新莊區"
"242051","751-BX","2018/02/14 17:09:29","新北市新莊區新泰路357巷2-2號","121.441981666667","25.0411366666667","6500500","新莊區"
"242027","612-BX","2018/02/14 17:09:29","新北市新莊區新泰路255巷83號","121.442583333333","25.0392133333333","6500500","新莊區"
"242039","566-BX","2018/02/14 17:09:30","新北市新莊區新泰路357巷2-2號","121.442041666667","25.041335","6500500","新莊區"
"242044","497-BY","2018/02/14 17:09:15","新北市新莊區中正路400號","121.441655","25.0338533333333","6500500","新莊區"
"242048","441-UM","2018/02/14 17:09:26","新北市泰山區磚雅厝3號","121.442116666667","25.041625","6500500","新莊區"
"242054","440-UM","2018/02/14 17:09:12","新北市新莊區新泰路357巷3弄45號","121.44202","25.0402166666667","6500500","新莊區"
"242034","415-TV","2018/02/14 17:09:15","新北市新莊區新泰路357巷3弄57號","121.442135","25.0394516666667","6500500","新莊區"
"242042","400-BY","2018/02/14 17:09:26","新北市新莊區新泰路357巷3弄57號","121.442325","25.0393466666667","6500500","新莊區"
"242007","132-UY","2018/02/14 17:09:13","新北市新莊區三和路12-21號","121.441976666667","25.0387983333333","6500500","新莊區"
"242037","133-UY","2018/02/14 17:09:28","新北市新莊區新樹路4號","121.44093","25.0332066666667","6500500","新莊區"
"242021","135-UY","2018/02/14 17:09:11","新北市新莊區三和路12-21號","121.442038333333","25.0387666666667","6500500","新莊區"
"242009","173-VK","2018/02/14 17:05:41","新北市新莊區新泰路255巷83號","121.442155","25.038915","6500500","新莊區"
"242015","175-VK","2018/02/14 17:09:18","新北市新莊區三和路12-21號","121.442105","25.0387383333333","6500500","新莊區"
"242013","346-TH","2018/02/14 17:09:28","新北市泰山區信華一街5號","121.440916666667","25.04416","6500500","新莊區"
"242019","348-TH","2018/02/14 17:09:17","新北市新莊區新泰路357巷3弄57號","121.442113333333","25.0395466666667","6500500","新莊區"
"242056","349-TH","2018/02/14 17:09:23","新北市新莊區三和路12-12號","121.44185","25.0370566666667","6500500","新莊區"
"242017","350-TH","2018/02/14 17:09:30","新北市新莊區新泰路482號","121.442631666667","25.045675","6500500","新莊區"
"242011","351-TH","2018/02/14 17:09:13","新北市新莊區新泰路357巷3弄57號","121.441925","25.039565","6500500","新莊區"
"238015","755-BX","2018/02/14 17:09:17","新北市樹林區東佳路7號","121.406111666667","24.9805016666667","6500700","樹林區"
"238023","601-UM","2018/02/14 17:09:12","新北市樹林區大慶街156號","121.396951666667","25.01324","6500700","樹林區"
"238019","599-UM","2018/02/14 17:09:21","新北市樹林區八德街289號","121.422671666667","24.9787783333333","6500700","樹林區"
"238018","571-TV","2018/02/14 17:09:24","新北市樹林區博愛街215號","121.424038333333","24.9868516666667","6500700","樹林區"
"238024","5061-A6","2018/02/14 17:09:16","新北市樹林區鎮前街86巷12號","121.42523","24.9922533333333","6500700","樹林區"
"238021","KEA-2217","2018/02/14 17:09:29","新北市樹林區西圳街一段165巷22號","121.395938333333","24.9611383333333","6500700","樹林區"
"238022","KEA-2213","2018/02/14 17:09:27","新北市樹林區信義街17號","121.422836666667","24.9820416666667","6500700","樹林區"
"238025","303-VK","2018/02/14 17:09:30","新北市樹林區中山路一段296號","121.420353333333","24.98649","6500700","樹林區"
"238014","282-BY","2018/02/14 17:09:28","新北市樹林區長壽街70巷1弄17號","121.421156666667","24.9944866666667","6500700","樹林區"
"238020","268-VK","2018/02/14 17:09:21","新北市樹林區俊英街116巷41弄6號","121.42894","25.006545","6500700","樹林區"
"238026","172-UY","2018/02/14 17:09:19","新北市樹林區東豐街115號","121.405925","24.9744283333333","6500700","樹林區"
"238016","169-UY","2018/02/14 17:09:26","新北市樹林區長壽街2巷5-4號","121.42405","24.9935316666667","6500700","樹林區"
"239007","AAC-297","2018/02/14 17:09:21","新北市鶯歌區中正一路53號","121.35234","24.95398","6500800","鶯歌區"
"239006","891-R6","2018/02/14 17:09:15","新北市鶯歌區八德路2巷18弄4號","121.33662","24.9470633333333","6500800","鶯歌區"
"239008","527-UM","2018/02/14 17:09:26","新北市鶯歌區尖山路83號","121.348735","24.949345","6500800","鶯歌區"
"239005","526-UM","2018/02/14 17:09:27","新北市鶯歌區鶯桃路311號","121.333981666667","24.96101","6500800","鶯歌區"
"239001","417-VK","2018/02/14 17:09:16","新北市鶯歌區尖山路140巷6弄11號","121.346785","24.949195","6500800","鶯歌區"
"239003","360-BY","2018/02/14 17:09:16","新北市鶯歌區八德路50號","121.330171666667","24.956","6500800","鶯歌區"
"239004","193-VK","2018/02/14 17:09:20","新北市鶯歌區文化路324巷11弄2號","121.350371666667","24.9448133333333","6500800","鶯歌區"
