"lineid","car","time","location","longitude","latitude","cityid","cityname"
"234026","9371-KE","2018/02/14 18:09:18","新北市永和區秀朗路一段10巷21號","121.513298333333","25.0062583333333","6500400","永和區"
"249005","172-UM","2018/02/14 18:09:20","新北市八里區荖阡坑路17-3號","121.401886666667","25.1378816666667","6502300","八里區"
"249001","173-UM","2018/02/14 18:09:23","新北市八里區龍米路二段26號","121.44876","25.13953","6502300","八里區"
"249004","303-UY","2018/02/14 18:09:17","新北市八里區龍米路二段140巷26號","121.438023333333","25.1548333333333","6502300","八里區"
"249002","305-UY","2018/02/14 18:09:11","新北市八里區龍米路一段356巷46號","121.452136666667","25.1302416666667","6502300","八里區"
"249003","593-UM","2018/02/14 18:09:26","新北市八里區中華路二段249-3號","121.404156666667","25.148595","6502300","八里區"
"248006","077-UY","2018/02/14 18:09:13","新北市五股區中興路二段86號","121.4606","25.077385","6501500","五股區"
"248008","095-VK","2018/02/14 18:09:25","新北市蘆洲區永安南路二段294號","121.457231666667","25.081755","6501500","五股區"
"248018","225-UY","2018/02/14 18:09:31","新北市五股區成泰路三段59號","121.443271666667","25.0895833333333","6501500","五股區"
"248012","247-BX","2018/02/14 18:09:23","新北市五股區新五路三段6號","121.443743333333","25.086945","6501500","五股區"
"248004","677-BX","2018/02/14 18:09:24","新北市五股區工商路55號","121.439088333333","25.0839666666667","6501500","五股區"
"248002","678-BX","2018/02/14 18:09:11","新北市五股區成泰路三段146號","121.44431","25.0900116666667","6501500","五股區"
"248010","682-TV","2018/02/14 18:09:14","新北市五股區成泰路一段221號","121.434165","25.0777416666667","6501500","五股區"
"244013","069-UM","2018/02/14 18:09:19","新北市林口區中山路27號","121.395385","25.078285","6501700","林口區"
"244007","080-UY","2018/02/14 18:09:23","新北市林口區竹林路279號","121.389813333333","25.0813583333333","6501700","林口區"
"244019","402-UM","2018/02/14 18:09:26","新北市林口區麗園路185號","121.372218333333","25.066935","6501700","林口區"
"244023","483-VK","2018/02/14 18:09:29","新北市林口區東湖路105巷54號","121.384286666667","25.0715416666667","6501700","林口區"
"244017","485-VK","2018/02/14 18:09:18","新北市林口區文化一路一段21巷1號","121.369323333333","25.0694766666667","6501700","林口區"
"244009","657-BX","2018/02/14 18:09:23","新北市林口區寶林路23號","121.38619","25.0838533333333","6501700","林口區"
"244011","701-TV","2018/02/14 18:09:17","新北市林口區中正路100號","121.394013333333","25.0773233333333","6501700","林口區"
"244025","837-TS","2018/02/14 18:09:31","新北市林口區文化北路一段301-1號","121.360313333333","25.072795","6501700","林口區"
"244021","838-TS","2018/02/14 18:09:26","新北市林口區新寮27-5號","121.396581666667","25.0667466666667","6501700","林口區"
"243013","646-TV","2018/02/14 18:09:28","新北市泰山區南林路93號","121.415566666667","25.0511266666667","6501600","泰山區"
"222003","436-BY","2018/02/14 18:09:23","新北市深坑區阿柔洋57-1號","121.609818333333","24.9964416666667","6501800","深坑區"
"231056","3713-VJ","2018/02/14 18:09:23","新北市新店區安華路28-1號","121.519636666667","24.9606316666667","6500600","新店區"
"241001","091-VK","2018/02/14 17:44:28","新北市三重區重新路四段121號","121.484813333333","25.0518766666667","6500200","三重區"
"241024","156-TC","2018/02/14 18:09:20","新北市三重區力行路二段9巷5號","121.482601666667","25.0721316666667","6500200","三重區"
"241022","267-UM","2018/02/14 18:09:21","新北市三重區三民街131號","121.484906666667","25.0639983333333","6500200","三重區"
"241014","543-UM","2018/02/14 18:09:22","新北市三重區長壽街49號","121.50109","25.0682333333333","6500200","三重區"
"241023","545-UM","2018/02/14 18:09:15","新北市三重區忠孝路三段50巷56號","121.482398333333","25.0650266666667","6500200","三重區"
"241029","942-UM","2018/02/14 18:09:23","新北市三重區重安街81號","121.492413333333","25.0560333333333","6500200","三重區"
"235066","003-UY","2018/02/14 18:09:16","新北市中和區南山路7號","121.502091666667","24.9994383333333","6500300","中和區"
"235064","005-UY","2018/02/14 18:09:22","新北市中和區中正路275號","121.495483333333","24.9937416666667","6500300","中和區"
"235063","006-UY","2018/02/14 18:09:18","新北市中和區員山路36巷16-3號","121.485063333333","24.99137","6500300","中和區"
"235039","097-UM","2018/02/14 18:09:15","新北市中和區錦和路350-1號","121.490531666667","24.9935116666667","6500300","中和區"
"235065","098-UM","2018/02/14 18:09:17","新北市中和區莊敬路49巷18號","121.501633333333","25.006105","6500300","中和區"
"235040","150-BY","2018/02/14 18:09:30","新北市中和區錦和路350-1號","121.490593333333","24.993245","6500300","中和區"
"235058","151-BY","2018/02/14 18:09:13","新北市中和區圓通路367巷33弄59號","121.495843333333","24.9859783333333","6500300","中和區"
"235038","185-VK","2018/02/14 18:09:28","新北市中和區大智街18號","121.520443333333","24.9918633333333","6500300","中和區"
"235067","255-BX","2018/02/14 18:09:30","新北市中和區和城路一段271巷1號","121.485625","24.9918233333333","6500300","中和區"
"235072","301-VK","2018/02/14 18:09:27","新北市中和區中正路589巷1號","121.485868333333","24.9944383333333","6500300","中和區"
"235043","352-BY","2018/02/14 18:09:26","新北市中和區員山路36巷16-3號","121.485028333333","24.9913466666667","6500300","中和區"
"235061","378-QA","2018/02/14 18:09:13","新北市中和區連城路599號","121.478771666667","24.99327","6500300","中和區"
"235050","4979-A6","2018/02/14 18:09:16","新北市中和區錦和路350-1號","121.49019","24.99355","6500300","中和區"
"235069","4980-A6","2018/02/14 18:09:19","新北市中和區錦和路350-1號","121.490178333333","24.9934783333333","6500300","中和區"
"235042","551-UM","2018/02/14 18:09:15","新北市中和區錦和路216號","121.490465","24.993875","6500300","中和區"
"235045","565-BX","2018/02/14 18:09:13","新北市中和區錦和路350-1號","121.490186666667","24.9935216666667","6500300","中和區"
"235054","640-BX","2018/02/14 18:09:15","新北市中和區連城路607號","121.478473333333","24.9931383333333","6500300","中和區"
"235060","647-TV","2018/02/14 18:09:23","新北市中和區員山路36巷16-3號","121.484881666667","24.99156","6500300","中和區"
"235047","732-UM","2018/02/14 18:09:16","新北市中和區和城路一段271巷1號","121.485563333333","24.99161","6500300","中和區"
"235062","800-TS","2018/02/14 18:09:25","新北市中和區景平路999巷1號","121.495506666667","25.0059666666667","6500300","中和區"
"235057","801-TS","2018/02/14 18:09:24","新北市中和區員山路36巷16-2號","121.485325","24.9916016666667","6500300","中和區"
"235052","805-TS","2018/02/14 18:09:28","新北市中和區員山路36巷16-3號","121.484528333333","24.9911233333333","6500300","中和區"
"235053","900-TW","2018/02/14 18:09:21","新北市中和區員山路36巷16-2號","121.485148333333","24.9914916666667","6500300","中和區"
"235051","157-BY","2018/02/14 18:09:16","新北市中和區板南路128巷1號","121.502573333333","24.992635","6500300","中和區"
"235037","AAC-213","2018/02/14 18:09:13","新北市中和區景平路155號","121.513635","24.9921866666667","6500300","中和區"
"247022","893-R6","2018/02/14 18:09:22","新北市蘆洲區中正路516巷12號","121.462625","25.09812","6501400","蘆洲區"
"247012","546-UM","2018/02/14 18:09:31","新北市蘆洲區民族路184號","121.479893333333","25.0869183333333","6501400","蘆洲區"
"247020","500-BY","2018/02/14 18:09:22","新北市蘆洲區民義街35巷14號","121.471523333333","25.0896866666667","6501400","蘆洲區"
"247008","341-TH","2018/02/14 18:09:19","新北市蘆洲區成功路52號","121.472996666667","25.0797966666667","6501400","蘆洲區"
"247002","337-TH","2018/02/14 18:09:21","新北市蘆洲區永平街32巷57弄12號","121.459445","25.093125","6501400","蘆洲區"
"247004","335-TH","2018/02/14 18:09:31","新北市蘆洲區永康街75號","121.455796666667","25.0851916666667","6501400","蘆洲區"
"247006","057-VK","2018/02/14 18:09:31","新北市蘆洲區永安南路二段276號","121.458258333333","25.0808833333333","6501400","蘆洲區"
"247006","056-VK","2018/02/14 18:09:13","新北市蘆洲區永安南路二段92-1號","121.463743333333","25.07806","6501400","蘆洲區"
"247016","053-VK","2018/02/14 18:09:22","新北市蘆洲區中正路185巷3弄1號","121.46835","25.0853433333333","6501400","蘆洲區"
"247014","007-UY","2018/02/14 18:09:18","新北市蘆洲區三民路153號","121.471411666667","25.086625","6501400","蘆洲區"
"247024","002-UY","2018/02/14 18:09:27","新北市蘆洲區光復路30巷35號","121.46388","25.08418","6501400","蘆洲區"
"226004","312-R5","2018/02/14 18:09:17","新北市平溪區菁桐里菁桐街165號","121.72297","25.023435","6502400","平溪區"
"228003","097-TW","2018/02/14 18:09:18","新北市貢寮區真理里美艷山街6-2號","121.928818333333","25.0607416666667","6502600","貢寮區"
"228001","212-TW","2018/02/14 18:09:21","新北市貢寮區真理里新港街26巷55弄2-1號","121.92737","25.052855","6502600","貢寮區"
"228002","585-TW","2018/02/14 18:09:26","新北市貢寮區福連里福興街31號","121.991275","25.0107866666667","6502600","貢寮區"
"224002","639-TC","2018/02/14 18:09:30","新北市瑞芳區三爪子坑路64-36號","121.809001666667","25.1059233333333","6501200","瑞芳區"
"224009","285-BY","2018/02/14 18:09:27","新北市瑞芳區金光路298號","121.851626666667","25.10726","6501200","瑞芳區"
"224008","275-VK","2018/02/14 18:09:16","新北市瑞芳區員山子路3-9號","121.82028","25.10469","6501200","瑞芳區"
"224007","273-VK","2018/02/14 18:09:31","新北市瑞芳區四腳亭坑路2-4號","121.775996666667","25.10938","6501200","瑞芳區"
"224005","271-BY","2018/02/14 18:09:31","新北市瑞芳區建基路一段62巷40號","121.816571666667","25.1285833333333","6501200","瑞芳區"
"227001","642-TC","2018/02/14 18:09:24","新北市雙溪區共和里東榮街52號","121.866286666667","25.0335733333333","6502500","雙溪區"
"253005","032-BX","2018/02/14 18:09:23","新北市石門區福安街13號","121.568618333333","25.2927833333333","6502200","石門區"
"253006","295-VK","2018/02/14 18:09:29","新北市石門區老梅路52巷19號","121.546401666667","25.2886216666667","6502200","石門區"
"222001","KEA-2212","2018/02/14 18:09:27","新北市深坑區北深路二段190號","121.613911666667","25.002115","6501800","深坑區"
"208002","KEA-2872","2018/02/14 18:09:17","新北市金山區三界壇路97巷1號","121.619133333333","25.22739","6502700","金山區"
"208003","665-BX","2018/02/14 18:09:22","新北市金山區磺港里磺港路310號","121.644035","25.2277183333333","6502700","金山區"
"208001","761-BX","2018/02/14 18:09:19","新北市金山區磺港里磺港路112號","121.646235","25.2267283333333","6502700","金山區"
"251009","008-UM","2018/02/14 18:09:19","新北市淡水區大忠街34巷5號","121.443486666667","25.1756183333333","6501000","淡水區"
"251004","009-UM","2018/02/14 18:08:41","新北市淡水區民族路112巷28號","121.461983333333","25.1347633333333","6501000","淡水區"
"251013","179-VK","2018/02/14 18:09:23","新北市淡水區後寮4號","121.476026666667","25.1974416666667","6501000","淡水區"
"251014","180-VK","2018/02/14 18:09:29","新北市淡水區南平15號","121.488418333333","25.2191033333333","6501000","淡水區"
"251008","181-VK","2018/02/14 18:09:18","新北市淡水區中正東路二段7號","121.458126666667","25.1588433333333","6501000","淡水區"
"251015","182-VK","2018/02/14 18:09:25","新北市淡水區興福寮88巷1號","121.485643333333","25.1651116666667","6501000","淡水區"
"251010","413-VK","2018/02/14 18:09:11","新北市淡水區中正路二段50巷10號","121.419858333333","25.1833283333333","6501000","淡水區"
"251012","441-VK","2018/02/14 18:09:14","新北市淡水區北新路三段174號","121.492846666667","25.19281","6501000","淡水區"
"251016","442-VK","2018/02/14 18:09:19","新北市淡水區下圭柔山13號","121.451503333333","25.2013383333333","6501000","淡水區"
"251005","443-VK","2018/02/14 18:09:32","新北市淡水區水源街一段139號","121.447103333333","25.1719516666667","6501000","淡水區"
"251001","559-UM","2018/02/14 18:09:21","新北市淡水區自立路15巷1號","121.462811666667","25.130055","6501000","淡水區"
"251006","561-UM","2018/02/14 18:09:27","新北市淡水區新民街92號","121.438393333333","25.17679","6501000","淡水區"
"251011","650-BX","2018/02/14 18:09:24","新北市淡水區三空泉9-2號","121.474191666667","25.16326","6501000","淡水區"
"251002","672-BX","2018/02/14 18:09:13","新北市淡水區中正東路一段87-2號","121.452938333333","25.16191","6501000","淡水區"
"251003","766-UM","2018/02/14 18:09:27","新北市淡水區大忠街113巷18號","121.447225","25.1776683333333","6501000","淡水區"
"207003","550-UM","2018/02/14 18:09:17","新北市萬里區野柳里港西路11-1號","121.685065","25.2041816666667","6502800","萬里區"
"207004","225-TW","2018/02/14 18:09:25","新北市萬里區中幅里中福路111號","121.676486666667","25.1685616666667","6502800","萬里區"
"252003","249-BX","2018/02/14 18:09:21","新北市三芝區埔頭里埔頭39-1號","121.498988333333","25.2607333333333","6502100","三芝區"
"237004","KEA-2597","2018/02/14 18:09:20","新北市三峽區大埔路500號","121.372355","24.894015","6500900","三峽區"
"237007","153-BY","2018/02/14 18:09:31","新北市三峽區中正路二段418-1號","121.364708333333","24.9076116666667","6500900","三峽區"
"237009","210-TH","2018/02/14 18:09:23","新北市三峽區大仁路50巷13號","121.365275","24.938135","6500900","三峽區"
"237013","252-BX","2018/02/14 18:09:24","新北市三峽區長泰街70-2號","121.376761666667","24.9334566666667","6500900","三峽區"
"237012","275-BY","2018/02/14 18:08:43","新北市三峽區民生街1巷5-20號","121.378698333333","24.9358166666667","6500900","三峽區"
"237008","302-VK","2018/02/14 18:09:26","新北市三峽區白雞42-3號","121.37879","24.9114016666667","6500900","三峽區"
"237014","433-BY","2018/02/14 18:09:26","新北市三峽區復興路110巷1弄10號","121.372555","24.9382266666667","6500900","三峽區"
"237006","5529-G3","2018/02/14 18:09:15","新北市三峽區溪東路235號","121.406565","24.9326083333333","6500900","三峽區"
"237010","706-TV","2018/02/14 18:09:23","新北市三峽區民族街151號","121.368866666667","24.9280516666667","6500900","三峽區"
"237005","AKY-6261","2018/02/14 18:09:29","新北市三峽區民生街146巷19號","121.372175","24.9354733333333","6500900","三峽區"
"236079","166-UM","2018/02/14 18:09:20","新北市土城區永寧路32巷8號","121.429031666667","24.96074","6501300","土城區"
"236038","271-VK","2018/02/14 18:09:17","新北市土城區青雲路322巷2弄4號","121.458161666667","24.9772533333333","6501300","土城區"
"242029","986-R7","2018/02/14 18:09:22","新北市新莊區中平路59號","121.444763333333","25.0444783333333","6500500","新莊區"
"242051","751-BX","2018/02/14 18:09:28","新北市新莊區龍安路496號","121.426198333333","25.0171866666667","6500500","新莊區"
"242025","615-BX","2018/02/14 18:09:26","新北市新莊區五工路96號","121.4567","25.0644","6500500","新莊區"
"242023","613-BX","2018/02/14 18:09:16","新北市新莊區幸福路591號","121.45359","25.0492633333333","6500500","新莊區"
"242027","612-BX","2018/02/14 18:09:29","新北市新莊區福壽街59巷2號","121.457961666667","25.0492483333333","6500500","新莊區"
"242039","566-BX","2018/02/14 18:09:29","新北市新莊區民安西路88巷12弄2號","121.42596","25.020085","6500500","新莊區"
"242044","497-BY","2018/02/14 18:09:14","新北市新莊區中正路力行巷3號","121.416743333333","25.0263133333333","6500500","新莊區"
"242048","441-UM","2018/02/14 18:09:26","新北市新莊區萬安街5號","121.421705","25.0249083333333","6500500","新莊區"
"242054","440-UM","2018/02/14 18:09:32","新北市新莊區西盛街395巷29弄9號","121.428445","25.011965","6500500","新莊區"
"242034","415-TV","2018/02/14 18:09:15","新北市新莊區福海街24巷12號","121.445901666667","25.0340866666667","6500500","新莊區"
"242005","413-TV","2018/02/14 18:09:25","新北市新莊區福樂街72巷14號","121.458501666667","25.046545","6500500","新莊區"
"242042","400-BY","2018/02/14 18:09:26","新北市新莊區雙鳳路116巷15弄2號","121.413501666667","25.0291633333333","6500500","新莊區"
"242061","362-BY","2018/02/14 18:09:18","新北市新莊區新樹路186號","121.434235","25.0211683333333","6500500","新莊區"
"242058","353-BY","2018/02/14 18:09:20","新北市新莊區新北大道七段239號","121.412991666667","25.0297266666667","6500500","新莊區"
"242007","132-UY","2018/02/14 18:09:12","新北市新莊區自重街1號","121.45315","25.04765","6500500","新莊區"
"242037","133-UY","2018/02/14 18:09:27","新北市新莊區建福路48巷7號","121.426001666667","25.027405","6500500","新莊區"
"242021","135-UY","2018/02/14 18:09:31","新北市新莊區建中街2號","121.45","25.0375816666667","6500500","新莊區"
"242046","172-VK","2018/02/14 18:09:25","新北市新莊區福營路226號","121.42719","25.02932","6500500","新莊區"
"242009","173-VK","2018/02/14 18:09:34","新北市新莊區中華路二段250號","121.452675","25.05291","6500500","新莊區"
"242015","175-VK","2018/02/14 18:09:18","新北市新莊區中平路87巷3號","121.444411666667","25.0456766666667","6500500","新莊區"
"242001","176-VK","2018/02/14 18:09:27","新北市新莊區新莊路31號","121.458886666667","25.0374316666667","6500500","新莊區"
"242013","346-TH","2018/02/14 18:09:29","新北市新莊區中和街191巷51號","121.447025","25.0510666666667","6500500","新莊區"
"242019","348-TH","2018/02/14 18:09:24","新北市新莊區明中街41巷24號","121.45718","25.0384783333333","6500500","新莊區"
"242056","349-TH","2018/02/14 18:09:23","新北市新莊區豐年街124巷22號","121.445446666667","25.0299283333333","6500500","新莊區"
"242017","350-TH","2018/02/14 18:09:30","新北市新莊區中和街60巷3號","121.448153333333","25.0448166666667","6500500","新莊區"
"242011","351-TH","2018/02/14 18:09:13","新北市新莊區中信街94巷11號","121.448451666667","25.05368","6500500","新莊區"
"238015","755-BX","2018/02/14 18:09:32","新北市樹林區啟智街86巷12號","121.418318333333","24.9908716666667","6500700","樹林區"
"238019","599-UM","2018/02/14 18:09:21","新北市樹林區國凱街160號","121.424463333333","24.9808183333333","6500700","樹林區"
"238018","571-TV","2018/02/14 18:09:24","新北市樹林區樹新路227號","121.431285","25.0005283333333","6500700","樹林區"
"238021","KEA-2217","2018/02/14 18:09:29","新北市樹林區田尾街82號","121.408945","24.9581266666667","6500700","樹林區"
"238025","303-VK","2018/02/14 18:09:10","新北市樹林區中正路653號","121.412418333333","25.0128483333333","6500700","樹林區"
"238017","283-BY","2018/02/14 18:09:29","新北市樹林區三俊街140號","121.41633","25.01487","6500700","樹林區"
"238014","282-BY","2018/02/14 18:09:11","新北市樹林區潭興街107巷21弄18號","121.423848333333","24.9987316666667","6500700","樹林區"
"238026","172-UY","2018/02/14 18:09:19","新北市樹林區中山路三段125-10號","121.39739","24.9733566666667","6500700","樹林區"
"239007","AAC-297","2018/02/14 18:09:21","新北市鶯歌區永樂街36號","121.341885","24.9540233333333","6500800","鶯歌區"
"239006","891-R6","2018/02/14 18:09:15","新北市鶯歌區鶯桃路413巷34弄4號","121.330995","24.9635666666667","6500800","鶯歌區"
"239008","527-UM","2018/02/14 18:09:26","新北市鶯歌區欣欣街4號","121.335713333333","24.9774783333333","6500800","鶯歌區"
"239005","526-UM","2018/02/14 18:09:27","新北市鶯歌區鶯桃路213-1號","121.336958333333","24.9590083333333","6500800","鶯歌區"
"239001","417-VK","2018/02/14 18:09:16","新北市鶯歌區中正三路33號","121.339125","24.9423483333333","6500800","鶯歌區"
"239003","360-BY","2018/02/14 18:09:16","新北市鶯歌區鶯桃路213-1號","121.336925","24.959145","6500800","鶯歌區"
"221008","489-VK","2018/02/14 18:09:11","新北市汐止區明峰街179-1號","121.62872","25.0699666666667","6501100","汐止區"
"221036","130-UY","2018/02/14 18:09:12","新北市汐止區大同路三段271號","121.673733333333","25.075595","6501100","汐止區"
"221015","131-UY","2018/02/14 18:09:28","新北市汐止區長江街361號","121.667808333333","25.0823183333333","6501100","汐止區"
"221010","269-BY","2018/02/14 18:09:20","新北市汐止區汐萬路二段245巷37號","121.64383","25.0876683333333","6501100","汐止區"
"221012","278-VK","2018/02/14 18:09:19","新北市汐止區保一街39號","121.67422","25.079985","6501100","汐止區"
"221023","279-VK","2018/02/14 18:09:18","新北市汐止區民族五街74-1號","121.627986666667","25.0702383333333","6501100","汐止區"
"221032","280-BY","2018/02/14 18:09:17","新北市汐止區橫科路73巷2-2號","121.619405","25.0506616666667","6501100","汐止區"
"221027","281-BY","2018/02/14 18:09:15","新北市汐止區大同路二段532號","121.661308333333","25.0685566666667","6501100","汐止區"
"221029","298-VK","2018/02/14 18:09:24","新北市汐止區樟樹二路134號","121.639951666667","25.0657633333333","6501100","汐止區"
"221021","299-VK","2018/02/14 18:09:14","新北市汐止區復興路9號","121.655845","25.0646133333333","6501100","汐止區"
"221031","353-TW","2018/02/14 18:09:30","新北市汐止區中興路181號","121.630251666667","25.0667316666667","6501100","汐止區"
"221035","622-UM","2018/02/14 18:09:20","新北市汐止區新江北路17號","121.652861666667","25.0705716666667","6501100","汐止區"
"221025","623-UM","2018/02/14 18:09:25","新北市汐止區勤進路3巷27號","121.661051666667","25.0617166666667","6501100","汐止區"
"221038","646-BX","2018/02/14 18:09:22","新北市汐止區南興路83巷1號","121.652801666667","25.0590666666667","6501100","汐止區"
"221033","647-BX","2018/02/14 18:09:12","新北市汐止區宜興街10巷21號","121.62205","25.04079","6501100","汐止區"
"221002","707-TV","2018/02/14 18:09:17","新北市汐止區福德一路253號","121.633548333333","25.0645783333333","6501100","汐止區"
"221018","753-BX","2018/02/14 18:09:17","新北市汐止區忠孝東路384號","121.665491666667","25.070135","6501100","汐止區"
"242032","280-VK","2018/02/14 18:09:24","新北市新莊區新泰路289巷30號","121.444163333333","25.040585","6500500","新莊區"
