"lineid","car","time","location","longitude","latitude","cityid","cityname"
"234044","148-BY","2018/02/14 19:19:15","新北市永和區秀朗路二段148巷5弄2號","121.525365","25.000755","6500400","永和區"
"234067","149-BY","2018/02/14 19:19:31","新北市永和區保平路18巷12號","121.512156666667","25.007915","6500400","永和區"
"234007","207-UY","2018/02/14 19:19:21","新北市永和區中山路一段322號","121.50633","25.0067933333333","6500400","永和區"
"234081","298-R6","2018/02/14 19:19:24","新北市永和區福和路57巷14弄2號","121.522893333333","25.00706","6500400","永和區"
"234038","336-UY","2018/02/14 19:19:19","新北市永和區民樂街55巷2號","121.527595","24.9984016666667","6500400","永和區"
"234064","337-UY","2018/02/14 19:19:14","新北市永和區永元路17巷8號","121.52161","25.00053","6500400","永和區"
"234086","338-UY","2018/02/14 19:19:25","新北市永和區永貞路47-1號","121.51968","25.0046283333333","6500400","永和區"
"234070","552-UM","2018/02/14 19:18:58","新北市永和區豫溪街135號","121.519693333333","25.0102033333333","6500400","永和區"
"234017","745-BX","2018/02/14 19:19:19","新北市永和區文化路144巷31弄8號","121.5124","25.016755","6500400","永和區"
"234030","746-BX","2018/02/14 19:19:29","新北市永和區厚德街101號","121.523298333333","24.9989316666667","6500400","永和區"
"234054","KEA-2590","2018/02/14 19:19:26","新北市永和區中興街50號","121.516716666667","25.01163","6500400","永和區"
"234013","KEA-2591","2018/02/14 19:19:15","新北市永和區保福路二段48號","121.511001666667","25.01207","6500400","永和區"
"234061","AAD-866","2018/02/14 19:19:22","新北市永和區安樂路320號","121.514451666667","25.0056166666667","6500400","永和區"
"234042","862-TW","2018/02/14 19:19:27","新北市永和區永貞路285號","121.51114","25.0053916666667","6500400","永和區"
"234050","863-TW","2018/02/14 19:19:32","新北市永和區保福路二段94巷8號","121.510651666667","25.013705","6500400","永和區"
"234026","9371-KE","2018/02/14 19:19:18","新北市永和區安樂路198巷4弄2號","121.515613333333","25.0019983333333","6500400","永和區"
"234023","9381-KE","2018/02/14 19:19:14","新北市永和區中興街52巷3弄4號","121.517286666667","25.0109966666667","6500400","永和區"
"234011","9373-KE","2018/02/14 19:19:17","新北市永和區保生路55-1號","121.504465","25.010885","6500400","永和區"
"249001","173-UM","2018/02/14 19:19:23","新北市八里區中華路一段300號","121.414853333333","25.1547933333333","6502300","八里區"
"249004","303-UY","2018/02/14 19:19:17","新北市林口區汕頭32號","121.366418333333","25.13499","6502300","八里區"
"249003","593-UM","2018/02/14 19:19:32","新北市八里區中山路二段446號","121.39947","25.147445","6502300","八里區"
"248018","225-UY","2018/02/14 19:19:12","新北市五股區壟路1-10號","121.418111666667","25.0945616666667","6501500","五股區"
"248004","677-BX","2018/02/14 19:19:21","新北市五股區五福路40號","121.433908333333","25.0892466666667","6501500","五股區"
"248002","678-BX","2018/02/14 19:19:31","新北市五股區凌雲路一段158巷14-1號","121.447838333333","25.1034316666667","6501500","五股區"
"248010","682-TV","2018/02/14 19:19:14","新北市五股區水碓一路23號","121.430623333333","25.07128","6501500","五股區"
"234077","969-R7","2018/02/14 19:19:16","新北市永和區民權路3號","121.520271666667","24.998265","6500400","永和區"
"234074","AAC-211","2018/02/14 19:19:24","新北市永和區竹林路94-1號","121.5195","25.0122683333333","6500400","永和區"
"234003","AAC-295","2018/02/14 19:19:30","新北市永和區永平路148號","121.511435","25.0085716666667","6500400","永和區"
"244013","069-UM","2018/02/14 19:19:18","新北市林口區麗園一街11巷7號","121.378086666667","25.0706183333333","6501700","林口區"
"244007","080-UY","2018/02/14 19:19:22","新北市林口區太平嶺26-2號","121.376356666667","25.1167883333333","6501700","林口區"
"244019","402-UM","2018/02/14 19:19:26","新北市林口區麗園二街33巷6號","121.380345","25.0694083333333","6501700","林口區"
"244023","483-VK","2018/02/14 19:19:29","新北市林口區民權路12巷5號","121.371648333333","25.079875","6501700","林口區"
"244017","485-VK","2018/02/14 19:19:18","新北市林口區仁愛路二段381號","121.370008333333","25.0802416666667","6501700","林口區"
"244009","657-BX","2018/02/14 19:19:23","新北市林口區竹林路320巷17號","121.391276666667","25.08201","6501700","林口區"
"244011","701-TV","2018/02/14 19:19:16","新北市林口區竹林路56號","121.387438333333","25.078085","6501700","林口區"
"244025","837-TS","2018/02/14 19:19:30","新北市林口區民族路203號","121.367135","25.0765183333333","6501700","林口區"
"243011","297-R6","2018/02/14 19:19:33","新北市泰山區新民路14巷1號","121.426638333333","25.0446183333333","6501600","泰山區"
"243015","380-SR","2018/02/14 19:19:19","新北市泰山區明志路一段485號","121.430836666667","25.055335","6501600","泰山區"
"243014","421-VK","2018/02/14 19:19:17","新北市泰山區泰林路二段253號","121.431768333333","25.06222","6501600","泰山區"
"243012","539-UM","2018/02/14 19:19:27","新北市泰山區明志路一段385號","121.430818333333","25.0576583333333","6501600","泰山區"
"243010","KEA-2215","2018/02/14 19:19:34","新北市泰山區明志路一段458巷9號","121.43012","25.0557566666667","6501600","泰山區"
"243009","KEA-2216","2018/02/14 19:19:32","新北市泰山區和平街4號","121.434165","25.0645166666667","6501600","泰山區"
"243013","646-TV","2018/02/14 19:19:28","新北市泰山區明志路三段145巷2弄15號","121.425173333333","25.0393033333333","6501600","泰山區"
"243016","680-BX","2018/02/14 19:19:28","新北市泰山區明志路三段44號","121.424891666667","25.0424983333333","6501600","泰山區"
"222001","016-RS","2018/02/14 19:19:11","新北市深坑區深南路51-1號","121.62113","25.00992","6501800","深坑區"
"222003","436-BY","2018/02/14 19:19:23","新北市深坑區深南路204號","121.62659","25.0160816666667","6501800","深坑區"
"222002","659-BX","2018/02/14 19:19:30","新北市深坑區紅葉街2號","121.633168333333","25.0113516666667","6501800","深坑區"
"231041","002-UM","2018/02/14 19:19:26","新北市新店區溪園路245-6號","121.525433333333","24.9833066666667","6500600","新店區"
"231056","3713-VJ","2018/02/14 19:19:23","新北市新店區大豐路68巷40號","121.538258333333","24.9803016666667","6500600","新店區"
"231066","AKT-0513","2018/02/14 19:19:24","新北市新店區安康路三段195號","121.487945","24.9516233333333","6500600","新店區"
"241011","013-R5","2018/02/14 19:19:15","新北市三重區三和路二段220號","121.497938333333","25.0695216666667","6500200","三重區"
"241008","059-VK","2018/02/14 19:19:18","新北市三重區永福街126號","121.479503333333","25.075125","6500200","三重區"
"241009","060-VK","2018/02/14 19:19:16","新北市三重區三和路四段390巷61號","121.479295","25.0784883333333","6500200","三重區"
"241017","063-VK","2018/02/14 19:19:21","新北市三重區長壽西街176號","121.492991666667","25.0662916666667","6500200","三重區"
"241026","066-VK","2018/02/14 19:19:30","新北市三重區中正南路242號","121.493521666667","25.0541066666667","6500200","三重區"
"241001","091-VK","2018/02/14 19:19:30","新北市三重區信義西街1號","121.498143333333","25.0647716666667","6500200","三重區"
"241024","156-TC","2018/02/14 19:19:20","新北市三重區力行路二段4號","121.481601666667","25.0718516666667","6500200","三重區"
"241005","262-UM","2018/02/14 19:19:31","新北市三重區溪尾街325巷22號","121.488771666667","25.0838133333333","6500200","三重區"
"241018","268-UM","2018/02/14 19:19:19","新北市三重區雙園街59號","121.494535","25.0675616666667","6500200","三重區"
"241032","269-UM","2018/02/14 19:19:15","新北市三重區三陽路39號","121.485243333333","25.0588166666667","6500200","三重區"
"241007","398-BY","2018/02/14 19:19:15","新北市三重區溪尾街120巷11號","121.489035","25.07905","6500200","三重區"
"241020","413-TH","2018/02/14 19:19:30","新北市三重區忠孝路一段101號","121.489381666667","25.0721433333333","6500200","三重區"
"241030","480-VK","2018/02/14 19:19:11","新北市三重區成功路143號","121.487031666667","25.051955","6500200","三重區"
"241001","547-UM","2018/02/14 19:19:15","新北市三重區自強路四段3巷25號","121.48981","25.0762133333333","6500200","三重區"
"241019","KEA-2593","2018/02/14 19:19:15","新北市三重區力行路一段89巷7號","121.486731666667","25.0683433333333","6500200","三重區"
"241006","AAD-863","2018/02/14 19:19:17","新北市三重區永福街293號","121.483656666667","25.07458","6500200","三重區"
"241029","942-UM","2018/02/14 19:19:23","新北市三重區重安街70-45號","121.49185","25.05719","6500200","三重區"
"241033","AAC-255","2018/02/14 19:13:13","新北市三重區五谷王北街42巷2號","121.475686666667","25.048685","6500200","三重區"
"235064","005-UY","2018/02/14 19:19:22","新北市中和區泰和街38巷33號","121.498445","25.0012416666667","6500300","中和區"
"235056","096-UM","2018/02/14 19:19:32","新北市中和區中正路1171號","121.48131","25.0095816666667","6500300","中和區"
"235039","097-UM","2018/02/14 19:19:15","新北市中和區秀朗路三段179號","121.52444","24.9908983333333","6500300","中和區"
"235065","098-UM","2018/02/14 19:19:17","新北市中和區中山路二段136巷8號","121.50196","25.0038466666667","6500300","中和區"
"235058","151-BY","2018/02/14 19:19:13","新北市中和區員山路143巷6號","121.480638333333","24.9961983333333","6500300","中和區"
"235055","183-VK","2018/02/14 19:19:13","新北市中和區德光路92-2號","121.468846666667","25.0035283333333","6500300","中和區"
"235049","186-VK","2018/02/14 19:19:22","新北市中和區景新街235號","121.508046666667","24.9945683333333","6500300","中和區"
"235067","255-BX","2018/02/14 19:19:30","新北市中和區民樂路81號","121.484901666667","25.0012533333333","6500300","中和區"
"235044","293-VK","2018/02/14 19:19:30","新北市中和區復興路303號","121.501436666667","24.9902816666667","6500300","中和區"
"235072","301-VK","2018/02/14 19:19:27","新北市中和區連城路199號","121.49465","24.9979983333333","6500300","中和區"
"235043","352-BY","2018/02/14 19:19:26","新北市中和區景平路166號","121.517068333333","24.992285","6500300","中和區"
"235061","378-QA","2018/02/14 19:19:33","新北市中和區員山路394巷12弄2號","121.481138333333","25.00436","6500300","中和區"
"235071","269-TV","2018/02/14 19:19:24","新北市中和區中正路637巷52弄1號","121.485565","24.9938283333333","6500300","中和區"
"235050","4979-A6","2018/02/14 19:19:16","新北市中和區復興路280巷42號","121.50123","24.9919116666667","6500300","中和區"
"235042","551-UM","2018/02/14 19:19:15","新北市中和區成功路129號","121.525888333333","24.9906916666667","6500300","中和區"
"235070","558-UM","2018/02/14 19:19:24","新北市中和區中和路12號","121.499531666667","25.0021016666667","6500300","中和區"
"235045","565-BX","2018/02/14 19:19:13","新北市中和區景新街437巷2弄1號","121.513585","24.98903","6500300","中和區"
"235054","640-BX","2018/02/14 19:19:15","新北市中和區民德路150號","121.468616666667","25.000125","6500300","中和區"
"235060","647-TV","2018/02/14 19:19:22","新北市中和區民有街7-2號","121.475625","25.0056283333333","6500300","中和區"
"235047","732-UM","2018/02/14 19:19:15","新北市中和區和平街54巷7號","121.508975","24.9915","6500300","中和區"
"235046","733-UM","2018/02/14 19:19:28","新北市中和區忠孝街2巷19弄2號","121.510841666667","24.9813716666667","6500300","中和區"
"235057","801-TS","2018/02/14 19:19:24","新北市中和區民利街80號","121.47815","24.99821","6500300","中和區"
"235052","805-TS","2018/02/14 19:19:28","新北市中和區興南路二段142巷19弄19-1號","121.502505","24.9833333333333","6500300","中和區"
"235048","896-TW","2018/02/14 19:19:21","新北市中和區忠孝街66號","121.511948333333","24.9839766666667","6500300","中和區"
"235053","900-TW","2018/02/14 19:19:21","新北市中和區華安街30巷16-1號","121.466911666667","24.9973466666667","6500300","中和區"
"235051","157-BY","2018/02/14 19:19:16","新北市中和區興南路一段85巷29號","121.510173333333","24.9882433333333","6500300","中和區"
"235037","AAC-213","2018/02/14 19:19:13","新北市中和區秀朗路三段50巷6弄1號","121.525256666667","24.99531","6500300","中和區"
"235059","AAC-215","2018/02/14 19:19:27","新北市中和區錦和路195巷14號","121.491313333333","24.99088","6500300","中和區"
"220068","013-TV","2018/02/14 19:19:21","新北市板橋區三民路一段1巷49-1號","121.480858333333","25.024835","6500100","板橋區"
"220069","015-TV","2018/02/14 19:19:22","新北市板橋區四川路一段102號","121.459516666667","25.0046766666667","6500100","板橋區"
"220065","072-UY","2018/02/14 19:19:27","新北市板橋區民族路170巷16號","121.467046666667","25.0072216666667","6500100","板橋區"
"220086","073-UY","2018/02/14 19:19:14","新北市板橋區國光路179號","121.460723333333","25.0184766666667","6500100","板橋區"
"220106","075-UY","2018/02/14 19:19:20","新北市板橋區雙十路三段70巷1號","121.470255","25.0324516666667","6500100","板橋區"
"247004","337-TH","2018/02/14 19:19:21","新北市蘆洲區永平街6號","121.459821666667","25.0906166666667","6501400","蘆洲區"
"247002","335-TH","2018/02/14 19:08:37","新北市五股區中興路三段163號","121.449225","25.0807233333333","6501400","蘆洲區"
"247006","057-VK","2018/02/14 18:59:11","新北市五股區中興路三段163號","121.449158333333","25.0809966666667","6501400","蘆洲區"
"226004","312-R5","2018/02/14 19:19:17","新北市平溪區南山里南山坪58號","121.775983333333","25.04018","6502400","平溪區"
"235041","251-BX","2018/02/14 19:19:15","新北市中和區景安路9號","121.508063333333","24.99896","6500300","中和區"
"228003","097-TW","2018/02/14 19:19:18","新北市貢寮區和美里和美街22-1號","121.912775","25.0826533333333","6502600","貢寮區"
"228001","212-TW","2018/02/14 19:19:21","新北市貢寮區真理里新港街10號","121.925513333333","25.0544033333333","6502600","貢寮區"
"228002","585-TW","2018/02/14 19:19:26","新北市貢寮區雙玉里田寮洋街21號","121.92649","25.024455","6502600","貢寮區"
"224010","AGQ-8101","2018/02/14 19:19:27","新北市瑞芳區基山街41-1號","121.84551","25.1089666666667","6501200","瑞芳區"
"224006","676-BX","2018/02/14 19:19:28","新北市瑞芳區東和路9號","121.804633333333","25.1061066666667","6501200","瑞芳區"
"224009","285-BY","2018/02/14 19:19:26","新北市瑞芳區長仁路40號","121.8645","25.118585","6501200","瑞芳區"
"224008","272-VK","2018/02/14 19:19:18","新北市瑞芳區瑞芳街118號","121.801518333333","25.1109033333333","6501200","瑞芳區"
"224005","271-BY","2018/02/14 19:19:31","新北市瑞芳區三爪子坑路45號","121.81305","25.1074216666667","6501200","瑞芳區"
"227001","642-TC","2018/02/14 19:19:23","新北市雙溪區平林里梅竹蹊66-1號","121.860143333333","25.03583","6502500","雙溪區"
"227008","400-TW","2018/02/14 19:19:28","新北市雙溪區新基里中華路10號","121.866563333333","25.0366316666667","6502500","雙溪區"
"253005","032-BX","2018/02/14 19:19:23","新北市石門區阿里荖10-1號","121.608616666667","25.2800633333333","6502200","石門區"
"253006","295-VK","2018/02/14 19:19:29","新北市石門區楓林18號","121.536533333333","25.2910183333333","6502200","石門區"
"222001","KEA-2212","2018/02/14 19:19:27","新北市深坑區北深路二段84號","121.617506666667","25.003505","6501800","深坑區"
"208002","KEA-2872","2018/02/14 19:19:22","新北市金山區中正路101號","121.632955","25.221635","6502700","金山區"
"208003","665-BX","2018/02/14 19:19:22","新北市金山區中山路165號","121.638708333333","25.2206516666667","6502700","金山區"
"208001","761-BX","2018/02/14 19:19:19","新北市金山區中山路121號","121.639355","25.2197316666667","6502700","金山區"
"251009","008-UM","2018/02/14 19:19:18","新北市淡水區中正路25號","121.442578333333","25.1696133333333","6501000","淡水區"
"251013","179-VK","2018/02/14 19:19:23","新北市淡水區安子內12號","121.481533333333","25.219075","6501000","淡水區"
"251014","180-VK","2018/02/14 19:19:29","新北市淡水區小中寮19-7號","121.484765","25.2296783333333","6501000","淡水區"
"251015","182-VK","2018/02/14 19:19:25","新北市淡水區南勢埔27-2號","121.48337","25.1806233333333","6501000","淡水區"
"251010","413-VK","2018/02/14 19:19:30","新北市淡水區沙崙路23號","121.421428333333","25.1814666666667","6501000","淡水區"
"251012","441-VK","2018/02/14 19:19:33","新北市淡水區中山北路三段161號","121.444211666667","25.1970333333333","6501000","淡水區"
"251016","442-VK","2018/02/14 19:19:19","新北市淡水區淡金路三段350巷18號","121.450716666667","25.2083733333333","6501000","淡水區"
"251005","443-VK","2018/02/14 19:19:32","新北市淡水區水源街一段29號","121.443266666667","25.172475","6501000","淡水區"
"251001","559-UM","2018/02/14 19:19:21","新北市淡水區自強路279-1號","121.461341666667","25.12797","6501000","淡水區"
"251003","766-UM","2018/02/14 19:19:27","新北市淡水區中山路190號","121.441461666667","25.1745533333333","6501000","淡水區"
"207003","550-UM","2018/02/14 19:19:17","新北市萬里區大鵬里萬里加投79-3號","121.647365","25.2123566666667","6502800","萬里區"
"207004","225-TW","2018/02/14 19:19:25","新北市萬里區萬里里瑪鋉路2-1號","121.687591666667","25.17493","6502800","萬里區"
"237004","KEA-2597","2018/02/14 19:19:20","新北市三峽區有木205-1號","121.439063333333","24.85151","6500900","三峽區"
"237007","153-BY","2018/02/14 19:19:27","新北市三峽區二鬮路178號","121.35906","24.9068533333333","6500900","三峽區"
"237009","210-TH","2018/02/14 19:19:23","新北市三峽區和平街2-1號","121.37043","24.9354366666667","6500900","三峽區"
"237013","252-BX","2018/02/14 19:19:24","新北市三峽區介壽路一段276巷88弄23號","121.378778333333","24.92845","6500900","三峽區"
"237012","275-BY","2018/02/14 19:19:23","新北市三峽區三樹路100號","121.37865","24.9387933333333","6500900","三峽區"
"237008","302-VK","2018/02/14 19:19:26","新北市三峽區大同路102號","121.374491666667","24.9270083333333","6500900","三峽區"
"237014","433-BY","2018/02/14 19:19:26","新北市三峽區中山路257巷39號","121.362056666667","24.9364066666667","6500900","三峽區"
"237006","5529-G3","2018/02/14 19:19:15","新北市三峽區橫溪路126號","121.398718333333","24.93536","6500900","三峽區"
"237010","706-TV","2018/02/14 19:19:23","新北市三峽區民生街60號","121.375226666667","24.9362916666667","6500900","三峽區"
"237005","AKY-6261","2018/02/14 19:19:29","新北市三峽區中山路459巷42號","121.357015","24.93731","6500900","三峽區"
"236079","166-UM","2018/02/14 19:19:20","新北市土城區城林路6巷80號","121.438591666667","24.9797433333333","6501300","土城區"
"236015","270-VK","2018/02/14 19:19:31","新北市土城區學府路一段97號","121.456206666667","24.9879333333333","6501300","土城區"
"236023","401-BY","2018/02/14 19:19:23","新北市土城區延吉街146號","121.469123333333","24.98562","6501300","土城區"
"236054","AAC-216","2018/02/14 19:19:21","新北市土城區學府路一段276號","121.449965","24.98307","6501300","土城區"
"242061","705-TV","2018/02/14 19:19:22","新北市新莊區瓊林南路77-41號","121.437731666667","25.0122183333333","6500500","新莊區"
"242046","172-VK","2018/02/14 19:19:25","新北市新莊區民安路16-27號","121.422478333333","25.0281516666667","6500500","新莊區"
"242011","351-TH","2018/02/14 19:19:21","新北市新莊區中榮街58號","121.44912","25.052815","6500500","新莊區"
"238015","755-BX","2018/02/14 19:19:16","新北市樹林區復興路277號","121.418943333333","24.9893383333333","6500700","樹林區"
"238023","601-UM","2018/02/14 19:19:12","新北市樹林區龍興街14巷29號","121.4017","25.0156166666667","6500700","樹林區"
"238019","599-UM","2018/02/14 19:19:21","新北市樹林區東榮街63號","121.417201666667","24.9831416666667","6500700","樹林區"
"238024","5061-A6","2018/02/14 19:19:16","新北市樹林區中山路三段36號","121.395033333333","24.9726333333333","6500700","樹林區"
"238021","KEA-2217","2018/02/14 19:19:29","新北市樹林區柑園街二段388巷8號","121.367446666667","24.9488883333333","6500700","樹林區"
"238022","KEA-2213","2018/02/14 19:19:27","新北市樹林區中山路二段125號","121.407696666667","24.97958","6500700","樹林區"
"238025","303-VK","2018/02/14 19:19:30","新北市樹林區中山路三段171號","121.394795","24.9725183333333","6500700","樹林區"
"238017","283-BY","2018/02/14 19:19:29","新北市樹林區中山路三段125-2號","121.397003333333","24.9734183333333","6500700","樹林區"
"238020","268-VK","2018/02/14 19:19:21","新北市樹林區俊安街31巷15號","121.420991666667","25.01373","6500700","樹林區"
"238026","172-UY","2018/02/14 19:19:19","新北市樹林區吉祥街21號","121.39533","24.9736683333333","6500700","樹林區"
"239007","AAC-297","2018/02/14 19:19:21","新北市鶯歌區育英街9號","121.346843333333","24.955695","6500800","鶯歌區"
"239005","526-UM","2018/02/14 19:19:27","新北市鶯歌區鳳吉一街120號","121.327695","24.97477","6500800","鶯歌區"
"239001","417-VK","2018/02/14 19:19:16","新北市鶯歌區鶯桃路47號","121.342053333333","24.9519066666667","6500800","鶯歌區"
"239006","292-BY","2018/02/14 19:19:22","新北市鶯歌區鶯桃路268巷18號","121.336046666667","24.9603933333333","6500800","鶯歌區"
"239004","193-VK","2018/02/14 19:19:20","新北市鶯歌區中正三路194巷46號","121.331185","24.940805","6500800","鶯歌區"
"221008","489-VK","2018/02/14 19:19:11","新北市汐止區康寧街421號","121.63037","25.068035","6501100","汐止區"
"221036","130-UY","2018/02/14 19:19:32","新北市汐止區忠孝東路327號","121.665021666667","25.069605","6501100","汐止區"
"221015","131-UY","2018/02/14 19:19:28","新北市汐止區康寧街901號","121.651433333333","25.0749633333333","6501100","汐止區"
"221010","269-BY","2018/02/14 19:19:19","新北市汐止區康寧街901號","121.651621666667","25.0750383333333","6501100","汐止區"
"221012","278-VK","2018/02/14 19:19:19","新北市汐止區汐萬路一段312號","121.650563333333","25.0754166666667","6501100","汐止區"
"221023","279-VK","2018/02/14 19:19:17","新北市汐止區康寧街901號","121.650908333333","25.07518","6501100","汐止區"
"221027","281-BY","2018/02/14 19:19:35","新北市汐止區汐萬路一段160號","121.652631666667","25.071555","6501100","汐止區"
"221029","298-VK","2018/02/14 19:19:24","新北市汐止區康寧街901號","121.651488333333","25.0749283333333","6501100","汐止區"
"221031","353-TW","2018/02/14 19:19:30","新北市汐止區福德三路133號","121.633211666667","25.06745","6501100","汐止區"
"221025","623-UM","2018/02/14 19:19:25","新北市汐止區汐萬路一段115巷36號","121.653445","25.0702766666667","6501100","汐止區"
"221038","646-BX","2018/02/14 19:19:22","新北市汐止區汐萬路一段312號","121.650676666667","25.0753066666667","6501100","汐止區"
"221033","647-BX","2018/02/14 19:19:12","台北市南港區舊莊街二段10巷2號","121.62595","25.0374633333333","6501100","汐止區"
"221002","707-TV","2018/02/14 19:19:17","新北市汐止區大同路一段390號","121.639508333333","25.0596966666667","6501100","汐止區"
"221018","753-BX","2018/02/14 19:19:25","新北市汐止區茄苳路250巷1-1號","121.671451666667","25.068195","6501100","汐止區"
"220079","145-BY","2018/02/14 19:19:32","新北市板橋區民權路202巷13弄40號","121.45839","25.0163783333333","6500100","板橋區"
"220080","200-UY","2018/02/14 19:19:31","新北市板橋區大觀路二段1巷20號","121.449175","25.0037766666667","6500100","板橋區"
"220082","610-BX","2018/02/14 19:19:12","新北市板橋區溪崑二街134號","121.425961666667","24.9877183333333","6500100","板橋區"
"220072","277-BY","2018/02/14 19:19:22","新北市板橋區金門街337巷7弄2號","121.43023","24.9847983333333","6500100","板橋區"
"220094","283-UM","2018/02/14 19:19:19","新北市板橋區光武街130號","121.465541666667","25.02979","6500100","板橋區"
"220071","283-VK","2018/02/14 19:19:16","新北市板橋區重慶路327巷24弄4-3號","121.46478","24.9985666666667","6500100","板橋區"
"220053","285-VK","2018/02/14 19:19:25","新北市板橋區富山街7巷15號","121.478636666667","25.0213316666667","6500100","板橋區"
"220081","287-VK","2018/02/14 19:19:30","新北市板橋區南雅西路二段24號","121.452891666667","25.0096133333333","6500100","板橋區"
"220061","293-UM","2018/02/14 19:19:16","新北市板橋區光復街18號","121.481351666667","25.0189366666667","6500100","板橋區"
"220084","296-UM","2018/02/14 19:19:31","新北市板橋區溪崑二街56巷36號","121.428271666667","24.9914316666667","6500100","板橋區"
"220075","303-R5","2018/02/14 19:19:24","新北市板橋區南雅東路1號","121.45552","25.005665","6500100","板橋區"
"220062","305-R5","2018/02/14 19:19:25","新北市板橋區三民路二段居仁巷1弄13號","121.47969","25.0136233333333","6500100","板橋區"
"220092","307-R5","2018/02/14 19:19:23","新北市板橋區松江街42號","121.468791666667","25.0269566666667","6500100","板橋區"
"220098","317-R6","2018/02/14 19:19:26","新北市板橋區民有街89巷9號","121.464336666667","25.027335","6500100","板橋區"
"220064","486-VK","2018/02/14 19:19:34","新北市板橋區中山路二段18號","121.472166666667","25.0148383333333","6500100","板橋區"
"220038","487-VK","2018/02/14 19:19:11","新北市板橋區文化路一段317號","121.466143333333","25.0204","6500100","板橋區"
"220088","491-VK","2018/02/14 19:19:23","新北市板橋區雙十路二段10-3號","121.47637","25.02688","6500100","板橋區"
"220035","560-BX","2018/02/14 19:19:28","新北市板橋區新生街23巷17號","121.456426666667","25.0224933333333","6500100","板橋區"
"220103","561-BX","2018/02/14 19:19:30","新北市板橋區文化路一段188巷46-1號","121.466918333333","25.01898","6500100","板橋區"
"220083","568-UM","2018/02/14 19:19:25","新北市板橋區大觀路二段174巷186弄16號","121.442936666667","25.00342","6500100","板橋區"
"220063","609-BX","2018/02/14 19:19:26","新北市板橋區三民路二段72號","121.479243333333","25.017225","6500100","板橋區"
"220056","630-UY","2018/02/14 19:19:30","新北市板橋區信義路209號","121.459386666667","24.991585","6500100","板橋區"
"220091","637-BX","2018/02/14 19:19:28","新北市板橋區縣民大道三段187巷7號","121.479156666667","25.0250283333333","6500100","板橋區"
"220057","686-BX","2018/02/14 19:19:16","新北市板橋區重慶路351-1號","121.464168333333","24.9978666666667","6500100","板橋區"
"220077","687-BX","2018/02/14 19:19:16","新北市板橋區大觀路一段28巷20號","121.449905","25.00915","6500100","板橋區"
"220093","689-BX","2018/02/14 19:19:26","新北市板橋區文化路一段345號","121.466833333333","25.02089","6500100","板橋區"
"220054","741-BX","2018/02/14 19:19:27","新北市板橋區重慶路62巷6號","121.461581666667","25.006865","6500100","板橋區"
"220055","827-TW","2018/02/14 19:19:28","新北市板橋區館前東路156巷10號","121.46433","25.007215","6500100","板橋區"
"220067","829-TW","2018/02/14 19:19:28","新北市板橋區長安街232-3號","121.475165","25.0124383333333","6500100","板橋區"
"220074","895-R6","2018/02/14 19:19:22","新北市板橋區中正路自強新村56-1號","121.454663333333","25.013515","6500100","板橋區"
"220073","985-R7","2018/02/14 19:19:17","新北市板橋區英士路190巷2號","121.458141666667","25.0224366666667","6500100","板橋區"
"220097","AAC-210","2018/02/14 19:19:31","新北市板橋區陽明街29巷1弄42號","121.463206666667","25.022675","6500100","板橋區"
"220070","AAC-253","2018/02/14 19:19:25","新北市板橋區忠孝路166號","121.464293333333","25.002445","6500100","板橋區"
