"lineid","car","time","location","longitude","latitude","cityid","cityname"
"234067","149-BY","2018/02/14 20:29:24","新北市永和區保平路236巷6號","121.508748333333","25.0060783333333","6500400","永和區"
"234007","207-UY","2018/02/14 20:29:21","新北市永和區仁愛路306巷35弄2號","121.502043333333","25.00868","6500400","永和區"
"234081","298-R6","2018/02/14 20:29:24","新北市永和區福和路143號","121.520818333333","25.0076933333333","6500400","永和區"
"234038","336-UY","2018/02/14 20:29:19","新北市永和區民樂街55巷16號","121.528146666667","24.998625","6500400","永和區"
"234064","337-UY","2018/02/14 20:29:34","新北市永和區得和路123號","121.518816666667","25.0002983333333","6500400","永和區"
"234086","338-UY","2018/02/14 20:29:25","新北市永和區永亨路153號","121.525683333333","25.0038483333333","6500400","永和區"
"234017","745-BX","2018/02/14 20:29:21","新北市永和區永和路二段425巷57弄1號","121.51375","25.0173","6500400","永和區"
"234054","KEA-2590","2018/02/14 20:29:26","新北市永和區光復街2巷26弄1號","121.517616666667","25.01659","6500400","永和區"
"234061","AAD-866","2018/02/14 20:29:22","新北市永和區中正路275號","121.517236666667","25.00085","6500400","永和區"
"234042","862-TW","2018/02/14 20:29:27","新北市中和區中安街186號","121.511231666667","24.99941","6500400","永和區"
"234050","863-TW","2018/02/14 20:29:31","新北市永和區保安路290號","121.505048333333","25.0122016666667","6500400","永和區"
"234026","9371-KE","2018/02/14 20:29:18","新北市永和區水源街27巷5號","121.511271666667","25.004135","6500400","永和區"
"234023","9381-KE","2018/02/14 20:29:15","新北市永和區復興街2巷4號","121.515753333333","25.0126583333333","6500400","永和區"
"234011","9373-KE","2018/02/14 20:29:16","新北市永和區保福路二段14-1號","121.511011666667","25.0113816666667","6500400","永和區"
"249005","172-UM","2018/02/14 20:26:59","新北市八里區中山路三段305號","121.37974","25.1390933333333","6502300","八里區"
"249001","173-UM","2018/02/14 20:29:27","新北市八里區商港路42號","121.396371666667","25.1450433333333","6502300","八里區"
"249004","303-UY","2018/02/14 20:29:17","新北市八里區中山路一段129巷27號","121.413995","25.15858","6502300","八里區"
"249002","305-UY","2018/02/14 20:29:31","新北市八里區龍米路二段58-1號","121.44818","25.14113","6502300","八里區"
"249003","593-UM","2018/02/14 20:29:32","新北市八里區華峰一街22號","121.39915","25.146715","6502300","八里區"
"248016","026-BX","2018/02/14 20:29:17","新北市五股區凌雲路一段158巷39弄12號","121.446495","25.1040916666667","6501500","五股區"
"248002","678-BX","2018/02/14 20:29:31","新北市五股區成泰路三段101-1號","121.444075","25.090185","6501500","五股區"
"234077","969-R7","2018/02/14 20:29:16","新北市永和區民有街1號","121.515856666667","24.9973283333333","6500400","永和區"
"234074","AAC-211","2018/02/14 20:29:24","新北市永和區豫溪街189巷1號","121.52252","25.0103066666667","6500400","永和區"
"234003","AAC-295","2018/02/14 20:29:32","新北市永和區大新街39號","121.515383333333","25.008485","6500400","永和區"
"243011","267-VK","2018/02/14 20:29:18","新北市泰山區明志路三段182巷8號","121.423835","25.0390866666667","6501600","泰山區"
"243015","380-SR","2018/02/14 20:29:30","新北市泰山區民權街25號","121.428698333333","25.050705","6501600","泰山區"
"243014","421-VK","2018/02/14 20:29:17","新北市泰山區明志路一段40號","121.433611666667","25.0653983333333","6501600","泰山區"
"243012","539-UM","2018/02/14 20:29:27","新北市泰山區美寧街120號","121.433223333333","25.0643283333333","6501600","泰山區"
"243009","KEA-2216","2018/02/14 20:29:32","新北市泰山區全興路47巷50號","121.434318333333","25.059105","6501600","泰山區"
"243016","680-BX","2018/02/14 20:29:27","新北市泰山區新北大道六段369號","121.42232","25.0329133333333","6501600","泰山區"
"222001","016-RS","2018/02/14 20:29:31","新北市深坑區北深路三段272號","121.598133333333","25.0048233333333","6501800","深坑區"
"222003","436-BY","2018/02/14 20:29:13","新北市深坑區深坑街27號","121.615905","25.0023416666667","6501800","深坑區"
"222002","659-BX","2018/02/14 20:29:30","新北市深坑區萬福路16巷26-1號","121.607326666667","25.0081883333333","6501800","深坑區"
"231041","002-UM","2018/02/14 20:29:26","新北市新店區中正路522號","121.533735","24.98377","6500600","新店區"
"231049","260-TV","2018/02/14 20:29:25","新北市新店區永業路81巷1弄2號","121.529701666667","24.9495433333333","6500600","新店區"
"231056","3713-VJ","2018/02/14 20:29:23","新北市新店區中華路85號","121.539418333333","24.9687766666667","6500600","新店區"
"241028","022-UY","2018/02/14 20:29:19","新北市三重區大同南路103-2號","121.496288333333","25.0584733333333","6500200","三重區"
"241008","059-VK","2018/02/14 20:29:18","新北市三重區永福街197巷37弄3號","121.478228333333","25.0742933333333","6500200","三重區"
"241009","060-VK","2018/02/14 20:29:16","新北市三重區三和路四段382巷98號","121.478793333333","25.07801","6500200","三重區"
"241031","061-VK","2018/02/14 20:29:18","新北市三重區三寧街15號","121.489398333333","25.0596716666667","6500200","三重區"
"241015","062-VK","2018/02/14 20:29:22","新北市三重區長壽街1號","121.498263333333","25.0675033333333","6500200","三重區"
"241026","066-VK","2018/02/14 20:29:30","新北市三重區中央南路134號","121.501831666667","25.0597533333333","6500200","三重區"
"241002","090-VK","2018/02/14 20:29:31","新北市三重區仁義街167巷4號","121.497225","25.08173","6500200","三重區"
"241001","091-VK","2018/02/14 20:29:30","新北市三重區正義北路32號","121.497233333333","25.0633666666667","6500200","三重區"
"241005","262-UM","2018/02/14 20:29:31","新北市三重區五華街180巷28號","121.488155","25.0853866666667","6500200","三重區"
"241016","265-UM","2018/02/14 20:29:29","新北市三重區正義北路190巷39號","121.49536","25.06676","6500200","三重區"
"241004","475-VK","2018/02/14 20:29:22","新北市三重區五華街74號","121.493465","25.081955","6500200","三重區"
"241024","478-VK","2018/02/14 20:29:32","新北市三重區忠孝路三段15巷20號","121.480845","25.067625","6500200","三重區"
"241014","543-UM","2018/02/14 20:29:22","新北市三重區長樂街88號","121.501253333333","25.0694766666667","6500200","三重區"
"241023","545-UM","2018/02/14 20:29:15","新北市三重區自由街19號","121.479815","25.0665783333333","6500200","三重區"
"241001","547-UM","2018/02/14 20:29:15","新北市三重區三和路四段160巷87號","121.485436666667","25.07492","6500200","三重區"
"241019","KEA-2593","2018/02/14 20:29:15","新北市五股區中直路15-2號","121.423345","25.1109583333333","6500200","三重區"
"241006","AAD-863","2018/02/14 20:29:17","新北市三重區車路頭街139巷12號","121.48427","25.0762683333333","6500200","三重區"
"241012","941-UM","2018/02/14 20:29:34","新北市三重區仁愛街125巷113號","121.499133333333","25.0765066666667","6500200","三重區"
"241033","AAC-255","2018/02/14 20:29:16","新北市三重區五谷王北街80巷51號","121.474951666667","25.0531716666667","6500200","三重區"
"235066","003-UY","2018/02/14 20:29:16","新北市中和區中山路二段3巷8號","121.50583","25.0056466666667","6500300","中和區"
"235039","097-UM","2018/02/14 20:29:35","新北市中和區大勇街8號","121.517158333333","24.992715","6500300","中和區"
"235040","150-BY","2018/02/14 20:29:32","新北市中和區宜安路119巷1號","121.509978333333","24.997765","6500300","中和區"
"235055","183-VK","2018/02/14 20:29:13","新北市中和區中山路三段181巷18弄11號","121.472731666667","25.0049166666667","6500300","中和區"
"235038","185-VK","2018/02/14 20:29:28","新北市中和區自立路141巷5號","121.52261","24.9935683333333","6500300","中和區"
"235067","255-BX","2018/02/14 20:29:30","新北市中和區新生街233巷16號","121.48422","24.9991383333333","6500300","中和區"
"235072","301-VK","2018/02/14 20:29:27","新北市中和區中正路432巷11號","121.49068","24.99577","6500300","中和區"
"235068","377-QA","2018/02/14 20:29:11","新北市中和區福祥路81號","121.499008333333","25.0056366666667","6500300","中和區"
"235050","4979-A6","2018/02/14 20:29:16","新北市中和區景平路396號","121.50972","24.9930483333333","6500300","中和區"
"235042","551-UM","2018/02/14 20:29:35","新北市中和區景安路79巷37弄1號","121.507531666667","24.9964766666667","6500300","中和區"
"235047","732-UM","2018/02/14 20:29:15","新北市中和區南山路313號","121.504935","24.9914466666667","6500300","中和區"
"235026","800-TS","2018/02/14 20:13:50","新北市中和區員山路36巷16-3號","121.484818333333","24.99177","6500300","中和區"
"235051","157-BY","2018/02/14 20:29:16","新北市中和區復興路277-1號","121.502445","24.9903166666667","6500300","中和區"
"235037","AAC-213","2018/02/14 20:29:33","新北市中和區秀朗路三段139號","121.525041666667","24.9924883333333","6500300","中和區"
"235059","AAC-215","2018/02/14 20:29:27","新北市中和區圓通路367巷13弄39號","121.493491666667","24.987985","6500300","中和區"
"220068","013-TV","2018/02/14 20:29:20","新北市林口區太平里180號","121.367166666667","25.133685","6500100","板橋區"
"220069","015-TV","2018/02/14 20:29:22","新北市樹林區中山路三段214號","121.380396666667","24.9678266666667","6500100","板橋區"
"220069","AAD-861","2018/02/14 20:29:27","新北市板橋區忠孝路忠義巷9弄46號","121.46519","25.0046266666667","6500100","板橋區"
"247022","893-R6","2018/02/14 20:29:29","新北市蘆洲區民族路457號","121.467268333333","25.08858","6501400","蘆洲區"
"247012","546-UM","2018/02/14 20:29:12","新北市蘆洲區復興路216號","121.478915","25.0893016666667","6501400","蘆洲區"
"247020","500-BY","2018/02/14 20:29:13","新北市蘆洲區仁愛街21號","121.472443333333","25.0925033333333","6501400","蘆洲區"
"247008","341-TH","2018/02/14 20:29:16","新北市蘆洲區永安北路二段52號","121.482785","25.0835333333333","6501400","蘆洲區"
"247010","339-TH","2018/02/14 20:29:23","新北市蘆洲區信義路222巷34弄2號","121.480853333333","25.0855366666667","6501400","蘆洲區"
"247004","337-TH","2018/02/14 20:29:21","新北市蘆洲區長安街361巷39號","121.455448333333","25.0874833333333","6501400","蘆洲區"
"247004","336-TH","2018/02/14 20:29:30","新北市蘆洲區長安街220巷10號","121.45889","25.0848283333333","6501400","蘆洲區"
"247002","335-TH","2018/02/14 20:29:22","新北市蘆洲區長安街347巷22-2號","121.456013333333","25.087045","6501400","蘆洲區"
"247016","057-VK","2018/02/14 20:29:30","新北市蘆洲區光華路108號","121.467275","25.0826666666667","6501400","蘆洲區"
"247006","056-VK","2018/02/14 20:29:33","新北市蘆洲區永安南路二段50-1號","121.465835","25.0775583333333","6501400","蘆洲區"
"247014","007-UY","2018/02/14 20:29:30","新北市蘆洲區中山一路280號","121.471331666667","25.0791866666667","6501400","蘆洲區"
"247024","002-UY","2018/02/14 20:29:15","新北市蘆洲區長興路158巷9號","121.462313333333","25.08583","6501400","蘆洲區"
"247018","001-UY","2018/02/14 20:29:23","新北市蘆洲區民族路255巷26號","121.475886666667","25.089075","6501400","蘆洲區"
"251009","008-UM","2018/02/14 20:29:18","新北市淡水區鼻頭街18-5號","121.446746666667","25.16666","6501000","淡水區"
"251013","179-VK","2018/02/14 20:29:23","新北市淡水區後坑子7號","121.463933333333","25.20565","6501000","淡水區"
"251014","180-VK","2018/02/14 20:29:29","新北市淡水區石頭厝8-3號","121.459138333333","25.23719","6501000","淡水區"
"251008","181-VK","2018/02/14 20:29:17","新北市淡水區淡海路223號","121.4202","25.185455","6501000","淡水區"
"251015","182-VK","2018/02/14 20:29:25","新北市淡水區興仁路160號","121.451588333333","25.2202066666667","6501000","淡水區"
"251010","413-VK","2018/02/14 20:29:30","新北市淡水區沙崙路181巷15號","121.423966666667","25.1844133333333","6501000","淡水區"
"251012","441-VK","2018/02/14 20:29:13","新北市淡水區頂田寮路129號","121.459975","25.2161483333333","6501000","淡水區"
"251016","442-VK","2018/02/14 20:29:19","新北市淡水區後洲子19號","121.450668333333","25.2238183333333","6501000","淡水區"
"251001","559-UM","2018/02/14 20:29:21","新北市淡水區中山北路二段1號","121.444468333333","25.183125","6501000","淡水區"
"251011","650-BX","2018/02/14 20:29:15","新北市淡水區崁頂二路250號","121.435728333333","25.1980116666667","6501000","淡水區"
"251002","672-BX","2018/02/14 20:29:13","新北市淡水區中正路72-1號","121.442765","25.1696716666667","6501000","淡水區"
"251003","766-UM","2018/02/14 20:29:32","新北市淡水區新生街29號","121.439563333333","25.17504","6501000","淡水區"
"237013","252-BX","2018/02/14 20:29:24","新北市三峽區介壽路二段97號","121.392196666667","24.935515","6500900","三峽區"
"237006","5529-G3","2018/02/14 20:29:15","新北市三峽區嘉添159-1號","121.369085","24.911855","6500900","三峽區"
"237005","AKY-6261","2018/02/14 20:29:29","新北市三峽區三樹路98巷171號","121.384626666667","24.9397733333333","6500900","三峽區"
"236079","166-UM","2018/02/14 20:29:20","新北市土城區福安街100號","121.417461666667","24.9639983333333","6501300","土城區"
"236015","270-VK","2018/02/14 20:29:31","新北市土城區廣福街123號","121.45625","24.9928916666667","6501300","土城區"
"236023","401-BY","2018/02/14 20:29:23","新北市土城區延吉街111巷15號","121.471813333333","24.9861166666667","6501300","土城區"
"236054","AAC-216","2018/02/14 20:29:21","新北市土城區中華路一段178號","121.441143333333","24.9825666666667","6501300","土城區"
"242029","986-R7","2018/02/14 20:29:35","新北市新莊區中原路132號","121.449753333333","25.0543516666667","6500500","新莊區"
"242051","751-BX","2018/02/14 20:29:28","新北市新莊區民安西路252巷8號","121.425531666667","25.0137433333333","6500500","新莊區"
"242025","615-BX","2018/02/14 20:29:25","新北市新莊區五工二路70巷1號","121.460323333333","25.0659133333333","6500500","新莊區"
"242023","613-BX","2018/02/14 20:29:16","新北市新莊區化成路832號","121.464921666667","25.0601766666667","6500500","新莊區"
"242027","612-BX","2018/02/14 20:29:21","新北市新莊區幸福路556號","121.454735","25.049345","6500500","新莊區"
"242039","566-BX","2018/02/14 20:29:29","新北市新莊區瓊林南路35-1號","121.435566666667","25.0167133333333","6500500","新莊區"
"242044","497-BY","2018/02/14 20:29:34","新北市新莊區中正路新建巷28弄10號","121.413948333333","25.0216316666667","6500500","新莊區"
"242048","441-UM","2018/02/14 20:29:25","新北市新莊區萬安街149巷23弄1號","121.421271666667","25.0211533333333","6500500","新莊區"
"242054","440-UM","2018/02/14 20:29:17","新北市新莊區民安西路245巷8號","121.42662","25.0136283333333","6500500","新莊區"
"242034","415-TV","2018/02/14 20:29:30","新北市新莊區新泰路207號","121.446905","25.03845","6500500","新莊區"
"242005","413-TV","2018/02/14 20:29:25","新北市三重區中興北街60巷1-3號","121.468106666667","25.05192","6500500","新莊區"
"242042","400-BY","2018/02/14 20:29:26","新北市新莊區中正路694巷3弄2號","121.418365","25.0284183333333","6500500","新莊區"
"242061","362-BY","2018/02/14 20:29:18","新北市新莊區民安路305號","121.429676666667","25.0225933333333","6500500","新莊區"
"242058","353-BY","2018/02/14 20:29:20","新北市新莊區龍安路266巷30號","121.4217","25.018565","6500500","新莊區"
"242007","132-UY","2018/02/14 20:29:12","新北市新莊區福壽街94巷5號","121.458618333333","25.0501516666667","6500500","新莊區"
"242021","135-UY","2018/02/14 20:29:31","新北市新莊區中興街11號","121.449206666667","25.03613","6500500","新莊區"
"242046","172-VK","2018/02/14 20:29:24","新北市新莊區裕民街90巷3號","121.41804","25.0235933333333","6500500","新莊區"
"242009","173-VK","2018/02/14 20:29:20","新北市新莊區昌盛街93號","121.455836666667","25.05002","6500500","新莊區"
"242015","175-VK","2018/02/14 20:29:18","新北市新莊區永樂街248號","121.445571666667","25.0444233333333","6500500","新莊區"
"242001","176-VK","2018/02/14 20:29:27","新北市新莊區中正路78-1號","121.458501666667","25.037835","6500500","新莊區"
"242013","346-TH","2018/02/14 20:29:29","新北市新莊區中榮街81巷10號","121.445403333333","25.0523766666667","6500500","新莊區"
"242019","348-TH","2018/02/14 20:29:16","新北市新莊區復興路二段196巷1號","121.459416666667","25.04407","6500500","新莊區"
"242056","349-TH","2018/02/14 20:29:23","新北市新莊區新莊路649巷7號","121.445078333333","25.03229","6500500","新莊區"
"242017","350-TH","2018/02/14 20:29:30","新北市新莊區中正路400號","121.441935","25.0345","6500500","新莊區"
"242011","351-TH","2018/02/14 20:29:33","新北市新莊區中信街37巷1弄12號","121.450928333333","25.0504816666667","6500500","新莊區"
"239006","891-R6","2018/02/14 20:29:35","新北市鶯歌區文化路56號","121.356395","24.9547416666667","6500800","鶯歌區"
"239003","360-BY","2018/02/14 20:29:16","新北市鶯歌區大湖路18號","121.342901666667","24.96099","6500800","鶯歌區"
"239006","292-BY","2018/02/14 20:29:22","新北市鶯歌區二甲路13-16號","121.345138333333","24.9352266666667","6500800","鶯歌區"
"239004","193-VK","2018/02/14 20:29:20","新北市鶯歌區二甲路12-2號","121.345563333333","24.9348766666667","6500800","鶯歌區"
"221008","489-VK","2018/02/14 20:29:31","台北市內湖區康樂街18號","121.618078333333","25.0680866666667","6501100","汐止區"
"221036","130-UY","2018/02/14 20:29:32","新北市汐止區福安街57巷6號","121.664091666667","25.0639116666667","6501100","汐止區"
"221015","131-UY","2018/02/14 20:29:28","新北市汐止區建成路142巷19弄5號","121.662151666667","25.0736816666667","6501100","汐止區"
"221010","269-BY","2018/02/14 20:29:19","新北市汐止區八連路二段450號","121.628613333333","25.1052466666667","6501100","汐止區"
"221012","278-VK","2018/02/14 20:29:19","新北市汐止區保新街135號","121.688075","25.0702116666667","6501100","汐止區"
"221023","279-VK","2018/02/14 20:29:17","新北市汐止區明峰街297巷2號","121.625298333333","25.06768","6501100","汐止區"
"221032","280-BY","2018/02/14 20:29:16","新北市汐止區民權街二段47號","121.619533333333","25.0489666666667","6501100","汐止區"
"221027","281-BY","2018/02/14 20:29:26","新北市汐止區康寧街901號","121.65122","25.0750883333333","6501100","汐止區"
"221029","298-VK","2018/02/14 20:29:24","新北市汐止區樟樹二路106巷9號","121.640273333333","25.0643933333333","6501100","汐止區"
"221021","299-VK","2018/02/14 20:29:14","新北市汐止區水源路一段295號","121.654516666667","25.058195","6501100","汐止區"
"221031","353-TW","2018/02/14 20:29:30","新北市汐止區康寧街901號","121.651581666667","25.07502","6501100","汐止區"
"221035","622-UM","2018/02/14 20:29:20","新北市汐止區長江街101-5號","121.658675","25.0732533333333","6501100","汐止區"
"221025","623-UM","2018/02/14 20:29:26","新北市汐止區水源路二段88巷1弄5號","121.656483333333","25.0556983333333","6501100","汐止區"
"221038","646-BX","2018/02/14 20:29:22","新北市汐止區忠孝東路468號","121.66623","25.0732183333333","6501100","汐止區"
"221033","647-BX","2018/02/14 20:29:32","新北市汐止區林森街73巷15號","121.623813333333","25.0414166666667","6501100","汐止區"
"221002","707-TV","2018/02/14 20:29:17","新北市汐止區福德一路82號","121.638168333333","25.06854","6501100","汐止區"
"221018","753-BX","2018/02/14 20:29:20","新北市汐止區茄苳路225巷21號","121.671681666667","25.06923","6501100","汐止區"
"220072","277-BY","2018/02/14 20:29:21","新北市板橋區金門街151巷19號","121.4337","24.99031","6500100","板橋區"
"220071","283-VK","2018/02/14 20:29:27","新北市板橋區和平路174巷38弄3號","121.465365","24.9938416666667","6500100","板橋區"
"220083","286-VK","2018/02/14 20:29:31","新北市板橋區大觀路一段38巷156弄154號","121.444013333333","25.0088016666667","6500100","板橋區"
"220081","287-VK","2018/02/14 20:29:30","新北市樹林區八德街666號","121.395438333333","24.96879","6500100","板橋區"
"220061","293-UM","2018/02/14 20:29:16","新北市板橋區四川路一段286巷26號","121.457833333333","25.001285","6500100","板橋區"
"220084","296-UM","2018/02/14 20:29:06","新北市板橋區滿平街2巷5-2號","121.425845","24.9898866666667","6500100","板橋區"
"220069","297-UM","2018/02/14 20:29:25","新北市板橋區大明街20巷19弄6號","121.458413333333","25.0032783333333","6500100","板橋區"
"220092","307-R5","2018/02/14 20:29:23","新北市板橋區文化路一段45巷2號","121.460403333333","25.0134433333333","6500100","板橋區"
"220086","461-BY","2018/02/14 20:29:18","新北市板橋區大觀路二段108號","121.443928333333","24.9993266666667","6500100","板橋區"
"220038","487-VK","2018/02/14 20:29:31","新北市板橋區四維路137巷5號","121.464486666667","25.0249766666667","6500100","板橋區"
"242032","280-VK","2018/02/14 20:29:24","新北市新莊區義豐街29號","121.441151666667","25.035295","6500500","新莊區"
"220055","827-TW","2018/02/14 20:29:28","新北市板橋區忠孝路48巷11弄6號","121.461651666667","24.9998166666667","6500100","板橋區"
"220067","829-TW","2018/02/14 20:29:23","新北市板橋區民生路二段120號","121.470511666667","25.019545","6500100","板橋區"
"220070","AAC-253","2018/02/14 20:29:26","新北市板橋區南雅南路二段116號","121.453221666667","25.000205","6500100","板橋區"
