"lineid","car","time","location","longitude","latitude","cityid","cityname"
"234046","148-BY","2018/02/14 21:39:15","新北市新店區薏仁坑路自強巷1號","121.496748333333","24.9578483333333","6500400","永和區"
"234011","9373-KE","2018/02/14 21:39:16","新北市永和區仁愛路352巷122弄35號","121.50098","25.009245","6500400","永和區"
"231049","260-TV","2018/02/14 21:30:05","新北市新店區安華路28-1號","121.51961","24.960635","6500600","新店區"
"241011","013-R5","2018/02/14 21:39:35","新北市三重區龍門路23號","121.49546","25.071895","6500200","三重區"
"241017","063-VK","2018/02/14 21:39:21","新北市三重區民生街38巷2弄15號","121.492176666667","25.0671466666667","6500200","三重區"
"241026","066-VK","2018/02/14 21:39:30","新北市三重區中正南路252巷5號","121.4934","25.0525666666667","6500200","三重區"
"241001","091-VK","2018/02/14 21:39:30","新北市三重區自強路一段68號","121.49698","25.0665266666667","6500200","三重區"
"241005","262-UM","2018/02/14 21:39:31","新北市三重區仁華街77號","121.485446666667","25.0829766666667","6500200","三重區"
"241018","268-UM","2018/02/14 21:39:19","新北市三重區六張街39號","121.49428","25.07055","6500200","三重區"
"241032","269-UM","2018/02/14 21:39:15","新北市三重區中興北街134號","121.468958333333","25.0558683333333","6500200","三重區"
"241020","413-TH","2018/02/14 21:39:25","新北市三重區忠孝路一段101號","121.489335","25.0721233333333","6500200","三重區"
"241004","475-VK","2018/02/14 21:39:22","新北市三重區新北大道一段166號","121.483731666667","25.061655","6500200","三重區"
"241019","KEA-2593","2018/02/14 21:39:35","新北市三重區忠孝路一段10巷24號","121.491481666667","25.0714166666667","6500200","三重區"
"235010","733-UM","2018/02/14 21:10:41","新北市中和區員山路36巷13號","121.484173333333","24.9908383333333","6500300","中和區"
"235026","800-TS","2018/02/14 21:39:15","新北市中和區員山路36巷16-3號","121.484848333333","24.9916416666667","6500300","中和區"
"220068","013-TV","2018/02/14 21:39:23","新北市板橋區民生路二段120號","121.470335","25.0197083333333","6500100","板橋區"
"247008","341-TH","2018/02/14 21:39:16","新北市五股區孝義路13-1號","121.451163333333","25.1066416666667","6501400","蘆洲區"
"251009","008-UM","2018/02/14 21:39:18","新北市淡水區民族路29巷2弄1號","121.46265","25.1373266666667","6501000","淡水區"
"251004","009-UM","2018/02/14 21:39:32","新北市淡水區民權路99-5號","121.460168333333","25.1378333333333","6501000","淡水區"
"251014","180-VK","2018/02/14 21:39:29","新北市淡水區淡金路四段507號","121.45153","25.2284183333333","6501000","淡水區"
"251008","181-VK","2018/02/14 21:39:37","新北市淡水區學府路96號","121.449693333333","25.1715566666667","6501000","淡水區"
"251010","413-VK","2018/02/14 21:39:30","新北市淡水區沙崙路236號","121.425608333333","25.1846716666667","6501000","淡水區"
"251012","441-VK","2018/02/14 21:39:33","新北市淡水區淡金路552-1號","121.451686666667","25.2274583333333","6501000","淡水區"
"251016","442-VK","2018/02/14 21:39:19","新北市淡水區中山北路三段171號","121.445616666667","25.1970416666667","6501000","淡水區"
"251005","443-VK","2018/02/14 21:39:32","新北市淡水區水源街一段62巷11號","121.444778333333","25.1715866666667","6501000","淡水區"
"251001","559-UM","2018/02/14 21:39:21","新北市淡水區新市二路三段152號","121.435373333333","25.19424","6501000","淡水區"
"251011","650-BX","2018/02/14 21:39:35","新北市淡水區新民街101號","121.436195","25.180795","6501000","淡水區"
"251002","672-BX","2018/02/14 21:39:29","新北市淡水區學府路161號","121.445945","25.1742266666667","6501000","淡水區"
"251003","766-UM","2018/02/14 21:39:27","新北市淡水區新春街65巷15號","121.437821666667","25.18256","6501000","淡水區"
"242048","497-BY","2018/02/14 21:39:14","新北市新莊區中正路671號","121.42667","25.0301283333333","6500500","新莊區"
"242037","133-UY","2018/02/14 21:39:27","新北市新莊區中正路535號","121.438833333333","25.0332383333333","6500500","新莊區"
"220086","461-BY","2018/02/14 21:23:47","新北市板橋區華東街1-9號","121.44816","24.9947866666667","6500100","板橋區"
"220038","487-VK","2018/02/14 21:39:31","新北市三重區五谷王北街161-1號","121.478093333333","25.0533483333333","6500100","板橋區"
"220070","AAC-253","2018/02/14 21:39:25","新北市板橋區僑中一街124巷74-5號","121.448225","25.01728","6500100","板橋區"
