"lineid","car","time","location","longitude","latitude","cityid","cityname"
"248005","653-BX","2018/02/02 09:49:25","新北市五股區明德路33號","121.434443333333","25.0713766666667","6501500","五股區"
"222005","289-BY","2018/02/02 09:49:10","新北市深坑區文化街74號","121.618245","25.00183","6501800","深坑區"
"231007","189-VK","2018/02/02 09:49:30","新北市新店區新潭路三段215巷25號","121.508188333333","24.9040933333333","6500600","新店區"
"231009","192-VK","2018/02/02 09:41:36","新北市新店區平廣路一段256號","121.507875","24.888245","6500600","新店區"
"235001","565-BX","2018/02/02 09:49:28","新北市中和區景平路159巷26號","121.51265","24.991755","6500300","中和區"
"235001","611-BX","2018/02/02 09:49:16","新北市中和區連城路469巷79弄2號","121.483466666667","24.9938316666667","6500300","中和區"
"223005","677-TV","2018/02/02 09:49:15","新北市石碇區碇坪路一段101號","121.663066666667","24.9895283333333","6501900","石碇區"
"227005","282-VK","2018/02/02 09:41:22","新北市雙溪區泰平里溪尾寮6號","121.819805","24.9624616666667","6502500","雙溪區"
"237001","159-UY","2018/02/02 09:49:12","新北市三峽區大德路151號","121.37575","24.945055","6500900","三峽區"
"236006","498-BY","2018/02/02 09:49:30","新北市土城區中華路二段243號","121.437593333333","24.9724733333333","6501300","土城區"
"220089","487-VK","2018/02/02 09:49:31","新北市板橋區民治街67號","121.47962","25.032905","6500100","板橋區"
"220070","AAC-253","2018/02/02 09:33:08","新北市板橋區華東街1-10號","121.448638333333","24.9949983333333","6500100","板橋區"
