"lineid","car","time","location","longitude","latitude","cityid","cityname"
"231007","189-VK","2018/02/02 10:59:30","新北市新店區新潭路一段140巷11號","121.527808333333","24.9349116666667","6500600","新店區"
"231009","192-VK","2018/02/02 10:59:23","新北市新店區新烏路三段220巷24號","121.545573333333","24.9039516666667","6500600","新店區"
"227005","282-VK","2018/02/02 10:59:02","新北市雙溪區泰平里溪尾寮46號","121.821418333333","24.9676","6502500","雙溪區"
"237001","159-UY","2018/02/02 10:59:32","新北市三峽區國學街24號","121.373158333333","24.9420166666667","6500900","三峽區"
"220089","487-VK","2018/02/02 10:59:31","新北市樹林區中山路三段210-2號","121.380765","24.9669366666667","6500100","板橋區"
