"lineid","car","time","location","longitude","latitude","cityid","cityname"
"234044","148-BY","2018/02/02 13:39:34","新北市永和區永利路183號","121.526161666667","25.0034166666667","6500400","永和區"
"234068","149-BY","2018/02/02 13:39:28","新北市永和區永和路二段235號","121.515651666667","25.0143616666667","6500400","永和區"
"234005","207-UY","2018/02/02 13:39:35","新北市永和區永和路一段100號","121.513295","25.0068683333333","6500400","永和區"
"234078","298-R6","2018/02/02 13:39:34","新北市永和區林森路42號","121.525145","25.00483","6500400","永和區"
"234036","336-UY","2018/02/02 13:39:26","新北市永和區民樂街39巷16號","121.528256666667","25.0003683333333","6500400","永和區"
"234062","337-UY","2018/02/02 13:39:22","新北市永和區秀朗路一段192巷6弄14號","121.519135","25.00226","6500400","永和區"
"234084","338-UY","2018/02/02 13:39:25","新北市永和區永亨路154號","121.52561","25.0038216666667","6500400","永和區"
"234015","745-BX","2018/02/02 13:39:19","新北市永和區永和路二段425巷57弄1號","121.513773333333","25.0172683333333","6500400","永和區"
"234028","746-BX","2018/02/02 13:39:30","新北市永和區民權路1巷28號","121.521635","24.9981766666667","6500400","永和區"
"234052","KEA-2590","2018/02/02 13:39:18","新北市永和區竹林路39巷8號","121.51824","25.01438","6500400","永和區"
"234012","KEA-2591","2018/02/02 13:39:20","新北市永和區永平路238巷8號","121.509378333333","25.011555","6500400","永和區"
"234060","AAD-866","2018/02/02 13:39:18","新北市永和區中正路446號","121.517426666667","25.0028766666667","6500400","永和區"
"234040","862-TW","2018/02/02 13:39:31","新北市永和區中和路305巷2弄1號","121.50662","25.00014","6500400","永和區"
"234048","863-TW","2018/02/02 13:39:21","新北市永和區保安路53號","121.509465","25.0158216666667","6500400","永和區"
"234010","9373-KE","2018/02/02 13:39:30","新北市永和區保福路二段9巷15弄5號","121.510448333333","25.0108733333333","6500400","永和區"
"248019","225-UY","2018/02/02 13:39:20","新北市五股區孝義路71-5號","121.445861666667","25.1194833333333","6501500","五股區"
"234022","9380-KE","2018/02/02 13:39:25","新北市永和區中正路702巷12號","121.516381666667","25.0104566666667","6500400","永和區"
"234076","969-R7","2018/02/02 13:39:31","新北市永和區民權路48號","121.52012","24.9985516666667","6500400","永和區"
"234072","AAC-211","2018/02/02 13:39:32","新北市永和區豫溪街160巷17號","121.523333333333","25.0091066666667","6500400","永和區"
"234066","AAC-212","2018/02/02 13:39:27","新北市永和區中山路一段191巷9弄2號","121.509765","25.0079883333333","6500400","永和區"
"234001","AAC-295","2018/02/02 13:39:31","新北市永和區永和路一段105號","121.513715","25.00775","6500400","永和區"
"244004","248-BX","2018/02/02 13:39:29","新北市林口區南勢里71-52號","121.355553333333","25.0794566666667","6501700","林口區"
"231002","002-UM","2018/02/02 13:39:26","新北市新店區溪園路405號","121.524053333333","24.9781916666667","6500600","新店區"
"231027","0291-UT","2018/02/02 13:39:23","新北市新店區北宜路一段105巷4弄7號","121.540236666667","24.9555333333333","6500600","新店區"
"231025","0293-UT","2018/02/02 13:39:37","新北市新店區中央六街54號","121.52802","24.97567","6500600","新店區"
"231028","046-UY","2018/02/02 13:39:21","新北市新店區安和路二段77-1號","121.518438333333","24.9687283333333","6500600","新店區"
"231030","047-UY","2018/02/02 13:39:23","新北市新店區安康路一段65號","121.53041","24.9610433333333","6500600","新店區"
"231029","106-UY","2018/02/02 13:39:26","新北市新店區安康路二段169號","121.509855","24.9592716666667","6500600","新店區"
"231018","107-UY","2018/02/02 13:39:17","新北市新店區百忍街14號","121.5346","24.97565","6500600","新店區"
"231012","108-UY","2018/02/02 13:39:32","新北市新店區德正街27巷29弄21號","121.545766666667","24.971985","6500600","新店區"
"231035","110-UY","2018/02/02 13:39:23","新北市新店區安忠路102巷1號","121.510721666667","24.95617","6500600","新店區"
"231022","187-VK","2018/02/02 13:39:29","新北市新店區新烏路一段171號","121.545031666667","24.93479","6500600","新店區"
"231016","KEA-2219","2018/02/02 13:39:30","新北市新店區竹林路2巷5號","121.550596666667","24.951775","6500600","新店區"
"231026","256-BX","2018/02/02 13:39:27","新北市新店區北新路一段285號","121.541258333333","24.9669133333333","6500600","新店區"
"231010","278-BY","2018/02/02 13:39:29","新北市新店區平等街3號","121.53707","24.9742266666667","6500600","新店區"
"231023","AAD-862","2018/02/02 13:39:20","新北市新店區新店路169號","121.537053333333","24.9556483333333","6500600","新店區"
"231024","4716-K9","2018/02/02 13:39:28","新北市新店區華中街40號","121.54063","24.9706283333333","6500600","新店區"
"231038","4715-K9","2018/02/02 13:39:27","新北市新店區安華路30巷1號","121.519618333333","24.9592783333333","6500600","新店區"
"231036","512-UM","2018/02/02 13:39:33","新北市新店區安祥路147巷64號","121.476038333333","24.9561333333333","6500600","新店區"
"231003","616-UM","2018/02/02 13:39:29","新北市新店區中正路53號","121.544631666667","24.9699383333333","6500600","新店區"
"231006","617-UM","2018/02/02 13:39:28","新北市新店區北宜路一段97號","121.539098333333","24.9554016666667","6500600","新店區"
"231001","619-UM","2018/02/02 13:39:30","新北市新店區中正路424號","121.534283333333","24.97803","6500600","新店區"
"231034","645-TV","2018/02/02 13:39:31","新北市新店區車子路134號","121.505205","24.9495","6500600","新店區"
"231013","719-UM","2018/02/02 13:39:31","新北市新店區中正路454-5號","121.534546666667","24.9791283333333","6500600","新店區"
"231032","720-UM","2018/02/02 13:39:28","新北市新店區莒光路28號","121.52356","24.95923","6500600","新店區"
"231005","897-TW","2018/02/02 13:39:36","新北市新店區寶中路72號","121.547973333333","24.980635","6500600","新店區"
"231004","899-TW","2018/02/02 13:39:24","新北市新店區北新路二段1號","121.542718333333","24.97128","6500600","新店區"
"231037","AKT-0513","2018/02/02 13:39:19","新北市新店區安康路二段414巷1號","121.496453333333","24.9554466666667","6500600","新店區"
"235030","003-UY","2018/02/02 13:39:20","新北市中和區水源路35號","121.50438","25.0035783333333","6500300","中和區"
"235028","005-UY","2018/02/02 13:39:34","新北市中和區連城路89巷7號","121.497145","24.999385","6500300","中和區"
"235016","031-BX","2018/02/02 13:39:15","新北市中和區興南路三段42號","121.496068333333","24.9773933333333","6500300","中和區"
"235020","096-UM","2018/02/02 13:39:29","新北市中和區員山路466巷17弄8號","121.480546666667","25.0072516666667","6500300","中和區"
"235003","097-UM","2018/02/02 13:39:37","新北市中和區大勇街27巷31號","121.516106666667","24.99388","6500300","中和區"
"235029","098-UM","2018/02/02 13:39:29","新北市中和區莊敬路49巷27號","121.501516666667","25.006185","6500300","中和區"
"235004","150-BY","2018/02/02 13:39:18","新北市中和區保健路50巷66號","121.509318333333","24.9951616666667","6500300","中和區"
"235022","151-BY","2018/02/02 13:39:12","新北市中和區員山路32-4號","121.481223333333","24.9879133333333","6500300","中和區"
"235019","183-VK","2018/02/02 13:39:19","新北市中和區莒光路120巷58號","121.4716","25.0007533333333","6500300","中和區"
"235002","185-VK","2018/02/02 13:39:33","新北市中和區大勇街106號","121.517901666667","24.994975","6500300","中和區"
"235013","186-VK","2018/02/02 13:39:17","新北市中和區景平路480號","121.505066666667","24.9937966666667","6500300","中和區"
"235031","255-BX","2018/02/02 13:39:28","新北市中和區新生街220巷2號","121.48315","24.9985216666667","6500300","中和區"
"235008","293-VK","2018/02/02 13:39:23","新北市中和區復興路274巷12號","121.502803333333","24.9907916666667","6500300","中和區"
"235036","301-VK","2018/02/02 13:39:29","新北市中和區景平路597號","121.497038333333","25.0005616666667","6500300","中和區"
"235007","352-BY","2018/02/02 13:39:28","新北市中和區景德街88號","121.515968333333","24.9919333333333","6500300","中和區"
"235032","377-QA","2018/02/02 13:39:31","新北市中和區中正路167巷15號","121.498461666667","24.9928183333333","6500300","中和區"
"235025","378-QA","2018/02/02 13:39:30","新北市中和區民享街90巷19號","121.474078333333","24.99998","6500300","中和區"
"235035","269-TV","2018/02/02 13:39:34","新北市中和區永和路356巷67-1號","121.4871","25.0147866666667","6500300","中和區"
"235014","4979-A6","2018/02/02 13:39:17","新北市中和區景新街496巷28弄25號","121.51298","24.9858716666667","6500300","中和區"
"235033","4980-A6","2018/02/02 13:39:28","新北市中和區連城路97號","121.496681666667","24.999755","6500300","中和區"
"235006","551-UM","2018/02/02 13:39:36","新北市中和區成功路51巷1號","121.526585","24.9928566666667","6500300","中和區"
"235034","558-UM","2018/02/02 13:38:03","新北市中和區景新街137號","121.50603","24.9968766666667","6500300","中和區"
"235009","565-BX","2018/02/02 13:39:26","新北市中和區南山路236巷1號","121.506078333333","24.9892016666667","6500300","中和區"
"235018","640-BX","2018/02/02 13:39:19","新北市中和區莒光路129巷2弄24號","121.47297","25.0012083333333","6500300","中和區"
"235024","647-TV","2018/02/02 13:39:28","新北市中和區員山路427號","121.480916666667","25.0035283333333","6500300","中和區"
"235011","732-UM","2018/02/02 13:39:15","新北市中和區南山路320巷10弄14號","121.506861666667","24.9866983333333","6500300","中和區"
"235026","800-TS","2018/02/02 13:39:38","新北市中和區中山路二段312巷33弄14號","121.494858333333","25.0039516666667","6500300","中和區"
"235005","802-TS","2018/02/02 13:39:32","新北市中和區中和路400巷17號","121.511525","25.00241","6500300","中和區"
"235012","896-TW","2018/02/02 13:39:36","新北市中和區中正路81號","121.500711666667","24.993505","6500300","中和區"
"235017","900-TW","2018/02/02 13:39:18","新北市土城區延壽路118-6號","121.469066666667","24.994655","6500300","中和區"
"235027","911-UM","2018/02/02 13:39:27","新北市中和區連城路258-9號","121.487253333333","24.99634","6500300","中和區"
"235015","157-BY","2018/02/02 13:39:28","新北市中和區華新街143巷60號","121.506061666667","24.9794233333333","6500300","中和區"
"235001","AAC-213","2018/02/02 13:39:38","新北市中和區景德街124號","121.5146","24.9910966666667","6500300","中和區"
"235023","AAC-215","2018/02/02 13:39:27","新北市中和區員山路36巷16-3號","121.485093333333","24.9911533333333","6500300","中和區"
"220003","015-TV","2018/02/02 13:39:19","新北市板橋區華東街1-9號","121.448145","24.9949216666667","6500100","板橋區"
"220013","072-UY","2018/02/02 13:39:27","新北市板橋區漢生東路141號","121.468171666667","25.014015","6500100","板橋區"
"220034","073-UY","2018/02/02 13:39:15","新北市板橋區南雅西路二段192巷3號","121.45205","25.0143983333333","6500100","板橋區"
"247005","056-VK","2018/02/02 13:39:19","新北市五股區中興路二段182巷18-1號","121.4565","25.0817633333333","6501400","蘆洲區"
"235021","251-BX","2018/02/02 13:39:24","新北市中和區民安街43號","121.479885","25.00026","6500300","中和區"
"208004","AAC-292","2018/02/02 13:39:33","新北市金山區重和里三重橋11號","121.59274","25.1933633333333","6502700","金山區"
"207002","749-BX","2018/02/02 13:39:34","新北市萬里區崁腳里崁腳路166號","121.6451","25.1558716666667","6502800","萬里區"
"207001","662-BX","2018/02/02 13:39:25","新北市金山區中華路21號","121.638985","25.2156416666667","6502800","萬里區"
"236041","107-UM","2018/02/02 13:39:16","新北市土城區城林路6巷80號","121.438428333333","24.979785","6501300","土城區"
"236075","166-UM","2018/02/02 13:39:25","新北市土城區南天母路137-2號","121.447551666667","24.9540816666667","6501300","土城區"
"236029","253-BX","2018/02/02 13:39:33","新北市土城區城林路6巷80號","121.438485","24.9797483333333","6501300","土城區"
"236035","271-VK","2018/02/02 13:39:33","新北市土城區城林路6巷80號","121.43844","24.979745","6501300","土城區"
"236019","401-BY","2018/02/02 13:39:24","新北市土城區城林路6巷80號","121.438518333333","24.9797633333333","6501300","土城區"
"236006","498-BY","2018/02/02 13:39:23","新北市土城區慶祥街26號","121.43751","24.9747633333333","6501300","土城區"
"236054","AAC-216","2018/02/02 13:39:30","新北市土城區城林路6巷80號","121.438475","24.9797816666667","6501300","土城區"
"221032","280-BY","2018/02/02 13:39:32","新北市汐止區仁愛路10號","121.659318333333","25.06368","6501100","汐止區"
"220027","145-BY","2018/02/02 13:39:20","新北市板橋區南雅西路二段191號","121.45183","25.01308","6500100","板橋區"
"220028","200-UY","2018/02/02 13:39:26","新北市板橋區大觀路二段431-1號","121.441458333333","24.99504","6500100","板橋區"
"220030","610-BX","2018/02/02 13:39:25","新北市板橋區大觀路二段443-2號","121.440893333333","24.9950383333333","6500100","板橋區"
"220004","276-BY","2018/02/02 13:39:29","新北市板橋區四川路二段140巷20號","121.449263333333","24.9933966666667","6500100","板橋區"
"220020","277-BY","2018/02/02 13:39:21","新北市板橋區大觀路二段443-2號","121.43868","24.995245","6500100","板橋區"
"220019","283-VK","2018/02/02 13:39:24","新北市板橋區四川路二段140巷16弄13號","121.448728333333","24.9935683333333","6500100","板橋區"
"220031","286-VK","2018/02/02 13:39:32","新北市板橋區板城路271號","121.45003","24.9980633333333","6500100","板橋區"
"220029","287-VK","2018/02/02 13:39:33","新北市板橋區板城路421號","121.448071666667","24.9963333333333","6500100","板橋區"
"220032","296-UM","2018/02/02 13:39:26","新北市板橋區板城路421號","121.448018333333","24.9963566666667","6500100","板橋區"
"220023","303-R5","2018/02/02 13:39:30","新北市板橋區南雅南路二段120-16號","121.45187","24.9990283333333","6500100","板橋區"
"220012","486-VK","2018/02/02 13:39:32","新北市板橋區縣民大道二段22號","121.463928333333","25.0132916666667","6500100","板橋區"
"220104","560-BX","2018/02/02 13:39:29","新北市板橋區南雅西路二段145巷6號","121.451575","25.011875","6500100","板橋區"
"220005","686-BX","2018/02/02 13:39:24","新北市板橋區華東街1-9號","121.448213333333","24.994955","6500100","板橋區"
"220025","687-BX","2018/02/02 13:39:35","新北市板橋區溪崑一街11-4號","121.430921666667","24.9923116666667","6500100","板橋區"
"220002","741-BX","2018/02/02 13:39:20","新北市板橋區華東街1-9號","121.44809","24.9949316666667","6500100","板橋區"
"220022","895-R6","2018/02/02 13:39:18","新北市板橋區南雅南路一段129號","121.455175","25.0045633333333","6500100","板橋區"
"220018","AAC-253","2018/02/02 13:39:21","新北市板橋區華東街1-10號","121.448263333333","24.994915","6500100","板橋區"
