"lineid","car","time","location","longitude","latitude","cityid","cityname"
"234026","9371-KE","2018/02/02 17:39:42","新北市永和區中正路730號","121.515638333333","25.010115","6500400","永和區"
"249005","172-UM","2018/02/02 17:39:38","新北市八里區荖阡坑路34號","121.402793333333","25.1297816666667","6502300","八里區"
"249001","173-UM","2018/02/02 17:39:37","新北市八里區龍米路二段153-8號","121.440111666667","25.153545","6502300","八里區"
"249004","303-UY","2018/02/02 17:39:34","新北市八里區賢一街70號","121.419066666667","25.15761","6502300","八里區"
"249002","305-UY","2018/02/02 17:39:22","新北市八里區頂寮二街121巷22號","121.4465","25.1281","6502300","八里區"
"249003","593-UM","2018/02/02 17:39:35","新北市八里區中山路二段177號","121.404931666667","25.1503516666667","6502300","八里區"
"248006","077-UY","2018/02/02 17:39:29","新北市五股區中興路二段37巷28號","121.46011","25.07502","6501500","五股區"
"232011","375-UM","2018/02/02 17:39:33","新北市坪林區北宜路八段375號","121.708908333333","24.93221","6502000","坪林區"
"244013","069-UM","2018/02/02 17:39:29","新北市林口區文化一路二段202號","121.383138333333","25.0807966666667","6501700","林口區"
"244007","080-UY","2018/02/02 17:39:27","新北市林口區文化一路二段379號","121.38697","25.0879","6501700","林口區"
"244019","402-UM","2018/02/02 17:39:34","新北市林口區文化一路一段133號","121.373823333333","25.0718","6501700","林口區"
"244023","483-VK","2018/02/02 17:39:24","新北市林口區興林路152巷16號","121.388111666667","25.0715416666667","6501700","林口區"
"244009","656-BX","2018/02/02 17:39:38","新北市林口區寶林路93號","121.38416","25.084645","6501700","林口區"
"244011","701-TV","2018/02/02 17:39:33","新北市林口區中正路419-1號","121.386216666667","25.0777183333333","6501700","林口區"
"244025","837-TS","2018/02/02 17:39:28","新北市林口區文化三路一段394巷10號","121.36644","25.07271","6501700","林口區"
"244021","838-TS","2018/02/02 17:39:36","新北市林口區東林街32號","121.395426666667","25.07927","6501700","林口區"
"222003","436-BY","2018/02/02 17:39:28","新北市深坑區深南路51-1號","121.621086666667","25.0100533333333","6501800","深坑區"
"222002","659-BX","2018/02/02 17:39:21","新北市深坑區平埔街22巷8號","121.614946666667","25.0009","6501800","深坑區"
"231046","278-BY","2018/02/02 17:39:25","新北市新店區直潭路92號","121.530921666667","24.93758","6500600","新店區"
"241024","065-VK","2018/02/02 17:39:27","新北市三重區大勇街27號","121.482813333333","25.0715766666667","6500200","三重區"
"241005","262-UM","2018/02/02 17:39:39","新北市三重區碧華街127號","121.486133333333","25.081865","6500200","三重區"
"241016","266-UM","2018/02/02 17:39:39","新北市三重區重新路二段23號","121.497701666667","25.06265","6500200","三重區"
"241018","268-UM","2018/02/02 17:39:38","新北市三重區光復路二段143巷16號","121.474368333333","25.0616466666667","6500200","三重區"
"241007","398-BY","2018/02/02 17:39:30","新北市三重區車路頭街76號","121.484376666667","25.0739133333333","6500200","三重區"
"241014","543-UM","2018/02/02 17:39:27","新北市三重區長榮路75號","121.50262","25.0690316666667","6500200","三重區"
"241023","545-UM","2018/02/02 17:39:27","新北市三重區中華路103號","121.483613333333","25.063325","6500200","三重區"
"241012","941-UM","2018/02/02 17:39:22","新北市三重區龍濱路285號","121.50113","25.073325","6500200","三重區"
"241033","AAC-255","2018/02/02 17:39:26","新北市三重區光復路一段47號","121.472163333333","25.0486933333333","6500200","三重區"
"235064","005-UY","2018/02/02 17:39:22","新北市中和區員山路36巷16-3號","121.48513","24.99132","6500300","中和區"
"235062","800-TS","2018/02/02 17:16:50","新北市中和區員山路36巷16-3號","121.484845","24.9915166666667","6500300","中和區"
"235052","805-TS","2018/02/02 17:39:39","新北市中和區員山路36巷16-3號","121.48457","24.99123","6500300","中和區"
"247022","893-R6","2018/02/02 17:39:33","新北市蘆洲區民族路447號","121.467598333333","25.0887883333333","6501400","蘆洲區"
"247012","546-UM","2018/02/02 17:39:43","新北市蘆洲區民權路3巷2號","121.476356666667","25.085645","6501400","蘆洲區"
"247020","500-BY","2018/02/02 17:39:20","新北市蘆洲區民族路424-1號","121.473796666667","25.0918","6501400","蘆洲區"
"247008","341-TH","2018/02/02 17:39:28","新北市蘆洲區民生街109號","121.473351666667","25.0787766666667","6501400","蘆洲區"
"247010","339-TH","2018/02/02 17:39:29","新北市蘆洲區中山一路122巷1號","121.476753333333","25.0816033333333","6501400","蘆洲區"
"247002","337-TH","2018/02/02 17:39:42","新北市蘆洲區永平街32巷1號","121.458761666667","25.090915","6501400","蘆洲區"
"247004","336-TH","2018/02/02 17:39:39","新北市蘆洲區中原路12巷27號","121.4604","25.0839466666667","6501400","蘆洲區"
"247006","056-VK","2018/02/02 17:39:29","新北市蘆洲區長安街41號","121.46345","25.0793866666667","6501400","蘆洲區"
"247016","053-VK","2018/02/02 17:39:31","新北市蘆洲區光華路54巷1號","121.468403333333","25.0828733333333","6501400","蘆洲區"
"247014","007-UY","2018/02/02 17:39:25","新北市蘆洲區中正路31號","121.47119","25.08223","6501400","蘆洲區"
"247024","002-UY","2018/02/02 17:39:27","新北市蘆洲區長樂路125-1號","121.462178333333","25.08803","6501400","蘆洲區"
"247018","001-UY","2018/02/02 17:39:24","新北市蘆洲區民權路93號","121.472915","25.0888966666667","6501400","蘆洲區"
"228002","663-BX","2018/02/02 17:39:36","新北市貢寮區福隆里外隆林街14-1號","121.95918","25.0036766666667","6502600","貢寮區"
"228001","670-TC","2018/02/02 17:39:37","新北市貢寮區仁理村仁愛路95-1號","121.927685","25.055435","6502600","貢寮區"
"228003","828-UM","2018/02/02 17:39:25","新北市貢寮區真理里延平街11號","121.924355","25.0547066666667","6502600","貢寮區"
"224010","AGQ-8101","2018/02/02 17:39:25","新北市瑞芳區逢甲路143號","121.80717","25.1098933333333","6501200","瑞芳區"
"224006","676-BX","2018/02/02 17:39:22","新北市瑞芳區中山路312號","121.797005","25.1100016666667","6501200","瑞芳區"
"224009","285-BY","2018/02/02 17:39:29","新北市瑞芳區山尖路213號","121.849035","25.1124","6501200","瑞芳區"
"224008","275-VK","2018/02/02 17:39:23","新北市瑞芳區瑞柑新村1-1號","121.829198333333","25.1062583333333","6501200","瑞芳區"
"224005","271-BY","2018/02/02 17:39:28","新北市瑞芳區籠山路22號","121.832243333333","25.1232733333333","6501200","瑞芳區"
"251004","009-UM","2018/02/02 17:39:35","新北市淡水區中正東路二段88巷37-22號","121.459283333333","25.1437966666667","6501000","淡水區"
"251001","011-UM","2018/02/02 17:39:27","新北市淡水區民權路92巷35-1號","121.462215","25.12665","6501000","淡水區"
"251008","181-VK","2018/02/02 17:39:36","新北市淡水區八勢路30巷13號","121.4623","25.1537666666667","6501000","淡水區"
"251010","413-VK","2018/02/02 17:39:30","新北市淡水區淡海路292號","121.419071666667","25.1888816666667","6501000","淡水區"
"251012","441-VK","2018/02/02 17:39:29","新北市淡水區北新路200巷10號","121.451813333333","25.1797183333333","6501000","淡水區"
"251005","443-VK","2018/02/02 17:39:35","新北市淡水區鄧公路33巷9號","121.451846666667","25.17102","6501000","淡水區"
"251006","561-UM","2018/02/02 17:39:31","新北市淡水區大信街3號","121.441485","25.176375","6501000","淡水區"
"251009","575-R6","2018/02/02 17:39:31","新北市淡水區中正路38-1號","121.44374","25.1693433333333","6501000","淡水區"
"251007","577-R6","2018/02/02 17:39:33","新北市淡水區民生路124巷4弄9號","121.46354","25.1379483333333","6501000","淡水區"
"251011","650-BX","2018/02/02 17:39:29","新北市淡水區小坪頂13-3號","121.486601666667","25.1561566666667","6501000","淡水區"
"251002","672-BX","2018/02/02 17:39:34","新北市淡水區文化路15號","121.439565","25.172615","6501000","淡水區"
"251003","673-BX","2018/02/02 17:39:35","新北市淡水區中山北路一段50號","121.441811666667","25.1755766666667","6501000","淡水區"
"207003","550-UM","2018/02/02 17:39:38","新北市萬里區龜吼里漁澳路13號","121.686726666667","25.19459","6502800","萬里區"
"207004","225-TW","2018/02/02 17:39:34","新北市萬里區中幅里中福路8-1號","121.685636666667","25.1646166666667","6502800","萬里區"
"252001","292-VK","2018/02/02 17:39:36","新北市三芝區淡金路二段15號","121.502338333333","25.2590883333333","6502100","三芝區"
"252002","AAC-283","2018/02/02 17:39:37","新北市三芝區中正路二段23號","121.504273333333","25.255215","6502100","三芝區"
"237008","302-VK","2018/02/02 17:39:30","新北市三峽區中山路459巷163-3號","121.34882","24.9331016666667","6500900","三峽區"
"237014","433-BY","2018/02/02 17:39:29","新北市三峽區中山路459巷163-3號","121.349066666667","24.9329616666667","6500900","三峽區"
"237015","649-BX","2018/02/02 17:34:50","新北市三峽區中山路107巷70號","121.36378","24.9353983333333","6500900","三峽區"
"237010","706-TV","2018/02/02 17:39:32","新北市三峽區中山路121號","121.365471666667","24.9359616666667","6500900","三峽區"
"236079","166-UM","2018/02/02 17:39:36","新北市土城區城林路6巷80號","121.438665","24.9797216666667","6501300","土城區"
"236015","270-VK","2018/02/02 17:39:35","新北市土城區城林路6巷80號","121.438625","24.9795533333333","6501300","土城區"
"236022","401-BY","2018/02/02 17:39:39","新北市土城區城林路6巷80號","121.43873","24.979665","6501300","土城區"
"242032","AAC-296","2018/02/02 17:39:36","新北市新莊區新泰路361巷21號","121.442593333333","25.0429316666667","6500500","新莊區"
"242029","986-R7","2018/02/02 17:39:39","新北市新莊區復興路二段102號","121.456406666667","25.0442566666667","6500500","新莊區"
"242025","615-BX","2018/02/02 17:39:34","新北市新莊區思源路98號","121.460198333333","25.0459716666667","6500500","新莊區"
"242023","613-BX","2018/02/02 17:39:33","新北市新莊區公園路222巷1號","121.456308333333","25.0405966666667","6500500","新莊區"
"242027","612-BX","2018/02/02 17:39:27","新北市新莊區福壽街79號","121.458151666667","25.0498983333333","6500500","新莊區"
"242039","566-BX","2018/02/02 17:39:23","新北市新莊區民安路332號","121.429051666667","25.0219816666667","6500500","新莊區"
"242044","442-UM","2018/02/02 17:39:25","新北市新莊區富國路65巷12號","121.419921666667","25.0265133333333","6500500","新莊區"
"242054","440-UM","2018/02/02 17:39:33","新北市新莊區新樹路699巷12號","121.432501666667","25.001915","6500500","新莊區"
"242034","415-TV","2018/02/02 17:39:33","新北市新莊區新莊路595號","121.446133333333","25.03319","6500500","新莊區"
"242005","413-TV","2018/02/02 17:39:32","新北市新莊區自立街168號","121.455611666667","25.0454","6500500","新莊區"
"242041","400-BY","2018/02/02 17:39:32","新北市新莊區中正路514號","121.429705","25.0352866666667","6500500","新莊區"
"242060","362-BY","2018/02/02 17:39:31","新北市新莊區瓊林南路72號","121.434366666667","25.0127066666667","6500500","新莊區"
"242058","353-BY","2018/02/02 17:39:38","新北市新莊區中正路632號","121.42203","25.0287783333333","6500500","新莊區"
"242007","132-UY","2018/02/02 17:39:32","新北市新莊區福樂街150號","121.456193333333","25.048075","6500500","新莊區"
"242037","133-UY","2018/02/02 17:39:32","新北市新莊區後港一路192號","121.43242","25.0281266666667","6500500","新莊區"
"242021","135-UY","2018/02/02 17:39:36","新北市新莊區中華路一段118號","121.452568333333","25.0405883333333","6500500","新莊區"
"242046","172-VK","2018/02/02 17:39:28","新北市新莊區建國一路21號","121.433883333333","25.0315416666667","6500500","新莊區"
"242009","173-VK","2018/02/02 17:39:29","新北市新莊區昌明街14巷8弄2號","121.457433333333","25.0530833333333","6500500","新莊區"
"242015","175-VK","2018/02/02 17:39:38","新北市新莊區新泰路330號","121.444923333333","25.0418983333333","6500500","新莊區"
"242002","176-VK","2018/02/02 17:39:27","新北市新莊區新莊路337號","121.452373333333","25.0341","6500500","新莊區"
"242013","346-TH","2018/02/02 17:39:22","新北市新莊區中誠街85號","121.450315","25.047685","6500500","新莊區"
"242050","347-TH","2018/02/02 17:39:34","新北市新莊區新樹路268巷54-3號","121.429715","25.015575","6500500","新莊區"
"242019","348-TH","2018/02/02 17:39:32","新北市新莊區中港路203號","121.454861666667","25.0419066666667","6500500","新莊區"
"242056","349-TH","2018/02/02 17:39:33","新北市新莊區新莊路543巷9弄28號","121.448303333333","25.0318716666667","6500500","新莊區"
"242017","350-TH","2018/02/02 17:39:34","新北市新莊區復興路一段149巷21弄17號","121.449348333333","25.04397","6500500","新莊區"
"242011","351-TH","2018/02/02 17:39:31","新北市新莊區中港路570號","121.451435","25.053245","6500500","新莊區"
"238015","755-BX","2018/02/02 17:39:37","新北市樹林區長壽街19巷2號","121.421736666667","24.9941616666667","6500700","樹林區"
"238023","601-UM","2018/02/02 17:39:42","新北市樹林區三福街114號","121.4065","25.0163066666667","6500700","樹林區"
"238019","599-UM","2018/02/02 17:39:33","新北市樹林區太平路145號","121.419188333333","24.9798683333333","6500700","樹林區"
"238018","571-TV","2018/02/02 17:39:39","新北市樹林區鎮前街113號","121.424271666667","24.9896716666667","6500700","樹林區"
"238024","5061-A6","2018/02/02 17:39:33","新北市樹林區八德街836號","121.392381666667","24.9686083333333","6500700","樹林區"
"238021","KEA-2217","2018/02/02 17:39:35","新北市樹林區柑園街一段349號","121.390381666667","24.9563566666667","6500700","樹林區"
"238022","KEA-2213","2018/02/02 17:39:26","新北市樹林區和平街1巷2號","121.421058333333","24.9815366666667","6500700","樹林區"
"238025","303-VK","2018/02/02 17:39:38","新北市樹林區保安街二段221號","121.413265","25.0043383333333","6500700","樹林區"
"238017","283-BY","2018/02/02 17:39:33","新北市樹林區光武街32-3號","121.416573333333","25.006235","6500700","樹林區"
"238014","282-BY","2018/02/02 17:39:29","新北市樹林區保安街一段364號","121.417646666667","24.9984983333333","6500700","樹林區"
"238020","268-VK","2018/02/02 17:39:39","新北市樹林區俊英街118號","121.427396666667","25.0056133333333","6500700","樹林區"
"238026","172-UY","2018/02/02 17:39:26","新北市樹林區新興街19巷34弄5號","121.40216","24.9732683333333","6500700","樹林區"
"238016","169-UY","2018/02/02 17:39:34","新北市樹林區育英街101號","121.420446666667","24.98925","6500700","樹林區"
"239007","AAC-297","2018/02/02 17:39:25","新北市鶯歌區陽明街6號","121.340965","24.956705","6500800","鶯歌區"
"239006","891-R6","2018/02/02 17:39:36","新北市鶯歌區鶯桃路436巷61弄18號","121.333388333333","24.9672066666667","6500800","鶯歌區"
"239008","527-UM","2018/02/02 17:39:33","新北市鶯歌區宏德司法新村85號","121.334738333333","24.9791383333333","6500800","鶯歌區"
"239005","526-UM","2018/02/02 17:39:37","新北市鶯歌區福隆二街68號","121.324296666667","24.9714016666667","6500800","鶯歌區"
"239001","417-VK","2018/02/02 17:39:22","新北市鶯歌區中正三路234-4號","121.33081","24.93711","6500800","鶯歌區"
"239003","360-BY","2018/02/02 17:39:38","新北市鶯歌區鶯桃路179號","121.337843333333","24.9585766666667","6500800","鶯歌區"
"239002","359-BY","2018/02/02 17:38:26","新北市鶯歌區育智路90號","121.345073333333","24.9542766666667","6500800","鶯歌區"
"239004","193-VK","2018/02/02 17:39:33","新北市鶯歌區三鶯路81號","121.35813","24.9430733333333","6500800","鶯歌區"
"221036","130-UY","2018/02/02 17:39:38","新北市汐止區汐萬路一段256巷1號","121.651866666667","25.0748816666667","6501100","汐止區"
"221010","269-BY","2018/02/02 17:39:32","新北市汐止區汐萬路一段418巷5號","121.650423333333","25.0781516666667","6501100","汐止區"
"221023","279-VK","2018/02/02 17:39:23","新北市汐止區康寧街901號","121.650956666667","25.07523","6501100","汐止區"
"221035","622-UM","2018/02/02 17:39:25","新北市汐止區汐萬路一段256巷1號","121.652038333333","25.074805","6501100","汐止區"
"221025","623-UM","2018/02/02 17:39:22","新北市汐止區康寧街901號","121.6517","25.0749","6501100","汐止區"
"221033","647-BX","2018/02/02 17:39:27","新北市汐止區新台五路一段91號","121.649765","25.06128","6501100","汐止區"
"242048","281-VK","2018/02/02 17:39:40","新北市新莊區萬安街133號","121.42059","25.0221816666667","6500500","新莊區"
