"lineid","car","time","location","longitude","latitude","cityid","cityname"
"234046","148-BY","2018/02/02 18:39:34","新北市永和區永元路68號","121.522515","25.0014933333333","6500400","永和區"
"234007","207-UY","2018/02/02 18:39:31","新北市永和區文化路170號","121.511836666667","25.0154766666667","6500400","永和區"
"234081","298-R6","2018/02/02 18:39:42","新北市永和區永利路141號","121.524155","25.003655","6500400","永和區"
"234038","336-UY","2018/02/02 18:39:40","新北市永和區福和路1號","121.526523333333","25.0101383333333","6500400","永和區"
"234086","338-UY","2018/02/02 18:39:26","新北市中和區安平路110號","121.511631666667","24.9974766666667","6500400","永和區"
"234017","745-BX","2018/02/02 18:39:34","新北市永和區福和路1號","121.52547","25.009535","6500400","永和區"
"234030","746-BX","2018/02/02 18:39:37","新北市永和區得和路326號","121.52328","24.9995966666667","6500400","永和區"
"234013","KEA-2591","2018/02/02 18:39:40","新北市永和區保福路二段105號","121.510251666667","25.0133583333333","6500400","永和區"
"234061","AAD-866","2018/02/02 18:39:36","新北市永和區福和路12巷2號","121.52446","25.00859","6500400","永和區"
"234042","862-TW","2018/02/02 18:39:27","新北市永和區永和路一段118號","121.514125","25.00778","6500400","永和區"
"234026","9371-KE","2018/02/02 18:39:42","新北市永和區永和路一段47號","121.512755","25.0065166666667","6500400","永和區"
"234011","9373-KE","2018/02/02 18:39:41","新北市永和區文化路9巷20號","121.515278333333","25.014595","6500400","永和區"
"249005","172-UM","2018/02/02 18:39:38","新北市八里區中華路三段196號","121.388105","25.1256083333333","6502300","八里區"
"249001","173-UM","2018/02/02 18:39:37","新北市八里區龍米路一段398號","121.45138","25.1328933333333","6502300","八里區"
"249004","303-UY","2018/02/02 18:39:34","新北市八里區中山路一段7號","121.422453333333","25.15901","6502300","八里區"
"249002","305-UY","2018/02/02 18:39:22","新北市八里區頂寮二街138號","121.449316666667","25.1294516666667","6502300","八里區"
"248014","025-BX","2018/02/02 18:39:32","新北市五股區成泰路一段194-2號","121.435616666667","25.0781066666667","6501500","五股區"
"248016","026-BX","2018/02/02 18:39:36","新北市五股區凌雲路一段149巷5-1號","121.448978333333","25.1017616666667","6501500","五股區"
"248008","095-VK","2018/02/02 18:39:35","新北市五股區中興路一段150巷4號","121.464645","25.0741833333333","6501500","五股區"
"248018","225-UY","2018/02/02 18:39:34","新北市五股區民義路二段58號","121.406423333333","25.1075783333333","6501500","五股區"
"248012","247-BX","2018/02/02 18:39:38","新北市五股區御史路2號","121.442251666667","25.0901533333333","6501500","五股區"
"248010","272-BY","2018/02/02 18:39:31","新北市五股區明德路12巷3號","121.433291666667","25.0718283333333","6501500","五股區"
"248004","677-BX","2018/02/02 18:39:36","新北市五股區民義路一段215號","121.430261666667","25.0891083333333","6501500","五股區"
"248002","678-BX","2018/02/02 18:31:46","新北市五股區成泰路三段301巷1弄3號","121.447021666667","25.094565","6501500","五股區"
"234023","9380-KE","2018/02/02 18:39:33","新北市永和區環河東路二段102號","121.524528333333","25.0105083333333","6500400","永和區"
"234077","969-R7","2018/02/02 18:39:41","新北市永和區中正路362號","121.517723333333","25.00077","6500400","永和區"
"234067","AAC-212","2018/02/02 18:39:31","新北市永和區福和路195號","121.51957","25.007595","6500400","永和區"
"234003","AAC-295","2018/02/02 18:39:43","新北市永和區福和路1號","121.526596666667","25.009925","6500400","永和區"
"232011","375-UM","2018/02/02 18:18:25","新北市坪林區坪雙路一段31號","121.71169","24.9424283333333","6502000","坪林區"
"244013","069-UM","2018/02/02 18:39:29","新北市林口區中山路299號","121.384063333333","25.0801783333333","6501700","林口區"
"244007","080-UY","2018/02/02 18:39:27","新北市林口區太平里4鄰20號","121.377695","25.1160433333333","6501700","林口區"
"244019","402-UM","2018/02/02 18:39:34","新北市林口區忠孝路594巷1號","121.375908333333","25.06813","6501700","林口區"
"244023","483-VK","2018/02/02 18:39:44","新北市林口區民享路70號","121.38085","25.0810916666667","6501700","林口區"
"244009","656-BX","2018/02/02 18:39:38","新北市林口區民生路8號","121.375871666667","25.0861366666667","6501700","林口區"
"244011","701-TV","2018/02/02 18:39:33","新北市林口區仁愛路一段338號","121.390811666667","25.0764483333333","6501700","林口區"
"244025","837-TS","2018/02/02 18:39:28","新北市林口區南勢街252號","121.358458333333","25.0757416666667","6501700","林口區"
"243012","AAD-798","2018/02/02 18:39:42","新北市泰山區福興三街13號","121.43443","25.0577916666667","6501600","泰山區"
"243013","646-TV","2018/02/02 18:39:27","新北市泰山區明志路三段206巷3號","121.423263333333","25.0379233333333","6501600","泰山區"
"243016","680-BX","2018/02/02 18:39:38","新北市泰山區明志路一段205號","121.43269","25.0613333333333","6501600","泰山區"
"222003","436-BY","2018/02/02 18:39:28","新北市深坑區翠谷街14號","121.626996666667","25.0085483333333","6501800","深坑區"
"222002","659-BX","2018/02/02 18:39:21","新北市深坑區文山路一段62巷3號","121.622861666667","25.0008316666667","6501800","深坑區"
"231041","002-UM","2018/02/02 18:39:29","新北市新店區安華路28-1號","121.519753333333","24.960775","6500600","新店區"
"231058","0291-UT","2018/02/02 18:39:34","新北市新店區新店路9號","121.540413333333","24.9529016666667","6500600","新店區"
"231059","046-UY","2018/02/02 18:39:23","新北市新店區安華路28-1號","121.519618333333","24.9607516666667","6500600","新店區"
"231061","047-UY","2018/02/02 18:39:32","新北市新店區安華路28-1號","121.519178333333","24.9608516666667","6500600","新店區"
"231060","106-UY","2018/02/02 18:39:43","新北市新店區安華路28-1號","121.519778333333","24.9607816666667","6500600","新店區"
"231051","107-UY","2018/02/02 18:39:38","新北市新店區安康路一段9-2號","121.53395","24.96059","6500600","新店區"
"231048","108-UY","2018/02/02 18:39:35","新北市新店區安康路一段11號","121.533366666667","24.960345","6500600","新店區"
"231064","110-UY","2018/02/02 18:39:31","新北市新店區安華路28-1號","121.51962","24.9607183333333","6500600","新店區"
"231053","187-VK","2018/02/02 18:39:27","新北市新店區永興路34號","121.543535","24.9387766666667","6500600","新店區"
"231050","KEA-2219","2018/02/02 18:39:39","新北市新店區安華路28-1號","121.519805","24.9613033333333","6500600","新店區"
"221015","KEA-2785","2018/02/02 18:39:29","新北市汐止區吉祥街26號","121.667766666667","25.0810883333333","6501100","汐止區"
"231057","256-BX","2018/02/02 18:39:40","新北市新店區新烏路161號","121.545555","24.9325633333333","6500600","新店區"
"231046","278-BY","2018/02/02 18:39:25","新北市新店區直潭二街1號","121.53554","24.9432","6500600","新店區"
"231054","AAD-862","2018/02/02 18:39:41","新北市新店區安華路28-1號","121.51981","24.961195","6500600","新店區"
"231056","3713-VJ","2018/02/02 18:39:36","新北市新店區自立街23號","121.537603333333","24.97948","6500600","新店區"
"231055","4716-K9","2018/02/02 18:39:28","新北市新店區華興街38巷3號","121.537166666667","24.969205","6500600","新店區"
"231067","4772-VM","2018/02/02 18:39:33","新北市新店區安康路一段222-2號","121.522918333333","24.963645","6500600","新店區"
"231065","512-UM","2018/02/02 18:39:33","新北市新店區安華路28-1號","121.519398333333","24.961235","6500600","新店區"
"231042","616-UM","2018/02/02 18:39:27","新北市新店區安華路1-1號","121.519416666667","24.9604966666667","6500600","新店區"
"231045","617-UM","2018/02/02 18:39:41","新北市新店區安華路28-1號","121.519335","24.9608316666667","6500600","新店區"
"231040","619-UM","2018/02/02 18:39:32","新北市新店區安華路28-1號","121.519455","24.9608483333333","6500600","新店區"
"231063","645-TV","2018/02/02 18:39:41","新北市新店區安華路1-1號","121.519258333333","24.9604483333333","6500600","新店區"
"231049","719-UM","2018/02/02 18:39:33","新北市新店區安康路一段279號","121.523765","24.9635083333333","6500600","新店區"
"231062","720-UM","2018/02/02 18:39:40","新北市新店區安華路28-1號","121.51913","24.9610116666667","6500600","新店區"
"231044","897-TW","2018/02/02 18:39:23","新北市新店區北新路一段128-3號","121.542453333333","24.9702316666667","6500600","新店區"
"231043","899-TW","2018/02/02 18:39:25","新北市新店區安華路28-1號","121.519305","24.9612366666667","6500600","新店區"
"231066","AKT-0513","2018/02/02 18:39:29","新北市新店區安華路30巷1號","121.519125","24.9593616666667","6500600","新店區"
"235066","003-UY","2018/02/02 18:39:38","新北市中和區水源路28號","121.504478333333","25.00351","6500300","中和區"
"235064","005-UY","2018/02/02 18:39:25","新北市中和區連城路110號","121.49626","24.9998183333333","6500300","中和區"
"235056","096-UM","2018/02/02 18:39:31","新北市中和區員山路611巷1號","121.47793","25.011265","6500300","中和區"
"235039","097-UM","2018/02/02 18:39:33","新北市中和區安樂路197號","121.514643333333","24.99839","6500300","中和區"
"235065","098-UM","2018/02/02 18:39:29","新北市中和區莊敬路33巷36弄8號","121.500395","25.006435","6500300","中和區"
"235040","150-BY","2018/02/02 18:39:39","新北市中和區安平路90號","121.511338333333","24.9968","6500300","中和區"
"235058","151-BY","2018/02/02 18:39:38","新北市中和區圓通路459號","121.4843","24.985955","6500300","中和區"
"235055","183-VK","2018/02/02 18:39:32","新北市中和區民生街93-2號","121.468545","25.0047383333333","6500300","中和區"
"235038","185-VK","2018/02/02 18:39:43","新北市中和區立人街14巷52號","121.518356666667","24.9956766666667","6500300","中和區"
"235049","186-VK","2018/02/02 18:39:38","新北市中和區景平路363號","121.504445","24.9935783333333","6500300","中和區"
"235067","255-BX","2018/02/02 18:39:30","新北市中和區新生街18號","121.483186666667","25.00423","6500300","中和區"
"235044","293-VK","2018/02/02 18:39:40","新北市中和區復興路280巷5號","121.502255","24.9910416666667","6500300","中和區"
"235072","301-VK","2018/02/02 18:39:24","新北市中和區中山路二段195號","121.499885","25.0027033333333","6500300","中和區"
"235043","352-BY","2018/02/02 18:39:25","新北市中和區景平路105號","121.51699","24.9917583333333","6500300","中和區"
"235068","377-QA","2018/02/02 18:39:41","新北市中和區中正路131號","121.499838333333","24.9936033333333","6500300","中和區"
"235061","378-QA","2018/02/02 18:39:33","新北市中和區民享街90巷15號","121.474275","25.0000516666667","6500300","中和區"
"235050","4979-A6","2018/02/02 18:39:34","新北市中和區忠孝街122-2號","121.512256666667","24.986045","6500300","中和區"
"235069","4980-A6","2018/02/02 18:39:38","新北市中和區連城路99巷28號","121.4969","24.9991083333333","6500300","中和區"
"235042","551-UM","2018/02/02 18:39:31","新北市中和區成功路97巷18弄7號","121.527","24.9914883333333","6500300","中和區"
"235070","558-UM","2018/02/02 18:39:43","新北市中和區中正路218-8號","121.496621666667","24.9941533333333","6500300","中和區"
"235045","565-BX","2018/02/02 18:39:27","新北市中和區南山路236巷23弄2號","121.50558","24.9885216666667","6500300","中和區"
"235054","640-BX","2018/02/02 18:39:23","新北市中和區民享街88巷2號","121.474535","25.0007866666667","6500300","中和區"
"235060","647-TV","2018/02/02 18:39:32","新北市中和區中山路二段483號","121.482836666667","25.0049933333333","6500300","中和區"
"235047","732-UM","2018/02/02 18:29:25","新北市中和區南山路294號","121.507831666667","24.9872233333333","6500300","中和區"
"235046","733-UM","2018/02/02 18:39:25","新北市中和區仁愛街43號","121.51108","24.9883816666667","6500300","中和區"
"235062","800-TS","2018/02/02 18:39:27","新北市中和區中山路二段312巷3弄2號","121.495556666667","25.003055","6500300","中和區"
"235041","802-TS","2018/02/02 18:39:39","新北市中和區宜安路170號","121.508916666667","24.9990066666667","6500300","中和區"
"235052","805-TS","2018/02/02 18:39:39","新北市中和區興南路三段35號","121.49694","24.9781283333333","6500300","中和區"
"235048","896-TW","2018/02/02 18:39:25","新北市中和區南山路206號","121.506213333333","24.990385","6500300","中和區"
"235053","900-TW","2018/02/02 18:39:21","新北市中和區民德路266號","121.46798","24.996635","6500300","中和區"
"235063","911-UM","2018/02/02 18:39:31","新北市中和區中正路700號","121.486158333333","24.9963333333333","6500300","中和區"
"235051","157-BY","2018/02/02 18:39:39","新北市中和區華新街143巷106弄33號","121.506843333333","24.9783166666667","6500300","中和區"
"235037","AAC-213","2018/02/02 18:39:28","新北市中和區景新街383巷64號","121.514658333333","24.9903716666667","6500300","中和區"
"235059","AAC-215","2018/02/02 18:39:36","新北市中和區錦和路350-1號","121.490491666667","24.993515","6500300","中和區"
"220068","013-TV","2018/02/02 18:39:29","新北市板橋區民生路二段120號","121.470391666667","25.01978","6500100","板橋區"
"220055","015-TV","2018/02/02 18:39:30","新北市板橋區華東街1-9號","121.44809","24.9947866666667","6500100","板橋區"
"220065","072-UY","2018/02/02 18:39:37","新北市板橋區漢生東路282號","121.471181666667","25.009175","6500100","板橋區"
"220086","073-UY","2018/02/02 18:39:39","新北市板橋區南雅西路二段243號","121.45159","25.0144766666667","6500100","板橋區"
"220106","075-UY","2018/02/02 18:39:23","新北市板橋區民生路二段161巷5號","121.470033333333","25.01965","6500100","板橋區"
"220069","AAD-861","2018/02/02 18:39:25","新北市板橋區華東街1-10號","121.44867","24.995015","6500100","板橋區"
"226004","312-R5","2018/02/02 18:39:36","新北市平溪區靜安路二段348號","121.737471666667","25.0243466666667","6502400","平溪區"
"235057","251-BX","2018/02/02 18:39:34","新北市中和區員山路327巷41號","121.479713333333","25.002075","6500300","中和區"
"228002","663-BX","2018/02/02 18:39:36","新北市貢寮區福隆里東興街6-11號","121.950748333333","25.0210466666667","6502600","貢寮區"
"228001","670-TC","2018/02/02 18:39:37","新北市貢寮區仁理村保健街73號","121.923728333333","25.0516533333333","6502600","貢寮區"
"228003","828-UM","2018/02/02 18:39:25","新北市貢寮區和美里龍洞街6號","121.918413333333","25.11179","6502600","貢寮區"
"224006","676-BX","2018/02/02 18:39:42","新北市瑞芳區明燈路三段97號","121.804193333333","25.108495","6501200","瑞芳區"
"224002","639-TC","2018/02/02 18:39:39","新北市瑞芳區靜安路四段55號","121.793758333333","25.10293","6501200","瑞芳區"
"224009","285-BY","2018/02/02 18:39:09","新北市瑞芳區祈堂路12號","121.858553333333","25.1129333333333","6501200","瑞芳區"
"224008","275-VK","2018/02/02 18:39:23","新北市瑞芳區岳王路162號","121.80801","25.1112166666667","6501200","瑞芳區"
"224007","273-VK","2018/02/02 18:39:27","新北市瑞芳區大埔路115巷4號","121.763325","25.101185","6501200","瑞芳區"
"224005","271-BY","2018/02/02 18:39:24","新北市瑞芳區瑞濱路85號","121.82139","25.1209866666667","6501200","瑞芳區"
"227003","642-TC","2018/02/02 18:39:36","新北市雙溪區魚行里坤溪3-5號","121.875863333333","25.0211133333333","6502500","雙溪區"
"227011","400-TW","2018/02/02 18:39:31","新北市雙溪區牡丹里下坑11號","121.851055","25.0561483333333","6502500","雙溪區"
"253005","032-BX","2018/02/02 18:39:36","新北市石門區中山路33號","121.567156666667","25.290955","6502200","石門區"
"253006","295-VK","2018/02/02 18:39:36","新北市石門區崁子腳1-1號","121.531823333333","25.2880283333333","6502200","石門區"
"222001","KEA-2212","2018/02/02 18:39:36","新北市深坑區北深路一段84號","121.636158333333","25.0107533333333","6501800","深坑區"
"208003","665-BX","2018/02/02 18:39:30","新北市金山區中山路393號","121.633355","25.2251933333333","6502700","金山區"
"208001","761-BX","2018/02/02 18:39:39","新北市金山區文化三路42-5號","121.635156666667","25.2250316666667","6502700","金山區"
"251004","009-UM","2018/02/02 18:39:35","新北市淡水區八勢二街51巷2號","121.460773333333","25.1492366666667","6501000","淡水區"
"251001","011-UM","2018/02/02 18:39:27","新北市淡水區自強路415巷2號","121.465463333333","25.1342233333333","6501000","淡水區"
"251008","181-VK","2018/02/02 18:39:36","新北市淡水區北投子20號","121.453963333333","25.1837983333333","6501000","淡水區"
"251010","413-VK","2018/02/02 18:39:29","新北市淡水區沙崙路134號","121.423595","25.182635","6501000","淡水區"
"251012","441-VK","2018/02/02 18:39:29","新北市淡水區北新路117號","121.448988333333","25.1784466666667","6501000","淡水區"
"251006","561-UM","2018/02/02 18:39:31","新北市淡水區崁頂36-7號","121.438713333333","25.1931133333333","6501000","淡水區"
"251011","650-BX","2018/02/02 18:39:29","新北市淡水區鄧公路36巷7號","121.45671","25.169045","6501000","淡水區"
"251002","672-BX","2018/02/02 18:39:34","新北市淡水區中正東路一段3巷14弄1號","121.450908333333","25.1641766666667","6501000","淡水區"
"251003","673-BX","2018/02/02 18:39:35","新北市淡水區北新路69巷26號","121.446775","25.1800416666667","6501000","淡水區"
"207003","550-UM","2018/02/02 18:39:38","新北市萬里區大鵬里頂社2-1號","121.660328333333","25.2071933333333","6502800","萬里區"
"207004","225-TW","2018/02/02 18:39:34","新北市萬里區萬里里獅頭路10-1號","121.692093333333","25.178705","6502800","萬里區"
"252001","292-VK","2018/02/02 18:39:36","新北市三芝區中興街二段260號","121.501835","25.252935","6502100","三芝區"
"252003","702-TV","2018/02/02 18:39:38","新北市三芝區後厝里土地公坑999號","121.464565","25.2491066666667","6502100","三芝區"
"252002","AAC-283","2018/02/02 18:39:37","新北市三芝區中正路二段37號","121.503905","25.25478","6502100","三芝區"
"208002","170-UY","2018/02/02 18:39:44","新北市金山區環金路50巷1號","121.6393","25.2178633333333","6502700","金山區"
"237004","KEA-2597","2018/02/02 18:39:33","新北市三峽區有木205號","121.439061666667","24.8517583333333","6500900","三峽區"
"237009","210-TH","2018/02/02 18:39:39","新北市三峽區大同路323號","121.363193333333","24.924485","6500900","三峽區"
"237013","252-BX","2018/02/02 18:39:27","新北市三峽區光明路69巷25號","121.376745","24.9291683333333","6500900","三峽區"
"237012","275-BY","2018/02/02 18:39:27","新北市三峽區三樹路214巷11號","121.379975","24.9416333333333","6500900","三峽區"
"237008","302-VK","2018/02/02 18:39:30","新北市三峽區白雞62號","121.38647","24.9122433333333","6500900","三峽區"
"237014","433-BY","2018/02/02 18:39:29","新北市三峽區復興路485號","121.361566666667","24.938605","6500900","三峽區"
"237006","5529-G3","2018/02/02 18:39:24","新北市三峽區溪東路315巷26號","121.411065","24.9311016666667","6500900","三峽區"
"237015","649-BX","2018/02/02 18:28:10","新北市三峽區紫微路42-1號","121.422306666667","24.919875","6500900","三峽區"
"237010","706-TV","2018/02/02 18:39:32","新北市三峽區復興路279號","121.366231666667","24.9388833333333","6500900","三峽區"
"237005","AKY-6261","2018/02/02 18:39:24","新北市三峽區民生街121號","121.373516666667","24.935275","6500900","三峽區"
"236072","105-UM","2018/02/02 18:39:37","新北市土城區永豐路157巷29弄1號","121.468706666667","24.98154","6501300","土城區"
"236043","107-UM","2018/02/02 18:39:42","新北市土城區裕民路55巷15號","121.44949","24.988715","6501300","土城區"
"236079","166-UM","2018/02/02 18:39:37","新北市土城區中央路四段52巷42弄2號","121.418976666667","24.9604616666667","6501300","土城區"
"236031","253-BX","2018/02/02 18:39:37","新北市土城區慶利街33號","121.43883","24.9743883333333","6501300","土城區"
"236026","269-VK","2018/02/02 18:39:39","新北市土城區金城路一段66號","121.442796666667","24.9710716666667","6501300","土城區"
"236015","270-VK","2018/02/02 18:39:35","新北市土城區清水路207巷17號","121.459843333333","24.9823933333333","6501300","土城區"
"236039","271-VK","2018/02/02 18:39:38","新北市土城區明德路一段313巷3弄7號","121.459893333333","24.976485","6501300","土城區"
"236022","401-BY","2018/02/02 18:39:39","新北市土城區明德路一段51號","121.465295","24.9848733333333","6501300","土城區"
"236059","912-UM","2018/02/02 18:39:27","新北市土城區中央路四段29號","121.42405","24.9622366666667","6501300","土城區"
"236050","913-UM","2018/02/02 18:39:38","新北市土城區明德路一段2號","121.464771666667","24.98582","6501300","土城區"
"236063","915-UM","2018/02/02 18:39:39","新北市土城區延壽路25號","121.471165","24.9909366666667","6501300","土城區"
"236055","AAC-216","2018/02/02 18:39:24","新北市土城區中華路一段23號","121.446823333333","24.98915","6501300","土城區"
"242039","566-BX","2018/02/02 18:39:43","新北市樹林區育德街121巷7號","121.38943","24.9682683333333","6500500","新莊區"
"242044","442-UM","2018/02/02 18:39:25","新北市新莊區中正路新旺巷28號","121.416093333333","25.022915","6500500","新莊區"
"242060","362-BY","2018/02/02 18:39:31","新北市新莊區富國路176巷7號","121.4241","25.0240733333333","6500500","新莊區"
"242058","353-BY","2018/02/02 18:39:38","新北市新莊區中正路887號","121.416948333333","25.0247233333333","6500500","新莊區"
"242007","132-UY","2018/02/02 18:39:32","新北市泰山區泰林路一段2號","121.442401666667","25.0477533333333","6500500","新莊區"
"242046","172-VK","2018/02/02 18:39:28","新北市泰山區中山路二段261號","121.434645","25.04672","6500500","新莊區"
"242056","349-TH","2018/02/02 18:39:34","新北市新莊區瓊林路59-82號","121.44189","25.0233933333333","6500500","新莊區"
"238015","755-BX","2018/02/02 18:39:37","新北市樹林區大安路502-3號","121.41374","24.98646","6500700","樹林區"
"238023","601-UM","2018/02/02 18:39:42","新北市樹林區三福街114號","121.406458333333","25.0162466666667","6500700","樹林區"
"238019","599-UM","2018/02/02 18:39:23","新北市樹林區中華路190號","121.411963333333","24.9804683333333","6500700","樹林區"
"238018","571-TV","2018/02/02 18:39:39","新北市樹林區樹新路36-4號","121.428153333333","24.99516","6500700","樹林區"
"238024","5061-A6","2018/02/02 18:39:33","新北市樹林區太順街49巷5號","121.418123333333","24.978915","6500700","樹林區"
"238025","303-VK","2018/02/02 18:39:38","新北市樹林區東興街3號","121.409321666667","24.9803583333333","6500700","樹林區"
"238017","283-BY","2018/02/02 18:39:33","新北市樹林區光榮街3巷9弄2號","121.412621666667","25.003865","6500700","樹林區"
"238014","282-BY","2018/02/02 18:39:29","新北市樹林區大安路111巷25號","121.42316","24.9974966666667","6500700","樹林區"
"238020","268-VK","2018/02/02 18:39:39","新北市樹林區俊安街64號","121.418631666667","25.0130483333333","6500700","樹林區"
"238026","172-UY","2018/02/02 18:39:26","新北市樹林區育德街78-1號","121.387521666667","24.9681183333333","6500700","樹林區"
"238016","169-UY","2018/02/02 18:39:34","新北市樹林區文化街23號","121.419308333333","24.98763","6500700","樹林區"
"239007","AAC-297","2018/02/02 18:39:37","新北市鶯歌區中正一路461-5號","121.3635","24.956365","6500800","鶯歌區"
"239006","891-R6","2018/02/02 18:39:25","新北市鶯歌區鶯桃路296巷96號","121.336941666667","24.9620666666667","6500800","鶯歌區"
"239008","527-UM","2018/02/02 18:39:33","新北市鶯歌區國際一路179號","121.336211666667","24.9764883333333","6500800","鶯歌區"
"239005","526-UM","2018/02/02 18:39:37","新北市鶯歌區鳳吉三街1號","121.326386666667","24.9733716666667","6500800","鶯歌區"
"239001","417-VK","2018/02/02 18:39:24","新北市鶯歌區中正二路187-2號","121.340273333333","24.947215","6500800","鶯歌區"
"239003","360-BY","2018/02/02 18:39:38","新北市鶯歌區永和街163號","121.335361666667","24.9697983333333","6500800","鶯歌區"
"239002","359-BY","2018/02/02 18:20:46","新北市鶯歌區育智路90號","121.345065","24.9542733333333","6500800","鶯歌區"
"239004","193-VK","2018/02/02 18:39:32","新北市鶯歌區中正三路149號","121.336905","24.9402316666667","6500800","鶯歌區"
"221036","130-UY","2018/02/02 18:39:38","新北市汐止區南昌街13號","121.663486666667","25.069455","6501100","汐止區"
"221010","269-BY","2018/02/02 18:39:32","新北市汐止區夢湖路2巷5號","121.642565","25.1064683333333","6501100","汐止區"
"221012","278-VK","2018/02/02 18:39:43","新北市汐止區吉祥街27巷2號","121.667868333333","25.0816466666667","6501100","汐止區"
"221023","279-VK","2018/02/02 18:39:23","新北市汐止區汐萬路一段312號","121.65017","25.0755316666667","6501100","汐止區"
"221032","280-BY","2018/02/02 18:39:42","新北市汐止區民權街二段79號","121.619146666667","25.0480683333333","6501100","汐止區"
"221027","281-BY","2018/02/02 18:39:30","新北市汐止區汐萬路一段114號","121.653921666667","25.0713033333333","6501100","汐止區"
"221002","297-VK","2018/02/02 18:39:32","新北市汐止區中興路23號","121.636943333333","25.0595566666667","6501100","汐止區"
"221029","298-VK","2018/02/02 18:39:41","新北市汐止區樟樹一路133巷1號","121.642188333333","25.0651633333333","6501100","汐止區"
"221021","299-VK","2018/02/02 18:39:33","新北市汐止區新興路83號","121.657593333333","25.0621066666667","6501100","汐止區"
"221031","353-TW","2018/02/02 18:39:33","新北市汐止區福德一路270號","121.632193333333","25.0639083333333","6501100","汐止區"
"221035","622-UM","2018/02/02 18:39:25","新北市汐止區新台五路一段79-7號","121.645931666667","25.062345","6501100","汐止區"
"221025","623-UM","2018/02/02 18:39:22","新北市汐止區仁愛路119巷16號","121.662225","25.06426","6501100","汐止區"
"221038","646-BX","2018/02/02 18:39:43","新北市汐止區汐萬路一段312號","121.65043","25.0750316666667","6501100","汐止區"
"221033","647-BX","2018/02/02 18:39:27","新北市汐止區南勢街3號","121.62706","25.0373866666667","6501100","汐止區"
"221018","753-BX","2018/02/02 18:39:26","新北市汐止區茄苳路250巷1-1號","121.671408333333","25.0681833333333","6501100","汐止區"
"220079","145-BY","2018/02/02 18:39:34","新北市板橋區館前西路162號","121.452871666667","25.00858","6500100","板橋區"
"220080","200-UY","2018/02/02 18:39:40","新北市板橋區大觀路二段435號","121.441878333333","24.994905","6500100","板橋區"
"220082","610-BX","2018/02/02 18:39:22","新北市板橋區大觀路二段431-1號","121.441226666667","24.9949733333333","6500100","板橋區"
"220056","276-BY","2018/02/02 18:39:35","新北市板橋區四川路二段241號","121.450701666667","24.9937866666667","6500100","板橋區"
"220072","277-BY","2018/02/02 18:39:35","新北市板橋區大觀路二段443-2號","121.439826666667","24.9951316666667","6500100","板橋區"
"220071","283-VK","2018/02/02 18:39:43","新北市板橋區四川路二段橋頭6號","121.448311666667","24.99402","6500100","板橋區"
"220094","285-UM","2018/02/02 18:39:29","新北市板橋區民生路二段161巷1號","121.470111666667","25.01982","6500100","板橋區"
"220053","285-VK","2018/02/02 18:39:25","新北市板橋區民生路二段120號","121.470375","25.01987","6500100","板橋區"
"220083","286-VK","2018/02/02 18:39:22","新北市板橋區南雅南路二段144巷46號","121.449861666667","24.9969933333333","6500100","板橋區"
"220081","287-VK","2018/02/02 18:39:24","新北市板橋區大觀路二段169巷23號","121.44668","24.9998033333333","6500100","板橋區"
"220062","295-UM","2018/02/02 18:39:31","新北市板橋區民生路二段120號","121.470521666667","25.0195633333333","6500100","板橋區"
"220084","296-UM","2018/02/02 18:39:37","新北市板橋區大觀路二段11-12號","121.448071666667","24.99667","6500100","板橋區"
"242048","281-VK","2018/02/02 18:39:40","新北市樹林區環河路600-2號","121.403363333333","24.9693333333333","6500500","新莊區"
"220075","303-R5","2018/02/02 18:39:37","新北市板橋區南雅南路二段120-7號","121.45212","24.9994816666667","6500100","板橋區"
"220064","486-VK","2018/02/02 18:39:36","新北市板橋區民生路二段36-1號","121.472106666667","25.0167333333333","6500100","板橋區"
"220035","560-BX","2018/02/02 18:39:33","新北市板橋區南雅西路二段175巷1號","121.45152","25.012405","6500100","板橋區"
"220057","686-BX","2018/02/02 18:39:30","新北市板橋區華東街1-9號","121.44824","24.9948483333333","6500100","板橋區"
"220077","687-BX","2018/02/02 18:39:28","新北市板橋區大觀路二段265巷9-1號","121.442043333333","24.994935","6500100","板橋區"
"220054","741-BX","2018/02/02 18:39:34","新北市板橋區華東街1-9號","121.448055","24.9948816666667","6500100","板橋區"
"220067","829-TW","2018/02/02 18:39:23","新北市板橋區民生路二段120號","121.470385","25.0195133333333","6500100","板橋區"
"220093","833-TW","2018/02/02 18:39:38","新北市板橋區民生路二段120號","121.470755","25.0194433333333","6500100","板橋區"
"220074","895-R6","2018/02/02 18:39:39","新北市板橋區南雅南路二段144巷15號","121.451083333333","24.995615","6500100","板橋區"
"220073","985-R7","2018/02/02 18:39:33","新北市板橋區貴興路46號","121.457248333333","25.003305","6500100","板橋區"
"220070","AAC-253","2018/02/02 18:39:36","新北市板橋區華東街1-9號","121.448053333333","24.9949016666667","6500100","板橋區"
