"lineid","car","time","location","longitude","latitude","cityid","cityname"
"234046","148-BY","2018/02/02 19:09:34","新北市永和區永元路18巷40弄1號","121.524246666667","25.00037","6500400","永和區"
"234070","149-BY","2018/02/02 19:09:37","新北市永和區豫溪街137巷1弄23號","121.518416666667","25.01038","6500400","永和區"
"234007","207-UY","2018/02/02 19:09:31","新北市永和區中山路一段227號","121.50811","25.0076983333333","6500400","永和區"
"234081","298-R6","2018/02/02 19:09:42","新北市永和區永貞路39巷9弄5號","121.5221","25.0067183333333","6500400","永和區"
"234038","336-UY","2018/02/02 19:09:40","新北市永和區民樂街73巷1號","121.527386666667","24.9972933333333","6500400","永和區"
"234064","337-UY","2018/02/02 19:09:29","新北市永和區秀朗路二段48號","121.521676666667","25.00216","6500400","永和區"
"234086","338-UY","2018/02/02 19:09:26","新北市永和區永貞路75號","121.518743333333","25.0043716666667","6500400","永和區"
"234017","745-BX","2018/02/02 19:09:34","新北市永和區忠孝街27號","121.513885","25.0155016666667","6500400","永和區"
"234030","746-BX","2018/02/02 19:09:37","新北市永和區民生路21號","121.522778333333","24.99889","6500400","永和區"
"234054","KEA-2590","2018/02/02 19:09:41","新北市永和區中興街133巷10號","121.51859","25.0127133333333","6500400","永和區"
"234013","KEA-2591","2018/02/02 19:09:39","新北市永和區中山路一段100巷16號","121.511035","25.010985","6500400","永和區"
"234061","AAD-866","2018/02/02 19:09:36","新北市永和區安樂路304巷8號","121.514653333333","25.0050783333333","6500400","永和區"
"234042","862-TW","2018/02/02 19:09:27","新北市永和區保平路204號","121.50999","25.0061383333333","6500400","永和區"
"234050","863-TW","2018/02/02 19:09:27","新北市永和區文化路135巷9號","121.5107","25.01446","6500400","永和區"
"234026","9371-KE","2018/02/02 19:09:42","新北市永和區安樂路272巷9弄7號","121.515081666667","25.0045983333333","6500400","永和區"
"234011","9373-KE","2018/02/02 19:09:41","新北市永和區仁愛路141巷21號","121.512256666667","25.0115733333333","6500400","永和區"
"249005","172-UM","2018/02/02 19:09:38","新北市八里區中華路三段65號","121.39485","25.14108","6502300","八里區"
"249001","173-UM","2018/02/02 19:09:37","新北市八里區龍米路三段20號","121.428978333333","25.15911","6502300","八里區"
"248016","026-BX","2018/02/02 19:09:35","新北市五股區成泰路三段577巷81號","121.449658333333","25.10365","6501500","五股區"
"248008","095-VK","2018/02/02 19:09:35","新北市五股區中興路一段118巷19號","121.465973333333","25.0744483333333","6501500","五股區"
"248018","225-UY","2018/02/02 19:09:34","新北市五股區民義路一段220巷16-18號","121.428406666667","25.09346","6501500","五股區"
"248012","247-BX","2018/02/02 19:09:38","新北市五股區中興路四段48巷16號","121.43863","25.0834066666667","6501500","五股區"
"248010","272-BY","2018/02/02 19:09:31","新北市五股區水碓一路23號","121.430686666667","25.0712916666667","6501500","五股區"
"248004","677-BX","2018/02/02 19:09:24","新北市五股區民義路一段187號","121.430933333333","25.0886633333333","6501500","五股區"
"248002","678-BX","2018/02/02 19:09:35","新北市五股區凌雲路一段158巷13號","121.447753333333","25.1035183333333","6501500","五股區"
"234023","9380-KE","2018/02/02 19:09:33","新北市永和區中興街17號","121.515865","25.011975","6500400","永和區"
"234077","969-R7","2018/02/02 19:09:41","新北市永和區民權路34號","121.520116666667","24.9989316666667","6500400","永和區"
"234074","AAC-211","2018/02/02 19:09:31","新北市永和區竹林路211號","121.520645","25.008815","6500400","永和區"
"234067","AAC-212","2018/02/02 19:09:31","新北市永和區保平路22號","121.51225","25.0074566666667","6500400","永和區"
"234003","AAC-295","2018/02/02 19:09:31","新北市永和區保福路一段45號","121.512465","25.00924","6500400","永和區"
"244013","069-UM","2018/02/02 19:09:29","新北市林口區麗園一街11巷7號","121.377981666667","25.0704316666667","6501700","林口區"
"244007","080-UY","2018/02/02 19:09:27","新北市八里區長道坑16-7號","121.395928333333","25.1146633333333","6501700","林口區"
"244019","402-UM","2018/02/02 19:09:34","新北市林口區麗園二街87號","121.382695","25.06674","6501700","林口區"
"244023","483-VK","2018/02/02 19:09:44","新北市林口區文化三路一段617巷16號","121.37083","25.0774783333333","6501700","林口區"
"244009","656-BX","2018/02/02 19:09:38","新北市林口區台電新村162號","121.388685","25.0877666666667","6501700","林口區"
"244011","701-TV","2018/02/02 19:09:33","新北市林口區中正路296巷7號","121.388206666667","25.0781416666667","6501700","林口區"
"243012","AAD-798","2018/02/02 19:09:42","新北市泰山區辭修路36巷8弄5號","121.427856666667","25.058625","6501600","泰山區"
"243011","297-R6","2018/02/02 19:09:25","新北市泰山區明志路二段323號","121.426368333333","25.0458816666667","6501600","泰山區"
"243015","380-SR","2018/02/02 19:09:34","新北市泰山區明志路一段397號","121.430928333333","25.0573866666667","6501600","泰山區"
"243014","421-VK","2018/02/02 19:09:29","新北市泰山區泰林路二段483號","121.425093333333","25.0639216666667","6501600","泰山區"
"243010","KEA-2215","2018/02/02 19:09:33","新北市泰山區明志路一段483巷1弄3號","121.431005","25.05558","6501600","泰山區"
"243009","KEA-2216","2018/02/02 19:09:25","新北市泰山區楓樹街33巷29號","121.43478","25.0636516666667","6501600","泰山區"
"243013","646-TV","2018/02/02 19:09:27","新北市泰山區明志路三段231巷2弄1號","121.424045","25.0376983333333","6501600","泰山區"
"243016","680-BX","2018/02/02 19:09:38","新北市泰山區明志路二段379號","121.425258333333","25.043755","6501600","泰山區"
"222003","436-BY","2018/02/02 19:09:28","新北市深坑區深南路162號","121.626083333333","25.01497","6501800","深坑區"
"222002","659-BX","2018/02/02 19:09:41","新北市深坑區紅葉街61號","121.632276666667","25.01389","6501800","深坑區"
"231041","002-UM","2018/02/02 19:09:29","新北市新店區溪園路415號","121.524436666667","24.97862","6500600","新店區"
"231058","0291-UT","2018/02/02 19:09:34","新北市新店區光明街138巷13弄9號","121.540111666667","24.96157","6500600","新店區"
"231059","046-UY","2018/02/02 19:09:23","新北市新店區安和路二段111號","121.51886","24.9699316666667","6500600","新店區"
"231061","047-UY","2018/02/02 19:09:32","新北市新店區安康路一段48號","121.53037","24.96109","6500600","新店區"
"231060","106-UY","2018/02/02 19:09:43","新北市新店區安康路二段167號","121.509883333333","24.95933","6500600","新店區"
"231051","107-UY","2018/02/02 19:09:38","新北市新店區中正路378號","121.534746666667","24.9769083333333","6500600","新店區"
"231048","108-UY","2018/02/02 19:09:34","新北市新店區中興路二段67巷9號","121.546135","24.97105","6500600","新店區"
"231064","110-UY","2018/02/02 19:09:31","新北市新店區安忠路63巷2號","121.511545","24.9580383333333","6500600","新店區"
"231053","187-VK","2018/02/02 19:09:27","新北市新店區自強路55巷12號","121.547423333333","24.9250083333333","6500600","新店區"
"231050","KEA-2219","2018/02/02 19:09:39","新北市新店區竹林路2巷30號","121.550001666667","24.9504483333333","6500600","新店區"
"221015","KEA-2785","2018/02/02 19:09:29","新北市汐止區汐萬路一段256巷3號","121.65313","25.074355","6501100","汐止區"
"231046","278-BY","2018/02/02 19:09:45","新北市新店區華潭街1巷49號","121.526101666667","24.9467716666667","6500600","新店區"
"231054","AAD-862","2018/02/02 19:09:41","新北市新店區新店路190號","121.537203333333","24.95614","6500600","新店區"
"231056","3713-VJ","2018/02/02 19:09:36","新北市新店區二十張路46巷37弄21號","121.535971666667","24.9815933333333","6500600","新店區"
"231055","4716-K9","2018/02/02 19:09:28","新北市新店區新生街13巷42號","121.538935","24.96652","6500600","新店區"
"231067","4772-VM","2018/02/02 19:09:32","新北市新店區安康路一段266巷4號","121.520063333333","24.963985","6500600","新店區"
"231065","512-UM","2018/02/02 19:09:33","新北市新店區安祥路145巷31號","121.475421666667","24.9566533333333","6500600","新店區"
"231042","616-UM","2018/02/02 19:09:27","新北市新店區中興路一段113號","121.541473333333","24.9626183333333","6500600","新店區"
"231045","617-UM","2018/02/02 19:09:21","新北市新店區北宜路一段123-2號","121.540556666667","24.9534266666667","6500600","新店區"
"231040","619-UM","2018/02/02 19:09:32","新北市新店區三民路98-2號","121.533953333333","24.9734633333333","6500600","新店區"
"231063","645-TV","2018/02/02 19:09:41","新北市新店區車子路137號","121.505133333333","24.9483083333333","6500600","新店區"
"231049","719-UM","2018/02/02 19:09:41","新北市新店區二十張路25巷18弄2號","121.539131666667","24.9818133333333","6500600","新店區"
"231062","720-UM","2018/02/02 19:09:40","新北市新店區安康路一段222號","121.523766666667","24.96359","6500600","新店區"
"231044","897-TW","2018/02/02 19:09:43","新北市新店區中興路三段186號","121.543971666667","24.9814866666667","6500600","新店區"
"231043","899-TW","2018/02/02 19:09:25","新北市新店區寶橋路98號","121.54691","24.9758983333333","6500600","新店區"
"231066","AKT-0513","2018/02/02 19:09:29","新北市新店區安康路三段359巷12弄1號","121.484496666667","24.9498516666667","6500600","新店區"
"241026","066-VK","2018/02/02 19:09:25","新北市三重區重安街111號","121.494571666667","25.055015","6500200","三重區"
"241029","942-UM","2018/02/02 19:09:30","新北市三重區集美街257號","121.492386666667","25.0555183333333","6500200","三重區"
"235066","003-UY","2018/02/02 19:09:38","新北市中和區廣福路12號","121.505655","25.0026483333333","6500300","中和區"
"235064","005-UY","2018/02/02 19:09:42","新北市中和區泰和街9號","121.499588333333","25.0002583333333","6500300","中和區"
"235056","096-UM","2018/02/02 19:09:31","新北市中和區員山路570號","121.478886666667","25.0112933333333","6500300","中和區"
"235039","097-UM","2018/02/02 19:09:33","新北市永和區民有街12號","121.516335","24.9967666666667","6500300","中和區"
"235065","098-UM","2018/02/02 19:09:29","新北市中和區莊敬路33號","121.50094","25.00493","6500300","中和區"
"235040","150-BY","2018/02/02 19:09:39","新北市中和區宜安路13號","121.513261666667","24.9956033333333","6500300","中和區"
"235058","151-BY","2018/02/02 19:09:37","新北市中和區員山路105號","121.480778333333","24.99441","6500300","中和區"
"235055","183-VK","2018/02/02 19:09:32","新北市中和區德光路13號","121.471198333333","25.0044416666667","6500300","中和區"
"235038","185-VK","2018/02/02 19:09:23","新北市中和區大仁街20巷41號","121.518998333333","24.9932316666667","6500300","中和區"
"235049","186-VK","2018/02/02 19:09:35","新北市中和區明禮街23號","121.50458","24.99598","6500300","中和區"
"235067","255-BX","2018/02/02 19:09:30","新北市中和區中正路839巷3號","121.484498333333","25.0023583333333","6500300","中和區"
"235044","293-VK","2018/02/02 19:09:40","新北市中和區中興街235巷2號","121.500675","24.9894783333333","6500300","中和區"
"235072","301-VK","2018/02/02 19:09:24","新北市中和區連城路176號","121.493155","24.99698","6500300","中和區"
"235043","352-BY","2018/02/02 19:09:25","新北市中和區景平路144號","121.518471666667","24.9920733333333","6500300","中和區"
"235068","377-QA","2018/02/02 19:09:40","新北市中和區圓通路189號","121.49739","24.9945466666667","6500300","中和區"
"235061","378-QA","2018/02/02 19:09:34","新北市中和區中山路三段63巷9號","121.477268333333","25.004205","6500300","中和區"
"235071","269-TV","2018/02/02 19:09:43","新北市中和區員山路72號","121.480916666667","24.99348","6500300","中和區"
"235050","4979-A6","2018/02/02 19:09:33","新北市中和區復興路263巷9弄11-4號","121.503295","24.9897583333333","6500300","中和區"
"235069","4980-A6","2018/02/02 19:09:38","新北市中和區中和路217巷1弄3號","121.50393","25.0003283333333","6500300","中和區"
"235042","551-UM","2018/02/02 19:09:31","新北市中和區自立路117巷2弄2號","121.522365","24.9943683333333","6500300","中和區"
"235070","558-UM","2018/02/02 19:09:23","新北市中和區中正路218-8號","121.496621666667","24.9941533333333","6500300","中和區"
"235045","565-BX","2018/02/02 19:09:27","新北市中和區景新街467巷35弄1號","121.514588333333","24.9890816666667","6500300","中和區"
"235054","640-BX","2018/02/02 19:09:43","新北市中和區國光街6巷1號","121.471928333333","25.0001733333333","6500300","中和區"
"235060","647-TV","2018/02/02 19:09:32","新北市中和區民享街37號","121.474175","25.00379","6500300","中和區"
"235046","733-UM","2018/02/02 19:09:25","新北市中和區忠孝街1巷42號","121.508598333333","24.9840383333333","6500300","中和區"
"235041","802-TS","2018/02/02 19:09:40","新北市中和區中和路236號","121.506916666667","24.9996266666667","6500300","中和區"
"235052","805-TS","2018/02/02 19:09:39","新北市中和區興南路二段142巷31弄33號","121.501978333333","24.9832616666667","6500300","中和區"
"235048","896-TW","2018/02/02 19:09:25","新北市中和區忠孝街2巷2-3號","121.509898333333","24.9826883333333","6500300","中和區"
"235053","900-TW","2018/02/02 19:09:41","新北市中和區華福街83號","121.467483333333","24.996485","6500300","中和區"
"235063","911-UM","2018/02/02 19:09:31","新北市中和區中正路540號","121.48745","24.9945416666667","6500300","中和區"
"235051","157-BY","2018/02/02 19:09:39","新北市中和區興南路一段71號","121.510131666667","24.9893366666667","6500300","中和區"
"235037","AAC-213","2018/02/02 19:09:28","新北市中和區秀朗路三段60巷46號","121.524736666667","24.9949666666667","6500300","中和區"
"235059","AAC-215","2018/02/02 19:09:36","新北市中和區圓通路294巷17-5號","121.488763333333","24.990335","6500300","中和區"
"220068","013-TV","2018/02/02 19:09:30","新北市板橋區中山路二段443巷70號","121.48086","25.0220483333333","6500100","板橋區"
"220055","015-TV","2018/02/02 19:09:30","新北市板橋區新民街5號","121.46393","25.009635","6500100","板橋區"
"220065","072-UY","2018/02/02 19:09:37","新北市板橋區民族路219巷26號","121.46951","25.0085733333333","6500100","板橋區"
"220086","073-UY","2018/02/02 19:09:38","新北市板橋區中正路250巷122號","121.46005","25.020035","6500100","板橋區"
"220106","075-UY","2018/02/02 19:09:23","新北市板橋區雙十路三段12號","121.471915","25.030615","6500100","板橋區"
"220069","AAD-861","2018/02/02 19:09:25","新北市板橋區東興街42號","121.45777","25.0052883333333","6500100","板橋區"
"220098","120-SR","2018/02/02 19:09:34","新北市板橋區自由路51巷14弄10號","121.464646666667","25.0237716666667","6500100","板橋區"
"226004","312-R5","2018/02/02 19:09:26","新北市平溪區靜安路二段561號","121.748826666667","25.0245066666667","6502400","平溪區"
"235057","251-BX","2018/02/02 19:09:34","新北市中和區民利街100巷6弄2號","121.47712","24.9984533333333","6500300","中和區"
"228002","663-BX","2018/02/02 19:09:36","新北市貢寮區福隆里福隆街32-1號","121.945086666667","25.0174066666667","6502600","貢寮區"
"228001","670-TC","2018/02/02 19:09:37","新北市貢寮區真理里新港街10號","121.92553","25.0543483333333","6502600","貢寮區"
"228003","828-UM","2018/02/02 19:09:25","新北市貢寮區和美里和美街38號","121.912141666667","25.0883216666667","6502600","貢寮區"
"224010","AGQ-8101","2018/02/02 19:09:32","新北市瑞芳區基山街76號","121.84462","25.1086533333333","6501200","瑞芳區"
"224006","676-BX","2018/02/02 19:09:42","新北市瑞芳區三爪子坑路124號","121.80601","25.1055366666667","6501200","瑞芳區"
"224009","285-BY","2018/02/02 19:09:29","新北市瑞芳區洞頂路85號","121.862798333333","25.118695","6501200","瑞芳區"
"224008","275-VK","2018/02/02 19:09:43","新北市瑞芳區瑞芳街112巷1號","121.801461666667","25.110795","6501200","瑞芳區"
"224005","271-BY","2018/02/02 19:09:39","新北市瑞芳區國中新村18號","121.81717","25.1073633333333","6501200","瑞芳區"
"227003","642-TC","2018/02/02 19:09:29","新北市雙溪區平林里外平林8號","121.85958","25.0381766666667","6502500","雙溪區"
"227011","400-TW","2018/02/02 19:09:31","新北市雙溪區牡丹里自強路18號","121.865175","25.0393166666667","6502500","雙溪區"
"253005","032-BX","2018/02/02 19:09:37","新北市石門區阿里荖40-1號","121.60635","25.2802933333333","6502200","石門區"
"253006","295-VK","2018/02/02 19:09:36","新北市石門區崁子腳1-5號","121.532138333333","25.2877033333333","6502200","石門區"
"222001","KEA-2212","2018/02/02 19:09:25","新北市深坑區北深路一段300號","121.624276666667","25.0057083333333","6501800","深坑區"
"208003","665-BX","2018/02/02 19:09:40","新北市金山區中正路26號","121.63585","25.2222066666667","6502700","金山區"
"208001","761-BX","2018/02/02 19:09:39","新北市金山區金包里街66號","121.639148333333","25.221475","6502700","金山區"
"251001","011-UM","2018/02/02 19:09:27","新北市淡水區自強路201巷43號","121.462031666667","25.1268583333333","6501000","淡水區"
"251010","413-VK","2018/02/02 19:09:29","新北市淡水區中正路一段156巷3號","121.421196666667","25.180215","6501000","淡水區"
"251006","561-UM","2018/02/02 19:09:31","新北市淡水區崁頂70-2號","121.437513333333","25.202885","6501000","淡水區"
"251009","575-R6","2018/02/02 19:09:31","新北市淡水區中正路96號","121.442215","25.16964","6501000","淡水區"
"251002","672-BX","2018/02/02 19:09:34","新北市淡水區中山路77號","121.442635","25.1704233333333","6501000","淡水區"
"251003","673-BX","2018/02/02 19:09:35","新北市淡水區大義街3號","121.44382","25.1780516666667","6501000","淡水區"
"207003","550-UM","2018/02/02 19:09:38","新北市萬里區大鵬里萬里加投79-3號","121.647331666667","25.2123633333333","6502800","萬里區"
"207004","225-TW","2018/02/02 19:09:34","新北市萬里區萬里里瑪鋉路54巷20號","121.690961666667","25.1778483333333","6502800","萬里區"
"252001","292-VK","2018/02/02 19:09:36","新北市三芝區長勤街45巷4號","121.500428333333","25.2550616666667","6502100","三芝區"
"252003","702-TV","2018/02/02 19:09:38","新北市三芝區錫板里海尾11-7號","121.478703333333","25.2607833333333","6502100","三芝區"
"252002","AAC-283","2018/02/02 19:09:37","新北市三芝區埔坪里埔頭坑84號","121.508071666667","25.2542666666667","6502100","三芝區"
"208002","170-UY","2018/02/02 19:09:24","新北市金山區中正路71巷11號","121.633573333333","25.2211316666667","6502700","金山區"
"237004","KEA-2597","2018/02/02 19:09:33","新北市三峽區有木206號","121.439118333333","24.8514566666667","6500900","三峽區"
"237007","153-BY","2018/02/02 19:09:24","新北市三峽區中正路二段279號","121.366056666667","24.9112933333333","6500900","三峽區"
"237013","252-BX","2018/02/02 19:09:27","新北市三峽區光明路69巷25號","121.376753333333","24.9292016666667","6500900","三峽區"
"237012","275-BY","2018/02/02 19:09:27","新北市三峽區三樹路222巷254弄42-1號","121.391973333333","24.9438216666667","6500900","三峽區"
"237008","302-VK","2018/02/02 19:09:30","新北市三峽區光明路106巷20號","121.376028333333","24.9272233333333","6500900","三峽區"
"237014","433-BY","2018/02/02 19:09:29","新北市三峽區中山路257巷39號","121.362061666667","24.93641","6500900","三峽區"
"237006","5529-G3","2018/02/02 19:09:24","新北市三峽區溪東路1號","121.399236666667","24.93552","6500900","三峽區"
"237015","649-BX","2018/02/02 18:41:50","新北市三峽區紫微南路41號","121.41949","24.912125","6500900","三峽區"
"237010","706-TV","2018/02/02 19:09:32","新北市三峽區復興路179-7號","121.369315","24.938845","6500900","三峽區"
"237005","AKY-6261","2018/02/02 19:09:44","新北市三峽區中山路459巷163-3號","121.348668333333","24.9328483333333","6500900","三峽區"
"236072","105-UM","2018/02/02 19:09:37","新北市土城區裕生路84巷2號","121.447358333333","24.9854516666667","6501300","土城區"
"236079","166-UM","2018/02/02 19:09:36","新北市土城區龍泉路10-1號","121.409528333333","24.94928","6501300","土城區"
"236026","269-VK","2018/02/02 19:09:39","新北市土城區和平路2-1號","121.442326666667","24.9747483333333","6501300","土城區"
"236015","270-VK","2018/02/02 19:09:43","新北市土城區學府路一段39號","121.457855","24.98826","6501300","土城區"
"236039","271-VK","2018/02/02 19:09:38","新北市土城區清水路141巷6號","121.45843","24.9817816666667","6501300","土城區"
"236022","401-BY","2018/02/02 19:09:39","新北市土城區延吉街185號","121.469173333333","24.9856066666667","6501300","土城區"
"236059","912-UM","2018/02/02 19:09:27","新北市土城區金城路二段250號","121.457155","24.9832566666667","6501300","土城區"
"236050","913-UM","2018/02/02 19:09:38","新北市土城區明德路一段398-1號","121.453643333333","24.9791016666667","6501300","土城區"
"236063","915-UM","2018/02/02 19:09:39","新北市土城區金城路三段93巷14號","121.466975","24.98821","6501300","土城區"
"236055","AAC-216","2018/02/02 19:09:44","新北市土城區學府路一段276號","121.449978333333","24.9830333333333","6501300","土城區"
"238015","755-BX","2018/02/02 19:09:36","新北市樹林區備內街99-4號","121.40748","24.98935","6500700","樹林區"
"238023","601-UM","2018/02/02 19:09:42","新北市樹林區大慶街55號","121.396186666667","25.013925","6500700","樹林區"
"238019","599-UM","2018/02/02 19:09:23","新北市樹林區東榮街106號","121.415461666667","24.9823833333333","6500700","樹林區"
"238018","571-TV","2018/02/02 19:09:39","新北市樹林區太平路50號","121.419056666667","24.98252","6500700","樹林區"
"238024","5061-A6","2018/02/02 19:09:33","新北市樹林區味王街20號","121.403201666667","24.9755616666667","6500700","樹林區"
"238021","KEA-2217","2018/02/02 19:09:33","新北市樹林區柑園街二段300號","121.37364","24.9518183333333","6500700","樹林區"
"238022","KEA-2213","2018/02/02 19:09:44","新北市樹林區中山路二段151巷8弄15號","121.406388333333","24.9776483333333","6500700","樹林區"
"238025","303-VK","2018/02/02 19:09:38","新北市樹林區中山路三段147-5號","121.396103333333","24.9730216666667","6500700","樹林區"
"238017","283-BY","2018/02/02 19:09:33","新北市樹林區光興街302號","121.407408333333","25.0054316666667","6500700","樹林區"
"238014","282-BY","2018/02/02 19:09:29","新北市樹林區千歲街70巷1弄21號","121.426775","24.997755","6500700","樹林區"
"238020","268-VK","2018/02/02 19:09:39","新北市樹林區俊英街155巷9弄2號","121.423926666667","25.0119883333333","6500700","樹林區"
"238026","172-UY","2018/02/02 19:09:26","新北市樹林區地政街33號","121.394696666667","24.9718233333333","6500700","樹林區"
"238016","169-UY","2018/02/02 19:09:34","新北市樹林區中山路一段296號","121.420305","24.9864183333333","6500700","樹林區"
"239007","AAC-297","2018/02/02 19:09:25","新北市鶯歌區中山路48號","121.351991666667","24.95711","6500800","鶯歌區"
"239006","891-R6","2018/02/02 19:09:25","新北市鶯歌區永昌街77號","121.340936666667","24.94986","6500800","鶯歌區"
"239008","527-UM","2018/02/02 19:09:33","新北市鶯歌區國際二路18巷41號","121.338215","24.9758733333333","6500800","鶯歌區"
"239005","526-UM","2018/02/02 19:09:37","新北市鶯歌區三界公坑7號","121.352646666667","24.9701383333333","6500800","鶯歌區"
"239001","417-VK","2018/02/02 19:09:42","新北市鶯歌區永智街104號","121.336768333333","24.9532866666667","6500800","鶯歌區"
"239003","360-BY","2018/02/02 19:09:38","新北市鶯歌區鶯桃路324號","121.333881666667","24.962095","6500800","鶯歌區"
"239004","193-VK","2018/02/02 19:09:32","新北市鶯歌區二甲路100號","121.333398333333","24.9315816666667","6500800","鶯歌區"
"221036","130-UY","2018/02/02 19:09:38","新北市汐止區新江北路3號","121.652813333333","25.070755","6501100","汐止區"
"221010","269-BY","2018/02/02 19:09:31","新北市汐止區康寧街901號","121.651605","25.0750066666667","6501100","汐止區"
"221012","278-VK","2018/02/02 19:09:43","新北市汐止區康寧街901號","121.650783333333","25.07524","6501100","汐止區"
"221023","279-VK","2018/02/02 19:09:23","新北市汐止區康寧街901號","121.650988333333","25.0752266666667","6501100","汐止區"
"221027","281-BY","2018/02/02 19:09:30","新北市汐止區康寧街901號","121.651346666667","25.0750283333333","6501100","汐止區"
"221002","297-VK","2018/02/02 19:09:32","台北市南港區南港路一段28號","121.6188","25.0547216666667","6501100","汐止區"
"221029","298-VK","2018/02/02 19:09:41","新北市汐止區康寧街901號","121.651368333333","25.0749616666667","6501100","汐止區"
"221031","353-TW","2018/02/02 19:09:33","新北市汐止區福德三路20號","121.63722","25.069465","6501100","汐止區"
"221025","623-UM","2018/02/02 19:09:42","新北市汐止區康寧街901號","121.651531666667","25.0749283333333","6501100","汐止區"
"221038","646-BX","2018/02/02 19:09:43","新北市汐止區汐萬路一段312號","121.650635","25.0752616666667","6501100","汐止區"
"221033","647-BX","2018/02/02 19:09:27","新北市汐止區南勢街1巷1號","121.627008333333","25.0374216666667","6501100","汐止區"
"220079","145-BY","2018/02/02 19:09:32","新北市板橋區民權路302巷4號","121.45737","25.016455","6500100","板橋區"
"220080","200-UY","2018/02/02 19:09:40","新北市板橋區大觀路二段7巷98號","121.450075","25.0028933333333","6500100","板橋區"
"220082","610-BX","2018/02/02 19:09:42","新北市板橋區溪崑二街63號","121.428113333333","24.9904316666667","6500100","板橋區"
"220103","257-TC","2018/02/02 19:09:27","新北市板橋區文化路一段188巷9弄21號","121.468461666667","25.01951","6500100","板橋區"
"220091","267-BY","2018/02/02 19:09:44","新北市板橋區縣民大道247巷86號","121.482126666667","25.0270366666667","6500100","板橋區"
"220056","276-BY","2018/02/02 19:09:35","新北市板橋區信義路110巷2弄1號","121.457926666667","24.99233","6500100","板橋區"
"220072","277-BY","2018/02/02 19:09:40","新北市板橋區金門街369巷57弄9號","121.429366666667","24.98423","6500100","板橋區"
"220101","280-UM","2018/02/02 19:09:25","新北市板橋區萬板路36號","121.471835","25.0224083333333","6500100","板橋區"
"220071","283-VK","2018/02/02 19:09:23","新北市板橋區重慶路269巷55號","121.464916666667","24.9989333333333","6500100","板橋區"
"220094","285-UM","2018/02/02 19:09:29","新北市板橋區光武街108-5號","121.4657","25.02919","6500100","板橋區"
"220053","285-VK","2018/02/02 19:09:25","新北市板橋區永豐街123號","121.4745","25.019705","6500100","板橋區"
"220083","286-VK","2018/02/02 19:09:42","新北市板橋區龍興街97巷15號","121.443488333333","25.002905","6500100","板橋區"
"220081","287-VK","2018/02/02 19:09:44","新北市板橋區南雅西路二段156巷5號","121.452141666667","25.0133983333333","6500100","板橋區"
"220090","288-VK","2018/02/02 19:09:27","新北市板橋區裕民街45巷4號","121.461525","25.0283683333333","6500100","板橋區"
"220061","293-UM","2018/02/02 19:09:42","新北市板橋區三民路二段2號","121.479186666667","25.0182666666667","6500100","板橋區"
"220062","295-UM","2018/02/02 19:09:35","新北市板橋區三民路二段245巷71號","121.481095","25.0126583333333","6500100","板橋區"
"220084","296-UM","2018/02/02 19:09:37","新北市板橋區大觀路三段191號","121.431988333333","24.993715","6500100","板橋區"
"220092","299-UM","2018/02/02 19:09:30","新北市板橋區文化路一段322-1號","121.46793","25.0224933333333","6500100","板橋區"
"242048","281-VK","2018/02/02 19:09:40","新北市新莊區環漢路三段532號","121.435335","25.0004283333333","6500500","新莊區"
"220075","303-R5","2018/02/02 19:09:37","新北市板橋區府中路98號","121.456093333333","25.009615","6500100","板橋區"
"220064","486-VK","2018/02/02 19:09:41","新北市板橋區中山路一段283巷22號","121.470448333333","25.015295","6500100","板橋區"
"220089","487-VK","2018/02/02 19:09:26","新北市板橋區文化路二段446號","121.474646666667","25.0324366666667","6500100","板橋區"
"220088","491-VK","2018/02/02 19:09:23","新北市板橋區文化路二段182巷1弄23號","121.471515","25.028245","6500100","板橋區"
"220035","560-BX","2018/02/02 19:09:33","新北市板橋區中正路336-3號","121.455125","25.0223533333333","6500100","板橋區"
"220063","609-BX","2018/02/02 19:09:24","新北市板橋區三民路二段139號","121.479231666667","25.015235","6500100","板橋區"
"220057","686-BX","2018/02/02 19:09:30","新北市板橋區重慶路202號","121.462595","25.0027233333333","6500100","板橋區"
"220077","687-BX","2018/02/02 19:09:28","新北市板橋區大觀路二段125-1號","121.445941666667","25.0012733333333","6500100","板橋區"
"220054","741-BX","2018/02/02 19:09:34","新北市板橋區重慶路89巷4號","121.462493333333","25.006385","6500100","板橋區"
"220067","829-TW","2018/02/02 19:09:23","新北市板橋區中山路二段90巷43弄22號","121.477066666667","25.01523","6500100","板橋區"
"220096","830-TW","2018/02/02 19:09:29","新北市板橋區雙十路二段37-1號","121.476841666667","25.025815","6500100","板橋區"
"220093","833-TW","2018/02/02 19:09:38","新北市板橋區民生路三段179號","121.465478333333","25.02731","6500100","板橋區"
"220074","895-R6","2018/02/02 19:09:39","新北市板橋區中正路43號","121.456308333333","25.0133216666667","6500100","板橋區"
"220073","985-R7","2018/02/02 19:09:33","新北市板橋區中正路249號","121.455808333333","25.0183016666667","6500100","板橋區"
"220097","AAC-210","2018/02/02 19:09:37","新北市板橋區英士路199號","121.45867","25.0231283333333","6500100","板橋區"
"220070","AAC-253","2018/02/02 19:09:36","新北市板橋區四川路一段353號","121.45842","24.9998566666667","6500100","板橋區"
