"lineid","car","time","location","longitude","latitude","cityid","cityname"
"234046","148-BY","2018/02/02 19:49:34","新北市永和區永利路135號","121.523945","25.00338","6500400","永和區"
"234070","149-BY","2018/02/02 19:49:37","新北市永和區竹林路81號","121.519591666667","25.0125966666667","6500400","永和區"
"234007","207-UY","2018/02/02 19:49:31","新北市永和區中和路307號","121.506633333333","24.999635","6500400","永和區"
"234081","298-R6","2018/02/02 19:49:42","新北市永和區永亨路100號","121.52329","25.0046816666667","6500400","永和區"
"234038","336-UY","2018/02/02 19:49:40","新北市永和區民樂街57巷6號","121.528051666667","24.99846","6500400","永和區"
"234064","337-UY","2018/02/02 19:49:29","新北市永和區中正路368巷18號","121.518446666667","25.000775","6500400","永和區"
"234086","338-UY","2018/02/02 19:49:46","新北市永和區永亨路13號","121.519561666667","25.005805","6500400","永和區"
"234017","745-BX","2018/02/02 19:49:34","新北市永和區永和路二段299號","121.515956666667","25.0163366666667","6500400","永和區"
"234030","746-BX","2018/02/02 19:49:37","新北市永和區民生路67巷52號","121.525321666667","24.9974933333333","6500400","永和區"
"234054","KEA-2590","2018/02/02 19:49:41","新北市永和區竹林路75巷17號","121.519918333333","25.0138933333333","6500400","永和區"
"234013","KEA-2591","2018/02/02 19:49:40","新北市永和區永平路308號","121.507185","25.0125166666667","6500400","永和區"
"234061","AAD-866","2018/02/02 19:49:35","新北市永和區中正路220號","121.515956666667","24.9975316666667","6500400","永和區"
"234042","862-TW","2018/02/02 19:49:27","新北市永和區中和路385號","121.508583333333","25.0001583333333","6500400","永和區"
"234050","863-TW","2018/02/02 19:49:43","新北市永和區保安路81號","121.508666666667","25.0146983333333","6500400","永和區"
"234026","9371-KE","2018/02/02 19:49:42","新北市永和區雙和街25巷7號","121.508965","25.0017966666667","6500400","永和區"
"234011","9373-KE","2018/02/02 19:49:40","新北市永和區仁愛路352巷110號","121.50059","25.0082683333333","6500400","永和區"
"249001","173-UM","2018/02/02 19:49:37","新北市八里區中華路二段252號","121.405358333333","25.1496833333333","6502300","八里區"
"249004","303-UY","2018/02/02 19:49:34","新北市八里區觀海大道271號","121.414473333333","25.16149","6502300","八里區"
"249002","305-UY","2018/02/02 19:49:42","新北市八里區頂寮五街17號","121.451426666667","25.125945","6502300","八里區"
"249003","593-UM","2018/02/02 19:49:36","新北市八里區中華路二段558號","121.398555","25.1452383333333","6502300","八里區"
"248014","025-BX","2018/02/02 19:49:45","新北市五股區五福路42巷10號","121.434326666667","25.0895966666667","6501500","五股區"
"248016","026-BX","2018/02/02 19:49:35","新北市五股區成泰路四段18-2號","121.453591666667","25.1067283333333","6501500","五股區"
"248008","095-VK","2018/02/02 19:49:35","新北市五股區四維路183號","121.468011666667","25.0754483333333","6501500","五股區"
"248018","225-UY","2018/02/02 19:49:34","新北市五股區外寮路1-2號","121.428656666667","25.0773383333333","6501500","五股區"
"248012","247-BX","2018/02/02 19:49:38","新北市五股區蓬萊路24號","121.433933333333","25.0798883333333","6501500","五股區"
"248010","272-BY","2018/02/02 19:49:31","新北市五股區登林路76-5號","121.430645","25.0695033333333","6501500","五股區"
"248004","677-BX","2018/02/02 19:49:44","新北市五股區成泰路一段114-1號","121.435508333333","25.0733416666667","6501500","五股區"
"248002","678-BX","2018/02/02 19:49:35","新北市五股區成泰路四段15-3號","121.453218333333","25.1068483333333","6501500","五股區"
"234077","969-R7","2018/02/02 19:49:41","新北市永和區民權路23號","121.52014","24.9977883333333","6500400","永和區"
"234074","AAC-211","2018/02/02 19:49:31","新北市永和區豫溪街136巷5號","121.521295","25.0099983333333","6500400","永和區"
"234067","AAC-212","2018/02/02 19:49:31","新北市永和區中山路一段170號","121.509343333333","25.0091116666667","6500400","永和區"
"234003","AAC-295","2018/02/02 19:49:43","新北市永和區自由街2號","121.514946666667","25.007155","6500400","永和區"
"243012","AAD-798","2018/02/02 19:49:42","新北市泰山區仁愛路87號","121.43342","25.055985","6501600","泰山區"
"243011","297-R6","2018/02/02 19:49:44","新北市泰山區明志路三段196巷21弄20號","121.422746666667","25.03865","6501600","泰山區"
"243015","380-SR","2018/02/02 19:49:34","新北市泰山區明志路二段246-1號","121.427045","25.0481866666667","6501600","泰山區"
"243014","421-VK","2018/02/02 19:49:29","新北市泰山區泰林路二段33-7號","121.435173333333","25.0564233333333","6501600","泰山區"
"243010","KEA-2215","2018/02/02 19:49:33","新北市泰山區民生路33號","121.430558333333","25.05224","6501600","泰山區"
"243009","KEA-2216","2018/02/02 19:49:25","新北市泰山區美寧街58號","121.430755","25.0647433333333","6501600","泰山區"
"243013","646-TV","2018/02/02 19:43:21","新北市泰山區應化街13號","121.423876666667","25.0436766666667","6501600","泰山區"
"243016","680-BX","2018/02/02 19:49:38","新北市泰山區新北大道七段97號","121.417798333333","25.031985","6501600","泰山區"
"222003","436-BY","2018/02/02 19:31:09","新北市深坑區深南路51-1號","121.621215","25.0098066666667","6501800","深坑區"
"222002","659-BX","2018/02/02 19:49:41","新北市深坑區北深路二段43巷11弄2號","121.619571666667","25.0035316666667","6501800","深坑區"
"231041","002-UM","2018/02/02 19:49:29","新北市新店區中央路151號","121.529523333333","24.9723316666667","6500600","新店區"
"231058","0291-UT","2018/02/02 19:49:34","新北市新店區安興路32號","121.51561","24.9700283333333","6500600","新店區"
"231059","046-UY","2018/02/02 19:49:42","新北市新店區安和路一段9號","121.516826666667","24.9640316666667","6500600","新店區"
"231061","047-UY","2018/02/02 19:49:31","新北市新店區安民街337號","121.517151666667","24.974855","6500600","新店區"
"231060","106-UY","2018/02/02 19:49:40","新北市新店區安康路二段165號","121.509975","24.959225","6500600","新店區"
"231051","107-UY","2018/02/02 19:49:39","新北市新店區中央二街73-1號","121.526033333333","24.9749183333333","6500600","新店區"
"231048","108-UY","2018/02/02 19:49:35","新北市新店區寶興路43號","121.549053333333","24.97358","6500600","新店區"
"231064","110-UY","2018/02/02 19:49:39","新北市新店區安和路二段113巷1弄2號","121.51828","24.9702083333333","6500600","新店區"
"231053","187-VK","2018/02/02 19:49:27","新北市新店區新烏路二段474-3號","121.55287","24.908095","6500600","新店區"
"231050","KEA-2219","2018/02/02 19:49:39","新北市新店區北宜路二段174號","121.55844","24.954135","6500600","新店區"
"221015","KEA-2785","2018/02/02 19:49:29","新北市汐止區大同路二段535號","121.661943333333","25.0690966666667","6501100","汐止區"
"231057","256-BX","2018/02/02 19:49:37","新北市新店區梅崗三路1號","121.558343333333","24.9312433333333","6500600","新店區"
"231046","278-BY","2018/02/02 19:49:25","新北市新店區三民路159巷19弄31號","121.53231","24.9731383333333","6500600","新店區"
"231054","AAD-862","2018/02/02 19:49:41","新北市新店區光明街132號","121.539358333333","24.9611333333333","6500600","新店區"
"231056","3713-VJ","2018/02/02 19:49:36","新北市新店區中央路13號","121.533338333333","24.9783833333333","6500600","新店區"
"231055","4716-K9","2018/02/02 19:49:28","新北市新店區新生街1號","121.540351666667","24.9656333333333","6500600","新店區"
"231067","4772-VM","2018/02/02 19:49:33","新北市新店區精忠路10-1號","121.532658333333","24.95905","6500600","新店區"
"231065","512-UM","2018/02/02 19:49:33","新北市新店區安祥路109巷151弄12號","121.478123333333","24.9589","6500600","新店區"
"231042","616-UM","2018/02/02 19:49:27","新北市新店區中興路一段268-2號","121.545191666667","24.9678583333333","6500600","新店區"
"231045","617-UM","2018/02/02 19:49:41","新北市新店區北宜路二段382號","121.564465","24.9528983333333","6500600","新店區"
"231040","619-UM","2018/02/02 19:49:32","新北市新店區北新路一段96巷23號","121.54305","24.968855","6500600","新店區"
"231063","645-TV","2018/02/02 19:49:41","新北市新店區黎明路3號","121.503331666667","24.9523416666667","6500600","新店區"
"231049","719-UM","2018/02/02 19:49:37","新北市新店區民權路127巷1號","121.535361666667","24.9819816666667","6500600","新店區"
"231062","720-UM","2018/02/02 19:49:40","新北市新店區永業路91號","121.529138333333","24.94887","6500600","新店區"
"231044","897-TW","2018/02/02 19:49:23","新北市新店區復興路68號","121.537713333333","24.986865","6500600","新店區"
"231043","899-TW","2018/02/02 19:49:35","新北市新店區中正路263-3號","121.53839","24.9738066666667","6500600","新店區"
"231066","AKT-0513","2018/02/02 19:49:29","新北市新店區安興路20號","121.514996666667","24.9660183333333","6500600","新店區"
"241011","013-R5","2018/02/02 19:49:42","新北市三重區三和路二段173巷47號","121.499325","25.070175","6500200","三重區"
"241028","022-UY","2018/02/02 19:49:32","新北市三重區中正南路163號","121.493851666667","25.056005","6500200","三重區"
"241008","059-VK","2018/02/02 19:49:42","新北市三重區永福街90號","121.478785","25.076225","6500200","三重區"
"241009","060-VK","2018/02/02 19:49:42","新北市三重區三和路四段396巷41號","121.479825","25.0788016666667","6500200","三重區"
"241031","061-VK","2018/02/02 19:49:34","新北市三重區重新路四段248號","121.486035","25.0533516666667","6500200","三重區"
"241015","062-VK","2018/02/02 19:49:32","新北市三重區三和路一段25號","121.503578333333","25.064765","6500200","三重區"
"241017","063-VK","2018/02/02 19:49:39","新北市三重區重陽路三段5巷8弄20號","121.489578333333","25.066475","6500200","三重區"
"241024","065-VK","2018/02/02 19:49:27","新北市三重區大勇街82巷11號","121.479556666667","25.071675","6500200","三重區"
"241026","066-VK","2018/02/02 19:49:45","新北市三重區文化南路42號","121.50036","25.0602483333333","6500200","三重區"
"241005","262-UM","2018/02/02 19:49:39","新北市三重區溪尾街324號","121.487851666667","25.0845766666667","6500200","三重區"
"241016","266-UM","2018/02/02 19:49:41","新北市三重區正義北路48巷74號","121.495563333333","25.0633933333333","6500200","三重區"
"241022","267-UM","2018/02/02 19:49:34","新北市三重區新北大道一段7號","121.48964","25.0616766666667","6500200","三重區"
"241018","268-UM","2018/02/02 19:49:27","新北市三重區雙園街57巷34弄13號","121.494113333333","25.0683116666667","6500200","三重區"
"241032","269-UM","2018/02/02 19:49:43","新北市三重區重陽路一段46號","121.486458333333","25.0576833333333","6500200","三重區"
"241013","270-UM","2018/02/02 19:49:42","新北市三重區仁愛街102巷8號","121.494758333333","25.0738933333333","6500200","三重區"
"241025","271-UM","2018/02/02 19:49:39","新北市三重區大有街1-1號","121.477668333333","25.0653433333333","6500200","三重區"
"241007","398-BY","2018/02/02 19:49:30","新北市三重區慈愛街8號","121.484461666667","25.0784083333333","6500200","三重區"
"241020","413-TH","2018/02/02 19:49:37","新北市三重區三和路4段20巷26-1號","121.490151666667","25.0732833333333","6500200","三重區"
"241004","475-VK","2018/02/02 19:49:39","新北市三重區五華街74號","121.493445","25.0819983333333","6500200","三重區"
"241019","478-VK","2018/02/02 19:49:23","新北市三重區自強路二段74巷25號","121.487761666667","25.06972","6500200","三重區"
"241030","480-VK","2018/02/02 19:49:38","新北市三重區環河南路254巷88號","121.488921666667","25.051735","6500200","三重區"
"241014","543-UM","2018/02/02 19:49:26","新北市三重區長安街82號","121.501431666667","25.0675416666667","6500200","三重區"
"241023","545-UM","2018/02/02 19:49:27","新北市三重區頂崁街172號","121.477588333333","25.06596","6500200","三重區"
"241001","547-UM","2018/02/02 19:49:34","新北市三重區仁愛街327巷49號","121.493418333333","25.0801433333333","6500200","三重區"
"241006","AAD-863","2018/02/02 19:49:43","新北市三重區力行路二段76巷1弄2號","121.481513333333","25.0736633333333","6500200","三重區"
"241035","743-BX","2018/02/02 19:49:41","新北市三重區文化北路6-3號","121.499606666667","25.0635916666667","6500200","三重區"
"241003","887-TS","2018/02/02 19:49:25","新北市三重區五華街93巷53號","121.493085","25.08441","6500200","三重區"
"241012","941-UM","2018/02/02 19:49:32","新北市三重區仁福街64巷14號","121.497698333333","25.0751233333333","6500200","三重區"
"241029","942-UM","2018/02/02 19:49:30","新北市三重區光明路15號","121.491061666667","25.0587316666667","6500200","三重區"
"241033","AAC-255","2018/02/02 19:49:38","新北市三重區中興南街66號","121.470615","25.0439966666667","6500200","三重區"
"235066","003-UY","2018/02/02 19:49:38","新北市中和區南工路60號","121.506233333333","25.001715","6500300","中和區"
"235064","005-UY","2018/02/02 19:49:22","新北市中和區圓通路29號","121.501175","24.9977933333333","6500300","中和區"
"235056","096-UM","2018/02/02 19:49:31","新北市中和區中山路三段114巷3號","121.475276666667","25.0074883333333","6500300","中和區"
"235039","097-UM","2018/02/02 19:49:33","新北市中和區景平路172號","121.517068333333","24.99264","6500300","中和區"
"235065","098-UM","2018/02/02 19:49:29","新北市中和區莊敬路22號","121.500078333333","25.0044933333333","6500300","中和區"
"235040","150-BY","2018/02/02 19:49:39","新北市中和區安平路31號","121.509416666667","24.9946766666667","6500300","中和區"
"235058","151-BY","2018/02/02 19:49:38","新北市中和區員山路132巷20號","121.482218333333","24.9962766666667","6500300","中和區"
"235055","183-VK","2018/02/02 19:49:32","新北市中和區德光路27巷1弄1號","121.47086","25.0040033333333","6500300","中和區"
"235038","185-VK","2018/02/02 19:49:43","新北市中和區自強路66號","121.519863333333","24.9942383333333","6500300","中和區"
"235049","186-VK","2018/02/02 19:49:35","新北市中和區中正路78號","121.500461666667","24.99398","6500300","中和區"
"235067","255-BX","2018/02/02 19:49:30","新北市中和區新生街186巷2號","121.483463333333","24.9996766666667","6500300","中和區"
"235044","293-VK","2018/02/02 19:49:40","新北市中和區中正路3號","121.503336666667","24.9932316666667","6500300","中和區"
"235043","352-BY","2018/02/02 19:49:25","新北市中和區華新街232巷20號","121.505621666667","24.98245","6500300","中和區"
"235068","377-QA","2018/02/02 19:49:40","新北市中和區永和路7號","121.499338333333","25.0038033333333","6500300","中和區"
"235071","269-TV","2018/02/02 19:49:43","新北市中和區民樂路81號","121.484536666667","25.001325","6500300","中和區"
"235050","4979-A6","2018/02/02 19:49:41","新北市中和區景平路329巷1弄5號","121.506075","24.9925316666667","6500300","中和區"
"235042","551-UM","2018/02/02 19:49:31","新北市中和區保健路2巷11號","121.507453333333","24.997805","6500300","中和區"
"235070","558-UM","2018/02/02 19:49:03","新北市中和區中正路218-8號","121.496621666667","24.9941533333333","6500300","中和區"
"235045","565-BX","2018/02/02 19:49:27","新北市中和區安樂路33號","121.51169","24.9923933333333","6500300","中和區"
"235054","640-BX","2018/02/02 19:49:43","新北市中和區莒光路47號","121.47214","25.00474","6500300","中和區"
"235060","647-TV","2018/02/02 19:49:32","新北市中和區員山路394巷5號","121.48088","25.0046433333333","6500300","中和區"
"235047","732-UM","2018/02/02 19:49:44","新北市中和區和平街34號","121.509273333333","24.9903866666667","6500300","中和區"
"235046","733-UM","2018/02/02 19:49:45","新北市中和區仁愛街36號","121.51095","24.9883433333333","6500300","中和區"
"235041","802-TS","2018/02/02 19:49:39","新北市中和區中安街40巷2號","121.512796666667","25.0029566666667","6500300","中和區"
"235052","805-TS","2018/02/02 19:49:39","新北市中和區興南路二段159巷21號","121.50585","24.9837116666667","6500300","中和區"
"235048","896-TW","2018/02/02 19:49:25","新北市中和區興南路一段91-2號","121.509723333333","24.9886483333333","6500300","中和區"
"235053","900-TW","2018/02/02 19:49:41","新北市中和區國光街170號","121.467735","25.00165","6500300","中和區"
"235063","911-UM","2018/02/02 19:49:31","新北市中和區連勝街138號","121.494243333333","24.997065","6500300","中和區"
"235051","157-BY","2018/02/02 19:49:39","新北市中和區中興街202巷35號","121.499003333333","24.9897316666667","6500300","中和區"
"235037","AAC-213","2018/02/02 19:49:28","新北市中和區秀朗路三段173號","121.524563333333","24.9914716666667","6500300","中和區"
"235059","AAC-215","2018/02/02 19:49:36","新北市中和區圓通路305巷29弄2號","121.495111666667","24.9891116666667","6500300","中和區"
"220068","013-TV","2018/02/02 19:49:29","新北市板橋區中山路二段416巷3弄1號","121.48341","25.0205183333333","6500100","板橋區"
"220055","015-TV","2018/02/02 19:49:30","新北市板橋區和平路29號","121.459895","24.9955783333333","6500100","板橋區"
"220065","072-UY","2018/02/02 19:49:37","新北市板橋區民族路83-1號","121.465873333333","25.00851","6500100","板橋區"
"220086","073-UY","2018/02/02 19:49:44","新北市板橋區館前西路162號","121.452846666667","25.0086433333333","6500100","板橋區"
"220106","075-UY","2018/02/02 19:49:43","新北市板橋區民治街61巷24號","121.480541666667","25.0334016666667","6500100","板橋區"
"220069","AAD-861","2018/02/02 19:49:25","新北市板橋區南雅南路二段11-25號","121.45408","25.00181","6500100","板橋區"
"220098","120-SR","2018/02/02 19:49:34","新北市板橋區四維路269巷85號","121.459925","25.0267183333333","6500100","板橋區"
"247008","341-TH","2018/02/02 19:49:34","新北市蘆洲區信義路113巷1弄17號","121.477743333333","25.080275","6501400","蘆洲區"
"247002","337-TH","2018/02/02 19:49:42","新北市蘆洲區永樂街38巷65號","121.458616666667","25.0903733333333","6501400","蘆洲區"
"247004","336-TH","2018/02/02 19:49:39","新北市蘆洲區中原路79號","121.45836","25.0818616666667","6501400","蘆洲區"
"247006","056-VK","2018/02/02 19:49:25","新北市蘆洲區永安南路二段40-1號","121.46675","25.0772466666667","6501400","蘆洲區"
"247016","053-VK","2018/02/02 19:49:30","新北市蘆洲區中正路261號","121.467541666667","25.087225","6501400","蘆洲區"
"247014","007-UY","2018/02/02 19:49:39","新北市蘆洲區復興路11號","121.472061666667","25.0853683333333","6501400","蘆洲區"
"226004","312-R5","2018/02/02 19:49:26","新北市平溪區十分里十分街58巷15號","121.774706666667","25.0430166666667","6502400","平溪區"
"235057","251-BX","2018/02/02 19:49:34","新北市中和區員山路134號","121.481283333333","24.9963216666667","6500300","中和區"
"228001","670-TC","2018/02/02 19:49:37","新北市貢寮區仁理村仁愛路95-1號","121.927485","25.0556166666667","6502600","貢寮區"
"228003","828-UM","2018/02/02 19:49:42","新北市貢寮區真理里延平街72-5號","121.925096666667","25.0584416666667","6502600","貢寮區"
"224010","AGQ-8101","2018/02/02 19:49:45","新北市瑞芳區輕便路338號","121.83989","25.10861","6501200","瑞芳區"
"227003","642-TC","2018/02/02 19:49:29","新北市雙溪區雙溪里內挖路47號","121.863208333333","25.03679","6502500","雙溪區"
"227011","400-TW","2018/02/02 19:49:31","新北市雙溪區新基里自強路7號","121.866248333333","25.0389933333333","6502500","雙溪區"
"222001","KEA-2212","2018/02/02 19:49:28","新北市深坑區北深路三段68號","121.607868333333","25.0013716666667","6501800","深坑區"
"208003","665-BX","2018/02/02 19:49:30","新北市金山區清泉里清水路41巷2號","121.629773333333","25.2325616666667","6502700","金山區"
"208001","761-BX","2018/02/02 19:49:39","新北市金山區重和里林口32號","121.596223333333","25.2095116666667","6502700","金山區"
"251001","011-UM","2018/02/02 19:49:27","新北市淡水區中正東路二段37號","121.45928","25.156295","6501000","淡水區"
"251012","441-VK","2018/02/02 19:49:29","新北市淡水區中山北路三段164號","121.44592","25.1965133333333","6501000","淡水區"
"251005","443-VK","2018/02/02 19:49:35","新北市淡水區中正東路37號","121.445871666667","25.1681333333333","6501000","淡水區"
"251006","561-UM","2018/02/02 19:49:31","新北市淡水區水碓街15號","121.44351","25.1769533333333","6501000","淡水區"
"251009","575-R6","2018/02/02 19:49:31","新北市淡水區中正路38-1號","121.443688333333","25.1693533333333","6501000","淡水區"
"251007","577-R6","2018/02/02 19:49:39","新北市淡水區竿蓁一街115號","121.45556","25.1660666666667","6501000","淡水區"
"251011","650-BX","2018/02/02 19:49:37","新北市淡水區淡金路二段138號","121.446875","25.18768","6501000","淡水區"
"251002","672-BX","2018/02/02 19:49:34","新北市淡水區新市二路三段16號","121.432005","25.1946283333333","6501000","淡水區"
"207003","550-UM","2018/02/02 19:49:38","新北市萬里區大鵬里萬里加投68號","121.642241666667","25.214685","6502800","萬里區"
"207004","225-TW","2018/02/02 19:49:34","新北市萬里區萬里里瑪鋉路170號","121.689875","25.1797783333333","6502800","萬里區"
"252001","292-VK","2018/02/02 19:49:36","新北市三芝區長安街89號","121.499668333333","25.257535","6502100","三芝區"
"252002","AAC-283","2018/02/02 19:49:37","新北市三芝區三民街20號","121.504543333333","25.2586216666667","6502100","三芝區"
"208002","170-UY","2018/02/02 19:49:24","新北市金山區中華路366-7號","121.633353333333","25.2244366666667","6502700","金山區"
"237004","KEA-2597","2018/02/02 19:49:33","新北市三峽區添福111-1號","121.374013333333","24.9014733333333","6500900","三峽區"
"237007","153-BY","2018/02/02 19:49:43","新北市三峽區二鬮路136巷22弄27號","121.357046666667","24.910345","6500900","三峽區"
"237009","210-TH","2018/02/02 19:49:39","新北市三峽區中園街69號","121.368083333333","24.9255766666667","6500900","三峽區"
"237013","252-BX","2018/02/02 19:49:27","新北市三峽區介壽路二段165號","121.394083333333","24.9359616666667","6500900","三峽區"
"237012","275-BY","2018/02/02 19:49:27","新北市三峽區中華路40號","121.372958333333","24.93143","6500900","三峽區"
"237008","302-VK","2018/02/02 19:49:30","新北市三峽區中正路一段174巷1弄2號","121.372226666667","24.92868","6500900","三峽區"
"237014","433-BY","2018/02/02 19:49:29","新北市三峽區添福59-1號","121.374651666667","24.90342","6500900","三峽區"
"237006","5529-G3","2018/02/02 19:49:43","新北市三峽區中正路一段336巷15弄2號","121.369945","24.9249633333333","6500900","三峽區"
"237005","AKY-6261","2018/02/02 19:49:24","新北市三峽區民生街92號","121.374106666667","24.9356416666667","6500900","三峽區"
"236072","105-UM","2018/02/02 19:49:37","新北市土城區水源街32巷4號","121.440981666667","24.9756933333333","6501300","土城區"
"236043","107-UM","2018/02/02 19:49:24","新北市土城區裕民路274號","121.455096666667","24.9824483333333","6501300","土城區"
"236079","166-UM","2018/02/02 19:49:35","新北市土城區中央路四段464號","121.40995","24.950445","6501300","土城區"
"236031","253-BX","2018/02/02 19:49:37","新北市土城區中央路一段318巷4弄12號","121.443258333333","24.9823716666667","6501300","土城區"
"236026","269-VK","2018/02/02 19:49:43","新北市土城區中央路二段61巷46號","121.444195","24.9783883333333","6501300","土城區"
"236039","271-VK","2018/02/02 19:49:37","新北市土城區國際路158巷49號","121.468266666667","24.9753433333333","6501300","土城區"
"236022","401-BY","2018/02/02 19:49:39","新北市土城區峰廷街3號","121.469081666667","24.9872816666667","6501300","土城區"
"236059","912-UM","2018/02/02 19:49:27","新北市土城區中央路一段289-2號","121.444178333333","24.9839516666667","6501300","土城區"
"236050","913-UM","2018/02/02 19:49:38","新北市土城區明德路一段238號","121.46022","24.9773216666667","6501300","土城區"
"236063","915-UM","2018/02/02 19:49:39","新北市土城區延和路105巷1弄1號","121.467576666667","24.990395","6501300","土城區"
"236055","AAC-216","2018/02/02 19:49:39","新北市土城區延和路93號","121.467231666667","24.98996","6501300","土城區"
"242032","AAC-296","2018/02/02 19:49:38","新北市新莊區仁愛街65號","121.444025","25.0374766666667","6500500","新莊區"
"242029","986-R7","2018/02/02 19:49:44","新北市新莊區幸福路914號","121.442498333333","25.048905","6500500","新莊區"
"242025","615-BX","2018/02/02 19:49:27","新北市新莊區五權一路12巷21弄4號","121.45784","25.0644516666667","6500500","新莊區"
"242027","612-BX","2018/02/02 19:49:25","新北市新莊區中平路377巷45號","121.443121666667","25.0524966666667","6500500","新莊區"
"242044","442-UM","2018/02/02 19:49:25","新北市新莊區新北大道七段712號","121.412351666667","25.0265066666667","6500500","新莊區"
"242034","415-TV","2018/02/02 19:49:36","新北市新莊區仁愛街69號","121.444228333333","25.03768","6500500","新莊區"
"242005","413-TV","2018/02/02 19:49:32","新北市新莊區化成路63巷24弄17號","121.462661666667","25.045985","6500500","新莊區"
"242060","362-BY","2018/02/02 19:49:39","新北市新莊區中正路471號","121.441958333333","25.0334883333333","6500500","新莊區"
"242058","353-BY","2018/02/02 19:49:34","新北市新莊區民安路272號","121.427655","25.0213333333333","6500500","新莊區"
"242007","132-UY","2018/02/02 19:49:30","新北市新莊區思源路593巷6弄23號","121.457726666667","25.0600066666667","6500500","新莊區"
"242037","133-UY","2018/02/02 19:49:32","新北市新莊區建安街89號","121.427083333333","25.0245316666667","6500500","新莊區"
"242021","135-UY","2018/02/02 19:49:35","新北市新莊區建中街52號","121.448463333333","25.0372733333333","6500500","新莊區"
"242002","176-VK","2018/02/02 19:49:24","新北市新莊區新泰路2-11號","121.45009","25.0325","6500500","新莊區"
"242013","346-TH","2018/02/02 19:49:25","新北市新莊區中泰街32號","121.450965","25.04706","6500500","新莊區"
"242019","348-TH","2018/02/02 19:49:39","新北市新莊區中港路182號","121.454886666667","25.0420783333333","6500500","新莊區"
"242017","350-TH","2018/02/02 19:49:39","新北市新莊區中安街6號","121.452931666667","25.0452633333333","6500500","新莊區"
"242011","351-TH","2018/02/02 19:49:31","新北市新莊區中榮街114號","121.446868333333","25.0528","6500500","新莊區"
"238015","755-BX","2018/02/02 19:49:36","新北市樹林區大安路626號","121.411078333333","24.9825866666667","6500700","樹林區"
"238023","601-UM","2018/02/02 19:49:42","新北市樹林區三福街114號","121.406541666667","25.0163116666667","6500700","樹林區"
"238024","5061-A6","2018/02/02 19:49:33","新北市樹林區中山路三段210-2號","121.381393333333","24.9656066666667","6500700","樹林區"
"238021","KEA-2217","2018/02/02 19:49:33","新北市樹林區佳園路三段113巷5-1號","121.387053333333","24.950185","6500700","樹林區"
"238025","303-VK","2018/02/02 19:49:38","新北市樹林區中山路三段187號","121.39443","24.972425","6500700","樹林區"
"238017","283-BY","2018/02/02 19:49:33","新北市樹林區大安路455號","121.41494","24.9879566666667","6500700","樹林區"
"238026","172-UY","2018/02/02 19:49:26","新北市樹林區中山路三段210-2號","121.380628333333","24.96683","6500700","樹林區"
"221036","130-UY","2018/02/02 19:49:38","新北市汐止區秀峰路60號","121.659371666667","25.0655583333333","6501100","汐止區"
"221010","269-BY","2018/02/02 19:49:32","新北市汐止區八連路一段7號","121.648675","25.0802566666667","6501100","汐止區"
"221012","278-VK","2018/02/02 19:49:23","新北市汐止區大同路三段549號","121.68134","25.07154","6501100","汐止區"
"221023","279-VK","2018/02/02 19:49:43","新北市汐止區明峰街149號","121.62932","25.070485","6501100","汐止區"
"221032","280-BY","2018/02/02 19:49:42","新北市汐止區橫科路119號","121.620028333333","25.05034","6501100","汐止區"
"221027","281-BY","2018/02/02 19:49:30","新北市汐止區忠孝東路9號","121.658325","25.065915","6501100","汐止區"
"221029","298-VK","2018/02/02 19:49:41","新北市汐止區康寧街901號","121.651563333333","25.0749316666667","6501100","汐止區"
"221021","299-VK","2018/02/02 19:49:33","新北市汐止區新興路83-1號","121.65773","25.0619516666667","6501100","汐止區"
"221031","353-TW","2018/02/02 19:49:43","新北市汐止區福德三路8號","121.637673333333","25.06955","6501100","汐止區"
"221035","622-UM","2018/02/02 19:49:25","新北市汐止區長江街13巷5弄1號","121.65469","25.07163","6501100","汐止區"
"221025","623-UM","2018/02/02 19:49:42","新北市汐止區秀峰路81巷46號","121.661648333333","25.0647116666667","6501100","汐止區"
"221038","646-BX","2018/02/02 19:49:43","新北市汐止區忠孝東路414號","121.665895","25.07138","6501100","汐止區"
"221033","647-BX","2018/02/02 19:49:27","新北市汐止區東勢街76巷100-1號","121.636363333333","25.03905","6501100","汐止區"
"221018","753-BX","2018/02/02 19:49:26","新北市汐止區汐萬路一段5號","121.656025","25.067385","6501100","汐止區"
"220079","145-BY","2018/02/02 19:49:32","新北市板橋區中正路135巷12弄1號","121.455628333333","25.01553","6500100","板橋區"
"220080","200-UY","2018/02/02 19:49:40","新北市板橋區大觀路二段37巷282號","121.449928333333","25.001105","6500100","板橋區"
"220082","610-BX","2018/02/02 19:49:42","新北市板橋區存德街45號","121.431006666667","24.9914216666667","6500100","板橋區"
"220103","257-TC","2018/02/02 19:49:39","新北市板橋區陽明街29巷3號","121.465283333333","25.0216383333333","6500100","板橋區"
"220091","267-BY","2018/02/02 19:49:24","新北市板橋區懷德街127巷23弄29號","121.48014","25.03223","6500100","板橋區"
"220072","277-BY","2018/02/02 19:49:35","新北市板橋區金門街215巷36號","121.434061666667","24.9893266666667","6500100","板橋區"
"220101","280-UM","2018/02/02 19:49:45","新北市板橋區八德路三段33巷17-1號","121.47379","25.021395","6500100","板橋區"
"220071","283-VK","2018/02/02 19:49:42","新北市板橋區廣權路79號","121.463936666667","24.9923733333333","6500100","板橋區"
"220094","285-UM","2018/02/02 19:49:29","新北市板橋區溪頭街82-3號","121.459013333333","25.0298933333333","6500100","板橋區"
"220053","285-VK","2018/02/02 19:49:25","新北市板橋區中山路二段60巷9號","121.47427","25.0152766666667","6500100","板橋區"
"220083","286-VK","2018/02/02 19:49:42","新北市板橋區龍興街63巷22號","121.442615","25.0015716666667","6500100","板橋區"
"220081","287-VK","2018/02/02 19:49:24","新北市板橋區大觀路一段29巷4弄2號","121.450186666667","25.0078283333333","6500100","板橋區"
"220090","288-VK","2018/02/02 19:49:27","新北市板橋區綠堤街25號","121.455815","25.0265783333333","6500100","板橋區"
"220061","293-UM","2018/02/02 19:49:42","新北市板橋區板新路202號","121.468941666667","25.016225","6500100","板橋區"
"220062","295-UM","2018/02/02 19:49:31","新北市板橋區光復街33巷13弄6號","121.482131666667","25.0192216666667","6500100","板橋區"
"220084","296-UM","2018/02/02 19:49:17","新北市板橋區滿平二街4號","121.425533333333","24.9863633333333","6500100","板橋區"
"220092","299-UM","2018/02/02 19:49:30","新北市板橋區陽明街164巷10弄9號","121.464268333333","25.0240033333333","6500100","板橋區"
"242048","281-VK","2018/02/02 19:49:40","新北市新莊區後港一路28巷14號","121.4256","25.0250466666667","6500500","新莊區"
"220075","303-R5","2018/02/02 19:49:37","新北市板橋區大勇街59號","121.453606666667","25.0167583333333","6500100","板橋區"
"220064","486-VK","2018/02/02 19:49:36","新北市板橋區中山路一段74號","121.46168","25.01001","6500100","板橋區"
"220089","487-VK","2018/02/02 19:49:26","新北市板橋區綠堤街39-4號","121.455275","25.02635","6500100","板橋區"
"220088","491-VK","2018/02/02 19:49:43","新北市板橋區文聖街89巷2號","121.477571666667","25.02989","6500100","板橋區"
"220035","560-BX","2018/02/02 19:49:33","新北市板橋區金華街27號","121.455983333333","25.0206633333333","6500100","板橋區"
"220063","609-BX","2018/02/02 19:49:43","新北市板橋區中山路二段385號","121.480188333333","25.0193366666667","6500100","板橋區"
"220057","686-BX","2018/02/02 19:49:30","新北市板橋區廣和街63號","121.46256","24.9929616666667","6500100","板橋區"
"220077","687-BX","2018/02/02 19:49:28","新北市板橋區僑中一街102巷1弄16號","121.44596","25.01218","6500100","板橋區"
"220054","741-BX","2018/02/02 19:49:34","新北市板橋區實踐路65巷39號","121.46504","25.0065133333333","6500100","板橋區"
"220067","829-TW","2018/02/02 19:49:31","新北市板橋區長安街259巷39號","121.472663333333","25.0113216666667","6500100","板橋區"
"220096","830-TW","2018/02/02 19:49:29","新北市板橋區莊敬路140巷16號","121.47026","25.023185","6500100","板橋區"
"220093","833-TW","2018/02/02 19:49:38","新北市板橋區長江路二段293號","121.47048","25.033225","6500100","板橋區"
"220074","895-R6","2018/02/02 19:49:41","新北市板橋區東門街1號","121.45819","25.0087933333333","6500100","板橋區"
"220073","985-R7","2018/02/02 19:49:33","新北市板橋區大仁街62-1號","121.454535","25.0164616666667","6500100","板橋區"
"220097","AAC-210","2018/02/02 19:49:37","新北市板橋區文化路一段285巷1弄1號","121.464515","25.0188","6500100","板橋區"
"220070","AAC-253","2018/02/02 19:49:36","新北市板橋區民族路83-1號","121.465751666667","25.0084266666667","6500100","板橋區"
