"lineid","car","time","location","longitude","latitude","cityid","cityname"
"234046","148-BY","2018/02/02 20:09:36","新北市永和區得和路410號","121.525831666667","24.999125","6500400","永和區"
"234070","149-BY","2018/02/02 20:09:37","新北市永和區中正路634號","121.51698","25.0081266666667","6500400","永和區"
"234007","207-UY","2018/02/02 20:09:31","新北市永和區保生路64號","121.50498","25.0089066666667","6500400","永和區"
"234081","298-R6","2018/02/02 20:09:42","新北市永和區國中路109巷3弄2號","121.523871666667","25.00545","6500400","永和區"
"234038","336-UY","2018/02/02 20:09:40","新北市永和區成功路一段76號","121.526621666667","25.0032866666667","6500400","永和區"
"234064","337-UY","2018/02/02 20:09:29","新北市永和區永元路118號","121.522715","25.0026616666667","6500400","永和區"
"234086","338-UY","2018/02/02 20:09:35","新北市永和區福和路259號","121.517916666667","25.0074016666667","6500400","永和區"
"234017","745-BX","2018/02/02 20:09:34","新北市永和區文化路112號","121.513393333333","25.0152616666667","6500400","永和區"
"234030","746-BX","2018/02/02 20:09:37","新北市永和區民權路49巷5弄28號","121.521891666667","24.9978716666667","6500400","永和區"
"234054","KEA-2590","2018/02/02 20:09:40","新北市永和區博愛街20巷2號","121.517743333333","25.0158233333333","6500400","永和區"
"234013","KEA-2591","2018/02/02 20:09:39","新北市永和區中山路一段184巷9弄19號","121.508071666667","25.00893","6500400","永和區"
"234061","AAD-866","2018/02/02 20:09:36","新北市永和區安樂路58巷16號","121.515298333333","24.9980883333333","6500400","永和區"
"234042","862-TW","2018/02/02 20:09:27","新北市永和區雙和街8號","121.509776666667","25.0018616666667","6500400","永和區"
"234050","863-TW","2018/02/02 20:09:25","新北市永和區新生路249巷17號","121.506113333333","25.013215","6500400","永和區"
"234026","9371-KE","2018/02/02 20:09:42","新北市永和區保生路55-1號","121.504555","25.0108883333333","6500400","永和區"
"234011","9373-KE","2018/02/02 20:09:40","新北市永和區仁愛路352巷120號","121.500315","25.0085333333333","6500400","永和區"
"249005","172-UM","2018/02/02 20:09:38","新北市八里區下罟子59號","121.387213333333","25.1365616666667","6502300","八里區"
"249001","173-UM","2018/02/02 20:09:37","新北市八里區中華路二段326號","121.40328","25.147995","6502300","八里區"
"249004","303-UY","2018/02/02 20:09:34","新北市八里區中山路一段189巷5號","121.411913333333","25.15811","6502300","八里區"
"249002","305-UY","2018/02/02 20:09:42","新北市五股區成泰路四段39號","121.455643333333","25.109825","6502300","八里區"
"249003","593-UM","2018/02/02 20:09:36","新北市八里區中山路二段540巷9弄19號","121.396583333333","25.1467166666667","6502300","八里區"
"248014","025-BX","2018/02/02 20:09:45","新北市五股區成泰路三段45號","121.442718333333","25.089235","6501500","五股區"
"248016","026-BX","2018/02/02 20:09:35","新北市五股區天乙路60號","121.448173333333","25.104675","6501500","五股區"
"248008","095-VK","2018/02/02 20:09:35","新北市五股區中興路一段1巷18號","121.469683333333","25.0710333333333","6501500","五股區"
"248018","225-UY","2018/02/02 20:09:34","新北市五股區登林路51-22號","121.430253333333","25.0693566666667","6501500","五股區"
"248012","247-BX","2018/02/02 20:09:38","新北市五股區六合街118號","121.430245","25.0908116666667","6501500","五股區"
"248010","272-BY","2018/02/02 20:09:35","新北市五股區成泰路一段7巷48弄3號","121.432681666667","25.0674716666667","6501500","五股區"
"248004","677-BX","2018/02/02 20:09:24","新北市五股區成泰路一段173號","121.435215","25.074645","6501500","五股區"
"248002","678-BX","2018/02/02 20:09:35","新北市五股區成泰路三段311-2號","121.447771666667","25.0949116666667","6501500","五股區"
"234023","9380-KE","2018/02/02 20:09:33","新北市永和區中正路654巷21號","121.517335","25.0086416666667","6500400","永和區"
"234077","969-R7","2018/02/02 20:09:43","新北市永和區中正路164號","121.515038333333","24.9965366666667","6500400","永和區"
"234074","AAC-211","2018/02/02 20:09:31","新北市永和區豫溪街155號","121.521205","25.0104183333333","6500400","永和區"
"234067","AAC-212","2018/02/02 20:09:31","新北市永和區保平路214巷12弄1號","121.508883333333","25.006825","6500400","永和區"
"234003","AAC-295","2018/02/02 20:09:43","新北市永和區自強街37號","121.51593","25.0079783333333","6500400","永和區"
"243012","AAD-798","2018/02/02 20:09:42","新北市泰山區楓江路86巷16-1號","121.43741","25.0624383333333","6501600","泰山區"
"243011","297-R6","2018/02/02 20:09:44","新北市泰山區明志路三段450號","121.420891666667","25.032615","6501600","泰山區"
"243015","380-SR","2018/02/02 20:09:33","新北市泰山區明志路一段345號","121.431156666667","25.0585633333333","6501600","泰山區"
"243014","421-VK","2018/02/02 20:09:31","新北市泰山區明志路一段17號","121.433703333333","25.0658033333333","6501600","泰山區"
"243010","KEA-2215","2018/02/02 20:09:33","新北市泰山區明志路二段136巷22號","121.426295","25.0518366666667","6501600","泰山區"
"243009","KEA-2216","2018/02/02 20:09:25","新北市泰山區泰林路二段116巷1弄3號","121.434821666667","25.0594533333333","6501600","泰山區"
"243013","646-TV","2018/02/02 20:09:38","新北市泰山區民國街8號","121.425355","25.0435166666667","6501600","泰山區"
"243016","680-BX","2018/02/02 20:09:42","新北市泰山區貴陽街15號","121.421733333333","25.033245","6501600","泰山區"
"222003","436-BY","2018/02/02 20:09:37","新北市深坑區埔新街65號","121.620215","25.0023","6501800","深坑區"
"222002","659-BX","2018/02/02 20:09:41","新北市深坑區北深路三段206巷1弄18號","121.601496666667","25.0045166666667","6501800","深坑區"
"231041","002-UM","2018/02/02 20:09:29","新北市新店區中正路468號","121.53395","24.9793933333333","6500600","新店區"
"231058","0291-UT","2018/02/02 20:09:34","新北市新店區安興路108號","121.515308333333","24.9770583333333","6500600","新店區"
"231059","046-UY","2018/02/02 20:09:42","新北市新店區安德街60巷35號","121.5112","24.96361","6500600","新店區"
"231061","047-UY","2018/02/02 20:09:31","新北市新店區安興路32號","121.515748333333","24.9703966666667","6500600","新店區"
"231060","106-UY","2018/02/02 20:09:43","新北市新店區安康路三段440-1號","121.484931666667","24.9514016666667","6500600","新店區"
"231051","107-UY","2018/02/02 20:09:38","新北市新店區中央路153號","121.529895","24.97305","6500600","新店區"
"231048","108-UY","2018/02/02 20:09:34","新北市新店區永華街22號","121.544103333333","24.9759783333333","6500600","新店區"
"231064","110-UY","2018/02/02 20:09:31","新北市新店區安德街62號","121.510681666667","24.9620183333333","6500600","新店區"
"231053","187-VK","2018/02/02 20:09:27","新北市新店區新烏路三段寶島巷2弄3號","121.551978333333","24.8986733333333","6500600","新店區"
"231050","KEA-2219","2018/02/02 20:09:39","新北市新店區北新路一段96巷21號","121.542623333333","24.96872","6500600","新店區"
"221015","KEA-2785","2018/02/02 20:09:29","新北市汐止區建成路17號","121.664433333333","25.0725683333333","6501100","汐止區"
"231057","256-BX","2018/02/02 20:09:37","新北市新店區花園一路一段2號","121.553121666667","24.9324283333333","6500600","新店區"
"231054","AAD-862","2018/02/02 20:09:41","新北市新店區檳榔路21號","121.541558333333","24.9638616666667","6500600","新店區"
"231056","3713-VJ","2018/02/02 20:09:36","新北市新店區北新路二段29巷3弄2號","121.542186666667","24.9731116666667","6500600","新店區"
"231055","4716-K9","2018/02/02 20:09:28","新北市新店區中華路48巷18號","121.540506666667","24.9688916666667","6500600","新店區"
"231067","4772-VM","2018/02/02 20:09:42","新北市新店區安康路一段3-1號","121.534085","24.9605433333333","6500600","新店區"
"231065","512-UM","2018/02/02 20:09:33","新北市新店區安祥路106巷60號","121.476171666667","24.9612","6500600","新店區"
"231042","616-UM","2018/02/02 20:09:27","新北市新店區中興路二段233號","121.547718333333","24.97506","6500600","新店區"
"231045","617-UM","2018/02/02 20:09:41","新北市新店區北宜路一段140巷15號","121.540016666667","24.9542716666667","6500600","新店區"
"231040","619-UM","2018/02/02 20:09:32","新北市新店區中正路110號","121.542968333333","24.9705983333333","6500600","新店區"
"231063","645-TV","2018/02/02 20:09:41","新北市新店區黎明路53巷1號","121.502338333333","24.94876","6500600","新店區"
"231068","718-UY","2018/02/02 20:09:32","新北市新店區中興路二段188號","121.548238333333","24.9730033333333","6500600","新店區"
"231049","719-UM","2018/02/02 20:09:33","新北市新店區北新路二段97巷9弄5號","121.542413333333","24.974105","6500600","新店區"
"231062","720-UM","2018/02/02 20:09:40","新北市新店區安豐路74號","121.496203333333","24.95272","6500600","新店區"
"231044","897-TW","2018/02/02 20:09:43","新北市新店區寶元路一段15巷11號","121.541921666667","24.98705","6500600","新店區"
"231043","899-TW","2018/02/02 20:09:25","新北市新店區民族路188號","121.536883333333","24.976035","6500600","新店區"
"231066","AKT-0513","2018/02/02 20:09:29","新北市新店區安興路96-1號","121.514813333333","24.97643","6500600","新店區"
"241011","013-R5","2018/02/02 20:09:42","新北市三重區龍門路230號","121.500421666667","25.073555","6500200","三重區"
"241028","022-UY","2018/02/02 20:09:32","新北市三重區仁化街163號","121.494755","25.0569533333333","6500200","三重區"
"241008","059-VK","2018/02/02 20:09:42","新北市三重區永福街197巷17號","121.478813333333","25.0743583333333","6500200","三重區"
"241009","060-VK","2018/02/02 20:09:42","新北市三重區永福街125巷9號","121.478306666667","25.077255","6500200","三重區"
"241031","061-VK","2018/02/02 20:09:34","新北市三重區過圳街9-1號","121.488785","25.060115","6500200","三重區"
"241015","062-VK","2018/02/02 20:09:32","新北市三重區福德北路47號","121.502228333333","25.065025","6500200","三重區"
"241017","063-VK","2018/02/02 20:09:39","新北市三重區長壽西街185號","121.492338333333","25.0664333333333","6500200","三重區"
"241024","065-VK","2018/02/02 20:09:27","新北市三重區中正北路286號","121.480481666667","25.06864","6500200","三重區"
"241026","066-VK","2018/02/02 20:09:25","新北市三重區福德南路65巷1號","121.502406666667","25.0605066666667","6500200","三重區"
"241002","090-VK","2018/02/02 20:09:44","新北市三重區仁忠街31號","121.495915","25.0820416666667","6500200","三重區"
"241005","262-UM","2018/02/02 20:09:45","新北市三重區碧華街296-1號","121.489545","25.0835183333333","6500200","三重區"
"241016","266-UM","2018/02/02 20:09:41","新北市三重區中正北路25巷25弄6號","121.493465","25.0626516666667","6500200","三重區"
"241022","267-UM","2018/02/02 20:09:34","新北市三重區過圳街31巷19號","121.489643333333","25.0605533333333","6500200","三重區"
"241018","268-UM","2018/02/02 20:09:27","新北市三重區正義北路256巷131號","121.4932","25.0677733333333","6500200","三重區"
"241032","269-UM","2018/02/02 20:09:43","新北市三重區捷運路57號","121.483568333333","25.055665","6500200","三重區"
"241013","270-UM","2018/02/02 20:09:42","新北市三重區三和路三段151巷56號","121.493831666667","25.07433","6500200","三重區"
"241025","271-UM","2018/02/02 20:09:43","新北市三重區中正北路416號","121.475288333333","25.070705","6500200","三重區"
"241007","398-BY","2018/02/02 20:09:30","新北市三重區三和路四段111-10號","121.486536666667","25.077585","6500200","三重區"
"241020","413-TH","2018/02/02 20:09:37","新北市三重區永德街1號","121.489681666667","25.0723283333333","6500200","三重區"
"241004","475-VK","2018/02/02 20:09:39","新北市三重區自強路四段80號","121.490566666667","25.0789","6500200","三重區"
"241019","478-VK","2018/02/02 20:09:23","新北市三重區大智街178號","121.49118","25.0699766666667","6500200","三重區"
"241030","480-VK","2018/02/02 20:09:38","新北市三重區成功路145巷31號","121.487716666667","25.0530583333333","6500200","三重區"
"241014","543-UM","2018/02/02 20:09:26","新北市三重區安和路39號","121.501081666667","25.0694033333333","6500200","三重區"
"241023","545-UM","2018/02/02 20:09:47","新北市三重區頂崁街220巷2號","121.476965","25.0681033333333","6500200","三重區"
"241001","547-UM","2018/02/02 20:09:34","新北市三重區溪尾街24-1號","121.491113333333","25.0764233333333","6500200","三重區"
"241035","743-BX","2018/02/02 20:09:41","新北市三重區文化北路33號","121.499358333333","25.0641483333333","6500200","三重區"
"241003","887-TS","2018/02/02 20:09:44","新北市三重區仁愛街477號","121.489181666667","25.08208","6500200","三重區"
"241012","941-UM","2018/02/02 20:09:42","新北市三重區仁興街56巷49號","121.49791","25.0755533333333","6500200","三重區"
"241029","942-UM","2018/02/02 20:09:29","新北市三重區光明路34號","121.491308333333","25.058535","6500200","三重區"
"241033","AAC-255","2018/02/02 20:09:38","新北市三重區光復路一段61巷23號","121.473413333333","25.0492166666667","6500200","三重區"
"235066","003-UY","2018/02/02 20:09:37","新北市中和區水源路136巷6號","121.507918333333","25.0030466666667","6500300","中和區"
"235064","005-UY","2018/02/02 20:09:22","新北市五股區孝義路13-1號","121.451068333333","25.1066933333333","6500300","中和區"
"235056","096-UM","2018/02/02 20:09:31","新北市板橋區民生路二段175號","121.46995","25.0202866666667","6500300","中和區"
"235039","097-UM","2018/02/02 20:09:33","新北市中和區大勇街25巷54號","121.515131666667","24.9943983333333","6500300","中和區"
"235065","098-UM","2018/02/02 20:09:29","新北市中和區永和路90巷5號","121.497446666667","25.005995","6500300","中和區"
"235040","150-BY","2018/02/02 20:09:39","新北市中和區保健路26巷15號","121.508456666667","24.9972783333333","6500300","中和區"
"235058","151-BY","2018/02/02 20:09:40","新北市中和區員山路148巷16號","121.481776666667","24.9970366666667","6500300","中和區"
"235068","377-QA","2018/02/02 20:09:40","新北市中和區中山路二段248號","121.497735","25.00264","6500300","中和區"
"235050","4979-A6","2018/02/02 20:09:33","新北市中和區安樂路58號","121.51209","24.9932616666667","6500300","中和區"
"235069","4980-A6","2018/02/02 20:09:38","新北市中和區景新街64巷7弄8號","121.504328333333","24.99858","6500300","中和區"
"235070","558-UM","2018/02/02 19:49:03","新北市中和區中正路218-8號","121.496621666667","24.9941533333333","6500300","中和區"
"235046","733-UM","2018/02/02 20:09:25","新北市中和區忠孝街31巷2號","121.510421666667","24.9833766666667","6500300","中和區"
"235051","157-BY","2018/02/02 20:09:39","新北市中和區南山路421巷1弄34號","121.507146666667","24.990535","6500300","中和區"
"235037","AAC-213","2018/02/02 20:09:28","新北市中和區自強路52號","121.520131666667","24.994785","6500300","中和區"
"235059","AAC-215","2018/02/02 20:09:36","新北市中和區圓通路335巷33弄17號","121.493026666667","24.988995","6500300","中和區"
"220068","013-TV","2018/02/02 20:09:29","新北市板橋區中山路二段284號","121.479466666667","25.0187533333333","6500100","板橋區"
"220055","015-TV","2018/02/02 20:09:30","新北市板橋區仁愛路86巷22-1號","121.46094","24.9985916666667","6500100","板橋區"
"220069","AAD-861","2018/02/02 20:09:45","新北市板橋區大明街20巷19弄3號","121.458353333333","25.003185","6500100","板橋區"
"220098","120-SR","2018/02/02 20:09:36","新北市板橋區新海路72巷5弄23號","121.461633333333","25.02284","6500100","板橋區"
"247022","893-R6","2018/02/02 20:09:39","新北市蘆洲區三民路126號","121.47103","25.0874633333333","6501400","蘆洲區"
"247012","546-UM","2018/02/02 20:09:41","新北市蘆洲區民族路252號","121.479016666667","25.0888","6501400","蘆洲區"
"247020","500-BY","2018/02/02 20:09:17","新北市蘆洲區民權路106巷5弄22號","121.474313333333","25.0891266666667","6501400","蘆洲區"
"247008","341-TH","2018/02/02 20:09:34","新北市蘆洲區中山一路199號","121.4744","25.0809816666667","6501400","蘆洲區"
"247010","339-TH","2018/02/02 20:09:28","新北市蘆洲區集賢路401號","121.480236666667","25.0817183333333","6501400","蘆洲區"
"247002","337-TH","2018/02/02 20:09:42","新北市蘆洲區長榮路269巷26號","121.459488333333","25.0861616666667","6501400","蘆洲區"
"247004","336-TH","2018/02/02 20:09:39","新北市蘆洲區長安街285巷10號","121.457795","25.0841983333333","6501400","蘆洲區"
"247006","056-VK","2018/02/02 20:09:25","新北市蘆洲區永安南路二段18號","121.467721666667","25.0770783333333","6501400","蘆洲區"
"247016","053-VK","2018/02/02 20:09:30","新北市蘆洲區和平路208號","121.465753333333","25.0822066666667","6501400","蘆洲區"
"247014","007-UY","2018/02/02 20:09:39","新北市蘆洲區中山二路235號","121.47024","25.0800683333333","6501400","蘆洲區"
"247024","002-UY","2018/02/02 20:09:32","新北市蘆洲區光榮路66巷17號","121.46352","25.088155","6501400","蘆洲區"
"247018","001-UY","2018/02/02 20:09:23","新北市蘆洲區民族路314巷16號","121.47801","25.0903766666667","6501400","蘆洲區"
"226004","312-R5","2018/02/02 20:09:46","新北市平溪區靜安路二段540巷13號","121.746696666667","25.0266983333333","6502400","平溪區"
"222001","KEA-2212","2018/02/02 20:09:25","新北市深坑區北深路三段210號","121.601201666667","25.0037683333333","6501800","深坑區"
"208003","665-BX","2018/02/02 20:09:30","新北市金山區永興里忠義路29-1號","121.630655","25.2632866666667","6502700","金山區"
"251004","009-UM","2018/02/02 20:04:13","新北市淡水區民族路31巷21-1號","121.461941666667","25.136545","6501000","淡水區"
"251008","181-VK","2018/02/02 20:09:36","新北市淡水區沙崙路137號","121.423053333333","25.1827233333333","6501000","淡水區"
"251010","413-VK","2018/02/02 20:09:29","新北市淡水區崁頂五路303號","121.423883333333","25.1970316666667","6501000","淡水區"
"251012","441-VK","2018/02/02 20:09:46","新北市淡水區淡金路三段216號","121.448946666667","25.204675","6501000","淡水區"
"251006","561-UM","2018/02/02 20:09:31","新北市淡水區北新路141巷60弄11號","121.448058333333","25.1796683333333","6501000","淡水區"
"251009","575-R6","2018/02/02 20:09:31","新北市淡水區清水街44號","121.444481666667","25.1703466666667","6501000","淡水區"
"251002","672-BX","2018/02/02 20:09:34","新北市淡水區中正路292號","121.437638333333","25.1719716666667","6501000","淡水區"
"251003","673-BX","2018/02/02 20:09:35","新北市淡水區新市一路二段260號","121.443566666667","25.1829683333333","6501000","淡水區"
"207003","550-UM","2018/02/02 20:09:38","新北市萬里區大鵬里萬里加投197-3號","121.643001666667","25.2158666666667","6502800","萬里區"
"207004","225-TW","2018/02/02 20:09:34","新北市萬里區北基里愛三街11號","121.681815","25.1766516666667","6502800","萬里區"
"252001","292-VK","2018/02/02 20:09:35","新北市三芝區公正街9號","121.499758333333","25.2574766666667","6502100","三芝區"
"252002","AAC-283","2018/02/02 20:09:37","新北市三芝區三民街7號","121.504148333333","25.2580983333333","6502100","三芝區"
"208002","170-UY","2018/02/02 20:09:44","新北市金山區中山路105-1號","121.639623333333","25.219275","6502700","金山區"
"237012","275-BY","2018/02/02 20:09:27","新北市三峽區中正路一段216巷1弄1號","121.371866666667","24.9278283333333","6500900","三峽區"
"237006","5529-G3","2018/02/02 20:09:43","新北市三峽區中正路二段279號","121.36601","24.911325","6500900","三峽區"
"237005","AKY-6261","2018/02/02 20:09:24","新北市三峽區三樹路44巷18號","121.37847","24.9375383333333","6500900","三峽區"
"236072","105-UM","2018/02/02 20:09:37","新北市土城區中央路三段183-2號","121.431346666667","24.9649316666667","6501300","土城區"
"236043","107-UM","2018/02/02 20:09:24","新北市土城區學成路22巷3號","121.453426666667","24.987375","6501300","土城區"
"236079","166-UM","2018/02/02 20:09:36","新北市土城區福安街50號","121.418858333333","24.9646583333333","6501300","土城區"
"236031","253-BX","2018/02/02 20:09:37","新北市土城區中央路一段143巷9號","121.447341666667","24.9877883333333","6501300","土城區"
"236026","269-VK","2018/02/02 20:09:39","新北市土城區裕生路83巷23號","121.447868333333","24.9839916666667","6501300","土城區"
"236015","270-VK","2018/02/02 20:09:35","新北市土城區德興街135號","121.455065","24.9916816666667","6501300","土城區"
"236039","271-VK","2018/02/02 20:09:38","新北市土城區延吉街298號","121.464518333333","24.9841016666667","6501300","土城區"
"236022","401-BY","2018/02/02 20:09:39","新北市土城區延吉街97巷11號","121.472115","24.9865466666667","6501300","土城區"
"236059","912-UM","2018/02/02 20:09:27","新北市土城區中央路二段137號","121.442128333333","24.9769733333333","6501300","土城區"
"236050","913-UM","2018/02/02 20:09:38","新北市土城區金城路三段120號","121.466645","24.9871333333333","6501300","土城區"
"236055","AAC-216","2018/02/02 20:09:44","新北市土城區中華路一段24號","121.44749","24.99025","6501300","土城區"
"242032","AAC-296","2018/02/02 20:09:35","新北市新莊區忠孝街29巷8號","121.443685","25.0358983333333","6500500","新莊區"
"242029","986-R7","2018/02/02 20:09:24","新北市新莊區中榮街83號","121.445355","25.0528066666667","6500500","新莊區"
"242025","615-BX","2018/02/02 20:09:34","新北市新莊區五工路68巷19號","121.458735","25.0643983333333","6500500","新莊區"
"242023","613-BX","2018/02/02 20:09:39","新北市新莊區化成路558號","121.466206666667","25.05398","6500500","新莊區"
"242027","612-BX","2018/02/02 20:09:25","新北市新莊區幸福路811號","121.44573","25.0489466666667","6500500","新莊區"
"242039","566-BX","2018/02/02 20:09:43","新北市新莊區民安西路110號","121.426901666667","25.0188916666667","6500500","新莊區"
"242044","442-UM","2018/02/02 20:09:25","桃園市龜山區萬壽路一段9號","121.410346666667","25.0209316666667","6500500","新莊區"
"242054","440-UM","2018/02/02 20:09:35","新北市新莊區西盛街387巷11號","121.42846","25.0130383333333","6500500","新莊區"
"242034","415-TV","2018/02/02 20:09:36","新北市新莊區中正路318巷16號","121.446451666667","25.0359066666667","6500500","新莊區"
"242005","413-TV","2018/02/02 20:09:39","新北市新莊區頭興街13巷1號","121.46156","25.0535216666667","6500500","新莊區"
"242041","400-BY","2018/02/02 20:09:39","新北市新莊區壽山路55-5號","121.412446666667","25.031515","6500500","新莊區"
"242060","362-BY","2018/02/02 20:09:39","新北市新莊區瓊林路104-17號","121.443431666667","25.02637","6500500","新莊區"
"242058","353-BY","2018/02/02 20:09:34","新北市新莊區龍安路357號","121.42346","25.0190433333333","6500500","新莊區"
"242007","132-UY","2018/02/02 20:09:29","新北市新莊區思源路423號","121.459458333333","25.052665","6500500","新莊區"
"242037","133-UY","2018/02/02 20:09:32","新北市新莊區建安街9巷16號","121.42962","25.0266116666667","6500500","新莊區"
"242021","135-UY","2018/02/02 20:09:35","新北市新莊區中興街22號","121.449326666667","25.0365016666667","6500500","新莊區"
"242046","172-VK","2018/02/02 20:09:33","新北市新莊區裕民街85巷11號","121.419223333333","25.0234566666667","6500500","新莊區"
"242009","173-VK","2018/02/02 20:09:42","新北市新莊區昌盛街37號","121.4541","25.0499816666667","6500500","新莊區"
"242015","175-VK","2018/02/02 20:09:38","新北市新莊區中平路26巷68號","121.447895","25.043405","6500500","新莊區"
"242002","176-VK","2018/02/02 20:09:44","新北市新莊區登龍路9號","121.456896666667","25.0368166666667","6500500","新莊區"
"242013","346-TH","2018/02/02 20:09:25","新北市新莊區幸福路710巷5弄16號","121.449186666667","25.0497666666667","6500500","新莊區"
"242050","347-TH","2018/02/02 20:09:34","新北市新莊區民安西路174號","121.4259","25.015905","6500500","新莊區"
"242019","348-TH","2018/02/02 20:09:31","新北市新莊區銘德街82號","121.456191666667","25.0435116666667","6500500","新莊區"
"242056","349-TH","2018/02/02 20:09:33","新北市新莊區新莊路649巷15弄18-1號","121.44545","25.0314816666667","6500500","新莊區"
"242017","350-TH","2018/02/02 20:09:39","新北市新莊區中港一街50號","121.450436666667","25.0455183333333","6500500","新莊區"
"242011","351-TH","2018/02/02 20:09:31","新北市新莊區中信街49號","121.449708333333","25.050735","6500500","新莊區"
"238021","KEA-2217","2018/02/02 20:09:39","新北市樹林區佳園路三段99巷25號","121.389568333333","24.9522033333333","6500700","樹林區"
"221036","130-UY","2018/02/02 20:09:38","新北市汐止區福安街57巷1號","121.66367","25.0638383333333","6501100","汐止區"
"221010","269-BY","2018/02/02 20:09:35","新北市汐止區八連路一段215號","121.640643333333","25.0814066666667","6501100","汐止區"
"221012","278-VK","2018/02/02 20:09:43","新北市汐止區汐平路二段66號","121.69827","25.060995","6501100","汐止區"
"221023","279-VK","2018/02/02 20:09:27","新北市汐止區明峰街298巷1號","121.625351666667","25.06782","6501100","汐止區"
"221032","280-BY","2018/02/02 20:09:42","新北市汐止區弘道街8巷5弄1號","121.617078333333","25.0478483333333","6501100","汐止區"
"221027","281-BY","2018/02/02 20:09:30","新北市汐止區中正路115號","121.660541666667","25.069375","6501100","汐止區"
"221029","298-VK","2018/02/02 20:09:41","新北市汐止區樟樹一路119巷8-6號","121.641286666667","25.0644766666667","6501100","汐止區"
"221021","299-VK","2018/02/02 20:09:33","新北市汐止區連興街121號","121.653893333333","25.0624133333333","6501100","汐止區"
"221031","353-TW","2018/02/02 20:09:43","新北市汐止區原興路73巷2號","121.631945","25.066295","6501100","汐止區"
"221035","622-UM","2018/02/02 20:09:45","新北市汐止區長江街79巷13號","121.657618333333","25.0728516666667","6501100","汐止區"
"221025","623-UM","2018/02/02 20:09:42","新北市汐止區水源路一段235號","121.654211666667","25.0602133333333","6501100","汐止區"
"221038","646-BX","2018/02/02 20:09:43","新北市汐止區大同路三段66-3號","121.668101666667","25.0771566666667","6501100","汐止區"
"221033","647-BX","2018/02/02 20:09:27","新北市汐止區東勢街201巷104號","121.63352","25.0429083333333","6501100","汐止區"
"221018","753-BX","2018/02/02 20:09:26","新北市汐止區茄苳路300號","121.673221666667","25.0669733333333","6501100","汐止區"
"220080","200-UY","2018/02/02 20:09:40","新北市板橋區大觀路二段179巷34號","121.446278333333","24.999515","6500100","板橋區"
"220103","257-TC","2018/02/02 20:09:27","新北市板橋區自由路26巷1號","121.465818333333","25.022765","6500100","板橋區"
"220072","277-BY","2018/02/02 20:09:34","新北市板橋區金門街109巷2號","121.433518333333","24.9920116666667","6500100","板橋區"
"220101","280-UM","2018/02/02 20:09:25","新北市板橋區縣民大道三段133巷35號","121.476843333333","25.0248666666667","6500100","板橋區"
"220071","283-VK","2018/02/02 20:09:42","新北市板橋區廣權路127號","121.465518333333","24.9932833333333","6500100","板橋區"
"220083","286-VK","2018/02/02 20:09:22","新北市板橋區僑中二街50號","121.446753333333","25.0103916666667","6500100","板橋區"
"220081","287-VK","2018/02/02 20:09:44","新北市板橋區僑中一街124巷20弄46號","121.448073333333","25.0138366666667","6500100","板橋區"
"220061","293-UM","2018/02/02 20:09:42","新北市板橋區縣民大道二段200巷23號","121.470383333333","25.0175816666667","6500100","板橋區"
"220084","296-UM","2018/02/02 20:09:37","新北市樹林區博愛街179號","121.42486","24.9891383333333","6500100","板橋區"
"220092","299-UM","2018/02/02 20:09:30","新北市板橋區文化路一段139號","121.461868333333","25.0156166666667","6500100","板橋區"
"242048","281-VK","2018/02/02 20:09:40","新北市新莊區四維路152巷19號","121.422186666667","25.0227233333333","6500500","新莊區"
"220075","303-R5","2018/02/02 20:09:37","新北市板橋區金華街10巷105號","121.459216666667","25.0205816666667","6500100","板橋區"
"220064","486-VK","2018/02/02 20:09:36","新北市板橋區區運路20號","121.46531","25.009285","6500100","板橋區"
"220089","487-VK","2018/02/02 20:09:46","新北市板橋區互助街81號","121.459885","25.0259733333333","6500100","板橋區"
"220088","491-VK","2018/02/02 20:09:43","新北市板橋區懷德街127巷23弄7號","121.479266666667","25.0317433333333","6500100","板橋區"
"220054","741-BX","2018/02/02 20:09:34","新北市板橋區忠孝路忠義巷3弄46號","121.46512","25.0044766666667","6500100","板橋區"
"220067","829-TW","2018/02/02 20:09:43","新北市板橋區中山路一段256號","121.471635","25.01464","6500100","板橋區"
"220096","830-TW","2018/02/02 20:09:28","新北市板橋區莒光路79巷2號","121.471993333333","25.0242833333333","6500100","板橋區"
"220093","833-TW","2018/02/02 20:09:38","新北市板橋區長江路一段94號","121.459093333333","25.0293033333333","6500100","板橋區"
"220074","895-R6","2018/02/02 20:09:39","新北市板橋區府中路30號","121.458773333333","25.00943","6500100","板橋區"
"220097","AAC-210","2018/02/02 20:09:17","新北市板橋區光正街45巷2弄7號","121.461483333333","25.017275","6500100","板橋區"
"220070","AAC-253","2018/02/02 20:09:36","新北市板橋區德興街31號","121.453476666667","24.9939566666667","6500100","板橋區"
