"lineid","car","time","location","longitude","latitude","cityid","cityname"
"234064","337-UY","2018/02/02 20:39:29","新北市永和區保順路8號","121.503006666667","25.0118883333333","6500400","永和區"
"234030","746-BX","2018/02/02 20:39:37","新北市板橋區民生路二段56-4號","121.472006666667","25.0174833333333","6500400","永和區"
"234050","863-TW","2018/02/02 20:39:23","新北市永和區保安路73號","121.508845","25.0148816666667","6500400","永和區"
"249001","173-UM","2018/02/02 20:39:37","新北市八里區中山路三段323號","121.377741666667","25.1388683333333","6502300","八里區"
"249004","303-UY","2018/02/02 20:39:34","新北市八里區中山路一段157巷5號","121.412858333333","25.1584966666667","6502300","八里區"
"234023","9380-KE","2018/02/02 20:39:33","新北市永和區竹林路25巷21號","121.518161666667","25.01498","6500400","永和區"
"234074","AAC-211","2018/02/02 20:39:32","新北市永和區竹林路119巷3號","121.52029","25.01146","6500400","永和區"
"243011","297-R6","2018/02/02 20:39:25","新北市泰山區明志路三段42巷18號","121.424225","25.0423066666667","6501600","泰山區"
"243010","KEA-2215","2018/02/02 20:39:33","新北市泰山區公園路67號","121.425856666667","25.0548566666667","6501600","泰山區"
"243013","646-TV","2018/02/02 20:39:38","新北市泰山區橫窠雅24-1號","121.409763333333","25.0710516666667","6501600","泰山區"
"222003","436-BY","2018/02/02 20:39:37","新北市深坑區文山路二段30巷31號","121.615508333333","24.998675","6501800","深坑區"
"222002","659-BX","2018/02/02 20:39:41","新北市深坑區萬福路43號","121.599415","25.0068583333333","6501800","深坑區"
"231041","002-UM","2018/02/02 20:39:29","新北市新店區中正路545號","121.533686666667","24.987585","6500600","新店區"
"231058","0291-UT","2018/02/02 20:39:34","新北市新店區中正路307巷15號","121.535995","24.9737716666667","6500600","新店區"
"231059","046-UY","2018/02/02 20:39:22","新北市新店區僑信路132巷25號","121.500003333333","24.9454433333333","6500600","新店區"
"231061","047-UY","2018/02/02 20:39:31","新北市新店區新和街54號","121.519723333333","24.9852233333333","6500600","新店區"
"231060","106-UY","2018/02/02 20:39:43","新北市新店區安康路三段716號","121.473856666667","24.9421516666667","6500600","新店區"
"231051","107-UY","2018/02/02 20:39:38","新北市新店區中央八街86號","121.527016666667","24.97733","6500600","新店區"
"231048","108-UY","2018/02/02 20:39:34","新北市新店區寶慶街76號","121.541596666667","24.986705","6500600","新店區"
"231064","110-UY","2018/02/02 20:39:31","新北市新店區安和路三段171號","121.515965","24.9860566666667","6500600","新店區"
"231053","187-VK","2018/02/02 20:39:27","新北市新店區松林路1號","121.546788333333","24.9118383333333","6500600","新店區"
"231050","KEA-2219","2018/02/02 20:39:39","新北市新店區中正路265巷17號","121.537923333333","24.9734366666667","6500600","新店區"
"221015","KEA-2785","2018/02/02 20:39:29","新北市汐止區建成路48號","121.663851666667","25.0728766666667","6501100","汐止區"
"231057","256-BX","2018/02/02 20:39:36","新北市新店區花園十路一段4-1號","121.55397","24.9337183333333","6500600","新店區"
"231054","AAD-862","2018/02/02 20:39:41","新北市新店區行政街17巷2號","121.542676666667","24.96676","6500600","新店區"
"231056","3713-VJ","2018/02/02 20:39:36","新北市新店區中央路68號","121.532655","24.9774483333333","6500600","新店區"
"231065","512-UM","2018/02/02 20:39:32","新北市新店區安祥路102巷103號","121.486805","24.9640933333333","6500600","新店區"
"231042","616-UM","2018/02/02 20:39:27","新北市新店區寶高路120巷1-1號","121.554601666667","24.97597","6500600","新店區"
"231045","617-UM","2018/02/02 20:39:41","新北市新店區長春路45號","121.550483333333","24.9576033333333","6500600","新店區"
"231040","619-UM","2018/02/02 20:39:32","新北市新店區中正路276號","121.538855","24.97365","6500600","新店區"
"231063","645-TV","2018/02/02 20:39:41","新北市新店區玫瑰路4-2號","121.493788333333","24.9513633333333","6500600","新店區"
"231068","718-UY","2018/02/02 20:39:32","新北市新店區寶元路一段61號","121.542176666667","24.9858383333333","6500600","新店區"
"231049","719-UM","2018/02/02 20:39:33","新北市新店區永業路81巷1弄15號","121.530326666667","24.95018","6500600","新店區"
"231062","720-UM","2018/02/02 20:39:40","新北市新店區雙城路4巷3號","121.491031666667","24.95085","6500600","新店區"
"231044","897-TW","2018/02/02 20:39:23","新北市新店區民權路90巷36號","121.536945","24.9850583333333","6500600","新店區"
"231043","899-TW","2018/02/02 20:39:45","新北市新店區建國路13號","121.539835","24.9735083333333","6500600","新店區"
"231066","AKT-0513","2018/02/02 20:39:29","新北市新店區安興路112號","121.51461","24.9776333333333","6500600","新店區"
"241011","013-R5","2018/02/02 20:39:42","新北市三重區河邊北街140號","121.503303333333","25.0720733333333","6500200","三重區"
"241028","022-UY","2018/02/02 20:39:32","新北市三重區光興街89號","121.497451666667","25.05994","6500200","三重區"
"241008","059-VK","2018/02/02 20:39:42","新北市三重區下竹圍街42號","121.48102","25.07489","6500200","三重區"
"241009","060-VK","2018/02/02 20:39:42","新北市三重區碧華街51號","121.484683333333","25.08126","6500200","三重區"
"241031","061-VK","2018/02/02 20:39:34","新北市三重區重陽路一段113巷1弄49號","121.488128333333","25.0585666666667","6500200","三重區"
"241015","062-VK","2018/02/02 20:39:32","新北市三重區文化北路97號","121.498013333333","25.0681166666667","6500200","三重區"
"241017","063-VK","2018/02/02 20:39:39","新北市三重區大同北路269號","121.490843333333","25.0672683333333","6500200","三重區"
"241024","065-VK","2018/02/02 20:39:40","新北市三重區國道路一段58巷18號","121.480943333333","25.0720933333333","6500200","三重區"
"241026","066-VK","2018/02/02 20:39:45","新北市三重區文化南路3號","121.500023333333","25.0624066666667","6500200","三重區"
"241002","090-VK","2018/02/02 20:39:45","新北市三重區仁義街167巷36號","121.49853","25.0823616666667","6500200","三重區"
"241005","262-UM","2018/02/02 20:39:39","新北市三重區集賢路87-1號","121.493948333333","25.08697","6500200","三重區"
"241016","266-UM","2018/02/02 20:39:41","新北市三重區長壽西街124號","121.495206666667","25.066935","6500200","三重區"
"241022","267-UM","2018/02/02 20:39:34","新北市三重區民生街61巷6弄3號","121.488605","25.0620033333333","6500200","三重區"
"241018","268-UM","2018/02/02 20:39:34","新北市三重區自強路一段308號","121.491258333333","25.0684033333333","6500200","三重區"
"241032","269-UM","2018/02/02 20:39:43","新北市三重區重陽路一段120巷48號","121.485021666667","25.0601583333333","6500200","三重區"
"241013","270-UM","2018/02/02 20:39:42","新北市三重區三和路三段68號","121.494883333333","25.0716266666667","6500200","三重區"
"241025","271-UM","2018/02/02 20:39:39","新北市三重區頂崁街192巷23號","121.475938333333","25.0657933333333","6500200","三重區"
"241007","398-BY","2018/02/02 20:39:30","新北市三重區自強路四段32-2號","121.488828333333","25.0770216666667","6500200","三重區"
"241020","413-TH","2018/02/02 20:39:37","新北市三重區忠孝路一段101號","121.489425","25.072115","6500200","三重區"
"241004","475-VK","2018/02/02 20:39:38","新北市三重區仁愛街406巷3號","121.490621666667","25.0812233333333","6500200","三重區"
"241019","478-VK","2018/02/02 20:39:44","新北市三重區忠孝路一段10巷8號","121.491826666667","25.0715016666667","6500200","三重區"
"241030","480-VK","2018/02/02 20:39:38","新北市三重區成功路73巷13號","121.48951","25.051945","6500200","三重區"
"241014","543-UM","2018/02/02 20:39:26","新北市三重區萬壽街25號","121.499786666667","25.0693466666667","6500200","三重區"
"241023","545-UM","2018/02/02 20:39:27","新北市三重區自由街61號","121.478188333333","25.0664366666667","6500200","三重區"
"241001","547-UM","2018/02/02 20:39:34","新北市三重區聯華街124號","121.485021666667","25.0748083333333","6500200","三重區"
"241035","743-BX","2018/02/02 20:39:41","新北市三重區正義北路280號","121.495731666667","25.0691816666667","6500200","三重區"
"241003","887-TS","2018/02/02 20:39:24","新北市三重區五華街141巷58號","121.493556666667","25.0867883333333","6500200","三重區"
"241012","941-UM","2018/02/02 20:39:42","新北市三重區秀江街31號","121.501975","25.0728716666667","6500200","三重區"
"241029","942-UM","2018/02/02 20:39:29","新北市三重區集美街126巷27號","121.490098333333","25.053795","6500200","三重區"
"241033","AAC-255","2018/02/02 20:39:38","新北市三重區光復路二段2號","121.472188333333","25.05328","6500200","三重區"
"235064","005-UY","2018/02/02 20:39:42","新北市五股區中興路三段1-7號","121.451996666667","25.0754766666667","6500300","中和區"
"235069","4980-A6","2018/02/02 20:39:38","新北市中和區新生街225號","121.483885","24.999325","6500300","中和區"
"235026","800-TS","2018/02/02 20:32:11","新北市中和區員山路36巷16-3號","121.484881666667","24.9915683333333","6500300","中和區"
"235059","AAC-215","2018/02/02 20:39:36","新北市中和區員山路72號","121.480913333333","24.993745","6500300","中和區"
"220069","AAD-861","2018/02/02 20:39:25","新北市八里區商港路126號","121.389433333333","25.1490616666667","6500100","板橋區"
"247022","893-R6","2018/02/02 20:39:39","新北市蘆洲區中正路243巷7弄5號","121.467306666667","25.0862366666667","6501400","蘆洲區"
"247012","546-UM","2018/02/02 20:39:37","新北市蘆洲區中興街119號","121.481961666667","25.089315","6501400","蘆洲區"
"247020","500-BY","2018/02/02 20:39:37","新北市蘆洲區民族路424號","121.473933333333","25.0917116666667","6501400","蘆洲區"
"247008","341-TH","2018/02/02 20:39:34","新北市蘆洲區重陽一街23號","121.480811666667","25.0817283333333","6501400","蘆洲區"
"247010","339-TH","2018/02/02 20:39:28","新北市蘆洲區中山一路114號","121.47718","25.0815333333333","6501400","蘆洲區"
"247002","337-TH","2018/02/02 20:39:42","新北市蘆洲區環堤大道142號","121.455653333333","25.0883616666667","6501400","蘆洲區"
"247004","336-TH","2018/02/02 20:39:38","新北市蘆洲區長安街297號","121.458045","25.0848866666667","6501400","蘆洲區"
"247006","056-VK","2018/02/02 20:39:44","新北市蘆洲區和平路121巷10號","121.467013333333","25.07979","6501400","蘆洲區"
"247016","053-VK","2018/02/02 20:39:29","新北市蘆洲區中山二路179號","121.470965","25.08101","6501400","蘆洲區"
"247014","007-UY","2018/02/02 20:39:39","新北市蘆洲區成功路83號","121.473083333333","25.0811166666667","6501400","蘆洲區"
"247024","002-UY","2018/02/02 20:39:32","新北市蘆洲區長樂路81號","121.462605","25.0869183333333","6501400","蘆洲區"
"222001","KEA-2212","2018/02/02 20:39:25","新北市深坑區北深路三段228號","121.600791666667","25.004045","6501800","深坑區"
"251001","011-UM","2018/02/02 20:39:37","新北市淡水區淡金路65號","121.456191666667","25.1615116666667","6501000","淡水區"
"251010","413-VK","2018/02/02 20:39:29","新北市淡水區沙崙路181巷15號","121.42399","25.1843316666667","6501000","淡水區"
"251012","441-VK","2018/02/02 20:39:29","新北市淡水區興仁路108號","121.451666666667","25.2181316666667","6501000","淡水區"
"251006","561-UM","2018/02/02 20:39:31","新北市淡水區商工路198巷1號","121.450998333333","25.18781","6501000","淡水區"
"251011","650-BX","2018/02/02 20:39:37","新北市淡水區新市一路一段361號","121.436166666667","25.186165","6501000","淡水區"
"251002","672-BX","2018/02/02 20:39:34","新北市淡水區中正路38-1號","121.443745","25.1692483333333","6501000","淡水區"
"251003","673-BX","2018/02/02 20:39:35","新北市淡水區新民街120巷54號","121.438785","25.1784533333333","6501000","淡水區"
"252002","AAC-283","2018/02/02 20:39:37","新北市三芝區淡金路二段47-2號","121.503676666667","25.2605016666667","6502100","三芝區"
"242032","AAC-296","2018/02/02 20:39:35","新北市新莊區中正路508巷12號","121.437525","25.034305","6500500","新莊區"
"242029","986-R7","2018/02/02 20:39:24","新北市新莊區昌平街19號","121.454406666667","25.05135","6500500","新莊區"
"242025","615-BX","2018/02/02 20:39:27","新北市三重區重新路五段283號","121.479201666667","25.0490183333333","6500500","新莊區"
"242023","613-BX","2018/02/02 20:39:39","新北市新莊區化成路526號","121.466365","25.05277","6500500","新莊區"
"242027","612-BX","2018/02/02 20:39:25","新北市新莊區思源路63號","121.459993333333","25.0404166666667","6500500","新莊區"
"242039","566-BX","2018/02/02 20:39:43","新北市新莊區民安路381號","121.431845","25.0230683333333","6500500","新莊區"
"242044","442-UM","2018/02/02 20:39:25","新北市新莊區龍安路108號","121.418458333333","25.0204433333333","6500500","新莊區"
"242054","440-UM","2018/02/02 20:39:35","新北市新莊區西盛街324巷1號","121.427715","25.014665","6500500","新莊區"
"242034","415-TV","2018/02/02 20:39:36","新北市新莊區中正路334巷25弄10號","121.445496666667","25.0362016666667","6500500","新莊區"
"242005","413-TV","2018/02/02 20:39:32","新北市新莊區化成路349巷72號","121.463463333333","25.05645","6500500","新莊區"
"242041","400-BY","2018/02/02 20:39:32","新北市新莊區天祥街43號","121.416811666667","25.0288066666667","6500500","新莊區"
"242060","362-BY","2018/02/02 20:39:39","新北市新莊區新樹路268巷1號","121.432578333333","25.0135933333333","6500500","新莊區"
"242058","353-BY","2018/02/02 20:39:34","新北市新莊區民安路138號","121.424205","25.0253333333333","6500500","新莊區"
"242007","132-UY","2018/02/02 20:39:30","新北市新莊區思源路287巷2弄20號","121.459348333333","25.0488233333333","6500500","新莊區"
"242037","133-UY","2018/02/02 20:39:33","新北市新莊區後港一路94巷7號","121.428208333333","25.026215","6500500","新莊區"
"242021","135-UY","2018/02/02 20:39:35","新北市新莊區中華路一段50號","121.452065","25.0380733333333","6500500","新莊區"
"242046","172-VK","2018/02/02 20:39:37","新北市新莊區裕民街81號","121.41865","25.0238333333333","6500500","新莊區"
"242009","173-VK","2018/02/02 20:39:42","新北市新莊區幸福路64巷3弄8號","121.456776666667","25.0500333333333","6500500","新莊區"
"242015","175-VK","2018/02/02 20:39:38","新北市新莊區中和街6號","121.448543333333","25.042965","6500500","新莊區"
"242002","176-VK","2018/02/02 20:39:44","新北市新莊區明中街6號","121.45874","25.0382483333333","6500500","新莊區"
"242013","346-TH","2018/02/02 20:39:45","新北市新莊區中和街175巷11號","121.447251666667","25.0506416666667","6500500","新莊區"
"242050","347-TH","2018/02/02 20:39:34","新北市新莊區民安西路173巷31號","121.42732","25.0160216666667","6500500","新莊區"
"242056","349-TH","2018/02/02 20:39:33","新北市新莊區瓊泰路59號","121.443315","25.028645","6500500","新莊區"
"242017","350-TH","2018/02/02 20:39:39","新北市新莊區新泰路368號","121.44444","25.042715","6500500","新莊區"
"242011","351-TH","2018/02/02 20:39:31","新北市新莊區中榮街128號","121.446355","25.0527583333333","6500500","新莊區"
"221036","130-UY","2018/02/02 20:39:38","新北市汐止區新昌路90號","121.66401","25.0690116666667","6501100","汐止區"
"221023","279-VK","2018/02/02 20:39:43","新北市汐止區明峰街13號","121.635123333333","25.0713616666667","6501100","汐止區"
"221032","280-BY","2018/02/02 20:39:42","新北市汐止區民權街二段28號","121.619516666667","25.0501183333333","6501100","汐止區"
"221027","281-BY","2018/02/02 20:39:30","新北市汐止區大同路二段567號","121.662878333333","25.0698866666667","6501100","汐止區"
"221029","298-VK","2018/02/02 20:39:41","新北市汐止區大同路一段403巷1號","121.64131","25.06063","6501100","汐止區"
"221021","299-VK","2018/02/02 20:39:33","新北市汐止區水源路一段280號","121.654125","25.0583266666667","6501100","汐止區"
"221031","353-TW","2018/02/02 20:39:43","新北市汐止區中興路27巷22號","121.634065","25.06083","6501100","汐止區"
"221035","622-UM","2018/02/02 20:39:45","新北市汐止區長江街101-5號","121.65868","25.07318","6501100","汐止區"
"221025","623-UM","2018/02/02 20:39:42","新北市汐止區水源路二段283巷1號","121.6592","25.0498433333333","6501100","汐止區"
"221038","646-BX","2018/02/02 20:39:43","新北市汐止區汐萬路一段266號","121.65099","25.0738666666667","6501100","汐止區"
"221033","647-BX","2018/02/02 20:39:27","新北市汐止區合順街18巷8弄5號","121.620315","25.0419233333333","6501100","汐止區"
"221018","753-BX","2018/02/02 20:39:26","新北市汐止區中華街71號","121.668141666667","25.07105","6501100","汐止區"
"220103","257-TC","2018/02/02 20:39:33","新北市板橋區漢生東路53巷15號","121.466461666667","25.0172216666667","6500100","板橋區"
"220083","286-VK","2018/02/02 20:39:42","新北市板橋區僑中二街112巷1號","121.44586","25.0070433333333","6500100","板橋區"
"242048","281-VK","2018/02/02 20:39:40","新北市新莊區中正路821號","121.420848333333","25.02828","6500500","新莊區"
"220089","487-VK","2018/02/02 20:39:26","新北市板橋區長江路一段188號","121.462121666667","25.03038","6500100","板橋區"
"220067","829-TW","2018/02/02 20:39:43","新北市八里區荖阡坑路24-2號","121.399356666667","25.13335","6500100","板橋區"
"220070","AAC-253","2018/02/02 20:39:36","新北市五股區孝義路14號","121.452265","25.1063083333333","6500100","板橋區"
