"lineid","car","time","location","longitude","latitude","cityid","cityname"
"231059","046-UY","2018/02/02 21:09:42","新北市新店區安豐路49號","121.49998","24.954895","6500600","新店區"
"231061","047-UY","2018/02/02 21:09:41","新北市新店區永平街10號","121.517155","24.9836416666667","6500600","新店區"
"231060","106-UY","2018/02/02 21:09:43","新北市新店區安康路二段380號","121.500478333333","24.957285","6500600","新店區"
"231051","107-UY","2018/02/02 21:09:39","新北市新店區中正路678號","121.534015","24.989995","6500600","新店區"
"231048","108-UY","2018/02/02 21:09:34","新北市新店區寶強路29號","121.543291666667","24.9794866666667","6500600","新店區"
"231064","110-UY","2018/02/02 21:09:31","新北市新店區薏仁坑路自強巷6號","121.496715","24.9584416666667","6500600","新店區"
"231050","KEA-2219","2018/02/02 21:09:39","新北市新店區中華路125號","121.53838","24.9692383333333","6500600","新店區"
"231067","4772-VM","2018/02/02 21:09:32","新北市新店區安康路二段316號","121.505143333333","24.958125","6500600","新店區"
"231065","512-UM","2018/02/02 21:09:37","新北市新店區安祥路57號","121.484036666667","24.9603533333333","6500600","新店區"
"231042","616-UM","2018/02/02 21:09:27","新北市新店區中興路一段167號","121.542681666667","24.9643983333333","6500600","新店區"
"231040","619-UM","2018/02/02 21:09:32","新北市新店區北新路一段100號","121.542058333333","24.9694733333333","6500600","新店區"
"231063","645-TV","2018/02/02 21:09:41","新北市新店區玫瑰路58巷2號","121.495368333333","24.9466383333333","6500600","新店區"
"241011","013-R5","2018/02/02 21:09:42","新北市三重區龍濱路187號","121.502023333333","25.0709733333333","6500200","三重區"
"241028","022-UY","2018/02/02 21:09:32","新北市三重區正義南路60-1號","121.498241666667","25.0605533333333","6500200","三重區"
"241008","059-VK","2018/02/02 21:09:42","新北市三重區三和路三段28-2號","121.496566666667","25.0705266666667","6500200","三重區"
"241009","060-VK","2018/02/02 21:09:42","新北市三重區忠孝路二段122號","121.483028333333","25.0687916666667","6500200","三重區"
"241031","061-VK","2018/02/02 21:09:34","新北市三重區重新路五段406-1號","121.475998333333","25.0476433333333","6500200","三重區"
"241015","062-VK","2018/02/02 21:09:32","新北市三重區三和路一段50號","121.502326666667","25.0655033333333","6500200","三重區"
"241017","063-VK","2018/02/02 21:09:39","新北市三重區國隆路31號","121.492331666667","25.0645083333333","6500200","三重區"
"241024","065-VK","2018/02/02 21:09:39","新北市三重區國道路一段58巷15號","121.481383333333","25.072015","6500200","三重區"
"241026","066-VK","2018/02/02 21:09:25","新北市三重區文化南路42號","121.500406666667","25.06025","6500200","三重區"
"241002","090-VK","2018/02/02 21:09:44","新北市三重區五華街18號","121.494821666667","25.0803433333333","6500200","三重區"
"241005","262-UM","2018/02/02 21:09:38","新北市三重區三信路182號","121.488001666667","25.0861616666667","6500200","三重區"
"241016","266-UM","2018/02/02 21:09:41","新北市三重區信義西街138號","121.495431666667","25.064505","6500200","三重區"
"241022","267-UM","2018/02/02 21:09:34","新北市三重區中正北路64巷24號","121.486131666667","25.0637166666667","6500200","三重區"
"241018","268-UM","2018/02/02 21:09:26","新北市三重區正義北路332號","121.494385","25.0706366666667","6500200","三重區"
"241032","269-UM","2018/02/02 21:09:43","新北市三重區頂崁街99號","121.476646666667","25.0615916666667","6500200","三重區"
"241013","270-UM","2018/02/02 21:09:42","新北市三重區仁賢街12-1號","121.495733333333","25.074875","6500200","三重區"
"241025","271-UM","2018/02/02 21:09:39","新北市三重區中正北路208巷8號","121.482316666667","25.0669516666667","6500200","三重區"
"241007","398-BY","2018/02/02 21:09:30","新北市三重區三和路四段145巷85號","121.486471666667","25.0787133333333","6500200","三重區"
"241020","413-TH","2018/02/02 21:09:37","新北市三重區忠孝路二段51號","121.485615","25.070995","6500200","三重區"
"241004","475-VK","2018/02/02 21:09:38","新北市三重區仁愛街423-1號","121.490376666667","25.08146","6500200","三重區"
"241019","478-VK","2018/02/02 21:09:23","新北市三重區自強路二段74巷19號","121.487983333333","25.0698966666667","6500200","三重區"
"241030","480-VK","2018/02/02 21:09:38","新北市三重區五谷王北街20巷15弄1號","121.475061666667","25.048495","6500200","三重區"
"241014","543-UM","2018/02/02 21:09:46","新北市三重區長安街82號","121.501486666667","25.0676766666667","6500200","三重區"
"241023","545-UM","2018/02/02 21:09:27","新北市三重區忠孝路三段50巷41弄64號","121.48244","25.0637916666667","6500200","三重區"
"241001","547-UM","2018/02/02 21:09:34","新北市三重區自強路三段103號","121.487968333333","25.0756016666667","6500200","三重區"
"241006","AAD-863","2018/02/02 21:09:43","新北市三重區明志街135號","121.489263333333","25.06326","6500200","三重區"
"241003","887-TS","2018/02/02 21:09:25","新北市三重區仁義街333號","121.495068333333","25.0846583333333","6500200","三重區"
"241012","941-UM","2018/02/02 21:09:42","新北市三重區河邊北街347號","121.502158333333","25.0755383333333","6500200","三重區"
"241029","942-UM","2018/02/02 21:09:29","新北市三重區正義南路107號","121.498216666667","25.0585833333333","6500200","三重區"
"241033","AAC-255","2018/02/02 21:09:38","新北市三重區新北大道二段65號","121.469361666667","25.0615533333333","6500200","三重區"
"247022","893-R6","2018/02/02 21:09:44","新北市蘆洲區三民路251號","121.468291666667","25.089385","6501400","蘆洲區"
"247012","546-UM","2018/02/02 21:09:42","新北市蘆洲區三民路70號","121.475466666667","25.083845","6501400","蘆洲區"
"247020","500-BY","2018/02/02 21:09:37","新北市蘆洲區民族路436巷2號","121.4728","25.0923383333333","6501400","蘆洲區"
"247008","341-TH","2018/02/02 21:09:36","新北市蘆洲區信義路34巷14號","121.4747","25.0788616666667","6501400","蘆洲區"
"247010","339-TH","2018/02/02 21:09:28","新北市蘆洲區鷺江街38號","121.477406666667","25.0830116666667","6501400","蘆洲區"
"247002","337-TH","2018/02/02 21:09:42","新北市蘆洲區永樂街38巷42弄6號","121.458818333333","25.089905","6501400","蘆洲區"
"247004","336-TH","2018/02/02 21:09:38","新北市蘆洲區永安南路二段324號","121.456928333333","25.0827566666667","6501400","蘆洲區"
"247006","056-VK","2018/02/02 21:09:25","新北市蘆洲區和平路97巷13號","121.467741666667","25.078685","6501400","蘆洲區"
"247016","053-VK","2018/02/02 21:09:30","新北市蘆洲區和平路157號","121.466775","25.0806833333333","6501400","蘆洲區"
"247014","007-UY","2018/02/02 21:09:39","新北市蘆洲區中央路155號","121.47267","25.0847116666667","6501400","蘆洲區"
"247024","002-UY","2018/02/02 21:09:32","新北市蘆洲區長興路50巷3號","121.463928333333","25.0838366666667","6501400","蘆洲區"
"251004","009-UM","2018/02/02 21:02:45","新北市淡水區中正東路二段143巷2弄1號","121.460588333333","25.1471533333333","6501000","淡水區"
"251001","011-UM","2018/02/02 21:09:27","新北市淡水區新市一路三段101巷16弄3號","121.446491666667","25.18386","6501000","淡水區"
"251010","413-VK","2018/02/02 21:09:28","新北市淡水區中正路一段63巷9號","121.422675","25.1772383333333","6501000","淡水區"
"251012","441-VK","2018/02/02 21:09:29","新北市淡水區六塊厝15號","121.452973333333","25.2410016666667","6501000","淡水區"
"251005","443-VK","2018/02/02 21:09:35","新北市淡水區英專路2巷24號","121.446551666667","25.169225","6501000","淡水區"
"251011","650-BX","2018/02/02 21:09:37","新北市淡水區新民街120巷45弄10號","121.438003333333","25.179815","6501000","淡水區"
"251002","672-BX","2018/02/02 21:09:34","新北市淡水區英專路151號","121.448378333333","25.174885","6501000","淡水區"
"251003","673-BX","2018/02/02 21:09:35","新北市淡水區新春街103-10號","121.44051","25.1818233333333","6501000","淡水區"
"252002","AAC-283","2018/02/02 21:09:37","新北市三芝區埔坪里埔頭坑41號","121.504683333333","25.2645633333333","6502100","三芝區"
"242021","135-UY","2018/02/02 21:09:28","新北市樹林區中山路三段214號","121.379888333333","24.967605","6500500","新莊區"
"221029","298-VK","2018/02/02 21:09:41","新北市汐止區康寧街901號","121.651503333333","25.074875","6501100","汐止區"
"242048","281-VK","2018/02/02 21:09:40","新北市樹林區八德街445-1號","121.404773333333","24.9693516666667","6500500","新莊區"
"220067","829-TW","2018/02/02 21:09:43","新北市林口區太平里180號","121.366595","25.13462","6500100","板橋區"
"220070","AAC-253","2018/02/02 21:09:36","新北市林口區太平里180號","121.368441666667","25.1343233333333","6500100","板橋區"
