"lineid","car","time","location","longitude","latitude","cityid","cityname"
"231059","046-UY","2018/02/02 21:19:42","新北市新店區薏仁坑路自強巷1號","121.497808333333","24.957715","6500600","新店區"
"231051","107-UY","2018/02/02 21:19:38","新北市新店區中正路700巷82號","121.535993333333","24.9932633333333","6500600","新店區"
"231048","108-UY","2018/02/02 21:19:34","新北市新店區溪園路401號","121.523775","24.9780266666667","6500600","新店區"
"231064","110-UY","2018/02/02 21:19:31","新北市新店區薏仁坑路自強巷6號","121.496383333333","24.958305","6500600","新店區"
"231050","KEA-2219","2018/02/02 21:19:39","新北市新店區中正路265號","121.538078333333","24.9739233333333","6500600","新店區"
"231040","619-UM","2018/02/02 21:19:44","新北市新店區光明街231號","121.540265","24.9644","6500600","新店區"
"231063","645-TV","2018/02/02 21:19:41","新北市新店區玫瑰路57巷47號","121.497508333333","24.9464233333333","6500600","新店區"
"241011","013-R5","2018/02/02 21:19:42","新北市三重區龍濱路197號","121.501835","25.071385","6500200","三重區"
"241028","022-UY","2018/02/02 21:19:32","新北市三重區同安東街82號","121.499001666667","25.05751","6500200","三重區"
"241008","059-VK","2018/02/02 21:19:42","新北市三重區自強路一段60號","121.497393333333","25.066815","6500200","三重區"
"241009","060-VK","2018/02/02 21:19:42","新北市三重區三民街206號","121.480841666667","25.066125","6500200","三重區"
"241031","061-VK","2018/02/02 21:19:34","新北市三重區重新路五段408巷19號","121.475725","25.04556","6500200","三重區"
"241015","062-VK","2018/02/02 21:19:32","新北市三重區河邊北街23號","121.504181666667","25.06533","6500200","三重區"
"241017","063-VK","2018/02/02 21:19:39","新北市三重區國隆路30號","121.492238333333","25.0643583333333","6500200","三重區"
"241024","065-VK","2018/02/02 21:19:27","新北市三重區中正北路145巷8弄2號","121.484078333333","25.067765","6500200","三重區"
"241026","066-VK","2018/02/02 21:19:45","新北市三重區大同南路220號","121.496836666667","25.0562166666667","6500200","三重區"
"241002","090-VK","2018/02/02 21:19:44","新北市三重區自強路五段83號","121.495073333333","25.0821133333333","6500200","三重區"
"241005","262-UM","2018/02/02 21:19:38","新北市三重區仁安街2號","121.48537","25.0843333333333","6500200","三重區"
"241016","266-UM","2018/02/02 21:19:41","新北市三重區自強路一段89號","121.496055","25.0664516666667","6500200","三重區"
"241018","268-UM","2018/02/02 21:19:26","新北市三重區忠孝路二段160號","121.482188333333","25.067955","6500200","三重區"
"241032","269-UM","2018/02/02 21:19:43","新北市三重區光復路二段146-2號","121.472016666667","25.0598366666667","6500200","三重區"
"241013","270-UM","2018/02/02 21:19:42","新北市三重區仁愛街83號","121.495843333333","25.0731666666667","6500200","三重區"
"241025","271-UM","2018/02/02 21:19:39","新北市三重區中正北路208巷10弄4號","121.482353333333","25.066935","6500200","三重區"
"241007","398-BY","2018/02/02 21:19:30","新北市三重區忠孝路一段81號","121.49028","25.07208","6500200","三重區"
"241004","475-VK","2018/02/02 21:19:38","新北市三重區仁愛街418號","121.490443333333","25.0814116666667","6500200","三重區"
"241019","478-VK","2018/02/02 21:19:43","新北市三重區重陽路三段7-3號","121.489225","25.0665","6500200","三重區"
"241030","480-VK","2018/02/02 21:19:38","新北市三重區頂崁街23號","121.476461666667","25.0564333333333","6500200","三重區"
"241014","543-UM","2018/02/02 21:19:26","新北市三重區萬全街9號","121.499295","25.069705","6500200","三重區"
"241023","545-UM","2018/02/02 21:19:27","新北市三重區中正北路176巷27號","121.482616666667","25.0659516666667","6500200","三重區"
"241001","547-UM","2018/02/02 21:19:34","新北市三重區福隆路50號","121.49242","25.0784583333333","6500200","三重區"
"241006","AAD-863","2018/02/02 21:19:43","新北市三重區重陽路二段67號","121.487785","25.063825","6500200","三重區"
"241003","887-TS","2018/02/02 21:19:44","新北市三重區仁義街317號","121.495436666667","25.0842466666667","6500200","三重區"
"241012","941-UM","2018/02/02 21:19:42","新北市三重區龍門路286號","121.502001666667","25.0741983333333","6500200","三重區"
"241033","AAC-255","2018/02/02 21:19:38","新北市三重區光復路二段96號","121.472043333333","25.0580533333333","6500200","三重區"
"247022","893-R6","2018/02/02 21:19:39","新北市蘆洲區三民路251號","121.46852","25.0893383333333","6501400","蘆洲區"
"247012","546-UM","2018/02/02 21:19:30","新北市蘆洲區民族路236巷35號","121.480296666667","25.088625","6501400","蘆洲區"
"247020","500-BY","2018/02/02 21:19:36","新北市蘆洲區仁愛街62巷22號","121.472255","25.09432","6501400","蘆洲區"
"247008","341-TH","2018/02/02 21:19:36","新北市蘆洲區中山一路97巷32弄5號","121.475631666667","25.08113","6501400","蘆洲區"
"247010","339-TH","2018/02/02 21:19:48","新北市蘆洲區鷺江街16-2號","121.478768333333","25.0826016666667","6501400","蘆洲區"
"247002","337-TH","2018/02/02 21:19:42","新北市蘆洲區永樂街38巷9號","121.45784","25.08877","6501400","蘆洲區"
"247004","336-TH","2018/02/02 21:19:38","新北市蘆洲區環堤大道2-1號","121.456855","25.0827566666667","6501400","蘆洲區"
"247006","056-VK","2018/02/02 21:19:25","新北市蘆洲區長安街63號","121.462848333333","25.079795","6501400","蘆洲區"
"247016","053-VK","2018/02/02 21:19:29","新北市蘆洲區中原路16號","121.460931666667","25.0831916666667","6501400","蘆洲區"
"247014","007-UY","2018/02/02 21:19:39","新北市蘆洲區保和街50-6號","121.469808333333","25.0863183333333","6501400","蘆洲區"
"247024","002-UY","2018/02/02 21:19:32","新北市蘆洲區光明路96號","121.463151666667","25.0879283333333","6501400","蘆洲區"
"247018","001-UY","2018/02/02 21:19:43","新北市蘆洲區復興路111-6號","121.476471666667","25.0884066666667","6501400","蘆洲區"
"251004","009-UM","2018/02/02 21:19:46","新北市淡水區民族路35號","121.462455","25.1356583333333","6501000","淡水區"
"251001","011-UM","2018/02/02 21:19:27","新北市淡水區中山北路二段189巷8號","121.443953333333","25.1852866666667","6501000","淡水區"
"251008","181-VK","2018/02/02 21:19:36","新北市淡水區水源街二段222號","121.459995","25.1765516666667","6501000","淡水區"
"251010","413-VK","2018/02/02 21:19:28","新北市淡水區淡海路69巷26號","121.421883333333","25.1808483333333","6501000","淡水區"
"251012","441-VK","2018/02/02 21:19:29","新北市淡水區石頭埔8號","121.452591666667","25.23458","6501000","淡水區"
"251005","443-VK","2018/02/02 21:19:35","新北市淡水區水源街一段122巷37號","121.447066666667","25.1703766666667","6501000","淡水區"
"251006","561-UM","2018/02/02 21:19:31","新北市淡水區中正路一段85號","121.422358333333","25.178865","6501000","淡水區"
"251009","575-R6","2018/02/02 21:19:31","新北市淡水區民族路33巷16-19號","121.462445","25.1357916666667","6501000","淡水區"
"251011","650-BX","2018/02/02 21:19:37","新北市淡水區新民街120巷29號","121.438913333333","25.178795","6501000","淡水區"
"251002","672-BX","2018/02/02 21:19:34","新北市淡水區英專路151號","121.448346666667","25.1748433333333","6501000","淡水區"
"251003","673-BX","2018/02/02 21:19:35","新北市淡水區新春街91巷17號","121.43877","25.18307","6501000","淡水區"
"242021","135-UY","2018/02/02 21:19:28","新北市板橋區溪城路90-2號","121.429821666667","24.980545","6500500","新莊區"
"242048","281-VK","2018/02/02 21:19:40","新北市樹林區中山路三段214號","121.380121666667","24.9678466666667","6500500","新莊區"
"220067","829-TW","2018/02/02 21:18:43","新北市八里區荖阡坑路34號","121.4019","25.129215","6500100","板橋區"
"220070","AAC-253","2018/02/02 21:18:56","新北市八里區荖阡坑路34號","121.402528333333","25.1283883333333","6500100","板橋區"
