"lineid","car","time","location","longitude","latitude","cityid","cityname"
"247003","336-TH","2018/02/02 22:18:53","新北市五股區中興路三段163號","121.449265","25.0809816666667","6501400","蘆洲區"
"251004","009-UM","2018/02/02 22:19:46","新北市淡水區民族路33號","121.462291666667","25.135825","6501000","淡水區"
"251008","181-VK","2018/02/02 22:19:36","新北市淡水區學府路104號","121.449875","25.1717783333333","6501000","淡水區"
"251010","413-VK","2018/02/02 22:19:28","新北市淡水區沙崙路200號","121.424718333333","25.18393","6501000","淡水區"
"251007","577-R6","2018/02/02 22:19:33","新北市淡水區北新路180號","121.449423333333","25.178745","6501000","淡水區"
"251011","650-BX","2018/02/02 22:19:37","新北市淡水區水碓街7號","121.443166666667","25.1770966666667","6501000","淡水區"
