"lineid","car","time","location","longitude","latitude","cityid","cityname"
"248005","653-BX","2018/02/03 07:09:53","新北市五股區明德路1號","121.43514","25.0712566666667","6501500","五股區"
"232004","290-BY","2018/02/03 07:09:53","新北市坪林區粗石斛6-1號","121.750248333333","24.9525533333333","6502000","坪林區"
"232016","291-BY","2018/02/03 07:09:50","新北市坪林區金瓜寮4-1號","121.680731666667","24.91758","6502000","坪林區"
"232010","375-UM","2018/02/03 07:09:45","新北市坪林區水聳淒坑5-2號","121.725311666667","24.92834","6502000","坪林區"
"232009","758-BX","2018/02/03 07:09:32","新北市坪林區魚堀55-8號","121.706486666667","24.9285816666667","6502000","坪林區"
"244005","248-BX","2018/02/03 07:09:46","新北市林口區南勢里7鄰76號","121.35157","25.07878","6501700","林口區"
"222004","289-BY","2018/02/03 07:09:33","新北市深坑區昇高坑路43號","121.629343333333","24.9968016666667","6501800","深坑區"
"235001","611-BX","2018/02/03 07:09:32","新北市中和區圓通路367巷4號","121.491386666667","24.9892133333333","6500300","中和區"
"235063","911-UM","2018/02/03 07:09:40","新北市中和區廟美街5號","121.500793333333","25.0014566666667","6500300","中和區"
"226005","5620-A6","2018/02/03 07:09:48","新北市平溪區菁桐里菁桐街109號","121.724745","25.0240266666667","6502400","平溪區"
"226002","7418-A5","2018/02/03 07:09:45","新北市平溪區石底里公園街18-3號","121.733481666667","25.02563","6502400","平溪區"
"226003","AGD-0702","2018/02/03 07:09:36","新北市平溪區菁桐里菁桐街105號","121.724956666667","25.0239733333333","6502400","平溪區"
"223006","022-BY","2018/02/03 07:09:53","新北市石碇區深按2號","121.660003333333","25.0182166666667","6501900","石碇區"
"223001","205-TH","2018/02/03 07:09:51","新北市石碇區溪邊寮1-3號","121.658008333333","24.9774816666667","6501900","石碇區"
"223008","406-TH","2018/02/03 07:09:42","新北市石碇區十八重溪67-1號","121.673135","25.0125816666667","6501900","石碇區"
"223001","437-BY","2018/02/03 07:09:53","新北市石碇區溪邊寮2-2號","121.657691666667","24.97685","6501900","石碇區"
"223007","592-UM","2018/02/03 07:09:39","新北市石碇區十八重溪67-1號","121.673131666667","25.0126216666667","6501900","石碇區"
"223004","660-BX","2018/02/03 07:09:39","新北市石碇區雙溪47-1號","121.651801666667","25.0067366666667","6501900","石碇區"
"223005","677-TV","2018/02/03 07:09:45","新北市石碇區碇坪路一段10號","121.651651666667","25.0060566666667","6501900","石碇區"
"227006","282-VK","2018/02/03 07:09:42","新北市雙溪區新基里自強路2號","121.866343333333","25.03887","6502500","雙溪區"
"252004","702-TV","2018/02/03 07:09:50","新北市三芝區福德里埔尾20-3號","121.502565","25.2405","6502100","三芝區"
"252007","AAC-283","2018/02/03 07:09:54","新北市三芝區錫板里小坑子1號","121.492308333333","25.2476616666667","6502100","三芝區"
"236011","165-UM","2018/02/03 07:09:36","新北市土城區中央路三段87號","121.437698333333","24.9678833333333","6501300","土城區"
"236002","339-SR","2018/02/03 07:09:42","新北市土城區承天路1號","121.435651666667","24.9663083333333","6501300","土城區"
"220029","461-BY","2018/02/03 07:02:06","新北市板橋區國光路31巷16號","121.45799","25.0180866666667","6500100","板橋區"
