"lineid","car","time","location","longitude","latitude","cityid","cityname"
"248005","653-BX","2018/02/03 07:19:51","新北市五股區明德路12巷6號","121.433441666667","25.0718116666667","6501500","五股區"
"232004","290-BY","2018/02/03 07:19:53","新北市坪林區坪雙路一段117號","121.732396666667","24.9512416666667","6502000","坪林區"
"232016","291-BY","2018/02/03 07:19:50","新北市坪林區金瓜寮23-2號","121.679401666667","24.910905","6502000","坪林區"
"232010","375-UM","2018/02/03 07:19:45","新北市坪林區水聳淒坑5-2號","121.725358333333","24.9280516666667","6502000","坪林區"
"232009","758-BX","2018/02/03 07:19:32","新北市坪林區魚堀42號","121.701241666667","24.932445","6502000","坪林區"
"244005","248-BX","2018/02/03 07:19:46","新北市林口區南勢里59-18號","121.36167","25.0794033333333","6501700","林口區"
"222004","289-BY","2018/02/03 07:10:53","新北市深坑區昇高坑路66號","121.629981666667","24.9926633333333","6501800","深坑區"
"235001","611-BX","2018/02/03 07:19:32","新北市中和區圓通路367巷4號","121.491365","24.98922","6500300","中和區"
"235063","911-UM","2018/02/03 07:19:40","新北市中和區中和路59號","121.500643333333","25.0013783333333","6500300","中和區"
"226005","5620-A6","2018/02/03 07:18:48","新北市平溪區薯榔里雙菁路1號","121.720468333333","25.025525","6502400","平溪區"
"226002","7418-A5","2018/02/03 07:19:45","新北市平溪區靜安路二段550號","121.747078333333","25.02519","6502400","平溪區"
"226003","AGD-0702","2018/02/03 07:19:36","新北市平溪區白石里中埔226號","121.721821666667","25.020135","6502400","平溪區"
"223006","022-BY","2018/02/03 07:19:33","新北市石碇區靜安路一段102號","121.647956666667","25.0101883333333","6501900","石碇區"
"223001","205-TH","2018/02/03 07:19:40","新北市石碇區蓬菜寮4號","121.652176666667","24.9737983333333","6501900","石碇區"
"223008","406-TH","2018/02/03 07:19:42","新北市石碇區石碇子埔93-2號","121.67556","25.0045966666667","6501900","石碇區"
"223001","437-BY","2018/02/03 07:19:33","新北市石碇區蓬菜寮17號","121.649241666667","24.9724633333333","6501900","石碇區"
"223007","592-UM","2018/02/03 07:19:39","新北市石碇區番子坑14-2號","121.679735","25.001695","6501900","石碇區"
"223004","660-BX","2018/02/03 07:19:39","新北市石碇區新興坑3號","121.654428333333","25.0166333333333","6501900","石碇區"
"223005","677-TV","2018/02/03 07:19:45","新北市石碇區新興坑1-1號","121.654031666667","25.0148516666667","6501900","石碇區"
"227006","282-VK","2018/02/03 07:19:42","新北市雙溪區新基里自強路5號","121.866325","25.0390983333333","6502500","雙溪區"
"252004","702-TV","2018/02/03 07:19:50","新北市三芝區福德里大湖8-2號","121.50249","25.2267","6502100","三芝區"
"252007","AAC-283","2018/02/03 07:19:33","新北市三芝區錫板里海尾14-5號","121.477525","25.2590566666667","6502100","三芝區"
"237001","159-UY","2018/02/03 07:19:47","新北市三峽區中山路459巷137號","121.350428333333","24.934115","6500900","三峽區"
"236011","165-UM","2018/02/03 07:19:36","新北市土城區中華路一段25號","121.446446666667","24.98911","6501300","土城區"
"236002","339-SR","2018/02/03 07:19:42","新北市土城區南天母路111巷6-2號","121.448453333333","24.95501","6501300","土城區"
"220029","461-BY","2018/02/03 07:13:56","新北市板橋區國光路49巷2號","121.45812","25.0181133333333","6500100","板橋區"
