"lineid","car","time","location","longitude","latitude","cityid","cityname"
"248005","653-BX","2018/02/03 07:29:51","新北市五股區明德路12巷6號","121.433393333333","25.0718133333333","6501500","五股區"
"232004","290-BY","2018/02/03 07:29:33","新北市坪林區下坑子口6-15號","121.711305","24.943365","6502000","坪林區"
"232016","291-BY","2018/02/03 07:29:50","新北市坪林區金瓜寮1-1號","121.682098333333","24.9232616666667","6502000","坪林區"
"232010","375-UM","2018/02/03 07:29:45","新北市坪林區水聳淒坑18號","121.71243","24.9326116666667","6502000","坪林區"
"232009","758-BX","2018/02/03 07:29:32","新北市坪林區魚堀48-5號","121.702271666667","24.9330016666667","6502000","坪林區"
"244005","248-BX","2018/02/03 07:29:46","新北市林口區南勢里71-87號","121.348296666667","25.0833883333333","6501700","林口區"
"222004","289-BY","2018/02/03 07:10:53","新北市深坑區昇高坑路66號","121.629981666667","24.9926633333333","6501800","深坑區"
"235001","611-BX","2018/02/03 07:29:52","新北市中和區圓通路367巷4號","121.491395","24.989245","6500300","中和區"
"235063","911-UM","2018/02/03 07:29:40","新北市中和區廟美街5號","121.500721666667","25.001495","6500300","中和區"
"226005","5620-A6","2018/02/03 07:29:48","新北市平溪區平溪里平溪街22號","121.738765","25.0253416666667","6502400","平溪區"
"226002","7418-A5","2018/02/03 07:27:45","新北市平溪區望古里灰4-2號","121.763595","25.0288833333333","6502400","平溪區"
"226003","AGD-0702","2018/02/03 07:29:36","新北市平溪區平溪里平溪街22號","121.738775","25.0253316666667","6502400","平溪區"
"223006","022-BY","2018/02/03 07:29:53","新北市石碇區半路店3號","121.647881666667","24.9650816666667","6501900","石碇區"
"223001","205-TH","2018/02/03 07:29:40","新北市石碇區蓬菜寮17號","121.648986666667","24.9721083333333","6501900","石碇區"
"223008","406-TH","2018/02/03 07:29:42","新北市石碇區番子坑36號","121.677746666667","25.009915","6501900","石碇區"
"223001","437-BY","2018/02/03 07:29:33","新北市石碇區中楒子腳1號","121.647088333333","24.9716566666667","6501900","石碇區"
"223007","592-UM","2018/02/03 07:29:39","新北市石碇區蚯蚓坑11-10號","121.690901666667","25.0056733333333","6501900","石碇區"
"223004","660-BX","2018/02/03 07:29:39","新北市石碇區八分寮55-3號","121.644641666667","25.0134266666667","6501900","石碇區"
"223005","677-TV","2018/02/03 07:29:45","新北市石碇區八分寮35-1號","121.64487","25.014705","6501900","石碇區"
"227006","282-VK","2018/02/03 07:29:42","新北市雙溪區牡丹里中正路34號","121.864606666667","25.0383183333333","6502500","雙溪區"
"252004","702-TV","2018/02/03 07:29:50","新北市三芝區興華里楓子林55-1號","121.500756666667","25.2141083333333","6502100","三芝區"
"252007","AAC-283","2018/02/03 07:29:54","新北市三芝區古庄里古庄81-3號","121.488901666667","25.2692583333333","6502100","三芝區"
"237001","159-UY","2018/02/03 07:29:47","新北市三峽區隆恩街162號","121.365176666667","24.9433033333333","6500900","三峽區"
"236011","165-UM","2018/02/03 07:29:35","新北市板橋區廣權路85號","121.464133333333","24.9924416666667","6501300","土城區"
"236002","339-SR","2018/02/03 07:29:43","新北市土城區承天路114號","121.451985","24.9497966666667","6501300","土城區"
"220029","461-BY","2018/02/03 07:29:33","新北市板橋區國光路51號","121.458158333333","25.0179483333333","6500100","板橋區"
