"lineid","car","time","location","longitude","latitude","cityid","cityname"
"248005","653-BX","2018/09/28 07:59:23","新北市五股區明德路8號","121.433371666667","25.0717","6501500","五股區"
"232008","758-BX","2018/09/28 07:59:35","新北市坪林區魚堀1-15號","121.720916666667","24.89398","6502000","坪林區"
"244004","248-BX","2018/09/28 07:59:27","新北市林口區下福20號","121.311293333333","25.1116816666667","6501700","林口區"
"222005","289-BY","2018/09/28 07:59:24","新北市深坑區深坑街3巷22號","121.616941666667","25.001805","6501800","深坑區"
"231007","189-VK","2018/09/28 07:59:20","新北市新店區安康路一段323-3號","121.521415","24.9637633333333","6500600","新店區"
"231009","192-VK","2018/09/28 07:59:24","新北市新店區安康路一段227號","121.525621666667","24.9631433333333","6500600","新店區"
"235001","611-BX","2018/09/28 07:59:25","新北市中和區圓通路367巷4號","121.49137","24.9892233333333","6500300","中和區"
"226005","5620-A6","2018/09/28 07:59:34","新北市平溪區石底里公園街18-3號","121.733501666667","25.0255866666667","6502400","平溪區"
"226001","7418-A5","2018/09/28 07:59:38","新北市平溪區南山里乾坑11號","121.78268","25.0471833333333","6502400","平溪區"
"226006","AGD-0702","2018/09/28 07:59:23","新北市平溪區十分里十分街45號","121.7745","25.04081","6502400","平溪區"
"223006","022-BY","2018/09/28 07:59:22","新北市坪林區魚堀55-1號","121.708221666667","24.9291266666667","6501900","石碇區"
"223002","KEA-2673","2018/09/28 07:45:18","新北市石碇區大格門3號","121.668785","24.9561933333333","6501900","石碇區"
"223001","592-UM","2018/09/28 07:58:24","新北市石碇區樟空子10-1號","121.66705","24.9629766666667","6501900","石碇區"
"223004","660-BX","2018/09/28 07:59:37","新北市石碇區外按9-2號","121.650646666667","24.9974016666667","6501900","石碇區"
"223007","661-BX","2018/09/28 07:42:46","新北市石碇區靜安路一段337號","121.698911666667","25.0145633333333","6501900","石碇區"
"223005","677-TV","2018/09/28 07:59:25","新北市石碇區外按11-5號","121.651155","24.9989516666667","6501900","石碇區"
"227005","282-VK","2018/09/28 07:59:33","新北市雙溪區平林里梅竹蹊16號","121.862016666667","25.0359333333333","6502500","雙溪區"
"237001","159-UY","2018/09/28 07:59:28","新北市三峽區學成路250號","121.374793333333","24.9418833333333","6500900","三峽區"
"242001","233-RS","2018/09/28 07:59:30","新北市新莊區中港路301號","121.452938333333","25.0444983333333","6500500","新莊區"
