"lineid","car","time","location","longitude","latitude","cityid","cityname"
"248005","653-BX","2018/09/28 08:19:23","新北市五股區明德路12巷3號","121.433321666667","25.0718133333333","6501500","五股區"
"244004","248-BX","2018/09/28 08:19:27","新北市林口區嘉溪雅坑22號","121.339673333333","25.1082283333333","6501700","林口區"
"222005","289-BY","2018/09/28 08:19:24","新北市深坑區萬福路83號","121.60164","25.009405","6501800","深坑區"
"231007","189-VK","2018/09/28 08:19:40","新北市新店區新潭路一段100-3號","121.527185","24.9378483333333","6500600","新店區"
"231009","192-VK","2018/09/28 08:19:24","新北市新店區北宜路一段123-2號","121.54067","24.9535133333333","6500600","新店區"
"235001","611-BX","2018/09/28 08:19:25","新北市中和區連城路469巷18號","121.483503333333","24.9951766666667","6500300","中和區"
"226005","5620-A6","2018/09/28 08:19:34","新北市平溪區南山里南山坪124-1號","121.784401666667","25.04534","6502400","平溪區"
"226001","7418-A5","2018/09/28 08:19:38","新北市平溪區望古里灰3-1號","121.756863333333","25.02959","6502400","平溪區"
"226006","AGD-0702","2018/09/28 08:19:23","新北市平溪區新寮里新寮路1-2號","121.789451666667","25.0582466666667","6502400","平溪區"
"223006","022-BY","2018/09/28 08:19:32","新北市坪林區北宜路八段558號","121.717265","24.9093333333333","6501900","石碇區"
"223008","406-TH","2018/09/28 08:19:23","新北市石碇區靜安路一段139號","121.671361666667","25.0055566666667","6501900","石碇區"
"223001","592-UM","2018/09/28 08:19:24","新北市石碇區北宜路六段塗潭巷7號","121.646276666667","24.934045","6501900","石碇區"
"223004","660-BX","2018/09/28 08:19:36","新北市石碇區石崁14-1號","121.655406666667","24.9939516666667","6501900","石碇區"
"223005","677-TV","2018/09/28 08:19:25","新北市石碇區碇坪路一段38號","121.654263333333","24.99651","6501900","石碇區"
"227005","282-VK","2018/09/28 08:19:33","新北市雙溪區上林里大瀨10號","121.822358333333","25.022105","6502500","雙溪區"
"237001","159-UY","2018/09/28 08:19:28","新北市三峽區學成路269號","121.375735","24.9430133333333","6500900","三峽區"
