"lineid","car","time","location","longitude","latitude","cityid","cityname"
"248005","653-BX","2018/09/28 08:29:23","新北市五股區明德路12巷6號","121.433415","25.07179","6501500","五股區"
"244004","248-BX","2018/09/28 08:29:27","新北市林口區民生路166號","121.380223333333","25.08743","6501700","林口區"
"222005","289-BY","2018/09/28 08:29:24","新北市深坑區萬福路102-1號","121.613605","25.0151383333333","6501800","深坑區"
"231007","189-VK","2018/09/28 08:29:40","新北市新店區小坑二路2巷7號","121.532431666667","24.91649","6500600","新店區"
"231009","192-VK","2018/09/28 08:29:25","新北市新店區新烏路47號","121.54702","24.92856","6500600","新店區"
"235001","611-BX","2018/09/28 08:29:25","新北市中和區民安街42巷2號","121.479863333333","25.00065","6500300","中和區"
"226005","5620-A6","2018/09/28 08:29:34","新北市平溪區南山里六分11-1號","121.797661666667","25.0498833333333","6502400","平溪區"
"226001","7418-A5","2018/09/28 08:29:38","新北市平溪區東勢里番仔坑3號","121.746948333333","25.0001733333333","6502400","平溪區"
"226006","AGD-0702","2018/09/28 08:29:33","新北市平溪區十分里十分街249號","121.777743333333","25.044745","6502400","平溪區"
"223006","022-BY","2018/09/28 08:29:33","新北市坪林區鶯子瀨11-3號","121.710725","24.91566","6501900","石碇區"
"223008","406-TH","2018/09/28 08:29:25","新北市石碇區靜安路一段213號","121.674246666667","25.0098483333333","6501900","石碇區"
"223001","592-UM","2018/09/28 08:29:24","新北市石碇區北宜路六段直潭巷11號","121.661563333333","24.9346166666667","6501900","石碇區"
"223004","660-BX","2018/09/28 08:29:36","新北市石碇區碇坪路一段242號","121.675648333333","24.9788716666667","6501900","石碇區"
"223005","677-TV","2018/09/28 08:29:25","新北市石碇區碇坪路一段139號","121.675388333333","24.9801483333333","6501900","石碇區"
"227005","282-VK","2018/09/28 08:28:34","新北市雙溪區外柑里過溪3號","121.825061666667","25.0179883333333","6502500","雙溪區"
"237001","159-UY","2018/09/28 08:29:28","新北市三峽區大義路251號","121.377463333333","24.9460883333333","6500900","三峽區"
