"lineid","car","time","location","longitude","latitude","cityid","cityname"
"248005","653-BX","2018/09/28 09:19:23","新北市五股區水碓一路23號","121.430491666667","25.0715383333333","6501500","五股區"
"222005","289-BY","2018/09/28 09:19:24","新北市深坑區土庫尖路75-1號","121.63119","25.01821","6501800","深坑區"
"231007","189-VK","2018/09/28 09:19:40","新北市新店區新潭路三段215巷25號","121.508191666667","24.9041166666667","6500600","新店區"
"231009","192-VK","2018/09/28 09:19:24","新北市新店區平廣路一段125號","121.52803","24.895775","6500600","新店區"
"235001","611-BX","2018/09/28 09:19:25","新北市中和區連城路607號","121.478346666667","24.9930566666667","6500300","中和區"
"223006","022-BY","2018/09/28 09:16:45","新北市石碇區小粗坑(潭邊里)9-2號","121.678658333333","24.9856466666667","6501900","石碇區"
"223008","406-TH","2018/09/28 09:19:25","新北市石碇區藤寮坑6-1號","121.704175","25.00596","6501900","石碇區"
"223005","677-TV","2018/09/28 09:19:25","新北市石碇區小粗坑(潭邊里)1-3號","121.672956666667","24.9830716666667","6501900","石碇區"
"227005","282-VK","2018/09/28 09:14:33","新北市雙溪區泰平里料角坑19號","121.81232","24.9723033333333","6502500","雙溪區"
"237001","159-UY","2018/09/28 09:19:28","新北市三峽區大德路300號","121.375028333333","24.9483516666667","6500900","三峽區"
