"lineid","car","time","location","longitude","latitude","cityid","cityname"
"248005","653-BX","2018/09/28 09:29:23","新北市五股區明德路12巷20號","121.433116666667","25.07211","6501500","五股區"
"222005","289-BY","2018/09/28 09:29:24","新北市深坑區土庫尖路62號","121.635938333333","25.0173533333333","6501800","深坑區"
"231007","189-VK","2018/09/28 09:29:40","新北市新店區新潭路三段215巷25號","121.508216666667","24.9041033333333","6500600","新店區"
"231009","192-VK","2018/09/28 09:25:45","新北市新店區平廣路一段256號","121.507888333333","24.8883166666667","6500600","新店區"
"223006","022-BY","2018/09/28 09:16:45","新北市石碇區小粗坑(潭邊里)9-2號","121.678658333333","24.9856466666667","6501900","石碇區"
"223008","406-TH","2018/09/28 09:28:25","新北市石碇區西勢坑7號","121.691788333333","24.9904483333333","6501900","石碇區"
"227005","282-VK","2018/09/28 09:29:33","新北市雙溪區泰平里料角坑23號","121.8162","24.9698516666667","6502500","雙溪區"
"237001","159-UY","2018/09/28 09:29:28","新北市樹林區中山路三段210-2號","121.381613333333","24.9655316666667","6500900","三峽區"
