"lineid","car","time","location","longitude","latitude","cityid","cityname"
"248005","653-BX","2018/09/28 09:49:22","新北市五股區成泰路一段42號","121.435388333333","25.0689783333333","6501500","五股區"
"231007","189-VK","2018/09/28 09:49:40","新北市新店區新潭路三段215巷25號","121.508205","24.90411","6500600","新店區"
"231009","192-VK","2018/09/28 09:49:24","新北市新店區小坑一路21-1號","121.530326666667","24.91218","6500600","新店區"
"223006","022-BY","2018/09/28 09:49:31","新北市石碇區碇坪路一段256號","121.675238333333","24.9781033333333","6501900","石碇區"
"227005","282-VK","2018/09/28 09:40:13","新北市雙溪區泰平里烏山路40-1號","121.833815","24.9381383333333","6502500","雙溪區"
"237001","159-UY","2018/09/28 09:49:28","新北市三峽區學勤路198號","121.377008333333","24.9472466666667","6500900","三峽區"
