"lineid","car","time","location","longitude","latitude","cityid","cityname"
"234044","148-BY","2018/09/28 12:59:39","新北市永和區永元路52巷37號","121.524148333333","25.00094","6500400","永和區"
"234005","207-UY","2018/09/28 12:59:31","新北市永和區永和路二段28號","121.514625","25.0103583333333","6500400","永和區"
"234078","298-R6","2018/09/28 12:59:46","新北市永和區永亨路83號","121.522008333333","25.0057016666667","6500400","永和區"
"234036","336-UY","2018/09/28 12:59:41","新北市永和區成功路二段199-2號","121.526565","24.9960266666667","6500400","永和區"
"234062","337-UY","2018/09/28 12:59:33","新北市永和區秀朗路一段156號","121.518355","25.0034066666667","6500400","永和區"
"234084","338-UY","2018/09/28 12:59:34","新北市永和區中正路401號","121.517263333333","25.0044166666667","6500400","永和區"
"234068","552-UM","2018/09/28 12:59:37","新北市永和區中興街84巷9號","121.518578333333","25.011625","6500400","永和區"
"234015","745-BX","2018/09/28 12:59:41","新北市永和區永和路二段297號","121.51607","25.0160433333333","6500400","永和區"
"234028","746-BX","2018/09/28 12:59:48","新北市永和區四維街44號","121.525215","24.9982116666667","6500400","永和區"
"234052","KEA-2590","2018/09/28 12:59:27","新北市永和區竹林路64號","121.518311666667","25.0135","6500400","永和區"
"234012","KEA-2591","2018/09/28 12:59:26","新北市永和區信義路14-1號","121.514326666667","25.01213","6500400","永和區"
"234060","AAD-866","2018/09/28 12:59:26","新北市永和區福和路309巷1號","121.516346666667","25.0070766666667","6500400","永和區"
"234040","862-TW","2018/09/28 12:59:29","新北市永和區永貞路308號","121.511826666667","25.0048416666667","6500400","永和區"
"234048","863-TW","2018/09/28 12:59:41","新北市永和區文化路204號","121.510473333333","25.0165066666667","6500400","永和區"
"234025","9371-KE","2018/09/28 12:59:37","新北市永和區水源街2巷15號","121.512018333333","25.0056716666667","6500400","永和區"
"234010","9373-KE","2018/09/28 12:59:42","新北市永和區文化路113巷21弄26號","121.51379","25.0139666666667","6500400","永和區"
"248019","225-UY","2018/09/28 12:59:34","新北市五股區中興路二段83巷26-3號","121.460078333333","25.0754883333333","6501500","五股區"
"234022","9380-KE","2018/09/28 12:59:29","新北市永和區竹林路75巷25弄3號","121.52012","25.01405","6500400","永和區"
"234076","969-R7","2018/09/28 12:59:46","新北市永和區民享街21號","121.515683333333","24.9950083333333","6500400","永和區"
"234066","AAC-212","2018/09/28 12:59:37","新北市永和區自由街64號","121.513486666667","25.0056266666667","6500400","永和區"
"234001","AAC-295","2018/09/28 12:59:46","新北市永和區永平路29號","121.513318333333","25.0087383333333","6500400","永和區"
"244004","248-BX","2018/09/28 12:59:44","新北市林口區中山路278號","121.382215","25.0813633333333","6501700","林口區"
"231028","001-UM","2018/09/28 12:59:29","新北市新店區安華路28-1號","121.519445","24.96088","6500600","新店區"
"231002","002-UM","2018/09/28 12:59:26","新北市新店區安華路28-1號","121.519555","24.9608016666667","6500600","新店區"
"231001","047-UY","2018/09/28 12:59:37","新北市新店區安華路28-1號","121.519298333333","24.9609233333333","6500600","新店區"
"231005","106-UY","2018/09/28 12:59:31","新北市新店區安華路28-1號","121.51956","24.9608666666667","6500600","新店區"
"231022","110-UY","2018/09/28 12:59:47","新北市新店區安一路一段1-1號","121.519596666667","24.9612883333333","6500600","新店區"
"231032","188-VK","2018/09/28 12:59:44","新北市新店區安一路一段1-1號","121.519395","24.9612166666667","6500600","新店區"
"231003","268-BY","2018/09/28 12:59:35","新北市新店區安華路28-1號","121.519335","24.9606733333333","6500600","新店區"
"231018","278-BY","2018/09/28 12:59:37","新北市新店區安一路一段1-1號","121.51963","24.961205","6500600","新店區"
"231016","AAD-862","2018/09/28 12:59:36","新北市新店區安一路一段1-1號","121.519743333333","24.9611083333333","6500600","新店區"
"231037","4716-K9","2018/09/28 12:59:34","新北市新店區安一路一段1-1號","121.519421666667","24.96121","6500600","新店區"
"231036","512-UM","2018/09/28 12:59:32","新北市新店區安一路一段1-1號","121.51929","24.9612016666667","6500600","新店區"
"231013","513-UM","2018/09/28 12:59:41","新北市新店區安一路一段1-1號","121.519561666667","24.96114","6500600","新店區"
"231034","616-UM","2018/09/28 12:59:29","新北市新店區安華路28-1號","121.519423333333","24.9605866666667","6500600","新店區"
"231030","619-UM","2018/09/28 12:59:33","新北市新店區安華路28-1號","121.519483333333","24.96086","6500600","新店區"
"231035","719-UM","2018/09/28 12:59:41","新北市新店區安一路一段1-1號","121.519525","24.96121","6500600","新店區"
"231029","897-TW","2018/09/28 12:59:30","新北市新店區安華路28-1號","121.519546666667","24.9607983333333","6500600","新店區"
"231004","899-TW","2018/09/28 12:59:41","新北市新店區安華路28-1號","121.519335","24.96089","6500600","新店區"
"231024","AKT-0513","2018/09/28 12:59:40","新北市新店區安華路1-1號","121.519505","24.9604583333333","6500600","新店區"
"235028","005-UY","2018/09/28 12:59:38","新北市中和區員山路36巷16-3號","121.485145","24.9913416666667","6500300","中和區"
"235027","006-UY","2018/09/28 12:59:35","新北市中和區員山路36巷16-3號","121.485033333333","24.9912533333333","6500300","中和區"
"235029","098-UM","2018/09/28 12:59:47","新北市中和區橋和路274號","121.495993333333","25.0067116666667","6500300","中和區"
"235022","151-BY","2018/09/28 12:59:42","新北市中和區圓通路367巷15-1號","121.492175","24.98757","6500300","中和區"
"235002","185-VK","2018/09/28 12:59:44","新北市永和區民生路67巷58號","121.52572","24.99746","6500300","中和區"
"235031","255-BX","2018/09/28 12:59:32","新北市中和區中山路二段449號","121.48404","25.0049116666667","6500300","中和區"
"235001","611-BX","2018/09/28 12:59:45","新北市中和區中山路三段136巷29號","121.473645","25.0077416666667","6500300","中和區"
"235018","640-BX","2018/09/28 12:59:28","新北市中和區員山路36巷16-2號","121.485003333333","24.991895","6500300","中和區"
"235047","732-UM","2018/09/28 12:59:31","新北市中和區員山路36巷16-8號","121.485438333333","24.9922333333333","6500300","中和區"
"235035","783-BX","2018/09/28 12:59:35","新北市中和區連城路469巷32號","121.483493333333","24.99486","6500300","中和區"
"235016","805-TS","2018/09/28 12:59:35","新北市中和區員山路36巷16號","121.484415","24.9916083333333","6500300","中和區"
"235015","157-BY","2018/09/28 12:59:37","新北市中和區中正路637巷52弄1號","121.485456666667","24.9935616666667","6500300","中和區"
"235001","AAC-213","2018/09/28 12:59:38","新北市中和區錦和路350-1號","121.49057","24.9936216666667","6500300","中和區"
"235023","AAC-215","2018/09/28 12:59:43","新北市中和區員山路36巷16-3號","121.484921666667","24.991445","6500300","中和區"
"207002","749-BX","2018/09/28 12:59:25","新北市萬里區雙興里大坪路51號","121.622898333333","25.1730166666667","6502800","萬里區"
"207001","662-BX","2018/09/28 12:59:33","新北市萬里區萬里里獅頭路23號","121.693166666667","25.178325","6502800","萬里區"
"242051","172-VK","2018/09/28 12:59:32","新北市新莊區中正路243-2號","121.450556666667","25.0356666666667","6500500","新莊區"
"221032","280-BY","2018/09/28 12:59:34","新北市汐止區建成路57巷22號","121.66226","25.0727383333333","6501100","汐止區"
"235025","KEA-2875","2018/09/28 12:59:30","新北市中和區員山路36巷16-2號","121.485253333333","24.9917766666667","6500300","中和區"
