"lineid","car","time","location","longitude","latitude","cityid","cityname"
"234044","148-BY","2018/09/28 13:49:00","新北市永和區永利路125號","121.523996666667","25.002935","6500400","永和區"
"234005","207-UY","2018/09/28 13:49:11","新北市中和區中和路376號","121.510625","25.002075","6500400","永和區"
"234078","298-R6","2018/09/28 13:49:08","新北市永和區永亨路98號","121.523033333333","25.0047833333333","6500400","永和區"
"234036","336-UY","2018/09/28 13:49:01","新北市永和區成功路二段129巷2號","121.526833333333","24.9982216666667","6500400","永和區"
"234062","337-UY","2018/09/28 13:49:13","新北市永和區中正路368巷23號","121.518401666667","25.00087","6500400","永和區"
"234084","338-UY","2018/09/28 13:49:14","新北市永和區永利路9號","121.517523333333","25.0060816666667","6500400","永和區"
"234068","552-UM","2018/09/28 13:48:57","新北市永和區竹林路88號","121.519456666667","25.0126183333333","6500400","永和區"
"234015","745-BX","2018/09/28 13:49:08","新北市永和區文化路74號","121.514183333333","25.0151316666667","6500400","永和區"
"234028","746-BX","2018/09/28 13:49:08","新北市永和區民生路69號","121.522608333333","24.9972883333333","6500400","永和區"
"234052","KEA-2590","2018/09/28 13:49:07","新北市永和區竹林路39巷28弄13號","121.519678333333","25.014435","6500400","永和區"
"234012","KEA-2591","2018/09/28 13:49:06","新北市永和區保生路55號","121.504716666667","25.0105933333333","6500400","永和區"
"234060","AAD-866","2018/09/28 13:49:06","新北市永和區中正路11號","121.513985","24.9957616666667","6500400","永和區"
"234040","862-TW","2018/09/28 13:49:09","新北市永和區中和路389巷11弄1號","121.507996666667","25.00097","6500400","永和區"
"234048","863-TW","2018/09/28 13:49:19","新北市永和區保安路77號","121.508616666667","25.0148783333333","6500400","永和區"
"234025","9371-KE","2018/09/28 13:49:17","新北市永和區自由街50號","121.513856666667","25.006115","6500400","永和區"
"234010","9373-KE","2018/09/28 13:49:03","新北市永和區保順路11號","121.50474","25.0096483333333","6500400","永和區"
"248019","225-UY","2018/09/28 13:46:54","新北市五股區凌雲路三段田埔巷35號","121.438475","25.1234633333333","6501500","五股區"
"234022","9380-KE","2018/09/28 13:49:09","新北市永和區中正路655號","121.515015","25.0102366666667","6500400","永和區"
"234076","969-R7","2018/09/28 13:49:06","新北市永和區民族街41巷21號","121.519415","24.9989466666667","6500400","永和區"
"234072","AAC-211","2018/09/28 13:49:13","新北市永和區豫溪街215巷4號","121.524353333333","25.0093366666667","6500400","永和區"
"234066","AAC-212","2018/09/28 13:49:17","新北市永和區保平路236巷24弄3號","121.508205","25.0069316666667","6500400","永和區"
"234001","AAC-295","2018/09/28 13:49:06","新北市永和區永和路一段105號","121.513743333333","25.0077283333333","6500400","永和區"
"244004","248-BX","2018/09/28 13:49:04","新北市林口區民族路220號","121.369266666667","25.0780166666667","6501700","林口區"
"231028","001-UM","2018/09/28 13:49:10","新北市新店區安和路二段216號","121.517625","24.9756733333333","6500600","新店區"
"231002","002-UM","2018/09/28 13:49:06","新北市新店區溪園路221號","121.52583","24.9837383333333","6500600","新店區"
"231027","0291-UT","2018/09/28 13:49:05","新北市新店區北宜路一段39巷20號","121.538976666667","24.95843","6500600","新店區"
"231001","047-UY","2018/09/28 13:49:17","新北市新店區三民路157-1號","121.533828333333","24.9736333333333","6500600","新店區"
"231005","106-UY","2018/09/28 13:49:11","新北市新店區寶中路110號","121.549993333333","24.9789633333333","6500600","新店區"
"231010","107-UY","2018/09/28 13:49:16","新北市新店區中正路329巷9弄8號","121.53519","24.97355","6500600","新店區"
"231022","110-UY","2018/09/28 13:49:07","新北市新店區永興路132-3號","121.544651666667","24.9318833333333","6500600","新店區"
"231012","187-VK","2018/09/28 13:48:57","新北市新店區德正街27巷29弄135號","121.545663333333","24.97325","6500600","新店區"
"231032","188-VK","2018/09/28 13:49:04","新北市新店區莒光路61巷1-1號","121.524098333333","24.95861","6500600","新店區"
"231023","KEA-2219","2018/09/28 13:49:08","新北市新店區國校路28號","121.537986666667","24.95469","6500600","新店區"
"231026","256-BX","2018/09/28 13:49:12","新北市新店區福園街1號","121.5337","24.9731016666667","6500600","新店區"
"231003","268-BY","2018/09/28 13:49:15","新北市新店區中興路一段203號","121.543655","24.9656966666667","6500600","新店區"
"231018","278-BY","2018/09/28 13:49:17","新北市新店區中正路399巷24號","121.533915","24.9766733333333","6500600","新店區"
"231016","AAD-862","2018/09/28 13:49:15","新北市新店區北宜路二段108號","121.555965","24.953915","6500600","新店區"
"231038","3712-VJ","2018/09/28 13:49:16","新北市新店區安華路30巷1號","121.519713333333","24.9594616666667","6500600","新店區"
"231037","4716-K9","2018/09/28 13:49:14","新北市新店區安康路三段359巷10弄2號","121.48417","24.9505","6500600","新店區"
"231025","4715-K9","2018/09/28 13:49:09","新北市新店區中正路347號","121.535373333333","24.9759133333333","6500600","新店區"
"231036","512-UM","2018/09/28 13:49:12","新北市新店區安祥路111號","121.475513333333","24.9567516666667","6500600","新店區"
"231013","513-UM","2018/09/28 13:49:02","新北市新店區二十張路25巷18弄27號","121.539241666667","24.9813166666667","6500600","新店區"
"231034","616-UM","2018/09/28 13:49:09","新北市新店區達觀路14巷3號","121.503215","24.9418133333333","6500600","新店區"
"231030","619-UM","2018/09/28 13:49:13","新北市新店區秀山路72號","121.5313","24.9609933333333","6500600","新店區"
"231035","719-UM","2018/09/28 13:49:01","新北市新店區安忠路205巷8號","121.509386666667","24.954535","6500600","新店區"
"231029","897-TW","2018/09/28 13:49:11","新北市新店區安康路二段130號","121.512605","24.9623566666667","6500600","新店區"
"231006","898-TW","2018/09/28 13:49:17","新北市新店區北宜路一段260號","121.545715","24.952765","6500600","新店區"
"231004","899-TW","2018/09/28 13:49:02","新北市新店區寶橋路132號","121.547328333333","24.9760183333333","6500600","新店區"
"231024","AKT-0513","2018/09/28 13:49:16","新北市新店區新生街13巷16號","121.539255","24.965885","6500600","新店區"
"235030","003-UY","2018/09/28 13:49:13","新北市中和區中山路二段131巷29號","121.50376","25.0027483333333","6500300","中和區"
"235028","005-UY","2018/09/28 13:48:58","新北市中和區泰和街12號","121.499866666667","25.00111","6500300","中和區"
"235027","006-UY","2018/09/28 13:49:15","新北市中和區連城路315號","121.489345","24.9962883333333","6500300","中和區"
"235020","096-UM","2018/09/28 13:49:12","新北市中和區中正路1196號","121.480501666667","25.0104483333333","6500300","中和區"
"235003","097-UM","2018/09/28 13:49:06","新北市中和區立人街67號","121.519953333333","24.9940533333333","6500300","中和區"
"235029","098-UM","2018/09/28 13:49:05","新北市中和區勝利路35巷9弄22號","121.500003333333","25.0074133333333","6500300","中和區"
"235004","150-BY","2018/09/28 13:49:00","新北市中和區宜安路120號","121.510145","24.9980133333333","6500300","中和區"
"235022","151-BY","2018/09/28 13:49:01","新北市中和區連城路534巷2號","121.475283333333","24.9914383333333","6500300","中和區"
"235019","183-VK","2018/09/28 13:49:01","新北市中和區德光路70號","121.46939","25.0037733333333","6500300","中和區"
"235002","185-VK","2018/09/28 13:49:04","新北市中和區大勇街43巷2號","121.517771666667","24.9947716666667","6500300","中和區"
"235013","186-VK","2018/09/28 13:49:05","新北市中和區景安路132巷16號","121.504233333333","24.9942433333333","6500300","中和區"
"235031","255-BX","2018/09/28 13:49:12","新北市中和區新生街242巷1弄2號","121.483336666667","24.9976283333333","6500300","中和區"
"235008","293-VK","2018/09/28 13:49:19","新北市中和區中興街129號","121.49993","24.9916216666667","6500300","中和區"
"235036","301-VK","2018/09/28 13:49:07","新北市中和區中山路二段191號","121.500005","25.0026766666667","6500300","中和區"
"235006","KEA-2878","2018/09/28 13:49:13","新北市中和區秀朗路三段70巷40號","121.525378333333","24.9944083333333","6500300","中和區"
"235014","4979-A6","2018/09/28 13:49:07","新北市中和區忠孝街62巷9弄1號","121.513045","24.98388","6500300","中和區"
"235033","4980-A6","2018/09/28 13:49:03","新北市中和區泰和街12號","121.499881666667","25.00105","6500300","中和區"
"235034","558-UM","2018/09/28 13:49:07","新北市中和區安和路163號","121.506108333333","24.9974833333333","6500300","中和區"
"235009","565-BX","2018/09/28 13:49:13","新北市中和區捷運路6號","121.51007","24.98943","6500300","中和區"
"235018","640-BX","2018/09/28 13:49:14","新北市中和區自治街1號","121.47479","25.003335","6500300","中和區"
"235011","732-UM","2018/09/28 13:49:11","新北市中和區興南路二段34巷30弄1號","121.504893333333","24.9863","6500300","中和區"
"235010","733-UM","2018/09/28 13:49:13","新北市中和區仁愛街36巷32號","121.511173333333","24.9868116666667","6500300","中和區"
"235035","783-BX","2018/09/28 13:49:14","新北市中和區立德街7巷10號","121.489903333333","25.0060433333333","6500300","中和區"
"235026","800-TS","2018/09/28 13:49:15","新北市中和區中山路二段338號","121.493675","25.0026866666667","6500300","中和區"
"235021","801-TS","2018/09/28 13:49:14","新北市中和區民安街25巷10號","121.4806","24.9999516666667","6500300","中和區"
"235005","802-TS","2018/09/28 13:49:02","新北市中和區永貞路245號","121.513068333333","25.0039966666667","6500300","中和區"
"235016","805-TS","2018/09/28 13:49:16","新北市中和區興南路二段399巷38號","121.499278333333","24.9788716666667","6500300","中和區"
"235012","896-TW","2018/09/28 13:49:00","新北市中和區南山路417號","121.507156666667","24.9896066666667","6500300","中和區"
"235017","900-TW","2018/09/28 13:49:14","新北市中和區華福街47號","121.466478333333","24.9966816666667","6500300","中和區"
"235024","911-UM","2018/09/28 13:49:02","新北市中和區中山路三段208號","121.47154","25.00655","6500300","中和區"
"235015","157-BY","2018/09/28 13:49:17","新北市中和區忠孝街106巷52號","121.513648333333","24.9842483333333","6500300","中和區"
"235001","AAC-213","2018/09/28 13:49:18","新北市中和區秀朗路三段128巷9弄1號","121.524491666667","24.99317","6500300","中和區"
"235023","AAC-215","2018/09/28 13:49:13","新北市中和區圓通路391-2號","121.489996666667","24.9892433333333","6500300","中和區"
"220016","013-TV","2018/09/28 13:49:02","新北市板橋區民生路二段89-6號","121.470705","25.0189716666667","6500100","板橋區"
"220013","072-UY","2018/09/28 13:49:16","新北市板橋區漢生東路280號","121.47036","25.0099216666667","6500100","板橋區"
"220034","073-UY","2018/09/28 13:49:12","新北市板橋區大智街40-2號","121.454936666667","25.0151483333333","6500100","板橋區"
"220105","075-UY","2018/09/28 13:49:15","新北市板橋區民生路二段161巷9號","121.470323333333","25.0196166666667","6500100","板橋區"
"220017","AAD-861","2018/09/28 13:49:03","新北市板橋區館前西路58號","121.458303333333","25.006985","6500100","板橋區"
"247007","336-TH","2018/09/28 13:49:15","新北市蘆洲區重陽街68號","121.481676666667","25.084085","6501400","蘆洲區"
"247009","056-VK","2018/09/28 13:49:13","新北市蘆洲區中正路520巷9號","121.462495","25.099655","6501400","蘆洲區"
"247003","002-UY","2018/09/28 13:49:09","新北市蘆洲區中原路17號","121.460638333333","25.0828366666667","6501400","蘆洲區"
"247021","001-UY","2018/09/28 13:49:16","新北市蘆洲區三民路574號","121.461491666667","25.0936583333333","6501400","蘆洲區"
"235007","251-BX","2018/09/28 13:48:59","新北市中和區景平路12號","121.523876666667","24.9904816666667","6500300","中和區"
"207002","749-BX","2018/09/28 13:49:04","新北市萬里區崁腳里崁腳路166號","121.645063333333","25.155855","6502800","萬里區"
"207001","662-BX","2018/09/28 13:49:13","新北市萬里區磺潭里公館崙28號","121.632951666667","25.211945","6502800","萬里區"
"236067","105-UM","2018/09/28 13:49:09","新北市土城區城林路6巷80號","121.43863","24.979685","6501300","土城區"
"236077","166-UM","2018/09/28 13:49:07","新北市土城區中央路三段122號","121.435106666667","24.9662033333333","6501300","土城區"
"236029","253-BX","2018/09/28 13:49:02","新北市土城區城林路6巷80號","121.43864","24.9797416666667","6501300","土城區"
"236013","270-VK","2018/09/28 13:49:11","新北市土城區城林路6巷80號","121.438543333333","24.9797483333333","6501300","土城區"
"236032","271-VK","2018/09/28 13:49:05","新北市土城區城林路6巷80號","121.438501666667","24.9798283333333","6501300","土城區"
"236016","401-BY","2018/09/28 13:49:06","新北市土城區城林路6巷80號","121.438533333333","24.97982","6501300","土城區"
"236040","752-BX","2018/09/28 13:49:08","新北市土城區城林路6巷80號","121.438816666667","24.9797166666667","6501300","土城區"
"236057","912-UM","2018/09/28 13:49:12","新北市土城區城林路6巷80號","121.438438333333","24.9797166666667","6501300","土城區"
"236060","915-UM","2018/09/28 13:49:08","新北市土城區城林路6巷80號","121.438441666667","24.97972","6501300","土城區"
"236054","AAC-216","2018/09/28 13:49:12","新北市土城區城林路6巷80號","121.438645","24.979755","6501300","土城區"
"242051","172-VK","2018/09/28 13:49:12","新北市新莊區環河路658-8號","121.43636","25.0076166666667","6500500","新莊區"
"220027","145-BY","2018/09/28 13:49:06","新北市板橋區民權路202巷5弄2號","121.459996666667","25.0145716666667","6500100","板橋區"
"220028","200-UY","2018/09/28 13:48:58","新北市板橋區大觀路二段265巷60弄15號","121.442293333333","24.9979533333333","6500100","板橋區"
"220030","610-BX","2018/09/28 13:49:11","新北市板橋區篤行路三段87號","121.426701666667","24.9849483333333","6500100","板橋區"
"220004","276-BY","2018/09/28 13:49:05","新北市土城區四川路13號","121.455385","24.9959416666667","6500100","板橋區"
"220020","277-BY","2018/09/28 13:49:03","新北市板橋區大觀路三段59巷15號","121.43437","24.9953366666667","6500100","板橋區"
"220019","283-VK","2018/09/28 13:49:06","新北市板橋區忠孝路196巷43號","121.465581666667","25.0017133333333","6500100","板橋區"
"220043","285-UM","2018/09/28 13:49:15","新北市板橋區民生路二段161巷3號","121.470168333333","25.0197983333333","6500100","板橋區"
"220001","285-VK","2018/09/28 13:49:11","新北市板橋區民生路二段56-6號","121.470686666667","25.0187566666667","6500100","板橋區"
"220031","286-VK","2018/09/28 13:49:07","新北市板橋區大觀路一段38巷156弄9號","121.442423333333","25.005025","6500100","板橋區"
"220029","287-VK","2018/09/28 13:49:13","新北市板橋區光華街10號","121.454165","25.0115516666667","6500100","板橋區"
"220039","288-VK","2018/09/28 13:48:59","新北市板橋區民生路二段120號","121.470331666667","25.0197","6500100","板橋區"
"220009","293-UM","2018/09/28 13:48:59","新北市板橋區民生路二段89-6號","121.470673333333","25.0187883333333","6500100","板橋區"
"220052","295-UM","2018/09/28 13:49:18","新北市板橋區民生路二段161巷5號","121.47023","25.0197683333333","6500100","板橋區"
"220032","296-UM","2018/09/28 13:49:19","新北市板橋區大觀路二段150巷32號","121.441623333333","24.9998833333333","6500100","板橋區"
"220023","303-R5","2018/09/28 13:49:15","新北市板橋區南雅西路一段174巷5號","121.45312","25.0078433333333","6500100","板橋區"
"220010","305-R5","2018/09/28 13:49:18","新北市板橋區中山路二段26號","121.472598333333","25.0151216666667","6500100","板橋區"
"220047","317-R6","2018/09/28 13:49:07","新北市板橋區民生路二段161巷3號","121.470276666667","25.019865","6500100","板橋區"
"220012","486-VK","2018/09/28 13:49:03","新北市板橋區民生路二段17號","121.47253","25.0163366666667","6500100","板橋區"
"220037","491-VK","2018/09/28 13:48:58","新北市板橋區民生路二段161巷1號","121.469901666667","25.0200516666667","6500100","板橋區"
"220104","560-BX","2018/09/28 13:49:09","新北市板橋區中正路325巷3弄15號","121.453851666667","25.0187283333333","6500100","板橋區"
"220011","609-BX","2018/09/28 13:49:11","新北市板橋區民生路二段121號","121.470893333333","25.0185033333333","6500100","板橋區"
"220005","686-BX","2018/09/28 13:49:14","新北市板橋區南雅南路一段1巷35號","121.45765","25.0065333333333","6500100","板橋區"
"220025","687-BX","2018/09/28 13:49:11","新北市板橋區大觀路二段443-2號","121.43881","24.9950833333333","6500100","板橋區"
"220042","689-BX","2018/09/28 13:48:59","新北市板橋區民生路二段161巷1號","121.470186666667","25.0199283333333","6500100","板橋區"
"220002","741-BX","2018/09/28 13:49:06","新北市板橋區後埔街13號","121.460456666667","25.0067433333333","6500100","板橋區"
"220051","KEA-2699","2018/09/28 13:49:18","新北市板橋區民生路二段161巷1號","121.470243333333","25.0199733333333","6500100","板橋區"
"220003","827-TW","2018/09/28 13:48:57","新北市板橋區中山路一段160-6號","121.466293333333","25.0121833333333","6500100","板橋區"
"220014","830-TW","2018/09/28 13:49:16","新北市板橋區中山路二段71號","121.473211666667","25.0157533333333","6500100","板橋區"
"220038","833-TW","2018/09/28 13:49:03","新北市板橋區民生路二段161巷1號","121.47006","25.0198933333333","6500100","板橋區"
"220022","895-R6","2018/09/28 13:49:08","新北市板橋區南門街36號","121.457096666667","25.0083533333333","6500100","板橋區"
"220021","985-R7","2018/09/28 13:49:09","新北市板橋區府中路32號","121.458351666667","25.0095566666667","6500100","板橋區"
"220018","AAC-253","2018/09/28 13:49:13","新北市板橋區四川路一段90號","121.459723333333","25.0050383333333","6500100","板橋區"
"235032","KEA-2873","2018/09/28 13:49:15","新北市中和區圓通路289號","121.495083333333","24.9927016666667","6500300","中和區"
"235025","KEA-2875","2018/09/28 13:49:00","新北市中和區民治街128巷6號","121.474886666667","25.0029416666667","6500300","中和區"
