"lineid","car","time","location","longitude","latitude","cityid","cityname"
"234005","207-UY","2018/09/28 14:49:11","新北市五股區中直路11-15號","121.426398333333","25.1098","6500400","永和區"
"234084","338-UY","2018/09/28 14:49:14","新北市中和區中和路460號","121.512173333333","25.003905","6500400","永和區"
"234025","9371-KE","2018/09/28 14:48:57","新北市永和區雙和街52巷1-1號","121.509091666667","25.0031933333333","6500400","永和區"
"248019","225-UY","2018/09/28 14:49:04","新北市五股區凌雲路三段41號","121.429761666667","25.1181716666667","6501500","五股區"
"244004","248-BX","2018/09/28 14:49:06","新北市林口區竹林路267號","121.389521666667","25.0809433333333","6501700","林口區"
"231028","001-UM","2018/09/28 14:49:10","新北市新店區安成街35號","121.509868333333","24.9611566666667","6500600","新店區"
"231002","002-UM","2018/09/28 14:49:06","新北市新店區民權路78號","121.537818333333","24.9831","6500600","新店區"
"231027","0291-UT","2018/09/28 14:49:05","新北市新店區環河路176號","121.525218333333","24.9755733333333","6500600","新店區"
"231001","047-UY","2018/09/28 14:49:10","新北市新店區三民路61號","121.53655","24.971245","6500600","新店區"
"231005","106-UY","2018/09/28 14:49:11","新北市新店區復興路2號","121.532433333333","24.9883366666667","6500600","新店區"
"231022","110-UY","2018/09/28 14:46:47","新北市新店區桂山路155號","121.568518333333","24.8864916666667","6500600","新店區"
"231012","187-VK","2018/09/28 14:49:17","新北市新店區寶橋路61號","121.545218333333","24.9750266666667","6500600","新店區"
"231023","KEA-2219","2018/09/28 14:49:08","新北市新店區檳榔路111號","121.5446","24.9615533333333","6500600","新店區"
"231026","256-BX","2018/09/28 14:49:02","新北市新店區安一路一段1-1號","121.519818333333","24.9621866666667","6500600","新店區"
"231003","268-BY","2018/09/28 14:49:15","新北市新店區中興路二段121巷1號","121.54761","24.9721533333333","6500600","新店區"
"231018","278-BY","2018/09/28 14:48:57","新北市新店區中央五街3-2號","121.530356666667","24.9742883333333","6500600","新店區"
"231016","AAD-862","2018/09/28 14:49:15","新北市新店區北宜路三段165號","121.585163333333","24.95062","6500600","新店區"
"231038","3712-VJ","2018/09/28 14:49:03","新北市新店區安華路28-1號","121.519638333333","24.961","6500600","新店區"
"231037","4716-K9","2018/09/28 14:49:14","新北市新店區薏仁坑路8-2號","121.49941","24.9589316666667","6500600","新店區"
"231025","4715-K9","2018/09/28 14:49:09","新北市新店區建國路194號","121.53797","24.9805316666667","6500600","新店區"
"231036","512-UM","2018/09/28 14:49:12","新北市新店區安祥路104巷6弄36號","121.483098333333","24.9630066666667","6500600","新店區"
"231013","513-UM","2018/09/28 14:49:01","新北市新店區北新路二段97巷9弄31號","121.542231666667","24.9735333333333","6500600","新店區"
"231034","616-UM","2018/09/28 14:48:48","新北市新店區安康路二段406號","121.496785","24.9553633333333","6500600","新店區"
"231030","619-UM","2018/09/28 14:49:13","新北市新店區安民街382號","121.5163","24.9767083333333","6500600","新店區"
"231039","718-UY","2018/09/28 14:48:59","新北市新店區安一路一段1-1號","121.519166666667","24.9610566666667","6500600","新店區"
"231035","719-UM","2018/09/28 14:48:41","新北市新店區安樂街1號","121.519761666667","24.973895","6500600","新店區"
"231029","897-TW","2018/09/28 14:49:11","新北市新店區錦秀路66號","121.478963333333","24.942855","6500600","新店區"
"231006","898-TW","2018/09/28 14:49:17","新北市新店區北宜路一段144-3號","121.540183333333","24.95406","6500600","新店區"
"231004","899-TW","2018/09/28 14:49:02","新北市新店區建國路133號","121.539366666667","24.9781683333333","6500600","新店區"
"231024","AKT-0513","2018/09/28 14:49:19","新北市新店區中華路83巷67號","121.538316666667","24.9673083333333","6500600","新店區"
"235030","003-UY","2018/09/28 14:49:13","新北市中和區南工路2巷2號","121.50542","25.0000983333333","6500300","中和區"
"235027","006-UY","2018/09/28 14:49:15","新北市中和區連城路263巷7弄2號","121.492295","24.9958216666667","6500300","中和區"
"235020","096-UM","2018/09/28 14:49:06","新北市中和區中山路三段118號","121.47556","25.006165","6500300","中和區"
"235003","097-UM","2018/09/28 14:49:06","新北市永和區中正路101號","121.515086666667","24.9978366666667","6500300","中和區"
"235029","098-UM","2018/09/28 14:49:05","新北市中和區福美路267號","121.498348333333","25.0050933333333","6500300","中和區"
"235004","150-BY","2018/09/28 14:49:00","新北市中和區安平路59號","121.509688333333","24.9950033333333","6500300","中和區"
"235002","185-VK","2018/09/28 14:49:04","新北市中和區更生街1號","121.521396666667","24.9963483333333","6500300","中和區"
"235013","186-VK","2018/09/28 14:49:04","新北市中和區中正路68-1號","121.500973333333","24.9937533333333","6500300","中和區"
"235031","255-BX","2018/09/28 14:49:12","新北市中和區新生街186巷1弄17號","121.48343","24.9990066666667","6500300","中和區"
"235008","293-VK","2018/09/28 14:48:58","新北市中和區南山路176-20號","121.505305","24.9909566666667","6500300","中和區"
"235036","301-VK","2018/09/28 14:49:07","新北市中和區中山路二段3巷22弄4號","121.506263333333","25.005225","6500300","中和區"
"235014","4979-A6","2018/09/28 14:49:07","新北市中和區和平街164巷4號","121.506066666667","24.9924783333333","6500300","中和區"
"235033","4980-A6","2018/09/28 14:49:03","新北市中和區中正路637巷60弄61號","121.485485","24.9928583333333","6500300","中和區"
"235034","558-UM","2018/09/28 14:49:07","新北市中和區圓通路213號","121.49682","24.994335","6500300","中和區"
"235018","640-BX","2018/09/28 14:49:08","新北市中和區莒光路119號","121.472465","25.0022133333333","6500300","中和區"
"235011","732-UM","2018/09/28 14:49:11","新北市中和區和平街82號","121.507631666667","24.9912","6500300","中和區"
"235010","733-UM","2018/09/28 14:49:13","新北市中和區仁愛街27號","121.510868333333","24.98878","6500300","中和區"
"235035","783-BX","2018/09/28 14:49:14","新北市中和區建一路139號","121.488173333333","25.0009616666667","6500300","中和區"
"235026","800-TS","2018/09/28 14:49:15","新北市中和區中山路二段520號","121.486146666667","25.0049283333333","6500300","中和區"
"235005","802-TS","2018/09/28 14:48:59","新北市中和區宜安路132號","121.509833333333","24.998235","6500300","中和區"
"235016","805-TS","2018/09/28 14:49:15","新北市中和區華新街144巷16號","121.507598333333","24.98312","6500300","中和區"
"235012","896-TW","2018/09/28 14:49:00","新北市中和區信義街115號","121.512233333333","24.9868283333333","6500300","中和區"
"235017","900-TW","2018/09/28 14:49:14","新北市中和區國光街171巷1號","121.468276666667","25.00137","6500300","中和區"
"235015","157-BY","2018/09/28 14:48:56","新北市中和區景安路221號","121.504336666667","24.9913833333333","6500300","中和區"
"235001","AAC-213","2018/09/28 14:48:58","新北市中和區自立路187-1號","121.523883333333","24.9914216666667","6500300","中和區"
"235023","AAC-215","2018/09/28 14:49:02","新北市中和區圓通路305巷5弄17號","121.49407","24.99035","6500300","中和區"
"220016","013-TV","2018/09/28 14:49:11","新北市板橋區光復街149號","121.485696666667","25.020105","6500100","板橋區"
"220013","072-UY","2018/09/28 14:49:16","新北市板橋區民族路276巷1弄1號","121.469946666667","25.0066583333333","6500100","板橋區"
"220034","073-UY","2018/09/28 14:49:12","新北市板橋區大觀路一段28巷6號","121.450023333333","25.0088116666667","6500100","板橋區"
"220105","075-UY","2018/09/28 14:49:15","新北市板橋區民治街71巷33號","121.480568333333","25.0333816666667","6500100","板橋區"
"220017","AAD-861","2018/09/28 14:49:03","新北市板橋區大明街13號","121.458966666667","25.0025","6500100","板橋區"
"220046","120-SR","2018/09/28 14:48:59","新北市板橋區幸福路32巷6號","121.461593333333","25.0206216666667","6500100","板橋區"
"247001","893-R6","2018/09/28 14:49:14","新北市蘆洲區永康街2巷2號","121.459405","25.0861116666667","6501400","蘆洲區"
"247023","500-BY","2018/09/28 14:49:00","新北市蘆洲區和平路100號","121.468535","25.0792083333333","6501400","蘆洲區"
"235007","251-BX","2018/09/28 14:48:59","新北市中和區安和路17號","121.511193333333","24.9939083333333","6500300","中和區"
"207002","749-BX","2018/09/28 14:49:04","新北市萬里區崁腳里崁腳路73號","121.647563333333","25.1595933333333","6502800","萬里區"
"207004","291-VK","2018/09/28 14:43:55","新北市萬里區萬里里獅頭路23號","121.693855","25.1782933333333","6502800","萬里區"
"207001","662-BX","2018/09/28 14:49:13","新北市萬里區雙興里二坪路4號","121.6484","25.17837","6502800","萬里區"
"236067","105-UM","2018/09/28 14:49:08","新北市土城區明德路二段99巷2弄2號","121.450356666667","24.9810583333333","6501300","土城區"
"236077","166-UM","2018/09/28 14:49:07","新北市土城區中央路四段67巷30號","121.417848333333","24.9572883333333","6501300","土城區"
"236029","253-BX","2018/09/28 14:49:02","新北市土城區忠義路26巷10號","121.439855","24.9699116666667","6501300","土城區"
"236024","269-VK","2018/09/28 14:49:17","新北市土城區慶安街70號","121.440776666667","24.9729216666667","6501300","土城區"
"236013","270-VK","2018/09/28 14:49:11","新北市土城區金城路二段356號","121.461473333333","24.985035","6501300","土城區"
"236032","271-VK","2018/09/28 14:49:05","新北市土城區青仁路51號","121.4616","24.9795633333333","6501300","土城區"
"236016","401-BY","2018/09/28 14:49:06","新北市土城區延安街40號","121.467411666667","24.9857583333333","6501300","土城區"
"236040","752-BX","2018/09/28 14:49:12","新北市土城區裕民路136巷4弄1號","121.451095","24.9856316666667","6501300","土城區"
"236057","912-UM","2018/09/28 14:49:12","新北市土城區承天路1號","121.436021666667","24.9665716666667","6501300","土城區"
"236045","913-UM","2018/09/28 14:49:03","新北市土城區廣福街68巷18弄1號","121.459458333333","24.990525","6501300","土城區"
"236060","915-UM","2018/09/28 14:49:08","新北市土城區金城路三段207巷8弄5號","121.47005","24.9903083333333","6501300","土城區"
"236054","AAC-216","2018/09/28 14:49:12","新北市土城區裕民路193-1號","121.453693333333","24.9842066666667","6501300","土城區"
"220027","145-BY","2018/09/28 14:49:06","新北市板橋區中正路216巷150弄7號","121.461018333333","25.01928","6500100","板橋區"
"220028","200-UY","2018/09/28 14:49:18","新北市板橋區大觀路二段179巷33號","121.446396666667","24.9995383333333","6500100","板橋區"
"220030","610-BX","2018/09/28 14:49:17","新北市板橋區溪崑一街80號","121.429233333333","24.9896166666667","6500100","板橋區"
"220050","245-BX","2018/09/28 14:49:12","新北市板橋區縣民大道三段103巷10號","121.475986666667","25.0228383333333","6500100","板橋區"
"220004","276-BY","2018/09/28 14:49:05","新北市板橋區四川路二段99巷7號","121.452881666667","24.994215","6500100","板橋區"
"220020","277-BY","2018/09/28 14:49:03","新北市板橋區金門街127巷17號","121.433738333333","24.99118","6500100","板橋區"
"220019","283-VK","2018/09/28 14:49:13","新北市板橋區五權街30巷12弄24號","121.463933333333","24.99435","6500100","板橋區"
"220043","285-UM","2018/09/28 14:49:15","新北市板橋區長江路一段174號","121.461606666667","25.0305","6500100","板橋區"
"220001","285-VK","2018/09/28 14:49:12","新北市板橋區民享街53號","121.475863333333","25.01506","6500100","板橋區"
"220031","286-VK","2018/09/28 14:49:07","新北市板橋區僑中二街92巷2號","121.446241666667","25.008955","6500100","板橋區"
"220029","287-VK","2018/09/28 14:49:13","新北市板橋區僑中一街124巷18弄48號","121.448051666667","25.013285","6500100","板橋區"
"220039","288-VK","2018/09/28 14:48:59","新北市板橋區新海路138號","121.460846666667","25.0232916666667","6500100","板橋區"
"220009","293-UM","2018/09/28 14:48:59","新北市板橋區觀光街5號","121.471673333333","25.0157516666667","6500100","板橋區"
"220052","295-UM","2018/09/28 14:49:18","新北市板橋區陽明街29巷27號","121.464135","25.0223633333333","6500100","板橋區"
"220032","296-UM","2018/09/28 14:49:18","新北市板橋區溪崑二街106巷4號","121.42639","24.9889383333333","6500100","板橋區"
"220023","303-R5","2018/09/28 14:49:15","新北市板橋區金華街10巷30號","121.4565","25.0200933333333","6500100","板橋區"
"220010","305-R5","2018/09/28 14:49:18","新北市板橋區中山路二段416巷58號","121.48294","25.0189666666667","6500100","板橋區"
"220041","307-R5","2018/09/28 14:49:17","新北市板橋區四維路255號","121.463443333333","25.0279383333333","6500100","板橋區"
"220047","317-R6","2018/09/28 14:49:07","新北市板橋區英士路153號","121.459603333333","25.02395","6500100","板橋區"
"220012","486-VK","2018/09/28 14:49:03","新北市板橋區實踐路205號","121.46466","25.0028116666667","6500100","板橋區"
"220037","491-VK","2018/09/28 14:49:18","新北市板橋區仁化街137號","121.477361666667","25.0329133333333","6500100","板橋區"
"220104","560-BX","2018/09/28 14:49:09","新北市板橋區中正路275巷62弄1號","121.452993333333","25.0183083333333","6500100","板橋區"
"220011","609-BX","2018/09/28 14:49:16","新北市板橋區萬安街27巷22號","121.483835","25.0228216666667","6500100","板橋區"
"220040","637-BX","2018/09/28 14:49:15","新北市板橋區民治街81巷7號","121.479966666667","25.0323","6500100","板橋區"
"220005","686-BX","2018/09/28 14:49:14","新北市板橋區信義路243號","121.460248333333","24.990975","6500100","板橋區"
"220025","687-BX","2018/09/28 14:49:11","新北市板橋區僑中一街125巷1號","121.445931666667","25.01171","6500100","板橋區"
"220042","689-BX","2018/09/28 14:48:59","新北市板橋區長江路二段59號","121.464555","25.03152","6500100","板橋區"
"220002","741-BX","2018/09/28 14:49:07","新北市板橋區忠孝路201巷88號","121.464821666667","25.0046616666667","6500100","板橋區"
"220051","KEA-2699","2018/09/28 14:49:18","新北市板橋區文化路二段410巷8號","121.474051666667","25.0313483333333","6500100","板橋區"
"220003","827-TW","2018/09/28 14:49:17","新北市板橋區仁愛路49巷1號","121.459896666667","24.9994633333333","6500100","板橋區"
"220014","830-TW","2018/09/28 14:49:16","新北市板橋區長安街138巷1弄83號","121.474808333333","25.011155","6500100","板橋區"
"220045","831-TW","2018/09/28 14:49:08","新北市板橋區莊敬路133號","121.471805","25.025245","6500100","板橋區"
"220038","833-TW","2018/09/28 14:49:03","新北市板橋區英士路192-1號","121.458218333333","25.02354","6500100","板橋區"
"220022","895-R6","2018/09/28 14:49:05","新北市板橋區文化路一段32巷23號","121.460086666667","25.0109716666667","6500100","板橋區"
"220021","985-R7","2018/09/28 14:49:09","新北市板橋區南雅西路二段2-1號","121.453213333333","25.0088816666667","6500100","板橋區"
"220046","AAC-210","2018/09/28 14:44:16","新北市板橋區溪城路90-2號","121.429108333333","24.980455","6500100","板橋區"
"220018","AAC-253","2018/09/28 14:49:13","新北市板橋區成都街73-3號","121.462436666667","25.0050566666667","6500100","板橋區"
"235032","KEA-2873","2018/09/28 14:49:15","新北市中和區福祥路91號","121.49885","25.0059166666667","6500300","中和區"
