"lineid","car","time","location","longitude","latitude","cityid","cityname"
"234005","207-UY","2018/09/28 15:17:31","新北市八里區荖阡坑路34號","121.401996666667","25.1291216666667","6500400","永和區"
"248019","225-UY","2018/09/28 15:19:04","新北市五股區凌雲路三段24巷20-3號","121.434876666667","25.10623","6501500","五股區"
"244004","248-BX","2018/09/28 15:19:06","新北市林口區東林街32號","121.395406666667","25.0792583333333","6501700","林口區"
"231028","001-UM","2018/09/28 15:19:09","新北市新店區僑信路120巷40號","121.499385","24.9459566666667","6500600","新店區"
"231002","002-UM","2018/09/28 15:19:06","新北市新店區中正路700巷1號","121.533943333333","24.9911766666667","6500600","新店區"
"231001","047-UY","2018/09/28 15:19:17","新北市新店區北新路一段251號","121.540885","24.96613","6500600","新店區"
"231005","106-UY","2018/09/28 15:19:11","新北市新店區建國路220號","121.537705","24.98129","6500600","新店區"
"231022","110-UY","2018/09/28 15:19:07","新北市新店區永福路54號","121.55816","24.928665","6500600","新店區"
"231012","187-VK","2018/09/28 15:19:17","新北市新店區中興路三段330號","121.542098333333","24.98654","6500600","新店區"
"231032","188-VK","2018/09/28 15:19:04","新北市新店區安泰路125-1號","121.487428333333","24.93994","6500600","新店區"
"231023","KEA-2219","2018/09/28 15:19:17","新北市新店區北新路一段64巷43號","121.542305","24.9656733333333","6500600","新店區"
"231026","256-BX","2018/09/28 15:19:12","新北市新店區中正路247巷2號","121.538896666667","24.9731066666667","6500600","新店區"
"231003","268-BY","2018/09/28 15:19:15","新北市新店區寶橋路234號","121.551578333333","24.9788266666667","6500600","新店區"
"231018","278-BY","2018/09/28 15:19:17","新北市新店區中央六街47號","121.52835","24.9756066666667","6500600","新店區"
"231016","AAD-862","2018/09/28 15:19:15","新北市新店區明山路45號","121.563455","24.9558216666667","6500600","新店區"
"231038","3712-VJ","2018/09/28 15:19:03","新北市新店區安華路28-1號","121.519815","24.9607916666667","6500600","新店區"
"231037","4716-K9","2018/09/28 15:19:13","新北市新店區安興路56號","121.516626666667","24.9748266666667","6500600","新店區"
"231025","4715-K9","2018/09/28 15:19:09","新北市新店區環河路105-12號","121.531866666667","24.970055","6500600","新店區"
"231036","512-UM","2018/09/28 15:19:12","新北市新店區安祥路69巷17號","121.481906666667","24.9613416666667","6500600","新店區"
"231034","616-UM","2018/09/28 15:19:08","新北市新店區如意街1巷2號","121.495765","24.949535","6500600","新店區"
"231030","619-UM","2018/09/28 15:19:13","新北市新店區安民街341-1號","121.516896666667","24.974955","6500600","新店區"
"231039","718-UY","2018/09/28 15:19:20","新北市新店區寶元路一段65號","121.54225","24.9858266666667","6500600","新店區"
"231035","719-UM","2018/09/28 15:19:01","新北市新店區永平街25巷7號","121.516591666667","24.9831766666667","6500600","新店區"
"231029","897-TW","2018/09/28 15:19:10","新北市新店區安康路三段808號","121.47049","24.93999","6500600","新店區"
"231006","898-TW","2018/09/28 15:19:17","新北市新店區光明街143號","121.539315","24.9622016666667","6500600","新店區"
"231004","899-TW","2018/09/28 15:19:02","新北市新店區博愛街13巷24號","121.540241666667","24.9740616666667","6500600","新店區"
"231024","AKT-0513","2018/09/28 15:19:00","新北市新店區環河路18號","121.537303333333","24.96151","6500600","新店區"
"241020","478-VK","2018/09/28 15:19:02","新北市三重區重新路四段121號","121.484863333333","25.052545","6500200","三重區"
"235030","003-UY","2018/09/28 15:19:13","新北市中和區保平路326巷33號","121.506251666667","25.0048083333333","6500300","中和區"
"235014","4979-A6","2018/09/28 15:19:07","新北市中和區景安路177巷10號","121.505801666667","24.9940483333333","6500300","中和區"
"235033","4980-A6","2018/09/28 15:19:03","新北市中和區圓通路33號","121.500978333333","24.99773","6500300","中和區"
"235012","896-TW","2018/09/28 15:19:00","新北市中和區景新街377號","121.51238","24.9904133333333","6500300","中和區"
"235001","AAC-213","2018/09/28 15:19:18","新北市新店區安興路59號","121.516413333333","24.97216","6500300","中和區"
"235023","AAC-215","2018/09/28 15:19:02","新北市中和區圓通路316號","121.48652","24.9878666666667","6500300","中和區"
"220034","073-UY","2018/09/28 15:19:12","新北市樹林區中山路三段210-2號","121.380731666667","24.9670816666667","6500100","板橋區"
"220046","120-SR","2018/09/28 15:19:19","新北市板橋區復興街135號","121.461118333333","25.01807","6500100","板橋區"
"207002","749-BX","2018/09/28 15:19:04","新北市萬里區崁腳里內中福路29號","121.659918333333","25.165015","6502800","萬里區"
"207001","662-BX","2018/09/28 15:19:13","新北市萬里區大鵬里萬里加投25號","121.648515","25.2067366666667","6502800","萬里區"
"236067","105-UM","2018/09/28 15:19:08","新北市土城區裕民路185巷36弄10號","121.454363333333","24.9845216666667","6501300","土城區"
"236077","166-UM","2018/09/28 15:19:07","新北市土城區溪頭路88號","121.40955","24.9510233333333","6501300","土城區"
"236029","253-BX","2018/09/28 15:19:08","新北市土城區中華路一段199號","121.44332","24.9849916666667","6501300","土城區"
"236024","269-VK","2018/09/28 15:19:16","新北市土城區員林街63號","121.443966666667","24.97755","6501300","土城區"
"236013","270-VK","2018/09/28 15:19:13","新北市土城區廣福街32-1號","121.456993333333","24.990085","6501300","土城區"
"236032","271-VK","2018/09/28 15:19:05","新北市土城區國際路112號","121.467478333333","24.975675","6501300","土城區"
"236016","401-BY","2018/09/28 15:19:06","新北市土城區金城路三段198號","121.468595","24.9878466666667","6501300","土城區"
"236040","752-BX","2018/09/28 15:19:08","新北市土城區學府路一段141號","121.453753333333","24.9860866666667","6501300","土城區"
"236057","912-UM","2018/09/28 15:19:12","新北市土城區金城路一段49號","121.441136666667","24.9697566666667","6501300","土城區"
"236045","913-UM","2018/09/28 15:19:03","新北市土城區明德路一段137號","121.46521","24.980405","6501300","土城區"
"236060","915-UM","2018/09/28 15:19:08","新北市土城區延和路105巷4弄2號","121.467488333333","24.9905983333333","6501300","土城區"
"236054","AAC-216","2018/09/28 15:19:12","新北市土城區立德路95號","121.463153333333","24.98768","6501300","土城區"
"220050","245-BX","2018/09/28 15:19:12","新北市板橋區漢生東路83巷1號","121.466485","25.015965","6500100","板橋區"
"220031","286-VK","2018/09/28 15:19:07","新北市板橋區大觀路二段169巷24號","121.446568333333","24.9995583333333","6500100","板橋區"
"220052","295-UM","2018/09/28 15:19:18","新北市板橋區文化路一段88號","121.464441666667","25.0175366666667","6500100","板橋區"
"220025","687-BX","2018/09/28 15:16:32","新北市板橋區華東街1-10號","121.448363333333","24.994985","6500100","板橋區"
"220042","689-BX","2018/09/28 15:19:19","新北市板橋區新海路328號","121.460315","25.0237683333333","6500100","板橋區"
"220051","KEA-2699","2018/09/28 15:19:18","新北市板橋區文化路一段102號","121.464645","25.0180633333333","6500100","板橋區"
"220038","833-TW","2018/09/28 15:19:03","新北市板橋區四維路156號","121.46488","25.0258933333333","6500100","板橋區"
"220018","AAC-253","2018/09/28 15:19:13","新北市板橋區華東街1-9號","121.448215","24.99496","6500100","板橋區"
