"lineid","car","time","location","longitude","latitude","cityid","cityname"
"231022","110-UY","2018/09/28 15:49:07","新北市新店區新烏路一段87巷9號","121.546408333333","24.9421266666667","6500600","新店區"
"231012","187-VK","2018/09/28 15:49:17","新北市新店區中興路三段160號","121.544551666667","24.9807083333333","6500600","新店區"
"231032","188-VK","2018/09/28 15:49:04","新北市新店區雙城路133號","121.497938333333","24.93884","6500600","新店區"
"231023","KEA-2219","2018/09/28 15:49:08","新北市新店區檳榔路34號","121.541513333333","24.963855","6500600","新店區"
"231026","256-BX","2018/09/28 15:49:02","新北市新店區中正路491號","121.533733333333","24.9825116666667","6500600","新店區"
"231003","268-BY","2018/09/28 15:49:15","新北市新店區寶興路60巷3號","121.549913333333","24.9718033333333","6500600","新店區"
"231018","278-BY","2018/09/28 15:49:17","新北市新店區中正路663巷1弄1號","121.533075","24.9898716666667","6500600","新店區"
"231016","AAD-862","2018/09/28 15:49:15","新北市新店區中華路125號","121.538363333333","24.9692333333333","6500600","新店區"
"231038","3712-VJ","2018/09/28 15:49:03","新北市新店區安康路二段242巷8號","121.508795","24.9596616666667","6500600","新店區"
"231037","4716-K9","2018/09/28 15:49:14","新北市新店區安興路105號","121.514703333333","24.9777016666667","6500600","新店區"
"231013","513-UM","2018/09/28 15:49:01","新北市新店區華潭街1巷1號","121.529596666667","24.9497666666667","6500600","新店區"
"231034","616-UM","2018/09/28 15:49:09","新北市新店區吉祥街9巷1號","121.497508333333","24.947055","6500600","新店區"
"231030","619-UM","2018/09/28 15:49:13","新北市新店區永安街22-1號","121.517375","24.98642","6500600","新店區"
"231035","719-UM","2018/09/28 15:48:41","新北市新店區安興路83-3號","121.515335","24.9755283333333","6500600","新店區"
"241011","013-R5","2018/09/28 15:49:12","新北市三重區文化北路248號","121.497398333333","25.069985","6500200","三重區"
"241028","022-UY","2018/09/28 15:49:04","新北市三重區重新路三段94號","121.49267","25.0609183333333","6500200","三重區"
"241008","059-VK","2018/09/28 15:49:20","新北市三重區重新路四段121號","121.485235","25.0522816666667","6500200","三重區"
"241017","063-VK","2018/09/28 15:49:17","新北市三重區大仁街1號","121.49162","25.063625","6500200","三重區"
"241024","065-VK","2018/09/28 15:49:02","新北市三重區重新路四段121號","121.485315","25.05193","6500200","三重區"
"241026","066-VK","2018/09/28 15:49:20","新北市三重區成功路6號","121.490163333333","25.0500366666667","6500200","三重區"
"241002","090-VK","2018/09/28 15:49:16","新北市三重區成功路97號","121.487925","25.0514716666667","6500200","三重區"
"241005","262-UM","2018/09/28 15:49:03","新北市三重區環河南路110-2號","121.498783333333","25.0561716666667","6500200","三重區"
"241016","266-UM","2018/09/28 15:49:19","新北市三重區重新路四段121號","121.484743333333","25.0524166666667","6500200","三重區"
"241013","270-UM","2018/09/28 15:49:10","新北市三重區六張街2號","121.49588","25.0707433333333","6500200","三重區"
"241025","271-UM","2018/09/28 15:49:04","新北市三重區捷運路36號","121.482875","25.05511","6500200","三重區"
"241007","398-BY","2018/09/28 15:49:18","新北市三重區新北大道一段250號","121.479993333333","25.0610383333333","6500200","三重區"
"241020","478-VK","2018/09/28 15:49:02","新北市三重區忠孝路二段63號","121.484953333333","25.0706066666667","6500200","三重區"
"241014","543-UM","2018/09/28 15:49:20","新北市三重區重新路四段121號","121.484811666667","25.0525483333333","6500200","三重區"
"241001","547-UM","2018/09/28 15:49:13","新北市三重區重新路四段121號","121.484658333333","25.0523866666667","6500200","三重區"
"241006","AAD-863","2018/09/28 15:49:01","新北市三重區重新路四段121號","121.48465","25.0523333333333","6500200","三重區"
"241015","743-BX","2018/09/28 15:49:16","新北市三重區重新路四段121號","121.48463","25.0520583333333","6500200","三重區"
"241018","887-TS","2018/09/28 15:49:11","新北市三重區捷運路36號","121.482861666667","25.055195","6500200","三重區"
"241012","941-UM","2018/09/28 15:49:16","新北市三重區文化北路83巷2號","121.498446666667","25.067085","6500200","三重區"
"241029","942-UM","2018/09/28 15:49:07","新北市三重區正義南路181巷1號","121.499005","25.0571933333333","6500200","三重區"
"235033","4980-A6","2018/09/28 15:49:08","新北市中和區連城路523巷11弄34號","121.482545","24.9940066666667","6500300","中和區"
"235023","AAC-215","2018/09/28 15:49:02","新北市中和區員山路49-7號","121.480721666667","24.9913983333333","6500300","中和區"
"247008","336-TH","2018/09/28 15:49:01","新北市五股區中興路三段2巷10號","121.449331666667","25.080795","6501400","蘆洲區"
"227011","642-TC","2018/09/28 15:49:12","新北市雙溪區牡丹里中正路66號","121.865125","25.0437416666667","6502500","雙溪區"
"227003","400-TW","2018/09/28 15:49:09","新北市雙溪區平林里外平林44號","121.852918333333","25.0363533333333","6502500","雙溪區"
"236067","105-UM","2018/09/28 15:49:08","新北市土城區大安路37-1號","121.432818333333","24.9661783333333","6501300","土城區"
"236077","166-UM","2018/09/28 15:49:13","新北市土城區德安街4巷2號","121.42222","24.9648333333333","6501300","土城區"
"236057","912-UM","2018/09/28 15:49:12","新北市土城區中央路一段279號","121.444585","24.9846983333333","6501300","土城區"
"236045","913-UM","2018/09/28 15:49:03","新北市土城區清水路60號","121.455736666667","24.9814816666667","6501300","土城區"
"236054","AAC-216","2018/09/28 15:49:12","新北市土城區中華路一段301號","121.439755","24.97966","6501300","土城區"
"220018","AAC-253","2018/09/28 15:19:52","新北市板橋區華東街1-9號","121.44828","24.994885","6500100","板橋區"
