"lineid","car","time","location","longitude","latitude","cityid","cityname"
"234026","9371-KE","2018/09/28 18:19:10","新北市永和區豫溪街28巷22號","121.515005","25.008935","6500400","永和區"
"249005","172-UM","2018/09/28 18:17:49","新北市八里區荖阡坑路15-40號","121.401655","25.1399033333333","6502300","八里區"
"249001","173-UM","2018/09/28 18:18:21","新北市八里區龍米路一段129號","121.452211666667","25.1267166666667","6502300","八里區"
"249004","303-UY","2018/09/28 18:19:08","新北市八里區龍米路二段236-2號","121.431528333333","25.158945","6502300","八里區"
"249002","305-UY","2018/09/28 18:19:10","新北市八里區龍形五街21號","121.45014","25.1331783333333","6502300","八里區"
"248016","026-BX","2018/09/28 18:18:44","新北市五股區成泰路三段477巷18號","121.449881666667","25.0989133333333","6501500","五股區"
"248006","077-UY","2018/09/28 18:19:21","新北市五股區中興路一段169號","121.464593333333","25.07375","6501500","五股區"
"248008","095-VK","2018/09/28 18:19:17","新北市五股區更洲路32巷8弄14號","121.459258333333","25.07965","6501500","五股區"
"248018","225-UY","2018/09/28 18:19:21","新北市五股區御史路120-1號","121.436923333333","25.0968083333333","6501500","五股區"
"248012","247-BX","2018/09/28 18:17:19","新北市五股區御史路1巷1號","121.442103333333","25.0902933333333","6501500","五股區"
"248014","261-SL","2018/09/28 18:19:14","新北市五股區成泰路一段171巷13號","121.434391666667","25.0744166666667","6501500","五股區"
"248010","272-BY","2018/09/28 18:19:15","新北市五股區成泰路一段231-13號","121.43547","25.07773","6501500","五股區"
"248004","677-BX","2018/09/28 18:19:09","新北市五股區成泰路二段149號","121.439165","25.0855283333333","6501500","五股區"
"248002","678-BX","2018/09/28 18:19:10","新北市五股區西雲路46號","121.443545","25.0909616666667","6501500","五股區"
"244023","069-UM","2018/09/28 18:19:13","新北市林口區東湖路153巷135號","121.382251666667","25.0734816666667","6501700","林口區"
"244007","080-UY","2018/09/28 18:19:05","新北市林口區竹林路361號","121.387661666667","25.08458","6501700","林口區"
"244019","403-UM","2018/09/28 18:19:15","新北市林口區忠孝路580巷19號","121.37527","25.0670816666667","6501700","林口區"
"244013","KEA-2802","2018/09/28 18:18:55","新北市林口區中山路164號","121.390451666667","25.0788116666667","6501700","林口區"
"244017","485-VK","2018/09/28 18:19:11","新北市林口區八德路42號","121.367165","25.0663166666667","6501700","林口區"
"244009","656-BX","2018/09/28 18:19:12","新北市林口區民生路131巷1號","121.377435","25.08853","6501700","林口區"
"244011","701-TV","2018/09/28 18:19:10","新北市林口區新生街28號","121.394028333333","25.0764116666667","6501700","林口區"
"244025","837-TS","2018/09/28 18:19:18","新北市林口區南勢七街11號","121.355166666667","25.0692383333333","6501700","林口區"
"244021","838-TS","2018/09/28 18:18:59","新北市林口區自強二街42號","121.398653333333","25.0775483333333","6501700","林口區"
"243013","AAD-798","2018/09/28 18:18:36","新北市泰山區南林路103號","121.415145","25.0432133333333","6501600","泰山區"
"222003","436-BY","2018/09/28 18:18:31","新北市深坑區旺耽路67號","121.626251666667","25.003045","6501800","深坑區"
"222002","659-BX","2018/09/28 18:19:25","新北市深坑區雲鄉路1號","121.620983333333","24.999775","6501800","深坑區"
"231059","001-UM","2018/09/28 18:19:09","新北市新店區安華路28-1號","121.519446666667","24.960725","6500600","新店區"
"231041","002-UM","2018/09/28 18:19:17","新北市新店區安華路28-1號","121.519763333333","24.9608283333333","6500600","新店區"
"231040","047-UY","2018/09/28 18:17:16","新北市新店區安華路28-1號","121.519288333333","24.9608566666667","6500600","新店區"
"231044","106-UY","2018/09/28 18:19:07","新北市新店區安華路28-1號","121.519563333333","24.960845","6500600","新店區"
"231046","107-UY","2018/09/28 18:19:02","新北市新店區直潭七街60號","121.532236666667","24.939905","6500600","新店區"
"231053","110-UY","2018/09/28 18:19:13","新北市新店區環河路29巷1號","121.537046666667","24.9613516666667","6500600","新店區"
"231048","187-VK","2018/09/28 18:19:20","新北市新店區安一路一段1-1號","121.51958","24.96109","6500600","新店區"
"231062","188-VK","2018/09/28 18:19:13","新北市新店區安一路一段1-1號","121.519268333333","24.96121","6500600","新店區"
"231054","KEA-2219","2018/09/28 18:19:14","新北市新店區安一路一段1-1號","121.519718333333","24.96128","6500600","新店區"
"231057","256-BX","2018/09/28 18:18:48","新北市新店區安一路一段1-1號","121.51971","24.9611333333333","6500600","新店區"
"231042","268-BY","2018/09/28 18:19:10","新北市新店區安華路28-1號","121.519345","24.9605766666667","6500600","新店區"
"231051","278-BY","2018/09/28 18:19:24","新北市新店區安一路一段1-1號","121.519918333333","24.9611366666667","6500600","新店區"
"231050","AAD-862","2018/09/28 18:19:20","新北市新店區安一路一段1-1號","121.519938333333","24.9611433333333","6500600","新店區"
"231058","3713-VJ","2018/09/28 18:19:20","新北市新店區安康路一段118號","121.52703","24.962625","6500600","新店區"
"231066","4716-K9","2018/09/28 18:19:03","新北市新店區安一路一段1-1號","121.519348333333","24.9613","6500600","新店區"
"231056","4715-K9","2018/09/28 18:19:19","新北市新店區中央路59號","121.532758333333","24.977325","6500600","新店區"
"231067","4772-VM","2018/09/28 18:19:10","新北市新店區安華路1-1號","121.519146666667","24.9604683333333","6500600","新店區"
"231065","512-UM","2018/09/28 18:19:04","新北市新店區安一路一段1-1號","121.519348333333","24.9610316666667","6500600","新店區"
"231049","513-UM","2018/09/28 18:18:41","新北市新店區安一路一段1-1號","121.519718333333","24.96109","6500600","新店區"
"231063","616-UM","2018/09/28 18:19:04","新北市新店區安華路1-1號","121.519431666667","24.9605133333333","6500600","新店區"
"231061","619-UM","2018/09/28 18:19:11","新北市新店區安華路28-1號","121.519428333333","24.96078","6500600","新店區"
"231064","719-UM","2018/09/28 18:19:16","新北市新店區安一路一段1-1號","121.519428333333","24.96126","6500600","新店區"
"231045","898-TW","2018/09/28 18:19:20","新北市新店區安華路28-1號","121.51932","24.9609533333333","6500600","新店區"
"231043","899-TW","2018/09/28 18:18:47","新北市新店區安華路28-1號","121.519298333333","24.9609","6500600","新店區"
"231055","AKT-0513","2018/09/28 18:19:11","新北市新店區北新路一段130號","121.542375","24.9701733333333","6500600","新店區"
"235064","005-UY","2018/09/28 18:19:10","新北市中和區圓通路171號","121.497561666667","24.9952316666667","6500300","中和區"
"235063","006-UY","2018/09/28 18:19:03","新北市中和區中正路525號","121.48794","24.9936083333333","6500300","中和區"
"235056","096-UM","2018/09/28 18:19:05","新北市中和區中山路二段479號","121.483076666667","25.00481","6500300","中和區"
"235039","097-UM","2018/09/28 18:19:06","新北市中和區景平路365號","121.504403333333","24.9933783333333","6500300","中和區"
"235065","098-UM","2018/09/28 18:17:25","新北市中和區莊敬路49巷18號","121.50164","25.0061716666667","6500300","中和區"
"235040","150-BY","2018/09/28 18:18:50","新北市中和區景安路121號","121.50578","24.9963233333333","6500300","中和區"
"235058","151-BY","2018/09/28 18:19:23","新北市中和區圓通路369巷35號","121.489043333333","24.9869783333333","6500300","中和區"
"235055","183-VK","2018/09/28 18:18:53","新北市中和區連城路469巷70弄12號","121.483023333333","24.993655","6500300","中和區"
"235038","185-VK","2018/09/28 18:17:49","新北市中和區自立路171號","121.52316","24.992425","6500300","中和區"
"235049","186-VK","2018/09/28 18:19:12","新北市中和區中正路637巷52弄1號","121.485425","24.9934166666667","6500300","中和區"
"235067","255-BX","2018/09/28 18:19:16","新北市中和區和城路一段271巷1號","121.48584","24.9918433333333","6500300","中和區"
"235072","301-VK","2018/09/28 18:19:13","新北市中和區連城路263號","121.491628333333","24.9964583333333","6500300","中和區"
"235042","KEA-2878","2018/09/28 18:19:15","新北市中和區大智街57號","121.521068333333","24.99207","6500300","中和區"
"247012","KEA-2869","2018/09/28 18:17:54","新北市五股區成洲一路23號","121.449885","25.0955883333333","6501400","蘆洲區"
"235050","4979-A6","2018/09/28 18:19:22","新北市中和區捷運路61巷9號","121.509","24.9893666666667","6500300","中和區"
"235069","4980-A6","2018/09/28 18:19:12","新北市中和區連勝街53號","121.497883333333","24.997205","6500300","中和區"
"235070","558-UM","2018/09/28 18:19:16","新北市中和區圓通路115號","121.499306666667","24.9964166666667","6500300","中和區"
"235045","565-BX","2018/09/28 18:19:17","新北市中和區景安路200巷5號","121.503505","24.9915916666667","6500300","中和區"
"235054","640-BX","2018/09/28 18:18:37","新北市中和區莒光路260號","121.467525","24.9938666666667","6500300","中和區"
"235047","732-UM","2018/09/28 18:19:19","新北市中和區南山路250巷1號","121.507696666667","24.989105","6500300","中和區"
"235046","733-UM","2018/09/28 18:19:05","新北市中和區中正路637巷60弄61號","121.485478333333","24.99297","6500300","中和區"
"235071","783-BX","2018/09/28 18:19:19","新北市中和區員山路36巷16-3號","121.485231666667","24.9912333333333","6500300","中和區"
"235062","800-TS","2018/09/28 18:17:57","新北市中和區橋和路126號","121.492955","25.0059733333333","6500300","中和區"
"235057","801-TS","2018/09/28 18:19:08","新北市中和區民享街97巷15號","121.475538333333","24.9999366666667","6500300","中和區"
"235041","802-TS","2018/09/28 18:19:22","新北市中和區中正路395號","121.489561666667","24.9936083333333","6500300","中和區"
"235052","805-TS","2018/09/28 18:19:11","新北市中和區興南路一段159號","121.508578333333","24.9871666666667","6500300","中和區"
"235048","896-TW","2018/09/28 18:19:14","新北市中和區中正路395號","121.489756666667","24.9935466666667","6500300","中和區"
"235053","900-TW","2018/09/28 18:19:07","新北市中和區連城路469巷70弄10號","121.483136666667","24.99367","6500300","中和區"
"235051","157-BY","2018/09/28 18:18:56","新北市中和區興南路二段132號","121.504196666667","24.983485","6500300","中和區"
"235037","AAC-213","2018/09/28 18:16:57","新北市中和區景平路73號","121.518845","24.9913866666667","6500300","中和區"
"220065","072-UY","2018/09/28 18:19:11","新北市板橋區華東街1-9號","121.448166666667","24.9949666666667","6500100","板橋區"
"226004","205-ST","2018/09/28 18:18:51","新北市平溪區薯榔里雙菁路101號","121.71163","25.019765","6502400","平溪區"
"235043","251-BX","2018/09/28 18:19:04","新北市中和區景平路381號","121.50402","24.993495","6500300","中和區"
"228002","663-BX","2018/09/28 18:19:03","新北市貢寮區福連里馬崗街1號","121.998055","25.01609","6502600","貢寮區"
"228001","670-TC","2018/09/28 18:19:16","新北市貢寮區真理里新港街26巷55弄2-1號","121.927378333333","25.0528966666667","6502600","貢寮區"
"228003","828-UM","2018/09/28 18:19:03","新北市貢寮區真理里美艷山街64-1號","121.918731666667","25.073425","6502600","貢寮區"
"224006","676-BX","2018/09/28 18:19:08","新北市瑞芳區三爪子坑路32巷94號","121.809238333333","25.1067383333333","6501200","瑞芳區"
"224002","639-TC","2018/09/28 18:19:20","新北市瑞芳區正貿新村1號","121.812678333333","25.1062133333333","6501200","瑞芳區"
"224008","285-BY","2018/09/28 18:19:04","新北市瑞芳區逢甲路15號","121.80979","25.1086916666667","6501200","瑞芳區"
"224007","275-VK","2018/09/28 18:19:13","新北市瑞芳區大埔路有勝新村4號","121.764828333333","25.10127","6501200","瑞芳區"
"224009","273-VK","2018/09/28 18:19:06","新北市瑞芳區祈堂路184號","121.857706666667","25.1095216666667","6501200","瑞芳區"
"224005","271-BY","2018/09/28 18:19:07","新北市瑞芳區建基新村1號","121.813051666667","25.1303016666667","6501200","瑞芳區"
"227011","642-TC","2018/09/28 18:19:12","新北市雙溪區牡丹里牡丹73號","121.851703333333","25.05936","6502500","雙溪區"
"227003","400-TW","2018/09/28 18:19:09","新北市雙溪區共和里中山路2號","121.863786666667","25.0337983333333","6502500","雙溪區"
"253006","032-BX","2018/09/28 18:19:13","新北市石門區老梅路71號","121.54597","25.28926","6502200","石門區"
"253005","295-VK","2018/09/28 18:19:08","新北市石門區中央路3-1號","121.565813333333","25.291435","6502200","石門區"
"222001","KEA-2212","2018/09/28 18:19:16","新北市深坑區北深路二段66號","121.618968333333","25.00429","6501800","深坑區"
"208002","KEA-2872","2018/09/28 18:19:12","新北市金山區磺清路135號","121.639371666667","25.2273633333333","6502700","金山區"
"208003","665-BX","2018/09/28 18:19:15","新北市金山區民生路51巷1-2號","121.64195","25.2200366666667","6502700","金山區"
"208001","761-BX","2018/09/28 18:19:06","新北市金山區中山路16號","121.64164","25.2178416666667","6502700","金山區"
"251005","010-UM","2018/09/28 18:19:22","新北市淡水區水源街一段122巷37號","121.447111666667","25.1705483333333","6501000","淡水區"
"251001","011-UM","2018/09/28 18:19:15","新北市淡水區自強路110-6號","121.461621666667","25.1313983333333","6501000","淡水區"
"251008","KEA-2871","2018/09/28 18:17:42","新北市淡水區水源街二段205號","121.457575","25.1763","6501000","淡水區"
"251010","413-VK","2018/09/28 18:18:34","新北市淡水區淡海路233號","121.420183333333","25.1856016666667","6501000","淡水區"
"251012","441-VK","2018/09/28 18:19:19","新北市淡水區北新路二段77-5號","121.480526666667","25.185565","6501000","淡水區"
"251004","443-VK","2018/09/28 18:19:23","新北市淡水區民族路152號","121.462663333333","25.1339433333333","6501000","淡水區"
"251006","561-UM","2018/09/28 18:19:07","新北市淡水區新民街61號","121.438595","25.1763","6501000","淡水區"
"251011","650-BX","2018/09/28 18:19:18","新北市淡水區坪頂路51巷2號","121.45845","25.1626433333333","6501000","淡水區"
"251002","672-BX","2018/09/28 18:18:42","新北市淡水區中正東路一段67號","121.452725","25.1623033333333","6501000","淡水區"
"251003","673-BX","2018/09/28 18:19:09","新北市淡水區北新路180號","121.449423333333","25.17871","6501000","淡水區"
"207003","681-TV","2018/09/28 18:19:21","新北市萬里區野柳里港東路6號","121.68645","25.2031866666667","6502800","萬里區"
"207004","291-VK","2018/09/28 18:19:08","新北市萬里區中幅里中福路39-1號","121.67764","25.1661816666667","6502800","萬里區"
"252002","178-VK","2018/09/28 18:19:17","新北市三芝區中山路二段39號","121.502921666667","25.25517","6502100","三芝區"
"252003","249-BX","2018/09/28 18:19:12","新北市三芝區錫板里南勢崗5-5號","121.48054","25.262985","6502100","三芝區"
"252001","292-VK","2018/09/28 18:19:17","新北市三芝區中興街二段2號","121.498406666667","25.2566683333333","6502100","三芝區"
"237004","KEA-2597","2018/09/28 18:19:06","新北市三峽區五寮81-13號","121.359491666667","24.858005","6500900","三峽區"
"237007","153-BY","2018/09/28 18:19:16","新北市三峽區中正路二段582號","121.359305","24.9059533333333","6500900","三峽區"
"237009","210-TH","2018/09/28 18:19:10","新北市三峽區大勇路36巷25號","121.365505","24.9370133333333","6500900","三峽區"
"237013","252-BX","2018/09/28 18:19:19","新北市三峽區中正路一段19巷9號","121.376353333333","24.9304516666667","6500900","三峽區"
"237012","275-BY","2018/09/28 18:19:04","新北市三峽區民生街1巷1-6號","121.377151666667","24.93688","6500900","三峽區"
"237008","302-VK","2018/09/28 18:19:06","新北市三峽區白雞68-335號","121.3925","24.9089866666667","6500900","三峽區"
"237014","433-BY","2018/09/28 18:19:05","新北市三峽區復興路82號","121.373268333333","24.9374433333333","6500900","三峽區"
"237006","5529-G3","2018/09/28 18:19:17","新北市三峽區溪東路178巷13弄13號","121.40608","24.9323666666667","6500900","三峽區"
"237011","KEA-2596","2018/09/28 18:19:15","新北市三峽區溪東路215號","121.406148333333","24.932825","6500900","三峽區"
"237015","649-BX","2018/09/28 18:19:05","新北市三峽區紫新路21號","121.423205","24.920865","6500900","三峽區"
"237010","706-TV","2018/09/28 18:19:08","新北市三峽區民族街15號","121.369365","24.9309083333333","6500900","三峽區"
"237005","AKY-6261","2018/09/28 18:19:08","新北市三峽區秀川街26巷3號","121.371535","24.9342883333333","6500900","三峽區"
"236069","105-UM","2018/09/28 18:14:58","新北市土城區明德路一段128巷17號","121.462988333333","24.9787883333333","6501300","土城區"
"236079","166-UM","2018/09/28 18:18:58","新北市土城區永安街115巷36號","121.428821666667","24.9628933333333","6501300","土城區"
"236030","253-BX","2018/09/28 18:18:38","新北市土城區中央路二段180巷9號","121.441241666667","24.9764016666667","6501300","土城區"
"236026","269-VK","2018/09/28 18:18:24","新北市土城區承天路69號","121.439835","24.9633","6501300","土城區"
"236014","270-VK","2018/09/28 18:19:06","新北市土城區青雲路39巷7號","121.460323333333","24.9874333333333","6501300","土城區"
"236039","271-VK","2018/09/28 18:19:17","新北市土城區青雲路451巷8弄4號","121.459511666667","24.9744316666667","6501300","土城區"
"236020","401-BY","2018/09/28 18:19:19","新北市土城區明德路二段117號","121.450273333333","24.9820566666667","6501300","土城區"
"236042","752-BX","2018/09/28 18:18:07","新北市土城區中央路一段260-3號","121.444066666667","24.9839383333333","6501300","土城區"
"236059","912-UM","2018/09/28 18:19:09","新北市土城區中央路四段464號","121.409946666667","24.950555","6501300","土城區"
"236048","913-UM","2018/09/28 18:19:00","新北市土城區明德路一段365-1號","121.453665","24.9789833333333","6501300","土城區"
"236063","915-UM","2018/09/28 18:19:08","新北市土城區金城路三段180號","121.468046666667","24.9876783333333","6501300","土城區"
"236055","AAC-216","2018/09/28 18:19:12","新北市土城區中華路二段100號","121.43816","24.97437","6501300","土城區"
"242037","AAC-296","2018/09/28 18:19:12","新北市新莊區後港一路49巷1弄16號","121.425138333333","25.02647","6500500","新莊區"
"242058","986-R7","2018/09/28 18:19:20","新北市新莊區新北大道七段842號","121.413706666667","25.0236633333333","6500500","新莊區"
"242056","751-BX","2018/09/28 18:19:01","新北市新莊區瓊林路38-5號","121.448405","25.0306083333333","6500500","新莊區"
"242027","615-BX","2018/09/28 18:19:23","新北市新莊區幸福路821號","121.445361666667","25.0490216666667","6500500","新莊區"
"242025","613-BX","2018/09/28 18:18:43","新北市新莊區五工三路94巷1號","121.458243333333","25.0656433333333","6500500","新莊區"
"242044","566-BX","2018/09/28 18:19:14","新北市新莊區新北大道七段339號","121.412966666667","25.0276483333333","6500500","新莊區"
"242054","441-UM","2018/09/28 18:19:21","新北市新莊區新樹路302巷7號","121.432185","25.0065116666667","6500500","新莊區"
"242002","440-UM","2018/09/28 18:19:14","新北市新莊區碧江街45號","121.451455","25.0328","6500500","新莊區"
"242009","413-TV","2018/09/28 18:19:05","新北市新莊區中華路二段25號","121.453735","25.0460516666667","6500500","新莊區"
"242046","400-BY","2018/09/28 18:19:14","新北市新莊區福營路300號","121.422453333333","25.0275216666667","6500500","新莊區"
"242060","353-BY","2018/09/28 18:19:10","新北市新莊區新樹路52號","121.437325","25.0266866666667","6500500","新莊區"
"242011","132-UY","2018/09/28 18:19:06","新北市新莊區中榮街49巷5號","121.449371666667","25.0523083333333","6500500","新莊區"
"242041","133-UY","2018/09/28 18:19:17","新北市新莊區天祥街94號","121.41523","25.0296183333333","6500500","新莊區"
"242050","172-VK","2018/09/28 18:19:15","新北市新莊區民安東路189號","121.433305","25.02056","6500500","新莊區"
"242032","347-TH","2018/09/28 18:19:07","新北市新莊區新泰路255巷49號","121.444076666667","25.039465","6500500","新莊區"
"242005","349-TH","2018/09/28 18:18:24","新北市新莊區中平路50號","121.4448","25.04397","6500500","新莊區"
"242021","350-TH","2018/09/28 18:19:06","新北市新莊區中正路253號","121.450058333333","25.035425","6500500","新莊區"
"242015","351-TH","2018/09/28 18:19:02","新北市新莊區中平路184巷10弄1號","121.445475","25.04789","6500500","新莊區"
"238015","755-BX","2018/09/28 18:19:14","新北市樹林區文化街65號","121.41685","24.9890666666667","6500700","樹林區"
"238023","601-UM","2018/09/28 18:18:44","新北市樹林區忠信街1號","121.409375","25.0150033333333","6500700","樹林區"
"238019","599-UM","2018/09/28 18:19:14","新北市樹林區國凱街162號","121.424528333333","24.980695","6500700","樹林區"
"238018","571-TV","2018/09/28 18:19:07","新北市樹林區樹新路34巷9號","121.428068333333","24.9945716666667","6500700","樹林區"
"238024","5061-A6","2018/09/28 18:19:18","新北市樹林區豐林街64號","121.422118333333","24.998","6500700","樹林區"
"238025","303-VK","2018/09/28 18:19:11","新北市樹林區保安街一段98號","121.424108333333","24.994705","6500700","樹林區"
"238017","283-BY","2018/09/28 18:19:07","新北市樹林區中正路815號","121.409541666667","25.016935","6500700","樹林區"
"238014","282-BY","2018/09/28 18:18:53","新北市樹林區大安路111巷4號","121.423081666667","24.9975183333333","6500700","樹林區"
"238020","268-VK","2018/09/28 18:19:17","新北市樹林區俊興街298號","121.418601666667","25.017875","6500700","樹林區"
"238026","172-UY","2018/09/28 18:19:10","新北市樹林區佳園路一段81號","121.393438333333","24.9698116666667","6500700","樹林區"
"238016","169-UY","2018/09/28 18:19:20","新北市樹林區文化街26號","121.419453333333","24.9877616666667","6500700","樹林區"
"239007","AAC-297","2018/09/28 18:19:14","新北市鶯歌區重慶街86號","121.348558333333","24.9520766666667","6500800","鶯歌區"
"239006","891-R6","2018/09/28 18:18:52","新北市鶯歌區德昌街112號","121.331953333333","24.960515","6500800","鶯歌區"
"239008","527-UM","2018/09/28 18:19:21","新北市鶯歌區國際一路179號","121.336248333333","24.9765366666667","6500800","鶯歌區"
"239005","526-UM","2018/09/28 18:19:11","新北市鶯歌區鳳吉三街15號","121.326776666667","24.973515","6500800","鶯歌區"
"239001","417-VK","2018/09/28 18:19:07","新北市鶯歌區國中街178號","121.338203333333","24.9392216666667","6500800","鶯歌區"
"239003","360-BY","2018/09/28 18:19:15","新北市鶯歌區福安街58號","121.335598333333","24.9652066666667","6500800","鶯歌區"
"239002","359-BY","2018/09/28 18:19:18","新北市鶯歌區重慶街31號","121.351445","24.9526066666667","6500800","鶯歌區"
"239004","193-VK","2018/09/28 18:19:12","新北市鶯歌區尖山路279號","121.341283333333","24.9437516666667","6500800","鶯歌區"
"221008","489-VK","2018/09/28 18:19:13","新北市汐止區翠峰街21巷3弄8號","121.643595","25.07568","6501100","汐止區"
"221036","130-UY","2018/09/28 18:19:11","新北市汐止區長興街一段34號","121.670158333333","25.0789583333333","6501100","汐止區"
"221015","131-UY","2018/09/28 18:15:32","新北市汐止區鄉長路二段23巷1號","121.667116666667","25.082595","6501100","汐止區"
"221010","269-BY","2018/09/28 18:19:03","新北市汐止區祥雲街51號","121.64746","25.0896616666667","6501100","汐止區"
"221012","278-VK","2018/09/28 18:18:52","新北市汐止區保長路35巷10號","121.672851666667","25.0796816666667","6501100","汐止區"
"221023","279-VK","2018/09/28 18:19:22","新北市汐止區中興路244號","121.629456666667","25.0682083333333","6501100","汐止區"
"221032","280-BY","2018/09/28 18:19:20","新北市汐止區民權街二段109巷4弄1號","121.619035","25.0468166666667","6501100","汐止區"
"221027","281-BY","2018/09/28 18:19:19","新北市汐止區和平街34-1號","121.662776666667","25.0708266666667","6501100","汐止區"
"221029","298-VK","2018/09/28 18:19:15","新北市汐止區樟樹二路330巷72-1號","121.642971666667","25.0698816666667","6501100","汐止區"
"221021","299-VK","2018/09/28 18:18:27","新北市汐止區連興街120號","121.653655","25.06256","6501100","汐止區"
"221031","353-TW","2018/09/28 18:19:12","新北市汐止區光復街7巷34號","121.641048333333","25.0600666666667","6501100","汐止區"
"221035","622-UM","2018/09/28 18:18:53","新北市汐止區大同路二段179號","121.651858333333","25.0642283333333","6501100","汐止區"
"221025","623-UM","2018/09/28 18:19:22","新北市汐止區勤進路12巷49號","121.658951666667","25.062925","6501100","汐止區"
"221038","646-BX","2018/09/28 18:19:13","新北市汐止區仁愛路317號","121.664481666667","25.0675366666667","6501100","汐止區"
"221002","707-TV","2018/09/28 18:19:00","新北市汐止區福德一路201巷23號","121.636091666667","25.0647083333333","6501100","汐止區"
"221018","753-BX","2018/09/28 18:19:03","新北市汐止區茄苳路123號","121.667615","25.07049","6501100","汐止區"
"242007","280-VK","2018/09/28 18:19:05","新北市新莊區中港一街103號","121.44902","25.0452083333333","6500500","新莊區"
"220035","560-BX","2018/09/28 18:19:11","新北市板橋區四川路二段130巷19號","121.449526666667","24.9940866666667","6500100","板橋區"
"235068","KEA-2873","2018/09/28 18:19:10","新北市中和區員山路36巷16-2號","121.485396666667","24.991315","6500300","中和區"
"235061","KEA-2875","2018/09/28 18:19:19","新北市中和區國光街215巷71-2號","121.467838333333","24.9996016666667","6500300","中和區"
"235060","KEA-2876","2018/09/28 18:19:00","新北市中和區員山路283號","121.481225","24.9997483333333","6500300","中和區"
