"lineid","car","time","location","longitude","latitude","cityid","cityname"
"234046","148-BY","2018/09/28 18:58:53","新北市永和區得和路373巷29號","121.525041666667","25.0002983333333","6500400","永和區"
"234007","207-UY","2018/09/28 18:59:25","新北市永和區永和路二段94號","121.515011666667","25.011595","6500400","永和區"
"234081","298-R6","2018/09/28 18:58:54","新北市永和區福和路57巷14弄1號","121.522691666667","25.006945","6500400","永和區"
"234038","336-UY","2018/09/28 18:59:20","新北市永和區成功路二段207號","121.526563333333","24.9959583333333","6500400","永和區"
"234064","337-UY","2018/09/28 18:57:03","新北市永和區中正路586號","121.51706","25.0066533333333","6500400","永和區"
"234086","338-UY","2018/09/28 18:59:17","新北市永和區中正路161號","121.516501666667","24.9984616666667","6500400","永和區"
"234070","552-UM","2018/09/28 18:59:19","新北市永和區竹林路124巷38號","121.517915","25.0115333333333","6500400","永和區"
"234067","553-UM","2018/09/28 18:59:24","新北市永和區自由街58號","121.513731666667","25.0058683333333","6500400","永和區"
"234017","745-BX","2018/09/28 18:57:16","新北市永和區永和路二段297號","121.515995","25.0160666666667","6500400","永和區"
"234030","746-BX","2018/09/28 18:59:15","新北市永和區秀朗路二段274號","121.526078333333","24.99796","6500400","永和區"
"234054","KEA-2590","2018/09/28 18:55:55","新北市永和區竹林路66巷2號","121.51822","25.0133533333333","6500400","永和區"
"234013","KEA-2591","2018/09/28 18:59:20","新北市永和區中山路一段60巷8號","121.51315","25.0110233333333","6500400","永和區"
"234061","AAD-866","2018/09/28 18:57:11","新北市永和區福和路309巷1號","121.516413333333","25.007055","6500400","永和區"
"234042","862-TW","2018/09/28 18:59:21","新北市永和區永貞路308號","121.51189","25.0048833333333","6500400","永和區"
"234050","863-TW","2018/09/28 18:57:40","新北市永和區文化路147號","121.51073","25.0161266666667","6500400","永和區"
"234026","9371-KE","2018/09/28 18:59:11","新北市永和區安樂路453號","121.514293333333","25.0050466666667","6500400","永和區"
"234011","9373-KE","2018/09/28 18:58:08","新北市永和區仁愛路141巷3弄2號","121.511598333333","25.0123966666667","6500400","永和區"
"249005","172-UM","2018/09/28 18:54:09","新北市八里區長道坑16-2號","121.394586666667","25.1180766666667","6502300","八里區"
"249001","173-UM","2018/09/28 18:58:41","新北市八里區龍米路二段228-1號","121.432831666667","25.1584783333333","6502300","八里區"
"249002","305-UY","2018/09/28 18:56:30","新北市八里區頂寮二街138號","121.449346666667","25.129475","6502300","八里區"
"248016","026-BX","2018/09/28 18:58:44","新北市五股區成泰路三段543巷16號","121.450945","25.102245","6501500","五股區"
"248006","077-UY","2018/09/28 18:59:21","新北市五股區中興路一段21號","121.46908","25.0723183333333","6501500","五股區"
"248008","095-VK","2018/09/28 18:58:26","新北市五股區中興路一段120號","121.465905","25.0735916666667","6501500","五股區"
"248018","225-UY","2018/09/28 18:59:21","新北市五股區民義路二段22巷35-2號","121.42424","25.1005816666667","6501500","五股區"
"248012","247-BX","2018/09/28 18:59:19","新北市五股區成泰路二段148號","121.438456666667","25.0838783333333","6501500","五股區"
"248010","272-BY","2018/09/28 18:59:15","新北市五股區水碓九路20號","121.427931666667","25.0717633333333","6501500","五股區"
"248004","677-BX","2018/09/28 18:59:09","新北市五股區民義路二段116號","121.403461666667","25.1118833333333","6501500","五股區"
"248002","678-BX","2018/09/28 18:58:30","新北市五股區凌雲路一段111號","121.450095","25.1017566666667","6501500","五股區"
"234023","9380-KE","2018/09/28 18:59:06","新北市永和區竹林路75巷25弄3號","121.520101666667","25.0140583333333","6500400","永和區"
"234077","969-R7","2018/09/28 18:57:33","新北市永和區中正路93號","121.515356666667","24.9973816666667","6500400","永和區"
"234003","AAC-295","2018/09/28 18:59:09","新北市永和區和平街33號","121.513063333333","25.00991","6500400","永和區"
"232011","375-UM","2018/09/28 18:59:17","新北市坪林區北宜路八段363號","121.709751666667","24.9329866666667","6502000","坪林區"
"244023","069-UM","2018/09/28 18:59:13","新北市林口區信義路281號","121.376176666667","25.0817166666667","6501700","林口區"
"244007","080-UY","2018/09/28 18:59:05","新北市林口區太平里23-3號","121.37633","25.1153216666667","6501700","林口區"
"244019","403-UM","2018/09/28 18:59:15","新北市林口區麗園二街3巷5號","121.377718333333","25.07004","6501700","林口區"
"244013","KEA-2802","2018/09/28 18:59:15","新北市林口區麗園一街6巷2-2號","121.37651","25.06995","6501700","林口區"
"244017","485-VK","2018/09/28 18:59:11","新北市林口區文化二路一段20巷25弄61號","121.36616","25.067665","6501700","林口區"
"244009","656-BX","2018/09/28 18:59:12","新北市林口區台電新村111號","121.388516666667","25.0873683333333","6501700","林口區"
"244011","701-TV","2018/09/28 18:59:10","新北市林口區中正路315號","121.38872","25.0777133333333","6501700","林口區"
"244025","837-TS","2018/09/28 18:59:18","新北市林口區文化北路一段472號","121.365618333333","25.0772533333333","6501700","林口區"
"244021","838-TS","2018/09/28 18:58:59","新北市八里區中華路三段138-1號","121.391998333333","25.1321683333333","6501700","林口區"
"243013","AAD-798","2018/09/28 18:58:04","新北市泰山區明志路三段206巷3號","121.423316666667","25.03794","6501600","泰山區"
"243009","297-R6","2018/09/28 18:58:49","新北市泰山區泰林路二段365號","121.427968333333","25.0637316666667","6501600","泰山區"
"243016","KEA-2801","2018/09/28 18:59:14","新北市泰山區明志路二段152-1號","121.427515","25.0506816666667","6501600","泰山區"
"243015","421-VK","2018/09/28 18:58:58","新北市泰山區美寧街3號","121.43003","25.063395","6501600","泰山區"
"243011","KEA-2215","2018/09/28 18:59:15","新北市泰山區明志路二段246-1號","121.427138333333","25.0482","6501600","泰山區"
"243010","KEA-2216","2018/09/28 18:59:22","新北市泰山區辭修路30號","121.428986666667","25.0581983333333","6501600","泰山區"
"243012","646-TV","2018/09/28 18:59:12","新北市泰山區仁德路106號","121.432611666667","25.0568816666667","6501600","泰山區"
"243014","680-BX","2018/09/28 18:59:14","新北市泰山區黎明路23號","121.420908333333","25.0626383333333","6501600","泰山區"
"222003","436-BY","2018/09/28 18:58:10","新北市深坑區深南路51-1號","121.621361666667","25.0101816666667","6501800","深坑區"
"222002","659-BX","2018/09/28 18:59:24","新北市深坑區文山路一段31巷2號","121.629888333333","25.00334","6501800","深坑區"
"231059","001-UM","2018/09/28 18:59:09","新北市新店區安華路28-1號","121.519495","24.9608733333333","6500600","新店區"
"231041","002-UM","2018/09/28 18:59:17","新北市新店區環河路72號","121.536936666667","24.9631083333333","6500600","新店區"
"231040","047-UY","2018/09/28 18:59:16","新北市新店區中央路45號","121.532861666667","24.9776166666667","6500600","新店區"
"231044","106-UY","2018/09/28 18:59:07","新北市新店區寶中路72號","121.547886666667","24.980665","6500600","新店區"
"231046","107-UY","2018/09/28 18:59:22","新北市新店區直潭二街21號","121.53545","24.9421283333333","6500600","新店區"
"231053","110-UY","2018/09/28 18:59:13","新北市新店區屈尺路58號","121.547426666667","24.9228166666667","6500600","新店區"
"231048","187-VK","2018/09/28 18:59:00","新北市新店區德正街23巷6號","121.544363333333","24.9720383333333","6500600","新店區"
"231062","188-VK","2018/09/28 18:59:13","新北市新店區安豐路60-2號","121.498076666667","24.9537916666667","6500600","新店區"
"231054","KEA-2219","2018/09/28 18:59:14","新北市新店區新店路13號","121.540311666667","24.9528366666667","6500600","新店區"
"231042","268-BY","2018/09/28 18:57:50","新北市新店區北新路一段189號","121.540298333333","24.9646533333333","6500600","新店區"
"231051","278-BY","2018/09/28 18:59:04","新北市新店區百忍街30號","121.534003333333","24.9757766666667","6500600","新店區"
"231050","AAD-862","2018/09/28 18:59:20","新北市新店區北宜路二段30巷5弄18號","121.548616666667","24.950735","6500600","新店區"
"231058","3713-VJ","2018/09/28 18:59:20","新北市新店區中興路一段139號","121.542048333333","24.9636483333333","6500600","新店區"
"231066","4716-K9","2018/09/28 18:58:43","新北市新店區安豐路49號","121.499883333333","24.95485","6500600","新店區"
"231056","4715-K9","2018/09/28 18:59:19","新北市新店區建國路218號","121.537873333333","24.9811616666667","6500600","新店區"
"231067","4772-VM","2018/09/28 18:59:10","新北市新店區安華路1-1號","121.519226666667","24.9605733333333","6500600","新店區"
"231065","512-UM","2018/09/28 18:59:04","新北市新店區安康路二段393號","121.494265","24.9539266666667","6500600","新店區"
"231049","513-UM","2018/09/28 18:57:01","新北市新店區中正路454-5號","121.534453333333","24.9790183333333","6500600","新店區"
"231063","616-UM","2018/09/28 18:59:24","新北市新店區安華路30巷3號","121.518861666667","24.9586383333333","6500600","新店區"
"231061","619-UM","2018/09/28 18:59:11","新北市新店區安華路30巷3號","121.5189","24.958795","6500600","新店區"
"231064","719-UM","2018/09/28 18:59:16","新北市新店區安一路一段1-1號","121.519545","24.9612866666667","6500600","新店區"
"231060","897-TW","2018/09/28 18:59:14","新北市新店區安華路16號","121.51672","24.9579916666667","6500600","新店區"
"231045","898-TW","2018/09/28 18:59:20","新北市新店區北新路一段2-18號","121.53852","24.96009","6500600","新店區"
"231043","899-TW","2018/09/28 18:58:27","新北市新店區北新路一段343號","121.54191","24.9689283333333","6500600","新店區"
"231055","AKT-0513","2018/09/28 18:59:11","新北市新店區新生街13巷42號","121.538955","24.9665466666667","6500600","新店區"
"241026","066-VK","2018/09/28 18:59:21","新北市三重區泉州街106號","121.494898333333","25.0537183333333","6500200","三重區"
"241035","462-BY","2018/09/28 18:57:33","新北市三重區重新路四段121號","121.484628333333","25.052005","6500200","三重區"
"235066","003-UY","2018/09/28 18:59:12","新北市中和區中山路二段131巷5弄3號","121.502846666667","25.0028883333333","6500300","中和區"
"235064","005-UY","2018/09/28 18:59:09","新北市中和區泰和街34號","121.499401666667","25.00024","6500300","中和區"
"235063","006-UY","2018/09/28 18:59:23","新北市中和區錦和路107號","121.49017","24.99524","6500300","中和區"
"235056","096-UM","2018/09/28 18:59:25","新北市中和區新民街83號","121.481445","25.0079683333333","6500300","中和區"
"235039","097-UM","2018/09/28 18:59:06","新北市永和區安樂路60號","121.515085","24.998035","6500300","中和區"
"235065","098-UM","2018/09/28 18:59:06","新北市中和區勝利路29號","121.499001666667","25.0079183333333","6500300","中和區"
"235040","150-BY","2018/09/28 18:59:09","新北市中和區安樂路87號","121.512841666667","24.9945783333333","6500300","中和區"
"235058","151-BY","2018/09/28 18:59:03","新北市中和區員山路105號","121.480871666667","24.994495","6500300","中和區"
"235055","183-VK","2018/09/28 18:57:13","新北市中和區民德路8-1號","121.468823333333","25.00295","6500300","中和區"
"235038","185-VK","2018/09/28 18:59:09","新北市中和區立人街30號","121.518561666667","24.9941116666667","6500300","中和區"
"235049","186-VK","2018/09/28 18:59:12","新北市中和區景安路177巷27號","121.506611666667","24.99455","6500300","中和區"
"235067","255-BX","2018/09/28 18:59:16","新北市中和區新生街191號","121.483746666667","25.0002866666667","6500300","中和區"
"235044","293-VK","2018/09/28 18:59:09","新北市中和區中興街161巷1弄22號","121.500306666667","24.9914433333333","6500300","中和區"
"235072","301-VK","2018/09/28 18:58:57","新北市中和區中山路二段231號","121.498235","25.0025066666667","6500300","中和區"
"235042","KEA-2878","2018/09/28 18:59:15","新北市中和區秀朗路三段22巷8號","121.525975","24.9963016666667","6500300","中和區"
"247012","KEA-2869","2018/09/28 18:59:14","新北市五股區中興路三段163號","121.449426666667","25.080555","6501400","蘆洲區"
"235050","4979-A6","2018/09/28 18:59:21","新北市中和區華新街80號","121.508313333333","24.983485","6500300","中和區"
"235069","4980-A6","2018/09/28 18:55:12","新北市中和區南山路52巷18號","121.501358333333","24.9973683333333","6500300","中和區"
"235070","558-UM","2018/09/28 18:58:56","新北市中和區中和路180號","121.504858333333","24.9997116666667","6500300","中和區"
"235045","565-BX","2018/09/28 18:59:17","新北市中和區景新街467巷20弄86號","121.514396666667","24.9877016666667","6500300","中和區"
"235054","640-BX","2018/09/28 18:58:57","新北市中和區中山路三段147號","121.473723333333","25.00606","6500300","中和區"
"235047","732-UM","2018/09/28 18:58:59","新北市中和區興南路二段54巷8號","121.505981666667","24.985615","6500300","中和區"
"235046","733-UM","2018/09/28 18:58:45","新北市中和區興南路一段135巷22弄6號","121.509075","24.9868383333333","6500300","中和區"
"235071","783-BX","2018/09/28 18:59:19","新北市中和區員山路36巷16-3號","121.485195","24.9912016666667","6500300","中和區"
"235062","800-TS","2018/09/28 18:59:17","新北市中和區中山路二段356號","121.492845","25.0029683333333","6500300","中和區"
"235057","801-TS","2018/09/28 18:57:28","新北市中和區民利街62號","121.478875","24.998575","6500300","中和區"
"235041","802-TS","2018/09/28 18:58:22","新北市中和區宜安路96號","121.510715","24.9976116666667","6500300","中和區"
"235052","805-TS","2018/09/28 18:59:11","新北市中和區興南路二段347號","121.500121666667","24.9801066666667","6500300","中和區"
"235048","896-TW","2018/09/28 18:59:14","新北市中和區華新街109巷2號","121.508641666667","24.98268","6500300","中和區"
"235053","900-TW","2018/09/28 18:59:12","新北市中和區民德路378號","121.465331666667","24.9944933333333","6500300","中和區"
"235051","157-BY","2018/09/28 18:59:15","新北市中和區忠孝街31巷33弄2號","121.50978","24.9845566666667","6500300","中和區"
"235037","AAC-213","2018/09/28 18:59:18","新北市永和區民生路83號","121.522691666667","24.9967616666667","6500300","中和區"
"235059","AAC-215","2018/09/28 18:59:19","新北市中和區圓通路367巷20弄23號","121.491391666667","24.9883766666667","6500300","中和區"
"220068","013-TV","2018/09/28 18:59:03","新北市板橋區中山路二段465巷96號","121.481116666667","25.02265","6500100","板橋區"
"220065","072-UY","2018/09/28 18:59:11","新北市板橋區漢生東路324號","121.471781666667","25.0079083333333","6500100","板橋區"
"220086","073-UY","2018/09/28 18:59:11","新北市板橋區中正路283號","121.455436666667","25.0191216666667","6500100","板橋區"
"220106","075-UY","2018/09/28 18:58:43","新北市板橋區文化路二段124巷8號","121.470568333333","25.025965","6500100","板橋區"
"220069","AAD-861","2018/09/28 18:57:47","新北市板橋區大華街94號","121.45919","25.0056733333333","6500100","板橋區"
"226004","205-ST","2018/09/28 18:59:11","新北市平溪區平溪里平溪街22號","121.73876","25.0252883333333","6502400","平溪區"
"235043","251-BX","2018/09/28 18:58:04","新北市中和區秀朗路三段24號","121.526435","24.99638","6500300","中和區"
"228002","663-BX","2018/09/28 18:59:22","新北市貢寮區福隆里東興街106巷23弄1號","121.946305","25.01826","6502600","貢寮區"
"228001","670-TC","2018/09/28 18:59:16","新北市貢寮區仁理村研海街12-1號","121.92375","25.0517516666667","6502600","貢寮區"
"228003","828-UM","2018/09/28 18:59:02","新北市貢寮區和美里龍洞街60號","121.91355","25.115485","6502600","貢寮區"
"224010","AGQ-8101","2018/09/28 18:57:00","新北市瑞芳區基山街31巷3號","121.845818333333","25.10937","6501200","瑞芳區"
"224006","676-BX","2018/09/28 18:59:08","新北市瑞芳區三爪子坑路32巷124號","121.809135","25.1065466666667","6501200","瑞芳區"
"224002","639-TC","2018/09/28 18:59:19","新北市平溪區新寮里五分寮10-2號","121.79995","25.0740383333333","6501200","瑞芳區"
"224008","285-BY","2018/09/28 18:59:04","新北市瑞芳區瑞芳街102號","121.801901666667","25.1104616666667","6501200","瑞芳區"
"224007","275-VK","2018/09/28 18:58:33","新北市瑞芳區中央路48巷180號","121.758416666667","25.1028866666667","6501200","瑞芳區"
"224009","273-VK","2018/09/28 18:58:06","新北市瑞芳區洞頂路205號","121.8605","25.1219883333333","6501200","瑞芳區"
"224005","271-BY","2018/09/28 18:59:07","新北市瑞芳區豎崎路32-5號","121.823983333333","25.1210066666667","6501200","瑞芳區"
"227011","642-TC","2018/09/28 18:59:12","新北市雙溪區牡丹里中正路58巷23號","121.866416666667","25.0416166666667","6502500","雙溪區"
"227003","400-TW","2018/09/28 18:59:09","新北市雙溪區平林里康福家園17號","121.858836666667","25.0373366666667","6502500","雙溪區"
"253006","032-BX","2018/09/28 18:59:13","新北市石門區八甲6號","121.52148","25.28218","6502200","石門區"
"253005","295-VK","2018/09/28 18:59:20","新北市石門區中央路32號","121.56798","25.292435","6502200","石門區"
"222001","KEA-2212","2018/09/28 18:58:47","新北市深坑區翠谷街8巷7號","121.62777","25.00766","6501800","深坑區"
"208002","KEA-2872","2018/09/28 18:59:12","新北市金山區仁愛路63號","121.63507","25.2210066666667","6502700","金山區"
"208003","665-BX","2018/09/28 18:59:10","新北市金山區中正路85號","121.633396666667","25.2217116666667","6502700","金山區"
"208001","761-BX","2018/09/28 18:59:06","新北市金山區中山路79號","121.64036","25.2185666666667","6502700","金山區"
"251009","008-UM","2018/09/28 18:59:22","新北市淡水區重建街75號","121.439821666667","25.1720716666667","6501000","淡水區"
"251001","011-UM","2018/09/28 18:56:35","新北市淡水區自強路82號","121.462831666667","25.1281066666667","6501000","淡水區"
"251010","413-VK","2018/09/28 18:59:14","新北市淡水區沙崙路129號","121.42244","25.1823033333333","6501000","淡水區"
"251012","441-VK","2018/09/28 18:59:18","新北市淡水區新民街324號","121.435196666667","25.1840133333333","6501000","淡水區"
"251007","577-R6","2018/09/28 18:59:15","新北市淡水區民生路47-7號","121.462413333333","25.1382216666667","6501000","淡水區"
"251002","672-BX","2018/09/28 18:48:56","新北市淡水區學府路3號","121.447365","25.1679066666667","6501000","淡水區"
"251003","673-BX","2018/09/28 18:57:29","新北市淡水區中山北路一段149巷31號","121.443015","25.1779233333333","6501000","淡水區"
"207003","681-TV","2018/09/28 18:59:21","新北市萬里區大鵬里頂社27號","121.656585","25.2108033333333","6502800","萬里區"
"207004","291-VK","2018/09/28 18:59:08","新北市萬里區萬里里獅頭路23號","121.693228333333","25.1782783333333","6502800","萬里區"
"252002","178-VK","2018/09/28 18:59:17","新北市三芝區中正路一段64號","121.503711666667","25.2578833333333","6502100","三芝區"
"252003","249-BX","2018/09/28 18:58:52","新北市三芝區後厝里北勢子42-11號","121.471588333333","25.252075","6502100","三芝區"
"252001","292-VK","2018/09/28 18:58:57","新北市三芝區中興街二段260號","121.501703333333","25.25305","6502100","三芝區"
"237004","KEA-2597","2018/09/28 18:59:06","新北市三峽區有木206號","121.439075","24.8515666666667","6500900","三峽區"
"237007","153-BY","2018/09/28 18:59:16","新北市三峽區中正路二段83巷13號","121.367168333333","24.9179233333333","6500900","三峽區"
"237013","252-BX","2018/09/28 18:59:19","新北市三峽區光明路69巷25號","121.376553333333","24.9291883333333","6500900","三峽區"
"237012","275-BY","2018/09/28 18:59:25","新北市三峽區三樹路222巷192-1號","121.388485","24.9426633333333","6500900","三峽區"
"237008","302-VK","2018/09/28 18:59:05","新北市三峽區中正路一段219號","121.372105","24.927355","6500900","三峽區"
"237014","433-BY","2018/09/28 18:59:05","新北市三峽區隆恩街232號","121.357856666667","24.9411883333333","6500900","三峽區"
"237006","5529-G3","2018/09/28 18:59:17","新北市三峽區溪東路233巷47弄2號","121.411033333333","24.9348666666667","6500900","三峽區"
"237011","KEA-2596","2018/09/28 18:59:15","新北市三峽區介壽路三段175號","121.40135","24.9435","6500900","三峽區"
"237015","649-BX","2018/09/28 18:58:45","新北市三峽區建安139號","121.466651666667","24.9155366666667","6500900","三峽區"
"237010","706-TV","2018/09/28 18:59:07","新北市三峽區國光街358號","121.371181666667","24.9396516666667","6500900","三峽區"
"237005","AKY-6261","2018/09/28 18:59:08","新北市三峽區中山路459巷163-3號","121.348656666667","24.9329133333333","6500900","三峽區"
"236069","105-UM","2018/09/28 18:54:58","新北市土城區金城路二段242巷2號","121.457471666667","24.98293","6501300","土城區"
"236079","166-UM","2018/09/28 18:59:13","新北市土城區中央路四段450號","121.41052","24.95125","6501300","土城區"
"236030","253-BX","2018/09/28 18:58:58","新北市土城區中央路二段308號","121.440498333333","24.9732566666667","6501300","土城區"
"236026","269-VK","2018/09/28 18:49:04","新北市土城區慶安街80號","121.440713333333","24.9727583333333","6501300","土城區"
"236014","270-VK","2018/09/28 18:43:46","新北市土城區清水路278巷28弄20號","121.46236","24.982415","6501300","土城區"
"236039","271-VK","2018/09/28 18:59:14","新北市土城區仁愛路10-1號","121.460135","24.9809116666667","6501300","土城區"
"236020","401-BY","2018/09/28 18:59:19","新北市土城區延吉街168巷5弄1號","121.46819","24.9854916666667","6501300","土城區"
"236042","752-BX","2018/09/28 18:57:06","新北市土城區學府路一段229巷2號","121.451268333333","24.98393","6501300","土城區"
"236059","912-UM","2018/09/28 18:59:09","新北市土城區金城路二段204號","121.455063333333","24.9819416666667","6501300","土城區"
"236048","913-UM","2018/09/28 18:58:00","新北市土城區青雲路318-1號","121.458918333333","24.9777416666667","6501300","土城區"
"236063","915-UM","2018/09/28 18:59:08","新北市土城區延和路41巷6弄16號","121.46667","24.9902633333333","6501300","土城區"
"236055","AAC-216","2018/09/28 18:59:03","新北市土城區學成路164號","121.448065","24.9891233333333","6501300","土城區"
"242046","400-BY","2018/09/28 18:46:34","新北市新莊區裕民街19巷4號","121.419755","25.025355","6500500","新莊區"
"238023","601-UM","2018/09/28 18:54:00","新北市樹林區工興街35巷1號","121.401231666667","25.0132433333333","6500700","樹林區"
"238019","599-UM","2018/09/28 18:59:17","新北市樹林區東榮街147巷27弄5號","121.414801666667","24.980995","6500700","樹林區"
"238024","5061-A6","2018/09/28 18:58:58","新北市樹林區八德街1172號","121.390273333333","24.9684333333333","6500700","樹林區"
"238022","KEA-2213","2018/09/28 18:59:18","新北市樹林區東興街14-2號","121.410026666667","24.9784183333333","6500700","樹林區"
"238021","KEA-2539","2018/09/28 18:59:09","新北市樹林區柑園街二段276巷22號","121.372711666667","24.9532366666667","6500700","樹林區"
"238025","303-VK","2018/09/28 18:59:11","新北市樹林區中山路三段22號","121.395605","24.9729216666667","6500700","樹林區"
"238017","283-BY","2018/09/28 18:59:07","新北市樹林區光興街44號","121.40989","25.0027166666667","6500700","樹林區"
"238014","282-BY","2018/09/28 18:57:53","新北市樹林區潭興街143巷18號","121.4252","25.00001","6500700","樹林區"
"238020","268-VK","2018/09/28 18:59:17","新北市樹林區俊英街280號","121.423805","25.0131483333333","6500700","樹林區"
"238026","172-UY","2018/09/28 18:58:30","新北市樹林區信和街66號","121.389628333333","24.9735916666667","6500700","樹林區"
"238016","169-UY","2018/09/28 18:59:20","新北市樹林區復興路373巷11號","121.417505","24.9864616666667","6500700","樹林區"
"239007","AAC-297","2018/09/28 18:59:14","新北市鶯歌區中山路6號","121.353046666667","24.95732","6500800","鶯歌區"
"239006","891-R6","2018/09/28 18:59:08","新北市鶯歌區鶯桃路296巷84弄21號","121.337256666667","24.9614833333333","6500800","鶯歌區"
"239008","527-UM","2018/09/28 18:59:21","新北市鶯歌區國際二路10巷1號","121.338003333333","24.974185","6500800","鶯歌區"
"239005","526-UM","2018/09/28 18:59:10","新北市鶯歌區中湖街138號","121.349366666667","24.9732816666667","6500800","鶯歌區"
"239001","417-VK","2018/09/28 18:59:07","新北市鶯歌區永明街13號","121.338331666667","24.955155","6500800","鶯歌區"
"239003","360-BY","2018/09/28 18:59:15","新北市鶯歌區鶯桃路367號","121.333778333333","24.9627633333333","6500800","鶯歌區"
"239002","359-BY","2018/09/28 18:59:18","新北市鶯歌區西湖街45巷1號","121.340345","24.95836","6500800","鶯歌區"
"239004","193-VK","2018/09/28 18:59:12","新北市鶯歌區鶯華新村5號","121.33006","24.9348366666667","6500800","鶯歌區"
"221008","489-VK","2018/09/28 18:59:10","新北市汐止區連峰街1巷5號","121.64611","25.0760366666667","6501100","汐止區"
"221036","130-UY","2018/09/28 18:59:11","新北市汐止區汐萬路一段256巷3號","121.652226666667","25.0746916666667","6501100","汐止區"
"221015","131-UY","2018/09/28 18:58:32","新北市汐止區汐萬路一段229號","121.651756666667","25.0726966666667","6501100","汐止區"
"221010","269-BY","2018/09/28 18:58:24","新北市汐止區康寧街901號","121.65163","25.07491","6501100","汐止區"
"221012","278-VK","2018/09/28 18:59:08","新北市汐止區康寧街901號","121.650816666667","25.075275","6501100","汐止區"
"221023","279-VK","2018/09/28 18:58:42","新北市汐止區康寧街901號","121.650951666667","25.0751883333333","6501100","汐止區"
"221032","280-BY","2018/09/28 18:58:52","新北市汐止區橫科路407巷30弄28-5號","121.627535","25.0488666666667","6501100","汐止區"
"221027","281-BY","2018/09/28 18:58:37","新北市汐止區康寧街901號","121.65147","25.0749733333333","6501100","汐止區"
"221029","298-VK","2018/09/28 18:59:14","新北市汐止區樟樹一路228號","121.642296666667","25.06665","6501100","汐止區"
"221021","299-VK","2018/09/28 18:58:47","新北市汐止區康寧街901號","121.65143","25.0749916666667","6501100","汐止區"
"221031","353-TW","2018/09/28 18:59:12","新北市汐止區福德三路127號","121.633608333333","25.067615","6501100","汐止區"
"221035","622-UM","2018/09/28 18:57:13","新北市汐止區汐萬路一段300號","121.65051","25.0745583333333","6501100","汐止區"
"221025","623-UM","2018/09/28 18:59:02","新北市汐止區汐萬路一段115巷1號","121.654345","25.0706566666667","6501100","汐止區"
"221038","646-BX","2018/09/28 18:59:12","新北市汐止區康寧街901號","121.650708333333","25.0753033333333","6501100","汐止區"
"221002","707-TV","2018/09/28 18:59:00","新北市汐止區大同路一段89號","121.624048333333","25.054685","6501100","汐止區"
"221018","753-BX","2018/09/28 18:59:23","新北市汐止區汐萬路一段39-3號","121.654923333333","25.0695866666667","6501100","汐止區"
"220079","145-BY","2018/09/28 18:59:09","新北市板橋區民權路202巷9弄8號","121.460145","25.01553","6500100","板橋區"
"220080","200-UY","2018/09/28 18:59:13","新北市板橋區大觀路二段37巷302號","121.450201666667","25.0021116666667","6500100","板橋區"
"220082","610-BX","2018/09/28 18:58:31","新北市板橋區滿平街76號","121.427491666667","24.9892083333333","6500100","板橋區"
"220101","245-BX","2018/09/28 18:59:00","新北市板橋區民生路二段250號","121.468296666667","25.0233216666667","6500100","板橋區"
"220056","276-BY","2018/09/28 18:53:57","新北市板橋區信義路30號","121.456988333333","24.99503","6500100","板橋區"
"220072","277-BY","2018/09/28 18:59:02","新北市板橋區篤行路二段135號","121.43058","24.9894383333333","6500100","板橋區"
"220071","283-VK","2018/09/28 18:59:15","新北市板橋區忠孝路154巷34-2號","121.46416","25.0017066666667","6500100","板橋區"
"220094","285-UM","2018/09/28 18:59:14","新北市板橋區民生路二段234巷9號","121.468528333333","25.0226933333333","6500100","板橋區"
"220053","285-VK","2018/09/28 18:59:09","新北市板橋區中山路二段157號","121.475625","25.0167383333333","6500100","板橋區"
"220083","286-VK","2018/09/28 18:59:09","新北市板橋區大觀路一段38巷180號","121.441538333333","25.0046883333333","6500100","板橋區"
"220081","287-VK","2018/09/28 18:59:21","新北市板橋區光華街19巷6號","121.453721666667","25.0121516666667","6500100","板橋區"
"220090","288-VK","2018/09/28 18:59:19","新北市板橋區四維路175-3號","121.464473333333","25.0264166666667","6500100","板橋區"
"220061","293-UM","2018/09/28 18:59:18","新北市板橋區富山街109巷70號","121.475311666667","25.0212783333333","6500100","板橋區"
"220103","295-UM","2018/09/28 18:59:04","新北市板橋區民生路二段123號","121.47062","25.01853","6500100","板橋區"
"220084","296-UM","2018/09/28 18:58:50","新北市板橋區龍興街10號","121.442831666667","24.9996883333333","6500100","板橋區"
"220097","299-UM","2018/09/28 18:59:18","新北市板橋區漢生東路27-1號","121.465235","25.0169966666667","6500100","板橋區"
"220075","303-R5","2018/09/28 18:55:29","新北市板橋區館前西路148號","121.455826666667","25.0082433333333","6500100","板橋區"
"220062","305-R5","2018/09/28 18:59:07","新北市板橋區三民路二段正隆巷44號","121.476915","25.0138616666667","6500100","板橋區"
"220092","307-R5","2018/09/28 18:59:03","新北市板橋區文化路一段88號","121.464438333333","25.0174166666667","6500100","板橋區"
"220098","317-R6","2018/09/28 18:59:17","新北市板橋區民有街16號","121.466258333333","25.02492","6500100","板橋區"
"220064","486-VK","2018/09/28 18:59:19","新北市板橋區新站路28號","121.466768333333","25.0139216666667","6500100","板橋區"
"220088","491-VK","2018/09/28 18:59:00","新北市板橋區民生路二段192號","121.46989","25.020695","6500100","板橋區"
"220035","560-BX","2018/09/28 18:59:11","新北市板橋區中正路325巷21號","121.454285","25.0197233333333","6500100","板橋區"
"220063","609-BX","2018/09/28 18:59:20","新北市板橋區中山路二段163號","121.475853333333","25.0168","6500100","板橋區"
"220091","637-BX","2018/09/28 18:58:35","新北市板橋區萬板路165號","121.47412","25.023635","6500100","板橋區"
"220057","686-BX","2018/09/28 18:59:17","新北市板橋區重慶路60號","121.461756666667","25.0070816666667","6500100","板橋區"
"220077","687-BX","2018/09/28 18:59:22","新北市板橋區大觀路二段281號","121.442475","24.9989233333333","6500100","板橋區"
"220093","689-BX","2018/09/28 18:58:33","新北市板橋區民生路三段64號","121.467013333333","25.0253766666667","6500100","板橋區"
"220054","741-BX","2018/09/28 18:59:19","新北市板橋區重慶路93巷47號","121.463361666667","25.0059683333333","6500100","板橋區"
"220102","KEA-2699","2018/09/28 18:58:02","新北市板橋區萬板路472號","121.479858333333","25.0259566666667","6500100","板橋區"
"220055","827-TW","2018/09/28 18:59:13","新北市板橋區中山路一段160-6號","121.466475","25.0122266666667","6500100","板橋區"
"220067","830-TW","2018/09/28 18:58:43","新北市板橋區三民路二段154巷6號","121.478648333333","25.0152866666667","6500100","板橋區"
"220096","831-TW","2018/09/28 18:59:03","新北市板橋區莒光路101號","121.472546666667","25.02402","6500100","板橋區"
"220089","833-TW","2018/09/28 18:58:17","新北市板橋區民生路二段232-10號","121.468583333333","25.02258","6500100","板橋區"
"220074","895-R6","2018/09/28 18:58:45","新北市板橋區文昌街22號","121.455765","25.010715","6500100","板橋區"
"220073","985-R7","2018/09/28 18:59:12","新北市板橋區民權路254號","121.458193333333","25.0148416666667","6500100","板橋區"
"220070","AAC-253","2018/09/28 18:59:00","新北市板橋區四川路一段107-6號","121.459783333333","25.0049966666667","6500100","板橋區"
"235068","KEA-2873","2018/09/28 18:59:10","新北市中和區圓通路222號","121.495523333333","24.993095","6500300","中和區"
"235061","KEA-2875","2018/09/28 18:58:19","新北市中和區民享街59巷8號","121.474573333333","25.0025333333333","6500300","中和區"
"235060","KEA-2876","2018/09/28 18:58:30","新北市中和區民治街5巷2號","121.475035","25.0049766666667","6500300","中和區"
