"lineid","car","time","location","longitude","latitude","cityid","cityname"
"234046","148-BY","2018/09/28 19:19:13","新北市永和區得和路373巷3-1號","121.52471","24.9996666666667","6500400","永和區"
"234007","207-UY","2018/09/28 19:19:04","新北市永和區中山路一段238號","121.507403333333","25.0078216666667","6500400","永和區"
"234081","298-R6","2018/09/28 19:16:07","新北市永和區福和路57巷14弄6號","121.522588333333","25.00721","6500400","永和區"
"234038","336-UY","2018/09/28 19:17:40","新北市永和區民樂街59巷1號","121.527805","24.99834","6500400","永和區"
"234064","337-UY","2018/09/28 19:15:23","新北市永和區永元路33號","121.52218","25.000885","6500400","永和區"
"234086","338-UY","2018/09/28 19:19:17","新北市永和區永貞路110號","121.518898333333","25.0045966666667","6500400","永和區"
"234070","552-UM","2018/09/28 19:19:07","新北市永和區豫溪街45號","121.516945","25.0099066666667","6500400","永和區"
"234067","553-UM","2018/09/28 19:19:21","新北市永和區保平路50巷4號","121.51126","25.0072783333333","6500400","永和區"
"234017","745-BX","2018/09/28 19:19:16","新北市永和區文化路144巷31弄6號","121.512461666667","25.0168233333333","6500400","永和區"
"234030","746-BX","2018/09/28 19:19:15","新北市永和區厚德街68號","121.523958333333","24.9989","6500400","永和區"
"234054","KEA-2590","2018/09/28 19:19:06","新北市永和區中興街47號","121.51648","25.01177","6500400","永和區"
"234013","KEA-2591","2018/09/28 19:19:20","新北市永和區信義路57-1號","121.512785","25.0126283333333","6500400","永和區"
"234061","AAD-866","2018/09/28 19:15:51","新北市永和區秀朗路一段92號","121.51613","25.00486","6500400","永和區"
"234042","862-TW","2018/09/28 19:19:21","新北市永和區保平路151巷6弄1號","121.510333333333","25.0053033333333","6500400","永和區"
"234050","863-TW","2018/09/28 19:18:08","新北市永和區仁愛路104巷1號","121.511893333333","25.013405","6500400","永和區"
"234026","9371-KE","2018/09/28 19:19:09","新北市永和區安樂路144巷29號","121.51513","24.9997716666667","6500400","永和區"
"234011","9373-KE","2018/09/28 19:18:29","新北市永和區保福路二段9巷9號","121.510565","25.0109216666667","6500400","永和區"
"249005","172-UM","2018/09/28 19:18:29","新北市八里區中華路三段170-1號","121.392175","25.130405","6502300","八里區"
"249001","173-UM","2018/09/28 19:19:21","新北市八里區文昌路112號","121.409778333333","25.1577516666667","6502300","八里區"
"249002","305-UY","2018/09/28 19:19:10","新北市八里區頂寮二街138號","121.449353333333","25.1294433333333","6502300","八里區"
"249003","593-UM","2018/09/28 19:19:13","新北市八里區中山路二段466巷18號","121.398691666667","25.14781","6502300","八里區"
"248016","026-BX","2018/09/28 19:19:24","新北市五股區成洲五路12號","121.452376666667","25.1015416666667","6501500","五股區"
"248008","095-VK","2018/09/28 19:19:17","新北市五股區中興路二段57-6號","121.46053","25.0754683333333","6501500","五股區"
"248018","225-UY","2018/09/28 19:19:21","新北市五股區民義路一段224-1號","121.429018333333","25.0905333333333","6501500","五股區"
"248012","247-BX","2018/09/28 19:18:39","新北市五股區中興路四段48巷16號","121.4386","25.083465","6501500","五股區"
"248010","272-BY","2018/09/28 19:19:15","新北市五股區水碓一路23號","121.430646666667","25.0712983333333","6501500","五股區"
"248004","677-BX","2018/09/28 19:19:09","新北市五股區五福路85號","121.432328333333","25.0902966666667","6501500","五股區"
"248002","678-BX","2018/09/28 19:19:10","新北市五股區凌雲路一段158巷6號","121.447863333333","25.1030866666667","6501500","五股區"
"234023","9380-KE","2018/09/28 19:18:26","新北市永和區竹林路109巷7號","121.520355","25.0119616666667","6500400","永和區"
"234077","969-R7","2018/09/28 19:18:53","新北市永和區民族街29號","121.51878","24.99958","6500400","永和區"
"234074","AAC-211","2018/09/28 19:19:18","新北市永和區竹林路133號","121.520113333333","25.010875","6500400","永和區"
"234003","AAC-295","2018/09/28 19:19:08","新北市永和區中山路一段106號","121.510993333333","25.0104166666667","6500400","永和區"
"244023","069-UM","2018/09/28 19:19:13","新北市林口區文林六街27巷17號","121.370575","25.0812333333333","6501700","林口區"
"244019","403-UM","2018/09/28 19:19:15","新北市林口區中山路298號","121.382031666667","25.0814666666667","6501700","林口區"
"244017","485-VK","2018/09/28 19:19:11","新北市林口區文化二路一段120巷13號","121.368391666667","25.0693966666667","6501700","林口區"
"244025","837-TS","2018/09/28 19:19:18","新北市林口區民族路218-99號","121.36899","25.0777583333333","6501700","林口區"
"244021","838-TS","2018/09/28 19:19:19","新北市八里區中山路三段252號","121.381098333333","25.1400016666667","6501700","林口區"
"243013","AAD-798","2018/09/28 19:19:15","新北市泰山區明志路三段145巷6弄2號","121.42555","25.0398333333333","6501600","泰山區"
"243009","297-R6","2018/09/28 19:19:09","新北市泰山區明志路一段72號","121.433456666667","25.064575","6501600","泰山區"
"243016","KEA-2801","2018/09/28 19:19:14","新北市泰山區明志路三段146號","121.4246","25.0397133333333","6501600","泰山區"
"243015","421-VK","2018/09/28 19:19:18","新北市泰山區公園路18號","121.429486666667","25.0541216666667","6501600","泰山區"
"243011","KEA-2215","2018/09/28 19:17:20","新北市泰山區中央路7巷2號","121.426448333333","25.0432916666667","6501600","泰山區"
"243010","KEA-2216","2018/09/28 19:19:24","新北市泰山區明志路一段488號","121.430405","25.0545983333333","6501600","泰山區"
"243012","646-TV","2018/09/28 19:19:14","新北市泰山區仁愛路100巷26號","121.433466666667","25.05484","6501600","泰山區"
"243014","680-BX","2018/09/28 19:19:20","新北市泰山區明志路一段191號","121.432986666667","25.0617283333333","6501600","泰山區"
"222003","436-BY","2018/09/28 19:17:10","新北市深坑區深南路204號","121.626646666667","25.0161016666667","6501800","深坑區"
"222002","659-BX","2018/09/28 19:19:24","新北市深坑區北深路一段177號","121.632511666667","25.0108966666667","6501800","深坑區"
"231059","001-UM","2018/09/28 19:19:16","新北市新店區安和路二段155號","121.519025","24.97425","6500600","新店區"
"231041","002-UM","2018/09/28 19:19:17","新北市新店區溪園路221號","121.525851666667","24.983715","6500600","新店區"
"231040","047-UY","2018/09/28 19:15:57","新北市新店區三民路139號","121.534341666667","24.972655","6500600","新店區"
"231044","106-UY","2018/09/28 19:19:22","新北市新店區寶慶街71號","121.54186","24.98651","6500600","新店區"
"231046","107-UY","2018/09/28 19:19:02","新北市新店區華城路5-3號","121.529261666667","24.9579116666667","6500600","新店區"
"231053","110-UY","2018/09/28 19:19:13","新北市新店區新烏路二段200巷11號","121.547676666667","24.9165816666667","6500600","新店區"
"231048","187-VK","2018/09/28 19:18:58","新北市新店區中興路二段59-1號","121.546565","24.970565","6500600","新店區"
"231062","188-VK","2018/09/28 19:19:13","新北市新店區莒光路38巷4號","121.522966666667","24.9588666666667","6500600","新店區"
"231054","KEA-2219","2018/09/28 19:18:34","新北市新店區國校路36號","121.538156666667","24.9543533333333","6500600","新店區"
"231042","268-BY","2018/09/28 19:19:08","新北市新店區中興路一段115號","121.541433333333","24.962805","6500600","新店區"
"231051","278-BY","2018/09/28 19:19:04","新北市新店區中央路192號","121.530868333333","24.9748216666667","6500600","新店區"
"231050","AAD-862","2018/09/28 19:19:20","新北市新店區竹林路30巷1號","121.552265","24.9513233333333","6500600","新店區"
"231058","3713-VJ","2018/09/28 19:19:00","新北市新店區北新路二段218號","121.542883333333","24.9770866666667","6500600","新店區"
"231066","4716-K9","2018/09/28 19:18:43","新北市新店區安康路三段359巷10弄1號","121.48434","24.9503533333333","6500600","新店區"
"231056","4715-K9","2018/09/28 19:18:59","新北市新店區柴埕路52巷1-6號","121.513058333333","24.96483","6500600","新店區"
"231067","4772-VM","2018/09/28 19:18:35","新北市新店區安康路一段195巷3號","121.52639","24.9626116666667","6500600","新店區"
"231065","512-UM","2018/09/28 19:18:53","新北市新店區安祥路112號","121.47485","24.9569166666667","6500600","新店區"
"231049","513-UM","2018/09/28 19:19:21","新北市新店區明德路111號","121.541533333333","24.9794166666667","6500600","新店區"
"231063","616-UM","2018/09/28 19:19:24","新北市新店區達觀路12號","121.505046666667","24.9409633333333","6500600","新店區"
"231061","619-UM","2018/09/28 19:18:51","新北市新店區安康路一段20號","121.531175","24.96104","6500600","新店區"
"231064","719-UM","2018/09/28 19:19:23","新北市新店區安忠路38號","121.513061666667","24.95949","6500600","新店區"
"231060","897-TW","2018/09/28 19:19:14","新北市新店區安康路二段118號","121.513081666667","24.9629216666667","6500600","新店區"
"231045","898-TW","2018/09/28 19:18:20","新北市新店區北宜路一段260號","121.545683333333","24.952755","6500600","新店區"
"231043","899-TW","2018/09/28 19:18:07","新北市新店區寶橋路37號","121.544535","24.9744666666667","6500600","新店區"
"231055","AKT-0513","2018/09/28 19:19:11","新北市新店區薏仁坑路6號","121.50017","24.958105","6500600","新店區"
"241022","060-VK","2018/09/28 19:19:16","新北市三重區重陽路二段72號","121.487296666667","25.0641516666667","6500200","三重區"
"241031","061-VK","2018/09/28 19:19:03","新北市三重區重新路四段242-1號","121.48569","25.0538","6500200","三重區"
"241017","063-VK","2018/09/28 19:19:16","新北市三重區大同北路217號","121.491621666667","25.06599","6500200","三重區"
"241026","066-VK","2018/09/28 19:18:40","新北市三重區中正南路254號","121.493248333333","25.0534466666667","6500200","三重區"
"241009","267-UM","2018/09/28 19:19:05","新北市三重區溪尾街230巷75號","121.485886666667","25.0811116666667","6500200","三重區"
"241032","269-UM","2018/09/28 19:18:50","新北市三重區新生街97號","121.483528333333","25.0594066666667","6500200","三重區"
"241025","271-UM","2018/09/28 19:19:14","新北市三重區中正北路406號","121.47536","25.0705183333333","6500200","三重區"
"241007","398-BY","2018/09/28 19:19:17","新北市三重區三和路四段163巷79號","121.486123333333","25.07919","6500200","三重區"
"241035","462-BY","2018/09/28 19:18:53","新北市三重區信義西街138號","121.495476666667","25.0643733333333","6500200","三重區"
"241020","478-VK","2018/09/28 19:19:16","新北市三重區大智街163號","121.489816666667","25.0723316666667","6500200","三重區"
"241030","480-VK","2018/09/28 19:17:21","新北市三重區新興路40號","121.491528333333","25.05354","6500200","三重區"
"241006","AAD-863","2018/09/28 19:19:21","新北市三重區車路頭街137號","121.48394","25.0762216666667","6500200","三重區"
"241029","942-UM","2018/09/28 19:18:52","新北市三重區重安街17號","121.490655","25.0574666666667","6500200","三重區"
"235066","003-UY","2018/09/28 19:19:12","新北市中和區中和路102號","121.50267","24.9996966666667","6500300","中和區"
"235064","005-UY","2018/09/28 19:19:09","新北市中和區中和路40巷14號","121.499496666667","25.001255","6500300","中和區"
"235063","006-UY","2018/09/28 19:19:23","新北市中和區連城路249巷26弄10號","121.494156666667","24.9955433333333","6500300","中和區"
"235056","096-UM","2018/09/28 19:18:45","新北市中和區中正路1173號","121.480801666667","25.0098533333333","6500300","中和區"
"235039","097-UM","2018/09/28 19:19:06","新北市中和區秀峰街79巷2號","121.521858333333","24.9901933333333","6500300","中和區"
"235065","098-UM","2018/09/28 19:19:05","新北市中和區中山路二段64巷12弄9號","121.503998333333","25.0054783333333","6500300","中和區"
"235040","150-BY","2018/09/28 19:19:10","新北市中和區安平路55號","121.509416666667","24.99537","6500300","中和區"
"235058","151-BY","2018/09/28 19:19:23","新北市中和區連城路469巷79弄2號","121.483518333333","24.9939666666667","6500300","中和區"
"235055","183-VK","2018/09/28 19:17:34","新北市中和區德光路78號","121.469116666667","25.0036566666667","6500300","中和區"
"235038","185-VK","2018/09/28 19:17:28","新北市中和區自強路11號","121.520166666667","24.9934233333333","6500300","中和區"
"235049","186-VK","2018/09/28 19:19:16","新北市中和區景新街229號","121.507878333333","24.9946966666667","6500300","中和區"
"235067","255-BX","2018/09/28 19:19:16","新北市中和區民樂路27號","121.483071666667","25.0013333333333","6500300","中和區"
"235044","293-VK","2018/09/28 19:19:09","新北市中和區中興街263-1號","121.500065","24.9888216666667","6500300","中和區"
"235072","301-VK","2018/09/28 19:18:57","新北市中和區連城路190號","121.492626666667","24.9967616666667","6500300","中和區"
"235042","KEA-2878","2018/09/28 19:19:15","新北市中和區安樂路217巷48號","121.51315","24.9979016666667","6500300","中和區"
"247012","KEA-2869","2018/09/28 19:18:44","新北市五股區中興路三段163號","121.449168333333","25.0807083333333","6501400","蘆洲區"
"235050","4979-A6","2018/09/28 19:19:21","新北市中和區景安路208巷2號","121.50384","24.9910516666667","6500300","中和區"
"235069","4980-A6","2018/09/28 19:19:12","新北市中和區中山路二段130號","121.502185","25.0035966666667","6500300","中和區"
"235070","558-UM","2018/09/28 19:16:34","新北市中和區中山路二段264號","121.49726","25.0024933333333","6500300","中和區"
"235045","565-BX","2018/09/28 19:19:17","新北市中和區景新街423巷35弄23號","121.513885","24.990555","6500300","中和區"
"235054","640-BX","2018/09/28 19:18:57","新北市中和區國光街109巷28號","121.469388333333","24.999615","6500300","中和區"
"235047","732-UM","2018/09/28 19:19:19","新北市中和區景平路239巷53弄7號","121.50895","24.9917683333333","6500300","中和區"
"235046","733-UM","2018/09/28 19:17:25","新北市中和區忠孝街5-3號","121.509798333333","24.9829016666667","6500300","中和區"
"235071","783-BX","2018/09/28 19:19:19","新北市中和區中正路639號","121.485231666667","24.9955366666667","6500300","中和區"
"235062","800-TS","2018/09/28 19:19:17","新北市中和區中山路二段550號","121.484043333333","25.0052216666667","6500300","中和區"
"235057","801-TS","2018/09/28 19:17:58","新北市中和區員山路423巷2弄2號","121.480745","25.0033966666667","6500300","中和區"
"235041","802-TS","2018/09/28 19:18:42","新北市永和區中和路373號","121.508391666667","24.9999133333333","6500300","中和區"
"235052","805-TS","2018/09/28 19:18:51","新北市中和區興南路二段128巷4號","121.504076666667","24.9836466666667","6500300","中和區"
"235048","896-TW","2018/09/28 19:19:14","新北市中和區忠孝街112號","121.51218","24.9852966666667","6500300","中和區"
"235053","900-TW","2018/09/28 19:19:07","新北市中和區民德路242號","121.468055","24.997395","6500300","中和區"
"235051","157-BY","2018/09/28 19:18:15","新北市中和區景平路239巷33弄33號","121.509645","24.9915533333333","6500300","中和區"
"235037","AAC-213","2018/09/28 19:19:18","新北市中和區秀朗路三段10巷37弄6號","121.523856666667","24.995815","6500300","中和區"
"235059","AAC-215","2018/09/28 19:19:19","新北市中和區圓通路286巷26號","121.491978333333","24.9915083333333","6500300","中和區"
"220068","013-TV","2018/09/28 19:19:23","新北市板橋區翠華街6巷59號","121.481263333333","25.0249133333333","6500100","板橋區"
"220065","072-UY","2018/09/28 19:14:11","新北市板橋區民族路219巷75號","121.468801666667","25.0089866666667","6500100","板橋區"
"220086","073-UY","2018/09/28 19:19:22","新北市板橋區中正路216巷4弄16號","121.456731666667","25.0179433333333","6500100","板橋區"
"220106","075-UY","2018/09/28 19:19:04","新北市板橋區江寧路三段87巷2弄3號","121.472128333333","25.0332583333333","6500100","板橋區"
"220069","AAD-861","2018/09/28 19:19:08","新北市板橋區華興街31巷19號","121.458396666667","25.0037766666667","6500100","板橋區"
"226004","205-ST","2018/09/28 19:19:11","新北市平溪區南山里南山坪23號","121.771188333333","25.0361833333333","6502400","平溪區"
"235043","251-BX","2018/09/28 19:18:04","新北市中和區景平路162號","121.517291666667","24.9922183333333","6500300","中和區"
"228002","663-BX","2018/09/28 19:19:25","新北市貢寮區龍門里復興街46-2號","121.928705","25.02996","6502600","貢寮區"
"228001","670-TC","2018/09/28 19:19:16","新北市貢寮區真理里新港街10號","121.925505","25.05435","6502600","貢寮區"
"228003","828-UM","2018/09/28 19:19:23","新北市貢寮區和美里和美街22-1號","121.912778333333","25.0826316666667","6502600","貢寮區"
"224010","AGQ-8101","2018/09/28 19:14:54","新北市瑞芳區基山街139號","121.843945","25.1083216666667","6501200","瑞芳區"
"224008","285-BY","2018/09/28 19:19:04","新北市瑞芳區一坑路173-4號","121.801283333333","25.1081466666667","6501200","瑞芳區"
"224009","273-VK","2018/09/28 19:19:06","新北市瑞芳區中山路251號","121.798415","25.109185","6501200","瑞芳區"
"227011","642-TC","2018/09/28 19:19:12","新北市雙溪區新基里新基北街40號","121.868518333333","25.0380633333333","6502500","雙溪區"
"227003","400-TW","2018/09/28 19:19:09","新北市雙溪區平林里梅竹蹊66-1號","121.860143333333","25.0358333333333","6502500","雙溪區"
"253006","032-BX","2018/09/28 19:19:13","新北市石門區崁子腳27號","121.535723333333","25.2907916666667","6502200","石門區"
"253005","295-VK","2018/09/28 19:19:08","新北市石門區阿里荖6-2號","121.609856666667","25.27995","6502200","石門區"
"222001","KEA-2212","2018/09/28 19:15:56","新北市深坑區北深路二段48號","121.619468333333","25.0042233333333","6501800","深坑區"
"208002","KEA-2872","2018/09/28 19:19:12","新北市金山區中華路131號","121.633156666667","25.22087","6502700","金山區"
"208003","665-BX","2018/09/28 19:13:15","新北市金山區中山路192號","121.637731666667","25.2215516666667","6502700","金山區"
"208001","761-BX","2018/09/28 19:18:28","新北市金山區中山路106號","121.639895","25.2193983333333","6502700","金山區"
"251009","008-UM","2018/09/28 19:19:22","新北市淡水區中正路38-1號","121.443735","25.1692983333333","6501000","淡水區"
"251005","010-UM","2018/09/28 19:19:22","新北市淡水區水源街一段29號","121.44318","25.1723116666667","6501000","淡水區"
"251001","011-UM","2018/09/28 19:19:15","新北市淡水區民權路92巷35-1號","121.46204","25.1267966666667","6501000","淡水區"
"251010","413-VK","2018/09/28 19:19:13","新北市淡水區沙崙路28號","121.421426666667","25.1814383333333","6501000","淡水區"
"251006","561-UM","2018/09/28 19:18:47","新北市淡水區大信街33號","121.441986666667","25.1773533333333","6501000","淡水區"
"251007","577-R6","2018/09/28 19:19:15","新北市淡水區民生路117巷46號","121.464873333333","25.1400566666667","6501000","淡水區"
"251003","673-BX","2018/09/28 19:17:27","新北市淡水區中山北路一段99號","121.442426666667","25.17644","6501000","淡水區"
"207003","681-TV","2018/09/28 19:19:01","新北市萬里區大鵬里萬里加投79-3號","121.647368333333","25.2123666666667","6502800","萬里區"
"207004","291-VK","2018/09/28 19:19:07","新北市萬里區萬里里成功新村44號","121.6877","25.17464","6502800","萬里區"
"252002","178-VK","2018/09/28 19:19:17","新北市三芝區淡金路二段18-1號","121.502695","25.2595033333333","6502100","三芝區"
"252001","292-VK","2018/09/28 19:19:17","新北市三芝區長勤街9巷8號","121.501595","25.255335","6502100","三芝區"
"237004","KEA-2597","2018/09/28 19:19:06","新北市三峽區有木206號","121.439106666667","24.8514683333333","6500900","三峽區"
"237007","153-BY","2018/09/28 19:19:16","新北市三峽區二鬮路136巷14號","121.359181666667","24.90801","6500900","三峽區"
"237009","210-TH","2018/09/28 19:19:10","新北市三峽區信義街22號","121.370856666667","24.935595","6500900","三峽區"
"237013","252-BX","2018/09/28 19:19:19","新北市三峽區大同路39巷7號","121.376993333333","24.9278933333333","6500900","三峽區"
"237012","275-BY","2018/09/28 19:19:25","新北市三峽區三樹路222巷178弄2號","121.387203333333","24.9428","6500900","三峽區"
"237008","302-VK","2018/09/28 19:19:25","新北市三峽區大同路154號","121.373065","24.9267216666667","6500900","三峽區"
"237014","433-BY","2018/09/28 19:19:05","新北市三峽區中山路299巷15弄1號","121.361145","24.9366883333333","6500900","三峽區"
"237006","5529-G3","2018/09/28 19:19:17","新北市三峽區介壽路一段385號","121.38782","24.93393","6500900","三峽區"
"237011","KEA-2596","2018/09/28 19:18:55","新北市三峽區介壽路三段3號","121.395461666667","24.9361716666667","6500900","三峽區"
"237015","649-BX","2018/09/28 19:18:45","新北市三峽區建安25-3號","121.445465","24.927385","6500900","三峽區"
"237010","706-TV","2018/09/28 19:19:07","新北市三峽區復興路44號","121.373588333333","24.936925","6500900","三峽區"
"237005","AKY-6261","2018/09/28 19:19:08","新北市三峽區隆恩街250號","121.357356666667","24.9409566666667","6500900","三峽區"
"236069","105-UM","2018/09/28 19:19:18","新北市土城區學成路76巷1號","121.451153333333","24.9883416666667","6501300","土城區"
"236079","166-UM","2018/09/28 19:19:13","新北市土城區中州路3巷50號","121.413433333333","24.9564816666667","6501300","土城區"
"236026","269-VK","2018/09/28 19:19:23","新北市土城區中央路二段61巷26號","121.443251666667","24.9787233333333","6501300","土城區"
"236014","270-VK","2018/09/28 19:12:46","新北市土城區學府路一段101號","121.456131666667","24.987805","6501300","土城區"
"236020","401-BY","2018/09/28 19:19:19","新北市土城區峰廷街8號","121.46867","24.9877666666667","6501300","土城區"
"236059","912-UM","2018/09/28 19:19:09","新北市土城區中央路二段274號","121.441103333333","24.9741866666667","6501300","土城區"
"236048","913-UM","2018/09/28 19:18:39","新北市土城區明德路一段365-1號","121.453661666667","24.9790683333333","6501300","土城區"
"238023","601-UM","2018/09/28 19:19:00","桃園市龜山區萬壽路一段211號","121.405793333333","25.0180166666667","6500700","樹林區"
"238019","599-UM","2018/09/28 19:19:17","新北市樹林區東榮街91巷1弄11號","121.416468333333","24.9828183333333","6500700","樹林區"
"238018","571-TV","2018/09/28 19:19:22","新北市樹林區太平路56巷25號","121.41837","24.981675","6500700","樹林區"
"238024","5061-A6","2018/09/28 19:18:58","新北市樹林區中山路二段249巷2號","121.401945","24.9759","6500700","樹林區"
"238022","KEA-2213","2018/09/28 19:19:18","新北市樹林區中山路二段147號","121.406575","24.9786833333333","6500700","樹林區"
"238021","KEA-2539","2018/09/28 19:18:48","新北市樹林區柑園街二段252號","121.370986666667","24.95073","6500700","樹林區"
"238025","303-VK","2018/09/28 19:19:11","新北市樹林區中山路三段107-1號","121.399905","24.9746466666667","6500700","樹林區"
"238017","283-BY","2018/09/28 19:19:07","新北市樹林區光興街50號","121.409851666667","25.0027183333333","6500700","樹林區"
"238014","282-BY","2018/09/28 19:18:13","新北市樹林區中正路22-1號","121.427735","24.999455","6500700","樹林區"
"238020","268-VK","2018/09/28 19:19:17","新北市樹林區俊英街121巷20號","121.423506666667","25.0100983333333","6500700","樹林區"
"238026","172-UY","2018/09/28 19:16:50","新北市樹林區佳園路一段41巷14號","121.393766666667","24.9709933333333","6500700","樹林區"
"238016","169-UY","2018/09/28 19:19:20","新北市樹林區日新街167號","121.420293333333","24.9880516666667","6500700","樹林區"
"239007","AAC-297","2018/09/28 19:19:14","新北市鶯歌區大湖路326巷4號","121.346105","24.9704066666667","6500800","鶯歌區"
"239006","891-R6","2018/09/28 19:19:08","新北市鶯歌區鶯桃路91巷8號","121.338988333333","24.9532633333333","6500800","鶯歌區"
"239005","526-UM","2018/09/28 19:19:10","新北市鶯歌區大湖路336號","121.345963333333","24.9712333333333","6500800","鶯歌區"
"239001","417-VK","2018/09/28 19:19:07","新北市鶯歌區建國路439號","121.338033333333","24.9512366666667","6500800","鶯歌區"
"239003","360-BY","2018/09/28 19:19:15","新北市鶯歌區重慶街10巷2號","121.351901666667","24.952745","6500800","鶯歌區"
"239002","359-BY","2018/09/28 19:19:18","新北市鶯歌區大湖路185巷22號","121.342678333333","24.9705333333333","6500800","鶯歌區"
"221008","489-VK","2018/09/28 19:19:10","新北市汐止區康寧街334號","121.627648333333","25.0674083333333","6501100","汐止區"
"221036","130-UY","2018/09/28 19:18:11","新北市汐止區康寧街901號","121.651666666667","25.0748933333333","6501100","汐止區"
"221015","131-UY","2018/09/28 19:18:52","新北市汐止區康寧街901號","121.650846666667","25.075285","6501100","汐止區"
"221010","269-BY","2018/09/28 19:18:24","新北市汐止區康寧街901號","121.651598333333","25.074965","6501100","汐止區"
"221012","278-VK","2018/09/28 19:18:48","新北市汐止區汐萬路一段217號","121.652011666667","25.0723816666667","6501100","汐止區"
"221023","279-VK","2018/09/28 19:19:22","新北市汐止區康寧街901號","121.650985","25.0752183333333","6501100","汐止區"
"221027","281-BY","2018/09/28 19:17:37","新北市汐止區康寧街901號","121.651495","25.0749933333333","6501100","汐止區"
"221029","298-VK","2018/09/28 19:19:14","新北市汐止區汐萬路一段256巷3號","121.652546666667","25.074535","6501100","汐止區"
"221021","299-VK","2018/09/28 19:19:07","新北市汐止區康寧街901號","121.651348333333","25.075045","6501100","汐止區"
"221031","353-TW","2018/09/28 19:19:12","新北市汐止區汐萬路一段256巷1號","121.651725","25.0748516666667","6501100","汐止區"
"221025","623-UM","2018/09/28 19:19:22","新北市汐止區康寧街901號","121.650758333333","25.0752916666667","6501100","汐止區"
"221038","646-BX","2018/09/28 19:19:12","新北市汐止區汐萬路一段312號","121.650691666667","25.0752883333333","6501100","汐止區"
"221002","707-TV","2018/09/28 19:18:40","新北市汐止區中興路19號","121.63695","25.05942","6501100","汐止區"
"220079","145-BY","2018/09/28 19:18:25","新北市板橋區民權路202巷17弄32號","121.459471666667","25.0166016666667","6500100","板橋區"
"220080","200-UY","2018/09/28 19:19:19","新北市板橋區大觀路二段3巷55號","121.449235","25.0035616666667","6500100","板橋區"
"220082","610-BX","2018/09/28 19:19:24","新北市板橋區金門街259號","121.431711666667","24.9887866666667","6500100","板橋區"
"220101","245-BX","2018/09/28 19:16:20","新北市板橋區莊敬路231號","121.472648333333","25.0214983333333","6500100","板橋區"
"220056","276-BY","2018/09/28 19:14:57","新北市板橋區信義路148號","121.458871666667","24.9917716666667","6500100","板橋區"
"220072","277-BY","2018/09/28 19:19:22","新北市板橋區金門街339-2號","121.429286666667","24.98565","6500100","板橋區"
"220071","283-VK","2018/09/28 19:19:12","新北市板橋區大豐街103號","121.461311666667","25.0011916666667","6500100","板橋區"
"220094","285-UM","2018/09/28 19:19:14","新北市板橋區光武街110巷45-4號","121.467041666667","25.0302033333333","6500100","板橋區"
"220053","285-VK","2018/09/28 19:18:52","新北市板橋區富山街13巷6弄7號","121.477871666667","25.0212183333333","6500100","板橋區"
"220083","286-VK","2018/09/28 19:19:09","新北市板橋區龍興街73巷20號","121.443195","25.0025816666667","6500100","板橋區"
"220081","287-VK","2018/09/28 19:19:21","新北市板橋區南雅西路一段40號","121.453875","25.0046083333333","6500100","板橋區"
"220090","288-VK","2018/09/28 19:19:19","新北市板橋區長江路一段106巷13弄20號","121.460861666667","25.0294416666667","6500100","板橋區"
"220061","293-UM","2018/09/28 19:19:18","新北市板橋區中山路二段326-5號","121.481245","25.0193383333333","6500100","板橋區"
"220103","295-UM","2018/09/28 19:19:09","新北市板橋區介壽街32號","121.468041666667","25.0200133333333","6500100","板橋區"
"220084","296-UM","2018/09/28 19:19:10","新北市板橋區滿平街136巷10弄11號","121.427238333333","24.9872983333333","6500100","板橋區"
"220097","299-UM","2018/09/28 19:17:22","新北市板橋區幸福路60巷5-1號","121.460893333333","25.0204333333333","6500100","板橋區"
"220075","303-R5","2018/09/28 19:19:09","新北市板橋區中正路275巷46號","121.453795","25.0182783333333","6500100","板橋區"
"220062","305-R5","2018/09/28 19:19:07","新北市板橋區三民路二段153巷7弄1號","121.480601666667","25.0150866666667","6500100","板橋區"
"220092","307-R5","2018/09/28 19:19:23","新北市板橋區松江街55號","121.468515","25.0276116666667","6500100","板橋區"
"220098","317-R6","2018/09/28 19:19:17","新北市板橋區四維路249號","121.463621666667","25.027675","6500100","板橋區"
"220064","486-VK","2018/09/28 19:19:19","新北市板橋區縣民大道二段101號","121.466368333333","25.0152966666667","6500100","板橋區"
"220088","491-VK","2018/09/28 19:16:06","新北市板橋區雙十路二段57號","121.476501666667","25.0264866666667","6500100","板橋區"
"220035","560-BX","2018/09/28 19:19:15","新北市板橋區中正路332-11號","121.454271666667","25.0232616666667","6500100","板橋區"
"220063","609-BX","2018/09/28 19:19:11","新北市板橋區三民路二段202-12號","121.478983333333","25.0138883333333","6500100","板橋區"
"220091","637-BX","2018/09/28 19:16:16","新北市板橋區縣民大道三段187巷13號","121.47903","25.025165","6500100","板橋區"
"220057","686-BX","2018/09/28 19:19:16","新北市板橋區五權街1-8號","121.463793333333","24.994915","6500100","板橋區"
"220077","687-BX","2018/09/28 19:19:22","新北市板橋區僑中二街12巷2號","121.446903333333","25.0106583333333","6500100","板橋區"
"220093","689-BX","2018/09/28 19:19:13","新北市板橋區文化路一段309號","121.465781666667","25.0200033333333","6500100","板橋區"
"220054","741-BX","2018/09/28 19:19:19","新北市板橋區光明街142號","121.463758333333","25.003145","6500100","板橋區"
"220102","KEA-2699","2018/09/28 19:11:42","新北市板橋區田單街49巷1弄15號","121.482681666667","25.0287283333333","6500100","板橋區"
"220055","827-TW","2018/09/28 19:19:13","新北市板橋區館前東路156巷21號","121.46424","25.006875","6500100","板橋區"
"220067","830-TW","2018/09/28 19:19:20","新北市板橋區長安街138巷1弄35號","121.473833333333","25.010135","6500100","板橋區"
"220096","831-TW","2018/09/28 19:19:23","新北市板橋區大同街35巷4號","121.477743333333","25.02753","6500100","板橋區"
"220089","833-TW","2018/09/28 19:19:17","新北市板橋區文化路一段479巷44號","121.467786666667","25.0227533333333","6500100","板橋區"
"220074","895-R6","2018/09/28 19:18:40","新北市板橋區中正路1巷18-1號","121.455165","25.0116183333333","6500100","板橋區"
"220073","985-R7","2018/09/28 19:15:51","新北市板橋區新生街92號","121.458208333333","25.0218333333333","6500100","板橋區"
"220070","AAC-253","2018/09/28 19:19:10","新北市板橋區忠孝路136號","121.463565","25.00238","6500100","板橋區"
"235068","KEA-2873","2018/09/28 19:19:10","新北市中和區連城路89巷60號","121.497745","24.998325","6500300","中和區"
"235061","KEA-2875","2018/09/28 19:17:49","新北市中和區員山路471號","121.47993","25.0047483333333","6500300","中和區"
"235060","KEA-2876","2018/09/28 19:18:30","新北市中和區員山路449號","121.480663333333","25.004145","6500300","中和區"
