"lineid","car","time","location","longitude","latitude","cityid","cityname"
"234046","148-BY","2018/09/28 20:19:13","新北市永和區永元路120號","121.522785","25.0026433333333","6500400","永和區"
"234081","298-R6","2018/09/28 20:19:14","新北市永和區福和路19巷1弄5號","121.5243","25.007875","6500400","永和區"
"234038","336-UY","2018/09/28 20:19:20","新北市永和區成功路一段93巷20弄6號","121.527945","25.0026766666667","6500400","永和區"
"234086","338-UY","2018/09/28 20:19:17","新北市永和區福和路139號","121.521023333333","25.007715","6500400","永和區"
"234070","552-UM","2018/09/28 20:19:19","新北市永和區永安街16巷3號","121.519275","25.006215","6500400","永和區"
"234067","553-UM","2018/09/28 20:19:24","新北市永和區保平路268巷14號","121.507955","25.0059816666667","6500400","永和區"
"234017","745-BX","2018/09/28 20:19:16","新北市永和區仁愛路95號","121.512901666667","25.013035","6500400","永和區"
"234030","746-BX","2018/09/28 20:19:15","新北市永和區民有街75巷10弄15號","121.518765","24.9961283333333","6500400","永和區"
"234054","KEA-2590","2018/09/28 20:19:24","新北市永和區光復街2巷26弄1號","121.51762","25.0165566666667","6500400","永和區"
"234013","KEA-2591","2018/09/28 20:19:20","新北市永和區仁愛路276號","121.503753333333","25.0083966666667","6500400","永和區"
"234061","AAD-866","2018/09/28 20:19:11","新北市中和區安樂路251號","121.514121666667","24.9997083333333","6500400","永和區"
"234064","847-RS","2018/09/28 20:19:16","新北市永和區得和路259號","121.521365","24.9998633333333","6500400","永和區"
"234042","862-TW","2018/09/28 20:19:21","新北市中和區中安街168號","121.51081","24.9999316666667","6500400","永和區"
"234050","863-TW","2018/09/28 20:19:07","新北市永和區文化路179號","121.50976","25.0169116666667","6500400","永和區"
"249005","172-UM","2018/09/28 20:19:09","新北市八里區下罟子2-11號","121.388426666667","25.14138","6502300","八里區"
"249001","173-UM","2018/09/28 20:19:06","新北市八里區中華路二段536-4號","121.399113333333","25.145035","6502300","八里區"
"249004","303-UY","2018/09/28 20:19:14","新北市八里區中山路一段129巷19-1號","121.413968333333","25.1586733333333","6502300","八里區"
"249002","305-UY","2018/09/28 20:19:10","新北市八里區龍米路一段426號","121.451043333333","25.1336616666667","6502300","八里區"
"249003","593-UM","2018/09/28 20:19:13","新北市八里區中山路二段447巷28號","121.39739","25.1451983333333","6502300","八里區"
"248018","225-UY","2018/09/28 20:19:21","新北市五股區新五路二段572號","121.442996666667","25.0858216666667","6501500","五股區"
"248012","247-BX","2018/09/28 20:19:19","新北市五股區民義路一段208號","121.430591666667","25.089245","6501500","五股區"
"248002","678-BX","2018/09/28 20:19:10","新北市五股區成泰路三段101-1號","121.443971666667","25.0902366666667","6501500","五股區"
"234023","9380-KE","2018/09/28 20:19:06","新北市永和區永和路二段259號","121.515938333333","25.0152883333333","6500400","永和區"
"234077","969-R7","2018/09/28 20:19:17","新北市永和區智光街115號","121.51569","24.9961033333333","6500400","永和區"
"234074","AAC-211","2018/09/28 20:19:18","新北市永和區豫溪街197號","121.523216666667","25.0098283333333","6500400","永和區"
"234003","AAC-295","2018/09/28 20:19:08","新北市永和區大新街16號","121.515091666667","25.0084833333333","6500400","永和區"
"243013","AAD-798","2018/09/28 20:19:21","新北市泰山區中央路1巷10號","121.42727","25.0438633333333","6501600","泰山區"
"243009","297-R6","2018/09/28 20:19:09","新北市泰山區福泰街17號","121.432866666667","25.0602416666667","6501600","泰山區"
"243016","KEA-2801","2018/09/28 20:19:14","新北市泰山區明志路三段16號","121.424705","25.0432483333333","6501600","泰山區"
"243015","421-VK","2018/09/28 20:19:18","新北市泰山區仁德路80號","121.433011666667","25.0563366666667","6501600","泰山區"
"243011","KEA-2215","2018/09/28 20:19:15","新北市泰山區貴陽街16巷2號","121.422283333333","25.03221","6501600","泰山區"
"243010","KEA-2216","2018/09/28 20:19:22","新北市泰山區明志路二段254號","121.426965","25.0476983333333","6501600","泰山區"
"243012","646-TV","2018/09/28 20:19:14","新北市泰山區楓江路58-5號","121.436105","25.0627466666667","6501600","泰山區"
"243014","680-BX","2018/09/28 20:19:15","新北市泰山區泰林路二段483號","121.425046666667","25.06389","6501600","泰山區"
"222003","436-BY","2018/09/28 20:19:11","新北市深坑區文化街90號","121.617486666667","25.0019","6501800","深坑區"
"222002","659-BX","2018/09/28 20:19:14","新北市深坑區萬福路75巷26號","121.599025","25.0096916666667","6501800","深坑區"
"231059","001-UM","2018/09/28 20:19:09","新北市新店區安成街35號","121.50978","24.961095","6500600","新店區"
"231041","002-UM","2018/09/28 20:19:20","新北市新店區民權路44-1號","121.540266666667","24.9829583333333","6500600","新店區"
"231040","047-UY","2018/09/28 20:19:16","新北市新店區中正路186號","121.5409","24.972195","6500600","新店區"
"231044","106-UY","2018/09/28 20:19:07","新北市新店區北新路三段63號","121.541728333333","24.9809416666667","6500600","新店區"
"231053","110-UY","2018/09/28 20:19:13","新北市新店區松林路6-6號","121.546708333333","24.9111466666667","6500600","新店區"
"231048","187-VK","2018/09/28 20:19:20","新北市新店區寶橋路132號","121.547411666667","24.9760316666667","6500600","新店區"
"231062","188-VK","2018/09/28 20:19:13","新北市新店區安康路三段180號","121.489306666667","24.951805","6500600","新店區"
"231054","KEA-2219","2018/09/28 20:19:14","新北市新店區檳榔路109號","121.544451666667","24.961695","6500600","新店區"
"231057","256-BX","2018/09/28 20:19:18","新北市新店區花園十二路1號","121.55479","24.9347966666667","6500600","新店區"
"231042","268-BY","2018/09/28 20:19:10","新北市新店區中興路二段100巷1號","121.547511666667","24.9716383333333","6500600","新店區"
"231051","278-BY","2018/09/28 20:19:24","新北市新店區中央六街87號","121.526493333333","24.9768233333333","6500600","新店區"
"231050","AAD-862","2018/09/28 20:19:20","新北市新店區博愛街13巷1號","121.541043333333","24.9733183333333","6500600","新店區"
"231058","3713-VJ","2018/09/28 20:19:20","新北市新店區中央路11號","121.533361666667","24.9785","6500600","新店區"
"231066","4716-K9","2018/09/28 20:19:23","新北市新店區安興路69號","121.515941666667","24.9751783333333","6500600","新店區"
"231056","4715-K9","2018/09/28 20:19:19","新北市新店區中正路328巷40號","121.538095","24.9764066666667","6500600","新店區"
"231067","4772-VM","2018/09/28 20:19:10","新北市新店區安康路一段226號","121.52368","24.963565","6500600","新店區"
"231065","512-UM","2018/09/28 20:19:04","新北市新店區安祥路104-8號","121.479443333333","24.9621583333333","6500600","新店區"
"231049","513-UM","2018/09/28 20:19:21","新北市新店區光明街227號","121.540183333333","24.964325","6500600","新店區"
"231063","616-UM","2018/09/28 20:19:24","新北市新店區薏仁坑路8-2號","121.499345","24.95897","6500600","新店區"
"231061","619-UM","2018/09/28 20:19:11","新北市新店區安民街133巷26號","121.515326666667","24.969545","6500600","新店區"
"231068","718-UY","2018/09/28 20:19:10","新北市新店區寶安街30號","121.542001666667","24.9823433333333","6500600","新店區"
"231064","719-UM","2018/09/28 20:19:16","新北市新店區安業街8巷1號","121.515885","24.9772533333333","6500600","新店區"
"231060","897-TW","2018/09/28 20:19:14","新北市新店區錦秀路11巷64號","121.480703333333","24.943615","6500600","新店區"
"231045","898-TW","2018/09/28 20:19:20","新北市新店區新坡一街84號","121.548208333333","24.9619366666667","6500600","新店區"
"231043","899-TW","2018/09/28 20:19:07","新北市新店區建國路116號","121.539325","24.9784683333333","6500600","新店區"
"231055","AKT-0513","2018/09/28 20:19:11","新北市新店區安康路一段351-1號","121.519346666667","24.9640316666667","6500600","新店區"
"241011","013-R5","2018/09/28 20:19:13","新北市三重區龍門路203號","121.499835","25.0733816666667","6500200","三重區"
"241028","022-UY","2018/09/28 20:19:04","新北市三重區大同南路128號","121.496353333333","25.05832","6500200","三重區"
"241008","059-VK","2018/09/28 20:19:07","新北市三重區永福街211巷1號","121.479841666667","25.0742816666667","6500200","三重區"
"241022","060-VK","2018/09/28 20:19:16","新北市三重區新北大道一段42號","121.487891666667","25.061435","6500200","三重區"
"241031","061-VK","2018/09/28 20:19:22","新北市三重區三寧街15號","121.48944","25.0597666666667","6500200","三重區"
"241017","063-VK","2018/09/28 20:19:16","新北市三重區自強路一段165號","121.493133333333","25.067265","6500200","三重區"
"241024","065-VK","2018/09/28 20:19:21","新北市三重區忠孝路三段1號","121.481796666667","25.0675416666667","6500200","三重區"
"241026","066-VK","2018/09/28 20:19:20","新北市三重區重新路一段16號","121.503836666667","25.0638333333333","6500200","三重區"
"241002","090-VK","2018/09/28 20:19:15","新北市三重區五華街21巷5號","121.495096666667","25.0807333333333","6500200","三重區"
"241003","091-VK","2018/09/28 20:19:15","新北市三重區仁愛街445巷28號","121.491068333333","25.0831766666667","6500200","三重區"
"241005","262-UM","2018/09/28 20:19:23","新北市三重區分子尾街79巷3號","121.489183333333","25.0825116666667","6500200","三重區"
"241016","266-UM","2018/09/28 20:19:15","新北市三重區大同北路97號","121.494555","25.0636566666667","6500200","三重區"
"241009","267-UM","2018/09/28 20:19:25","新北市三重區三和路四段382巷38號","121.481476666667","25.0785116666667","6500200","三重區"
"241032","269-UM","2018/09/28 20:19:10","新北市三重區捷運路19巷8弄9號","121.48447","25.0573516666667","6500200","三重區"
"241013","270-UM","2018/09/28 20:19:10","新北市三重區三和路三段167巷2號","121.492006666667","25.074125","6500200","三重區"
"241025","271-UM","2018/09/28 20:19:14","新北市三重區三民街237號","121.480098333333","25.0673916666667","6500200","三重區"
"241007","398-BY","2018/09/28 20:19:15","新北市三重區溪尾街108巷49號","121.48772","25.0783466666667","6500200","三重區"
"241035","462-BY","2018/09/28 20:19:13","新北市三重區正義北路33巷48號","121.499015","25.063965","6500200","三重區"
"241004","475-VK","2018/09/28 20:19:07","新北市三重區仁愛街390號","121.49083","25.0808733333333","6500200","三重區"
"241020","478-VK","2018/09/28 20:19:25","新北市三重區三和路三段172-1號","121.49238","25.0730333333333","6500200","三重區"
"241030","480-VK","2018/09/28 20:19:11","新北市三重區環河南路254巷53號","121.488038333333","25.0523","6500200","三重區"
"241014","543-UM","2018/09/28 20:19:20","新北市三重區長榮路97號","121.502961666667","25.0692133333333","6500200","三重區"
"241023","545-UM","2018/09/28 20:19:18","新北市三重區忠孝路三段84巷5號","121.480188333333","25.0642916666667","6500200","三重區"
"241001","547-UM","2018/09/28 20:19:16","新北市三重區溪尾街42-1號","121.490943333333","25.0769083333333","6500200","三重區"
"241033","557-UM","2018/09/28 20:17:13","新北市三重區五谷王北街77號","121.475958333333","25.050135","6500200","三重區"
"241019","KEA-2593","2018/09/28 20:19:22","新北市三重區忠孝路一段32號","121.491561666667","25.07185","6500200","三重區"
"241006","AAD-863","2018/09/28 20:19:21","新北市三重區車路頭街139巷14號","121.484316666667","25.076265","6500200","三重區"
"241015","743-BX","2018/09/28 20:19:20","新北市三重區文化北路2號","121.49969","25.0632566666667","6500200","三重區"
"241018","887-TS","2018/09/28 20:19:22","新北市三重區自強路一段236號","121.49323","25.0670283333333","6500200","三重區"
"241012","941-UM","2018/09/28 20:19:15","新北市三重區河邊北街379-1號","121.501696666667","25.07651","6500200","三重區"
"241029","942-UM","2018/09/28 20:19:16","新北市三重區重安街98號","121.492628333333","25.0562633333333","6500200","三重區"
"235066","003-UY","2018/09/28 20:19:12","新北市中和區南工路87號","121.507101666667","25.003025","6500300","中和區"
"235039","097-UM","2018/09/28 20:19:06","新北市中和區大勇街29巷12-2號","121.515893333333","24.9946266666667","6500300","中和區"
"235065","098-UM","2018/09/28 20:19:04","新北市中和區橋和路300號","121.496931666667","25.006955","6500300","中和區"
"247012","KEA-2869","2018/09/28 20:19:24","新北市蘆洲區中興街13號","121.480518333333","25.0870316666667","6501400","蘆洲區"
"235050","4979-A6","2018/09/28 20:19:22","新北市中和區景平路464巷2弄2號","121.505798333333","24.9938316666667","6500300","中和區"
"235069","4980-A6","2018/09/28 20:19:12","新北市中和區圓通路198巷2號","121.496208333333","24.994455","6500300","中和區"
"235054","640-BX","2018/09/28 20:19:17","新北市樹林區田尾街153-25-3號","121.403695","24.9506783333333","6500300","中和區"
"235059","AAC-215","2018/09/28 20:19:19","新北市中和區員山路30-2號","121.48312","24.9878683333333","6500300","中和區"
"247002","893-R6","2018/09/28 20:19:14","新北市蘆洲區長安街331巷2號","121.457035","25.08669","6501400","蘆洲區"
"247016","546-UM","2018/09/28 20:19:09","新北市蘆洲區光華路132巷39號","121.46585","25.08375","6501400","蘆洲區"
"247014","339-TH","2018/09/28 20:19:22","新北市蘆洲區中山一路284號","121.470993333333","25.0791016666667","6501400","蘆洲區"
"247006","337-TH","2018/09/28 20:19:15","新北市蘆洲區九芎街140號","121.464893333333","25.078975","6501400","蘆洲區"
"247008","336-TH","2018/09/28 20:19:07","新北市蘆洲區集賢路238號","121.48207","25.0858683333333","6501400","蘆洲區"
"247020","057-VK","2018/09/28 20:19:18","新北市蘆洲區仁愛街57號","121.471855","25.09333","6501400","蘆洲區"
"247010","056-VK","2018/09/28 20:19:21","新北市蘆洲區信義路275號","121.478928333333","25.0851066666667","6501400","蘆洲區"
"247018","007-UY","2018/09/28 20:19:22","新北市蘆洲區民族路253號","121.47666","25.09038","6501400","蘆洲區"
"247004","002-UY","2018/09/28 20:19:23","新北市蘆洲區長安街299巷7號","121.457541666667","25.0846683333333","6501400","蘆洲區"
"247022","001-UY","2018/09/28 20:19:17","新北市蘆洲區三民路263號","121.468096666667","25.089215","6501400","蘆洲區"
"222001","KEA-2212","2018/09/28 20:19:16","新北市深坑區北深路三段247號","121.599373333333","25.0041366666667","6501800","深坑區"
"251009","008-UM","2018/09/28 20:19:22","新北市淡水區中正東路36-1號","121.448831666667","25.16574","6501000","淡水區"
"251001","011-UM","2018/09/28 20:19:15","新北市淡水區新市二路四段265號","121.445753333333","25.1924783333333","6501000","淡水區"
"251008","KEA-2871","2018/09/28 20:19:21","新北市淡水區淡海路180巷37號","121.422161666667","25.1844983333333","6501000","淡水區"
"251010","413-VK","2018/09/28 20:19:13","新北市淡水區新民街一段134號","121.427593333333","25.1888616666667","6501000","淡水區"
"251012","441-VK","2018/09/28 20:19:18","新北市淡水區下圭柔山431-1號","121.449796666667","25.21026","6501000","淡水區"
"251004","443-VK","2018/09/28 20:19:17","新北市淡水區中正東路二段143巷6弄5號","121.461311666667","25.1468133333333","6501000","淡水區"
"251006","561-UM","2018/09/28 20:19:07","新北市淡水區淡金路一段571號","121.4526","25.18051","6501000","淡水區"
"251002","672-BX","2018/09/28 20:19:20","新北市淡水區中正路188號","121.440145","25.1699083333333","6501000","淡水區"
"251003","673-BX","2018/09/28 20:19:09","新北市淡水區中山北路一段229號","121.444456666667","25.1794366666667","6501000","淡水區"
"207004","291-VK","2018/09/28 20:19:23","新北市萬里區北基里仁一街2號","121.68292","25.1757383333333","6502800","萬里區"
"252002","178-VK","2018/09/28 20:19:17","新北市三芝區中正路一段25號","121.502995","25.2586033333333","6502100","三芝區"
"252001","292-VK","2018/09/28 20:19:17","新北市三芝區中山路一段14號","121.500665","25.2581033333333","6502100","三芝區"
"237006","5529-G3","2018/09/28 20:19:16","新北市三峽區中正路二段39號","121.366736666667","24.91889","6500900","三峽區"
"237005","AKY-6261","2018/09/28 20:18:48","新北市三峽區三樹路98巷102-2號","121.38584","24.9399666666667","6500900","三峽區"
"236069","105-UM","2018/09/28 20:19:18","新北市土城區中山路22號","121.422128333333","24.9631166666667","6501300","土城區"
"236026","269-VK","2018/09/28 20:19:23","新北市土城區裕生路82巷14號","121.446918333333","24.9858983333333","6501300","土城區"
"236014","270-VK","2018/09/28 20:19:26","新北市土城區廣明街90巷23號","121.455443333333","24.9945983333333","6501300","土城區"
"242037","AAC-296","2018/09/28 20:19:12","新北市新莊區後港一路56巷24弄12號","121.426198333333","25.0252266666667","6500500","新莊區"
"242058","986-R7","2018/09/28 20:19:07","新北市新莊區八德街169號","121.423361666667","25.019025","6500500","新莊區"
"242056","751-BX","2018/09/28 20:19:21","新北市新莊區新莊路649巷26弄33號","121.444388333333","25.0320016666667","6500500","新莊區"
"242029","705-TV","2018/09/28 20:19:22","新北市新莊區中華路二段175號","121.452685","25.0519566666667","6500500","新莊區"
"242027","615-BX","2018/09/28 20:19:23","新北市新莊區幸福路540號","121.455386666667","25.049405","6500500","新莊區"
"242025","613-BX","2018/09/28 20:19:18","新北市新莊區五工一路80巷17號","121.461351666667","25.0669133333333","6500500","新莊區"
"242044","566-BX","2018/09/28 20:19:19","新北市新莊區中正路新建巷28弄20號","121.413581666667","25.0213916666667","6500500","新莊區"
"242048","497-BY","2018/09/28 20:19:24","新北市樹林區三俊街199巷20弄35號","121.422115","25.0172733333333","6500500","新莊區"
"242054","441-UM","2018/09/28 20:19:20","新北市新莊區西盛街367號","121.428001666667","25.013635","6500500","新莊區"
"242002","440-UM","2018/09/28 20:19:15","新北市新莊區化成路31號","121.465143333333","25.0439383333333","6500500","新莊區"
"242039","415-TV","2018/09/28 20:19:16","新北市新莊區成功街85號","121.424345","25.01898","6500500","新莊區"
"242009","413-TV","2018/09/28 20:19:17","新北市新莊區昌隆街58巷1弄12號","121.455445","25.0505466666667","6500500","新莊區"
"242046","400-BY","2018/09/28 20:19:14","新北市新莊區中正路新生巷33號","121.417166666667","25.0234466666667","6500500","新莊區"
"242023","362-BY","2018/09/28 20:19:11","新北市新莊區化成路858號","121.464736666667","25.0608566666667","6500500","新莊區"
"242060","353-BY","2018/09/28 20:19:06","新北市新莊區新樹路208號","121.434","25.02058","6500500","新莊區"
"242011","132-UY","2018/09/28 20:19:23","新北市新莊區中信街27號","121.450755","25.0507933333333","6500500","新莊區"
"242041","133-UY","2018/09/28 20:19:16","新北市新莊區中正路694巷77號","121.417048333333","25.029655","6500500","新莊區"
"242034","135-UY","2018/09/28 20:19:06","新北市新莊區建中街90巷7弄2號","121.446753333333","25.0378","6500500","新莊區"
"242050","172-VK","2018/09/28 20:19:15","新北市新莊區民安西路252巷14號","121.425093333333","25.01395","6500500","新莊區"
"242013","173-VK","2018/09/28 20:19:08","新北市新莊區中和街186巷15號","121.448091666667","25.04977","6500500","新莊區"
"242019","175-VK","2018/09/28 20:19:12","新北市新莊區復興路二段196巷1號","121.459378333333","25.0440716666667","6500500","新莊區"
"242017","346-TH","2018/09/28 20:19:24","新北市新莊區中港二街117號","121.448811666667","25.0456433333333","6500500","新莊區"
"242032","347-TH","2018/09/28 20:19:11","新北市新莊區義豐街29號","121.441141666667","25.0352283333333","6500500","新莊區"
"242005","349-TH","2018/09/28 20:19:23","新北市三重區中興北街60巷12號","121.468065","25.0518866666667","6500500","新莊區"
"242021","350-TH","2018/09/28 20:19:15","新北市新莊區復興路一段7號","121.445611666667","25.04165","6500500","新莊區"
"242015","351-TH","2018/09/28 20:19:20","新北市新莊區永樂街237巷2號","121.446316666667","25.0443416666667","6500500","新莊區"
"221008","489-VK","2018/09/28 20:19:21","新北市汐止區康寧街309號","121.627338333333","25.0674683333333","6501100","汐止區"
"221036","130-UY","2018/09/28 20:19:11","新北市汐止區福安街37巷12號","121.663421666667","25.0652116666667","6501100","汐止區"
"221015","131-UY","2018/09/28 20:19:12","新北市汐止區建成路142巷19弄11號","121.661971666667","25.0738166666667","6501100","汐止區"
"221010","269-BY","2018/09/28 20:19:03","新北市汐止區八連路二段494號","121.628861666667","25.10592","6501100","汐止區"
"221012","278-VK","2018/09/28 20:19:08","新北市汐止區保新街133-1號","121.688043333333","25.070455","6501100","汐止區"
"221023","279-VK","2018/09/28 20:19:22","新北市汐止區湖東街8號","121.633515","25.071955","6501100","汐止區"
"221032","280-BY","2018/09/28 20:19:12","新北市汐止區民權街二段46號","121.61941","25.0492033333333","6501100","汐止區"
"221027","281-BY","2018/09/28 20:19:17","新北市汐止區大同路二段460號","121.659886666667","25.0677666666667","6501100","汐止區"
"221029","298-VK","2018/09/28 20:19:14","新北市汐止區工建路46號","121.641151666667","25.0632916666667","6501100","汐止區"
"221021","299-VK","2018/09/28 20:19:27","新北市汐止區水源路一段280號","121.654225","25.0583566666667","6501100","汐止區"
"221031","353-TW","2018/09/28 20:19:12","新北市汐止區中興路110巷9弄2號","121.63372","25.06419","6501100","汐止區"
"221035","622-UM","2018/09/28 20:19:13","新北市汐止區長江街101-5號","121.6587","25.0732733333333","6501100","汐止區"
"221025","623-UM","2018/09/28 20:19:22","新北市汐止區水源路二段30號","121.65483","25.0573333333333","6501100","汐止區"
"221038","646-BX","2018/09/28 20:19:12","新北市汐止區茄苳路43號","121.665833333333","25.0709266666667","6501100","汐止區"
"221002","707-TV","2018/09/28 20:19:20","新北市汐止區福德一路68號","121.637931666667","25.06886","6501100","汐止區"
"221018","753-BX","2018/09/28 20:19:23","新北市汐止區茄安路43號","121.674108333333","25.06873","6501100","汐止區"
"220101","245-BX","2018/09/28 20:19:20","新北市板橋區雙十路一段44巷36號","121.477431666667","25.0249916666667","6500100","板橋區"
"220083","286-VK","2018/09/28 20:19:09","新北市板橋區僑中二街108巷17號","121.444971666667","25.0072333333333","6500100","板橋區"
"220061","293-UM","2018/09/28 20:19:18","新北市板橋區四川路一段176號","121.459903333333","25.0028516666667","6500100","板橋區"
"220103","295-UM","2018/09/28 20:19:25","新北市板橋區陽明街27巷10號","121.465286666667","25.02145","6500100","板橋區"
"220097","299-UM","2018/09/28 20:19:18","新北市板橋區公館街94-1號","121.461295","25.01666","6500100","板橋區"
"242007","280-VK","2018/09/28 20:19:06","新北市新莊區福壽街87號","121.45815","25.0501233333333","6500500","新莊區"
"220102","KEA-2699","2018/09/28 20:19:22","新北市板橋區文化路一段295號","121.464881666667","25.0188016666667","6500100","板橋區"
"220089","833-TW","2018/09/28 20:19:16","新北市板橋區四維路137巷25號","121.463958333333","25.0247033333333","6500100","板橋區"
"220070","AAC-253","2018/09/28 20:19:20","新北市板橋區四川路二段245巷3號","121.450565","24.9933783333333","6500100","板橋區"
"235068","KEA-2873","2018/09/28 20:19:10","新北市中和區勝利路35巷1弄19號","121.499636666667","25.007685","6500300","中和區"
"235061","KEA-2875","2018/09/28 20:19:04","新北市中和區員山路220號","121.481231666667","25.0010883333333","6500300","中和區"
