"lineid","car","time","location","longitude","latitude","cityid","cityname"
"234030","746-BX","2018/09/28 20:49:15","新北市五股區成泰路三段544-1號","121.453716666667","25.1016216666667","6500400","永和區"
"234074","AAC-211","2018/09/28 20:49:18","新北市永和區竹林路91巷60弄70號","121.522848333333","25.01223","6500400","永和區"
"222003","436-BY","2018/09/28 20:49:11","新北市深坑區文山路三段48-1號","121.609865","24.998515","6501800","深坑區"
"222002","659-BX","2018/09/28 20:49:24","新北市深坑區北深路三段93巷11號","121.605386666667","25.0010266666667","6501800","深坑區"
"231059","001-UM","2018/09/28 20:49:09","新北市新店區僑愛一路3號","121.49982","24.9450433333333","6500600","新店區"
"231040","047-UY","2018/09/28 20:49:16","新北市新店區中正路255號","121.538873333333","24.9735166666667","6500600","新店區"
"231044","106-UY","2018/09/28 20:49:07","新北市新店區自由街2-1號","121.535548333333","24.9755716666667","6500600","新店區"
"231053","110-UY","2018/09/28 20:49:13","新北市新店區新烏路一段171號","121.54501","24.93449","6500600","新店區"
"231048","187-VK","2018/09/28 20:49:20","新北市新店區寶元路一段109號","121.545691666667","24.9831266666667","6500600","新店區"
"231062","188-VK","2018/09/28 20:49:13","新北市新店區和成街19巷24號","121.487655","24.9460683333333","6500600","新店區"
"231054","KEA-2219","2018/09/28 20:49:14","新北市新店區北新路一段96巷23號","121.542956666667","24.9690283333333","6500600","新店區"
"231057","256-BX","2018/09/28 20:49:18","新北市新店區新烏路一段58-5號","121.546161666667","24.9492666666667","6500600","新店區"
"231042","268-BY","2018/09/28 20:49:10","新北市新店區寶高路120巷1號","121.554568333333","24.9760516666667","6500600","新店區"
"231051","278-BY","2018/09/28 20:49:24","新北市新店區中正路663巷3弄8號","121.5332","24.990265","6500600","新店區"
"231050","AAD-862","2018/09/28 20:49:20","新北市新店區三民路39號","121.537301666667","24.9707566666667","6500600","新店區"
"231058","3713-VJ","2018/09/28 20:49:20","新北市新店區安和路三段1號","121.517351666667","24.97967","6500600","新店區"
"231066","4716-K9","2018/09/28 20:49:23","新北市新店區安興路112號","121.514543333333","24.9776583333333","6500600","新店區"
"231056","4715-K9","2018/09/28 20:49:19","新北市新店區光華街38巷3號","121.515591666667","24.9698316666667","6500600","新店區"
"231067","4772-VM","2018/09/28 20:49:10","新北市新店區安華路28-1號","121.519696666667","24.9606616666667","6500600","新店區"
"231065","512-UM","2018/09/28 20:49:24","新北市新店區安祥路69巷17號","121.481903333333","24.9613316666667","6500600","新店區"
"231049","513-UM","2018/09/28 20:49:21","新北市新店區華城路16-1號","121.529185","24.9575366666667","6500600","新店區"
"231063","616-UM","2018/09/28 20:49:20","新北市新店區如意街27號","121.49431","24.948225","6500600","新店區"
"231061","619-UM","2018/09/28 20:49:11","新北市新店區新和街80號","121.520403333333","24.98585","6500600","新店區"
"231068","718-UY","2018/09/28 20:49:10","新北市新店區寶元路二段11號","121.546103333333","24.9823483333333","6500600","新店區"
"231064","719-UM","2018/09/28 20:48:56","新北市新店區安民街389號","121.516085","24.9770616666667","6500600","新店區"
"231060","897-TW","2018/09/28 20:49:14","新北市新店區安康路三段738號","121.473878333333","24.941975","6500600","新店區"
"231045","898-TW","2018/09/28 20:49:20","新北市新店區檳榔路2號","121.540936666667","24.9649183333333","6500600","新店區"
"231043","899-TW","2018/09/28 20:49:07","新北市新店區建國路99巷1號","121.540423333333","24.97706","6500600","新店區"
"241011","013-R5","2018/09/28 20:49:13","新北市三重區龍濱路128號","121.501803333333","25.0716583333333","6500200","三重區"
"241028","022-UY","2018/09/28 20:49:24","新北市三重區中正南路50號","121.493905","25.0599183333333","6500200","三重區"
"241008","059-VK","2018/09/28 20:49:07","新北市三重區永福街72巷11號","121.479413333333","25.0767916666667","6500200","三重區"
"241022","060-VK","2018/09/28 20:49:16","新北市三重區過圳街27-5號","121.487913333333","25.0624033333333","6500200","三重區"
"241031","061-VK","2018/09/28 20:49:22","新北市三重區重陽路一段113巷1弄1號","121.487503333333","25.0598216666667","6500200","三重區"
"241017","063-VK","2018/09/28 20:49:16","新北市三重區自強路一段270號","121.492243333333","25.0676966666667","6500200","三重區"
"241024","065-VK","2018/09/28 20:49:21","新北市三重區中正北路253號","121.475533333333","25.0708283333333","6500200","三重區"
"241026","066-VK","2018/09/28 20:49:20","新北市三重區文化南路7號","121.500015","25.0623633333333","6500200","三重區"
"241002","090-VK","2018/09/28 20:48:36","新北市三重區仁義街157巷65號","121.498578333333","25.0817283333333","6500200","三重區"
"241005","262-UM","2018/09/28 20:49:23","新北市三重區五華街145號","121.490913333333","25.0847066666667","6500200","三重區"
"241016","266-UM","2018/09/28 20:49:15","新北市三重區自強路一段236號","121.493355","25.067055","6500200","三重區"
"241009","267-UM","2018/09/28 20:49:05","新北市三重區三和路四段388-2號","121.482096666667","25.0791","6500200","三重區"
"241032","269-UM","2018/09/28 20:49:10","新北市三重區重陽路一段120巷44號","121.48514","25.060115","6500200","三重區"
"241013","270-UM","2018/09/28 20:49:10","新北市三重區仁賢街6號","121.495625","25.0748383333333","6500200","三重區"
"241025","271-UM","2018/09/28 20:49:14","新北市三重區貴陽街18-1號","121.484216666667","25.061885","6500200","三重區"
"241007","398-BY","2018/09/28 20:49:15","新北市三重區慈愛街8號","121.484526666667","25.07838","6500200","三重區"
"241035","462-BY","2018/09/28 20:49:13","新北市三重區文化北路141號","121.497626666667","25.069245","6500200","三重區"
"241004","475-VK","2018/09/28 20:49:07","新北市三重區分子尾街19號","121.489528333333","25.0810233333333","6500200","三重區"
"241020","478-VK","2018/09/28 20:49:25","新北市三重區忠孝路一段101號","121.489446666667","25.07217","6500200","三重區"
"241030","480-VK","2018/09/28 20:49:11","新北市三重區昌隆街26號","121.491975","25.0522516666667","6500200","三重區"
"241014","543-UM","2018/09/28 20:49:19","新北市三重區萬全街55號","121.501115","25.070185","6500200","三重區"
"241023","545-UM","2018/09/28 20:49:18","新北市三重區忠孝路三段84巷1號","121.480261666667","25.06455","6500200","三重區"
"241001","547-UM","2018/09/28 20:49:16","新北市三重區三和路四段120號","121.489351666667","25.07496","6500200","三重區"
"241033","557-UM","2018/09/28 20:25:13","新北市三重區五谷王北街58巷8號","121.475595","25.0517883333333","6500200","三重區"
"241019","KEA-2593","2018/09/28 20:49:22","新北市三重區三張街104號","121.487908333333","25.06996","6500200","三重區"
"241006","AAD-863","2018/09/28 20:49:21","新北市三重區車路頭街139巷14號","121.48431","25.0762716666667","6500200","三重區"
"241015","743-BX","2018/09/28 20:49:20","新北市三重區三和路二段156號","121.49947","25.0684883333333","6500200","三重區"
"241018","887-TS","2018/09/28 20:49:22","新北市三重區正義北路268號","121.495916666667","25.068815","6500200","三重區"
"241012","941-UM","2018/09/28 20:49:15","新北市三重區仁信街29號","121.501251666667","25.07552","6500200","三重區"
"241029","942-UM","2018/09/28 20:49:12","新北市三重區重安街14號","121.490316666667","25.058175","6500200","三重區"
"247012","KEA-2869","2018/09/28 20:49:23","新北市三重區集賢路186號","121.48402","25.088465","6501400","蘆洲區"
"235069","4980-A6","2018/09/28 20:49:12","新北市中和區連城路308號","121.483665","24.9964416666667","6500300","中和區"
"247002","893-R6","2018/09/28 20:49:17","新北市蘆洲區長安街240號","121.457698333333","25.0857016666667","6501400","蘆洲區"
"247016","546-UM","2018/09/28 20:49:09","新北市蘆洲區中正路69號","121.470415","25.0827366666667","6501400","蘆洲區"
"247014","339-TH","2018/09/28 20:49:22","新北市蘆洲區三民路95號","121.4739","25.084915","6501400","蘆洲區"
"247006","337-TH","2018/09/28 20:49:14","新北市蘆洲區永安南路二段16巷8號","121.467773333333","25.0772633333333","6501400","蘆洲區"
"247008","336-TH","2018/09/28 20:49:07","新北市三重區三和路四段237號","121.481006666667","25.0803566666667","6501400","蘆洲區"
"247020","057-VK","2018/09/28 20:49:18","新北市蘆洲區仁愛街60號","121.471571666667","25.0938483333333","6501400","蘆洲區"
"247010","056-VK","2018/09/28 20:49:21","新北市蘆洲區鷺江街93號","121.476905","25.0838216666667","6501400","蘆洲區"
"247004","002-UY","2018/09/28 20:49:23","新北市蘆洲區長安街100號","121.461576666667","25.0809366666667","6501400","蘆洲區"
"247022","001-UY","2018/09/28 20:48:57","新北市蘆洲區民權路131巷10號","121.47131","25.08998","6501400","蘆洲區"
"222001","KEA-2212","2018/09/28 20:49:16","新北市深坑區北深路三段133號","121.604018333333","25.002495","6501800","深坑區"
"251009","008-UM","2018/09/28 20:49:22","新北市淡水區民權路187巷17號","121.460271666667","25.1334833333333","6501000","淡水區"
"251001","011-UM","2018/09/28 20:49:15","新北市淡水區淡金路一段69號","121.45871","25.1731266666667","6501000","淡水區"
"251010","413-VK","2018/09/28 20:49:13","新北市淡水區沙崙路145號","121.423395","25.1830216666667","6501000","淡水區"
"251012","441-VK","2018/09/28 20:49:18","新北市淡水區淡金路四段493號","121.452038333333","25.224715","6501000","淡水區"
"251007","577-R6","2018/09/28 20:49:15","新北市淡水區鄧公路29巷14號","121.452201666667","25.17018","6501000","淡水區"
"251011","650-BX","2018/09/28 20:49:09","新北市淡水區新民街一段23號","121.432613333333","25.1851966666667","6501000","淡水區"
"251002","672-BX","2018/09/28 20:49:16","新北市淡水區鼻頭街18-1號","121.446806666667","25.1666783333333","6501000","淡水區"
"251003","673-BX","2018/09/28 20:49:09","新北市淡水區中山北路一段247巷112號","121.441801666667","25.1795066666667","6501000","淡水區"
"242037","AAC-296","2018/09/28 20:49:17","新北市新莊區中正路461號","121.442353333333","25.0339616666667","6500500","新莊區"
"242029","705-TV","2018/09/28 20:49:15","新北市新莊區化成路163號","121.465641666667","25.0493266666667","6500500","新莊區"
"242027","615-BX","2018/09/28 20:49:19","新北市五股區中興路三段2巷10號","121.448235","25.0828216666667","6500500","新莊區"
"242044","566-BX","2018/09/28 20:49:19","新北市新莊區龍安路108號","121.418341666667","25.0204566666667","6500500","新莊區"
"242054","441-UM","2018/09/28 20:49:20","新北市新莊區環河路508-1號","121.438431666667","25.0152166666667","6500500","新莊區"
"242046","400-BY","2018/09/28 20:49:14","新北市新莊區富國路22巷19號","121.418365","25.0258066666667","6500500","新莊區"
"242023","362-BY","2018/09/28 20:49:11","新北市三重區興德路121號","121.470961666667","25.0529166666667","6500500","新莊區"
"242011","132-UY","2018/09/28 20:49:23","新北市五股區成泰路一段8巷24號","121.437935","25.066615","6500500","新莊區"
"242041","133-UY","2018/09/28 20:49:16","新北市新莊區福營路32號","121.439621666667","25.0327766666667","6500500","新莊區"
"242050","172-VK","2018/09/28 20:49:15","新北市新莊區新樹路73號","121.437763333333","25.027675","6500500","新莊區"
"242032","347-TH","2018/09/28 20:49:11","新北市新莊區中正路535-11號","121.437495","25.0329916666667","6500500","新莊區"
"242005","349-TH","2018/09/28 20:49:04","新北市五股區中直路21號","121.420733333333","25.1122133333333","6500500","新莊區"
"221027","281-BY","2018/09/28 20:49:18","新北市汐止區大同路二段361號","121.657211666667","25.067265","6501100","汐止區"
"221029","298-VK","2018/09/28 20:49:14","新北市汐止區工建路366號","121.633241666667","25.0593683333333","6501100","汐止區"
"221035","622-UM","2018/09/28 20:49:13","新北市汐止區汐萬路一段312號","121.65066","25.0753266666667","6501100","汐止區"
"221038","646-BX","2018/09/28 20:49:12","新北市汐止區汐萬路一段256巷3號","121.65205","25.0747633333333","6501100","汐止區"
"221002","707-TV","2018/09/28 20:49:20","新北市汐止區福德二路二段170號","121.629245","25.0648616666667","6501100","汐止區"
"221018","753-BX","2018/09/28 20:49:23","新北市汐止區汐萬路一段81號","121.654501666667","25.0703666666667","6501100","汐止區"
"220083","286-VK","2018/09/28 20:49:09","新北市樹林區中山路三段210-2號","121.380558333333","24.967945","6500100","板橋區"
