"lineid","car","time","location","longitude","latitude","cityid","cityname"
"231059","001-UM","2018/09/28 20:59:09","新北市新店區僑信路130號","121.500743333333","24.9458616666667","6500600","新店區"
"231040","047-UY","2018/09/28 20:59:21","新北市新店區中正路234號","121.539841666667","24.9729166666667","6500600","新店區"
"231053","110-UY","2018/09/28 20:59:13","新北市新店區北宜路一段286號","121.546805","24.9526433333333","6500600","新店區"
"231048","187-VK","2018/09/28 20:59:20","新北市新店區寶元路一段109號","121.545688333333","24.9831416666667","6500600","新店區"
"231062","188-VK","2018/09/28 20:59:13","新北市新店區裕合街116號","121.490313333333","24.9490766666667","6500600","新店區"
"231054","KEA-2219","2018/09/28 20:59:14","新北市新店區北新路一段96巷23號","121.54308","24.9687233333333","6500600","新店區"
"231042","268-BY","2018/09/28 20:59:10","新北市新店區寶高路102巷20號","121.552543333333","24.9740266666667","6500600","新店區"
"231051","278-BY","2018/09/28 20:59:24","新北市新店區中正路663巷1弄31號","121.532413333333","24.9896916666667","6500600","新店區"
"231050","AAD-862","2018/09/28 20:59:20","新北市新店區三民路75巷2弄2號","121.535758333333","24.9711833333333","6500600","新店區"
"231066","4716-K9","2018/09/28 20:59:23","新北市新店區安康路二段16巷48號","121.516803333333","24.96569","6500600","新店區"
"231067","4772-VM","2018/09/28 20:59:10","新北市新店區安康路二段128號","121.51272","24.9625316666667","6500600","新店區"
"231065","512-UM","2018/09/28 20:59:24","新北市新店區安祥路67巷28弄1號","121.484818333333","24.9594166666667","6500600","新店區"
"231063","616-UM","2018/09/28 20:59:24","新北市新店區玫瑰路58巷3號","121.495355","24.94654","6500600","新店區"
"231061","619-UM","2018/09/28 20:59:11","新北市新店區永安街109巷22號","121.521465","24.9858733333333","6500600","新店區"
"231068","718-UY","2018/09/28 20:59:10","新北市新店區寶中路45-3號","121.545136666667","24.9791033333333","6500600","新店區"
"231064","719-UM","2018/09/28 20:57:15","新北市新店區安民街303巷9弄2號","121.516886666667","24.9734616666667","6500600","新店區"
"231060","897-TW","2018/09/28 20:59:14","新北市新店區安康路三段421-1號","121.483086666667","24.9497266666667","6500600","新店區"
"231045","898-TW","2018/09/28 20:59:20","新北市新店區吉安街41號","121.515166666667","24.9661233333333","6500600","新店區"
"231043","899-TW","2018/09/28 20:59:07","新北市新店區中央路143號","121.53018","24.973545","6500600","新店區"
"241011","013-R5","2018/09/28 20:59:13","新北市三重區秀江街119號","121.499713333333","25.0721783333333","6500200","三重區"
"241028","022-UY","2018/09/28 20:59:04","新北市三重區重新路二段126號","121.496306666667","25.0616916666667","6500200","三重區"
"241008","059-VK","2018/09/28 20:59:07","新北市三重區車路頭街139巷2號","121.483875","25.0763383333333","6500200","三重區"
"241022","060-VK","2018/09/28 20:59:16","新北市三重區過圳街27-5號","121.487905","25.0623916666667","6500200","三重區"
"241031","061-VK","2018/09/28 20:59:22","新北市三重區重陽路一段113巷3號","121.487536666667","25.059795","6500200","三重區"
"241017","063-VK","2018/09/28 20:59:16","新北市三重區國隆路30-1號","121.492211666667","25.06447","6500200","三重區"
"241024","065-VK","2018/09/28 20:59:21","新北市三重區國道路一段58巷20號","121.481216666667","25.0720016666667","6500200","三重區"
"241026","066-VK","2018/09/28 20:59:20","新北市三重區文化南路45號","121.500201666667","25.06145","6500200","三重區"
"241002","090-VK","2018/09/28 20:59:15","新北市三重區五華街7巷59號","121.496338333333","25.0806683333333","6500200","三重區"
"241003","091-VK","2018/09/28 20:40:35","新北市三重區進安街190號","121.493948333333","25.08661","6500200","三重區"
"241005","262-UM","2018/09/28 20:59:23","新北市三重區三信路182號","121.488103333333","25.0861083333333","6500200","三重區"
"241016","266-UM","2018/09/28 20:59:15","新北市三重區正義北路104號","121.49707","25.0650383333333","6500200","三重區"
"241009","267-UM","2018/09/28 20:59:25","新北市三重區三和路四段386號","121.482391666667","25.0790233333333","6500200","三重區"
"241032","269-UM","2018/09/28 20:59:22","新北市三重區三陽路133號","121.483143333333","25.0588566666667","6500200","三重區"
"241013","270-UM","2018/09/28 20:59:10","新北市三重區仁賢街6號","121.495635","25.07483","6500200","三重區"
"241025","271-UM","2018/09/28 20:59:14","新北市三重區貴陽街18-1號","121.484206666667","25.061885","6500200","三重區"
"241007","398-BY","2018/09/28 20:59:15","新北市三重區慈愛街51號","121.486113333333","25.0791416666667","6500200","三重區"
"241004","475-VK","2018/09/28 20:59:07","新北市三重區仁愛街423-1號","121.49039","25.081435","6500200","三重區"
"241020","478-VK","2018/09/28 20:59:25","新北市三重區忠孝路二段34號","121.485725","25.0709983333333","6500200","三重區"
"241030","480-VK","2018/09/28 20:59:11","新北市三重區環河南路220-8號","121.493338333333","25.052675","6500200","三重區"
"241014","543-UM","2018/09/28 20:59:19","新北市三重區長壽街120巷11號","121.502501666667","25.0691266666667","6500200","三重區"
"241023","545-UM","2018/09/28 20:59:18","新北市三重區洛陽街45巷15號","121.482355","25.0637633333333","6500200","三重區"
"241001","547-UM","2018/09/28 20:59:16","新北市三重區自強路三段87巷18號","121.488373333333","25.0750383333333","6500200","三重區"
"241033","557-UM","2018/09/28 20:57:53","新北市三重區光復路二段157號","121.472405","25.060325","6500200","三重區"
"241019","KEA-2593","2018/09/28 20:59:22","新北市三重區自強路二段74巷19號","121.487991666667","25.06992","6500200","三重區"
"241006","AAD-863","2018/09/28 20:59:21","新北市三重區永福街33號","121.481485","25.0780633333333","6500200","三重區"
"241015","743-BX","2018/09/28 20:59:20","新北市三重區福德北路63號","121.502166666667","25.0655483333333","6500200","三重區"
"241018","887-TS","2018/09/28 20:59:22","新北市三重區雙園街93號","121.493925","25.0673966666667","6500200","三重區"
"241012","941-UM","2018/09/28 20:59:15","新北市三重區仁信街27號","121.501303333333","25.0755266666667","6500200","三重區"
"241029","942-UM","2018/09/28 20:59:11","新北市三重區電信街96號","121.495623333333","25.058215","6500200","三重區"
"247012","KEA-2869","2018/09/28 20:59:23","新北市蘆洲區民權路6號","121.476955","25.0854783333333","6501400","蘆洲區"
"235010","733-UM","2018/09/28 20:59:05","新北市中和區員山路36巷13號","121.484121666667","24.9908116666667","6500300","中和區"
"247002","893-R6","2018/09/28 20:59:14","新北市蘆洲區永樂街52-1號","121.457485","25.0884816666667","6501400","蘆洲區"
"247016","546-UM","2018/09/28 20:59:09","新北市蘆洲區正和街83號","121.46817","25.0807516666667","6501400","蘆洲區"
"247014","339-TH","2018/09/28 20:59:22","新北市蘆洲區中央路56號","121.473388333333","25.0837466666667","6501400","蘆洲區"
"247006","337-TH","2018/09/28 20:59:14","新北市蘆洲區永安南路二段16巷8號","121.467875","25.077295","6501400","蘆洲區"
"247008","336-TH","2018/09/28 20:59:07","新北市蘆洲區民生街74號","121.472918333333","25.079025","6501400","蘆洲區"
"247020","057-VK","2018/09/28 20:59:18","新北市蘆洲區民族路488號","121.471096666667","25.091285","6501400","蘆洲區"
"247010","056-VK","2018/09/28 20:59:21","新北市蘆洲區鷺江街91號","121.47693","25.0837383333333","6501400","蘆洲區"
"247018","007-UY","2018/09/28 20:59:14","新北市蘆洲區民權路93號","121.472983333333","25.08892","6501400","蘆洲區"
"247004","002-UY","2018/09/28 20:59:23","新北市蘆洲區永安南路二段266號","121.45895","25.080615","6501400","蘆洲區"
"247022","001-UY","2018/09/28 20:59:23","新北市蘆洲區中正路198號","121.466811666667","25.0883416666667","6501400","蘆洲區"
"251009","008-UM","2018/09/28 20:59:22","新北市淡水區民族路112巷70號","121.461728333333","25.1338966666667","6501000","淡水區"
"251005","010-UM","2018/09/28 20:59:22","新北市淡水區學府路51巷2弄16號","121.447931666667","25.1699916666667","6501000","淡水區"
"251001","011-UM","2018/09/28 20:59:15","新北市淡水區淡金路二段66-1號","121.450318333333","25.1826466666667","6501000","淡水區"
"251008","KEA-2871","2018/09/28 20:59:21","新北市淡水區埤島6-10號","121.446211666667","25.1937016666667","6501000","淡水區"
"251010","413-VK","2018/09/28 20:59:13","新北市淡水區中正路一段116-3號","121.423845","25.1786916666667","6501000","淡水區"
"251012","441-VK","2018/09/28 20:59:18","新北市淡水區淡金路五段98號","121.456286666667","25.23611","6501000","淡水區"
"251007","577-R6","2018/09/28 20:59:15","新北市淡水區仁愛街2巷11號","121.446161666667","25.1706116666667","6501000","淡水區"
"251011","650-BX","2018/09/28 20:59:09","新北市淡水區新民街322巷1號","121.435316666667","25.1837733333333","6501000","淡水區"
"251002","672-BX","2018/09/28 20:59:16","新北市淡水區英專路80號","121.445776666667","25.1713733333333","6501000","淡水區"
"251003","673-BX","2018/09/28 20:59:09","新北市淡水區新春街125巷5號","121.441463333333","25.182385","6501000","淡水區"
"242023","362-BY","2018/09/28 20:58:51","新北市五股區中直路13-7號","121.424186666667","25.1107116666667","6500500","新莊區"
"221029","298-VK","2018/09/28 20:58:54","新北市汐止區汐萬路一段256巷3號","121.65238","25.074695","6501100","汐止區"
"221035","622-UM","2018/09/28 20:59:13","新北市汐止區汐萬路一段256巷1號","121.651955","25.074765","6501100","汐止區"
"221018","753-BX","2018/09/28 20:59:23","新北市汐止區汐萬路一段256巷1號","121.651933333333","25.074815","6501100","汐止區"
"220083","286-VK","2018/09/28 20:59:09","新北市樹林區環河路600-1號","121.404018333333","24.96927","6500100","板橋區"
