"lineid","car","time","location","longitude","latitude","cityid","cityname"
"231048","187-VK","2018/09/28 21:29:20","新北市新店區薏仁坑路6-3號","121.499761666667","24.958585","6500600","新店區"
"231063","616-UM","2018/09/28 21:29:24","新北市新店區富貴街11巷1號","121.4941","24.9488216666667","6500600","新店區"
"241031","061-VK","2018/09/28 21:29:22","新北市三重區光復路二段175號","121.472535","25.06172","6500200","三重區"
"241017","063-VK","2018/09/28 21:29:16","新北市三重區中正北路25巷2號","121.49326","25.0627016666667","6500200","三重區"
"241024","065-VK","2018/09/28 21:29:26","新北市三重區中正北路115巷6號","121.483966666667","25.0676133333333","6500200","三重區"
"241026","066-VK","2018/09/28 21:29:20","新北市三重區重新路三段84號","121.493311666667","25.060685","6500200","三重區"
"241005","262-UM","2018/09/28 21:29:23","新北市三重區仁華街85號","121.485683333333","25.0828683333333","6500200","三重區"
"241016","266-UM","2018/09/28 21:29:15","新北市三重區正義北路176號","121.496606666667","25.0664466666667","6500200","三重區"
"241009","267-UM","2018/09/28 21:27:44","新北市五股區中直路17-4號","121.422856666667","25.1113283333333","6500200","三重區"
"241007","398-BY","2018/09/28 21:29:15","新北市三重區正義北路124號","121.496705","25.06557","6500200","三重區"
"241030","480-VK","2018/09/28 21:28:51","新北市五股區中直路31號","121.42033","25.1124633333333","6500200","三重區"
"247012","KEA-2869","2018/09/28 21:29:23","新北市蘆洲區中正路516巷38-5號","121.461445","25.0981383333333","6501400","蘆洲區"
"235010","733-UM","2018/09/28 21:29:05","新北市中和區員山路36巷13號","121.484141666667","24.9908566666667","6500300","中和區"
"247002","893-R6","2018/09/28 21:29:14","新北市五股區凌雲路三段24巷22號","121.432618333333","25.1078716666667","6501400","蘆洲區"
"247008","336-TH","2018/09/28 21:29:27","新北市五股區新城八路1號","121.447935","25.0892816666667","6501400","蘆洲區"
"247020","057-VK","2018/09/28 21:29:18","新北市五股區成洲一路25號","121.449615","25.09495","6501400","蘆洲區"
"251009","008-UM","2018/09/28 21:29:22","新北市淡水區民族路33巷16-3號","121.463411666667","25.13596","6501000","淡水區"
"251005","010-UM","2018/09/28 21:29:22","新北市淡水區水源街一段34巷20-2號","121.443101666667","25.17179","6501000","淡水區"
"251001","011-UM","2018/09/28 21:29:15","新北市淡水區新市二路三段18號","121.433001666667","25.1936816666667","6501000","淡水區"
"251008","KEA-2871","2018/09/28 21:29:21","新北市淡水區水源街二段118-1號","121.452938333333","25.1746316666667","6501000","淡水區"
"251010","413-VK","2018/09/28 21:29:13","新北市淡水區中正路二段32巷30號","121.420665","25.182615","6501000","淡水區"
"251012","441-VK","2018/09/28 21:29:18","新北市淡水區淡金路四段563號","121.451471666667","25.2302016666667","6501000","淡水區"
"251004","443-VK","2018/09/28 21:29:15","新北市淡水區民權路131號","121.46025","25.1367016666667","6501000","淡水區"
"251006","561-UM","2018/09/28 21:29:27","新北市淡水區公明街59號","121.443601666667","25.1686216666667","6501000","淡水區"
"251011","650-BX","2018/09/28 21:29:09","新北市淡水區真理街32號","121.436943333333","25.178365","6501000","淡水區"
"251002","672-BX","2018/09/28 21:18:33","新北市淡水區學府路172巷21號","121.448388333333","25.174845","6501000","淡水區"
"251003","673-BX","2018/09/28 21:29:09","新北市淡水區崁頂15-5號","121.438976666667","25.18586","6501000","淡水區"
