"lineid","car","time","location","longitude","latitude","cityid","cityname"
"248005","653-BX","2018/09/29 07:38:43","新北市五股區明德路12巷1號","121.433318333333","25.07171","6501500","五股區"
"232010","375-UM","2018/09/29 07:38:46","新北市坪林區磨壁潭10-1號","121.7235","24.9380383333333","6502000","坪林區"
"244005","248-BX","2018/09/29 07:38:58","新北市林口區下福里1鄰3-1號","121.324148333333","25.0952533333333","6501700","林口區"
"235001","611-BX","2018/09/29 07:38:48","新北市中和區圓通路367巷4號","121.491383333333","24.9892433333333","6500300","中和區"
"226005","5620-A6","2018/09/29 07:38:56","新北市平溪區石底里石底街92-1號","121.733763333333","25.0232416666667","6502400","平溪區"
"226007","7418-A5","2018/09/29 07:38:43","新北市平溪區南山里南山坪96號","121.777936666667","25.0405266666667","6502400","平溪區"
"226003","AGD-0702","2018/09/29 07:28:25","新北市平溪區嶺腳里嶺腳寮83-2號","121.750183333333","25.0351233333333","6502400","平溪區"
"223006","022-BY","2018/09/29 07:38:51","新北市石碇區楓子林1-2號","121.642406666667","25.00904","6501900","石碇區"
"223002","KEA-2673","2018/09/29 07:22:22","新北市石碇區烏塗窟16-2號","121.65628","24.975665","6501900","石碇區"
"223008","406-TH","2018/09/29 07:38:56","新北市石碇區靜安路一段337號","121.69888","25.0145","6501900","石碇區"
"223004","437-BY","2018/09/29 07:38:51","新北市石碇區八分寮47-1號","121.642071666667","25.0135633333333","6501900","石碇區"
"223001","592-UM","2018/09/29 07:38:45","新北市石碇區蓬菜寮7-2號","121.65274","24.97439","6501900","石碇區"
"223007","661-BX","2018/09/29 07:38:55","新北市石碇區靜安路一段337號","121.698685","25.0144966666667","6501900","石碇區"
"223005","677-TV","2018/09/29 07:38:55","新北市石碇區八分寮47-1號","121.64209","25.0136583333333","6501900","石碇區"
"227006","282-VK","2018/09/29 07:39:01","新北市雙溪區雙溪里太平路54號","121.864808333333","25.035455","6502500","雙溪區"
"252005","073-UM","2018/09/29 07:38:47","新北市三芝區中山路二段50號","121.503118333333","25.254145","6502100","三芝區"
"252004","249-BX","2018/09/29 07:38:56","新北市三芝區店子里菜公坑99-4號","121.514193333333","25.2067966666667","6502100","三芝區"
"252007","AAC-283","2018/09/29 07:38:58","新北市三芝區古庄里四棧橋48-1號","121.48298","25.2642883333333","6502100","三芝區"
"237001","159-UY","2018/09/29 07:38:43","新北市三峽區大學路152號","121.373901666667","24.9446516666667","6500900","三峽區"
"242001","233-RS","2018/09/29 07:38:45","新北市新莊區中港路301號","121.452951666667","25.0444766666667","6500500","新莊區"
