"lineid","car","time","location","longitude","latitude","cityid","cityname"
"248005","653-BX","2018/01/08 08:49:37","新北市五股區明德路12巷6號","121.433341666667","25.0718566666667","6501500","五股區"
"232001","290-BY","2018/01/08 08:49:39","新北市坪林區九芎坑16-1號","121.741146666667","24.949665","6502000","坪林區"
"232012","291-BY","2018/01/08 08:49:50","新北市坪林區仁里14-3號","121.688396666667","24.9284316666667","6502000","坪林區"
"232017","705-BZ","2018/01/08 08:49:43","新北市坪林區鷺鶿岫4-1號","121.787825","24.95594","6502000","坪林區"
"232005","758-BX","2018/01/08 08:49:46","新北市坪林區魚堀9-6號","121.704343333333","24.9058633333333","6502000","坪林區"
"244012","069-UM","2018/01/08 08:49:37","新北市林口區中山路158號","121.390603333333","25.0788166666667","6501700","林口區"
"244006","080-UY","2018/01/08 08:49:41","新北市林口區林口路95號","121.388946666667","25.08013","6501700","林口區"
"244001","248-BX","2018/01/08 08:49:44","新北市林口區嘉溪雅坑3-4號","121.342281666667","25.1029983333333","6501700","林口區"
"244018","402-UM","2018/01/08 08:49:51","新北市林口區公園路163號","121.370833333333","25.0714266666667","6501700","林口區"
"244024","742-UY","2018/01/08 08:49:47","新北市林口區南勢六街51號","121.355775","25.0714283333333","6501700","林口區"
"244022","483-VK","2018/01/08 08:49:42","新北市林口區東湖路88號","121.386433333333","25.073955","6501700","林口區"
"244016","485-VK","2018/01/08 08:49:44","新北市林口區忠孝路502號","121.37069","25.0701583333333","6501700","林口區"
"244010","656-BX","2018/01/08 08:49:41","新北市林口區中正路99號","121.394305","25.0772966666667","6501700","林口區"
"244008","837-TS","2018/01/08 08:49:38","新北市林口區佳林路97號","121.38597","25.08054","6501700","林口區"
"244020","838-TS","2018/01/08 08:49:43","新北市林口區自強二街58號","121.399461666667","25.0768866666667","6501700","林口區"
"222005","289-BY","2018/01/08 08:49:48","新北市深坑區風格街31巷17號","121.627158333333","25.0175633333333","6501800","深坑區"
"231007","189-VK","2018/01/08 08:49:48","新北市新店區新潭路三段119號","121.508371666667","24.9112816666667","6500600","新店區"
"231008","192-VK","2018/01/08 08:49:52","新北市新店區新烏路三段286號","121.549965","24.8989516666667","6500600","新店區"
"231054","AAD-862","2018/01/08 08:36:03","新北市新店區安華路28-1號","121.519805","24.9613116666667","6500600","新店區"
"235011","732-UM","2018/01/08 08:28:57","新北市中和區中正路219號","121.496463333333","24.9936483333333","6500300","中和區"
"226005","5620-A6","2018/01/08 08:49:54","新北市平溪區十分里十分街193號","121.778451666667","25.043805","6502400","平溪區"
"226001","7418-A5","2018/01/08 08:32:20","新北市平溪區東勢里東勢格41號","121.76202","24.9895966666667","6502400","平溪區"
"226003","AGD-0702","2018/01/08 08:49:48","新北市平溪區靜安路三段400號","121.784061666667","25.050925","6502400","平溪區"
"223006","022-BY","2018/01/08 08:49:40","新北市深坑區昇高坑路15號","121.62435","25.000885","6501900","石碇區"
"223002","198-BX","2018/01/08 08:49:39","新北市石碇區員潭子坑4號","121.636805","24.98754","6501900","石碇區"
"223008","406-TH","2018/01/08 08:49:38","新北市石碇區石汐路1號","121.67831","25.03409","6501900","石碇區"
"223001","592-UM","2018/01/08 08:49:32","新北市石碇區北宜路六段水底寮巷3號","121.65635","24.9447733333333","6501900","石碇區"
"223004","660-BX","2018/01/08 08:49:55","新北市石碇區崩山24-2號","121.679698333333","24.9679883333333","6501900","石碇區"
"223007","661-BX","2018/01/08 08:49:36","新北市石碇區碇南路二段鹿窟巷15號","121.665885","25.0306533333333","6501900","石碇區"
"223005","677-TV","2018/01/08 08:49:42","新北市石碇區崩山42-1號","121.67967","24.9652566666667","6501900","石碇區"
"227005","282-VK","2018/01/08 08:49:52","新北市雙溪區泰平里泰平51號","121.831685","24.978475","6502500","雙溪區"
"252006","073-UM","2018/01/08 08:49:45","新北市三芝區錫板里海尾15-10號","121.476148333333","25.2568516666667","6502100","三芝區"
"252004","249-BX","2018/01/08 08:49:36","新北市三芝區興華里田心子16號","121.493338333333","25.2043083333333","6502100","三芝區"
"237001","159-UY","2018/01/08 08:49:40","新北市三峽區學勤路86號","121.374483333333","24.94576","6500900","三峽區"
"236007","165-UM","2018/01/08 08:49:53","新北市土城區清水路125號","121.45795","24.9816383333333","6501300","土城區"
"236001","339-SR","2018/01/08 08:49:44","新北市土城區中央路三段281巷11弄3號","121.426578333333","24.962855","6501300","土城區"
"236005","498-BY","2018/01/08 08:49:43","新北市土城區永和街120-16號","121.435846666667","24.9566416666667","6501300","土城區"
"242030","AAC-296","2018/01/08 08:49:53","新北市新莊區新泰路255巷71號","121.443335","25.0394433333333","6500500","新莊區"
"242028","986-R7","2018/01/08 08:49:45","新北市新莊區中榮街152巷44號","121.445438333333","25.0537566666667","6500500","新莊區"
"242049","751-BX","2018/01/08 08:49:42","新北市新莊區西盛街137號","121.428315","25.01848","6500500","新莊區"
"242024","615-BX","2018/01/08 08:49:56","新北市新莊區五工三路85號","121.458448333333","25.06513","6500500","新莊區"
"242022","613-BX","2018/01/08 08:49:41","新北市新莊區化成路528號","121.466313333333","25.0528516666667","6500500","新莊區"
"242026","612-BX","2018/01/08 08:49:54","新北市新莊區中平路183號","121.444826666667","25.0493033333333","6500500","新莊區"
"242038","566-BX","2018/01/08 08:49:46","新北市新莊區民安路336號","121.42922","25.0222483333333","6500500","新莊區"
"242043","442-UM","2018/01/08 08:49:50","新北市新莊區中正路新旺巷43號","121.416465","25.0225133333333","6500500","新莊區"
"242047","441-UM","2018/01/08 08:49:53","新北市新莊區建安街76巷1弄15號","121.425983333333","25.0242983333333","6500500","新莊區"
"242052","440-UM","2018/01/08 08:49:55","新北市新莊區民安西路410巷1弄1號","121.428691666667","25.0096833333333","6500500","新莊區"
"242033","415-TV","2018/01/08 08:49:41","新北市新莊區仁愛街54巷12號","121.445041666667","25.0370483333333","6500500","新莊區"
"242003","413-TV","2018/01/08 08:49:46","新北市新莊區中華路二段36-1號","121.453928333333","25.0453966666667","6500500","新莊區"
"242040","400-BY","2018/01/08 08:49:39","新北市新莊區天祥街92巷14號","121.415588333333","25.03004","6500500","新莊區"
"242059","362-BY","2018/01/08 08:49:46","新北市新莊區富國路176巷1號","121.424246666667","25.0243633333333","6500500","新莊區"
"242057","353-BY","2018/01/08 08:49:42","新北市新莊區中正路899巷2號","121.411516666667","25.0215616666667","6500500","新莊區"
"242006","132-UY","2018/01/08 08:49:50","新北市新莊區思源路587號","121.459695","25.0594833333333","6500500","新莊區"
"242035","133-UY","2018/01/08 08:49:39","新北市新莊區民安路207巷6號","121.426538333333","25.02261","6500500","新莊區"
"242020","135-UY","2018/01/08 08:49:37","新北市新莊區建中街28號","121.449041666667","25.0374883333333","6500500","新莊區"
"242045","172-VK","2018/01/08 08:49:48","新北市新莊區中正路829巷5號","121.421043333333","25.0277083333333","6500500","新莊區"
"242008","173-VK","2018/01/08 08:49:47","新北市新莊區昌隆街15號","121.454256666667","25.0509733333333","6500500","新莊區"
"242014","175-VK","2018/01/08 08:49:52","新北市新莊區復興路一段47巷5號","121.446861666667","25.0425466666667","6500500","新莊區"
"242001","176-VK","2018/01/08 08:49:55","新北市新莊區中正路183號","121.453886666667","25.0364033333333","6500500","新莊區"
"242012","346-TH","2018/01/08 08:49:52","新北市新莊區中港路483巷6號","121.451758333333","25.0497933333333","6500500","新莊區"
"242018","348-TH","2018/01/08 08:49:40","新北市新莊區明智街5號","121.454645","25.04135","6500500","新莊區"
"242055","349-TH","2018/01/08 08:49:36","新北市新莊區瓊林路51-3號","121.445236666667","25.0276716666667","6500500","新莊區"
"242016","350-TH","2018/01/08 08:49:46","新北市新莊區中港一街116號","121.448661666667","25.0452616666667","6500500","新莊區"
"242010","351-TH","2018/01/08 08:49:42","新北市新莊區中港路531巷21號","121.45059","25.0515216666667","6500500","新莊區"
"220089","146-RM","2018/01/08 08:48:39","新北市三重區光復路二段143巷16號","121.473955","25.0605183333333","6500100","板橋區"
"220064","282-UM","2018/01/08 08:49:44","新北市鶯歌區鶯桃路38號","121.342033333333","24.9527866666667","6500100","板橋區"
"220092","299-UM","2018/01/08 08:35:35","新北市板橋區溪城路90-2號","121.429085","24.980295","6500100","板橋區"
