"lineid","car","time","location","longitude","latitude","cityid","cityname"
"248005","653-BX","2018/01/08 08:59:57","新北市五股區明德路12巷1號","121.433346666667","25.0717716666667","6501500","五股區"
"232001","290-BY","2018/01/08 08:59:39","新北市坪林區九芎坑16-1號","121.741145","24.94962","6502000","坪林區"
"232012","291-BY","2018/01/08 08:59:50","新北市坪林區北宜路八段6號","121.70036","24.9354816666667","6502000","坪林區"
"232017","705-BZ","2018/01/08 08:59:42","新北市坪林區鷺鶿岫4-2號","121.785598333333","24.9560783333333","6502000","坪林區"
"232005","758-BX","2018/01/08 08:59:49","新北市坪林區魚堀9-1號","121.708433333333","24.9048616666667","6502000","坪林區"
"244012","069-UM","2018/01/08 08:59:37","新北市林口區佳林路101巷36號","121.387016666667","25.0800033333333","6501700","林口區"
"244006","080-UY","2018/01/08 08:59:54","新北市林口區林口路124巷4號","121.388751666667","25.08171","6501700","林口區"
"244001","248-BX","2018/01/08 08:59:44","新北市林口區文化一路二段303號","121.385663333333","25.0856283333333","6501700","林口區"
"244018","402-UM","2018/01/08 08:59:51","新北市林口區文化一路一段83巷14弄41號","121.371756666667","25.0709483333333","6501700","林口區"
"244024","742-UY","2018/01/08 08:59:47","新北市林口區南勢里53-7號","121.355045","25.0747666666667","6501700","林口區"
"244022","483-VK","2018/01/08 08:58:42","新北市林口區東湖路105巷60號","121.384523333333","25.07148","6501700","林口區"
"244016","485-VK","2018/01/08 08:59:44","新北市林口區八德路48巷76號","121.36725","25.06748","6501700","林口區"
"244010","656-BX","2018/01/08 08:59:41","新北市林口區仁愛路一段272巷21號","121.392078333333","25.0766883333333","6501700","林口區"
"244008","837-TS","2018/01/08 08:59:38","新北市林口區福林路52巷26號","121.379263333333","25.0891316666667","6501700","林口區"
"244020","838-TS","2018/01/08 08:59:54","新北市林口區工六路62-4號","121.399748333333","25.077665","6501700","林口區"
"222005","289-BY","2018/01/08 08:59:32","新北市深坑區土庫尖路75-1號","121.631195","25.018255","6501800","深坑區"
"231007","189-VK","2018/01/08 08:57:09","新北市新店區新潭路三段236號","121.500786666667","24.9027","6500600","新店區"
"231008","192-VK","2018/01/08 08:59:52","新北市新店區廣興路25號","121.540431666667","24.9116216666667","6500600","新店區"
"231054","AAD-862","2018/01/08 08:36:03","新北市新店區安華路28-1號","121.519805","24.9613116666667","6500600","新店區"
"226005","5620-A6","2018/01/08 08:59:54","新北市平溪區十分里十分街239號","121.778011666667","25.04415","6502400","平溪區"
"226001","7418-A5","2018/01/08 08:32:20","新北市平溪區東勢里東勢格41號","121.76202","24.9895966666667","6502400","平溪區"
"226003","AGD-0702","2018/01/08 08:59:48","新北市平溪區十分里十分街236號","121.77814","25.0440683333333","6502400","平溪區"
"223006","022-BY","2018/01/08 08:59:40","新北市石碇區石崁33號","121.658553333333","24.9914416666667","6501900","石碇區"
"223002","198-BX","2018/01/08 08:59:39","新北市石碇區員潭子坑18號","121.651506666667","24.99172","6501900","石碇區"
"223008","406-TH","2018/01/08 08:59:57","新北市石碇區光明路13號","121.680093333333","25.0336683333333","6501900","石碇區"
"223001","592-UM","2018/01/08 08:59:52","新北市石碇區北宜路五段66號","121.638248333333","24.9537733333333","6501900","石碇區"
"223004","660-BX","2018/01/08 08:59:55","新北市石碇區碇坪路二段49號","121.68538","24.971865","6501900","石碇區"
"223007","661-BX","2018/01/08 08:59:36","新北市石碇區光明路8號","121.678938333333","25.0275233333333","6501900","石碇區"
"223005","677-TV","2018/01/08 08:55:52","新北市石碇區崩山53號","121.682415","24.968865","6501900","石碇區"
"227005","282-VK","2018/01/08 08:56:52","新北市雙溪區泰平里料角坑13-1號","121.817483333333","24.9717366666667","6502500","雙溪區"
"252006","073-UM","2018/01/08 08:59:25","新北市三芝區樂全街14號","121.486776666667","25.2586366666667","6502100","三芝區"
"252004","249-BX","2018/01/08 08:59:56","新北市三芝區興華里田心子20號","121.493786666667","25.2006516666667","6502100","三芝區"
"237001","159-UY","2018/01/08 08:59:40","新北市三峽區學勤路97號","121.374666666667","24.9461916666667","6500900","三峽區"
"236007","165-UM","2018/01/08 08:59:53","新北市土城區金城路二段52-1號","121.45172","24.979385","6501300","土城區"
"236001","339-SR","2018/01/08 08:59:44","新北市土城區中央路三段165號","121.4318","24.9653733333333","6501300","土城區"
"236005","498-BY","2018/01/08 08:59:43","新北市土城區承天路4巷2-1號","121.436313333333","24.9635366666667","6501300","土城區"
"242030","AAC-296","2018/01/08 08:59:53","新北市新莊區新泰路225巷24號","121.445123333333","25.0391083333333","6500500","新莊區"
"242028","986-R7","2018/01/08 08:59:45","新北市新莊區中原路303號","121.447331666667","25.0542816666667","6500500","新莊區"
"242049","751-BX","2018/01/08 08:59:42","新北市新莊區民安西路212巷12-1號","121.425005","25.015325","6500500","新莊區"
"242024","615-BX","2018/01/08 08:59:56","新北市新莊區五工三路78巷28號","121.45979","25.0658883333333","6500500","新莊區"
"242022","613-BX","2018/01/08 08:59:41","新北市新莊區化成路750-2號","121.465493333333","25.0578516666667","6500500","新莊區"
"242026","612-BX","2018/01/08 08:59:54","新北市新莊區幸福路902號","121.443168333333","25.0493133333333","6500500","新莊區"
"242038","566-BX","2018/01/08 08:59:55","新北市新莊區民安西路99號","121.426986666667","25.0188116666667","6500500","新莊區"
"242043","442-UM","2018/01/08 08:59:48","新北市新莊區青山路一段6號","121.412015","25.0277816666667","6500500","新莊區"
"242047","441-UM","2018/01/08 08:59:53","新北市新莊區富國路158號","121.423323333333","25.024825","6500500","新莊區"
"242052","440-UM","2018/01/08 08:59:40","新北市新莊區西盛街395巷38號","121.428911666667","25.012065","6500500","新莊區"
"242033","415-TV","2018/01/08 08:59:41","新北市新莊區建中街84號","121.447173333333","25.0367266666667","6500500","新莊區"
"242003","413-TV","2018/01/08 08:59:51","新北市新莊區化成路11巷45號","121.463326666667","25.04347","6500500","新莊區"
"242040","400-BY","2018/01/08 08:59:56","新北市新莊區青山路一段30號","121.41081","25.0276333333333","6500500","新莊區"
"242059","362-BY","2018/01/08 08:59:46","新北市新莊區民安路179號","121.425941666667","25.02315","6500500","新莊區"
"242057","353-BY","2018/01/08 08:59:42","新北市新莊區中正路879-14號","121.417668333333","25.0260233333333","6500500","新莊區"
"242006","132-UY","2018/01/08 08:59:49","新北市新莊區福壽街142巷38號","121.459238333333","25.051905","6500500","新莊區"
"242035","133-UY","2018/01/08 08:59:39","新北市新莊區建安街101巷4弄2號","121.426975","25.02383","6500500","新莊區"
"242020","135-UY","2018/01/08 08:59:57","新北市新莊區建中街46號","121.448528333333","25.037405","6500500","新莊區"
"242045","172-VK","2018/01/08 08:59:53","新北市新莊區福營路334號","121.421826666667","25.0267933333333","6500500","新莊區"
"242008","173-VK","2018/01/08 08:59:27","新北市新莊區昌盛街103巷12號","121.456235","25.05059","6500500","新莊區"
"242014","175-VK","2018/01/08 08:59:49","新北市新莊區永樂街198號","121.447466666667","25.044485","6500500","新莊區"
"242001","176-VK","2018/01/08 08:59:47","新北市新莊區中正路11號","121.463983333333","25.0409833333333","6500500","新莊區"
"242012","346-TH","2018/01/08 08:59:45","新北市新莊區中信街63巷4弄1號","121.449015","25.0501616666667","6500500","新莊區"
"242018","348-TH","2018/01/08 08:59:40","新北市新莊區民樂街63號","121.457711666667","25.0418","6500500","新莊區"
"242055","349-TH","2018/01/08 08:59:36","新北市新莊區新泰路51號","121.4495","25.0338183333333","6500500","新莊區"
"242016","350-TH","2018/01/08 08:59:40","新北市新莊區中港三街13號","121.450923333333","25.0464966666667","6500500","新莊區"
"242010","351-TH","2018/01/08 08:59:42","新北市新莊區中和街204巷7弄6號","121.448445","25.05063","6500500","新莊區"
"220089","146-RM","2018/01/08 08:59:39","新北市板橋區民生路二段36-1號","121.472431666667","25.0167316666667","6500100","板橋區"
"220064","282-UM","2018/01/08 08:59:44","新北市鶯歌區中正一路439號","121.362145","24.9569266666667","6500100","板橋區"
"220092","299-UM","2018/01/08 08:35:35","新北市板橋區溪城路90-2號","121.429085","24.980295","6500100","板橋區"
