"lineid","car","time","location","longitude","latitude","cityid","cityname"
"248005","653-BX","2018/01/08 09:19:37","新北市五股區水碓一路18號","121.432091666667","25.0727933333333","6501500","五股區"
"232017","705-BZ","2018/01/08 09:19:42","新北市坪林區坪雙路二段67號","121.739341666667","24.965845","6502000","坪林區"
"232005","758-BX","2018/01/08 09:19:42","新北市坪林區鶯子瀨12-1號","121.714905","24.9117916666667","6502000","坪林區"
"244012","069-UM","2018/01/08 09:19:57","新北市林口區信義路58-5號","121.38242","25.078385","6501700","林口區"
"244006","080-UY","2018/01/08 09:19:41","新北市林口區後湖13號","121.387908333333","25.098035","6501700","林口區"
"244018","402-UM","2018/01/08 09:19:51","新北市林口區忠孝路542巷5弄9號","121.373848333333","25.0676416666667","6501700","林口區"
"244024","742-UY","2018/01/08 09:19:47","新北市林口區文化三路一段452號","121.36881","25.0748983333333","6501700","林口區"
"244022","483-VK","2018/01/08 09:19:42","新北市林口區仁愛路二段62巷37號","121.3839","25.07623","6501700","林口區"
"244016","485-VK","2018/01/08 09:19:44","新北市林口區文化二路一段68巷18-2號","121.366091666667","25.06789","6501700","林口區"
"244010","656-BX","2018/01/08 09:19:41","新北市林口區仁愛路一段386巷6號","121.388006666667","25.077115","6501700","林口區"
"244008","837-TS","2018/01/08 09:19:38","新北市林口區林口路182號","121.387591666667","25.08269","6501700","林口區"
"222005","289-BY","2018/01/08 08:59:32","新北市深坑區土庫尖路75-1號","121.631195","25.018255","6501800","深坑區"
"231007","189-VK","2018/01/08 09:19:48","新北市新店區新潭路三段215巷25號","121.508145","24.9040483333333","6500600","新店區"
"231008","192-VK","2018/01/08 09:19:52","新北市新店區廣興路163號","121.537026666667","24.9087466666667","6500600","新店區"
"231054","AAD-862","2018/01/08 08:36:03","新北市新店區安華路28-1號","121.519805","24.9613116666667","6500600","新店區"
"226005","5620-A6","2018/01/08 09:19:54","新北市平溪區石底里公園街18-3號","121.734305","25.025065","6502400","平溪區"
"226001","7418-A5","2018/01/08 09:19:40","新北市平溪區靜安路二段530巷7號","121.745151666667","25.0273933333333","6502400","平溪區"
"223008","406-TH","2018/01/08 09:19:38","新北市石碇區靜安路一段366號","121.700003333333","25.01764","6501900","石碇區"
"223001","592-UM","2018/01/08 09:19:52","新北市石碇區北宜路四段8號","121.614873333333","24.9612366666667","6501900","石碇區"
"223004","660-BX","2018/01/08 09:19:55","新北市石碇區碇坪路二段26號","121.68821","24.9743533333333","6501900","石碇區"
"223007","661-BX","2018/01/08 09:19:56","新北市石碇區靜安路一段358號","121.698285","25.018235","6501900","石碇區"
"223005","677-TV","2018/01/08 09:19:43","新北市石碇區大崙13-1號","121.688638333333","24.9793816666667","6501900","石碇區"
"227005","282-VK","2018/01/08 09:10:12","新北市雙溪區泰平里料角坑19號","121.812016666667","24.9726866666667","6502500","雙溪區"
"252004","249-BX","2018/01/08 09:19:36","新北市三芝區店子里店子48號","121.503768333333","25.2067","6502100","三芝區"
"237001","159-UY","2018/01/08 09:19:40","新北市樹林區中山路三段214號","121.380256666667","24.9678566666667","6500900","三峽區"
"236007","165-UM","2018/01/08 09:19:53","新北市土城區中央路四段400號","121.412571666667","24.954045","6501300","土城區"
"236001","339-SR","2018/01/08 09:19:44","新北市土城區中正路1號","121.442333333333","24.9750316666667","6501300","土城區"
"236005","498-BY","2018/01/08 09:19:43","新北市土城區中央路三段124號","121.435001666667","24.9662733333333","6501300","土城區"
"242030","AAC-296","2018/01/08 09:19:53","新北市新莊區中正路427-2號","121.443681666667","25.0341083333333","6500500","新莊區"
"242028","986-R7","2018/01/08 09:19:45","新北市新莊區中華路二段93號","121.45265","25.0494383333333","6500500","新莊區"
"242049","751-BX","2018/01/08 09:19:42","新北市新莊區民安西路173巷31號","121.42736","25.0159033333333","6500500","新莊區"
"242024","615-BX","2018/01/08 09:19:36","新北市新莊區五工三路62巷26號","121.460205","25.0652483333333","6500500","新莊區"
"242022","613-BX","2018/01/08 09:19:41","新北市新莊區頭前路82號","121.466218333333","25.0525216666667","6500500","新莊區"
"242026","612-BX","2018/01/08 09:19:54","新北市新莊區思源路219號","121.459841666667","25.0461416666667","6500500","新莊區"
"242038","566-BX","2018/01/08 09:19:46","新北市新莊區民安西路7號","121.42661","25.0217333333333","6500500","新莊區"
"242043","442-UM","2018/01/08 09:19:58","新北市新莊區中正路新建巷28弄65號","121.413833333333","25.0211433333333","6500500","新莊區"
"242047","441-UM","2018/01/08 09:19:53","新北市新莊區成功街172號","121.422783333333","25.016995","6500500","新莊區"
"242052","440-UM","2018/01/08 09:19:54","新北市新莊區西盛街344巷7號","121.427651666667","25.0140766666667","6500500","新莊區"
"242033","415-TV","2018/01/08 09:19:52","新北市新莊區公園一路148號","121.44666","25.0383116666667","6500500","新莊區"
"242003","413-TV","2018/01/08 09:19:46","新北市新莊區化成路310號","121.465688333333","25.0483233333333","6500500","新莊區"
"242040","400-BY","2018/01/08 09:19:39","新北市新莊區中正路694巷22號","121.418183333333","25.0286783333333","6500500","新莊區"
"242059","362-BY","2018/01/08 09:19:46","新北市新莊區瓊林路瓊英巷7號","121.443415","25.0274733333333","6500500","新莊區"
"242057","353-BY","2018/01/08 09:19:42","新北市新莊區八德街169號","121.423375","25.0190866666667","6500500","新莊區"
"242006","132-UY","2018/01/08 09:19:49","新北市新莊區思源路287巷2弄1號","121.459305","25.048305","6500500","新莊區"
"242035","133-UY","2018/01/08 09:19:45","新北市新莊區建安街53號","121.42843","25.0254416666667","6500500","新莊區"
"242020","135-UY","2018/01/08 09:19:57","新北市新莊區公園路10巷2號","121.447738333333","25.03876","6500500","新莊區"
"242045","172-VK","2018/01/08 09:19:50","新北市新莊區裕民街90巷28號","121.417635","25.0237933333333","6500500","新莊區"
"242014","175-VK","2018/01/08 09:19:49","新北市新莊區中和街56號","121.44806","25.044685","6500500","新莊區"
"242001","176-VK","2018/01/08 09:19:47","新北市新莊區中正路87號","121.460816666667","25.0392166666667","6500500","新莊區"
"242012","346-TH","2018/01/08 09:19:55","新北市新莊區中和街173號","121.447598333333","25.0504566666667","6500500","新莊區"
"242018","348-TH","2018/01/08 09:19:40","新北市新莊區銘德街35號","121.458255","25.0435616666667","6500500","新莊區"
"242055","349-TH","2018/01/08 09:19:53","新北市新莊區豐年街38號","121.446378333333","25.0321816666667","6500500","新莊區"
"242016","350-TH","2018/01/08 09:19:40","新北市新莊區瓊林路59-82號","121.441598333333","25.0229983333333","6500500","新莊區"
"242010","351-TH","2018/01/08 09:19:46","新北市新莊區中榮街100號","121.447378333333","25.05278","6500500","新莊區"
"220064","282-UM","2018/01/08 09:19:44","新北市板橋區華東街1-9號","121.448181666667","24.9949383333333","6500100","板橋區"
"220092","299-UM","2018/01/08 09:19:43","新北市板橋區南雅西路一段21巷7號","121.45374","25.0037683333333","6500100","板橋區"
