"lineid","car","time","location","longitude","latitude","cityid","cityname"
"248005","653-BX","2018/01/08 09:39:37","新北市五股區成泰路一段7巷13號","121.432831666667","25.066925","6501500","五股區"
"244012","069-UM","2018/01/08 09:39:57","新北市林口區麗園二街1巷8-2號","121.378513333333","25.0704816666667","6501700","林口區"
"244018","402-UM","2018/01/08 09:39:51","新北市林口區忠孝路566號","121.374606666667","25.06803","6501700","林口區"
"244025","742-UY","2018/01/08 09:36:07","新北市林口區粉寮路二段160巷28號","121.405193333333","25.090745","6501700","林口區"
"244022","483-VK","2018/01/08 09:39:53","新北市林口區民權路202號","121.374626666667","25.0845466666667","6501700","林口區"
"244016","485-VK","2018/01/08 09:39:44","新北市林口區公園路45-1號","121.367486666667","25.0685133333333","6501700","林口區"
"244008","837-TS","2018/01/08 09:39:38","新北市林口區台電新村27號","121.38707","25.0861516666667","6501700","林口區"
"222005","289-BY","2018/01/08 09:39:42","新北市深坑區北深路一段288號","121.628036666667","25.00754","6501800","深坑區"
"231007","189-VK","2018/01/08 09:39:48","新北市新店區新潭路三段215巷25號","121.508065","24.9040883333333","6500600","新店區"
"231008","192-VK","2018/01/08 09:39:52","新北市新店區平廣路一段216號","121.512603333333","24.88879","6500600","新店區"
"231054","AAD-862","2018/01/08 08:36:03","新北市新店區安華路28-1號","121.519805","24.9613116666667","6500600","新店區"
"223008","406-TH","2018/01/08 09:31:17","新北市石碇區南勢坑2-3號","121.699516666667","24.99056","6501900","石碇區"
"223007","661-BX","2018/01/08 09:39:16","新北市石碇區南勢坑2號","121.698685","24.99191","6501900","石碇區"
"227005","282-VK","2018/01/08 09:28:52","新北市雙溪區泰平里溪尾寮6號","121.819906666667","24.9618116666667","6502500","雙溪區"
"252004","249-BX","2018/01/08 09:39:36","新北市三芝區福德里大水堀21號","121.51216","25.219915","6502100","三芝區"
"252006","AAC-283","2018/01/08 09:39:52","新北市三芝區光明街17號","121.52207","25.2637366666667","6502100","三芝區"
"237001","159-UY","2018/01/08 09:39:47","新北市三峽區學勤路113號","121.375293333333","24.9464266666667","6500900","三峽區"
"236001","339-SR","2018/01/08 09:39:44","新北市土城區中華路二段82-1號","121.438775","24.975905","6501300","土城區"
"236005","498-BY","2018/01/08 09:39:43","新北市土城區忠義路33號","121.440623333333","24.9699616666667","6501300","土城區"
"242030","AAC-296","2018/01/08 09:39:53","新北市新莊區義豐街23號","121.441081666667","25.0350583333333","6500500","新莊區"
"242022","613-BX","2018/01/08 09:39:41","新北市新莊區中正路435號","121.443503333333","25.0341583333333","6500500","新莊區"
"242038","566-BX","2018/01/08 09:39:46","新北市新莊區瓊林路154號","121.44179","25.0245483333333","6500500","新莊區"
"242043","442-UM","2018/01/08 09:39:48","新北市新莊區龍安路74號","121.417006666667","25.0210333333333","6500500","新莊區"
"242047","441-UM","2018/01/08 09:39:53","新北市新莊區建國二路1號","121.435015","25.02373","6500500","新莊區"
"242003","413-TV","2018/01/08 09:39:52","新北市新莊區頭前路15巷2號","121.467836666667","25.052175","6500500","新莊區"
"242059","362-BY","2018/01/08 09:39:48","新北市新莊區新樹路244巷77號","121.431038333333","25.0199883333333","6500500","新莊區"
"242057","353-BY","2018/01/08 09:39:42","新北市新莊區四維路167號","121.422391666667","25.02162","6500500","新莊區"
"242035","133-UY","2018/01/08 09:39:39","新北市新莊區後港一路111號","121.4286","25.0271016666667","6500500","新莊區"
"242001","176-VK","2018/01/08 09:39:47","新北市新莊區中港路12號","121.454981666667","25.0370133333333","6500500","新莊區"
"242055","349-TH","2018/01/08 09:39:57","新北市新莊區瓊泰路2巷10號","121.445025","25.029205","6500500","新莊區"
