"lineid","car","time","location","longitude","latitude","cityid","cityname"
"244018","402-UM","2018/01/08 10:41:51","新北市林口區中山路247號","121.385761666667","25.07942","6501700","林口區"
"244025","742-UY","2018/01/08 09:36:07","新北市林口區粉寮路二段160巷28號","121.405193333333","25.090745","6501700","林口區"
"231007","189-VK","2018/01/08 10:41:54","新北市新店區新潭路三段81巷1號","121.505443333333","24.9110016666667","6500600","新店區"
"231008","192-VK","2018/01/08 10:41:52","新北市新店區廣興路15號","121.541511666667","24.9118883333333","6500600","新店區"
"231054","AAD-862","2018/01/08 08:36:03","新北市新店區安華路28-1號","121.519805","24.9613116666667","6500600","新店區"
"227005","282-VK","2018/01/08 10:41:51","新北市雙溪區泰平里溪尾寮46號","121.821291666667","24.9678266666667","6502500","雙溪區"
"236001","339-SR","2018/01/08 10:41:44","新北市土城區永平街72號","121.427248333333","24.95907","6501300","土城區"
"239006","661-UM","2018/01/08 10:41:52","新北市鶯歌區文化路427-5號","121.355826666667","24.948935","6500800","鶯歌區"
