"lineid","car","time","location","longitude","latitude","cityid","cityname"
"244018","402-UM","2018/01/08 11:22:31","新北市林口區粉寮69號","121.405075","25.0908316666667","6501700","林口區"
"244025","742-UY","2018/01/08 09:36:07","新北市林口區粉寮路二段160巷28號","121.405193333333","25.090745","6501700","林口區"
"243011","297-R6","2018/01/08 15:55:08","新北市泰山區黎明路25號","121.42193","25.0609783333333","6501600","泰山區"
"243009","KEA-2216","2018/01/08 15:43:53","新北市泰山區黎明路25號","121.421915","25.0607283333333","6501600","泰山區"
"243005","646-TV","2018/01/08 15:31:35","新北市泰山區黎明路25號","121.42202","25.06066","6501600","泰山區"
"231037","0293-UT","2018/01/08 15:59:22","新北市新店區安民街70巷5號","121.516926666667","24.966425","6500600","新店區"
"231030","047-UY","2018/01/08 15:59:36","新北市新店區安和路三段77號","121.517535","24.9834533333333","6500600","新店區"
"231018","107-UY","2018/01/08 15:59:40","新北市新店區中正路663巷1弄2號","121.532975","24.9900566666667","6500600","新店區"
"231011","108-UY","2018/01/08 15:59:48","新北市新店區三民路128號","121.534791666667","24.9747116666667","6500600","新店區"
"231019","187-VK","2018/01/08 15:59:44","新北市新店區薏仁坑路6號","121.500411666667","24.9580033333333","6500600","新店區"
"231014","KEA-2219","2018/01/08 15:59:48","新北市新店區中正路286號","121.538085","24.974475","6500600","新店區"
"231026","256-BX","2018/01/08 15:59:45","新北市新店區民生路45號","121.5322","24.98594","6500600","新店區"
"231046","278-BY","2018/01/08 15:59:44","新北市新店區太平路28巷7號","121.533608333333","24.9594416666667","6500600","新店區"
"231038","4715-K9","2018/01/08 15:59:51","新北市新店區安康路二段183巷12號","121.509626666667","24.9587766666667","6500600","新店區"
"231035","515-UM","2018/01/08 15:59:43","新北市新店區安民街251巷10弄1號","121.516778333333","24.972905","6500600","新店區"
"231003","641-BX","2018/01/08 15:59:24","新北市新店區寶興路67巷19號","121.551655","24.9715316666667","6500600","新店區"
"231034","645-TV","2018/01/08 15:59:34","新北市新店區吉祥街5巷2號","121.497335","24.9475716666667","6500600","新店區"
"231013","719-UM","2018/01/08 15:59:38","新北市新店區安康路一段228號","121.523146666667","24.9636683333333","6500600","新店區"
"241011","013-R5","2018/01/08 15:59:52","新北市三重區雙園街1巷1號","121.497076666667","25.06813","6500200","三重區"
"241028","022-UY","2018/01/08 15:59:45","新北市三重區電信街92號","121.495663333333","25.0581583333333","6500200","三重區"
"241008","059-VK","2018/01/08 15:59:35","新北市三重區成功路108巷8號","121.485883333333","25.0503683333333","6500200","三重區"
"241015","062-VK","2018/01/08 15:59:52","新北市三重區重新路四段121號","121.485086666667","25.0520566666667","6500200","三重區"
"241017","063-VK","2018/01/08 15:59:41","新北市三重區大仁街48巷12號","121.491138333333","25.064445","6500200","三重區"
"241024","065-VK","2018/01/08 15:59:48","新北市三重區中正北路145巷16號","121.48437","25.0679033333333","6500200","三重區"
"241026","066-VK","2018/01/08 15:59:49","新北市三重區重新路二段93號","121.495915","25.0617633333333","6500200","三重區"
"241003","091-VK","2018/01/08 15:53:38","新北市三重區三和路四段101巷18號","121.488721666667","25.0770683333333","6500200","三重區"
"241005","262-UM","2018/01/08 15:59:52","新北市三重區溪尾街300-2號","121.487461666667","25.0837183333333","6500200","三重區"
"241025","265-UM","2018/01/08 15:59:55","新北市三重區三民街148號","121.482686666667","25.0654033333333","6500200","三重區"
"241016","266-UM","2018/01/08 15:59:40","新北市三重區重新路四段121號","121.48511","25.0520916666667","6500200","三重區"
"241022","267-UM","2018/01/08 15:59:53","新北市三重區中正北路176巷16號","121.482705","25.0658433333333","6500200","三重區"
"241013","270-UM","2018/01/08 15:59:38","新北市三重區三和路三段16巷6號","121.496611666667","25.0700416666667","6500200","三重區"
"241007","398-BY","2018/01/08 15:59:42","新北市三重區力行路二段29號","121.481866666667","25.072905","6500200","三重區"
"241020","413-TH","2018/01/08 15:59:54","新北市三重區車路頭街4巷21號","121.483253333333","25.0701383333333","6500200","三重區"
"241014","543-UM","2018/01/08 15:59:36","新北市三重區重新路四段121號","121.48508","25.05211","6500200","三重區"
"241023","545-UM","2018/01/08 15:59:46","新北市三重區中正北路170號","121.484151666667","25.066405","6500200","三重區"
"241001","547-UM","2018/01/08 15:59:49","新北市三重區重新路四段121號","121.484315","25.0521066666667","6500200","三重區"
"241006","AAD-863","2018/01/08 15:59:52","新北市三重區重新路四段121號","121.48448","25.0518066666667","6500200","三重區"
"241012","941-UM","2018/01/08 15:59:46","新北市三重區文化北路118巷51號","121.497476666667","25.0662066666667","6500200","三重區"
"241029","942-UM","2018/01/08 15:59:52","新北市三重區大同南路212巷20號","121.497351666667","25.0566216666667","6500200","三重區"
"241033","AAC-255","2018/01/08 15:59:36","新北市三重區光復路一段1號","121.47213","25.0468433333333","6500200","三重區"
"235033","4980-A6","2018/01/08 15:59:48","新北市中和區連城路469巷44弄14號","121.482773333333","24.9944366666667","6500300","中和區"
"235026","800-TS","2018/01/08 15:59:44","新北市中和區永和路171巷3弄1號","121.492378333333","25.0065766666667","6500300","中和區"
"247004","336-TH","2018/01/08 15:41:06","新北市五股區中興路三段163號","121.449271666667","25.080615","6501400","蘆洲區"
"226001","8452-VL","2018/01/08 15:59:42","新北市深坑區文山路一段10號","121.643028333333","25.0086983333333","6502400","平溪區"
"224007","272-VK","2018/01/08 15:59:47","新北市瑞芳區粗坑口路48號","121.762116666667","25.098715","6501200","瑞芳區"
"224005","271-BY","2018/01/08 15:59:42","新北市瑞芳區三爪子坑路124號","121.805853333333","25.105665","6501200","瑞芳區"
"227001","400-TW","2018/01/08 15:59:51","新北市雙溪區平林里外平林71號","121.842458333333","25.0349683333333","6502500","雙溪區"
"227005","282-VK","2018/01/08 13:29:20","新北市雙溪區三貂里政光路3-1號","121.850825","25.0630016666667","6502500","雙溪區"
"227008","030-BX","2018/01/08 15:59:29","新北市雙溪區三港里雙澳路38號","121.871995","25.0510383333333","6502500","雙溪區"
"251013","179-VK","2018/01/08 15:59:38","新北市淡水區中正路二段31號","121.419528333333","25.18146","6501000","淡水區"
"236064","105-UM","2018/01/08 15:59:43","新北市土城區福安街102巷5弄2號","121.417351666667","24.9645333333333","6501300","土城區"
"236016","401-BY","2018/01/08 15:59:34","新北市土城區延吉街5巷1號","121.47186","24.98937","6501300","土城區"
"236056","912-UM","2018/01/08 15:59:33","新北市土城區中央路二段125號","121.442016666667","24.9773433333333","6501300","土城區"
"236052","AAC-216","2018/01/08 15:59:42","新北市土城區中華路二段62號","121.438813333333","24.9765583333333","6501300","土城區"
"238002","755-BX","2018/01/08 15:59:48","新北市樹林區大安路295號","121.41821","24.9924583333333","6500700","樹林區"
"238010","601-UM","2018/01/08 15:59:53","新北市樹林區龍興街31巷10號","121.403468333333","25.0159383333333","6500700","樹林區"
"238006","599-UM","2018/01/08 15:59:39","新北市樹林區國凱街140巷13號","121.424136666667","24.9801116666667","6500700","樹林區"
"238005","571-TV","2018/01/08 15:59:42","新北市樹林區鎮前街136號","121.424691666667","24.9905683333333","6500700","樹林區"
"238011","5061-A6","2018/01/08 15:59:34","新北市樹林區山佳街57號","121.392938333333","24.972525","6500700","樹林區"
"238008","KEA-2217","2018/01/08 15:59:40","新北市樹林區柑園街二段183號","121.38012","24.9529516666667","6500700","樹林區"
"238009","KEA-2213","2018/01/08 15:59:51","新北市樹林區太順街79巷2號","121.416628333333","24.9783","6500700","樹林區"
"238012","303-VK","2018/01/08 15:59:47","新北市樹林區保安街一段120號","121.423425","24.9949816666667","6500700","樹林區"
"238004","283-BY","2018/01/08 15:59:32","新北市樹林區保安街二段197巷3號","121.414005","25.003345","6500700","樹林區"
"238001","282-BY","2018/01/08 15:59:42","新北市樹林區千歲街4號","121.425028333333","24.9956166666667","6500700","樹林區"
"238007","268-VK","2018/01/08 15:59:45","新北市樹林區三俊街199巷10-4號","121.420128333333","25.0162766666667","6500700","樹林區"
"238013","172-UY","2018/01/08 15:59:44","新北市樹林區佳園路一段82-1號","121.393246666667","24.9696866666667","6500700","樹林區"
"238003","169-UY","2018/01/08 15:59:47","新北市樹林區復興路295巷11號","121.418951666667","24.98879","6500700","樹林區"
"221015","297-VK","2018/01/08 15:09:20","新北市汐止區汐萬路一段256巷1號","121.651866666667","25.074855","6501100","汐止區"
