"lineid","car","time","location","longitude","latitude","cityid","cityname"
"244018","402-UM","2018/01/08 11:22:31","新北市林口區粉寮69號","121.405075","25.0908316666667","6501700","林口區"
"244025","742-UY","2018/01/08 09:36:07","新北市林口區粉寮路二段160巷28號","121.405193333333","25.090745","6501700","林口區"
"243011","297-R6","2018/01/08 15:55:08","新北市泰山區黎明路25號","121.42193","25.0609783333333","6501600","泰山區"
"243009","KEA-2216","2018/01/08 15:43:53","新北市泰山區黎明路25號","121.421915","25.0607283333333","6501600","泰山區"
"243005","646-TV","2018/01/08 15:31:35","新北市泰山區黎明路25號","121.42202","25.06066","6501600","泰山區"
"231018","107-UY","2018/01/08 16:09:40","新北市新店區中正路680巷51弄25號","121.535371666667","24.99008","6500600","新店區"
"231046","278-BY","2018/01/08 16:09:46","新北市新店區灣潭路2-27號","121.536478333333","24.949805","6500600","新店區"
"231038","4715-K9","2018/01/08 16:09:42","新北市新店區薏仁坑路自強巷6號","121.496785","24.9585366666667","6500600","新店區"
"231035","515-UM","2018/01/08 16:09:43","新北市新店區薏仁坑路10-1號","121.499241666667","24.9589916666667","6500600","新店區"
"231034","645-TV","2018/01/08 16:09:34","新北市新店區如意街36號","121.493331666667","24.9483883333333","6500600","新店區"
"231013","719-UM","2018/01/08 16:07:17","新北市新店區安康路二段362號","121.501778333333","24.9574016666667","6500600","新店區"
"241011","013-R5","2018/01/08 16:09:51","新北市三重區三和路三段85號","121.494285","25.07213","6500200","三重區"
"241028","022-UY","2018/01/08 16:09:45","新北市三重區正義南路107號","121.498053333333","25.058555","6500200","三重區"
"241008","059-VK","2018/01/08 16:09:35","新北市三重區力行路二段13號","121.481891666667","25.0722166666667","6500200","三重區"
"241015","062-VK","2018/01/08 16:09:32","新北市三重區福德南路86號","121.502215","25.05977","6500200","三重區"
"241017","063-VK","2018/01/08 16:09:41","新北市三重區大同北路148巷76號","121.490143333333","25.064575","6500200","三重區"
"241024","065-VK","2018/01/08 16:09:48","新北市三重區力行路一段40號","121.486278333333","25.0680366666667","6500200","三重區"
"241026","066-VK","2018/01/08 16:09:49","新北市三重區正義南路20號","121.498088333333","25.0614283333333","6500200","三重區"
"241002","090-VK","2018/01/08 16:09:49","新北市三重區仁義街91號","121.49972","25.0797033333333","6500200","三重區"
"241003","091-VK","2018/01/08 16:09:37","新北市三重區進安街64號","121.49611","25.084405","6500200","三重區"
"241005","262-UM","2018/01/08 16:09:32","新北市三重區溪尾街300-2號","121.48745","25.08372","6500200","三重區"
"241025","265-UM","2018/01/08 16:09:55","新北市三重區忠孝路三段40巷10號","121.482048333333","25.0663666666667","6500200","三重區"
"241016","266-UM","2018/01/08 16:09:40","新北市三重區大仁街78號","121.492616666667","25.0652033333333","6500200","三重區"
"241022","267-UM","2018/01/08 16:09:34","新北市三重區三民街175巷12號","121.483735","25.0655516666667","6500200","三重區"
"241018","268-UM","2018/01/08 16:09:40","新北市三重區明志街62號","121.490886666667","25.0637166666667","6500200","三重區"
"241013","270-UM","2018/01/08 16:09:38","新北市三重區安樂街12號","121.496898333333","25.0697766666667","6500200","三重區"
"241007","398-BY","2018/01/08 16:09:42","新北市三重區三和路四段143-1號","121.484428333333","25.0783116666667","6500200","三重區"
"241020","413-TH","2018/01/08 16:09:34","新北市三重區車路頭街25號","121.483933333333","25.07067","6500200","三重區"
"241004","475-VK","2018/01/08 16:09:39","新北市三重區仁愛街377巷134號","121.493725","25.0817433333333","6500200","三重區"
"241014","543-UM","2018/01/08 16:09:36","新北市三重區福德南路61號","121.502561666667","25.06058","6500200","三重區"
"241023","545-UM","2018/01/08 16:09:46","新北市三重區忠孝路二段126號","121.482871666667","25.06875","6500200","三重區"
"241001","547-UM","2018/01/08 16:09:49","新北市三重區自強路三段78號","121.487068333333","25.0741683333333","6500200","三重區"
"241006","AAD-863","2018/01/08 16:09:55","新北市三重區力行路二段158號","121.48276","25.0762983333333","6500200","三重區"
"241012","941-UM","2018/01/08 16:09:46","新北市三重區文化北路132巷49號","121.49731","25.0664466666667","6500200","三重區"
"241029","942-UM","2018/01/08 16:09:52","新北市三重區同安街14號","121.496388333333","25.0567683333333","6500200","三重區"
"241033","AAC-255","2018/01/08 16:09:36","新北市三重區五谷王南街46巷37號","121.475618333333","25.0453066666667","6500200","三重區"
"235026","800-TS","2018/01/08 16:09:44","新北市中和區錦和路122號","121.488918333333","24.9983783333333","6500300","中和區"
"247004","336-TH","2018/01/08 15:41:06","新北市五股區中興路三段163號","121.449271666667","25.080615","6501400","蘆洲區"
"226001","8452-VL","2018/01/08 16:09:42","","121.698246666667","25.0169066666667","6502400","平溪區"
"224007","272-VK","2018/01/08 16:09:47","新北市瑞芳區粗坑口路38號","121.761871666667","25.099225","6501200","瑞芳區"
"224005","271-BY","2018/01/08 16:09:42","新北市瑞芳區明燈路二段66號","121.809431666667","25.1076016666667","6501200","瑞芳區"
"227001","400-TW","2018/01/08 16:09:39","新北市雙溪區上林里內平林47號","121.833305","25.0304166666667","6502500","雙溪區"
"227005","282-VK","2018/01/08 13:29:20","新北市雙溪區三貂里政光路3-1號","121.850825","25.0630016666667","6502500","雙溪區"
"227008","030-BX","2018/01/08 16:09:44","新北市雙溪區三港里雙澳路83號","121.884346666667","25.0536816666667","6502500","雙溪區"
"251013","179-VK","2018/01/08 16:09:38","新北市淡水區濱海路一段221號","121.437946666667","25.18951","6501000","淡水區"
"251008","181-VK","2018/01/08 16:09:48","新北市淡水區重建街82號","121.440015","25.1724383333333","6501000","淡水區"
"236056","912-UM","2018/01/08 16:09:33","新北市土城區中央路三段62號","121.436781666667","24.96733","6501300","土城區"
"238002","755-BX","2018/01/08 16:09:37","新北市樹林區大安路323巷10弄14號","121.417258333333","24.9910633333333","6500700","樹林區"
"238010","601-UM","2018/01/08 16:09:53","新北市樹林區龍興街46巷30號","121.40192","25.015175","6500700","樹林區"
"238006","599-UM","2018/01/08 16:09:39","新北市樹林區中華路190-16號","121.411783333333","24.9806166666667","6500700","樹林區"
"238005","571-TV","2018/01/08 16:09:42","新北市樹林區博愛街92號","121.42683","24.991795","6500700","樹林區"
"238011","5061-A6","2018/01/08 16:09:34","新北市樹林區育德街40號","121.39006","24.968935","6500700","樹林區"
"238009","KEA-2213","2018/01/08 16:09:44","新北市樹林區太平路174巷29弄1號","121.417686666667","24.9765633333333","6500700","樹林區"
"238004","283-BY","2018/01/08 16:09:32","新北市樹林區長壽街84號","121.420126666667","24.9956483333333","6500700","樹林區"
"238001","282-BY","2018/01/08 16:09:34","新北市樹林區中正路21號","121.427605","24.9993833333333","6500700","樹林區"
"238007","268-VK","2018/01/08 16:09:45","新北市樹林區三俊街135巷52號","121.418758333333","25.0172483333333","6500700","樹林區"
"238013","172-UY","2018/01/08 16:09:44","新北市樹林區佳園路一段75巷12-1號","121.39597","24.970315","6500700","樹林區"
"238003","169-UY","2018/01/08 16:09:47","新北市樹林區文化街25巷15號","121.41842","24.986635","6500700","樹林區"
"221015","297-VK","2018/01/08 15:09:20","新北市汐止區汐萬路一段256巷1號","121.651866666667","25.074855","6501100","汐止區"
