"lineid","car","time","location","longitude","latitude","cityid","cityname"
"249005","172-UM","2018/01/08 16:49:39","新北市八里區大堀湖2-3號","121.422465","25.1537083333333","6502300","八里區"
"249002","305-UY","2018/01/08 16:49:36","新北市八里區牛寮埔33號","121.429871666667","25.1456916666667","6502300","八里區"
"249003","593-UM","2018/01/08 16:49:48","新北市八里區博物館路165號","121.40648","25.1574066666667","6502300","八里區"
"249004","759-BX","2018/01/08 16:49:47","新北市八里區博物館路29號","121.413956666667","25.1627633333333","6502300","八里區"
"244007","080-UY","2018/01/08 16:49:51","新北市林口區林口路187巷31弄21號","121.387881666667","25.081205","6501700","林口區"
"244018","402-UM","2018/01/08 11:22:31","新北市林口區粉寮69號","121.405075","25.0908316666667","6501700","林口區"
"243011","297-R6","2018/01/08 15:55:08","新北市泰山區黎明路25號","121.42193","25.0609783333333","6501600","泰山區"
"243009","KEA-2216","2018/01/08 15:43:53","新北市泰山區黎明路25號","121.421915","25.0607283333333","6501600","泰山區"
"243005","646-TV","2018/01/08 15:31:35","新北市泰山區黎明路25號","121.42202","25.06066","6501600","泰山區"
"231046","278-BY","2018/01/08 16:49:44","新北市新店區灣潭路15-8號","121.541115","24.93921","6500600","新店區"
"241011","013-R5","2018/01/08 16:49:32","新北市三重區仁愛街53巷147號","121.499671666667","25.0726983333333","6500200","三重區"
"241028","022-UY","2018/01/08 16:49:45","新北市三重區光興街28號","121.49744","25.0598816666667","6500200","三重區"
"241008","059-VK","2018/01/08 16:49:35","新北市三重區永福街177巷22號","121.478098333333","25.0751633333333","6500200","三重區"
"241009","060-VK","2018/01/08 16:49:40","新北市三重區三和路四段203巷242號","121.487081666667","25.0808883333333","6500200","三重區"
"241031","061-VK","2018/01/08 16:49:50","新北市三重區新北大道一段11號","121.488098333333","25.0606783333333","6500200","三重區"
"241015","062-VK","2018/01/08 16:49:52","新北市三重區文化北路43巷11號","121.499293333333","25.0654816666667","6500200","三重區"
"241017","063-VK","2018/01/08 16:49:41","新北市三重區國隆路6號","121.493493333333","25.06366","6500200","三重區"
"241024","065-VK","2018/01/08 16:49:48","新北市三重區中正北路315巷6弄33號","121.475816666667","25.0719866666667","6500200","三重區"
"241026","066-VK","2018/01/08 16:49:49","","121.500051666667","25.0623816666667","6500200","三重區"
"241002","090-VK","2018/01/08 16:49:49","新北市三重區仁義街171號","121.496956666667","25.0815366666667","6500200","三重區"
"241003","091-VK","2018/01/08 16:49:37","新北市三重區五華街87巷16號","121.492551666667","25.0836366666667","6500200","三重區"
"241005","262-UM","2018/01/08 16:49:32","新北市三重區仁華街78號","121.484723333333","25.0831716666667","6500200","三重區"
"241025","265-UM","2018/01/08 16:49:35","新北市三重區中正北路530巷7號","121.471766666667","25.0710616666667","6500200","三重區"
"241016","266-UM","2018/01/08 16:49:40","新北市三重區大同北路115巷7號","121.493945","25.0646366666667","6500200","三重區"
"241022","267-UM","2018/01/08 16:49:34","新北市三重區中華路104號","121.483481666667","25.0634083333333","6500200","三重區"
"241018","268-UM","2018/01/08 16:49:40","新北市三重區正義北路302巷18號","121.494815","25.0696583333333","6500200","三重區"
"241032","269-UM","2018/01/08 16:49:40","新北市三重區重陽路一段120巷22號","121.485721666667","25.060125","6500200","三重區"
"241013","270-UM","2018/01/08 16:49:38","新北市三重區仁壽街77號","121.4978","25.0736783333333","6500200","三重區"
"241007","398-BY","2018/01/08 16:49:42","新北市三重區三和路四段181巷25號","121.48343","25.079235","6500200","三重區"
"241020","413-TH","2018/01/08 16:49:34","新北市三重區忠孝路二段51號","121.4857","25.071035","6500200","三重區"
"241004","475-VK","2018/01/08 16:49:39","新北市三重區仁愛街423-1號","121.49035","25.0814983333333","6500200","三重區"
"241019","478-VK","2018/01/08 16:49:21","新北市三重區忠孝路二段72號","121.484538333333","25.0697683333333","6500200","三重區"
"241030","480-VK","2018/01/08 16:49:38","新北市三重區新興路4號","121.49265","25.0527066666667","6500200","三重區"
"241014","543-UM","2018/01/08 16:49:36","新北市三重區長壽街120巷19弄9號","121.502553333333","25.06919","6500200","三重區"
"241023","545-UM","2018/01/08 16:49:46","新北市三重區新北大道一段206巷40號","121.482586666667","25.0625466666667","6500200","三重區"
"241001","547-UM","2018/01/08 16:49:49","新北市三重區仁政街74號","121.492721666667","25.07741","6500200","三重區"
"241006","AAD-863","2018/01/08 16:49:32","新北市三重區力行路二段184號","121.483323333333","25.077385","6500200","三重區"
"241012","941-UM","2018/01/08 16:49:46","新北市三重區仁興街11巷58號","121.501135","25.0745083333333","6500200","三重區"
"241029","942-UM","2018/01/08 16:49:52","新北市三重區中正南路201巷12號","121.492411666667","25.0540133333333","6500200","三重區"
"241033","AAC-255","2018/01/08 16:49:36","新北市三重區新北大道二段133號","121.466128333333","25.06113","6500200","三重區"
"235062","800-TS","2018/01/08 16:35:35","新北市中和區員山路36巷16號","121.484515","24.9916716666667","6500300","中和區"
"247008","341-TH","2018/01/08 16:49:50","新北市蘆洲區中山一路176號","121.474248333333","25.0811166666667","6501400","蘆洲區"
"247004","336-TH","2018/01/08 16:49:46","新北市蘆洲區長榮路653號","121.459963333333","25.0911566666667","6501400","蘆洲區"
"247006","056-VK","2018/01/08 16:49:46","","121.46145","25.0790316666667","6501400","蘆洲區"
"247018","001-UY","2018/01/08 16:49:40","新北市蘆洲區民族路422巷82弄19號","121.474183333333","25.09533","6501400","蘆洲區"
"226001","8452-VL","2018/01/08 16:24:26","","121.734318333333","25.0254933333333","6502400","平溪區"
"228003","097-TW","2018/01/08 16:49:52","新北市貢寮區貢寮里朝陽街1-2號","121.912366666667","25.0212516666667","6502600","貢寮區"
"228002","585-TW","2018/01/08 16:49:42","新北市貢寮區貢寮里朝陽街142號","121.90524","25.023385","6502600","貢寮區"
"224010","AGQ-8101","2018/01/08 09:47:07","新北市瑞芳區明燈路二段44-1號","121.80953","25.1082466666667","6501200","瑞芳區"
"224006","676-BX","2018/01/08 16:36:38","新北市瑞芳區大寮路356-1號","121.784615","25.1033383333333","6501200","瑞芳區"
"224009","285-BY","2018/01/08 16:49:34","新北市瑞芳區中山路266號","121.799238333333","25.107835","6501200","瑞芳區"
"224007","272-VK","2018/01/08 16:49:47","","121.760261666667","25.1036583333333","6501200","瑞芳區"
"224005","271-BY","2018/01/08 16:49:51","新北市瑞芳區洞頂路8-1號","121.862078333333","25.1217583333333","6501200","瑞芳區"
"227001","400-TW","2018/01/08 16:49:39","新北市雙溪區外柑里外柑腳71號","121.80713","25.0176166666667","6502500","雙溪區"
"227005","282-VK","2018/01/08 13:29:20","新北市雙溪區三貂里政光路3-1號","121.850825","25.0630016666667","6502500","雙溪區"
"227008","030-BX","2018/01/08 16:49:44","新北市雙溪區牡丹里石1號","121.864868333333","25.0527966666667","6502500","雙溪區"
"251013","179-VK","2018/01/08 16:49:38","新北市淡水區泉洲厝32號","121.489278333333","25.1925333333333","6501000","淡水區"
"251008","181-VK","2018/01/08 16:49:48","新北市淡水區樹梅坑34號","121.474543333333","25.1437533333333","6501000","淡水區"
"251015","182-VK","2018/01/08 16:49:35","新北市淡水區忠愛街6號","121.460888333333","25.1715516666667","6501000","淡水區"
"251012","441-VK","2018/01/08 16:49:44","","121.419321666667","25.1818083333333","6501000","淡水區"
"251016","442-VK","2018/01/08 16:49:47","新北市淡水區水頭42號","121.478465","25.1850583333333","6501000","淡水區"
"251007","577-R6","2018/01/08 16:49:46","新北市淡水區中正路二段31號","121.419465","25.1815466666667","6501000","淡水區"
"251011","650-BX","2018/01/08 16:49:41","新北市淡水區中正路二段31號","121.419278333333","25.1818866666667","6501000","淡水區"
"252002","178-VK","2018/01/08 16:49:42","新北市三芝區忠孝街137號","121.506353333333","25.2602783333333","6502100","三芝區"
"252001","292-VK","2018/01/08 16:49:39","新北市三芝區淡金路二段76-1號","121.503878333333","25.2608766666667","6502100","三芝區"
"242034","415-TV","2018/01/08 16:49:49","新北市新莊區新泰路357巷3弄57號","121.441895","25.0392583333333","6500500","新莊區"
"242060","362-BY","2018/01/08 16:49:47","新北市新莊區三和路12-21號","121.442201666667","25.0385933333333","6500500","新莊區"
"242007","132-UY","2018/01/08 16:49:32","新北市新莊區三和路12-21號","121.441926666667","25.0387966666667","6500500","新莊區"
"238019","599-UM","2018/01/08 16:49:39","新北市樹林區育德街78-1號","121.387816666667","24.968115","6500700","樹林區"
"238005","571-TV","2018/01/08 16:49:41","新北市樹林區水源街58號","121.425798333333","24.9810033333333","6500700","樹林區"
"238004","283-BY","2018/01/08 16:49:32","新北市樹林區育德街78-1號","121.388063333333","24.968125","6500700","樹林區"
"238001","282-BY","2018/01/08 16:49:34","新北市樹林區中正路22-1號","121.4278","24.9995316666667","6500700","樹林區"
"238003","169-UY","2018/01/08 16:49:47","新北市樹林區中山路二段121-6號","121.40797","24.9797383333333","6500700","樹林區"
"239007","AAC-297","2018/01/08 04:09:13","新北市鶯歌區二甲路13-16號","121.345015","24.9350133333333","6500800","鶯歌區"
"239005","526-UM","2018/01/08 10:42:48","新北市鶯歌區二甲路13-16號","121.345063333333","24.9353683333333","6500800","鶯歌區"
"239001","417-VK","2018/01/08 11:07:23","新北市鶯歌區二甲路13號","121.343966666667","24.9354066666667","6500800","鶯歌區"
"239002","359-BY","2018/01/08 01:12:08","新北市鶯歌區二甲路13號","121.343788333333","24.935405","6500800","鶯歌區"
"221015","297-VK","2018/01/08 15:09:20","新北市汐止區汐萬路一段256巷1號","121.651866666667","25.074855","6501100","汐止區"
