"lineid","car","time","location","longitude","latitude","cityid","cityname"
"234070","149-BY","2018/07/17 08:44:47","新北市永和區福和路1號","121.526315","25.0098716666667","6500400","永和區"
"248005","653-BX","2018/07/17 08:59:12","新北市五股區明德路12巷6號","121.43339","25.0718216666667","6501500","五股區"
"222004","289-BY","2018/07/17 08:56:08","新北市深坑區大崙尾1-1號","121.61544","24.9753016666667","6501800","深坑區"
"231007","189-VK","2018/07/17 08:59:10","新北市新店區新潭路二段61號","121.521945","24.9262666666667","6500600","新店區"
"231009","192-VK","2018/07/17 08:59:15","新北市新店區廣興路60巷8弄2號","121.543283333333","24.9133416666667","6500600","新店區"
"235001","611-BX","2018/07/17 08:59:24","新北市中和區莒光路207號","121.469998333333","24.9955116666667","6500300","中和區"
"226002","7418-A5","2018/07/17 08:41:15","新北市平溪區東勢里東勢格11號","121.735243333333","25.00298","6502400","平溪區"
"226006","AGD-0702","2018/07/17 08:59:28","新北市平溪區嶺腳里嶺腳寮111號","121.746515","25.03333","6502400","平溪區"
"223003","205-TH","2018/07/17 08:59:02","新北市石碇區北宜路四段23號","121.621326666667","24.9580866666667","6501900","石碇區"
"223008","406-TH","2018/07/17 08:59:24","新北市石碇區光明路32號","121.69518","25.0224983333333","6501900","石碇區"
"223001","592-UM","2018/07/17 08:59:10","新北市石碇區北宜路四段20號","121.61935","24.95918","6501900","石碇區"
"223004","660-BX","2018/07/17 08:59:13","新北市石碇區碇坪路二段51號","121.684345","24.9717783333333","6501900","石碇區"
"223005","677-TV","2018/07/17 08:59:12","新北市石碇區碇坪路二段65號","121.685306666667","24.9656483333333","6501900","石碇區"
"227006","282-VK","2018/07/17 08:59:10","新北市雙溪區上林里內平林120-2號","121.824576666667","25.0267133333333","6502500","雙溪區"
"227012","030-BX","2018/07/17 08:52:51","新北市雙溪區泰平里料角坑32號","121.795636666667","24.977015","6502500","雙溪區"
"252004","249-BX","2018/07/17 08:59:22","新北市三芝區興華里田心子31號","121.48867","25.200525","6502100","三芝區"
"252007","AAC-283","2018/07/17 08:59:24","新北市三芝區後厝里北勢子35號","121.478011666667","25.2463433333333","6502100","三芝區"
"237001","159-UY","2018/07/17 08:59:10","新北市三峽區大觀路309號","121.373255","24.9471916666667","6500900","三峽區"
"236008","165-UM","2018/07/17 08:59:15","新北市土城區金城路一段29號","121.440056666667","24.9692316666667","6501300","土城區"
"236002","339-SR","2018/07/17 08:59:28","新北市土城區興城路2號","121.442751666667","24.973505","6501300","土城區"
"236006","498-BY","2018/07/17 08:59:12","新北市土城區承天路4巷2-12號","121.436451666667","24.963445","6501300","土城區"
