"lineid","car","time","location","longitude","latitude","cityid","cityname"
"248005","653-BX","2018/07/17 09:39:12","新北市五股區成泰路一段87-1號","121.43492","25.0688333333333","6501500","五股區"
"222004","289-BY","2018/07/17 09:39:28","新北市深坑區公館後6-1號","121.60365","24.9942733333333","6501800","深坑區"
"231007","189-VK","2018/07/17 09:39:10","新北市新店區新潭路三段215巷25號","121.508156666667","24.9040866666667","6500600","新店區"
"231009","192-VK","2018/07/17 09:39:19","新北市新店區平廣路一段256號","121.507858333333","24.88823","6500600","新店區"
"227006","282-VK","2018/07/17 09:34:50","新北市雙溪區長源里柑腳58-1號","121.793836666667","25.0062733333333","6502500","雙溪區"
"227012","030-BX","2018/07/17 09:35:51","新北市坪林區中心崙2號","121.783558333333","24.9495916666667","6502500","雙溪區"
"252004","249-BX","2018/07/17 09:39:02","新北市三芝區圓山里石曹子坑69-1號","121.522446666667","25.2151433333333","6502100","三芝區"
"252007","AAC-283","2018/07/17 09:39:24","新北市三芝區埔坪里埔頭坑41號","121.504506666667","25.2646766666667","6502100","三芝區"
"237001","159-UY","2018/07/17 09:39:10","新北市三峽區國際一街90號","121.370758333333","24.941455","6500900","三峽區"
"236008","165-UM","2018/07/17 09:39:15","新北市土城區中央路四段323號","121.410528333333","24.95107","6501300","土城區"
"236006","498-BY","2018/07/17 09:39:13","新北市土城區忠承路37號","121.4408","24.9670366666667","6501300","土城區"
