"lineid","car","time","location","longitude","latitude","cityid","cityname"
"248005","653-BX","2018/07/17 10:39:31","新北市五股區中興路二段37巷26號","121.460515","25.07498","6501500","五股區"
"231007","189-VK","2018/07/17 10:39:30","新北市新店區新潭路三段80巷15號","121.502091666667","24.909745","6500600","新店區"
"231009","192-VK","2018/07/17 10:39:34","新北市新店區小坑一路12-6號","121.535371666667","24.912565","6500600","新店區"
"227006","282-VK","2018/07/17 10:39:30","新北市雙溪區新基里新基北街78-1號","121.870846666667","25.04122","6502500","雙溪區"
"237001","159-BY","2018/07/17 10:39:32","新北市三峽區中正路二段395巷26號","121.365656666667","24.9077416666667","6500900","三峽區"
