"lineid","car","time","location","longitude","latitude","cityid","cityname"
"234036","336-UY","2018/07/17 12:19:47","新北市永和區福和路1號","121.526595","25.0102716666667","6500400","永和區"
"234040","862-TW","2018/07/17 12:19:35","新北市永和區福和路1號","121.52646","25.0096316666667","6500400","永和區"
"231009","192-VK","2018/07/17 12:19:34","新北市新店區北新路一段89號","121.538785","24.961465","6500600","新店區"
"235028","005-UY","2018/07/17 12:19:31","新北市中和區員山路36巷16-3號","121.48512","24.9912716666667","6500300","中和區"
"235029","098-UM","2018/07/17 12:19:37","新北市中和區員山路36巷16-3號","121.484995","24.9912766666667","6500300","中和區"
"228004","212-TW","2018/07/17 12:19:40","新北市貢寮區貢寮里長泰路17-2號","121.892896666667","25.0208066666667","6502600","貢寮區"
"228005","828-UM","2018/07/17 12:19:50","新北市貢寮區福連里福連街34號","121.98821","25.0120616666667","6502600","貢寮區"
