"lineid","car","time","location","longitude","latitude","cityid","cityname"
"234044","148-BY","2018/07/17 13:39:37","新北市永和區永亨路175號","121.526178333333","25.00349","6500400","永和區"
"234070","149-BY","2018/07/17 13:39:44","新北市永和區自由街77巷20弄1號","121.513836666667","25.00421","6500400","永和區"
"234005","207-UY","2018/07/17 13:39:39","新北市永和區永和路二段35號","121.514315","25.0103983333333","6500400","永和區"
"234078","298-R6","2018/07/17 13:39:47","新北市永和區林森路20巷7號","121.525851666667","25.0057316666667","6500400","永和區"
"234036","336-UY","2018/07/17 13:39:47","新北市永和區民樂街39巷11號","121.528135","25.000505","6500400","永和區"
"234062","337-UY","2018/07/17 13:39:53","新北市永和區秀朗路一段192巷6弄10號","121.519133333333","25.0023766666667","6500400","永和區"
"234068","552-UM","2018/07/17 13:39:40","新北市永和區永和路二段237-1號","121.515625","25.01443","6500400","永和區"
"234084","553-UM","2018/07/17 13:39:50","新北市永和區林森路62號","121.52397","25.0043383333333","6500400","永和區"
"234015","745-BX","2018/07/17 13:39:48","新北市永和區忠孝街26巷27弄1號","121.51523","25.0169583333333","6500400","永和區"
"234028","746-BX","2018/07/17 13:39:40","新北市永和區民權路23號","121.520168333333","24.9977866666667","6500400","永和區"
"234052","KEA-2590","2018/07/17 13:39:34","新北市永和區竹林路39巷22號","121.519001666667","25.014745","6500400","永和區"
"234012","KEA-2591","2018/07/17 13:39:39","新北市永和區仁愛路168號","121.510168333333","25.0126883333333","6500400","永和區"
"234060","AAD-866","2018/07/17 13:39:52","新北市永和區中正路446號","121.517513333333","25.0028633333333","6500400","永和區"
"234066","847-RS","2018/07/17 13:39:39","新北市永和區中山路一段191巷9弄3號","121.50967","25.0081283333333","6500400","永和區"
"234040","862-TW","2018/07/17 13:39:37","新北市永和區中和路307號","121.506618333333","24.9998633333333","6500400","永和區"
"234048","863-TW","2018/07/17 13:39:52","新北市永和區保安路76號","121.509958333333","25.0163766666667","6500400","永和區"
"234025","9371-KE","2018/07/17 13:39:39","新北市永和區永平路186號","121.510545","25.009295","6500400","永和區"
"234010","9373-KE","2018/07/17 13:39:48","新北市永和區保福路二段50號","121.51098","25.0121816666667","6500400","永和區"
"248017","225-UY","2018/07/17 13:39:35","新北市五股區民義路二段50-5號","121.410745","25.1041183333333","6501500","五股區"
"234022","9380-KE","2018/07/17 13:39:47","新北市永和區中正路702巷19號","121.516388333333","25.0105966666667","6500400","永和區"
"234076","969-R7","2018/07/17 13:39:32","新北市永和區民族街43巷6號","121.518731666667","24.9983683333333","6500400","永和區"
"234072","AAC-211","2018/07/17 13:39:33","新北市永和區竹林路217號","121.520926666667","25.0087383333333","6500400","永和區"
"234001","AAC-295","2018/07/17 13:39:43","新北市永和區福和路346號","121.514966666667","25.007315","6500400","永和區"
"244002","248-BX","2018/07/17 13:39:46","新北市林口區南勢里31號","121.352145","25.07045","6501700","林口區"
"231002","002-UM","2018/07/17 13:39:46","新北市新店區溪園路405號","121.524035","24.978185","6500600","新店區"
"231027","0291-UT","2018/07/17 13:39:53","新北市新店區北宜路一段105巷4弄3號","121.53994","24.9554216666667","6500600","新店區"
"231028","046-UY","2018/07/17 13:39:43","新北市新店區安和路一段6-2號","121.517073333333","24.9648466666667","6500600","新店區"
"231001","047-UY","2018/07/17 13:39:31","新北市新店區中正路366號","121.535141666667","24.9761483333333","6500600","新店區"
"231005","106-UY","2018/07/17 13:39:50","新北市新店區寶中路45-3號","121.545193333333","24.9791","6500600","新店區"
"231010","107-UY","2018/07/17 13:39:48","新北市新店區中正路305號","121.536543333333","24.974605","6500600","新店區"
"231012","187-VK","2018/07/17 13:39:49","新北市新店區德正街23巷12-1號","121.54457","24.972255","6500600","新店區"
"231023","KEA-2219","2018/07/17 13:39:50","新北市新店區新店路190號","121.53715","24.9561","6500600","新店區"
"231026","256-BX","2018/07/17 13:39:32","新北市新店區北宜路一段107號","121.539366666667","24.9551833333333","6500600","新店區"
"231003","268-BY","2018/07/17 13:39:45","新北市新店區中正路12號","121.545331666667","24.9695816666667","6500600","新店區"
"231018","278-BY","2018/07/17 13:39:37","新北市新店區百忍街35號","121.533555","24.9757216666667","6500600","新店區"
"231015","AAD-862","2018/07/17 13:39:39","新北市新店區竹林路2巷31號","121.550358333333","24.95013","6500600","新店區"
"231004","355-BY","2018/07/17 13:39:32","新北市新店區北新路二段42號","121.542913333333","24.9718466666667","6500600","新店區"
"231038","3712-VJ","2018/07/17 13:39:51","新北市新店區安華路28-1號","121.519316666667","24.9606566666667","6500600","新店區"
"231037","4716-K9","2018/07/17 13:39:50","新北市新店區薏仁坑路47-1號","121.494258333333","24.9632383333333","6500600","新店區"
"231025","4715-K9","2018/07/17 13:39:46","新北市新店區中央六街56號","121.527971666667","24.9757233333333","6500600","新店區"
"231036","512-UM","2018/07/17 13:39:34","新北市新店區安祥路147巷14號","121.47546","24.95591","6500600","新店區"
"231013","513-UM","2018/07/17 13:39:37","新北市新店區中正路454-5號","121.534468333333","24.9790433333333","6500600","新店區"
"231034","616-UM","2018/07/17 13:39:49","新北市新店區黎明路98號","121.504153333333","24.94507","6500600","新店區"
"231006","617-UM","2018/07/17 13:39:51","新北市新店區北宜路一段109巷3號","121.539608333333","24.95498","6500600","新店區"
"231030","619-UM","2018/07/17 13:39:39","新北市新店區安康路一段222-2號","121.52298","24.9636783333333","6500600","新店區"
"231035","719-UM","2018/07/17 13:39:52","新北市新店區安忠路63巷2號","121.511536666667","24.9579583333333","6500600","新店區"
"231020","719-UY","2018/07/17 13:39:52","新北市新店區永興路88-1號","121.544031666667","24.9336583333333","6500600","新店區"
"231032","720-UM","2018/07/17 13:39:43","新北市新店區安康路一段355-10號","121.520246666667","24.9638016666667","6500600","新店區"
"231029","897-TW","2018/07/17 13:39:38","新北市新店區安康路二段212-1號","121.509933333333","24.9593866666667","6500600","新店區"
"231024","AKT-0513","2018/07/17 13:39:35","新北市新店區北新路一段271巷43-1號","121.539426666667","24.9669266666667","6500600","新店區"
"235030","003-UY","2018/07/17 13:39:48","新北市中和區水源路34巷1號","121.504965","25.00358","6500300","中和區"
"235028","005-UY","2018/07/17 13:39:38","新北市中和區連城路110號","121.496325","24.999795","6500300","中和區"
"235027","006-UY","2018/07/17 13:39:47","新北市中和區連城路401號","121.486171666667","24.9959366666667","6500300","中和區"
"235020","096-UM","2018/07/17 13:39:49","新北市中和區員山路466巷21弄18號","121.481015","25.0070066666667","6500300","中和區"
"235003","097-UM","2018/07/17 13:39:51","新北市中和區景平路278巷14弄16號","121.514893333333","24.9931783333333","6500300","中和區"
"235029","098-UM","2018/07/17 13:39:37","新北市中和區中山路二段2巷57號","121.501785","25.00728","6500300","中和區"
"235004","150-BY","2018/07/17 13:39:47","新北市中和區保健路50巷62-1號","121.509318333333","24.9952566666667","6500300","中和區"
"235022","151-BY","2018/07/17 13:39:44","新北市中和區員山路24-1號","121.484123333333","24.9856466666667","6500300","中和區"
"235019","183-VK","2018/07/17 13:39:43","新北市中和區國光街102巷40號","121.471093333333","25.0005983333333","6500300","中和區"
"235002","185-VK","2018/07/17 13:39:37","新北市中和區大勇街45巷12號","121.517786666667","24.9950733333333","6500300","中和區"
"235013","186-VK","2018/07/17 13:39:50","新北市中和區景平路500巷7號","121.504395","24.99384","6500300","中和區"
"235031","255-BX","2018/07/17 13:39:52","新北市中和區新生街186巷5弄27號","121.482865","24.9986833333333","6500300","中和區"
"235008","293-VK","2018/07/17 13:39:47","新北市中和區復興路280巷5號","121.50228","24.9909233333333","6500300","中和區"
"235036","301-VK","2018/07/17 13:39:48","新北市中和區連城路171巷41弄1號","121.496458333333","24.9966166666667","6500300","中和區"
"235007","352-BY","2018/07/17 13:39:34","新北市中和區景平路187號","121.511551666667","24.9925466666667","6500300","中和區"
"235006","KEA-2878","2018/07/17 13:39:46","新北市中和區成功路38號","121.526011666667","24.9930483333333","6500300","中和區"
"235014","4979-A6","2018/07/17 13:39:53","新北市中和區景新街496巷28-2號","121.513203333333","24.9855483333333","6500300","中和區"
"235033","4980-A6","2018/07/17 13:39:37","新北市中和區連城路87號","121.496936666667","25.000395","6500300","中和區"
"235034","558-UM","2018/07/17 13:39:41","新北市中和區景平路572號","121.501785","24.9954383333333","6500300","中和區"
"235009","565-BX","2018/07/17 13:39:43","新北市中和區南山路236巷61號","121.504353333333","24.9879216666667","6500300","中和區"
"235018","640-BX","2018/07/17 13:39:44","新北市中和區民享街53號","121.474073333333","25.0026183333333","6500300","中和區"
"235024","647-TV","2018/07/17 13:39:51","新北市中和區中山路二段537號","121.481313333333","25.0053466666667","6500300","中和區"
"235035","783-BX","2018/07/17 13:39:35","新北市中和區立德街98巷65號","121.487861666667","25.0100333333333","6500300","中和區"
"235026","800-TS","2018/07/17 13:39:33","新北市中和區中山路二段312巷33弄22號","121.494845","25.004235","6500300","中和區"
"235021","801-TS","2018/07/17 13:39:37","新北市中和區民安街42巷5-2號","121.478486666667","25.0015333333333","6500300","中和區"
"235005","802-TS","2018/07/17 13:39:40","新北市中和區中安街76號","121.512141666667","25.002015","6500300","中和區"
"235016","805-TS","2018/07/17 13:39:51","新北市中和區興南路三段52巷1號","121.493525","24.9761983333333","6500300","中和區"
"235012","896-TW","2018/07/17 13:39:34","新北市中和區中正路169號","121.498015","24.993485","6500300","中和區"
"235017","900-TW","2018/07/17 13:39:39","新北市土城區延壽路118-3號","121.469091666667","24.9942416666667","6500300","中和區"
"235015","157-BY","2018/07/17 13:39:38","新北市中和區華新街143巷106弄3號","121.505993333333","24.979025","6500300","中和區"
"235001","AAC-213","2018/07/17 13:39:39","新北市中和區景德街58號","121.517386666667","24.991515","6500300","中和區"
"235023","AAC-215","2018/07/17 13:39:36","新北市中和區錦和路350-1號","121.490098333333","24.9935433333333","6500300","中和區"
"220016","013-TV","2018/07/17 13:39:49","新北市板橋區民生路二段120號","121.470796666667","25.0194833333333","6500100","板橋區"
"220013","072-UY","2018/07/17 13:39:36","新北市板橋區漢生東路276-2號","121.469283333333","25.0120983333333","6500100","板橋區"
"220086","073-UY","2018/07/17 13:39:46","新北市板橋區大智街71巷42弄15號","121.452213333333","25.0146416666667","6500100","板橋區"
"220017","AAD-861","2018/07/17 13:39:40","新北市板橋區華東街1-10號","121.448328333333","24.9951266666667","6500100","板橋區"
"247021","500-BY","2018/07/17 13:39:40","新北市五股區新五路三段181號","121.448918333333","25.0925","6501400","蘆洲區"
"247017","057-VK","2018/07/17 13:39:48","新北市五股區成洲一路25號","121.449821666667","25.0951916666667","6501400","蘆洲區"
"247007","056-VK","2018/07/17 13:39:40","新北市五股區四維路171巷6號","121.467538333333","25.0752683333333","6501400","蘆洲區"
"247019","001-UY","2018/07/17 13:39:52","新北市五股區成泰路三段544-1號","121.454648333333","25.1014066666667","6501400","蘆洲區"
"235011","251-BX","2018/07/17 13:39:33","新北市中和區南山路320巷10弄21號","121.506768333333","24.9866566666667","6500300","中和區"
"228004","212-TW","2018/07/17 13:39:20","新北市貢寮區龍崗里石壁坑街30-3號","121.90867","25.0029116666667","6502600","貢寮區"
"228005","828-UM","2018/07/17 13:39:50","新北市貢寮區美豐里文秀坑5-1號","121.903151666667","25.051175","6502600","貢寮區"
"207002","749-BX","2018/07/17 13:39:47","新北市萬里區崁腳里崁腳路166號","121.645105","25.1558183333333","6502800","萬里區"
"207001","662-BX","2018/07/17 13:39:50","新北市萬里區磺潭里公館崙14號","121.639516666667","25.2135433333333","6502800","萬里區"
"252005","AAC-283","2018/07/17 13:39:54","新北市三芝區圓山里二坪頂47號","121.538615","25.2426666666667","6502100","三芝區"
"237001","159-BY","2018/07/17 13:39:33","新北市三峽區中正路二段377號","121.365175","24.9084016666667","6500900","三峽區"
"236065","105-UM","2018/07/17 13:39:39","新北市土城區城林路6巷80號","121.438646666667","24.97967","6501300","土城區"
"236074","166-UM","2018/07/17 13:39:45","新北市土城區城林路6巷80號","121.438233333333","24.97955","6501300","土城區"
"236032","271-VK","2018/07/17 13:39:49","新北市土城區城林路6巷80號","121.438466666667","24.9797783333333","6501300","土城區"
"236006","498-BY","2018/07/17 13:39:51","新北市土城區慶祥街46號","121.43687","24.97431","6501300","土城區"
"236040","752-BX","2018/07/17 13:39:43","新北市土城區城林路6巷80號","121.438553333333","24.9798383333333","6501300","土城區"
"236057","912-UM","2018/07/17 13:39:45","新北市土城區城林路6巷80號","121.438553333333","24.9797783333333","6501300","土城區"
"236060","915-UM","2018/07/17 13:39:38","新北市土城區城林路6巷80號","121.438483333333","24.9797133333333","6501300","土城區"
"221032","280-BY","2018/07/17 13:39:46","新北市汐止區仁愛路10號","121.659316666667","25.06368","6501100","汐止區"
"220028","200-UY","2018/07/17 13:39:44","新北市板橋區大觀路二段265巷76弄28號","121.441403333333","24.996845","6500100","板橋區"
"220030","610-BX","2018/07/17 13:39:36","新北市板橋區篤行路一段29號","121.432058333333","24.9944933333333","6500100","板橋區"
"220004","276-BY","2018/07/17 13:39:53","新北市板橋區四川路二段橋頭6號","121.448243333333","24.9940016666667","6500100","板橋區"
"220020","277-BY","2018/07/17 13:39:48","新北市板橋區大觀路三段50巷49號","121.432326666667","24.9956016666667","6500100","板橋區"
"220019","283-VK","2018/07/17 13:39:37","新北市土城區四川路2號","121.455886666667","24.9961533333333","6500100","板橋區"
"220043","285-UM","2018/07/17 13:39:34","新北市板橋區民生路二段161巷1號","121.470063333333","25.0198066666667","6500100","板橋區"
"220001","285-VK","2018/07/17 13:39:48","新北市板橋區民生路二段120號","121.47075","25.0200833333333","6500100","板橋區"
"220031","286-VK","2018/07/17 13:39:51","新北市板橋區大觀路二段111號","121.446211666667","25.00157","6500100","板橋區"
"220029","287-VK","2018/07/17 13:39:48","新北市板橋區大觀路一段79號","121.44707","25.0043066666667","6500100","板橋區"
"220039","288-VK","2018/07/17 13:39:34","新北市板橋區民生路二段161巷3號","121.470243333333","25.0198066666667","6500100","板橋區"
"220009","293-UM","2018/07/17 13:39:42","新北市板橋區民生路二段120號","121.47039","25.019725","6500100","板橋區"
"220010","295-UM","2018/07/17 13:39:40","新北市板橋區民生路二段120號","121.470546666667","25.0194883333333","6500100","板橋區"
"220023","303-R5","2018/07/17 13:39:35","新北市板橋區華東街308號","121.452728333333","25.00314","6500100","板橋區"
"220012","486-VK","2018/07/17 13:39:50","新北市板橋區民生路二段121號","121.470795","25.0181916666667","6500100","板橋區"
"220037","491-VK","2018/07/17 13:39:41","新北市板橋區民生路二段188號","121.469938333333","25.020475","6500100","板橋區"
"220104","560-BX","2018/07/17 13:39:45","新北市板橋區南雅西路二段145巷10號","121.451588333333","25.0119216666667","6500100","板橋區"
"220027","568-UM","2018/07/17 13:39:45","新北市板橋區大智街16號","121.455921666667","25.0148466666667","6500100","板橋區"
"220011","609-BX","2018/07/17 13:39:51","新北市板橋區民生路二段175號","121.469833333333","25.0202533333333","6500100","板橋區"
"220005","686-BX","2018/07/17 13:39:50","新北市板橋區華東街1-9號","121.448216666667","24.9949183333333","6500100","板橋區"
"220025","687-BX","2018/07/17 13:39:40","新北市板橋區大觀路三段212巷70號","121.429731666667","24.9935366666667","6500100","板橋區"
"220002","741-BX","2018/07/17 13:39:37","新北市板橋區南雅南路二段120-21號","121.451851666667","24.998935","6500100","板橋區"
"220003","827-TW","2018/07/17 13:39:32","新北市板橋區華東街1-10號","121.44868","24.9950266666667","6500100","板橋區"
"220014","829-TW","2018/07/17 13:39:42","新北市板橋區民生路二段120號","121.47064","25.0200333333333","6500100","板橋區"
"220022","895-R6","2018/07/17 13:39:39","新北市板橋區館前西路125號","121.456613333333","25.0074283333333","6500100","板橋區"
"220021","985-R7","2018/07/17 13:39:36","新北市板橋區南雅南路二段116號","121.453273333333","25.00036","6500100","板橋區"
"220018","AAC-253","2018/07/17 13:39:46","新北市板橋區華東街1-9號","121.448153333333","24.995035","6500100","板橋區"
"235032","KEA-2873","2018/07/17 13:39:43","新北市中和區中正路211巷36弄2號","121.497346666667","24.9927383333333","6500300","中和區"
"235025","KEA-2875","2018/07/17 13:39:36","新北市中和區民享街112號","121.474435","24.99924","6500300","中和區"
