"lineid","car","time","location","longitude","latitude","cityid","cityname"
"234044","148-BY","2018/07/17 14:09:37","新北市永和區得和路326號","121.523203333333","24.999485","6500400","永和區"
"234070","149-BY","2018/07/17 14:09:44","新北市永和區永元路95巷1號","121.522448333333","25.00191","6500400","永和區"
"234005","207-UY","2018/07/17 14:09:39","新北市中和區中和路232號","121.506656666667","24.999515","6500400","永和區"
"234078","298-R6","2018/07/17 14:09:52","新北市永和區永亨路105巷6號","121.523548333333","25.005075","6500400","永和區"
"234036","336-UY","2018/07/17 14:09:47","新北市永和區環河東路三段96號","121.528055","25.004","6500400","永和區"
"234062","337-UY","2018/07/17 14:09:33","新北市永和區永利路152號","121.522436666667","25.00276","6500400","永和區"
"234068","552-UM","2018/07/17 14:09:40","新北市永和區中正路632號","121.516973333333","25.0080966666667","6500400","永和區"
"234084","553-UM","2018/07/17 14:09:50","新北市永和區中正路575-1號","121.516791666667","25.0085016666667","6500400","永和區"
"234015","745-BX","2018/07/17 14:09:44","新北市永和區仁愛路54號","121.513771666667","25.0133383333333","6500400","永和區"
"234028","746-BX","2018/07/17 14:09:39","新北市永和區民生路22巷33號","121.520848333333","24.9969316666667","6500400","永和區"
"234052","KEA-2590","2018/07/17 14:09:34","新北市永和區博愛街15號","121.51719","25.015835","6500400","永和區"
"234012","KEA-2591","2018/07/17 14:09:47","新北市永和區保生路3號","121.506306666667","25.0074833333333","6500400","永和區"
"234060","AAD-866","2018/07/17 14:09:52","新北市永和區安樂路138號","121.5141","25.0003283333333","6500400","永和區"
"234066","847-RS","2018/07/17 14:09:51","新北市永和區保平路214巷1弄12號","121.50902","25.0058083333333","6500400","永和區"
"234040","862-TW","2018/07/17 14:09:47","新北市永和區雙和街60號","121.509096666667","25.0033916666667","6500400","永和區"
"234048","863-TW","2018/07/17 14:09:49","新北市永和區環河西路二段79號","121.50676","25.01509","6500400","永和區"
"234025","9371-KE","2018/07/17 14:09:39","新北市永和區安樂路272巷7弄3號","121.514921666667","25.0044816666667","6500400","永和區"
"234010","9373-KE","2018/07/17 14:09:48","新北市永和區仁愛路352巷124號","121.500265","25.008575","6500400","永和區"
"248017","225-UY","2018/07/17 14:09:35","新北市五股區民義路一段310-13號","121.423873333333","25.0942466666667","6501500","五股區"
"234022","9380-KE","2018/07/17 14:09:47","新北市永和區博愛街32巷12號","121.51881","25.0153183333333","6500400","永和區"
"234076","969-R7","2018/07/17 14:09:52","新北市永和區民有街75巷10弄16號","121.518921666667","24.99605","6500400","永和區"
"234072","AAC-211","2018/07/17 14:09:54","新北市永和區竹林路201巷21號","121.521678333333","25.009325","6500400","永和區"
"234001","AAC-295","2018/07/17 14:09:47","新北市永和區中正路696-1號","121.516431666667","25.0097666666667","6500400","永和區"
"244002","248-BX","2018/07/17 14:09:46","新北市林口區南勢里31號","121.352136666667","25.0704683333333","6501700","林口區"
"231002","002-UM","2018/07/17 14:09:46","新北市新店區中正路487號","121.533651666667","24.982145","6500600","新店區"
"231027","0291-UT","2018/07/17 14:09:53","新北市新店區光明街224巷20弄9號","121.54062","24.9621083333333","6500600","新店區"
"231028","046-UY","2018/07/17 14:09:36","新北市新店區安和路三段37號","121.517651666667","24.9817183333333","6500600","新店區"
"231001","047-UY","2018/07/17 14:09:52","新北市新店區中華路22號","121.540328333333","24.9676766666667","6500600","新店區"
"231005","106-UY","2018/07/17 14:09:50","新北市新店區中興路三段229號","121.542995","24.9834466666667","6500600","新店區"
"231012","187-VK","2018/07/17 14:09:49","新北市新店區中興路一段264號","121.544788333333","24.9671433333333","6500600","新店區"
"231023","KEA-2219","2018/07/17 14:09:50","新北市新店區文中路45號","121.539565","24.9565766666667","6500600","新店區"
"231003","268-BY","2018/07/17 14:09:45","新北市新店區北宜路一段9號","121.53829","24.958155","6500600","新店區"
"231018","278-BY","2018/07/17 14:09:37","新北市新店區中央四街54號","121.527495","24.9749566666667","6500600","新店區"
"231015","AAD-862","2018/07/17 14:09:39","新北市新店區北宜路二段150號","121.557753333333","24.9532283333333","6500600","新店區"
"231004","355-BY","2018/07/17 14:09:52","新北市新店區北新路二段35號","121.54285","24.9725183333333","6500600","新店區"
"231038","3712-VJ","2018/07/17 14:09:50","新北市新店區安康路一段92-1號","121.527881666667","24.961985","6500600","新店區"
"231037","4716-K9","2018/07/17 14:09:51","新北市新店區安康路三段108號","121.491345","24.9518","6500600","新店區"
"231025","4715-K9","2018/07/17 14:09:46","新北市新店區二十張路129巷5弄2號","121.536601666667","24.9787183333333","6500600","新店區"
"231036","512-UM","2018/07/17 14:09:34","新北市新店區安祥路109巷6弄47號","121.47555","24.9573583333333","6500600","新店區"
"231013","513-UM","2018/07/17 14:09:37","新北市新店區北新路三段65巷21號","121.54043","24.9810383333333","6500600","新店區"
"231034","616-UM","2018/07/17 14:09:49","新北市新店區車子路11號","121.503058333333","24.95204","6500600","新店區"
"231006","617-UM","2018/07/17 14:09:51","新北市新店區北宜路二段210號","121.559375","24.954355","6500600","新店區"
"231030","619-UM","2018/07/17 14:09:39","新北市新店區安民街115巷28號","121.515125","24.9676366666667","6500600","新店區"
"231035","719-UM","2018/07/17 14:09:52","新北市新店區安和路一段52巷2-1號","121.51769","24.96626","6500600","新店區"
"231020","719-UY","2018/07/17 14:09:52","新北市新店區屈尺路161-3號","121.542135","24.9218666666667","6500600","新店區"
"231032","720-UM","2018/07/17 14:09:43","新北市新店區永業路3號","121.533981666667","24.95619","6500600","新店區"
"231029","897-TW","2018/07/17 14:09:38","新北市新店區安康路二段161號","121.510208333333","24.9593833333333","6500600","新店區"
"231024","AKT-0513","2018/07/17 14:09:55","新北市新店區北新路一段8號","121.540873333333","24.965325","6500600","新店區"
"235030","003-UY","2018/07/17 14:09:48","新北市中和區廣福路58號","121.503711666667","25.0018133333333","6500300","中和區"
"235028","005-UY","2018/07/17 14:09:38","新北市中和區中和路30號","121.499843333333","25.00177","6500300","中和區"
"235027","006-UY","2018/07/17 14:09:38","新北市中和區中正路262號","121.495311666667","24.994375","6500300","中和區"
"235020","096-UM","2018/07/17 14:09:48","新北市中和區員山路516號","121.479116666667","25.0095116666667","6500300","中和區"
"235003","097-UM","2018/07/17 14:09:51","新北市中和區秀峰街103巷6弄12號","121.51973","24.99001","6500300","中和區"
"235029","098-UM","2018/07/17 14:09:37","新北市中和區中山路二段64巷14弄26號","121.503913333333","25.006175","6500300","中和區"
"235004","150-BY","2018/07/17 14:09:47","新北市中和區宜安路60號","121.511641666667","24.996915","6500300","中和區"
"235022","151-BY","2018/07/17 14:09:45","新北市中和區員山路92巷15號","121.481623333333","24.9945666666667","6500300","中和區"
"235019","183-VK","2018/07/17 14:09:43","新北市中和區莒光路27號","121.472038333333","25.005445","6500300","中和區"
"235002","185-VK","2018/07/17 14:09:36","新北市中和區大仁街20巷26號","121.518846666667","24.99311","6500300","中和區"
"235013","186-VK","2018/07/17 14:09:50","新北市中和區安和路137號","121.506345","24.99616","6500300","中和區"
"235031","255-BX","2018/07/17 14:09:52","新北市中和區連城路280號","121.484541666667","24.9962983333333","6500300","中和區"
"235008","293-VK","2018/07/17 14:09:52","新北市中和區中興街202巷2號","121.499445","24.99002","6500300","中和區"
"235036","301-VK","2018/07/17 14:09:48","新北市中和區中山路二段205號","121.499535","25.002575","6500300","中和區"
"235007","352-BY","2018/07/17 14:09:34","新北市中和區景平路148號","121.518138333333","24.9920066666667","6500300","中和區"
"235006","KEA-2878","2018/07/17 14:09:46","新北市中和區自強路17號","121.520565","24.99349","6500300","中和區"
"247009","KEA-2869","2018/07/17 14:09:39","新北市蘆洲區三民路50-2號","121.475395","25.08332","6501400","蘆洲區"
"235014","4979-A6","2018/07/17 14:09:47","新北市中和區復興路280巷19號","121.502151666667","24.991645","6500300","中和區"
"235033","4980-A6","2018/07/17 14:09:37","新北市中和區中和路165巷5號","121.50264","25.00033","6500300","中和區"
"235034","558-UM","2018/07/17 14:09:41","新北市中和區中和路72號","121.500948333333","25.000715","6500300","中和區"
"235009","565-BX","2018/07/17 14:09:42","新北市中和區景新街467巷15弄11號","121.513715","24.9887583333333","6500300","中和區"
"235018","640-BX","2018/07/17 14:09:44","新北市中和區國光街115號","121.469653333333","25.0005166666667","6500300","中和區"
"235024","647-TV","2018/07/17 14:09:51","新北市中和區民有街88號","121.476073333333","25.0039366666667","6500300","中和區"
"235010","733-UM","2018/07/17 14:09:53","新北市中和區忠孝街1巷45號","121.508498333333","24.9840266666667","6500300","中和區"
"235035","783-BX","2018/07/17 14:09:55","新北市中和區建二路157號","121.487646666667","25.0036783333333","6500300","中和區"
"235026","800-TS","2018/07/17 14:09:53","新北市中和區橋和路104號","121.490901666667","25.0052683333333","6500300","中和區"
"235021","801-TS","2018/07/17 14:09:37","新北市中和區民利街53號","121.479393333333","24.9987833333333","6500300","中和區"
"235005","802-TS","2018/07/17 14:09:40","新北市中和區中安街178巷2號","121.51101","24.999615","6500300","中和區"
"235016","805-TS","2018/07/17 14:09:51","新北市中和區興南路二段142巷19弄13號","121.502731666667","24.9835216666667","6500300","中和區"
"235012","896-TW","2018/07/17 14:09:54","新北市中和區工專路147號","121.508386666667","24.97877","6500300","中和區"
"235017","900-TW","2018/07/17 14:09:39","新北市中和區華福街71巷7-2號","121.467255","24.996965","6500300","中和區"
"235015","157-BY","2018/07/17 14:09:38","新北市中和區興南路一段75號","121.510185","24.989135","6500300","中和區"
"235001","AAC-213","2018/07/17 14:09:39","新北市中和區秀朗路三段60巷1號","121.526128333333","24.9950716666667","6500300","中和區"
"235023","AAC-215","2018/07/17 14:09:36","新北市中和區圓通路294-4號","121.488818333333","24.989285","6500300","中和區"
"220016","013-TV","2018/07/17 14:09:49","新北市板橋區翠華街6巷53號","121.481395","25.0246433333333","6500100","板橋區"
"220013","072-UY","2018/07/17 14:09:50","新北市板橋區民族路219巷77號","121.468856666667","25.0089933333333","6500100","板橋區"
"220034","073-UY","2018/07/17 14:09:46","新北市板橋區中正路236巷106號","121.458971666667","25.0195633333333","6500100","板橋區"
"220105","075-UY","2018/07/17 14:09:50","新北市板橋區文化路二段369巷20號","121.472485","25.0315283333333","6500100","板橋區"
"220017","AAD-861","2018/07/17 14:09:40","新北市板橋區大華街109號","121.459475","25.003335","6500100","板橋區"
"247023","893-R6","2018/07/17 14:09:51","新北市蘆洲區光榮路116號","121.464448333333","25.0893866666667","6501400","蘆洲區"
"247013","546-UM","2018/07/17 14:09:39","新北市蘆洲區三民路155號","121.471538333333","25.086895","6501400","蘆洲區"
"247021","500-BY","2018/07/17 14:09:40","新北市蘆洲區三民路165號","121.471313333333","25.0869216666667","6501400","蘆洲區"
"247011","339-TH","2018/07/17 14:09:46","新北市蘆洲區信義路355號","121.477598333333","25.0874616666667","6501400","蘆洲區"
"247003","337-TH","2018/07/17 14:09:40","新北市蘆洲區長安街102巷67號","121.462548333333","25.0823283333333","6501400","蘆洲區"
"247005","336-TH","2018/07/17 14:09:36","新北市蘆洲區和平路97巷7號","121.467966666667","25.07869","6501400","蘆洲區"
"247017","057-VK","2018/07/17 14:09:48","新北市蘆洲區民族路201巷19號","121.477206666667","25.0886483333333","6501400","蘆洲區"
"247007","056-VK","2018/07/17 14:09:40","新北市蘆洲區中山一路415號","121.469","25.0768433333333","6501400","蘆洲區"
"247015","007-UY","2018/07/17 14:09:46","新北市蘆洲區光華路46巷20號","121.468295","25.0836916666667","6501400","蘆洲區"
"247001","002-UY","2018/07/17 14:09:41","新北市蘆洲區永平街65號","121.457248333333","25.0916683333333","6501400","蘆洲區"
"247019","001-UY","2018/07/17 14:09:52","新北市蘆洲區民族路426巷19號","121.472976666667","25.0932116666667","6501400","蘆洲區"
"235011","251-BX","2018/07/17 14:09:33","新北市中和區興南路一段57-1號","121.510551666667","24.98991","6500300","中和區"
"228004","212-TW","2018/07/17 14:09:40","新北市貢寮區雙玉里德心街9-1號","121.918163333333","25.015955","6502600","貢寮區"
"228005","828-UM","2018/07/17 14:09:50","新北市貢寮區美豐里土地公嶺10號","121.890805","25.05678","6502600","貢寮區"
"207002","749-BX","2018/07/17 14:09:47","新北市萬里區溪底里瑞泉路14號","121.605778333333","25.147155","6502800","萬里區"
"207001","662-BX","2018/07/17 13:58:50","新北市萬里區磺潭里清水13號","121.636653333333","25.20129","6502800","萬里區"
"252005","AAC-283","2018/07/17 14:09:54","新北市三芝區橫山里橫山23-6號","121.541043333333","25.2606466666667","6502100","三芝區"
"237001","159-BY","2018/07/17 14:09:52","新北市三峽區中正路二段37號","121.366786666667","24.9189283333333","6500900","三峽區"
"236065","105-UM","2018/07/17 14:09:39","新北市土城區金城路一段88巷22號","121.445686666667","24.9729183333333","6501300","土城區"
"236074","166-UM","2018/07/17 14:09:47","新北市土城區永安街85號","121.430966666667","24.96382","6501300","土城區"
"236029","253-BX","2018/07/17 14:09:47","新北市土城區城林路6巷80號","121.438403333333","24.9798216666667","6501300","土城區"
"236024","269-VK","2018/07/17 14:09:51","新北市土城區承天路18號","121.439496666667","24.963455","6501300","土城區"
"236013","270-VK","2018/07/17 14:09:47","新北市土城區學府路二段216號","121.44481","24.9781516666667","6501300","土城區"
"236032","271-VK","2018/07/17 14:09:49","新北市土城區中正路75號","121.445036666667","24.9757033333333","6501300","土城區"
"236017","401-BY","2018/07/17 14:09:39","新北市土城區中央路二段276-1號","121.440836666667","24.9742766666667","6501300","土城區"
"236006","498-BY","2018/07/17 14:09:51","新北市土城區中央路一段9號","121.448765","24.9914133333333","6501300","土城區"
"236040","752-BX","2018/07/17 14:09:43","新北市土城區裕生路81號","121.446898333333","24.984195","6501300","土城區"
"236057","912-UM","2018/07/17 14:09:45","新北市土城區中央路四段196-1號","121.416361666667","24.95773","6501300","土城區"
"236045","913-UM","2018/07/17 14:09:32","新北市土城區中正路75號","121.44519","24.9757016666667","6501300","土城區"
"236060","915-UM","2018/07/17 14:09:38","新北市土城區金城路一段112號","121.447026666667","24.975785","6501300","土城區"
"236054","AAC-216","2018/07/17 14:09:35","新北市土城區城林路6巷80號","121.438353333333","24.9797716666667","6501300","土城區"
"220028","200-UY","2018/07/17 14:09:44","新北市板橋區大觀路二段3巷58號","121.449106666667","25.0034383333333","6500100","板橋區"
"220030","610-BX","2018/07/17 14:09:36","新北市板橋區滿平街84巷153號","121.42695","24.986445","6500100","板橋區"
"220050","245-BX","2018/07/17 14:09:49","新北市板橋區莒光路237-9號","121.474265","25.021865","6500100","板橋區"
"220040","267-BY","2018/07/17 14:09:46","新北市板橋區縣民大道三段245巷2號","121.481491666667","25.0260683333333","6500100","板橋區"
"220004","276-BY","2018/07/17 14:09:50","新北市板橋區信義路74巷3弄1號","121.457085","24.99302","6500100","板橋區"
"220020","277-BY","2018/07/17 14:09:48","新北市板橋區金門街372巷36號","121.427506666667","24.984925","6500100","板橋區"
"220019","283-VK","2018/07/17 14:09:37","新北市板橋區大豐街26號","121.462015","25.00143","6500100","板橋區"
"220043","285-UM","2018/07/17 14:09:43","新北市板橋區吳鳳路81巷54號","121.465126666667","25.030685","6500100","板橋區"
"220001","285-VK","2018/07/17 14:09:49","新北市板橋區懷仁街24巷13號","121.47594","25.0193","6500100","板橋區"
"220031","286-VK","2018/07/17 14:09:51","新北市板橋區大觀路二段174巷196弄4號","121.442611666667","25.00383","6500100","板橋區"
"220029","287-VK","2018/07/17 14:09:48","新北市板橋區南雅西路二段9號","121.452978333333","25.0092166666667","6500100","板橋區"
"220039","288-VK","2018/07/17 14:09:48","新北市板橋區四維路339巷13號","121.461936666667","25.0293416666667","6500100","板橋區"
"220009","293-UM","2018/07/17 14:09:51","新北市板橋區中山路二段318巷25號","121.480438333333","25.018495","6500100","板橋區"
"220010","295-UM","2018/07/17 14:09:20","新北市板橋區三民路二段居仁巷2號","121.479361666667","25.013205","6500100","板橋區"
"220032","296-UM","2018/07/17 14:09:35","新北市板橋區滿平街141號","121.42903","24.98806","6500100","板橋區"
"220023","303-R5","2018/07/17 14:09:35","新北市板橋區府中路126-1號","121.455121666667","25.009425","6500100","板橋區"
"220041","307-R5","2018/07/17 14:09:54","新北市板橋區文化路二段225巷60弄62號","121.469173333333","25.0298466666667","6500100","板橋區"
"220047","317-R6","2018/07/17 14:09:36","新北市板橋區四維路115-3號","121.46541","25.0247683333333","6500100","板橋區"
"220012","486-VK","2018/07/17 14:09:50","新北市板橋區板新路80號","121.472881666667","25.014515","6500100","板橋區"
"220037","491-VK","2018/07/17 14:09:41","新北市板橋區文化路二段182巷1弄18號","121.471755","25.0279783333333","6500100","板橋區"
"220104","560-BX","2018/07/17 14:09:45","新北市板橋區瑞安街31巷2號","121.455658333333","25.0227933333333","6500100","板橋區"
"220052","561-BX","2018/07/17 14:09:34","新北市板橋區文化路一段188巷9弄29號","121.468828333333","25.0192866666667","6500100","板橋區"
"220027","568-UM","2018/07/17 14:09:45","新北市板橋區民權路202巷17弄53號","121.45888","25.0165766666667","6500100","板橋區"
"220011","609-BX","2018/07/17 14:09:51","新北市板橋區三民路二段202-5號","121.479061666667","25.0145383333333","6500100","板橋區"
"220005","686-BX","2018/07/17 14:09:50","新北市板橋區重慶路346巷5號","121.463938333333","24.9970866666667","6500100","板橋區"
"220025","687-BX","2018/07/17 14:09:40","新北市板橋區龍興街31號","121.442895","25.00024","6500100","板橋區"
"220042","689-BX","2018/07/17 14:09:45","新北市板橋區民生路三段119號","121.46633","25.0256583333333","6500100","板橋區"
"220002","741-BX","2018/07/17 14:09:44","新北市板橋區重慶路69巷8號","121.462258333333","25.0068883333333","6500100","板橋區"
"220051","KEA-2699","2018/07/17 14:09:49","新北市板橋區田單街32號","121.482483333333","25.0282216666667","6500100","板橋區"
"220003","827-TW","2018/07/17 14:09:52","新北市板橋區新民街7巷12號","121.463535","25.0102683333333","6500100","板橋區"
"220014","829-TW","2018/07/17 14:09:42","新北市板橋區中山路二段90巷43弄15號","121.476861666667","25.01524","6500100","板橋區"
"220045","830-TW","2018/07/17 14:09:43","新北市板橋區大同街10號","121.477168333333","25.0267216666667","6500100","板橋區"
"220038","833-TW","2018/07/17 14:09:50","新北市板橋區文化路二段355號","121.472871666667","25.0307016666667","6500100","板橋區"
"220022","895-R6","2018/07/17 14:09:39","新北市板橋區文昌街6-1號","121.456033333333","25.0101316666667","6500100","板橋區"
"220021","985-R7","2018/07/17 14:09:52","新北市板橋區中正路142號","121.456991666667","25.016065","6500100","板橋區"
"220046","AAC-210","2018/07/17 14:09:52","新北市板橋區新海路135巷33號","121.459888333333","25.02283","6500100","板橋區"
"220018","AAC-253","2018/07/17 14:09:46","新北市板橋區忠孝路86號","121.461565","25.002085","6500100","板橋區"
"235032","KEA-2873","2018/07/17 14:09:43","新北市中和區連勝街57巷11號","121.497906666667","24.9969116666667","6500300","中和區"
"235025","KEA-2875","2018/07/17 14:09:36","新北市中和區員山路262號","121.481515","25.0018133333333","6500300","中和區"
