"lineid","car","time","location","longitude","latitude","cityid","cityname"
"234070","149-BY","2018/07/17 15:39:44","新北市永和區福和路1號","121.526473333333","25.010145","6500400","永和區"
"231028","046-UY","2018/07/17 15:39:36","新北市新店區僑信路2巷2號","121.499771666667","24.9534083333333","6500600","新店區"
"231005","106-UY","2018/07/17 15:39:50","新北市新店區中正路438號","121.534236666667","24.9783566666667","6500600","新店區"
"231012","187-VK","2018/07/17 15:39:49","新北市新店區寶元路一段109號","121.54569","24.9831316666667","6500600","新店區"
"231023","KEA-2219","2018/07/17 15:39:50","新北市新店區大新街7巷21號","121.544188333333","24.9680183333333","6500600","新店區"
"231026","256-BX","2018/07/17 15:39:53","新北市新店區三民路51巷1弄1號","121.536786666667","24.9707483333333","6500600","新店區"
"231003","268-BY","2018/07/17 15:39:45","新北市新店區中興路二段197號","121.548083333333","24.9737716666667","6500600","新店區"
"231018","278-BY","2018/07/17 15:39:37","新北市新店區中正路663巷7弄15-5號","121.533136666667","24.99026","6500600","新店區"
"231015","AAD-862","2018/07/17 15:39:39","新北市新店區北宜路一段185號","121.545008333333","24.9530433333333","6500600","新店區"
"231004","355-BY","2018/07/17 15:39:52","新北市新店區力行路11巷57號","121.538606666667","24.9618133333333","6500600","新店區"
"231038","3712-VJ","2018/07/17 15:39:50","新北市新店區安華路28-1號","121.519688333333","24.9609016666667","6500600","新店區"
"231037","4716-K9","2018/07/17 15:39:50","新北市新店區安民街313巷7號","121.516573333333","24.9741916666667","6500600","新店區"
"231025","4715-K9","2018/07/17 15:39:46","新北市新店區薏仁坑路6號","121.500391666667","24.95796","6500600","新店區"
"231036","512-UM","2018/07/17 15:39:54","新北市新店區安康路二段456巷6號","121.493695","24.9543883333333","6500600","新店區"
"231013","513-UM","2018/07/17 15:39:52","新北市新店區永業路81巷1弄3號","121.529806666667","24.9496266666667","6500600","新店區"
"231034","616-UM","2018/07/17 15:39:49","新北市新店區玫瑰路61巷1號","121.49594","24.945385","6500600","新店區"
"231030","619-UM","2018/07/17 15:39:39","新北市新店區新和街93巷4號","121.520978333333","24.9866833333333","6500600","新店區"
"231039","718-UY","2018/07/17 15:39:53","新北市新店區寶元路二段39號","121.547065","24.9813066666667","6500600","新店區"
"231035","719-UM","2018/07/17 15:39:52","新北市新店區安興路83-3號","121.515311666667","24.975545","6500600","新店區"
"231020","719-UY","2018/07/17 15:39:52","新北市新店區湖興路128-18號","121.562475","24.9307","6500600","新店區"
"231032","720-UM","2018/07/17 15:39:43","新北市新店區雙城路133號","121.497951666667","24.9387866666667","6500600","新店區"
"231029","897-TW","2018/07/17 15:39:38","新北市新店區安康路三段79號","121.491908333333","24.95195","6500600","新店區"
"241011","013-R5","2018/07/17 15:39:48","新北市三重區龍濱路196號","121.500956666667","25.07337","6500200","三重區"
"241028","022-UY","2018/07/17 15:39:55","新北市三重區環河南路253號","121.491216666667","25.05044","6500200","三重區"
"241008","059-VK","2018/07/17 15:39:44","新北市三重區重新路四段121號","121.485185","25.0524883333333","6500200","三重區"
"241015","062-VK","2018/07/17 15:39:48","新北市三重區重新路四段121號","121.485091666667","25.05231","6500200","三重區"
"241017","063-VK","2018/07/17 15:39:49","新北市三重區大仁街1號","121.491651666667","25.0634933333333","6500200","三重區"
"241003","091-VK","2018/07/17 15:39:47","新北市三重區環河南路261號","121.490618333333","25.0498416666667","6500200","三重區"
"241024","742-BX","2018/07/17 15:39:45","新北市三重區成功路106-1號","121.487433333333","25.051565","6500200","三重區"
"241005","262-UM","2018/07/17 15:39:48","新北市三重區重新路四段121號","121.485275","25.0522516666667","6500200","三重區"
"241016","266-UM","2018/07/17 15:39:57","新北市三重區重新路四段121號","121.484731666667","25.0522316666667","6500200","三重區"
"241018","268-UM","2018/07/17 15:39:44","新北市三重區重新路四段121號","121.484858333333","25.0521616666667","6500200","三重區"
"241013","270-UM","2018/07/17 15:39:53","新北市三重區正義北路291號","121.494951666667","25.07064","6500200","三重區"
"241025","271-UM","2018/07/17 15:39:48","新北市三重區重新路四段121號","121.484853333333","25.052665","6500200","三重區"
"241007","398-BY","2018/07/17 15:39:56","新北市三重區重新路四段121號","121.485088333333","25.05248","6500200","三重區"
"241004","475-VK","2018/07/17 15:39:53","新北市三重區重新路四段121號","121.484851666667","25.0521833333333","6500200","三重區"
"241020","478-VK","2018/07/17 15:39:48","新北市三重區忠孝路二段48號","121.48516","25.0703983333333","6500200","三重區"
"241014","543-UM","2018/07/17 15:39:36","新北市三重區重新路四段121號","121.484993333333","25.05243","6500200","三重區"
"241019","KEA-2593","2018/07/17 15:39:46","新北市三重區重新路四段121號","121.484606666667","25.0522983333333","6500200","三重區"
"241006","AAD-863","2018/07/17 15:39:33","新北市三重區重新路四段121號","121.484703333333","25.05214","6500200","三重區"
"241022","887-TS","2018/07/17 15:39:57","新北市三重區重新路四段121號","121.484861666667","25.05248","6500200","三重區"
"241012","941-UM","2018/07/17 15:39:42","新北市三重區自強路一段64號","121.497206666667","25.0666666666667","6500200","三重區"
"241029","942-UM","2018/07/17 15:39:41","新北市三重區大同南路196號","121.49673","25.0567366666667","6500200","三重區"
"241033","AAC-255","2018/07/17 15:39:47","新北市三重區重新路五段447號","121.474401666667","25.047365","6500200","三重區"
"235033","4980-A6","2018/07/17 15:39:45","新北市中和區民樂路25號","121.482805","25.0013333333333","6500300","中和區"
"235046","733-UM","2018/07/17 15:39:28","新北市中和區員山路36巷13號","121.484195","24.9908666666667","6500300","中和區"
"235023","AAC-215","2018/07/17 15:39:36","新北市中和區員山路31-6號","121.479961666667","24.9878233333333","6500300","中和區"
"227009","642-TC","2018/07/17 15:39:50","新北市雙溪區三貂里政光路3-1號","121.851015","25.0631483333333","6502500","雙溪區"
"227003","030-BX","2018/07/17 15:39:36","新北市雙溪區牡丹里頂坪5-1號","121.862776666667","25.0386816666667","6502500","雙溪區"
"237001","159-BY","2018/07/17 15:36:55","新北市三峽區中山路459巷163-3號","121.348876666667","24.9330283333333","6500900","三峽區"
"236065","105-UM","2018/07/17 15:39:39","新北市土城區中央路三段128號","121.434938333333","24.965995","6501300","土城區"
"236074","166-UM","2018/07/17 15:39:47","新北市土城區中央路四段303號","121.411095","24.9519833333333","6501300","土城區"
"236029","253-BX","2018/07/17 15:39:47","新北市土城區中央路一段61號","121.447866666667","24.990135","6501300","土城區"
"236024","269-VK","2018/07/17 15:39:51","新北市土城區裕生路100巷5號","121.446358333333","24.98507","6501300","土城區"
"236013","270-VK","2018/07/17 15:39:47","新北市土城區四川路13號","121.455426666667","24.9959366666667","6501300","土城區"
"236017","401-BY","2018/07/17 15:39:55","新北市土城區延吉街41號","121.472358333333","24.9880083333333","6501300","土城區"
"236040","752-BX","2018/07/17 15:39:48","新北市土城區學享街10號","121.451106666667","24.9874166666667","6501300","土城區"
"236057","912-UM","2018/07/17 15:39:44","新北市土城區中央路一段116號","121.446518333333","24.9880283333333","6501300","土城區"
"236045","913-UM","2018/07/17 15:39:51","新北市土城區金城路三段205-1號","121.470338333333","24.9893116666667","6501300","土城區"
"236054","AAC-216","2018/07/17 15:39:55","新北市土城區中華路一段22號","121.447476666667","24.99029","6501300","土城區"
"220050","245-BX","2018/07/17 15:39:45","新北市板橋區民生路二段161巷5號","121.470266666667","25.0197416666667","6500100","板橋區"
"220052","561-BX","2018/07/17 15:39:54","新北市板橋區漢生東路63巷1號","121.465851666667","25.016355","6500100","板橋區"
