"lineid","car","time","location","longitude","latitude","cityid","cityname"
"234070","149-BY","2018/07/17 17:09:23","新北市永和區福和路1號","121.526356666667","25.0097416666667","6500400","永和區"
"249005","172-UM","2018/07/17 17:09:14","新北市八里區大堀湖28號","121.419091666667","25.1457383333333","6502300","八里區"
"249001","173-UM","2018/07/17 17:09:19","新北市八里區中華路二段249-5號","121.404243333333","25.1486016666667","6502300","八里區"
"249004","303-UY","2018/07/17 17:09:27","新北市八里區忠孝路343號","121.41744","25.1613083333333","6502300","八里區"
"249002","305-UY","2018/07/17 17:09:26","新北市八里區龍米路二段147-1號","121.442811666667","25.1497633333333","6502300","八里區"
"249003","593-UM","2018/07/17 17:09:23","新北市八里區中山路二段502號","121.39821","25.1469566666667","6502300","八里區"
"244007","080-UY","2018/07/17 17:09:09","新北市林口區菁埔26-68號","121.376558333333","25.0952966666667","6501700","林口區"
"244019","403-UM","2018/07/17 17:09:28","新北市林口區文化一路一段190巷7弄2-1號","121.380285","25.0749033333333","6501700","林口區"
"244013","742-UY","2018/07/17 17:09:19","新北市林口區粉寮69號","121.404801666667","25.0907783333333","6501700","林口區"
"244023","483-VK","2018/07/17 17:09:24","新北市林口區仁愛路一段667巷45號","121.387073333333","25.0763483333333","6501700","林口區"
"244017","485-VK","2018/07/17 17:09:16","新北市林口區粉寮69號","121.405121666667","25.0908566666667","6501700","林口區"
"244025","837-TS","2018/07/17 17:09:17","新北市林口區文化二路一段413號","121.372476666667","25.0750283333333","6501700","林口區"
"231046","107-UY","2018/07/17 17:09:07","新北市新店區直潭路92號","121.53091","24.9375933333333","6500600","新店區"
"241011","013-R5","2018/07/17 17:09:28","新北市三重區龍濱路285號","121.501073333333","25.07332","6500200","三重區"
"241028","022-UY","2018/07/17 17:09:15","新北市三重區重新路三段110號","121.492306666667","25.0603","6500200","三重區"
"241008","059-VK","2018/07/17 17:09:24","新北市三重區力行路二段136巷13號","121.481863333333","25.0757033333333","6500200","三重區"
"241015","062-VK","2018/07/17 17:09:08","新北市三重區長生街14號","121.499266666667","25.0663833333333","6500200","三重區"
"241017","063-VK","2018/07/17 17:09:29","新北市三重區中正北路25巷25弄3號","121.493293333333","25.0626716666667","6500200","三重區"
"241026","066-VK","2018/07/17 17:09:24","新北市三重區重新路一段102號","121.501023333333","25.0632433333333","6500200","三重區"
"241002","090-VK","2018/07/17 17:09:23","新北市三重區五華街35巷32號","121.495303333333","25.08137","6500200","三重區"
"241003","091-VK","2018/07/17 17:09:27","新北市三重區富福街100號","121.493135","25.0854033333333","6500200","三重區"
"241024","742-BX","2018/07/17 17:09:25","新北市三重區中正北路165巷17號","121.479133333333","25.07059","6500200","三重區"
"241005","262-UM","2018/07/17 17:09:20","新北市三重區仁愛街695號","121.48308","25.080865","6500200","三重區"
"241016","266-UM","2018/07/17 17:09:17","新北市三重區大仁街29號","121.492641666667","25.0650833333333","6500200","三重區"
"241009","267-UM","2018/07/17 17:09:11","新北市三重區三和路四段233號","121.481238333333","25.07976","6500200","三重區"
"241018","268-UM","2018/07/17 17:09:24","新北市三重區大智街172-1號","121.49165","25.0693433333333","6500200","三重區"
"241032","269-UM","2018/07/17 17:09:23","新北市三重區興華街30號","121.48553","25.05974","6500200","三重區"
"241013","270-UM","2018/07/17 17:09:13","新北市三重區仁福街6號","121.495975","25.0743483333333","6500200","三重區"
"241025","271-UM","2018/07/17 17:09:08","新北市三重區中正北路560巷38號","121.471423333333","25.0682266666667","6500200","三重區"
"241007","398-BY","2018/07/17 17:09:16","新北市三重區三和路四段163巷30號","121.485216666667","25.079205","6500200","三重區"
"241004","475-VK","2018/07/17 17:09:13","新北市三重區五華街92巷5號","121.492463333333","25.08215","6500200","三重區"
"241020","478-VK","2018/07/17 17:09:07","新北市三重區自強路三段34巷3號","121.486553333333","25.0725083333333","6500200","三重區"
"241030","480-VK","2018/07/17 17:09:23","新北市三重區集美街105號","121.489173333333","25.0528033333333","6500200","三重區"
"241014","543-UM","2018/07/17 17:09:16","新北市三重區龍濱路213號","121.501898333333","25.0718716666667","6500200","三重區"
"241023","545-UM","2018/07/17 17:09:20","新北市三重區忠孝路三段84巷1號","121.480266666667","25.0645566666667","6500200","三重區"
"241001","547-UM","2018/07/17 17:09:12","新北市三重區仁愛街269巷62號","121.494891666667","25.0798183333333","6500200","三重區"
"241019","KEA-2593","2018/07/17 17:09:26","新北市三重區自強路二段74巷73號","121.487018333333","25.0692833333333","6500200","三重區"
"241006","AAD-863","2018/07/17 17:09:13","新北市三重區車路頭街135-1號","121.484261666667","25.0761766666667","6500200","三重區"
"241022","887-TS","2018/07/17 17:09:17","新北市三重區重陽路二段26號","121.486675","25.06274","6500200","三重區"
"241012","941-UM","2018/07/17 17:09:22","新北市三重區仁信街5號","121.501671666667","25.07571","6500200","三重區"
"241029","942-UM","2018/07/17 17:09:21","新北市三重區重新路四段65號","121.487266666667","25.0570566666667","6500200","三重區"
"241033","AAC-255","2018/07/17 17:09:21","新北市三重區中興北街271號","121.469101666667","25.0606133333333","6500200","三重區"
"235064","005-UY","2018/07/17 17:09:16","新北市中和區員山路36巷16-3號","121.485173333333","24.99136","6500300","中和區"
"247010","KEA-2869","2018/07/17 17:09:22","新北市蘆洲區三民路34號","121.475638333333","25.0826866666667","6501400","蘆洲區"
"247024","893-R6","2018/07/17 17:09:24","新北市蘆洲區長興路23號","121.463728333333","25.0833533333333","6501400","蘆洲區"
"247014","546-UM","2018/07/17 17:09:14","新北市蘆洲區中央路26號","121.473545","25.08284","6501400","蘆洲區"
"247022","500-BY","2018/07/17 17:09:11","新北市蘆洲區民族路411號","121.468898333333","25.089765","6501400","蘆洲區"
"247012","339-TH","2018/07/17 17:09:23","新北市蘆洲區信義路292巷8號","121.478131666667","25.087595","6501400","蘆洲區"
"247004","337-TH","2018/07/17 17:09:16","新北市蘆洲區長安街193巷10號","121.46002","25.0817733333333","6501400","蘆洲區"
"247006","336-TH","2018/07/17 17:09:09","新北市蘆洲區中華街6巷28號","121.462876666667","25.0822216666667","6501400","蘆洲區"
"247018","057-VK","2018/07/17 17:09:18","新北市蘆洲區復興路132號","121.476588333333","25.0875133333333","6501400","蘆洲區"
"247008","056-VK","2018/07/17 17:09:19","新北市蘆洲區信義路30巷92號","121.474943333333","25.077405","6501400","蘆洲區"
"247016","007-UY","2018/07/17 17:09:11","新北市蘆洲區光華路73巷23號","121.468556666667","25.08224","6501400","蘆洲區"
"247002","002-UY","2018/07/17 17:09:22","新北市蘆洲區永樂街57號","121.456745","25.0885166666667","6501400","蘆洲區"
"247020","001-UY","2018/07/17 17:09:19","新北市蘆洲區仁愛街60號","121.471693333333","25.0939683333333","6501400","蘆洲區"
"228001","212-TW","2018/07/17 17:09:24","新北市貢寮區仁理村尖山腳街20號","121.92478","25.0470333333333","6502600","貢寮區"
"228002","663-BX","2018/07/17 17:09:16","新北市貢寮區雙玉里下雙溪街1號","121.911181666667","25.0173","6502600","貢寮區"
"228003","828-UM","2018/07/17 17:09:21","新北市貢寮區福隆里東興街29-5號","121.950046666667","25.0180883333333","6502600","貢寮區"
"224006","676-BX","2018/07/17 17:09:27","新北市瑞芳區大寮路91號","121.780385","25.0976883333333","6501200","瑞芳區"
"224008","285-BY","2018/07/17 17:09:27","新北市瑞芳區侯硐路282號","121.830941666667","25.0894916666667","6501200","瑞芳區"
"224007","275-VK","2018/07/17 17:09:24","新北市瑞芳區楓子瀨路21號","121.768176666667","25.1009983333333","6501200","瑞芳區"
"224009","273-VK","2018/07/17 17:09:28","新北市瑞芳區八號巷20號","121.842668333333","25.1106","6501200","瑞芳區"
"224005","271-BY","2018/07/17 17:09:10","新北市瑞芳區鼻頭路247號","121.906961666667","25.12111","6501200","瑞芳區"
"227009","642-TC","2018/07/17 17:09:10","新北市雙溪區牡丹里下坑23號","121.851815","25.0559933333333","6502500","雙溪區"
"227003","030-BX","2018/07/17 17:09:16","新北市雙溪區外柑里田寮5號","121.806053333333","25.0165566666667","6502500","雙溪區"
"251004","009-UM","2018/07/17 17:09:11","新北市淡水區中正路40號","121.44368","25.1694216666667","6501000","淡水區"
"251013","KEA-2871","2018/07/17 17:09:14","新北市淡水區大埤頭3號","121.486635","25.1949683333333","6501000","淡水區"
"251016","179-VK","2018/07/17 17:09:24","新北市淡水區社厝坑3-11號","121.475125","25.1887633333333","6501000","淡水區"
"251014","180-VK","2018/07/17 17:09:14","新北市淡水區八里堆6-6號","121.459793333333","25.225215","6501000","淡水區"
"251015","181-VK","2018/07/17 17:09:11","新北市淡水區樹林口42-3號","121.47018","25.168745","6501000","淡水區"
"251010","413-VK","2018/07/17 17:09:13","新北市淡水區新市三路一段316號","121.430525","25.1965533333333","6501000","淡水區"
"251012","441-VK","2018/07/17 17:09:20","新北市淡水區中山北路一段158號","121.444261666667","25.177905","6501000","淡水區"
"251008","442-VK","2018/07/17 17:09:10","新北市淡水區民生路169號","121.469596666667","25.1420683333333","6501000","淡水區"
"251005","443-VK","2018/07/17 17:09:12","新北市淡水區鄧公路19-1號","121.450311666667","25.169945","6501000","淡水區"
"251006","561-UM","2018/07/17 17:09:25","新北市淡水區新民街19巷12號","121.438466666667","25.1747716666667","6501000","淡水區"
"251009","575-R6","2018/07/17 17:09:20","新北市淡水區三民街16號","121.439143333333","25.1715883333333","6501000","淡水區"
"251007","577-R6","2018/07/17 17:09:14","新北市淡水區民權路99-5號","121.459938333333","25.137765","6501000","淡水區"
"251011","650-BX","2018/07/17 17:09:22","新北市淡水區坪頂路49號","121.457723333333","25.1625466666667","6501000","淡水區"
"252002","178-VK","2018/07/17 17:09:26","新北市三芝區忠孝街1-19號","121.505875","25.2531516666667","6502100","三芝區"
"252001","292-VK","2018/07/17 17:09:08","新北市三芝區埔頭里埔頭37號","121.498425","25.2602533333333","6502100","三芝區"
"242034","AAC-296","2018/07/17 17:08:31","新北市新莊區新泰路357巷3弄57號","121.442215","25.0394633333333","6500500","新莊區"
"242058","986-R7","2018/07/17 17:09:27","新北市新莊區新泰路357巷3弄57號","121.442025","25.0391816666667","6500500","新莊區"
"242054","751-BX","2018/07/17 17:09:25","新北市新莊區新泰路357巷2-2號","121.44189","25.0413583333333","6500500","新莊區"
"242029","612-BX","2018/07/17 17:09:25","新北市新莊區新泰路255巷83號","121.442063333333","25.039005","6500500","新莊區"
"242046","497-BY","2018/07/17 17:09:08","新北市新莊區三和路12-11號","121.442285","25.0368316666667","6500500","新莊區"
"242051","441-UM","2018/07/17 17:09:11","新北市新莊區中正路487號","121.441065","25.0337116666667","6500500","新莊區"
"242056","440-UM","2018/07/17 17:09:14","新北市新莊區三和路12-21號","121.441888333333","25.0388533333333","6500500","新莊區"
"242037","415-TV","2018/07/17 17:09:22","新北市新莊區新泰路357巷3弄57號","121.441956666667","25.0391816666667","6500500","新莊區"
"242007","413-TV","2018/07/17 17:09:25","新北市新莊區新泰路357巷3弄57號","121.44195","25.0394633333333","6500500","新莊區"
"242044","400-BY","2018/07/17 17:09:22","新北市新莊區新泰路357巷2號","121.441986666667","25.0414633333333","6500500","新莊區"
"242023","362-BY","2018/07/17 17:09:19","新北市新莊區三和路12-21號","121.44214","25.0387233333333","6500500","新莊區"
"242039","133-UY","2018/07/17 17:09:22","新北市泰山區磚雅厝3號","121.441993333333","25.0417533333333","6500500","新莊區"
"242032","135-UY","2018/07/17 17:09:12","新北市新莊區三和路12-21號","121.441938333333","25.0386466666667","6500500","新莊區"
"242048","172-VK","2018/07/17 17:09:05","新北市新莊區中正路481號","121.441411666667","25.0338233333333","6500500","新莊區"
"242017","175-VK","2018/07/17 17:09:11","新北市新莊區三和路12-21號","121.441726666667","25.0386466666667","6500500","新莊區"
"242005","176-VK","2018/07/17 17:09:15","新北市新莊區三和路12-21號","121.44178","25.0385183333333","6500500","新莊區"
"242015","346-TH","2018/07/17 16:47:17","新北市新莊區三和路12-20號","121.442025","25.03786","6500500","新莊區"
"242011","347-TH","2018/07/17 17:09:19","新北市新莊區三和路12-17號","121.442016666667","25.0375733333333","6500500","新莊區"
"242021","348-TH","2018/07/17 17:09:10","新北市新莊區新泰路357巷3弄57號","121.441921666667","25.03937","6500500","新莊區"
"242019","350-TH","2018/07/17 17:09:17","新北市新莊區新泰路255巷83號","121.441981666667","25.0389566666667","6500500","新莊區"
"242013","351-TH","2018/07/17 17:09:23","新北市新莊區新泰路357巷3弄57號","121.441963333333","25.03953","6500500","新莊區"
"238023","601-UM","2018/07/17 17:09:21","新北市樹林區大安路457號","121.415408333333","24.9879","6500700","樹林區"
"238019","599-UM","2018/07/17 17:09:16","新北市樹林區太平路273巷23號","121.421215","24.97633","6500700","樹林區"
"238018","571-TV","2018/07/17 17:09:09","新北市樹林區博愛街215號","121.42403","24.9868133333333","6500700","樹林區"
"238024","5061-A6","2018/07/17 17:09:22","新北市樹林區鎮前街111號","121.42455","24.989785","6500700","樹林區"
"238022","KEA-2213","2018/07/17 17:09:21","新北市樹林區忠孝街31號","121.423758333333","24.9821883333333","6500700","樹林區"
"238021","KEA-2539","2018/07/17 17:09:13","新北市樹林區西圳街一段165巷20弄11號","121.395658333333","24.9601716666667","6500700","樹林區"
"238017","283-BY","2018/07/17 17:09:09","新北市樹林區中山路二段191號","121.403425","24.978625","6500700","樹林區"
"238014","282-BY","2018/07/17 17:09:19","新北市樹林區大安路415號","121.41546","24.9886533333333","6500700","樹林區"
"238020","268-VK","2018/07/17 17:09:14","新北市樹林區大安路319號","121.417476666667","24.991895","6500700","樹林區"
"239007","AAC-297","2018/07/17 17:09:22","新北市鶯歌區建國路124號","121.352711666667","24.954125","6500800","鶯歌區"
"239006","891-R6","2018/07/17 17:09:19","新北市鶯歌區八德路2巷37弄10號","121.337166666667","24.9464016666667","6500800","鶯歌區"
"239008","527-UM","2018/07/17 17:09:16","新北市鶯歌區尖山路57-1號","121.349975","24.9498266666667","6500800","鶯歌區"
"239005","526-UM","2018/07/17 17:09:24","新北市鶯歌區德昌二街31號","121.33332","24.9589016666667","6500800","鶯歌區"
"239001","417-VK","2018/07/17 17:09:17","新北市鶯歌區尖山路140巷12弄1號","121.346345","24.9494016666667","6500800","鶯歌區"
"239002","359-BY","2018/07/17 17:09:14","新北市鶯歌區建國路189號","121.349641666667","24.9533866666667","6500800","鶯歌區"
"239004","193-VK","2018/07/17 17:09:17","新北市鶯歌區文化路324巷1-10號","121.351265","24.9451933333333","6500800","鶯歌區"
