"lineid","car","time","location","longitude","latitude","cityid","cityname"
"234026","9371-KE","2018/07/17 17:49:12","新北市永和區和平街95巷19號","121.511183333333","25.0092316666667","6500400","永和區"
"249005","172-UM","2018/07/17 17:49:13","新北市八里區荖阡坑路34-2號","121.402518333333","25.130675","6502300","八里區"
"249001","173-UM","2018/07/17 17:49:20","新北市八里區龍米路二段131號","121.445358333333","25.147435","6502300","八里區"
"249004","303-UY","2018/07/17 17:49:18","新北市八里區中華路一段309巷51-3號","121.417576666667","25.153185","6502300","八里區"
"249002","305-UY","2018/07/17 17:49:26","新北市八里區龍形五街37巷3-1號","121.448741666667","25.13261","6502300","八里區"
"249003","593-UM","2018/07/17 17:49:23","新北市八里區中山路二段119號","121.405425","25.15203","6502300","八里區"
"232011","375-UM","2018/07/17 17:49:22","新北市坪林區北宜路八段282號","121.709973333333","24.9350533333333","6502000","坪林區"
"244007","080-UY","2018/07/17 17:49:09","新北市林口區佳林路17號","121.386918333333","25.0822333333333","6501700","林口區"
"244019","403-UM","2018/07/17 17:49:27","新北市林口區忠孝路563-6號","121.373416666667","25.06801","6501700","林口區"
"244013","742-UY","2018/07/17 17:49:19","新北市林口區中正路432號","121.384093333333","25.077795","6501700","林口區"
"244009","410-SL","2018/07/17 17:49:09","新北市林口區竹林路441號","121.386585","25.0826466666667","6501700","林口區"
"244023","483-VK","2018/07/17 17:49:21","新北市林口區東湖路62號","121.387405","25.073965","6501700","林口區"
"244017","485-VK","2018/07/17 17:49:16","新北市林口區文化二路一段260巷1-1號","121.371261666667","25.0733983333333","6501700","林口區"
"244011","657-BX","2018/07/17 17:49:25","新北市林口區中正路334號","121.386975","25.0777283333333","6501700","林口區"
"244025","837-TS","2018/07/17 17:49:17","新北市林口區忠孝三路42號","121.360211666667","25.0703283333333","6501700","林口區"
"244021","838-TS","2018/07/17 17:49:22","新北市林口區仁愛路一段83巷38號","121.397805","25.0706066666667","6501700","林口區"
"222003","436-BY","2018/07/17 17:49:23","新北市深坑區阿柔洋60-1號","121.6086","24.998535","6501800","深坑區"
"222002","659-BX","2018/07/17 17:49:22","新北市深坑區平埔街22巷8號","121.614931666667","25.000865","6501800","深坑區"
"231046","107-UY","2018/07/17 17:49:27","新北市新店區下石厝路1號","121.53116","24.9296833333333","6500600","新店區"
"231055","AKT-0513","2018/07/17 17:49:15","新北市新店區安華路1-1號","121.51935","24.9604166666667","6500600","新店區"
"241024","742-BX","2018/07/17 17:49:25","新北市三重區力行路二段9巷2號","121.482361666667","25.0722433333333","6500200","三重區"
"241005","262-UM","2018/07/17 17:49:29","新北市三重區五華街141巷53號","121.493263333333","25.0862516666667","6500200","三重區"
"241016","266-UM","2018/07/17 17:49:16","新北市三重區新北大道一段7號","121.489578333333","25.061265","6500200","三重區"
"241033","AAC-255","2018/07/17 17:49:21","新北市三重區重新路五段553號","121.470565","25.0460466666667","6500200","三重區"
"235064","005-UY","2018/07/17 17:49:16","新北市中和區員山路36巷16-3號","121.485078333333","24.99123","6500300","中和區"
"235065","098-UM","2018/07/17 17:49:11","新北市中和區中正路637巷60弄61號","121.485475","24.99331","6500300","中和區"
"235058","151-BY","2018/07/17 17:49:23","新北市中和區員山路36巷16-2號","121.48522","24.9915533333333","6500300","中和區"
"247010","KEA-2869","2018/07/17 17:49:22","新北市蘆洲區民族路39號","121.47828","25.0852633333333","6501400","蘆洲區"
"247024","893-R6","2018/07/17 17:49:23","新北市蘆洲區長樂路233巷3號","121.461241666667","25.0899583333333","6501400","蘆洲區"
"247014","546-UM","2018/07/17 17:49:14","新北市蘆洲區保和街69巷18號","121.469625","25.0852266666667","6501400","蘆洲區"
"247022","500-BY","2018/07/17 17:49:11","新北市蘆洲區中正路382號","121.463286666667","25.0931033333333","6501400","蘆洲區"
"247012","339-TH","2018/07/17 17:49:23","新北市蘆洲區復興路186號","121.478015","25.0887416666667","6501400","蘆洲區"
"247004","337-TH","2018/07/17 17:49:16","新北市蘆洲區永安南路二段342號","121.456493333333","25.0830316666667","6501400","蘆洲區"
"247006","336-TH","2018/07/17 17:49:09","新北市蘆洲區九芎街90巷8號","121.465695","25.0803666666667","6501400","蘆洲區"
"247018","057-VK","2018/07/17 17:49:11","新北市蘆洲區民權路102號","121.473933333333","25.088145","6501400","蘆洲區"
"247008","056-VK","2018/07/17 17:49:19","新北市蘆洲區中山一路223巷10號","121.473986666667","25.0804733333333","6501400","蘆洲區"
"247016","007-UY","2018/07/17 17:49:11","新北市蘆洲區中正路185巷25弄20號","121.467196666667","25.083795","6501400","蘆洲區"
"247002","002-UY","2018/07/17 17:49:18","新北市蘆洲區環堤大道224號","121.458033333333","25.092715","6501400","蘆洲區"
"247020","001-UY","2018/07/17 17:49:19","新北市蘆洲區民義街73號","121.473175","25.09013","6501400","蘆洲區"
"228001","212-TW","2018/07/17 17:49:24","新北市貢寮區仁理村仁愛路95-1號","121.927678333333","25.0554483333333","6502600","貢寮區"
"228002","663-BX","2018/07/17 17:49:16","新北市貢寮區福隆里外隆林街15號","121.958751666667","25.0035516666667","6502600","貢寮區"
"228003","828-UM","2018/07/17 17:49:21","新北市貢寮區真理里延平街72-5號","121.925248333333","25.0583716666667","6502600","貢寮區"
"224010","AGQ-8101","2018/07/17 17:49:16","新北市瑞芳區明燈路一段21號","121.823043333333","25.107335","6501200","瑞芳區"
"224006","676-BX","2018/07/17 17:49:15","新北市瑞芳區傑魚坑路183號","121.788441666667","25.108265","6501200","瑞芳區"
"224008","285-BY","2018/07/17 17:49:23","新北市瑞芳區明燈路一段175號","121.819228333333","25.1076583333333","6501200","瑞芳區"
"224009","273-VK","2018/07/17 17:49:08","新北市瑞芳區山尖路173號","121.852718333333","25.11175","6501200","瑞芳區"
"224005","271-BY","2018/07/17 17:49:10","新北市瑞芳區海濱路29-9號","121.830823333333","25.12446","6501200","瑞芳區"
"227009","642-TC","2018/07/17 17:49:10","新北市雙溪區三貂里定福路1-2號","121.85074","25.06337","6502500","雙溪區"
"222001","KEA-2212","2018/07/17 17:49:21","新北市深坑區北深路三段25巷15-2號","121.608715","24.9996416666667","6501800","深坑區"
"208003","665-BX","2018/07/17 17:49:17","新北市金山區磺清路135號","121.639286666667","25.2276466666667","6502700","金山區"
"208001","761-BX","2018/07/17 17:49:09","新北市金山區磺清路135號","121.639298333333","25.2278166666667","6502700","金山區"
"251004","009-UM","2018/07/17 17:49:10","新北市淡水區民權一街21號","121.458826666667","25.1362516666667","6501000","淡水區"
"251001","011-UM","2018/07/17 17:49:23","新北市淡水區民權路92巷35-1號","121.46227","25.12668","6501000","淡水區"
"251002","012-UM","2018/07/17 17:49:21","新北市淡水區中山路21號","121.444083333333","25.1699733333333","6501000","淡水區"
"251013","KEA-2871","2018/07/17 17:49:13","新北市淡水區泉洲厝30號","121.4797","25.1909883333333","6501000","淡水區"
"251016","179-VK","2018/07/17 17:49:24","新北市淡水區埤島39-15號","121.452743333333","25.1959016666667","6501000","淡水區"
"251014","180-VK","2018/07/17 17:49:14","新北市淡水區公埔子16-6號","121.481036666667","25.224575","6501000","淡水區"
"251015","181-VK","2018/07/17 17:49:11","新北市淡水區興福寮23號","121.493521666667","25.16423","6501000","淡水區"
"251010","413-VK","2018/07/17 17:49:12","新北市淡水區淡海路280巷33弄34-2號","121.418713333333","25.1885866666667","6501000","淡水區"
"251012","441-VK","2018/07/17 17:49:20","新北市淡水區北投子86-5號","121.468466666667","25.1830566666667","6501000","淡水區"
"251008","442-VK","2018/07/17 17:49:10","新北市淡水區八勢路一段147號","121.46748","25.1573766666667","6501000","淡水區"
"251005","443-VK","2018/07/17 17:49:12","新北市淡水區學府路102巷2號","121.450355","25.171995","6501000","淡水區"
"251006","561-UM","2018/07/17 17:49:25","新北市淡水區大信街3號","121.441516666667","25.1762933333333","6501000","淡水區"
"251009","575-R6","2018/07/17 17:49:19","新北市淡水區長興街66號","121.444376666667","25.1720666666667","6501000","淡水區"
"251007","577-R6","2018/07/17 17:49:14","新北市淡水區民生路54號","121.461855","25.1379066666667","6501000","淡水區"
"251011","650-BX","2018/07/17 17:49:04","新北市淡水區吳(仔)厝39號","121.479556666667","25.1497016666667","6501000","淡水區"
"251003","766-UM","2018/07/17 17:49:21","新北市淡水區大忠街5巷2號","121.443153333333","25.1763133333333","6501000","淡水區"
"207003","550-UM","2018/07/17 17:49:07","新北市萬里區野柳里東澳路66號","121.692801666667","25.2009533333333","6502800","萬里區"
"207004","291-VK","2018/07/17 17:49:21","新北市萬里區萬里里瑪鋉頂街61號","121.688368333333","25.1804633333333","6502800","萬里區"
"252002","178-VK","2018/07/17 17:49:26","新北市三芝區智成街27號","121.503468333333","25.2565983333333","6502100","三芝區"
"252001","292-VK","2018/07/17 17:49:08","新北市三芝區中興街一段28號","121.497658333333","25.2578383333333","6502100","三芝區"
"237004","KEA-2597","2018/07/17 17:48:56","新北市三峽區中山路120號","121.365668333333","24.935955","6500900","三峽區"
"237009","210-TH","2018/07/17 17:49:11","新北市三峽區大勇路3巷43號","121.367423333333","24.9367533333333","6500900","三峽區"
"237013","252-BX","2018/07/17 17:49:11","新北市三峽區愛國路16巷9號","121.373866666667","24.933345","6500900","三峽區"
"237014","433-BY","2018/07/17 17:49:11","新北市三峽區文化路120巷18號","121.371101666667","24.9367766666667","6500900","三峽區"
"237006","5529-G3","2018/07/17 17:49:19","新北市三峽區介壽路二段30號","121.39093","24.9352483333333","6500900","三峽區"
"237011","KEA-2596","2018/07/17 17:49:21","新北市三峽區中園街8號","121.36847","24.927335","6500900","三峽區"
"237016","649-BX","2018/07/17 17:49:14","新北市三峽區白雞129-1號","121.398278333333","24.9056616666667","6500900","三峽區"
"237010","706-TV","2018/07/17 17:49:25","新北市三峽區和平街57號","121.370131666667","24.936295","6500900","三峽區"
"237005","AKY-6261","2018/07/17 17:49:11","新北市三峽區中山路459巷121號","121.351895","24.9352716666667","6500900","三峽區"
"236070","105-UM","2018/07/17 17:49:25","新北市土城區青雲路322巷20號","121.457538333333","24.9756333333333","6501300","土城區"
"236079","166-UM","2018/07/17 17:49:24","新北市土城區中華路二段128號","121.437688333333","24.97342","6501300","土城區"
"236030","253-BX","2018/07/17 17:49:14","新北市土城區城林路6巷80號","121.438708333333","24.9796233333333","6501300","土城區"
"236026","269-VK","2018/07/17 17:49:21","新北市土城區城林路6巷80號","121.438516666667","24.9796066666667","6501300","土城區"
"236014","270-VK","2018/07/17 17:49:20","新北市土城區城林路6巷80號","121.438573333333","24.97958","6501300","土城區"
"236038","271-VK","2018/07/17 17:49:14","新北市土城區城林路6巷80號","121.438503333333","24.9797366666667","6501300","土城區"
"236021","401-BY","2018/07/17 17:49:22","新北市土城區城林路6巷80號","121.438745","24.97969","6501300","土城區"
"236042","752-BX","2018/07/17 17:49:14","新北市土城區城林路6巷80號","121.438655","24.97967","6501300","土城區"
"236059","912-UM","2018/07/17 17:49:25","新北市土城區中央路三段142號","121.433033333333","24.9655183333333","6501300","土城區"
"236049","913-UM","2018/07/17 17:49:11","新北市土城區城林路6巷80號","121.438626666667","24.979705","6501300","土城區"
"236055","AAC-216","2018/07/17 17:49:27","新北市土城區城林路6巷80號","121.438466666667","24.9795933333333","6501300","土城區"
"242034","AAC-296","2018/07/17 17:49:23","新北市新莊區新莊路783號","121.441178333333","25.0326883333333","6500500","新莊區"
"242058","986-R7","2018/07/17 17:49:07","新北市新莊區中正路730-8號","121.414685","25.02354","6500500","新莊區"
"242054","751-BX","2018/07/17 17:49:25","新北市新莊區新樹路575號","121.432863333333","25.0070116666667","6500500","新莊區"
"242027","705-TV","2018/07/17 17:49:16","新北市新莊區福壽街171號","121.458006666667","25.0538133333333","6500500","新莊區"
"242025","613-BX","2018/07/17 17:49:24","新北市三重區新北大道二段37號","121.470918333333","25.0613716666667","6500500","新莊區"
"242029","612-BX","2018/07/17 17:49:25","新北市新莊區新泰路334號","121.444886666667","25.0420233333333","6500500","新莊區"
"242042","566-BX","2018/07/17 17:49:16","新北市泰山區中山路二段927號","121.422631666667","25.033265","6500500","新莊區"
"242046","497-BY","2018/07/17 17:49:08","新北市新莊區福營路97巷9號","121.434768333333","25.031715","6500500","新莊區"
"242050","442-UM","2018/07/17 17:49:22","新北市新莊區中港路120號","121.455353333333","25.0401833333333","6500500","新莊區"
"242051","441-UM","2018/07/17 17:49:27","新北市新莊區西盛街232巷22號","121.427163333333","25.016455","6500500","新莊區"
"242056","440-UM","2018/07/17 17:49:14","新北市新莊區瓊林路40巷32號","121.446716666667","25.0303216666667","6500500","新莊區"
"242037","415-TV","2018/07/17 17:49:27","新北市新莊區建福路76號","121.42686","25.026825","6500500","新莊區"
"242007","413-TV","2018/07/17 17:49:25","新北市新莊區福樂街132巷1號","121.456703333333","25.0481716666667","6500500","新莊區"
"242044","400-BY","2018/07/17 17:49:22","新北市新莊區雙鳳路15號","121.41691","25.0268433333333","6500500","新莊區"
"242023","362-BY","2018/07/17 17:49:19","新北市新莊區福樂街82號","121.457768333333","25.0469133333333","6500500","新莊區"
"242061","353-BY","2018/07/17 17:49:23","新北市新莊區新樹路601號","121.433196666667","25.005855","6500500","新莊區"
"242009","132-UY","2018/07/17 17:49:26","新北市新莊區昌明街32號","121.456715","25.0524616666667","6500500","新莊區"
"242039","133-UY","2018/07/17 17:49:22","新北市新莊區民安路162號","121.42476","25.0244866666667","6500500","新莊區"
"242032","135-UY","2018/07/17 17:49:19","新北市新莊區新泰路357巷1弄47號","121.44264","25.0398733333333","6500500","新莊區"
"242048","172-VK","2018/07/17 17:49:25","新北市新莊區萬安街60巷2號","121.42082","25.0236116666667","6500500","新莊區"
"242017","175-VK","2018/07/17 17:49:17","新北市新莊區永安街48號","121.45146","25.0447683333333","6500500","新莊區"
"242005","176-VK","2018/07/17 17:49:15","新北市新莊區自立街248號","121.458771666667","25.04549","6500500","新莊區"
"242015","346-TH","2018/07/17 17:49:18","新北市新莊區新泰路417-2號","121.443098333333","25.0446283333333","6500500","新莊區"
"242011","347-TH","2018/07/17 17:49:19","新北市新莊區中港路684號","121.450731666667","25.0567466666667","6500500","新莊區"
"242021","348-TH","2018/07/17 17:49:10","新北市新莊區中港路190號","121.454995","25.0423","6500500","新莊區"
"242002","349-TH","2018/07/17 17:49:14","新北市新莊區景德路140號","121.45109","25.0341633333333","6500500","新莊區"
"242013","351-TH","2018/07/17 17:49:24","新北市新莊區中和街108巷11號","121.448211666667","25.04693","6500500","新莊區"
"238015","755-BX","2018/07/17 17:49:25","新北市樹林區樹德街136巷28號","121.41998","24.9942833333333","6500700","樹林區"
"238023","601-UM","2018/07/17 17:49:21","新北市樹林區龍興街32巷36號","121.401653333333","25.0155416666667","6500700","樹林區"
"238019","599-UM","2018/07/17 17:49:16","新北市樹林區太平路108號","121.418533333333","24.9787966666667","6500700","樹林區"
"238018","571-TV","2018/07/17 17:49:09","新北市樹林區鎮前街10號","121.426206666667","24.9932316666667","6500700","樹林區"
"238022","KEA-2213","2018/07/17 17:49:21","新北市樹林區太順街62巷3弄22號","121.416803333333","24.9795016666667","6500700","樹林區"
"238021","KEA-2539","2018/07/17 17:49:13","新北市樹林區柑園街一段36-8號","121.405471666667","24.9615716666667","6500700","樹林區"
"238025","303-VK","2018/07/17 17:49:07","新北市樹林區三俊街38號","121.411901666667","25.01543","6500700","樹林區"
"238017","283-BY","2018/07/17 17:49:09","新北市樹林區三德街48-4號","121.415948333333","25.0134466666667","6500700","樹林區"
"238014","282-BY","2018/07/17 17:49:19","新北市樹林區大安路143號","121.422001666667","24.996965","6500700","樹林區"
"238020","268-VK","2018/07/17 17:49:14","新北市樹林區三俊街199巷10-4號","121.420141666667","25.0161933333333","6500700","樹林區"
"238026","172-UY","2018/07/17 17:49:25","新北市樹林區中洲街52號","121.396815","24.970985","6500700","樹林區"
"238016","169-UY","2018/07/17 17:49:11","新北市樹林區復興路372巷3號","121.415233333333","24.9860016666667","6500700","樹林區"
"239007","AAC-297","2018/07/17 17:49:22","新北市鶯歌區永利街22號","121.339275","24.95482","6500800","鶯歌區"
"239006","891-R6","2018/07/17 17:49:19","新北市鶯歌區永和街153號","121.334498333333","24.9692816666667","6500800","鶯歌區"
"239008","527-UM","2018/07/17 17:49:16","新北市鶯歌區香賓街13巷1號","121.336923333333","24.97967","6500800","鶯歌區"
"239005","526-UM","2018/07/17 17:49:24","新北市鶯歌區鳳吉四街6號","121.326366666667","24.97248","6500800","鶯歌區"
"239001","417-VK","2018/07/17 17:49:17","新北市鶯歌區中正三路389-3號","121.325031666667","24.9346483333333","6500800","鶯歌區"
"239003","360-BY","2018/07/17 17:49:22","新北市鶯歌區永吉街46巷17號","121.335036666667","24.9574583333333","6500800","鶯歌區"
"239002","359-BY","2018/07/17 17:49:14","新北市鶯歌區光明街140號","121.344728333333","24.9558233333333","6500800","鶯歌區"
"239004","193-VK","2018/07/17 17:49:17","新北市鶯歌區文化路136巷17號","121.351358333333","24.9507866666667","6500800","鶯歌區"
"221008","489-VK","2018/07/17 17:49:08","新北市汐止區康寧街901號","121.651345","25.0749916666667","6501100","汐止區"
"221036","130-UY","2018/07/17 17:48:10","新北市汐止區汐萬路一段39號","121.654825","25.0691766666667","6501100","汐止區"
"221015","131-UY","2018/07/17 17:49:23","新北市汐止區長江街255巷6號","121.664028333333","25.0797766666667","6501100","汐止區"
"221010","269-BY","2018/07/17 17:49:29","新北市汐止區汐萬路二段122巷38弄42號","121.648146666667","25.0869033333333","6501100","汐止區"
"221012","278-VK","2018/07/17 17:49:09","新北市汐止區汐萬路一段124號","121.65381","25.0712116666667","6501100","汐止區"
"221023","279-VK","2018/07/17 17:49:26","新北市汐止區民族二街42號","121.634521666667","25.07032","6501100","汐止區"
"221032","280-BY","2018/07/17 17:49:11","新北市汐止區工建路202號","121.63685","25.0626666666667","6501100","汐止區"
"221027","281-BY","2018/07/17 17:49:10","新北市汐止區康寧街901號","121.651246666667","25.0751133333333","6501100","汐止區"
"221033","297-VK","2018/07/17 17:49:17","新北市汐止區民權街二段125號","121.618173333333","25.0457983333333","6501100","汐止區"
"221029","298-VK","2018/07/17 17:49:24","新北市汐止區康寧街901號","121.651721666667","25.0749066666667","6501100","汐止區"
"221021","299-VK","2018/07/17 17:49:17","新北市汐止區水源路一段18號","121.657163333333","25.0665816666667","6501100","汐止區"
"221031","353-TW","2018/07/17 17:49:14","新北市汐止區中興路96巷16號","121.635436666667","25.0624666666667","6501100","汐止區"
"221035","622-UM","2018/07/17 17:49:24","新北市汐止區汐萬路一段223號","121.651883333333","25.07254","6501100","汐止區"
"221025","623-UM","2018/07/17 17:49:10","新北市汐止區大同路二段173號","121.651615","25.064545","6501100","汐止區"
"221038","646-BX","2018/07/17 17:49:10","新北市汐止區汐萬路一段310號","121.650268333333","25.0747783333333","6501100","汐止區"
"221002","707-TV","2018/07/17 17:49:16","新北市汐止區康寧街901號","121.651666666667","25.0749383333333","6501100","汐止區"
"221018","753-BX","2018/07/17 17:49:26","新北市汐止區汐萬路一段160號","121.652618333333","25.07145","6501100","汐止區"
"235061","KEA-2875","2018/07/17 17:31:21","新北市中和區員山路36巷16-2號","121.485288333333","24.991785","6500300","中和區"
