"lineid","car","time","location","longitude","latitude","cityid","cityname"
"234046","148-BY","2018/07/17 18:39:10","新北市永和區永元路68號","121.522548333333","25.00158","6500400","永和區"
"234007","207-UY","2018/07/17 18:39:13","新北市永和區保順路8號","121.50301","25.0118416666667","6500400","永和區"
"234081","298-R6","2018/07/17 18:39:14","新北市永和區林森路81號","121.523895","25.0038566666667","6500400","永和區"
"234086","553-UM","2018/07/17 18:39:21","新北市永和區永貞路130號","121.518466666667","25.00447","6500400","永和區"
"234017","745-BX","2018/07/17 18:39:21","新北市永和區福和路1號","121.526455","25.009585","6500400","永和區"
"234030","746-BX","2018/07/17 18:39:16","新北市永和區得和路321號","121.523395","24.9996233333333","6500400","永和區"
"234067","847-RS","2018/07/17 18:39:08","新北市永和區永貞路127號","121.516848333333","25.0042133333333","6500400","永和區"
"234042","862-TW","2018/07/17 18:39:25","新北市永和區永貞路304號","121.511926666667","25.0047983333333","6500400","永和區"
"234050","863-TW","2018/07/17 18:39:14","新北市永和區福和路1號","121.526695","25.010095","6500400","永和區"
"234026","9371-KE","2018/07/17 18:39:12","新北市永和區永貞路417巷5號","121.507046666667","25.0091833333333","6500400","永和區"
"234011","9373-KE","2018/07/17 18:39:15","新北市永和區文化路9巷22弄61號","121.514103333333","25.0144783333333","6500400","永和區"
"249005","172-UM","2018/07/17 18:39:27","新北市八里區中華路三段34-2號","121.388778333333","25.1257233333333","6502300","八里區"
"249001","173-UM","2018/07/17 18:39:19","新北市八里區龍米路一段348-2號","121.451555","25.1309716666667","6502300","八里區"
"249004","303-UY","2018/07/17 18:39:11","新北市八里區中山路一段42-1號","121.42229","25.15901","6502300","八里區"
"249002","305-UY","2018/07/17 18:39:26","新北市八里區龍形一街33巷6-2號","121.449318333333","25.129465","6502300","八里區"
"248014","025-BX","2018/07/17 18:39:17","新北市五股區成泰路一段131號","121.435526666667","25.0726683333333","6501500","五股區"
"248016","026-BX","2018/07/17 18:39:17","新北市五股區凌雲路一段149巷42號","121.448638333333","25.100955","6501500","五股區"
"248008","095-VK","2018/07/17 18:39:14","新北市五股區中興路一段154號","121.464578333333","25.0741366666667","6501500","五股區"
"248020","225-UY","2018/07/17 18:38:20","新北市五股區孝義路87號","121.444635","25.1199516666667","6501500","五股區"
"248012","247-BX","2018/07/17 18:39:30","新北市五股區成泰路三段2巷1-20號","121.441246666667","25.0867066666667","6501500","五股區"
"248010","272-BY","2018/07/17 18:39:28","新北市五股區明德路43號","121.43422","25.0713266666667","6501500","五股區"
"248004","677-BX","2018/07/17 18:39:23","新北市五股區民義路一段206號","121.430318333333","25.0890983333333","6501500","五股區"
"248002","678-BX","2018/07/17 18:34:16","新北市五股區西雲路172號","121.447018333333","25.0948533333333","6501500","五股區"
"234023","9380-KE","2018/07/17 18:39:16","新北市永和區福和路76巷5弄14號","121.522326666667","25.00837","6500400","永和區"
"234077","969-R7","2018/07/17 18:39:13","新北市永和區中正路68號","121.513485","24.9949933333333","6500400","永和區"
"232011","375-UM","2018/07/17 18:13:39","新北市坪林區坪雙路一段41號","121.711708333333","24.9424283333333","6502000","坪林區"
"244007","080-UY","2018/07/17 18:39:09","新北市林口區中湖62號","121.384425","25.1010066666667","6501700","林口區"
"244019","403-UM","2018/07/17 18:39:27","新北市林口區忠孝路646巷35號","121.379396666667","25.0670333333333","6501700","林口區"
"244013","742-UY","2018/07/17 18:39:28","新北市林口區文化一路二段92號","121.381643333333","25.0787333333333","6501700","林口區"
"244009","410-SL","2018/07/17 18:39:29","新北市林口區竹林路358巷20號","121.393105","25.0837483333333","6501700","林口區"
"244023","483-VK","2018/07/17 18:39:20","新北市林口區信義路128號","121.380455","25.0794366666667","6501700","林口區"
"244017","485-VK","2018/07/17 18:39:16","新北市林口區文化二路一段36號","121.364885","25.0676483333333","6501700","林口區"
"244011","657-BX","2018/07/17 18:39:25","新北市林口區興林路17巷3弄1號","121.390171666667","25.076995","6501700","林口區"
"244025","837-TS","2018/07/17 18:39:17","新北市林口區南勢六街242號","121.355836666667","25.07472","6501700","林口區"
"244021","838-TS","2018/07/17 18:39:22","新北市林口區工六路100號","121.401265","25.0766466666667","6501700","林口區"
"243013","AAD-798","2018/07/17 18:28:12","新北市泰山區明志路三段206巷3號","121.423265","25.0379033333333","6501600","泰山區"
"243012","646-TV","2018/07/17 18:39:17","新北市泰山區泰林路二段204號","121.433323333333","25.0613966666667","6501600","泰山區"
"222003","436-BY","2018/07/17 18:39:23","新北市深坑區翠谷街10號","121.627165","25.0083766666667","6501800","深坑區"
"222002","659-BX","2018/07/17 18:39:21","新北市深坑區文山路一段62巷33號","121.621181666667","25.0002283333333","6501800","深坑區"
"231041","002-UM","2018/07/17 18:39:10","新北市新店區安華路28-1號","121.519671666667","24.96082","6500600","新店區"
"231059","046-UY","2018/07/17 18:39:15","新北市新店區安華路3號","121.519238333333","24.9596083333333","6500600","新店區"
"231040","047-UY","2018/07/17 18:39:24","新北市新店區安華路28-1號","121.519295","24.9609216666667","6500600","新店區"
"231044","106-UY","2018/07/17 18:39:11","新北市新店區安康路一段144號","121.526463333333","24.96291","6500600","新店區"
"231046","107-UY","2018/07/17 18:39:27","新北市新店區直潭二街1號","121.535533333333","24.9431783333333","6500600","新店區"
"231048","187-VK","2018/07/17 18:39:19","新北市新店區安康路一段285號","121.523213333333","24.96361","6500600","新店區"
"231054","KEA-2219","2018/07/17 18:39:22","新北市新店區安一路一段1-1號","121.519881666667","24.961095","6500600","新店區"
"231057","256-BX","2018/07/17 18:39:13","新北市新店區新烏路一段215號","121.549013333333","24.931485","6500600","新店區"
"231042","268-BY","2018/07/17 18:39:15","新北市新店區安一路一段1-1號","121.519736666667","24.9612916666667","6500600","新店區"
"231051","278-BY","2018/07/17 18:39:12","新北市新店區中央路177-1號","121.535061666667","24.9695866666667","6500600","新店區"
"231050","AAD-862","2018/07/17 18:39:27","新北市新店區安一路一段1-1號","121.519875","24.9610833333333","6500600","新店區"
"231043","355-BY","2018/07/17 18:39:27","新北市新店區安華路28-1號","121.519251666667","24.960965","6500600","新店區"
"231058","3713-VJ","2018/07/17 18:39:29","新北市新店區北宜路一段168號","121.540386666667","24.9529283333333","6500600","新店區"
"231066","4716-K9","2018/07/17 18:39:16","新北市新店區安一路一段1-1號","121.519445","24.9614716666667","6500600","新店區"
"231056","4715-K9","2018/07/17 18:39:26","新北市新店區民族路102號","121.539178333333","24.97806","6500600","新店區"
"231067","4772-VM","2018/07/17 18:39:18","新北市新店區安華路28-1號","121.519398333333","24.960575","6500600","新店區"
"231065","512-UM","2018/07/17 18:39:16","新北市新店區安一路一段1-1號","121.519338333333","24.9610833333333","6500600","新店區"
"231049","513-UM","2018/07/17 18:39:11","新北市新店區安一路一段1-1號","121.519671666667","24.9611083333333","6500600","新店區"
"231063","616-UM","2018/07/17 18:39:13","新北市新店區安華路1-1號","121.519548333333","24.96042","6500600","新店區"
"231045","617-UM","2018/07/17 18:39:15","新北市新店區安華路28-1號","121.5195","24.9608383333333","6500600","新店區"
"231061","619-UM","2018/07/17 18:39:15","新北市新店區安華路28-1號","121.519743333333","24.960795","6500600","新店區"
"231064","719-UM","2018/07/17 18:39:20","新北市新店區安一路一段1-1號","121.519588333333","24.9612716666667","6500600","新店區"
"231053","719-UY","2018/07/17 18:39:22","新北市新店區永興路38號","121.543446666667","24.93872","6500600","新店區"
"231062","720-UM","2018/07/17 18:39:09","新北市新店區安一路一段1-1號","121.519348333333","24.9612216666667","6500600","新店區"
"231060","897-TW","2018/07/17 18:39:31","新北市新店區安華路28-1號","121.519595","24.96084","6500600","新店區"
"231055","AKT-0513","2018/07/17 18:39:18","新北市新店區北新路一段271巷33號","121.539681666667","24.9670366666667","6500600","新店區"
"241035","462-BY","2018/07/17 18:39:11","新北市三重區重新路四段121號","121.484873333333","25.0520116666667","6500200","三重區"
"235066","003-UY","2018/07/17 18:39:17","新北市中和區水源路45號","121.504795","25.003585","6500300","中和區"
"235064","005-UY","2018/07/17 18:39:16","新北市中和區連城路109巷16號","121.496648333333","24.9988883333333","6500300","中和區"
"235063","006-UY","2018/07/17 18:39:25","新北市中和區連城路347巷4弄4號","121.488028333333","24.9955816666667","6500300","中和區"
"235056","096-UM","2018/07/17 18:39:09","新北市中和區員山路611巷5弄1號","121.477928333333","25.0110966666667","6500300","中和區"
"235039","097-UM","2018/07/17 18:39:15","新北市永和區中正路67巷2號","121.51467","24.9968416666667","6500300","中和區"
"235065","098-UM","2018/07/17 18:39:11","新北市中和區莊敬路49巷27號","121.501558333333","25.0061883333333","6500300","中和區"
"235040","150-BY","2018/07/17 18:39:20","新北市中和區宜安路47巷2號","121.511671666667","24.9964616666667","6500300","中和區"
"235058","151-BY","2018/07/17 18:39:23","新北市中和區連城路378號","121.48084","24.9950316666667","6500300","中和區"
"235055","183-VK","2018/07/17 18:39:11","新北市板橋區民族路277號","121.47104","25.0066866666667","6500300","中和區"
"235038","185-VK","2018/07/17 18:39:26","新北市中和區大勇街60巷22號","121.519033333333","24.9946933333333","6500300","中和區"
"235049","186-VK","2018/07/17 18:39:29","新北市中和區景安路130號","121.505208333333","24.9945016666667","6500300","中和區"
"235067","255-BX","2018/07/17 18:39:25","新北市中和區新生街50號","121.483236666667","25.0031066666667","6500300","中和區"
"235044","293-VK","2018/07/17 18:39:19","新北市中和區復興路276號","121.502741666667","24.990425","6500300","中和區"
"235072","301-VK","2018/07/17 18:39:21","新北市中和區中山路二段193號","121.499991666667","25.0026533333333","6500300","中和區"
"235043","352-BY","2018/07/17 18:39:14","新北市中和區景平路163號","121.51244","24.9924333333333","6500300","中和區"
"235042","KEA-2878","2018/07/17 18:39:18","新北市中和區成功路29號","121.526243333333","24.9933583333333","6500300","中和區"
"235050","4979-A6","2018/07/17 18:39:13","新北市中和區景新街496巷28弄13號","121.513181666667","24.9858516666667","6500300","中和區"
"235069","4980-A6","2018/07/17 18:39:21","新北市中和區連城路89巷1號","121.496716666667","25.0000366666667","6500300","中和區"
"235070","558-UM","2018/07/17 18:39:27","新北市中和區南山路127巷18弄44號","121.503455","24.9963533333333","6500300","中和區"
"235045","565-BX","2018/07/17 18:39:24","新北市中和區南山路236巷63弄1號","121.50385","24.9875916666667","6500300","中和區"
"235054","640-BX","2018/07/17 18:39:18","新北市中和區民享街61號","121.474086666667","25.0024283333333","6500300","中和區"
"235060","647-TV","2018/07/17 18:39:11","新北市中和區中山路二段531號","121.481485","25.0051966666667","6500300","中和區"
"235046","733-UM","2018/07/17 18:39:23","新北市中和區仁愛街81號","121.511593333333","24.9872183333333","6500300","中和區"
"235062","800-TS","2018/07/17 18:39:28","新北市中和區中山路二段302號","121.495958333333","25.00244","6500300","中和區"
"235057","801-TS","2018/07/17 18:39:12","新北市中和區民安街42巷14號","121.479725","25.00072","6500300","中和區"
"235041","802-TS","2018/07/17 18:38:59","新北市中和區宜安路118巷20號","121.510875","24.9986266666667","6500300","中和區"
"235052","805-TS","2018/07/17 18:39:23","新北市中和區興南路三段57號","121.493606666667","24.9753833333333","6500300","中和區"
"235048","896-TW","2018/07/17 18:39:28","新北市中和區南山路303號","121.504755","24.9916733333333","6500300","中和區"
"235053","900-TW","2018/07/17 18:39:30","新北市土城區延壽路75巷1號","121.469183333333","24.992485","6500300","中和區"
"235051","157-BY","2018/07/17 18:39:26","新北市中和區興南路二段114巷1-2號","121.504411666667","24.984145","6500300","中和區"
"235037","AAC-213","2018/07/17 18:39:27","新北市中和區景德街95-11號","121.515056666667","24.9911766666667","6500300","中和區"
"235059","AAC-215","2018/07/17 18:39:20","新北市中和區錦和路350-1號","121.490275","24.9935766666667","6500300","中和區"
"220065","072-UY","2018/07/17 18:39:20","新北市板橋區民族路247巷5弄40號","121.47016","25.00843","6500100","板橋區"
"220086","073-UY","2018/07/17 18:39:25","新北市板橋區南雅西路二段192巷1弄29號","121.452456666667","25.0153066666667","6500100","板橋區"
"220069","AAD-861","2018/07/17 18:39:13","新北市板橋區華東街1-10號","121.448331666667","24.9951083333333","6500100","板橋區"
"226004","205-ST","2018/07/17 18:39:25","新北市平溪區平溪里三坑路38號","121.734453333333","25.0328283333333","6502400","平溪區"
"235047","251-BX","2018/07/17 18:39:18","新北市中和區南山路320巷10弄21號","121.506723333333","24.9866583333333","6500300","中和區"
"228001","212-TW","2018/07/17 18:39:24","新北市貢寮區仁理村保健街69號","121.92374","25.051615","6502600","貢寮區"
"228002","663-BX","2018/07/17 18:39:16","新北市貢寮區福隆里東興街6-11號","121.950778333333","25.021045","6502600","貢寮區"
"228003","828-UM","2018/07/17 18:39:21","新北市貢寮區和美里龍洞街40號","121.915168333333","25.111685","6502600","貢寮區"
"224010","AGQ-8101","2018/07/17 18:35:16","新北市瑞芳區崙頂路111號","121.844426666667","25.1069916666667","6501200","瑞芳區"
"224006","676-BX","2018/07/17 18:39:15","新北市瑞芳區明燈路三段79號","121.8054","25.1082566666667","6501200","瑞芳區"
"224002","639-TC","2018/07/17 18:39:26","新北市瑞芳區中山路266號","121.799368333333","25.1076716666667","6501200","瑞芳區"
"224008","285-BY","2018/07/17 18:39:23","新北市瑞芳區岳王路17號","121.807266666667","25.1109466666667","6501200","瑞芳區"
"224007","275-VK","2018/07/17 18:39:09","新北市瑞芳區大埔路115巷18號","121.762893333333","25.1012933333333","6501200","瑞芳區"
"224009","273-VK","2018/07/17 18:39:28","新北市瑞芳區祈堂路108號","121.858988333333","25.109415","6501200","瑞芳區"
"224005","271-BY","2018/07/17 18:39:30","新北市瑞芳區瑞濱路151號","121.818796666667","25.1182383333333","6501200","瑞芳區"
"227009","642-TC","2018/07/17 18:39:30","新北市雙溪區牡丹里下坑11號","121.851023333333","25.0561716666667","6502500","雙溪區"
"227003","030-BX","2018/07/17 18:39:16","新北市雙溪區魚行里坤溪3-4號","121.876213333333","25.0207066666667","6502500","雙溪區"
"253005","032-BX","2018/07/17 18:39:17","新北市石門區中山路33號","121.567098333333","25.2909083333333","6502200","石門區"
"253006","295-VK","2018/07/17 18:39:13","新北市石門區崁子腳46-1號","121.534178333333","25.2886633333333","6502200","石門區"
"222001","KEA-2212","2018/07/17 18:39:21","新北市深坑區北深路一段82號","121.63631","25.010725","6501800","深坑區"
"208002","KEA-2872","2018/07/17 18:39:23","新北市金山區忠孝一路19巷5號","121.638081666667","25.2181116666667","6502700","金山區"
"208003","665-BX","2018/07/17 18:39:17","新北市金山區中山路304號","121.634491666667","25.224685","6502700","金山區"
"208001","761-BX","2018/07/17 18:39:09","新北市金山區文化三路7號","121.635043333333","25.2249583333333","6502700","金山區"
"251004","009-UM","2018/07/17 18:39:10","新北市淡水區中正東路二段143巷2弄1號","121.460493333333","25.1472633333333","6501000","淡水區"
"251001","011-UM","2018/07/17 18:39:23","新北市淡水區自強路166號","121.46548","25.1341383333333","6501000","淡水區"
"251002","012-UM","2018/07/17 18:39:26","新北市淡水區中正東路一段3巷14弄5號","121.451071666667","25.1641966666667","6501000","淡水區"
"251013","KEA-2871","2018/07/17 18:39:14","新北市淡水區小坑子頭6號","121.481651666667","25.207865","6501000","淡水區"
"251016","179-VK","2018/07/17 18:39:24","新北市淡水區下圭柔山84-1號","121.440205","25.2050566666667","6501000","淡水區"
"251014","180-VK","2018/07/17 18:39:14","新北市淡水區崙頂12-8號","121.495586666667","25.2172416666667","6501000","淡水區"
"251015","181-VK","2018/07/17 18:39:11","新北市淡水區興福寮66巷293號","121.485836666667","25.1618483333333","6501000","淡水區"
"251010","413-VK","2018/07/17 18:39:12","新北市淡水區沙崙路118號","121.423176666667","25.1827366666667","6501000","淡水區"
"251012","441-VK","2018/07/17 18:39:20","新北市淡水區北新路121號","121.449011666667","25.1785966666667","6501000","淡水區"
"251008","442-VK","2018/07/17 18:39:10","新北市淡水區北投子17-1號","121.453921666667","25.1835583333333","6501000","淡水區"
"251006","561-UM","2018/07/17 18:39:25","新北市淡水區崁頂36號","121.438958333333","25.19464","6501000","淡水區"
"251011","650-BX","2018/07/17 18:39:29","新北市淡水區鄧公路210巷6號","121.455056666667","25.16908","6501000","淡水區"
"251003","766-UM","2018/07/17 18:39:21","新北市淡水區北新路69巷26號","121.446625","25.1799466666667","6501000","淡水區"
"207003","550-UM","2018/07/17 18:39:27","新北市萬里區野柳里八斗60號","121.660346666667","25.2072266666667","6502800","萬里區"
"207004","291-VK","2018/07/17 18:39:25","新北市萬里區萬里里獅頭路7號","121.691988333333","25.1782466666667","6502800","萬里區"
"252002","178-VK","2018/07/17 18:39:26","新北市三芝區民生街64巷7號","121.503568333333","25.2552333333333","6502100","三芝區"
"252003","249-BX","2018/07/17 18:39:29","新北市三芝區後厝里土地公坑56號","121.462945","25.2484466666667","6502100","三芝區"
"252001","292-VK","2018/07/17 18:39:28","新北市三芝區中正路三段29號","121.502205","25.2526466666667","6502100","三芝區"
"237004","KEA-2597","2018/07/17 18:39:16","新北市三峽區插角232號","121.413711666667","24.8688766666667","6500900","三峽區"
"237009","210-TH","2018/07/17 18:39:31","新北市三峽區民權街203號","121.367755","24.9284483333333","6500900","三峽區"
"237013","252-BX","2018/07/17 18:39:11","新北市三峽區光明路69巷27號","121.376798333333","24.929335","6500900","三峽區"
"237012","275-BY","2018/07/17 18:39:13","新北市三峽區三樹路340號","121.38394","24.9433166666667","6500900","三峽區"
"237008","302-VK","2018/07/17 18:39:10","新北市三峽區白雞115-1號","121.40177","24.9078716666667","6500900","三峽區"
"237014","433-BY","2018/07/17 18:39:11","新北市三峽區復興路480巷50號","121.360163333333","24.940295","6500900","三峽區"
"237006","5529-G3","2018/07/17 18:39:19","新北市三峽區溪東路315巷26號","121.411068333333","24.93107","6500900","三峽區"
"237011","KEA-2596","2018/07/17 18:39:21","新北市三峽區橫溪路140號","121.399133333333","24.935215","6500900","三峽區"
"237016","649-BX","2018/07/17 18:39:14","新北市三峽區竹崙路157號","121.436686666667","24.9057216666667","6500900","三峽區"
"237010","706-TV","2018/07/17 18:39:25","新北市三峽區國光街366號","121.370928333333","24.9397266666667","6500900","三峽區"
"237005","AKY-6261","2018/07/17 18:39:11","新北市三峽區復興路17號","121.374168333333","24.93619","6500900","三峽區"
"236070","105-UM","2018/07/17 18:39:25","新北市土城區永豐路157巷29弄6-1號","121.468336666667","24.981475","6501300","土城區"
"236079","166-UM","2018/07/17 18:39:24","新北市土城區中央路四段52巷32號","121.419635","24.9608933333333","6501300","土城區"
"236030","253-BX","2018/07/17 18:39:14","新北市土城區慶利街35號","121.438923333333","24.97439","6501300","土城區"
"236026","269-VK","2018/07/17 18:39:21","新北市土城區忠義路49-1號","121.440421666667","24.969065","6501300","土城區"
"236014","270-VK","2018/07/17 18:39:19","新北市土城區清水路207巷15號","121.45978","24.9823183333333","6501300","土城區"
"236038","271-VK","2018/07/17 18:39:14","新北市土城區明德路一段291巷26號","121.460451666667","24.976005","6501300","土城區"
"236021","401-BY","2018/07/17 18:39:22","新北市土城區延吉街327-1號","121.465495","24.9842","6501300","土城區"
"236042","752-BX","2018/07/17 18:39:14","新北市土城區學成路108巷8-2號","121.4502","24.9896083333333","6501300","土城區"
"236059","912-UM","2018/07/17 18:39:25","新北市土城區中央路三段283號","121.426363333333","24.9633216666667","6501300","土城區"
"236049","913-UM","2018/07/17 18:39:26","新北市土城區明德路一段103號","121.46562","24.9827083333333","6501300","土城區"
"236063","915-UM","2018/07/17 18:39:18","新北市土城區延壽路55巷9弄5號","121.469821666667","24.9914516666667","6501300","土城區"
"236055","AAC-216","2018/07/17 18:39:27","新北市土城區裕民路38號","121.448043333333","24.9883483333333","6501300","土城區"
"242058","986-R7","2018/07/17 18:39:27","新北市新莊區中正路700-28號","121.418058333333","25.0272716666667","6500500","新莊區"
"242054","751-BX","2018/07/17 18:39:25","新北市新莊區樹新路120巷26號","121.430293333333","24.99628","6500500","新莊區"
"242025","613-BX","2018/07/17 18:39:24","新北市新莊區新泰路255巷83號","121.442183333333","25.0391333333333","6500500","新莊區"
"242002","349-TH","2018/07/17 18:39:30","新北市新莊區環河路636-7號","121.437466666667","25.011715","6500500","新莊區"
"238023","601-UM","2018/07/17 18:39:21","新北市樹林區三福街114號","121.40646","25.01629","6500700","樹林區"
"238019","599-UM","2018/07/17 18:39:26","新北市樹林區中華路190-16號","121.411656666667","24.9806133333333","6500700","樹林區"
"238018","571-TV","2018/07/17 18:39:09","新北市樹林區鎮前街45號","121.425356666667","24.9916166666667","6500700","樹林區"
"238024","5061-A6","2018/07/17 18:39:22","新北市樹林區太順街49巷14號","121.418058333333","24.9789","6500700","樹林區"
"238025","303-VK","2018/07/17 18:39:27","新北市樹林區中山路三段147-5號","121.395838333333","24.9729966666667","6500700","樹林區"
"238017","283-BY","2018/07/17 18:39:09","新北市樹林區光興街50號","121.409866666667","25.0027","6500700","樹林區"
"238014","282-BY","2018/07/17 18:39:19","新北市樹林區大安路111巷11號","121.423043333333","24.9976816666667","6500700","樹林區"
"238020","268-VK","2018/07/17 18:39:14","新北市樹林區三俊街250-1號","121.421246666667","25.0146266666667","6500700","樹林區"
"238026","172-UY","2018/07/17 18:39:25","新北市樹林區民和街1號","121.38538","24.967845","6500700","樹林區"
"238016","169-UY","2018/07/17 18:39:11","新北市樹林區文化街23號","121.419358333333","24.9876466666667","6500700","樹林區"
"239007","AAC-297","2018/07/17 18:39:22","新北市鶯歌區中正一路建德巷38號","121.364483333333","24.95781","6500800","鶯歌區"
"239006","891-R6","2018/07/17 18:39:19","新北市鶯歌區鶯桃路244號","121.336218333333","24.9595066666667","6500800","鶯歌區"
"239008","527-UM","2018/07/17 18:39:15","新北市鶯歌區國際一路179號","121.336236666667","24.9764766666667","6500800","鶯歌區"
"239005","526-UM","2018/07/17 18:39:24","新北市鶯歌區鶯桃路二段58號","121.3251","24.97296","6500800","鶯歌區"
"239001","417-VK","2018/07/17 18:39:17","新北市鶯歌區中正三路2號","121.339338333333","24.9429266666667","6500800","鶯歌區"
"239003","360-BY","2018/07/17 18:39:22","新北市鶯歌區永和街94號","121.334071666667","24.9687616666667","6500800","鶯歌區"
"239002","359-BY","2018/07/17 18:39:14","新北市鶯歌區中山路80號","121.351233333333","24.95704","6500800","鶯歌區"
"239004","193-VK","2018/07/17 18:39:17","新北市鶯歌區中正三路156巷20號","121.33161","24.942425","6500800","鶯歌區"
"221008","489-VK","2018/07/17 18:39:28","新北市汐止區康寧街901號","121.65137","25.0749816666667","6501100","汐止區"
"221036","130-UY","2018/07/17 18:39:13","新北市汐止區水碓街63號","121.665193333333","25.0687016666667","6501100","汐止區"
"221015","131-UY","2018/07/17 18:39:10","新北市汐止區吉祥街3號","121.667988333333","25.0799","6501100","汐止區"
"221010","269-BY","2018/07/17 18:39:29","新北市汐止區汐萬路一段393號","121.649585","25.0787166666667","6501100","汐止區"
"221012","278-VK","2018/07/17 18:39:09","新北市汐止區鄉長路二段18巷1號","121.668295","25.0819666666667","6501100","汐止區"
"221023","279-VK","2018/07/17 18:39:29","新北市汐止區翠峰街21巷3弄20號","121.64446","25.0757766666667","6501100","汐止區"
"221032","280-BY","2018/07/17 18:39:11","新北市汐止區福山街58巷9號","121.617933333333","25.0460833333333","6501100","汐止區"
"221027","281-BY","2018/07/17 18:39:29","新北市汐止區汐萬路一段144-2號","121.653041666667","25.0710733333333","6501100","汐止區"
"221033","297-VK","2018/07/17 18:39:17","新北市汐止區南勢街3號","121.627141666667","25.0375","6501100","汐止區"
"221029","298-VK","2018/07/17 18:39:24","新北市汐止區樟樹一路133巷1號","121.642188333333","25.06511","6501100","汐止區"
"221021","299-VK","2018/07/17 18:39:17","新北市汐止區新台五路一段197號","121.655955","25.0632566666667","6501100","汐止區"
"221031","353-TW","2018/07/17 18:39:14","新北市汐止區福德一路274號","121.632085","25.064015","6501100","汐止區"
"221035","622-UM","2018/07/17 18:39:24","新北市汐止區大同路二段4號","121.647041666667","25.062685","6501100","汐止區"
"221025","623-UM","2018/07/17 18:39:30","新北市汐止區仁愛路119巷20號","121.662138333333","25.0643766666667","6501100","汐止區"
"221038","646-BX","2018/07/17 18:39:10","新北市汐止區汐萬路一段312號","121.650603333333","25.07527","6501100","汐止區"
"221002","707-TV","2018/07/17 18:39:16","新北市汐止區大同路一段267號","121.636393333333","25.0585183333333","6501100","汐止區"
"221018","753-BX","2018/07/17 18:39:26","新北市汐止區茄興街12號","121.673515","25.0672333333333","6501100","汐止區"
"220080","200-UY","2018/07/17 18:39:26","新北市板橋區大觀路二段265巷76弄29號","121.441443333333","24.996725","6500100","板橋區"
"220082","610-BX","2018/07/17 18:39:22","新北市板橋區篤行路二段59號","121.431803333333","24.992455","6500100","板橋區"
"220056","276-BY","2018/07/17 18:39:10","新北市板橋區四川路二段140巷16弄28號","121.448701666667","24.9944183333333","6500100","板橋區"
"220072","277-BY","2018/07/17 18:39:26","新北市板橋區大觀路三段50巷47號","121.432788333333","24.9958583333333","6500100","板橋區"
"220071","283-VK","2018/07/17 18:39:13","新北市板橋區四川路二段140巷16弄28號","121.448615","24.9943216666667","6500100","板橋區"
"220094","285-UM","2018/07/17 18:39:19","新北市板橋區民生路二段161巷5號","121.470166666667","25.019685","6500100","板橋區"
"220083","286-VK","2018/07/17 18:39:22","新北市板橋區大觀路二段14號","121.446766666667","25.0036083333333","6500100","板橋區"
"220081","287-VK","2018/07/17 18:39:28","新北市板橋區大觀路二段107號","121.446375","25.001595","6500100","板橋區"
"220061","293-UM","2018/07/17 18:39:25","新北市板橋區民生路二段161巷1號","121.470278333333","25.0199033333333","6500100","板橋區"
"220084","296-UM","2018/07/17 18:39:17","新北市板橋區大觀路二段205號","121.444475","24.9995","6500100","板橋區"
"220075","303-R5","2018/07/17 18:39:29","新北市板橋區南雅西路一段39巷30號","121.452688333333","25.0043783333333","6500100","板橋區"
"220064","486-VK","2018/07/17 18:39:13","新北市板橋區新站路75號","121.464995","25.0140383333333","6500100","板橋區"
"220103","561-BX","2018/07/17 18:39:15","新北市板橋區民生路二段120號","121.470336666667","25.0198583333333","6500100","板橋區"
"220079","568-UM","2018/07/17 18:39:14","新北市板橋區館前西路162號","121.452915","25.0085883333333","6500100","板橋區"
"220063","609-BX","2018/07/17 18:39:16","新北市板橋區民生路二段161巷1號","121.469885","25.0200866666667","6500100","板橋區"
"220057","686-BX","2018/07/17 18:39:20","新北市板橋區華東街1-9號","121.448225","24.99487","6500100","板橋區"
"220077","687-BX","2018/07/17 18:39:28","新北市板橋區大觀路二段431-1號","121.44147","24.9951683333333","6500100","板橋區"
"220054","741-BX","2018/07/17 18:39:15","新北市板橋區華東街296號","121.452685","25.0021666666667","6500100","板橋區"
"220055","827-TW","2018/07/17 18:39:11","新北市板橋區華東街1-9號","121.448103333333","24.9949266666667","6500100","板橋區"
"220074","895-R6","2018/07/17 18:39:30","新北市板橋區南雅南路二段1-1號","121.45468","25.003765","6500100","板橋區"
"220073","985-R7","2018/07/17 18:39:13","新北市板橋區南雅南路二段11-14號","121.454976666667","25.0018916666667","6500100","板橋區"
"220070","AAC-253","2018/07/17 18:39:31","新北市板橋區華東街11號","121.450545","24.9976683333333","6500100","板橋區"
"235068","KEA-2873","2018/07/17 18:39:07","新北市中和區中正路209號","121.49705","24.99345","6500300","中和區"
"235061","KEA-2875","2018/07/17 18:39:20","新北市中和區民享街92巷23號","121.473713333333","24.9996516666667","6500300","中和區"
