"lineid","car","time","location","longitude","latitude","cityid","cityname"
"234046","148-BY","2018/07/17 19:49:10","新北市永和區永利路248號","121.524155","25.00285","6500400","永和區"
"234007","207-UY","2018/07/17 19:49:13","新北市中和區中和路273號","121.50565","24.9997483333333","6500400","永和區"
"234081","298-R6","2018/07/17 19:49:14","新北市永和區林森路65號","121.524256666667","25.004155","6500400","永和區"
"234038","336-UY","2018/07/17 19:49:27","新北市永和區民樂街59巷2號","121.527491666667","24.998255","6500400","永和區"
"234064","337-UY","2018/07/17 19:49:26","新北市永和區中正路370號","121.517891666667","25.000895","6500400","永和區"
"234070","552-UM","2018/07/17 19:49:25","新北市永和區竹林路88號","121.519476666667","25.0125616666667","6500400","永和區"
"234086","553-UM","2018/07/17 19:49:21","新北市永和區中正路560號","121.517183333333","25.0059483333333","6500400","永和區"
"234017","745-BX","2018/07/17 19:49:21","新北市永和區永和路二段297號","121.51598","25.0160683333333","6500400","永和區"
"234030","746-BX","2018/07/17 19:49:16","新北市永和區四維街103巷16號","121.523686666667","24.9970833333333","6500400","永和區"
"234054","KEA-2590","2018/07/17 19:49:14","新北市永和區竹林路75巷25弄3號","121.520165","25.0141533333333","6500400","永和區"
"234013","KEA-2591","2018/07/17 19:49:24","新北市永和區仁愛路245號","121.508761666667","25.0119","6500400","永和區"
"234061","AAD-866","2018/07/17 19:49:19","新北市永和區中正路164號","121.514953333333","24.9965733333333","6500400","永和區"
"234067","847-RS","2018/07/17 19:49:28","新北市永和區中山路一段214號","121.50853","25.0084866666667","6500400","永和區"
"234042","862-TW","2018/07/17 19:49:25","新北市永和區中和路305巷18弄1號","121.507626666667","25.0017966666667","6500400","永和區"
"234050","863-TW","2018/07/17 19:49:14","新北市永和區環河西路一段103號","121.511223333333","25.0175333333333","6500400","永和區"
"234026","9371-KE","2018/07/17 19:49:27","新北市永和區雙和街20巷1號","121.509091666667","25.0022","6500400","永和區"
"234011","9373-KE","2018/07/17 19:49:15","新北市永和區仁愛路352巷92弄5號","121.501216666667","25.0081216666667","6500400","永和區"
"249001","173-UM","2018/07/17 19:49:27","新北市八里區中華路二段252號","121.405406666667","25.149715","6502300","八里區"
"249004","303-UY","2018/07/17 19:49:18","新北市八里區仁愛路25號","121.413191666667","25.16077","6502300","八里區"
"249002","305-UY","2018/07/17 19:49:26","新北市八里區頂寮五街26號","121.451198333333","25.12616","6502300","八里區"
"249003","593-UM","2018/07/17 19:49:21","新北市八里區中華路二段560巷17號","121.39846","25.1452166666667","6502300","八里區"
"248014","025-BX","2018/07/17 19:49:16","新北市五股區五福路42巷8號","121.434263333333","25.0895283333333","6501500","五股區"
"248016","026-BX","2018/07/17 19:49:17","新北市五股區成泰路三段601巷17-1號","121.45173","25.1033016666667","6501500","五股區"
"248008","095-VK","2018/07/17 19:49:14","新北市五股區四維路142巷8號","121.468901666667","25.0752366666667","6501500","五股區"
"248020","225-UY","2018/07/17 19:49:20","新北市五股區中直路65-1號","121.417856666667","25.1184716666667","6501500","五股區"
"248012","247-BX","2018/07/17 19:49:30","新北市五股區蓬萊路24號","121.433876666667","25.0799366666667","6501500","五股區"
"248010","272-BY","2018/07/17 19:49:20","新北市五股區登林路貿商巷2弄2號","121.430551666667","25.0696166666667","6501500","五股區"
"248004","677-BX","2018/07/17 19:49:23","新北市五股區成泰路一段153號","121.435313333333","25.0739083333333","6501500","五股區"
"248002","678-BX","2018/07/17 19:44:01","新北市五股區成泰路三段577巷13號","121.4517","25.1027033333333","6501500","五股區"
"234077","969-R7","2018/07/17 19:49:13","新北市永和區民有街21巷9弄4號","121.517306666667","24.997795","6500400","永和區"
"234074","AAC-211","2018/07/17 19:49:19","新北市永和區竹林路179巷6號","121.520965","25.0098633333333","6500400","永和區"
"234003","AAC-295","2018/07/17 19:49:25","新北市永和區福和路315號","121.516043333333","25.0072316666667","6500400","永和區"
"243010","267-VK","2018/07/17 19:49:10","新北市泰山區民生路33號","121.430696666667","25.0522183333333","6501600","泰山區"
"243013","AAD-798","2018/07/17 19:43:39","新北市泰山區應化街7號","121.423846666667","25.0437316666667","6501600","泰山區"
"243009","297-R6","2018/07/17 19:49:24","新北市泰山區美寧街60號","121.430945","25.0646683333333","6501600","泰山區"
"243016","380-SR","2018/07/17 19:49:27","新北市泰山區中山路三段114號","121.417763333333","25.0321183333333","6501600","泰山區"
"243015","421-VK","2018/07/17 19:49:13","新北市泰山區明志路二段214巷9號","121.426731666667","25.0488333333333","6501600","泰山區"
"243011","KEA-2215","2018/07/17 19:49:26","新北市泰山區明志路三段196巷21弄7號","121.422971666667","25.0383516666667","6501600","泰山區"
"243012","646-TV","2018/07/17 19:49:16","新北市泰山區全興路13號","121.432355","25.0589566666667","6501600","泰山區"
"243014","680-BX","2018/07/17 19:49:14","新北市泰山區泰林路二段33-7號","121.435258333333","25.0564366666667","6501600","泰山區"
"222003","436-BY","2018/07/17 19:49:23","新北市深坑區深南路51-1號","121.621201666667","25.009765","6501800","深坑區"
"222002","659-BX","2018/07/17 19:49:21","新北市深坑區北深路一段355號","121.622743333333","25.0050966666667","6501800","深坑區"
"231041","002-UM","2018/07/17 19:49:30","新北市新店區中央路210-1號","121.53003","24.9736283333333","6500600","新店區"
"231059","046-UY","2018/07/17 19:49:15","新北市新店區安和路二段191號","121.518068333333","24.9749233333333","6500600","新店區"
"231040","047-UY","2018/07/17 19:49:24","新北市新店區中正路75巷71號","121.543081666667","24.9688733333333","6500600","新店區"
"231044","106-UY","2018/07/17 19:49:11","新北市新店區中正路602號","121.534115","24.9880683333333","6500600","新店區"
"231046","107-UY","2018/07/17 19:49:27","新北市新店區福園街10巷5號","121.532541666667","24.9728583333333","6500600","新店區"
"231048","187-VK","2018/07/17 19:49:27","新北市新店區中興路二段100巷2號","121.547508333333","24.9712316666667","6500600","新店區"
"231054","KEA-2219","2018/07/17 19:49:22","新北市新店區光明街37號","121.538481666667","24.959795","6500600","新店區"
"231057","256-BX","2018/07/17 19:49:16","新北市新店區梅崗一路10號","121.555965","24.9314233333333","6500600","新店區"
"231042","268-BY","2018/07/17 19:49:15","新北市新店區中興路一段268-3號","121.54535","24.9677683333333","6500600","新店區"
"231051","278-BY","2018/07/17 19:49:12","新北市新店區中央三街54號","121.52735","24.9746583333333","6500600","新店區"
"231050","AAD-862","2018/07/17 19:49:27","新北市新店區北宜路二段326號","121.562065","24.9539216666667","6500600","新店區"
"231043","355-BY","2018/07/17 19:49:26","新北市新店區中正路282號","121.53854","24.9738683333333","6500600","新店區"
"231058","3713-VJ","2018/07/17 19:49:29","新北市新店區光華街38巷7號","121.515675","24.970005","6500600","新店區"
"231066","4716-K9","2018/07/17 19:49:16","新北市新店區安康路二段341巷50號","121.49668","24.95432","6500600","新店區"
"231056","4715-K9","2018/07/17 19:49:26","新北市新店區中正路487號","121.53381","24.982165","6500600","新店區"
"231065","512-UM","2018/07/17 19:49:16","新北市新店區安祥路109巷130號","121.47645","24.9578966666667","6500600","新店區"
"231049","513-UM","2018/07/17 19:49:11","新北市新店區民權路88-5號","121.53624","24.9834783333333","6500600","新店區"
"231063","616-UM","2018/07/17 19:49:13","新北市新店區車子路11號","121.503065","24.9520333333333","6500600","新店區"
"231045","617-UM","2018/07/17 19:49:15","新北市新店區中生路66號","121.564593333333","24.9527066666667","6500600","新店區"
"231061","619-UM","2018/07/17 19:49:23","新北市新店區安民街131號","121.51637","24.9690816666667","6500600","新店區"
"231068","718-UY","2018/07/17 19:49:25","新北市新店區安華路28-1號","121.519323333333","24.9609016666667","6500600","新店區"
"231064","719-UM","2018/07/17 19:49:20","新北市新店區安和路二段1號","121.517763333333","24.9668366666667","6500600","新店區"
"231053","719-UY","2018/07/17 19:49:22","新北市新店區新烏路二段422號","121.551828333333","24.90909","6500600","新店區"
"231062","720-UM","2018/07/17 19:49:30","新北市新店區永業路113號","121.52854","24.9481783333333","6500600","新店區"
"231060","897-TW","2018/07/17 19:49:23","新北市新店區安康路二段193號","121.509265","24.9590716666667","6500600","新店區"
"231055","AKT-0513","2018/07/17 19:49:15","新北市新店區力行路42號","121.53889","24.9651483333333","6500600","新店區"
"241011","013-R5","2018/07/17 19:49:28","新北市三重區三和路二段173巷47號","121.499315","25.0701666666667","6500200","三重區"
"241028","022-UY","2018/07/17 19:49:15","新北市三重區中正南路127號","121.493926666667","25.05718","6500200","三重區"
"241008","059-VK","2018/07/17 19:49:14","新北市三重區永福街127號","121.478928333333","25.0768766666667","6500200","三重區"
"241031","061-VK","2018/07/17 19:49:26","新北市三重區重新路四段250-1號","121.486003333333","25.0533916666667","6500200","三重區"
"241015","062-VK","2018/07/17 19:49:14","新北市三重區重新路一段1號","121.5038","25.0642633333333","6500200","三重區"
"241017","063-VK","2018/07/17 19:49:28","新北市三重區重陽路三段5巷8弄29號","121.489595","25.0666633333333","6500200","三重區"
"241026","066-VK","2018/07/17 19:49:25","新北市三重區中央南路57號","121.501341666667","25.061575","6500200","三重區"
"241003","091-VK","2018/07/17 19:49:16","新北市三重區仁愛街445巷63號","121.491525","25.0833166666667","6500200","三重區"
"241016","266-UM","2018/07/17 19:49:16","新北市三重區正德街43號","121.4959","25.0627483333333","6500200","三重區"
"241009","267-UM","2018/07/17 19:49:31","新北市三重區三和路四段396巷18號","121.48051","25.0789066666667","6500200","三重區"
"241018","268-UM","2018/07/17 19:49:24","新北市三重區雙園街57巷32號","121.494336666667","25.0683566666667","6500200","三重區"
"241032","269-UM","2018/07/17 19:49:21","新北市三重區重陽路一段44巷9號","121.48596","25.0578133333333","6500200","三重區"
"241013","270-UM","2018/07/17 19:49:27","新北市三重區三和路三段99號","121.494328333333","25.0723233333333","6500200","三重區"
"241025","271-UM","2018/07/17 19:49:12","新北市三重區忠孝路三段52號","121.480713333333","25.06564","6500200","三重區"
"241007","398-BY","2018/07/17 19:49:15","新北市三重區慈愛街8號","121.484486666667","25.0783933333333","6500200","三重區"
"241035","462-BY","2018/07/17 19:49:11","新北市三重區大榮街46號","121.498886666667","25.0634966666667","6500200","三重區"
"241004","475-VK","2018/07/17 19:49:13","新北市三重區五華街74號","121.493388333333","25.082015","6500200","三重區"
"241030","480-VK","2018/07/17 19:49:23","新北市三重區環河南路254巷62號","121.489181666667","25.0515083333333","6500200","三重區"
"241014","543-UM","2018/07/17 19:49:16","新北市三重區長安街75號","121.501591666667","25.0673316666667","6500200","三重區"
"241023","545-UM","2018/07/17 19:49:20","新北市三重區忠孝路三段99巷4號","121.48016","25.0642883333333","6500200","三重區"
"241001","547-UM","2018/07/17 19:49:18","新北市三重區仁愛街327巷19號","121.49286","25.0798633333333","6500200","三重區"
"241019","KEA-2593","2018/07/17 19:49:16","新北市三重區自強路二段76號","121.488121666667","25.0701033333333","6500200","三重區"
"241006","AAD-863","2018/07/17 19:49:13","新北市三重區力行路二段82號","121.481603333333","25.07384","6500200","三重區"
"241022","887-TS","2018/07/17 19:49:18","新北市三重區中正北路38號","121.487921666667","25.063675","6500200","三重區"
"241012","941-UM","2018/07/17 19:49:22","新北市三重區仁福街64巷21號","121.497676666667","25.0753316666667","6500200","三重區"
"241029","942-UM","2018/07/17 19:49:24","新北市三重區光明路31-1號","121.491301666667","25.0583933333333","6500200","三重區"
"241033","AAC-255","2018/07/17 19:49:20","新北市三重區中興南街66號","121.470691666667","25.0439933333333","6500200","三重區"
"235066","003-UY","2018/07/17 19:49:17","新北市中和區南工路20號","121.505438333333","25.0004833333333","6500300","中和區"
"235056","096-UM","2018/07/17 19:49:28","新北市中和區中山路三段114巷46號","121.475773333333","25.0071583333333","6500300","中和區"
"235039","097-UM","2018/07/17 19:49:15","新北市中和區大勇街25巷38弄9號","121.516018333333","24.9939216666667","6500300","中和區"
"235065","098-UM","2018/07/17 19:49:31","新北市中和區莊敬路15號","121.499911666667","25.004545","6500300","中和區"
"235040","150-BY","2018/07/17 19:49:20","新北市中和區安和路43號","121.509618333333","24.99465","6500300","中和區"
"235058","151-BY","2018/07/17 19:49:28","新北市中和區員山路142巷21號","121.482331666667","24.9965816666667","6500300","中和區"
"235055","183-VK","2018/07/17 19:49:11","新北市中和區德光路26號","121.470821666667","25.00437","6500300","中和區"
"235038","185-VK","2018/07/17 19:49:26","新北市中和區自立路10號","121.522471666667","24.9964066666667","6500300","中和區"
"235049","186-VK","2018/07/17 19:49:29","新北市中和區中正路76號","121.500798333333","24.9937166666667","6500300","中和區"
"235067","255-BX","2018/07/17 19:49:21","新北市中和區中正路751巷3弄1號","121.484425","24.9996533333333","6500300","中和區"
"235044","293-VK","2018/07/17 19:49:19","新北市中和區南山路243號","121.503655","24.9929983333333","6500300","中和區"
"235043","352-BY","2018/07/17 19:49:13","新北市中和區華新街230號","121.506115","24.98169","6500300","中和區"
"235042","KEA-2878","2018/07/17 19:49:17","新北市中和區保健路7巷5號","121.508025","24.998735","6500300","中和區"
"235050","4979-A6","2018/07/17 19:49:13","新北市中和區景平路241巷84弄54號","121.506088333333","24.9923266666667","6500300","中和區"
"235069","4980-A6","2018/07/17 19:49:21","新北市中和區中正路637巷52弄1號","121.485436666667","24.99344","6500300","中和區"
"235070","558-UM","2018/07/17 19:49:26","新北市中和區景平路481號","121.500325","24.9974833333333","6500300","中和區"
"235045","565-BX","2018/07/17 19:49:24","新北市中和區景平路318號","121.512305","24.9928816666667","6500300","中和區"
"235054","640-BX","2018/07/17 19:49:22","新北市中和區莒光路147號","121.472701666667","25.0012583333333","6500300","中和區"
"235060","647-TV","2018/07/17 19:49:11","新北市中和區新生街16巷7號","121.482845","25.0043066666667","6500300","中和區"
"235046","733-UM","2018/07/17 19:49:23","新北市中和區四維街37巷1號","121.512496666667","24.986925","6500300","中和區"
"235071","783-BX","2018/07/17 19:49:19","新北市中和區中板路5巷2弄1號","121.485138333333","25.01076","6500300","中和區"
"235041","802-TS","2018/07/17 19:49:11","新北市中和區永貞路241號","121.513096666667","25.0038266666667","6500300","中和區"
"235052","805-TS","2018/07/17 19:49:23","新北市中和區華新街30巷4號","121.507308333333","24.9843933333333","6500300","中和區"
"235048","896-TW","2018/07/17 19:49:28","新北市中和區興南路二段16號","121.507648333333","24.98595","6500300","中和區"
"235053","900-TW","2018/07/17 19:49:30","新北市中和區國光街189巷18號","121.46771","25.0009933333333","6500300","中和區"
"235051","157-BY","2018/07/17 19:49:26","新北市中和區中興街127號","121.49997","24.9916633333333","6500300","中和區"
"235037","AAC-213","2018/07/17 19:49:27","新北市中和區秀朗路三段173-2號","121.524526666667","24.9913883333333","6500300","中和區"
"235059","AAC-215","2018/07/17 19:49:20","新北市中和區圓通路335巷71號","121.494316666667","24.9893033333333","6500300","中和區"
"220068","013-TV","2018/07/17 19:49:20","新北市板橋區中山路二段416巷36-1號","121.483153333333","25.0198016666667","6500100","板橋區"
"220065","072-UY","2018/07/17 19:49:20","新北市板橋區民族路237號","121.469916666667","25.007115","6500100","板橋區"
"220086","073-UY","2018/07/17 19:49:25","新北市板橋區南雅西路二段7巷27號","121.451953333333","25.00946","6500100","板橋區"
"220106","075-UY","2018/07/17 19:49:18","新北市板橋區文化路608巷50-1號","121.479463333333","25.0345016666667","6500100","板橋區"
"220069","AAD-861","2018/07/17 19:49:13","新北市板橋區南雅南路二段3號","121.454483333333","25.0029983333333","6500100","板橋區"
"247014","546-UM","2018/07/17 19:49:19","新北市蘆洲區復興路30號","121.472256666667","25.0851166666667","6501400","蘆洲區"
"247004","337-TH","2018/07/17 19:49:22","新北市蘆洲區長安街223號","121.459588333333","25.0824816666667","6501400","蘆洲區"
"247006","336-TH","2018/07/17 19:49:29","新北市蘆洲區永安南路二段34號","121.467068333333","25.0772433333333","6501400","蘆洲區"
"247008","056-VK","2018/07/17 19:49:27","新北市蘆洲區中山一路1號","121.478765","25.0800333333333","6501400","蘆洲區"
"247002","002-UY","2018/07/17 19:49:13","新北市蘆洲區永樂街38巷57弄2號","121.458508333333","25.0902366666667","6501400","蘆洲區"
"226004","205-ST","2018/07/17 19:49:13","新北市平溪區靜安路三段10號","121.751645","25.0265566666667","6502400","平溪區"
"235047","251-BX","2018/07/17 19:49:18","新北市中和區捷運路1號","121.509748333333","24.9893666666667","6500300","中和區"
"228001","212-TW","2018/07/17 19:49:23","新北市貢寮區真理里新港街95號","121.92674","25.056715","6502600","貢寮區"
"228003","828-UM","2018/07/17 19:49:21","新北市貢寮區真理里美艷山街9號","121.927145","25.0597633333333","6502600","貢寮區"
"224010","AGQ-8101","2018/07/17 19:48:50","新北市瑞芳區基山街4-5號","121.845176666667","25.1094733333333","6501200","瑞芳區"
"224002","639-TC","2018/07/17 19:49:26","新北市瑞芳區三爪子坑路333號","121.818643333333","25.1044483333333","6501200","瑞芳區"
"227009","642-TC","2018/07/17 19:49:30","新北市雙溪區新基里中華路97號","121.865858333333","25.03871","6502500","雙溪區"
"227003","030-BX","2018/07/17 19:49:16","新北市雙溪區雙溪里內挖路43號","121.863418333333","25.036565","6502500","雙溪區"
"222001","KEA-2212","2018/07/17 19:49:20","新北市深坑區北深路三段110號","121.606826666667","25.0017","6501800","深坑區"
"208002","KEA-2872","2018/07/17 19:49:23","新北市金山區三民街34號","121.634913333333","25.2235966666667","6502700","金山區"
"208003","665-BX","2018/07/17 19:49:31","新北市金山區海興路190號","121.633318333333","25.2407466666667","6502700","金山區"
"208001","761-BX","2018/07/17 19:49:31","新北市金山區重和里六股林口15號","121.604665","25.2214866666667","6502700","金山區"
"251001","011-UM","2018/07/17 19:49:23","新北市淡水區中正東路二段37號","121.459238333333","25.1562","6501000","淡水區"
"251013","KEA-2871","2018/07/17 19:49:13","新北市淡水區頂田寮1-3號","121.457668333333","25.21461","6501000","淡水區"
"251016","179-VK","2018/07/17 19:49:23","新北市淡水區三塊厝3-3號","121.456293333333","25.2094266666667","6501000","淡水區"
"251014","180-VK","2018/07/17 19:49:14","新北市淡水區番社前4號","121.474441666667","25.236285","6501000","淡水區"
"251015","181-VK","2018/07/17 19:49:11","新北市淡水區北新路三段112-1號","121.485876666667","25.18804","6501000","淡水區"
"251010","413-VK","2018/07/17 19:49:12","新北市淡水區崁頂131號","121.431586666667","25.20538","6501000","淡水區"
"251012","441-VK","2018/07/17 19:49:20","新北市淡水區淡金路三段70巷1號","121.448295","25.200385","6501000","淡水區"
"251008","442-VK","2018/07/17 19:49:10","新北市淡水區中正路二段24巷2-1號","121.426753333333","25.176995","6501000","淡水區"
"251005","443-VK","2018/07/17 19:49:12","新北市淡水區中正東路43號","121.4463","25.167675","6501000","淡水區"
"251006","561-UM","2018/07/17 19:49:25","新北市淡水區水碓街15號","121.44347","25.1769633333333","6501000","淡水區"
"251009","575-R6","2018/07/17 19:49:20","新北市淡水區中正路36號","121.443776666667","25.1692416666667","6501000","淡水區"
"251007","577-R6","2018/07/17 19:49:14","新北市淡水區竿蓁二街103巷3號","121.456183333333","25.165225","6501000","淡水區"
"251011","650-BX","2018/07/17 19:49:16","新北市淡水區淡金路二段599號","121.446838333333","25.191895","6501000","淡水區"
"207003","550-UM","2018/07/17 19:49:27","新北市萬里區大鵬里萬里加投45-2號","121.641365","25.2099616666667","6502800","萬里區"
"207004","291-VK","2018/07/17 19:49:21","新北市萬里區萬里里瑪鋉路170號","121.689863333333","25.179815","6502800","萬里區"
"252002","178-VK","2018/07/17 19:49:26","新北市三芝區三民街31號","121.504566666667","25.2585783333333","6502100","三芝區"
"252001","292-VK","2018/07/17 19:49:28","新北市三芝區公正街9號","121.499763333333","25.2575533333333","6502100","三芝區"
"237004","KEA-2597","2018/07/17 19:49:27","新北市三峽區圳頭40號","121.377175","24.8864383333333","6500900","三峽區"
"237009","210-TH","2018/07/17 19:49:30","新北市三峽區民族街78巷2弄9號","121.368425","24.9299233333333","6500900","三峽區"
"237013","252-BX","2018/07/17 19:49:30","新北市三峽區介壽路二段140號","121.394113333333","24.9359066666667","6500900","三峽區"
"237012","275-BY","2018/07/17 19:49:13","新北市三峽區中華路3巷6-1號","121.374983333333","24.931235","6500900","三峽區"
"237008","302-VK","2018/07/17 19:49:30","新北市三峽區大同路149號","121.371165","24.9269566666667","6500900","三峽區"
"237014","433-BY","2018/07/17 19:49:11","新北市三峽區添福15-5號","121.372083333333","24.9058333333333","6500900","三峽區"
"237006","5529-G3","2018/07/17 19:49:19","新北市三峽區中正路一段336巷15弄2號","121.369958333333","24.924945","6500900","三峽區"
"237016","649-BX","2018/07/17 19:49:17","新北市三峽區成福路3號","121.41634","24.9279766666667","6500900","三峽區"
"237005","AKY-6261","2018/07/17 19:49:30","新北市三峽區長泰街44號","121.378143333333","24.932365","6500900","三峽區"
"236070","105-UM","2018/07/17 19:49:25","新北市土城區水源街30號","121.440888333333","24.97556","6501300","土城區"
"236079","166-UM","2018/07/17 19:49:24","新北市土城區中央路四段464號","121.409708333333","24.9503466666667","6501300","土城區"
"236030","253-BX","2018/07/17 19:49:14","新北市土城區中央路一段294號","121.443346666667","24.9823716666667","6501300","土城區"
"236026","269-VK","2018/07/17 19:49:21","新北市土城區中央路二段61巷30號","121.443441666667","24.9785166666667","6501300","土城區"
"236038","271-VK","2018/07/17 19:49:14","新北市土城區國際路158巷40號","121.468213333333","24.9754066666667","6501300","土城區"
"236021","401-BY","2018/07/17 19:49:22","新北市土城區峰廷街31號","121.469503333333","24.9865433333333","6501300","土城區"
"236042","752-BX","2018/07/17 19:49:14","新北市土城區裕民路259巷12號","121.454985","24.9833633333333","6501300","土城區"
"236059","912-UM","2018/07/17 19:49:25","新北市土城區中央路一段222號","121.444905","24.98528","6501300","土城區"
"236049","913-UM","2018/07/17 19:49:11","新北市土城區青雲路305號","121.459043333333","24.9793333333333","6501300","土城區"
"236063","915-UM","2018/07/17 19:49:18","新北市土城區延和路148號","121.467775","24.99019","6501300","土城區"
"236055","AAC-216","2018/07/17 19:49:27","新北市土城區延和路104號","121.466943333333","24.9896683333333","6501300","土城區"
"242034","AAC-296","2018/07/17 19:49:18","新北市新莊區仁愛街54巷1號","121.444833333333","25.037205","6500500","新莊區"
"242058","986-R7","2018/07/17 19:49:22","新北市新莊區中正路473-1號","121.441978333333","25.03305","6500500","新莊區"
"242029","612-BX","2018/07/17 19:49:18","新北市新莊區中平路267號","121.444783333333","25.0497183333333","6500500","新莊區"
"242046","497-BY","2018/07/17 19:49:28","新北市新莊區民安路29號","121.423375","25.02764","6500500","新莊區"
"242019","442-UM","2018/07/17 19:49:21","新北市新莊區中華路一段112號","121.452521666667","25.04048","6500500","新莊區"
"242056","440-UM","2018/07/17 19:49:14","新北市新莊區新莊路457號","121.449561666667","25.0334233333333","6500500","新莊區"
"242037","415-TV","2018/07/17 19:49:17","新北市新莊區建安街103號","121.426701666667","25.024195","6500500","新莊區"
"242007","413-TV","2018/07/17 19:49:14","新北市新莊區新北大道三段7號","121.458143333333","25.0600216666667","6500500","新莊區"
"242023","362-BY","2018/07/17 19:49:12","新北市新莊區化成路69號","121.465528333333","25.0459216666667","6500500","新莊區"
"242061","353-BY","2018/07/17 19:49:23","新北市新莊區瓊林路118號","121.442456666667","25.0255866666667","6500500","新莊區"
"242039","133-UY","2018/07/17 19:49:21","新北市新莊區民安路299巷55弄1號","121.429411666667","25.023845","6500500","新莊區"
"242032","135-UY","2018/07/17 19:49:23","新北市新莊區忠孝街33號","121.44391","25.03567","6500500","新莊區"
"242048","172-VK","2018/07/17 19:49:25","新北市新莊區建安街76巷1弄15號","121.425951666667","25.0242516666667","6500500","新莊區"
"242017","175-VK","2018/07/17 19:49:27","新北市新莊區中安街1號","121.452821666667","25.045305","6500500","新莊區"
"242005","176-VK","2018/07/17 19:49:15","新北市新莊區化成路63巷26弄1號","121.46296","25.045965","6500500","新莊區"
"242021","348-TH","2018/07/17 19:49:30","新北市新莊區中興街59號","121.449078333333","25.037425","6500500","新莊區"
"242013","351-TH","2018/07/17 19:49:30","新北市新莊區中泰街38巷2號","121.450871666667","25.0471083333333","6500500","新莊區"
"238015","755-BX","2018/07/17 19:49:26","新北市樹林區中山路二段168號","121.412215","24.9826883333333","6500700","樹林區"
"238023","601-UM","2018/07/17 19:49:21","新北市樹林區中正路286-2號","121.415526666667","25.00894","6500700","樹林區"
"238024","5061-A6","2018/07/17 19:49:22","新北市樹林區育德街78-1號","121.38767","24.96825","6500700","樹林區"
"238021","KEA-2539","2018/07/17 19:49:15","新北市樹林區佳園路三段181巷105號","121.392181666667","24.94847","6500700","樹林區"
"239006","891-R6","2018/07/17 19:49:19","新北市鶯歌區中正一路113-1號","121.370333333333","24.9582383333333","6500800","鶯歌區"
"239002","359-BY","2018/07/17 19:49:14","新北市鶯歌區環河路167號","121.346178333333","24.9360733333333","6500800","鶯歌區"
"221008","489-VK","2018/07/17 19:49:28","新北市汐止區康寧街83巷46號","121.620983333333","25.067325","6501100","汐止區"
"221036","130-UY","2018/07/17 19:49:13","新北市汐止區汐萬路一段191號","121.652445","25.0716683333333","6501100","汐止區"
"221015","131-UY","2018/07/17 19:49:13","新北市汐止區茄苳路35號","121.665505","25.0708983333333","6501100","汐止區"
"221010","269-BY","2018/07/17 19:49:28","新北市汐止區八連路一段46巷55號","121.646401666667","25.0821833333333","6501100","汐止區"
"221012","278-VK","2018/07/17 19:49:29","新北市汐止區保長路271巷2號","121.680928333333","25.07432","6501100","汐止區"
"221023","279-VK","2018/07/17 19:49:29","新北市汐止區明峰街153號","121.629205","25.070355","6501100","汐止區"
"221032","280-BY","2018/07/17 19:49:30","新北市汐止區橫科路385巷11號","121.624696666667","25.0476683333333","6501100","汐止區"
"221027","281-BY","2018/07/17 19:49:29","新北市汐止區大同路二段579號","121.663498333333","25.0701333333333","6501100","汐止區"
"221033","297-VK","2018/07/17 19:49:17","新北市汐止區東勢街76巷100-1號","121.636433333333","25.0389566666667","6501100","汐止區"
"221029","298-VK","2018/07/17 19:49:24","新北市汐止區康寧街901號","121.651385","25.074965","6501100","汐止區"
"221021","299-VK","2018/07/17 19:49:17","新北市汐止區新興路78號","121.657683333333","25.0618733333333","6501100","汐止區"
"221031","353-TW","2018/07/17 19:49:13","新北市汐止區福德三路127號","121.6337","25.0675616666667","6501100","汐止區"
"221035","622-UM","2018/07/17 19:49:24","新北市汐止區長江街13巷6弄1號","121.65473","25.0716733333333","6501100","汐止區"
"221025","623-UM","2018/07/17 19:49:10","新北市汐止區秀峰路81巷26號","121.661073333333","25.0644783333333","6501100","汐止區"
"221038","646-BX","2018/07/17 19:49:30","新北市汐止區忠孝東路388號","121.665601666667","25.07033","6501100","汐止區"
"221002","707-TV","2018/07/17 19:49:16","新北市汐止區大同路一段219巷27號","121.633258333333","25.0583816666667","6501100","汐止區"
"221018","753-BX","2018/07/17 19:49:26","新北市汐止區大同路二段527號","121.66174","25.069","6501100","汐止區"
"220080","200-UY","2018/07/17 19:49:26","新北市板橋區大觀路二段109巷1號","121.447375","25.001435","6500100","板橋區"
"220082","610-BX","2018/07/17 19:49:10","新北市板橋區篤行路二段131巷23號","121.431778333333","24.9903016666667","6500100","板橋區"
"220101","245-BX","2018/07/17 19:49:21","新北市板橋區縣民大道三段93巷34號","121.474738333333","25.0224883333333","6500100","板橋區"
"220091","267-BY","2018/07/17 19:49:23","新北市板橋區民治街81巷7號","121.47991","25.0323083333333","6500100","板橋區"
"220056","276-BY","2018/07/17 19:49:30","新北市板橋區四川路二段99巷3號","121.452738333333","24.9944816666667","6500100","板橋區"
"220072","277-BY","2018/07/17 19:49:05","新北市板橋區金門街215巷41號","121.433411666667","24.989615","6500100","板橋區"
"220071","283-VK","2018/07/17 19:49:27","新北市板橋區五權街30巷3號","121.464585","24.9933683333333","6500100","板橋區"
"220094","285-UM","2018/07/17 19:49:19","新北市板橋區長江路一段104號","121.45955","25.0295816666667","6500100","板橋區"
"220053","285-VK","2018/07/17 19:49:28","新北市板橋區中山路二段60巷1弄21號","121.474975","25.0157916666667","6500100","板橋區"
"220083","286-VK","2018/07/17 19:49:18","新北市板橋區僑中二街8巷6號","121.446943333333","25.0113216666667","6500100","板橋區"
"220081","287-VK","2018/07/17 19:49:28","新北市板橋區大觀路一段29巷131弄33-16號","121.450393333333","25.0041716666667","6500100","板橋區"
"220090","288-VK","2018/07/17 19:49:17","新北市板橋區龍泉街54巷8弄10號","121.457365","25.026885","6500100","板橋區"
"220061","293-UM","2018/07/17 19:49:25","新北市板橋區中山路一段283巷2弄19號","121.470561666667","25.0151416666667","6500100","板橋區"
"220062","295-UM","2018/07/17 19:49:18","新北市板橋區中山路二段416巷38弄27號","121.481821666667","25.019465","6500100","板橋區"
"220084","296-UM","2018/07/17 19:49:27","新北市板橋區溪崑二街92巷18號","121.426185","24.98971","6500100","板橋區"
"220075","303-R5","2018/07/17 19:49:29","新北市板橋區金華街10巷48弄24-3號","121.457828333333","25.0199433333333","6500100","板橋區"
"220092","307-R5","2018/07/17 19:49:19","新北市板橋區陽明街164巷10弄18號","121.464193333333","25.0240583333333","6500100","板橋區"
"220098","317-R6","2018/07/17 19:49:12","新北市板橋區裕民街151號","121.458501666667","25.027005","6500100","板橋區"
"220064","486-VK","2018/07/17 19:49:13","新北市板橋區中山路一段85號","121.461456666667","25.0100483333333","6500100","板橋區"
"220088","491-VK","2018/07/17 19:49:31","新北市板橋區仁化街124號","121.477155","25.0326533333333","6500100","板橋區"
"220035","560-BX","2018/07/17 19:49:15","新北市板橋區金華街69號","121.457536666667","25.0206966666667","6500100","板橋區"
"220103","561-BX","2018/07/17 19:49:15","新北市板橋區陽明街29-1號","121.465418333333","25.0219883333333","6500100","板橋區"
"220079","568-UM","2018/07/17 19:49:14","新北市板橋區中正路183巷44號","121.455011666667","25.0160333333333","6500100","板橋區"
"220063","609-BX","2018/07/17 19:49:16","新北市板橋區中山路二段385號","121.480155","25.019275","6500100","板橋區"
"220057","686-BX","2018/07/17 19:49:20","新北市板橋區廣權路28號","121.461768333333","24.9914616666667","6500100","板橋區"
"220077","687-BX","2018/07/17 19:49:28","新北市板橋區僑中一街102巷1弄16號","121.44595","25.0121466666667","6500100","板橋區"
"220093","689-BX","2018/07/17 19:49:11","新北市板橋區長江路二段295號","121.470526666667","25.0332166666667","6500100","板橋區"
"220054","741-BX","2018/07/17 19:49:15","新北市板橋區實踐路93巷62號","121.466348333333","25.0049583333333","6500100","板橋區"
"220102","KEA-2699","2018/07/17 19:49:13","新北市板橋區松柏街50巷2號","121.475785","25.0300916666667","6500100","板橋區"
"220055","827-TW","2018/07/17 19:49:11","新北市板橋區國慶路211號","121.463375","24.9973716666667","6500100","板橋區"
"220067","829-TW","2018/07/17 19:49:29","新北市板橋區長安街210號","121.474535","25.0120416666667","6500100","板橋區"
"220096","830-TW","2018/07/17 19:49:20","新北市板橋區民生路二段236號","121.468406666667","25.0229566666667","6500100","板橋區"
"220089","833-TW","2018/07/17 19:49:22","新北市板橋區龍泉街82巷13號","121.45575","25.025545","6500100","板橋區"
"220074","895-R6","2018/07/17 19:49:30","新北市板橋區文化路一段34號","121.45934","25.0116733333333","6500100","板橋區"
"220073","985-R7","2018/07/17 19:49:14","新北市板橋區南雅西路二段283號","121.451943333333","25.0153166666667","6500100","板橋區"
"220097","AAC-210","2018/07/17 19:49:29","新北市板橋區文化路一段285巷1弄1號","121.464505","25.0187883333333","6500100","板橋區"
"220070","AAC-253","2018/07/17 19:49:31","新北市板橋區成都街89號","121.46298","25.0051683333333","6500100","板橋區"
"235068","KEA-2873","2018/07/17 19:49:06","新北市中和區莊敬路16巷6號","121.5","25.004055","6500300","中和區"
"235061","KEA-2875","2018/07/17 19:49:19","新北市中和區員山路174巷6號","121.481911666667","24.999875","6500300","中和區"
