"lineid","car","time","location","longitude","latitude","cityid","cityname"
"241006","AAD-863","2018/07/17 22:09:32","新北市五股區中興路三段2巷10號","121.449123333333","25.080905","6500200","三重區"
"235066","003-UY","2018/07/17 21:47:12","新北市中和區員山路36巷16-3號","121.484968333333","24.991525","6500300","中和區"
"247010","KEA-2869","2018/07/17 22:09:29","新北市八里區荖阡坑路20-9號","121.398425","25.1367683333333","6501400","蘆洲區"
"235010","733-UM","2018/07/17 21:48:46","新北市中和區員山路36巷13號","121.484166666667","24.9907683333333","6500300","中和區"
"251010","413-VK","2018/07/17 22:09:32","新北市淡水區沙崙路200號","121.424733333333","25.1838933333333","6501000","淡水區"
"251008","442-VK","2018/07/17 22:09:29","新北市淡水區學府路104號","121.449865","25.1718433333333","6501000","淡水區"
"251007","577-R6","2018/07/17 22:09:26","新北市淡水區北新路133號","121.44931","25.1788566666667","6501000","淡水區"
"251011","650-BX","2018/07/17 22:09:16","新北市淡水區水碓街7號","121.44319","25.177155","6501000","淡水區"
