"lineid","car","time","location","longitude","latitude","cityid","cityname"
"241006","AAD-863","2018/07/17 22:19:32","新北市五股區中興路二段8號","121.46296","25.0743916666667","6500200","三重區"
"247010","KEA-2869","2018/07/17 22:19:29","新北市五股區中興路二段182巷3號","121.456626666667","25.0780333333333","6501400","蘆洲區"
"247005","336-TH","2018/07/17 22:19:29","新北市五股區中興路三段163號","121.449111666667","25.0808233333333","6501400","蘆洲區"
"251010","413-VK","2018/07/17 22:19:32","新北市淡水區沙崙路200號","121.424755","25.1838633333333","6501000","淡水區"
"251008","442-VK","2018/07/17 22:19:29","新北市淡水區學府路104號","121.449858333333","25.1718233333333","6501000","淡水區"
"251007","577-R6","2018/07/17 22:19:26","新北市淡水區北新路135號","121.449318333333","25.1788833333333","6501000","淡水區"
"251011","650-BX","2018/07/17 22:19:16","新北市淡水區水碓街15-1號","121.443221666667","25.1772616666667","6501000","淡水區"
