"lineid","car","time","location","longitude","latitude","cityid","cityname"
"241006","AAD-863","2018/07/17 22:29:32","新北市三重區重新路四段121號","121.484691666667","25.0520433333333","6500200","三重區"
"247005","336-TH","2018/07/17 22:21:41","新北市五股區中興路三段2巷10號","121.44911","25.08083","6501400","蘆洲區"
"251010","413-VK","2018/07/17 22:29:32","新北市淡水區沙崙路200號","121.42476","25.1838783333333","6501000","淡水區"
"251008","442-VK","2018/07/17 22:29:29","新北市淡水區學府路104號","121.449836666667","25.1718283333333","6501000","淡水區"
"251007","577-R6","2018/07/17 22:29:26","新北市淡水區北新路137號","121.44937","25.1789766666667","6501000","淡水區"
"251011","650-BX","2018/07/17 22:29:16","新北市淡水區中山北路一段151號","121.443198333333","25.1773216666667","6501000","淡水區"
