"lineid","car","time","location","longitude","latitude","cityid","cityname"
"222004","289-BY","2018/11/24 09:17:29","新北市深坑區王軍寮1-10號","121.618693333333","24.9893466666667","6501800","深坑區"
"231007","189-VK","2018/11/24 09:17:24","新北市新店區新潭路三段215巷25號","121.5081","24.90408","6500600","新店區"
"231008","192-VK","2018/11/24 09:17:27","新北市新店區平廣路一段93號","121.529768333333","24.8981716666667","6500600","新店區"
"241018","268-UM","2018/11/24 09:03:53","新北市三重區重新路四段121號","121.484713333333","25.0522216666667","6500200","三重區"
"235001","611-BX","2018/11/24 09:17:44","新北市中和區中山路三段118號","121.475606666667","25.00606","6500300","中和區"
"226003","AGD-0702","2018/11/24 09:15:14","新北市平溪區望古里望古坑21-5號","121.760303333333","25.03365","6502400","平溪區"
"223006","022-BY","2018/11/24 09:17:34","新北市石碇區八分寮47-1號","121.64257","25.0139033333333","6501900","石碇區"
"223008","406-TH","2018/11/24 09:17:39","新北市石碇區石崁1號","121.65162","25.0019583333333","6501900","石碇區"
"227006","282-VK","2018/11/24 09:17:25","新北市雙溪區長源里赤皮崙3-1號","121.7954","25.0190633333333","6502500","雙溪區"
"252004","249-BX","2018/11/24 09:17:37","新北市三芝區興華里田心子7-3號","121.498698333333","25.2037866666667","6502100","三芝區"
"252007","AAC-283","2018/11/24 09:17:31","新北市三芝區埔頭里埔頭17-2號","121.494233333333","25.260145","6502100","三芝區"
