"lineid","car","time","location","longitude","latitude","cityid","cityname"
"231007","189-VK","2018/11/24 09:57:44","新北市新店區新潭路三段215巷25號","121.50813","24.90409","6500600","新店區"
"231008","192-VK","2018/11/24 09:56:07","新北市新店區小坑一路35巷1號","121.52998","24.9103266666667","6500600","新店區"
"241018","268-UM","2018/11/24 09:49:05","新北市三重區重新路四段121號","121.484183333333","25.0522483333333","6500200","三重區"
"223006","022-BY","2018/11/24 09:57:42","新北市深坑區文山路一段79號","121.626513333333","25.0017183333333","6501900","石碇區"
"227006","282-VK","2018/11/24 09:57:45","新北市雙溪區長源里柑腳18號","121.804641666667","25.01431","6502500","雙溪區"
"252004","249-BX","2018/11/24 09:57:37","新北市三芝區福德里土地公埔47號","121.515378333333","25.2263366666667","6502100","三芝區"
"252007","AAC-283","2018/11/24 09:57:31","新北市三芝區新庄里新庄子51-25號","121.507485","25.2781183333333","6502100","三芝區"
