"lineid","car","time","location","longitude","latitude","cityid","cityname"
"231007","189-VK","2018/11/24 10:07:24","新北市新店區新潭路三段215巷25號","121.508136666667","24.904085","6500600","新店區"
"231008","192-VK","2018/11/24 10:02:07","新北市新店區小坑一路35巷2號","121.52814","24.9082233333333","6500600","新店區"
"241018","268-UM","2018/11/24 10:07:28","新北市三重區重新路四段121號","121.48488","25.0519733333333","6500200","三重區"
"223006","022-BY","2018/11/24 10:07:42","新北市石碇區碇坪路一段46號","121.655321666667","24.9928466666667","6501900","石碇區"
"227006","282-VK","2018/11/24 10:07:45","新北市雙溪區長源里柑腳21號","121.804591666667","25.0143183333333","6502500","雙溪區"
"252004","249-BX","2018/11/24 10:07:37","新北市三芝區福德里埔尾13-1號","121.50434","25.24454","6502100","三芝區"
"252007","AAC-283","2018/11/24 10:07:31","新北市三芝區古庄里古庄99-7號","121.493765","25.27096","6502100","三芝區"
