"lineid","car","time","location","longitude","latitude","cityid","cityname"
"231007","189-VK","2018/11/24 10:17:44","新北市新店區新潭路三段215巷25號","121.508135","24.9040716666667","6500600","新店區"
"231008","192-VK","2018/11/24 10:17:27","新北市新店區松林路83號","121.547285","24.9074066666667","6500600","新店區"
"223006","022-BY","2018/11/24 10:17:42","新北市石碇區小粗坑(潭邊里)3-6號","121.67402","24.9832633333333","6501900","石碇區"
"227006","282-VK","2018/11/24 10:17:45","新北市雙溪區外柑里外柑腳58號","121.807925","25.0177833333333","6502500","雙溪區"
"252007","AAC-283","2018/11/24 10:17:31","新北市三芝區新庄里番社后18號","121.496365","25.2746183333333","6502100","三芝區"
