"lineid","car","time","location","longitude","latitude","cityid","cityname"
"234044","148-BY","2018/11/24 13:07:34","新北市永和區永元路18巷23號","121.523488333333","25.0001933333333","6500400","永和區"
"234005","207-UY","2018/11/24 13:07:45","新北市永和區中山路一段147號","121.51017","25.0096316666667","6500400","永和區"
"234078","298-R6","2018/11/24 13:07:34","新北市永和區永貞路39巷13號","121.522351666667","25.0062966666667","6500400","永和區"
"234036","336-UY","2018/11/24 13:07:39","新北市永和區民樂街69巷2號","121.527406666667","24.9976333333333","6500400","永和區"
"234062","337-UY","2018/11/24 13:07:46","新北市永和區秀朗路二段15號","121.521016666667","25.0027233333333","6500400","永和區"
"234068","552-UM","2018/11/24 13:07:41","新北市永和區豫溪街95巷9號","121.518151666667","25.0107033333333","6500400","永和區"
"234015","745-BX","2018/11/24 13:07:45","新北市永和區文化路90巷3弄1號","121.513745","25.0154716666667","6500400","永和區"
"234028","746-BX","2018/11/24 13:07:48","新北市永和區民生路29號","121.522941666667","24.99842","6500400","永和區"
"234052","KEA-2590","2018/11/24 13:07:29","新北市永和區中興街133巷16號","121.518301666667","25.0125966666667","6500400","永和區"
"234012","KEA-2591","2018/11/24 13:07:32","新北市永和區保福路二段50號","121.510966666667","25.0121916666667","6500400","永和區"
"234060","AAD-866","2018/11/24 13:07:50","新北市永和區安樂路304巷14號","121.514758333333","25.00521","6500400","永和區"
"234084","748-BX","2018/11/24 13:07:34","新北市永和區永貞路92號","121.519366666667","25.0044516666667","6500400","永和區"
"234040","862-TW","2018/11/24 13:07:50","新北市永和區永貞路328-1號","121.511393333333","25.00561","6500400","永和區"
"234048","863-TW","2018/11/24 13:07:43","新北市永和區文化路141號","121.510888333333","25.01589","6500400","永和區"
"234022","9372-KE","2018/11/24 13:07:46","新北市永和區中興街10巷23號","121.516016666667","25.0111316666667","6500400","永和區"
"234025","9371-KE","2018/11/24 13:07:30","新北市永和區秀朗路一段10巷21號","121.513373333333","25.0063616666667","6500400","永和區"
"234010","9373-KE","2018/11/24 13:07:50","新北市永和區仁愛路24號","121.514726666667","25.01376","6500400","永和區"
"248017","225-UY","2018/11/24 13:07:27","新北市五股區中興路三段163號","121.448141666667","25.0802433333333","6501500","五股區"
"234076","969-R7","2018/11/24 13:07:35","新北市永和區民光街9號","121.515478333333","24.99619","6500400","永和區"
"234072","AAC-211","2018/11/24 13:07:45","新北市永和區福和路174號","121.520988333333","25.0078216666667","6500400","永和區"
"234066","AAC-212","2018/11/24 13:07:35","新北市永和區保平路28號","121.512235","25.0074316666667","6500400","永和區"
"234001","AAC-295","2018/11/24 13:07:42","新北市永和區中山路一段6號","121.514226666667","25.010375","6500400","永和區"
"244005","410-SL","2018/11/24 13:07:39","新北市林口區南勢里73-2-1號","121.3539","25.0782583333333","6501700","林口區"
"231005","001-UM","2018/11/24 13:07:46","新北市新店區安華路28-1號","121.519618333333","24.960955","6500600","新店區"
"231002","002-UM","2018/11/24 13:07:45","新北市新店區安華路28-1號","121.51976","24.9609383333333","6500600","新店區"
"231027","0293-UT","2018/11/24 13:07:39","新北市新店區安華路1-1號","121.519615","24.9604216666667","6500600","新店區"
"231028","046-UY","2018/11/24 13:07:43","新北市新店區安華路28-1號","121.519755","24.9608933333333","6500600","新店區"
"231001","047-UY","2018/11/24 13:07:32","新北市新店區安華路28-1號","121.519123333333","24.9609016666667","6500600","新店區"
"231010","107-UY","2018/11/24 13:07:33","新北市新店區安一路一段1-1號","121.519425","24.96145","6500600","新店區"
"231012","187-VK","2018/11/24 13:07:39","新北市新店區安一路一段1-1號","121.519731666667","24.961255","6500600","新店區"
"231026","256-BX","2018/11/24 13:07:35","新北市新店區安一路一段1-1號","121.519738333333","24.9611083333333","6500600","新店區"
"231003","268-BY","2018/11/24 13:07:41","新北市新店區安一路一段1-1號","121.519661666667","24.9610566666667","6500600","新店區"
"231017","AAD-862","2018/11/24 13:07:29","新北市新店區安一路一段1-1號","121.519926666667","24.961145","6500600","新店區"
"231037","4716-K9","2018/11/24 13:07:44","新北市新店區安一路一段1-1號","121.519","24.9612066666667","6500600","新店區"
"231025","4715-K9","2018/11/24 13:07:39","新北市新店區安一路一段1-1號","121.519775","24.9621583333333","6500600","新店區"
"231036","512-UM","2018/11/24 13:07:39","新北市新店區安一路一段1-1號","121.519253333333","24.9611633333333","6500600","新店區"
"231013","513-UM","2018/11/24 13:07:44","新北市新店區安一路一段1-1號","121.519778333333","24.9612633333333","6500600","新店區"
"231035","515-UM","2018/11/24 13:07:47","新北市新店區安一路一段1-1號","121.519625","24.9613133333333","6500600","新店區"
"231034","616-UM","2018/11/24 13:07:36","新北市新店區安華路28-1號","121.519636666667","24.9606866666667","6500600","新店區"
"231030","619-UM","2018/11/24 13:07:33","新北市新店區安華路28-1號","121.519833333333","24.96071","6500600","新店區"
"231023","719-UY","2018/11/24 13:07:38","新北市新店區安一路一段1-1號","121.519778333333","24.9610666666667","6500600","新店區"
"231033","720-UM","2018/11/24 13:07:36","新北市新店區安一路一段1-1號","121.519108333333","24.9614883333333","6500600","新店區"
"231029","897-TW","2018/11/24 13:07:38","新北市新店區安華路28-1號","121.51978","24.960905","6500600","新店區"
"231006","898-TW","2018/11/24 13:07:28","新北市新店區安華路28-1號","121.51919","24.9608833333333","6500600","新店區"
"235027","006-UY","2018/11/24 13:07:41","新北市中和區員山路36巷16-3號","121.485065","24.991365","6500300","中和區"
"235003","097-UM","2018/11/24 13:07:30","新北市中和區和城路一段271巷1號","121.485556666667","24.9918916666667","6500300","中和區"
"235029","098-UM","2018/11/24 13:07:39","新北市中和區福祥路7號","121.4994","25.003025","6500300","中和區"
"235022","151-BY","2018/11/24 13:07:46","新北市中和區圓通路367巷21-1號","121.492898333333","24.9857466666667","6500300","中和區"
"235002","185-VK","2018/11/24 13:07:38","新北市中和區自立路121號","121.52195","24.9943316666667","6500300","中和區"
"235031","255-BX","2018/11/24 13:07:41","新北市中和區新生街177巷7號","121.484206666667","25.000725","6500300","中和區"
"235006","KEA-2878","2018/11/24 13:07:36","新北市中和區和城路一段271巷1號","121.485423333333","24.9918066666667","6500300","中和區"
"235034","558-UM","2018/11/24 13:07:45","新北市中和區圓通路208號","121.496025","24.9940933333333","6500300","中和區"
"235009","565-BX","2018/11/24 13:07:27","新北市中和區員山路36巷13號","121.48416","24.9911216666667","6500300","中和區"
"235018","640-BX","2018/11/24 13:07:33","新北市中和區連城路518巷1號","121.476773333333","24.9919583333333","6500300","中和區"
"235035","783-BX","2018/11/24 13:07:34","新北市中和區板南路488號","121.487496666667","25.0067466666667","6500300","中和區"
"235026","800-TS","2018/11/24 13:07:37","新北市中和區錦和路73號","121.48958","24.997755","6500300","中和區"
"235021","801-TS","2018/11/24 13:07:43","新北市中和區員山路36巷16-3號","121.484871666667","24.9917383333333","6500300","中和區"
"235005","802-TS","2018/11/24 13:07:45","新北市中和區和城路一段271巷1號","121.48542","24.99171","6500300","中和區"
"235016","805-TS","2018/11/24 13:07:38","新北市中和區中正路589巷15號","121.48587","24.9935766666667","6500300","中和區"
"235015","157-BY","2018/11/24 13:07:32","新北市中和區板南路136號","121.502186666667","24.9927016666667","6500300","中和區"
"235001","AAC-213","2018/11/24 13:07:43","新北市中和區景平路149號","121.513941666667","24.9921316666667","6500300","中和區"
"235023","AAC-215","2018/11/24 13:07:46","新北市中和區員山路36巷16-3號","121.484951666667","24.9914883333333","6500300","中和區"
"247005","337-TH","2018/11/24 13:07:28","新北市五股區中興路三段163號","121.449035","25.080765","6501400","蘆洲區"
"228005","097-TW","2018/11/24 13:07:38","新北市貢寮區龍門里復興街46-2號","121.928875","25.0304033333333","6502600","貢寮區"
"228004","212-TW","2018/11/24 13:07:44","新北市貢寮區吉林里內寮街75號","121.891178333333","24.9721833333333","6502600","貢寮區"
"253003","6232-TK","2018/11/24 13:07:47","新北市石門區石崩山23號","121.566678333333","25.2780483333333","6502200","石門區"
"253004","6251-TK","2018/11/24 13:07:33","新北市石門區阿里荖4號","121.615146666667","25.2786716666667","6502200","石門區"
"253002","637-UY","2018/11/24 13:07:26","新北市石門區老崩山31-1號","121.557885","25.27722","6502200","石門區"
"253001","KEC-0718","2018/11/24 13:07:39","新北市石門區銘德一村25號","121.541781666667","25.2909916666667","6502200","石門區"
"207002","749-BX","2018/11/24 13:07:46","新北市萬里區崁腳里內崁路8號","121.640868333333","25.1596766666667","6502800","萬里區"
"252005","073-UM","2018/11/24 13:07:38","新北市三芝區八賢里八連溪1-7號","121.507128333333","25.249115","6502100","三芝區"
"207001","662-BX","2018/11/24 13:07:32","新北市萬里區萬里里獅頭路22-1號","121.693068333333","25.1783416666667","6502800","萬里區"
"221010","269-BY","2018/11/24 13:07:42","台北市內湖區康樂街171號","121.620183333333","25.0754883333333","6501100","汐止區"
"221023","279-VK","2018/11/24 13:07:34","新北市汐止區福德一路1-1號","121.639835","25.0718366666667","6501100","汐止區"
"221032","280-BY","2018/11/24 13:07:36","新北市汐止區大同路二段435號","121.659331666667","25.0674433333333","6501100","汐止區"
"221033","647-BX","2018/11/24 13:07:35","新北市汐止區大同路二段187巷27號","121.651818333333","25.06549","6501100","汐止區"
"235032","KEA-2873","2018/11/24 13:07:45","新北市中和區員山路36巷16-3號","121.485055","24.99138","6500300","中和區"
"235025","KEA-2875","2018/11/24 13:07:33","新北市中和區連城路518巷1號","121.47662","24.9918766666667","6500300","中和區"
"235028","KEA-2876","2018/11/24 13:07:38","新北市中和區中正路283號","121.493708333333","24.9938683333333","6500300","中和區"
