"lineid","car","time","location","longitude","latitude","cityid","cityname"
"234028","746-BX","2018/11/24 14:47:47","新北市板橋區長江路二段311巷18-1號","121.471373333333","25.036405","6500400","永和區"
"234025","9371-KE","2018/11/24 14:47:30","新北市永和區雙和街25巷4號","121.508873333333","25.0018833333333","6500400","永和區"
"248017","225-UY","2018/11/24 14:26:57","新北市五股區外寮路13-1號","121.424816666667","25.08126","6501500","五股區"
"231005","001-UM","2018/11/24 14:47:47","新北市新店區復興路2號","121.53253","24.98825","6500600","新店區"
"231002","002-UM","2018/11/24 14:47:45","新北市新店區民權路96號","121.536778333333","24.983025","6500600","新店區"
"231027","0293-UT","2018/11/24 14:47:39","新北市新店區中正路218號","121.540315","24.9726633333333","6500600","新店區"
"231028","046-UY","2018/11/24 14:47:43","新北市新店區安德街60巷26號","121.511108333333","24.9640633333333","6500600","新店區"
"231001","047-UY","2018/11/24 14:47:41","新北市新店區三民路34號","121.536565","24.971275","6500600","新店區"
"231020","108-UY","2018/11/24 14:47:50","新北市新店區新烏路二段442號","121.551666666667","24.9083866666667","6500600","新店區"
"231012","187-VK","2018/11/24 14:47:39","新北市新店區寶橋路75號","121.545656666667","24.97529","6500600","新店區"
"231003","268-BY","2018/11/24 14:47:40","新北市新店區中興路二段121巷1號","121.547586666667","24.97211","6500600","新店區"
"231018","278-BY","2018/11/24 14:47:43","新北市新店區中央五街3-2號","121.530321666667","24.9743766666667","6500600","新店區"
"231017","AAD-862","2018/11/24 14:47:49","新北市新店區銀河路58號","121.576713333333","24.9573933333333","6500600","新店區"
"231038","3712-VJ","2018/11/24 14:47:48","新北市新店區安華路28-1號","121.519586666667","24.9609116666667","6500600","新店區"
"231037","4716-K9","2018/11/24 14:47:44","新北市新店區柴埕路57號","121.513595","24.9651766666667","6500600","新店區"
"231025","4715-K9","2018/11/24 14:47:38","新北市新店區民族路161號","121.537715","24.97686","6500600","新店區"
"231036","512-UM","2018/11/24 14:47:49","新北市新店區安祥路106巷187號","121.474066666667","24.95988","6500600","新店區"
"231013","513-UM","2018/11/24 14:47:44","新北市新店區北新路二段63號","121.542571666667","24.9733333333333","6500600","新店區"
"231035","515-UM","2018/11/24 14:47:47","新北市新店區安和路二段166號","121.519723333333","24.9738233333333","6500600","新店區"
"231034","616-UM","2018/11/24 14:47:36","新北市新店區安康路二段389號","121.494601666667","24.9543333333333","6500600","新店區"
"231030","619-UM","2018/11/24 14:47:33","新北市新店區安民街321號","121.517456666667","24.9744816666667","6500600","新店區"
"231023","719-UY","2018/11/24 14:47:38","新北市新店區檳榔路109號","121.544555","24.961715","6500600","新店區"
"231033","720-UM","2018/11/24 14:47:36","新北市新店區薏仁坑路6號","121.500033333333","24.958315","6500600","新店區"
"231029","897-TW","2018/11/24 14:47:48","新北市新店區錦秀路59號","121.479055","24.9431716666667","6500600","新店區"
"231006","898-TW","2018/11/24 14:47:51","新北市新店區北宜路一段129號","121.540713333333","24.9531033333333","6500600","新店區"
"231004","899-TW","2018/11/24 14:47:36","新北市新店區建國路133號","121.539286666667","24.9782533333333","6500600","新店區"
"231024","AKT-0513","2018/11/24 14:47:30","新北市新店區北新路一段235號","121.540458333333","24.9657383333333","6500600","新店區"
"235030","003-UY","2018/11/24 14:47:40","新北市中和區南工路70號","121.506513333333","25.002105","6500300","中和區"
"235020","096-UM","2018/11/24 14:47:43","新北市中和區中山路三段114巷29號","121.475378333333","25.0083366666667","6500300","中和區"
"235003","097-UM","2018/11/24 14:47:50","新北市永和區安樂路44號","121.514623333333","24.996895","6500300","中和區"
"235029","098-UM","2018/11/24 14:47:39","新北市中和區永和路90巷2弄1號","121.4974","25.0058233333333","6500300","中和區"
"235022","151-BY","2018/11/24 14:47:26","新北市中和區員山路152-1號","121.48135","24.99835","6500300","中和區"
"235019","183-VK","2018/11/24 14:47:36","新北市中和區民德路10號","121.468796666667","25.0028116666667","6500300","中和區"
"235002","185-VK","2018/11/24 14:47:38","新北市中和區自立路5號","121.522516666667","24.9965216666667","6500300","中和區"
"235013","186-VK","2018/11/24 14:47:42","新北市中和區景平路538號","121.502618333333","24.994585","6500300","中和區"
"235031","255-BX","2018/11/24 14:47:41","新北市中和區新生街186巷1弄31號","121.483435","24.998595","6500300","中和區"
"235008","293-VK","2018/11/24 14:47:47","新北市中和區南山路287號","121.504268333333","24.9921766666667","6500300","中和區"
"235036","301-VK","2018/11/24 14:47:40","新北市中和區中山路二段3巷22弄5號","121.50628","25.0051783333333","6500300","中和區"
"235007","352-BY","2018/11/24 14:47:36","新北市中和區安和路33號","121.510048333333","24.9945333333333","6500300","中和區"
"235014","4979-A6","2018/11/24 14:47:46","新北市中和區景平路241巷84弄54號","121.506106666667","24.99235","6500300","中和區"
"235034","558-UM","2018/11/24 14:47:45","新北市中和區連勝街21號","121.498535","24.9980516666667","6500300","中和區"
"235018","640-BX","2018/11/24 14:47:33","新北市中和區莒光路9號","121.471888333333","25.0058716666667","6500300","中和區"
"235024","647-TV","2018/11/24 14:47:41","新北市中和區新生街11號","121.483216666667","25.00434","6500300","中和區"
"235011","732-UM","2018/11/24 14:47:38","新北市中和區和平街118號","121.506903333333","24.9915333333333","6500300","中和區"
"235010","733-UM","2018/11/24 14:47:37","新北市中和區仁愛街72號","121.511296666667","24.9876433333333","6500300","中和區"
"235026","800-TS","2018/11/24 14:47:37","新北市中和區中山路二段380巷17號","121.49056","25.0042716666667","6500300","中和區"
"235016","805-TS","2018/11/24 14:47:38","新北市中和區華新街30巷14號","121.506918333333","24.984315","6500300","中和區"
"235012","896-TW","2018/11/24 14:47:37","新北市中和區忠孝街128號","121.51198","24.9865583333333","6500300","中和區"
"235017","900-TW","2018/11/24 14:47:33","新北市中和區國光街215巷11弄1號","121.466665","25.0012266666667","6500300","中和區"
"235015","157-BY","2018/11/24 14:47:52","新北市中和區景安路247巷20號","121.50442","24.9905333333333","6500300","中和區"
"235001","AAC-213","2018/11/24 14:47:43","新北市中和區自立路189號","121.523968333333","24.9913683333333","6500300","中和區"
"235023","AAC-215","2018/11/24 14:47:46","新北市中和區圓通路305巷5弄55號","121.495003333333","24.9902733333333","6500300","中和區"
"220016","013-TV","2018/11/24 14:47:31","新北市板橋區光復街117號","121.484703333333","25.0195116666667","6500100","板橋區"
"220013","072-UY","2018/11/24 14:47:44","新北市板橋區民族路276巷5號","121.469758333333","25.0062683333333","6500100","板橋區"
"220034","073-UY","2018/11/24 14:47:31","新北市板橋區大觀路二段443-2號","121.439885","24.9952066666667","6500100","板橋區"
"220105","075-UY","2018/11/24 14:47:41","新北市板橋區仁化街221號","121.478953333333","25.0346566666667","6500100","板橋區"
"247001","893-R6","2018/11/24 14:47:34","新北市蘆洲區永康街6號","121.459318333333","25.0859766666667","6501400","蘆洲區"
"247015","546-UM","2018/11/24 14:47:39","新北市蘆洲區和平路184號","121.466258333333","25.0814333333333","6501400","蘆洲區"
"247023","500-BY","2018/11/24 14:47:43","新北市蘆洲區和平路79號","121.468906666667","25.0792633333333","6501400","蘆洲區"
"247013","339-TH","2018/11/24 14:47:36","新北市蘆洲區中央路61-8號","121.473476666667","25.0830516666667","6501400","蘆洲區"
"247009","056-VK","2018/11/24 14:47:41","新北市五股區更洲路47號","121.456916666667","25.0789683333333","6501400","蘆洲區"
"247018","007-UY","2018/11/24 14:47:11","新北市五股區中興路三段2巷10號","121.449261666667","25.0808466666667","6501400","蘆洲區"
"228005","097-TW","2018/11/24 14:47:38","新北市貢寮區美豐里丹裡街54號","121.90541","25.0591783333333","6502600","貢寮區"
"228004","212-TW","2018/11/24 14:47:36","新北市貢寮區福隆里裕隆街2號","121.94654","25.0153783333333","6502600","貢寮區"
"253003","6232-TK","2018/11/24 14:47:44","新北市石門區尖子鹿10-2號","121.577461666667","25.282715","6502200","石門區"
"253004","6251-TK","2018/11/24 14:47:32","新北市石門區茂林社區86號","121.592726666667","25.2696116666667","6502200","石門區"
"253002","637-UY","2018/11/24 14:47:46","新北市石門區楓林28-2號","121.541993333333","25.28907","6502200","石門區"
"253001","KEC-0718","2018/11/24 14:47:39","新北市石門區崁子腳56號","121.537491666667","25.274365","6502200","石門區"
"207002","749-BX","2018/11/24 14:47:35","新北市萬里區崁腳里崁腳路73號","121.647663333333","25.1596133333333","6502800","萬里區"
"252005","073-UM","2018/11/24 14:47:38","新北市三芝區埔坪里埔頭坑91-3號","121.50836","25.25222","6502100","三芝區"
"207001","662-BX","2018/11/24 14:47:12","新北市萬里區雙興里豐稟路31-1號","121.64306","25.1810383333333","6502800","萬里區"
"236068","105-UM","2018/11/24 14:47:43","新北市土城區明德路一段371號","121.45298","24.9796883333333","6501300","土城區"
"236040","KED-0685","2018/11/24 14:47:46","新北市土城區裕民路136巷2弄2號","121.451301666667","24.9859916666667","6501300","土城區"
"236074","166-UM","2018/11/24 14:47:41","新北市土城區中央路四段67巷60-13號","121.416895","24.9559983333333","6501300","土城區"
"236029","253-BX","2018/11/24 14:47:41","新北市土城區忠義路26巷10號","121.439828333333","24.9699216666667","6501300","土城區"
"236024","269-VK","2018/11/24 14:47:46","新北市土城區興城路94號","121.44087","24.97166","6501300","土城區"
"236013","270-VK","2018/11/24 14:47:39","新北市土城區金城路二段354巷20號","121.460726666667","24.9841383333333","6501300","土城區"
"236032","271-VK","2018/11/24 14:47:36","新北市土城區青仁路51號","121.461583333333","24.97957","6501300","土城區"
"236017","752-BX","2018/11/24 14:47:38","新北市土城區延安街42-3號","121.467556666667","24.9852666666667","6501300","土城區"
"236057","912-UM","2018/11/24 14:47:30","新北市土城區金城路一段86號","121.444756666667","24.97342","6501300","土城區"
"236045","913-UM","2018/11/24 14:47:40","新北市土城區青雲路37號","121.459863333333","24.9879083333333","6501300","土城區"
"236060","915-UM","2018/11/24 14:47:51","新北市土城區金城路三段207巷6弄5號","121.470311666667","24.9901","6501300","土城區"
"236054","970-R7","2018/11/24 14:47:41","新北市土城區裕民路169-1號","121.453161666667","24.9851933333333","6501300","土城區"
"242050","172-VK","2018/11/24 14:47:44","新北市新莊區中正路457巷15號","121.442333333333","25.0333583333333","6500500","新莊區"
"221010","269-BY","2018/11/24 14:47:42","新北市汐止區汐萬路一段256巷3號","121.652106666667","25.07479","6501100","汐止區"
"221023","279-VK","2018/11/24 14:47:33","新北市新店區安華路16號","121.516978333333","24.95791","6501100","汐止區"
"220027","145-BY","2018/11/24 14:47:31","新北市板橋區國光路188號","121.46111","25.0183666666667","6500100","板橋區"
"220028","200-UY","2018/11/24 14:47:52","新北市板橋區大觀路二段37巷21號","121.447878333333","25.0028166666667","6500100","板橋區"
"220030","610-BX","2018/11/24 14:47:40","新北市板橋區溪崑一街30巷1號","121.430013333333","24.99084","6500100","板橋區"
"220050","245-BX","2018/11/24 14:47:33","新北市板橋區莒光路237-8號","121.474245","25.021945","6500100","板橋區"
"220004","276-BY","2018/11/24 14:47:43","新北市板橋區四川路二段99-1號","121.452641666667","24.9945616666667","6500100","板橋區"
"220020","277-BY","2018/11/24 14:47:45","新北市板橋區金門街175號","121.432598333333","24.9900216666667","6500100","板橋區"
"220012","282-UM","2018/11/24 14:47:53","新北市板橋區公園街54號","121.462166666667","25.007865","6500100","板橋區"
"220019","283-VK","2018/11/24 14:47:34","新北市板橋區和平路174巷13號","121.464406666667","24.9948933333333","6500100","板橋區"
"220043","285-UM","2018/11/24 14:47:35","新北市板橋區長江路二段159號","121.466178333333","25.03191","6500100","板橋區"
"220031","286-VK","2018/11/24 14:47:51","新北市板橋區大觀路二段174巷166弄20號","121.442583333333","25.0029283333333","6500100","板橋區"
"220029","287-VK","2018/11/24 14:47:38","新北市板橋區大觀路一段28巷75號","121.4499","25.011105","6500100","板橋區"
"220039","288-VK","2018/11/24 14:47:38","新北市板橋區龍泉街72巷13號","121.45612","25.0262266666667","6500100","板橋區"
"220009","295-UM","2018/11/24 14:47:35","新北市板橋區板新路128號","121.47092","25.0157266666667","6500100","板橋區"
"220032","296-UM","2018/11/24 14:47:50","新北市板橋區滿平街2巷21號","121.425553333333","24.9895216666667","6500100","板橋區"
"220001","299-UM","2018/11/24 14:47:35","新北市板橋區中山路二段148巷32號","121.477068333333","25.01607","6500100","板橋區"
"220023","303-R5","2018/11/24 14:47:47","新北市板橋區金華街10巷48弄15號","121.457593333333","25.019935","6500100","板橋區"
"220010","305-R5","2018/11/24 14:47:46","新北市板橋區光復街31巷1號","121.48161","25.0189633333333","6500100","板橋區"
"220041","307-R5","2018/11/24 14:47:42","新北市板橋區四維路259巷43號","121.461558333333","25.02725","6500100","板橋區"
"220047","317-R6","2018/11/24 14:47:48","新北市板橋區英士路192-1號","121.458311666667","25.0235783333333","6500100","板橋區"
"220038","487-VK","2018/11/24 14:47:49","新北市板橋區英士路17號","121.461713333333","25.0250333333333","6500100","板橋區"
"220104","560-BX","2018/11/24 14:47:38","新北市板橋區新生街87巷15號","121.457111666667","25.0219433333333","6500100","板橋區"
"220052","561-BX","2018/11/24 14:47:40","新北市板橋區陽明街29巷23號","121.464373333333","25.0222483333333","6500100","板橋區"
"220017","568-UM","2018/11/24 14:47:40","新北市板橋區大明街13號","121.458898333333","25.0024933333333","6500100","板橋區"
"220011","609-BX","2018/11/24 14:47:40","新北市板橋區三民路一段31巷89弄18號","121.482016666667","25.02353","6500100","板橋區"
"220003","630-UY","2018/11/24 14:47:32","新北市板橋區國慶路149巷23-2號","121.461035","24.9975216666667","6500100","板橋區"
"220040","637-BX","2018/11/24 14:47:38","新北市板橋區懷德街127巷16號","121.47955","25.0312216666667","6500100","板橋區"
"220005","686-BX","2018/11/24 14:47:46","新北市板橋區廣和街71號","121.462636666667","24.992665","6500100","板橋區"
"220025","687-BX","2018/11/24 14:47:43","新北市板橋區僑中二街92巷2號","121.446388333333","25.0089233333333","6500100","板橋區"
"220042","689-BX","2018/11/24 14:47:45","新北市板橋區長江路二段165號","121.46636","25.03199","6500100","板橋區"
"220002","741-BX","2018/11/24 14:47:48","新北市板橋區實踐路93巷55號","121.467015","25.00472","6500100","板橋區"
"220014","829-TW","2018/11/24 14:47:44","新北市板橋區長安街210號","121.474581666667","25.0120383333333","6500100","板橋區"
"220051","830-TW","2018/11/24 14:47:49","新北市板橋區文化路二段410巷21號","121.474753333333","25.0308433333333","6500100","板橋區"
"220045","831-TW","2018/11/24 14:47:45","新北市板橋區文化路二段124巷34弄2號","121.471356666667","25.025285","6500100","板橋區"
"220037","833-TW","2018/11/24 14:47:48","新北市板橋區懷德街55號","121.477268333333","25.0326933333333","6500100","板橋區"
"220022","895-R6","2018/11/24 14:47:48","新北市板橋區民權路45號","121.461715","25.01117","6500100","板橋區"
"220021","985-R7","2018/11/24 14:47:46","新北市板橋區南雅西路二段160號","121.4517","25.0135483333333","6500100","板橋區"
"220046","AAC-210","2018/11/24 14:47:41","新北市板橋區文化路一段299-1號","121.46471","25.01916","6500100","板橋區"
"220018","AAC-253","2018/11/24 14:47:33","新北市板橋區實踐路25號","121.463578333333","25.00732","6500100","板橋區"
"235032","KEA-2873","2018/11/24 14:47:45","新北市中和區中山路二段266號","121.497135","25.00248","6500300","中和區"
"235025","KEA-2875","2018/11/24 14:47:32","新北市中和區員山路263號","121.481218333333","24.9991983333333","6500300","中和區"
