"lineid","car","time","location","longitude","latitude","cityid","cityname"
"231005","001-UM","2018/11/24 15:37:47","新北市新店區建國路13號","121.539851666667","24.973515","6500600","新店區"
"231028","046-UY","2018/11/24 15:37:43","新北市新店區僑義路30號","121.500673333333","24.9497083333333","6500600","新店區"
"231020","108-UY","2018/11/24 15:37:50","新北市新店區花園二路一段4-5號","121.55608","24.9324216666667","6500600","新店區"
"231012","187-VK","2018/11/24 15:37:39","新北市新店區寶元路一段109號","121.545743333333","24.9831133333333","6500600","新店區"
"231026","256-BX","2018/11/24 15:37:49","新北市新店區三民路75巷2弄1號","121.535653333333","24.9710566666667","6500600","新店區"
"231003","268-BY","2018/11/24 15:37:40","新北市新店區寶高路102巷20號","121.552608333333","24.9740733333333","6500600","新店區"
"231018","278-BY","2018/11/24 15:37:23","新北市新店區中正路663巷7弄15號","121.533045","24.9901716666667","6500600","新店區"
"231017","AAD-862","2018/11/24 15:37:49","新北市新店區北宜路二段145號","121.551401666667","24.9531816666667","6500600","新店區"
"231038","3712-VJ","2018/11/24 15:37:47","新北市新店區安康路二段18號","121.51604","24.96396","6500600","新店區"
"231037","4716-K9","2018/11/24 15:37:44","新北市新店區安興路105號","121.514855","24.9777483333333","6500600","新店區"
"231036","512-UM","2018/11/24 15:37:49","新北市新店區安祥路35-1號","121.492348333333","24.9551","6500600","新店區"
"231013","513-UM","2018/11/24 15:37:36","新北市新店區永業路81巷3弄33號","121.530825","24.95028","6500600","新店區"
"231035","515-UM","2018/11/24 15:37:47","新北市新店區安興路83-3號","121.51534","24.97549","6500600","新店區"
"231034","616-UM","2018/11/24 15:37:36","新北市新店區玫瑰路58巷20號","121.49441","24.946745","6500600","新店區"
"231030","619-UM","2018/11/24 15:37:33","新北市新店區新和街92號","121.520656666667","24.9860816666667","6500600","新店區"
"231039","718-UY","2018/11/24 15:37:36","新北市新店區中興路三段220巷19號","121.54497","24.9833083333333","6500600","新店區"
"231023","719-UY","2018/11/24 15:37:38","新北市新店區大新街7巷15號","121.544003333333","24.9682266666667","6500600","新店區"
"231033","720-UM","2018/11/24 15:37:36","新北市新店區玫瑰路58巷37號","121.492983333333","24.9460216666667","6500600","新店區"
"231029","897-TW","2018/11/24 15:37:48","新北市新店區安康路三段2號","121.493713333333","24.9537216666667","6500600","新店區"
"241011","013-R5","2018/11/24 15:37:31","新北市三重區龍濱路285號","121.501103333333","25.073385","6500200","三重區"
"241028","022-UY","2018/11/24 15:37:46","新北市三重區重新路四段121號","121.484786666667","25.0526116666667","6500200","三重區"
"241008","059-VK","2018/11/24 15:37:52","新北市三重區重新路四段121號","121.485038333333","25.0522683333333","6500200","三重區"
"241022","060-VK","2018/11/24 15:37:46","新北市三重區重新路四段121號","121.485288333333","25.0521816666667","6500200","三重區"
"241015","062-VK","2018/11/24 15:37:39","新北市三重區重新路四段254號","121.48519","25.0530816666667","6500200","三重區"
"241017","063-VK","2018/11/24 15:37:48","新北市三重區重新路四段146號","121.48634","25.0563733333333","6500200","三重區"
"241002","090-VK","2018/11/24 15:37:33","新北市三重區重新路四段121號","121.484935","25.052105","6500200","三重區"
"241003","091-VK","2018/11/24 15:37:40","新北市三重區重新路四段121號","121.484856666667","25.0520533333333","6500200","三重區"
"241005","262-UM","2018/11/24 15:37:50","新北市三重區重新路四段121號","121.484868333333","25.0520216666667","6500200","三重區"
"241016","265-UM","2018/11/24 15:37:45","新北市三重區重新路四段121號","121.485156666667","25.052115","6500200","三重區"
"241018","268-UM","2018/11/24 15:37:47","新北市三重區重新路四段121號","121.485021666667","25.0522183333333","6500200","三重區"
"241013","270-UM","2018/11/24 15:37:41","新北市三重區正義北路291號","121.494931666667","25.0706083333333","6500200","三重區"
"241025","271-UM","2018/11/24 15:37:37","新北市三重區重新路四段121號","121.484753333333","25.052475","6500200","三重區"
"241007","398-BY","2018/11/24 15:37:48","新北市三重區重新路四段121號","121.484938333333","25.05212","6500200","三重區"
"241004","475-VK","2018/11/24 15:37:31","新北市三重區重新路四段121號","121.484948333333","25.0520816666667","6500200","三重區"
"241030","480-VK","2018/11/24 15:37:50","新北市三重區重新路四段121號","121.484815","25.0527733333333","6500200","三重區"
"241014","543-UM","2018/11/24 15:37:35","新北市三重區重新路四段121號","121.485086666667","25.0523883333333","6500200","三重區"
"241023","545-UM","2018/11/24 15:37:47","新北市三重區重新路四段121號","121.484716666667","25.0524783333333","6500200","三重區"
"241001","547-UM","2018/11/24 15:37:39","新北市三重區重新路四段121號","121.484915","25.0519583333333","6500200","三重區"
"241033","557-UM","2018/11/24 15:34:21","新北市三重區中興南街74號","121.470973333333","25.043665","6500200","三重區"
"241019","KEA-2593","2018/11/24 15:37:47","新北市三重區重新路四段121號","121.484793333333","25.0521516666667","6500200","三重區"
"241020","743-BX","2018/11/24 15:37:33","新北市三重區忠孝路三段12號","121.481763333333","25.0674416666667","6500200","三重區"
"241012","941-UM","2018/11/24 15:37:41","新北市三重區正義南路13-1號","121.497846666667","25.0618033333333","6500200","三重區"
"241029","942-UM","2018/11/24 15:37:37","新北市三重區環河南路220-8號","121.493405","25.05271","6500200","三重區"
"235033","4980-A6","2018/11/24 15:37:43","新北市中和區員山路355號","121.481011666667","25.0019416666667","6500300","中和區"
"235023","AAC-215","2018/11/24 15:37:46","新北市中和區員山路28-29號","121.48095","24.9869416666667","6500300","中和區"
"247008","336-TH","2018/11/24 15:10:11","新北市五股區中興路三段163號","121.449166666667","25.0805916666667","6501400","蘆洲區"
"228003","097-TW","2018/11/24 15:29:26","新北市貢寮區貢寮里朝陽街1-2號","121.91238","25.0212566666667","6502600","貢寮區"
"227002","400-TW","2018/11/24 15:37:36","新北市雙溪區牡丹里聖南31-1號","121.855335","25.0545333333333","6502500","雙溪區"
"253003","6232-TK","2018/11/24 15:37:44","新北市石門區小坑9號","121.594413333333","25.2883966666667","6502200","石門區"
"236068","105-UM","2018/11/24 15:37:43","新北市土城區大安路14號","121.432575","24.9660416666667","6501300","土城區"
"236040","KED-0685","2018/11/24 15:37:46","新北市土城區中華路一段60號","121.445295","24.9881583333333","6501300","土城區"
"236074","166-UM","2018/11/24 15:37:41","新北市土城區中央路四段321巷46號","121.41251","24.9510816666667","6501300","土城區"
"236029","253-BX","2018/11/24 15:37:41","新北市土城區裕民路32巷6號","121.447671666667","24.9881233333333","6501300","土城區"
"236024","269-VK","2018/11/24 15:37:46","新北市土城區中央路一段269號","121.445086666667","24.9851716666667","6501300","土城區"
"236013","270-VK","2018/11/24 15:37:46","新北市土城區廣明街84號","121.454921666667","24.9941666666667","6501300","土城區"
"236017","752-BX","2018/11/24 15:36:58","新北市土城區延吉街111巷12弄20號","121.471531666667","24.9854616666667","6501300","土城區"
"236057","912-UM","2018/11/24 15:37:50","新北市土城區中央路一段251號","121.445248333333","24.9858216666667","6501300","土城區"
"236045","913-UM","2018/11/24 15:37:42","新北市土城區金城路三段133號","121.468058333333","24.987975","6501300","土城區"
"236060","915-UM","2018/11/24 15:37:50","新北市土城區延和路12巷1號","121.464205","24.987785","6501300","土城區"
"236054","970-R7","2018/11/24 15:37:41","新北市土城區學府路一段123號","121.455196666667","24.987155","6501300","土城區"
"220050","245-BX","2018/11/24 15:37:33","新北市板橋區民生路二段161巷1號","121.470125","25.0198266666667","6500100","板橋區"
"220031","286-VK","2018/11/24 15:37:50","新北市板橋區僑中二街108巷7號","121.445413333333","25.007145","6500100","板橋區"
"220018","AAC-253","2018/11/24 15:29:30","新北市板橋區華東街1-9號","121.448276666667","24.9948866666667","6500100","板橋區"
