"lineid","car","time","location","longitude","latitude","cityid","cityname"
"249005","172-UM","2018/11/24 16:57:33","新北市八里區渡船頭3-7號","121.434163333333","25.15358","6502300","八里區"
"249001","173-UM","2018/11/24 16:57:39","新北市八里區商港路48號","121.395856666667","25.1454483333333","6502300","八里區"
"249004","303-UY","2018/11/24 16:57:33","新北市八里區挖子尾街38號","121.4156","25.1657333333333","6502300","八里區"
"249002","305-UY","2018/11/24 16:57:45","新北市八里區牛寮埔11號","121.432746666667","25.142525","6502300","八里區"
"249003","593-UM","2018/11/24 16:57:46","新北市八里區中山路二段283號","121.40158","25.1486633333333","6502300","八里區"
"244017","485-VK","2018/11/24 16:57:37","新北市林口區粉寮路二段160巷28號","121.405133333333","25.090805","6501700","林口區"
"244025","837-TS","2018/11/24 16:57:43","新北市林口區粉寮69號","121.405138333333","25.0908416666667","6501700","林口區"
"244021","838-TS","2018/11/24 16:57:42","新北市林口區粉寮32號","121.40328","25.08661","6501700","林口區"
"231046","107-UY","2018/11/24 16:57:51","新北市新店區直潭八街46號","121.532951666667","24.9391516666667","6500600","新店區"
"241011","013-R5","2018/11/24 16:57:51","新北市三重區龍濱路257號","121.501491666667","25.0727966666667","6500200","三重區"
"241028","022-UY","2018/11/24 16:57:46","新北市三重區中正南路50號","121.493953333333","25.0599233333333","6500200","三重區"
"241008","059-VK","2018/11/24 16:57:43","新北市三重區永安北路一段3巷26號","121.477156666667","25.0745983333333","6500200","三重區"
"241022","060-VK","2018/11/24 16:57:46","新北市三重區中華路77號","121.48387","25.0625883333333","6500200","三重區"
"241031","061-VK","2018/11/24 16:57:44","新北市三重區三寧街23號","121.489646666667","25.0597566666667","6500200","三重區"
"241015","062-VK","2018/11/24 16:57:39","新北市三重區福德北路82號","121.501586666667","25.06638","6500200","三重區"
"241017","063-VK","2018/11/24 16:57:48","新北市三重區大同北路120巷1-1號","121.493111666667","25.06385","6500200","三重區"
"241024","065-VK","2018/11/24 16:57:36","新北市三重區大勇街82巷15弄30號","121.481148333333","25.0719883333333","6500200","三重區"
"241026","066-VK","2018/11/24 16:57:38","新北市三重區文化南路42號","121.500433333333","25.060275","6500200","三重區"
"241002","090-VK","2018/11/24 16:57:33","新北市三重區仁義街101巷2號","121.497583333333","25.0802766666667","6500200","三重區"
"241003","091-VK","2018/11/24 16:57:40","新北市三重區集賢路87-1號","121.493661666667","25.0868716666667","6500200","三重區"
"251014","742-BX","2018/11/24 16:57:44","新北市淡水區淡金路四段478號","121.452451666667","25.2239116666667","6501000","淡水區"
"241005","262-UM","2018/11/24 16:57:50","新北市三重區碧華街112巷18號","121.484281666667","25.0823566666667","6500200","三重區"
"241016","265-UM","2018/11/24 16:57:50","新北市三重區大智街62號","121.49424","25.0654316666667","6500200","三重區"
"241009","267-UM","2018/11/24 16:57:36","新北市三重區仁美街107號","121.485713333333","25.0807766666667","6500200","三重區"
"241018","268-UM","2018/11/24 16:57:47","新北市三重區六張街126巷2弄1號","121.492203333333","25.0692316666667","6500200","三重區"
"241032","269-UM","2018/11/24 16:57:37","新北市三重區重陽路一段130巷26號","121.485706666667","25.0603833333333","6500200","三重區"
"241013","270-UM","2018/11/24 16:57:41","新北市三重區仁孝街62號","121.497265","25.07446","6500200","三重區"
"241025","271-UM","2018/11/24 16:57:37","新北市三重區中正北路510號","121.472576666667","25.071735","6500200","三重區"
"241007","398-BY","2018/11/24 16:57:48","新北市三重區溪尾街160號","121.488805","25.0802483333333","6500200","三重區"
"241004","475-VK","2018/11/24 16:57:52","新北市三重區五華街98巷4號","121.492361666667","25.0822233333333","6500200","三重區"
"241030","480-VK","2018/11/24 16:57:49","新北市三重區昌隆街68號","121.491021666667","25.0509033333333","6500200","三重區"
"241014","543-UM","2018/11/24 16:57:35","新北市三重區介壽路129號","121.500443333333","25.070445","6500200","三重區"
"241023","545-UM","2018/11/24 16:57:47","新北市三重區新北大道一段135號","121.482666666667","25.061425","6500200","三重區"
"241001","547-UM","2018/11/24 16:57:51","新北市三重區仁愛街245巷10號","121.493858333333","25.078185","6500200","三重區"
"241019","KEA-2593","2018/11/24 16:57:47","新北市三重區自強路二段82號","121.4879","25.0704266666667","6500200","三重區"
"241006","AAD-863","2018/11/24 16:57:38","新北市三重區車路頭街117巷37號","121.485305","25.0755916666667","6500200","三重區"
"241020","743-BX","2018/11/24 16:54:32","新北市三重區後竹圍街197號","121.485008333333","25.0715466666667","6500200","三重區"
"241012","941-UM","2018/11/24 16:57:41","新北市三重區仁和街128號","121.500218333333","25.0748833333333","6500200","三重區"
"241029","942-UM","2018/11/24 16:57:37","新北市三重區中正南路250巷31號","121.494405","25.0533166666667","6500200","三重區"
"235065","098-UM","2018/11/24 16:57:39","新北市中和區員山路36巷16-3號","121.485131666667","24.9910933333333","6500300","中和區"
"247012","KEA-2869","2018/11/24 16:57:40","新北市蘆洲區復興路126號","121.476518333333","25.087385","6501400","蘆洲區"
"235046","733-UM","2018/11/24 16:47:49","新北市中和區員山路36巷13號","121.484111666667","24.99081","6500300","中和區"
"247016","546-UM","2018/11/24 16:57:45","新北市蘆洲區中正路71號","121.470433333333","25.082835","6501400","蘆洲區"
"247024","500-BY","2018/11/24 16:57:45","新北市蘆洲區長興路255號","121.460526666667","25.0875016666667","6501400","蘆洲區"
"247014","339-TH","2018/11/24 16:57:51","新北市蘆洲區得勝街63號","121.474253333333","25.08384","6501400","蘆洲區"
"247006","337-TH","2018/11/24 16:57:42","新北市蘆洲區長安街99巷19號","121.461085","25.0801116666667","6501400","蘆洲區"
"247008","336-TH","2018/11/24 16:57:41","新北市蘆洲區中山一路197巷1號","121.474538333333","25.0809433333333","6501400","蘆洲區"
"247020","057-VK","2018/11/24 16:57:55","新北市蘆洲區民族路422巷29號","121.473501666667","25.0934566666667","6501400","蘆洲區"
"247010","056-VK","2018/11/24 16:57:40","新北市蘆洲區信義路170號","121.479271666667","25.08386","6501400","蘆洲區"
"247018","007-UY","2018/11/24 16:57:36","新北市蘆洲區民族路227巷12-1號","121.477148333333","25.089465","6501400","蘆洲區"
"247004","002-UY","2018/11/24 16:57:43","新北市蘆洲區長榮路151號","121.461756666667","25.0839933333333","6501400","蘆洲區"
"247022","001-UY","2018/11/24 16:57:50","新北市蘆洲區三民路128巷166-1號","121.468411666667","25.0925216666667","6501400","蘆洲區"
"228003","097-TW","2018/11/24 16:57:38","新北市貢寮區福隆里興隆街21-2號","121.932241666667","25.0194016666667","6502600","貢寮區"
"228002","585-TW","2018/11/24 16:57:48","新北市貢寮區貢寮里長潭街25號","121.898633333333","25.0237066666667","6502600","貢寮區"
"224006","676-BX","2018/11/24 16:57:53","新北市瑞芳區大寮路356號","121.785588333333","25.1026483333333","6501200","瑞芳區"
"224008","285-BY","2018/11/24 16:57:45","新北市瑞芳區明燈路一段267號","121.816921666667","25.1084366666667","6501200","瑞芳區"
"224009","273-VK","2018/11/24 16:57:51","新北市瑞芳區明燈路一段1號","121.830953333333","25.11195","6501200","瑞芳區"
"224005","271-BY","2018/11/24 16:57:48","新北市瑞芳區明里路4號","121.868753333333","25.1209266666667","6501200","瑞芳區"
"227010","642-TC","2018/11/24 16:57:38","新北市雙溪區牡丹里五分11號","121.866013333333","25.04713","6502500","雙溪區"
"227002","400-TW","2018/11/24 16:57:36","新北市雙溪區長源里內柑腳23號","121.801156666667","25.0144566666667","6502500","雙溪區"
"251009","008-UM","2018/11/24 16:57:51","新北市淡水區中正路二段31號","121.419163333333","25.1819433333333","6501000","淡水區"
"251005","010-UM","2018/11/24 16:57:46","新北市淡水區中正路一段8巷1弄11號","121.42808","25.1755916666667","6501000","淡水區"
"251013","KEA-2871","2018/11/24 16:57:42","新北市淡水區泉洲厝32號","121.489315","25.1925533333333","6501000","淡水區"
"251016","179-VK","2018/11/24 16:57:48","新北市淡水區瓦坑8-2號","121.477983333333","25.1831466666667","6501000","淡水區"
"251008","181-VK","2018/11/24 16:57:36","新北市淡水區樹梅坑9號","121.472738333333","25.1427166666667","6501000","淡水區"
"251015","182-VK","2018/11/24 16:57:49","新北市淡水區忠愛街6號","121.460738333333","25.171565","6501000","淡水區"
"251010","413-VK","2018/11/24 16:57:45","新北市淡水區中正路二段31號","121.419455","25.1814783333333","6501000","淡水區"
"251012","441-VK","2018/11/24 16:57:51","新北市淡水區沙崙路200號","121.42478","25.1840183333333","6501000","淡水區"
"251006","561-UM","2018/11/24 16:57:37","新北市淡水區中正路二段18號","121.420116666667","25.181105","6501000","淡水區"
"251007","577-R6","2018/11/24 16:57:39","新北市淡水區中正東路二段71號","121.459441666667","25.1544983333333","6501000","淡水區"
"251011","650-BX","2018/11/24 16:57:47","新北市淡水區中正東路71號","121.447255","25.1675283333333","6501000","淡水區"
"252002","178-VK","2018/11/24 16:57:43","新北市三芝區忠孝街175號","121.505355","25.2614616666667","6502100","三芝區"
"252001","292-VK","2018/11/24 16:57:43","新北市三芝區淡金路二段76-1號","121.503855","25.2608","6502100","三芝區"
"242056","751-BX","2018/11/24 16:57:45","新北市新莊區三和路12-21號","121.442048333333","25.0387066666667","6500500","新莊區"
"242044","566-BX","2018/11/24 16:57:37","新北市新莊區三和路12-21號","121.442243333333","25.0383583333333","6500500","新莊區"
"242048","497-BY","2018/11/24 16:57:42","新北市新莊區公園一路75巷13號","121.442701666667","25.0379616666667","6500500","新莊區"
"242053","441-UM","2018/11/24 16:57:43","新北市新莊區三和路12-21號","121.44222","25.037995","6500500","新莊區"
"242046","400-BY","2018/11/24 16:57:49","新北市新莊區新泰路357巷3弄57號","121.442165","25.0395316666667","6500500","新莊區"
"242061","353-BY","2018/11/24 16:57:48","新北市新莊區新泰路357巷3弄57號","121.442001666667","25.0392083333333","6500500","新莊區"
"242019","175-VK","2018/11/24 16:57:46","新北市新莊區三和路12-21號","121.442001666667","25.038685","6500500","新莊區"
"242017","346-TH","2018/11/24 16:57:53","新北市新莊區三和路12-21號","121.442171666667","25.0381416666667","6500500","新莊區"
"242015","351-TH","2018/11/24 16:57:37","新北市新莊區新泰路357巷3弄57號","121.442055","25.0395466666667","6500500","新莊區"
"238015","755-BX","2018/11/24 16:57:36","新北市樹林區育德街78-1號","121.387993333333","24.9680333333333","6500700","樹林區"
"238023","601-UM","2018/11/24 16:57:50","新北市樹林區八德街858號","121.391906666667","24.9685533333333","6500700","樹林區"
"238019","599-UM","2018/11/24 16:57:41","新北市樹林區育德街78號","121.387515","24.9684216666667","6500700","樹林區"
"238018","571-TV","2018/11/24 16:57:36","新北市樹林區八德街1022號","121.391121666667","24.9684683333333","6500700","樹林區"
"238017","283-BY","2018/11/24 16:57:49","新北市樹林區八德街1166號","121.390428333333","24.96833","6500700","樹林區"
"238014","282-BY","2018/11/24 16:57:41","新北市樹林區育德街76巷1號","121.388665","24.968105","6500700","樹林區"
"238020","268-VK","2018/11/24 16:57:39","新北市樹林區八德街1146號","121.390976666667","24.9684333333333","6500700","樹林區"
"239007","AAC-297","2018/11/24 16:57:41","新北市鶯歌區二甲路13-16號","121.34502","24.9351816666667","6500800","鶯歌區"
"239006","891-R6","2018/11/24 16:48:59","新北市鶯歌區二甲路171-1號","121.344081666667","24.9357466666667","6500800","鶯歌區"
"239008","527-UM","2018/11/24 16:57:17","新北市鶯歌區二甲路13-16號","121.345183333333","24.9353316666667","6500800","鶯歌區"
"239001","417-VK","2018/11/24 16:57:43","新北市鶯歌區二甲路12-2號","121.345511666667","24.9349183333333","6500800","鶯歌區"
"242042","281-VK","2018/11/24 16:57:42","新北市新莊區三和路12-21號","121.442191666667","25.0382766666667","6500500","新莊區"
"235061","KEA-2875","2018/11/24 16:54:35","新北市中和區員山路36巷16-2號","121.485355","24.99162","6500300","中和區"
