"lineid","car","time","location","longitude","latitude","cityid","cityname"
"234046","148-BY","2018/11/24 19:37:45","新北市永和區永利路125號","121.524098333333","25.0028516666667","6500400","永和區"
"234007","207-UY","2018/11/24 19:37:49","新北市中和區中和路438號","121.511813333333","25.003425","6500400","永和區"
"234081","298-R6","2018/11/24 19:37:50","新北市永和區環河東路三段52巷2弄2號","121.526561666667","25.00607","6500400","永和區"
"234038","336-UY","2018/11/24 19:37:50","新北市永和區成功路一段127號","121.526991666667","25.0018716666667","6500400","永和區"
"234064","337-UY","2018/11/24 19:37:53","新北市永和區秀朗路二段24巷43號","121.520023333333","25.0019316666667","6500400","永和區"
"234070","552-UM","2018/11/24 19:37:41","新北市永和區永和路二段233號","121.515588333333","25.0142733333333","6500400","永和區"
"234017","745-BX","2018/11/24 19:37:45","新北市永和區永和路二段425巷53號","121.513795","25.01732","6500400","永和區"
"234030","746-BX","2018/11/24 19:37:48","新北市永和區民生路39號","121.522961666667","24.9981216666667","6500400","永和區"
"234054","KEA-2590","2018/11/24 19:37:53","新北市永和區竹林路39巷14號","121.518488333333","25.0145566666667","6500400","永和區"
"234013","KEA-2591","2018/11/24 19:37:49","新北市永和區永平路208號","121.509568333333","25.0101616666667","6500400","永和區"
"234061","AAD-866","2018/11/24 19:37:44","新北市永和區中正路398號","121.517568333333","25.0016033333333","6500400","永和區"
"234086","748-BX","2018/11/24 19:37:45","新北市永和區永亨路151號","121.52566","25.0038816666667","6500400","永和區"
"234042","862-TW","2018/11/24 19:37:38","新北市永和區永貞路261號","121.512008333333","25.004675","6500400","永和區"
"234050","863-TW","2018/11/24 19:37:43","新北市永和區保安路69號","121.508993333333","25.0152966666667","6500400","永和區"
"234023","9372-KE","2018/11/24 19:37:46","新北市永和區竹林路91巷45號","121.52135","25.0128566666667","6500400","永和區"
"234026","9371-KE","2018/11/24 19:37:53","新北市永和區中和路501巷8號","121.510516666667","25.0026266666667","6500400","永和區"
"234011","9373-KE","2018/11/24 19:37:50","新北市永和區保生路55-1號","121.504528333333","25.01089","6500400","永和區"
"249004","303-UY","2018/11/24 19:37:39","新北市八里區中山路一段268巷57號","121.413921666667","25.1607966666667","6502300","八里區"
"249002","305-UY","2018/11/24 19:37:45","新北市八里區頂寮二街77號","121.450198333333","25.1253216666667","6502300","八里區"
"249003","593-UM","2018/11/24 19:37:45","新北市八里區中華路二段530號","121.399315","25.1457916666667","6502300","八里區"
"248016","026-BX","2018/11/24 19:37:42","新北市五股區成泰路四段22巷29號","121.455588333333","25.1082616666667","6501500","五股區"
"248008","095-VK","2018/11/24 19:37:50","新北市五股區四維路118巷10弄2號","121.468688333333","25.0743133333333","6501500","五股區"
"248020","225-UY","2018/11/24 19:37:54","新北市五股區中直路20-3號","121.425081666667","25.1118533333333","6501500","五股區"
"248012","247-BX","2018/11/24 19:37:44","新北市五股區成泰路二段63號","121.437986666667","25.0835483333333","6501500","五股區"
"248014","261-SL","2018/11/24 19:37:46","新北市五股區五福路102號","121.432475","25.0905333333333","6501500","五股區"
"248010","272-BY","2018/11/24 19:37:46","新北市五股區自強路103號","121.432295","25.07077","6501500","五股區"
"248004","677-BX","2018/11/24 19:37:51","新北市五股區中興路四段56號","121.437806666667","25.083105","6501500","五股區"
"248002","678-BX","2018/11/24 19:37:49","新北市五股區成泰路三段577巷85-1號","121.449468333333","25.1037983333333","6501500","五股區"
"234077","969-R7","2018/11/24 19:37:45","新北市永和區民族街67巷25號","121.51945","24.997145","6500400","永和區"
"234074","AAC-211","2018/11/24 19:37:44","新北市永和區福和路69號","121.522676666667","25.00795","6500400","永和區"
"234067","AAC-212","2018/11/24 19:37:50","新北市永和區中山路一段197號","121.509041666667","25.0087833333333","6500400","永和區"
"234003","AAC-295","2018/11/24 19:37:54","新北市永和區自由街35號","121.51423","25.006205","6500400","永和區"
"244023","069-UM","2018/11/24 19:37:53","新北市林口區文化北路二段8-1號","121.369898333333","25.0817766666667","6501700","林口區"
"243010","267-VK","2018/11/24 19:37:48","新北市泰山區民生路79號","121.431616666667","25.0517283333333","6501600","泰山區"
"243013","AAD-798","2018/11/24 19:37:46","新北市泰山區應化街7號","121.423875","25.043725","6501600","泰山區"
"243009","297-R6","2018/11/24 19:37:46","新北市泰山區美寧街60號","121.43097","25.0646283333333","6501600","泰山區"
"243016","KEA-2801","2018/11/24 19:37:46","新北市泰山區明志路三段452號","121.42099","25.0325533333333","6501600","泰山區"
"243015","421-VK","2018/11/24 19:37:43","新北市泰山區文程路18巷5號","121.428343333333","25.0489716666667","6501600","泰山區"
"243011","KEA-2215","2018/11/24 19:37:51","新北市泰山區貴子路61號","121.43029","25.0397333333333","6501600","泰山區"
"243012","646-TV","2018/11/24 19:37:48","新北市泰山區全興路258號","121.435773333333","25.0532216666667","6501600","泰山區"
"243014","680-BX","2018/11/24 19:37:49","新北市泰山區全興路157號","121.434136666667","25.056005","6501600","泰山區"
"222003","436-BY","2018/11/24 19:31:28","新北市深坑區深南路51-1號","121.621271666667","25.0098","6501800","深坑區"
"222002","659-BX","2018/11/24 19:37:45","新北市深坑區北深路一段177號","121.632526666667","25.010875","6501800","深坑區"
"231044","001-UM","2018/11/24 19:37:42","新北市新店區北新路三段93號","121.541233333333","24.9817366666667","6500600","新店區"
"231041","002-UM","2018/11/24 19:37:48","新北市新店區中正路500號","121.534185","24.9821266666667","6500600","新店區"
"231059","046-UY","2018/11/24 19:37:52","新北市新店區安和路三段123號","121.517405","24.98512","6500600","新店區"
"231040","047-UY","2018/11/24 19:37:37","新北市新店區北新路一段96巷23號","121.543051666667","24.96883","6500600","新店區"
"231046","107-UY","2018/11/24 19:37:50","新北市新店區中正路329巷1弄2號","121.535611666667","24.974885","6500600","新店區"
"231052","108-UY","2018/11/24 19:37:37","新北市新店區新烏路二段402號","121.55159","24.9090266666667","6500600","新店區"
"231048","187-VK","2018/11/24 19:37:39","新北市新店區五峰路63巷8弄44號","121.548011666667","24.96856","6500600","新店區"
"231057","256-BX","2018/11/24 19:37:42","新北市新店區橘園一路11號","121.547971666667","24.9340283333333","6500600","新店區"
"231042","268-BY","2018/11/24 19:37:37","新北市新店區檳榔路29巷12號","121.542328333333","24.96392","6500600","新店區"
"231051","278-BY","2018/11/24 19:37:41","新北市新店區中央四街24號","121.52896","24.9741783333333","6500600","新店區"
"231050","AAD-862","2018/11/24 19:37:55","新北市新店區郵政路30號","121.556318333333","24.9514183333333","6500600","新店區"
"231058","3713-VJ","2018/11/24 19:37:44","新北市新店區中正路76巷11弄24號","121.543745","24.9718966666667","6500600","新店區"
"231066","4716-K9","2018/11/24 19:37:42","新北市新店區安康路三段355巷1號","121.484331666667","24.9507816666667","6500600","新店區"
"231067","4772-VM","2018/11/24 19:37:42","新北市新店區安康路二段1-5號","121.517138333333","24.96386","6500600","新店區"
"231065","512-UM","2018/11/24 19:37:46","新北市新店區安祥路109巷51號","121.476943333333","24.9597233333333","6500600","新店區"
"231049","513-UM","2018/11/24 19:37:53","新北市新店區大豐路65號","121.539603333333","24.97958","6500600","新店區"
"231064","515-UM","2018/11/24 19:37:54","新北市新店區安和路一段51號","121.517576666667","24.965925","6500600","新店區"
"231063","616-UM","2018/11/24 19:37:47","新北市新店區達觀路41號","121.50269","24.9382933333333","6500600","新店區"
"231061","619-UM","2018/11/24 19:37:39","新北市新店區吉安街28號","121.516185","24.9660783333333","6500600","新店區"
"231054","719-UY","2018/11/24 19:37:56","新北市新店區北宜路一段41號","121.53832","24.95732","6500600","新店區"
"231062","720-UM","2018/11/24 19:37:41","新北市新店區合作路23號","121.532903333333","24.9576283333333","6500600","新店區"
"231060","897-TW","2018/11/24 19:37:37","新北市新店區安康路二段159巷2號","121.510225","24.9592516666667","6500600","新店區"
"231045","898-TW","2018/11/24 19:37:42","新北市新店區北宜路二段150-1號","121.557808333333","24.953955","6500600","新店區"
"231043","899-TW","2018/11/24 19:37:45","新北市新店區中正路175號","121.54089","24.9720966666667","6500600","新店區"
"231055","AKT-0513","2018/11/24 19:37:43","新北市新店區溪園路375號","121.523051666667","24.9797866666667","6500600","新店區"
"241011","013-R5","2018/11/24 19:37:45","新北市三重區秀江街162號","121.498221666667","25.0717433333333","6500200","三重區"
"241028","022-UY","2018/11/24 19:37:46","新北市三重區中正南路157號","121.493853333333","25.056125","6500200","三重區"
"241008","059-VK","2018/11/24 19:37:52","新北市三重區永福街135巷17號","121.478095","25.07704","6500200","三重區"
"241022","060-VK","2018/11/24 19:37:37","新北市三重區中正北路154號","121.484725","25.06582","6500200","三重區"
"241031","061-VK","2018/11/24 19:37:44","新北市三重區重新路四段248號","121.486038333333","25.0533916666667","6500200","三重區"
"241015","062-VK","2018/11/24 19:37:51","新北市三重區福德北路24號","121.502188333333","25.0647633333333","6500200","三重區"
"241017","063-VK","2018/11/24 19:37:48","新北市三重區大仁街20號","121.491586666667","25.0635233333333","6500200","三重區"
"241026","066-VK","2018/11/24 19:37:40","新北市三重區光興街43號","121.499413333333","25.0602166666667","6500200","三重區"
"241003","091-VK","2018/11/24 19:37:47","新北市三重區仁義街238號","121.49435","25.085435","6500200","三重區"
"251014","742-BX","2018/11/24 19:37:44","新北市淡水區桂竹圍4-2號","121.474428333333","25.23167","6501000","淡水區"
"241009","267-UM","2018/11/24 19:37:55","新北市三重區三和路四段400巷19號","121.480355","25.0793483333333","6500200","三重區"
"241032","269-UM","2018/11/24 19:37:49","新北市三重區三陽路58號","121.484208333333","25.0586683333333","6500200","三重區"
"241013","270-UM","2018/11/24 19:37:48","新北市三重區仁賢街6號","121.495741666667","25.0746166666667","6500200","三重區"
"241025","271-UM","2018/11/24 19:37:36","新北市三重區頂崁街140號","121.477723333333","25.0651383333333","6500200","三重區"
"241007","398-BY","2018/11/24 19:37:48","新北市三重區三和路四段125巷57號","121.486891666667","25.0783883333333","6500200","三重區"
"241035","KEA-2210","2018/11/24 19:37:51","新北市三重區長元西街31號","121.498128333333","25.06553","6500200","三重區"
"241030","480-VK","2018/11/24 19:37:49","新北市三重區新興路30-1號","121.491798333333","25.05303","6500200","三重區"
"241014","543-UM","2018/11/24 19:37:55","新北市三重區長榮路130號","121.503741666667","25.0694266666667","6500200","三重區"
"241023","545-UM","2018/11/24 19:37:47","新北市三重區忠孝路三段99巷21號","121.479466666667","25.0643516666667","6500200","三重區"
"241001","547-UM","2018/11/24 19:37:49","新北市三重區仁愛街315巷12號","121.493126666667","25.0796016666667","6500200","三重區"
"241019","KEA-2593","2018/11/24 19:37:52","新北市三重區六張街255巷5弄1號","121.487298333333","25.0684683333333","6500200","三重區"
"241006","AAD-863","2018/11/24 19:37:38","新北市三重區聯華街77號","121.485898333333","25.0753916666667","6500200","三重區"
"241020","743-BX","2018/11/24 19:29:52","新北市三重區三和路四段20巷22-1號","121.490238333333","25.0737883333333","6500200","三重區"
"241012","941-UM","2018/11/24 19:37:40","新北市三重區仁義街17號","121.500115","25.0757683333333","6500200","三重區"
"241029","942-UM","2018/11/24 19:37:44","新北市三重區同安街139號","121.493256666667","25.0560466666667","6500200","三重區"
"235066","003-UY","2018/11/24 19:37:38","新北市中和區南華路89號","121.50557","24.997535","6500300","中和區"
"235063","006-UY","2018/11/24 19:37:38","新北市中和區連城路263巷5弄2號","121.492145","24.9960466666667","6500300","中和區"
"235056","096-UM","2018/11/24 19:37:39","新北市中和區員山路581巷31弄13號","121.476936666667","25.0102766666667","6500300","中和區"
"235039","097-UM","2018/11/24 19:37:40","新北市中和區景平路148號","121.518301666667","24.9919916666667","6500300","中和區"
"235065","098-UM","2018/11/24 19:37:39","新北市中和區永和路9巷1號","121.499193333333","25.0039983333333","6500300","中和區"
"235058","151-BY","2018/11/24 19:37:36","新北市中和區員山路126號","121.481078333333","24.995995","6500300","中和區"
"235055","183-VK","2018/11/24 19:37:44","新北市中和區莒光路3巷6號","121.472458333333","25.0060083333333","6500300","中和區"
"235038","185-VK","2018/11/24 19:37:54","新北市中和區自立路139巷10號","121.522665","24.99381","6500300","中和區"
"235049","186-VK","2018/11/24 19:37:37","新北市中和區安平路13號","121.509151666667","24.994115","6500300","中和區"
"235067","255-BX","2018/11/24 19:37:58","新北市中和區新生街268號","121.483646666667","24.997155","6500300","中和區"
"235044","293-VK","2018/11/24 19:37:38","新北市中和區興南路一段160號","121.508271666667","24.9866583333333","6500300","中和區"
"235072","301-VK","2018/11/24 19:37:41","新北市中和區連城路265巷6弄5號","121.491228333333","24.9958683333333","6500300","中和區"
"235043","352-BY","2018/11/24 19:37:44","新北市中和區興南路一段9號","121.511398333333","24.9911","6500300","中和區"
"235042","KEA-2878","2018/11/24 19:37:43","新北市中和區保健路46巷22弄7號","121.508501666667","24.995935","6500300","中和區"
"235050","4979-A6","2018/11/24 19:37:38","新北市中和區員山路36巷13號","121.484296666667","24.991215","6500300","中和區"
"235070","558-UM","2018/11/24 19:37:42","新北市中和區連城路171巷41弄1號","121.496001666667","24.9964983333333","6500300","中和區"
"235045","565-BX","2018/11/24 19:37:48","新北市中和區景新街421號","121.512788333333","24.9892566666667","6500300","中和區"
"235054","640-BX","2018/11/24 19:37:38","新北市中和區民德路103號","121.46883","25.0009","6500300","中和區"
"235060","647-TV","2018/11/24 19:37:44","新北市中和區中山路二段481號","121.48291","25.0049533333333","6500300","中和區"
"235047","732-UM","2018/11/24 19:37:55","新北市中和區南山路283巷11號","121.504541666667","24.992605","6500300","中和區"
"235046","733-UM","2018/11/24 19:37:58","新北市中和區忠孝街92號","121.511678333333","24.984475","6500300","中和區"
"235071","783-BX","2018/11/24 19:37:41","新北市中和區中正路839巷29號","121.48355","25.00232","6500300","中和區"
"235057","801-TS","2018/11/24 19:37:48","新北市中和區員山路220號","121.48126","25.0009266666667","6500300","中和區"
"235041","802-TS","2018/11/24 19:37:37","新北市永和區中和路603號","121.512358333333","25.0041983333333","6500300","中和區"
"235052","805-TS","2018/11/24 19:37:44","新北市中和區華新街232巷33號","121.50563","24.9823733333333","6500300","中和區"
"235048","896-TW","2018/11/24 19:37:40","新北市中和區忠孝街1巷2-1號","121.509171666667","24.9830583333333","6500300","中和區"
"235053","900-TW","2018/11/24 19:37:51","新北市中和區國光街184巷13號","121.467216666667","25.0020833333333","6500300","中和區"
"235051","157-BY","2018/11/24 19:37:54","新北市中和區中興街132巷1號","121.499643333333","24.9921683333333","6500300","中和區"
"235037","AAC-213","2018/11/24 19:37:43","新北市中和區秀朗路三段22巷22號","121.525286666667","24.996235","6500300","中和區"
"235059","AAC-215","2018/11/24 19:37:48","新北市中和區錦和路197號","121.49072","24.9906083333333","6500300","中和區"
"220068","013-TV","2018/11/24 19:37:50","新北市板橋區三民路一段31巷2-4號","121.481916666667","25.0231833333333","6500100","板橋區"
"220065","072-UY","2018/11/24 19:37:39","新北市板橋區國泰街39巷2弄1號","121.46844","25.0063016666667","6500100","板橋區"
"220086","073-UY","2018/11/24 19:37:49","新北市板橋區西門街18-1號","121.454605","25.0112766666667","6500100","板橋區"
"220106","075-UY","2018/11/24 19:37:57","新北市板橋區文化路二段548巷27號","121.47678","25.0336933333333","6500100","板橋區"
"247008","336-TH","2018/11/24 19:37:44","新北市蘆洲區中山一路176號","121.474223333333","25.0811283333333","6501400","蘆洲區"
"247004","002-UY","2018/11/24 19:37:45","新北市蘆洲區長安街98巷21號","121.463028333333","25.0818883333333","6501400","蘆洲區"
"226004","312-R5","2018/11/24 19:37:49","新北市平溪區靜安路三段331號","121.779401666667","25.044585","6502400","平溪區"
"228003","097-TW","2018/11/24 19:37:38","新北市貢寮區真理里美艷山街63號","121.921198333333","25.0718233333333","6502600","貢寮區"
"228001","212-TW","2018/11/24 19:37:48","新北市貢寮區真理里延平街61號","121.924478333333","25.0556416666667","6502600","貢寮區"
"224010","AGQ-8101","2018/11/24 19:37:50","新北市瑞芳區基山街161號","121.843496666667","25.108145","6501200","瑞芳區"
"224006","676-BX","2018/11/24 19:37:53","新北市平溪區新寮里五分寮10-2號","121.800158333333","25.0762816666667","6501200","瑞芳區"
"227010","642-TC","2018/11/24 19:37:58","新北市雙溪區新基里新基北街22號","121.86723","25.0389","6502500","雙溪區"
"227002","400-TW","2018/11/24 19:37:56","新北市雙溪區雙溪里太平路33號","121.864558333333","25.0353916666667","6502500","雙溪區"
"253006","032-BX","2018/11/24 19:37:43","新北市石門區小坑9號","121.594243333333","25.2887383333333","6502200","石門區"
"222001","KEA-2212","2018/11/24 19:37:46","新北市深坑區深坑街148號","121.613051666667","25.001455","6501800","深坑區"
"208002","KEA-2872","2018/11/24 19:37:41","新北市金山區四維路23號","121.635085","25.2227883333333","6502700","金山區"
"208003","665-BX","2018/11/24 19:37:57","新北市金山區仁愛路1巷1號","121.638595","25.2200666666667","6502700","金山區"
"208001","761-BX","2018/11/24 19:37:50","新北市金山區六股里頂六股6號","121.611461666667","25.2218783333333","6502700","金山區"
"251009","008-UM","2018/11/24 19:37:52","新北市淡水區中山北路一段186巷13弄6號","121.445488333333","25.1790583333333","6501000","淡水區"
"251005","010-UM","2018/11/24 19:37:46","新北市淡水區原德路114號","121.443608333333","25.1739066666667","6501000","淡水區"
"251013","KEA-2871","2018/11/24 19:37:48","新北市淡水區頂田寮路143號","121.46129","25.2163916666667","6501000","淡水區"
"251016","179-VK","2018/11/24 19:37:46","新北市淡水區下圭柔山119-51號","121.450665","25.2085566666667","6501000","淡水區"
"251008","181-VK","2018/11/24 19:37:56","新北市淡水區中正路32巷1號","121.430995","25.1756933333333","6501000","淡水區"
"251015","182-VK","2018/11/24 19:37:49","新北市淡水區大埤頭1-3號","121.49239","25.1950783333333","6501000","淡水區"
"251010","413-VK","2018/11/24 19:37:45","新北市淡水區新市二路三段16號","121.430973333333","25.1943566666667","6501000","淡水區"
"251012","441-VK","2018/11/24 19:37:51","新北市淡水區中山北路三段164號","121.445713333333","25.19658","6501000","淡水區"
"251001","559-UM","2018/11/24 19:37:47","新北市淡水區民權路51號","121.459711666667","25.1390883333333","6501000","淡水區"
"251006","561-UM","2018/11/24 19:37:36","新北市淡水區中山北路一段207巷66號","121.441721666667","25.1792066666667","6501000","淡水區"
"251007","577-R6","2018/11/24 19:37:39","新北市淡水區坪頂路11號","121.455791666667","25.1603866666667","6501000","淡水區"
"251011","650-BX","2018/11/24 19:37:54","新北市淡水區八勢路20號","121.460878333333","25.1536316666667","6501000","淡水區"
"207003","550-UM","2018/11/24 19:37:56","新北市萬里區大鵬里下社27號","121.648968333333","25.2172033333333","6502800","萬里區"
"207004","225-TW","2018/11/24 19:37:55","新北市萬里區萬里里瑪鋉路53號","121.68793","25.1761166666667","6502800","萬里區"
"252002","178-VK","2018/11/24 19:37:42","新北市三芝區中正路一段18巷34-1號","121.50386","25.25922","6502100","三芝區"
"252001","292-VK","2018/11/24 19:37:43","新北市三芝區公正街66號","121.49978","25.257445","6502100","三芝區"
"237004","KEA-2597","2018/11/24 19:37:40","新北市三峽區有木314號","121.423086666667","24.8625816666667","6500900","三峽區"
"237007","153-BY","2018/11/24 19:37:43","新北市三峽區二鬮路83號","121.359451666667","24.9069616666667","6500900","三峽區"
"237009","210-TH","2018/11/24 19:37:45","新北市三峽區中園街109號","121.367741666667","24.9245633333333","6500900","三峽區"
"237013","252-BX","2018/11/24 19:37:47","新北市三峽區介壽路二段134號","121.393798333333","24.935785","6500900","三峽區"
"237012","275-BY","2018/11/24 19:37:51","新北市三峽區光明路30號","121.373641666667","24.930735","6500900","三峽區"
"237008","302-VK","2018/11/24 19:37:37","新北市三峽區大同路147巷9號","121.371141666667","24.9264383333333","6500900","三峽區"
"237014","433-BY","2018/11/24 19:37:54","新北市三峽區添福141號","121.375278333333","24.9009816666667","6500900","三峽區"
"237006","5529-G3","2018/11/24 19:37:47","新北市三峽區中正路一段336巷15弄2號","121.36993","24.9249616666667","6500900","三峽區"
"237011","KEA-2596","2018/11/24 19:37:39","新北市三峽區中正路一段474-4號","121.370433333333","24.92122","6500900","三峽區"
"237016","649-BX","2018/11/24 19:37:42","新北市三峽區溪東路235號","121.40657","24.9326966666667","6500900","三峽區"
"236070","105-UM","2018/11/24 19:37:42","新北市土城區金城路2段39巷3-1號","121.44872","24.9783916666667","6501300","土城區"
"236042","KED-0685","2018/11/24 19:37:56","新北市土城區學士路20號","121.453338333333","24.9827583333333","6501300","土城區"
"236079","166-UM","2018/11/24 19:37:49","新北市土城區中州路27巷81號","121.412618333333","24.9563316666667","6501300","土城區"
"236030","253-BX","2018/11/24 19:37:55","新北市土城區福祥街14號","121.440838333333","24.9797533333333","6501300","土城區"
"236026","269-VK","2018/11/24 19:37:43","新北市土城區中央路二段61巷22號","121.443238333333","24.9787283333333","6501300","土城區"
"236038","271-VK","2018/11/24 19:37:51","新北市土城區青雲路257巷2號","121.45936","24.9807866666667","6501300","土城區"
"236059","912-UM","2018/11/24 19:37:39","新北市土城區中央路二段63號","121.442685","24.978925","6501300","土城區"
"236049","913-UM","2018/11/24 19:37:48","新北市土城區明德路一段69巷3號","121.465561666667","24.9838683333333","6501300","土城區"
"236063","915-UM","2018/11/24 19:37:50","新北市土城區延平街33巷1號","121.467811666667","24.9917083333333","6501300","土城區"
"236055","970-R7","2018/11/24 19:37:52","新北市土城區學府路一段83號","121.456558333333","24.9880916666667","6501300","土城區"
"242056","751-BX","2018/11/24 19:37:42","新北市新莊區瓊林路34號","121.448725","25.031065","6500500","新莊區"
"242027","615-BX","2018/11/24 19:37:54","新北市新莊區新泰路357巷3弄57號","121.441933333333","25.039245","6500500","新莊區"
"242048","497-BY","2018/11/24 19:37:52","新北市新莊區民安路37巷10號","121.424211666667","25.02692","6500500","新莊區"
"242023","362-BY","2018/11/24 19:37:42","新北市新莊區中港路279號","121.453373333333","25.0437483333333","6500500","新莊區"
"242034","135-UY","2018/11/24 19:37:42","新北市新莊區仁愛街26號","121.444248333333","25.0360616666667","6500500","新莊區"
"242013","173-VK","2018/11/24 19:37:55","新北市新莊區中泰街104巷4號","121.448931666667","25.0468483333333","6500500","新莊區"
"242007","176-VK","2018/11/24 19:37:39","新北市新莊區思源路593巷30號","121.457695","25.0597633333333","6500500","新莊區"
"242031","348-TH","2018/11/24 19:37:57","新北市新莊區新泰路206號","121.446851666667","25.0385883333333","6500500","新莊區"
"242004","349-TH","2018/11/24 19:37:46","新北市新莊區化成路29巷46號","121.46336","25.0440566666667","6500500","新莊區"
"242021","350-TH","2018/11/24 19:37:40","新北市新莊區三和路12-10號","121.44232","25.036795","6500500","新莊區"
"242015","351-TH","2018/11/24 19:37:37","新北市新莊區中平路82巷36-2號","121.44651","25.044845","6500500","新莊區"
"238015","755-BX","2018/11/24 19:37:42","新北市樹林區中興街20-4號","121.420853333333","24.990175","6500700","樹林區"
"238023","601-UM","2018/11/24 19:37:49","新北市樹林區中正路755號","121.410501666667","25.0152766666667","6500700","樹林區"
"238019","599-UM","2018/11/24 19:37:41","新北市樹林區大同街15號","121.418415","24.982695","6500700","樹林區"
"238024","5061-A6","2018/11/24 19:37:41","新北市樹林區佳園路一段72巷15號","121.391816666667","24.969615","6500700","樹林區"
"238022","KEA-2213","2018/11/24 19:37:52","新北市樹林區名園街45號","121.419813333333","24.9786733333333","6500700","樹林區"
"238021","KEA-2539","2018/11/24 19:37:40","新北市樹林區佳園路三段149號","121.385733333333","24.9492116666667","6500700","樹林區"
"238025","303-VK","2018/11/24 19:37:46","新北市樹林區中山路一段213號","121.420913333333","24.987085","6500700","樹林區"
"238017","283-BY","2018/11/24 19:37:48","新北市樹林區光興街11巷1號","121.412348333333","25.0028566666667","6500700","樹林區"
"238014","282-BY","2018/11/24 19:37:41","新北市樹林區千歲街26-10號","121.425451666667","24.99604","6500700","樹林區"
"238020","268-VK","2018/11/24 19:37:39","新北市板橋區大觀路三段85巷55號","121.435138333333","24.9935866666667","6500700","樹林區"
"238026","172-UY","2018/11/24 19:37:49","新北市樹林區佳園路二段49號","121.391565","24.96234","6500700","樹林區"
"238016","169-UY","2018/11/24 19:37:46","新北市樹林區東和街40-3號","121.400646666667","24.983275","6500700","樹林區"
"239007","AAC-297","2018/11/24 19:37:41","新北市鶯歌區大湖路326巷45號","121.34643","24.9696383333333","6500800","鶯歌區"
"239006","891-R6","2018/11/24 19:37:40","新北市鶯歌區文化路73號","121.357886666667","24.9559983333333","6500800","鶯歌區"
"221008","489-VK","2018/11/24 19:37:44","新北市汐止區康寧街61巷51號","121.619796666667","25.06767","6501100","汐止區"
"221036","130-UY","2018/11/24 19:37:39","新北市汐止區康寧街901號","121.65165","25.0749716666667","6501100","汐止區"
"221015","131-UY","2018/11/24 19:37:39","新北市汐止區康寧街901號","121.651631666667","25.0749283333333","6501100","汐止區"
"221010","269-BY","2018/11/24 19:37:49","新北市汐止區汐萬路二段9號","121.649496666667","25.0805283333333","6501100","汐止區"
"221012","278-VK","2018/11/24 19:37:43","新北市汐止區大同路三段334號","121.679488333333","25.0709216666667","6501100","汐止區"
"221023","279-VK","2018/11/24 19:37:49","新北市汐止區中興路284號","121.628356666667","25.0694916666667","6501100","汐止區"
"221032","280-BY","2018/11/24 19:37:41","新北市汐止區光復街7巷1號","121.639578333333","25.0584833333333","6501100","汐止區"
"221027","281-BY","2018/11/24 19:37:50","新北市汐止區忠孝東路9號","121.658283333333","25.065925","6501100","汐止區"
"221029","298-VK","2018/11/24 19:37:39","新北市汐止區康寧街901號","121.651348333333","25.07496","6501100","汐止區"
"221021","299-VK","2018/11/24 19:37:47","新北市汐止區汐萬路一段244-1號","121.651313333333","25.0735616666667","6501100","汐止區"
"221031","353-TW","2018/11/24 19:37:44","新北市汐止區康寧街901號","121.651723333333","25.0749133333333","6501100","汐止區"
"221025","623-UM","2018/11/24 19:37:36","新北市汐止區福安街20巷1號","121.662576666667","25.0649583333333","6501100","汐止區"
"221038","646-BX","2018/11/24 19:37:40","新北市汐止區忠孝東路243號","121.662806666667","25.0674233333333","6501100","汐止區"
"221033","647-BX","2018/11/24 19:37:37","新北市汐止區南勢街3號","121.627073333333","25.0374083333333","6501100","汐止區"
"221002","707-TV","2018/11/24 19:37:43","新北市汐止區大同路一段219巷27號","121.633208333333","25.0584316666667","6501100","汐止區"
"220079","145-BY","2018/11/24 19:37:53","新北市板橋區建國街109號","121.460201666667","25.01755","6500100","板橋區"
"220080","200-UY","2018/11/24 19:37:37","新北市板橋區大觀路二段37巷208號","121.449413333333","25.00113","6500100","板橋區"
"220082","610-BX","2018/11/24 19:37:45","新北市板橋區大觀路三段160巷36號","121.429935","24.994045","6500100","板橋區"
"220101","245-BX","2018/11/24 19:37:42","新北市板橋區莒光路196巷28號","121.472901666667","25.022555","6500100","板橋區"
"224002","257-TC","2018/11/24 19:37:37","新北市瑞芳區三爪子坑路13巷67號","121.814336666667","25.1065516666667","6501200","瑞芳區"
"220056","276-BY","2018/11/24 19:37:45","新北市板橋區四川路二段47巷1弄2號","121.454148333333","24.9948883333333","6500100","板橋區"
"220072","277-BY","2018/11/24 19:37:52","新北市板橋區金門街215巷85弄5號","121.43395","24.9890166666667","6500100","板橋區"
"220064","282-UM","2018/11/24 19:37:51","新北市板橋區中山路一段104號","121.462798333333","25.010595","6500100","板橋區"
"220071","283-VK","2018/11/24 19:37:52","新北市板橋區信義路192號","121.459713333333","24.9911616666667","6500100","板橋區"
"220094","285-UM","2018/11/24 19:37:39","新北市板橋區銘傳街78號","121.469126666667","25.0313683333333","6500100","板橋區"
"220083","286-VK","2018/11/24 19:37:47","新北市板橋區龍興街71巷31號","121.442505","25.0023066666667","6500100","板橋區"
"220081","287-VK","2018/11/24 19:37:47","新北市板橋區大觀路一段29巷183號","121.448215","25.0048633333333","6500100","板橋區"
"220090","288-VK","2018/11/24 19:37:57","新北市板橋區裕民街58號","121.461366666667","25.0286316666667","6500100","板橋區"
"220061","295-UM","2018/11/24 19:37:53","新北市板橋區中山路一段265巷36弄2號","121.469143333333","25.0151033333333","6500100","板橋區"
"220084","296-UM","2018/11/24 19:37:40","新北市板橋區滿平二街2巷1弄18號","121.424965","24.98676","6500100","板橋區"
"220053","299-UM","2018/11/24 19:37:43","新北市板橋區中山路二段148巷22號","121.477091666667","25.0163866666667","6500100","板橋區"
"220075","303-R5","2018/11/24 19:37:55","新北市板橋區大勇街12號","121.454698333333","25.0173166666667","6500100","板橋區"
"220062","305-R5","2018/11/24 19:37:53","新北市板橋區三民路二段31號","121.479378333333","25.0178483333333","6500100","板橋區"
"220092","307-R5","2018/11/24 19:37:41","新北市板橋區文化路一段387巷9號","121.46645","25.02191","6500100","板橋區"
"220098","317-R6","2018/11/24 19:37:44","新北市板橋區四維路269巷46-2號","121.461411666667","25.0275233333333","6500100","板橋區"
"220089","487-VK","2018/11/24 19:37:54","新北市板橋區英士路7號","121.462191666667","25.025345","6500100","板橋區"
"220035","560-BX","2018/11/24 19:37:41","新北市板橋區金華街85巷42號","121.45916","25.0213516666667","6500100","板橋區"
"220103","561-BX","2018/11/24 19:37:40","新北市板橋區文化路一段280-3號","121.467368333333","25.0214116666667","6500100","板橋區"
"220069","568-UM","2018/11/24 19:37:47","新北市板橋區貴興路119巷1弄1號","121.455745","25.0021933333333","6500100","板橋區"
"220063","609-BX","2018/11/24 19:37:40","新北市板橋區中山路二段385號","121.480171666667","25.01931","6500100","板橋區"
"220055","630-UY","2018/11/24 19:37:46","新北市板橋區國慶路149巷13弄2號","121.460861666667","24.9971566666667","6500100","板橋區"
"220091","637-BX","2018/11/24 19:37:55","新北市板橋區懷德街139巷20弄10號","121.480173333333","25.0305716666667","6500100","板橋區"
"220057","686-BX","2018/11/24 19:37:45","新北市板橋區和平路安樂巷35號","121.461793333333","24.9933283333333","6500100","板橋區"
"220077","687-BX","2018/11/24 19:37:41","新北市板橋區僑中三街39號","121.445196666667","25.0043433333333","6500100","板橋區"
"220093","689-BX","2018/11/24 19:37:44","新北市板橋區長江路一段135號","121.460595","25.030185","6500100","板橋區"
"220054","741-BX","2018/11/24 19:37:50","新北市板橋區忠孝路忠義巷15弄92-2號","121.465411666667","25.0055883333333","6500100","板橋區"
"220067","829-TW","2018/11/24 19:37:50","新北市板橋區漢生東路193巷57號","121.471738333333","25.0116583333333","6500100","板橋區"
"220102","830-TW","2018/11/24 19:37:44","新北市板橋區松柏街36巷8-1號","121.475268333333","25.029735","6500100","板橋區"
"220096","831-TW","2018/11/24 19:37:38","新北市板橋區文化路二段2號","121.468903333333","25.0238516666667","6500100","板橋區"
"220088","833-TW","2018/11/24 19:37:49","新北市板橋區文化路二段446號","121.474666666667","25.0323666666667","6500100","板橋區"
"220074","895-R6","2018/11/24 19:37:52","新北市板橋區文化路一段34號","121.459395","25.0117466666667","6500100","板橋區"
"220073","985-R7","2018/11/24 19:37:50","新北市板橋區國光路49巷15號","121.45886","25.01875","6500100","板橋區"
"220097","AAC-210","2018/11/24 19:37:50","新北市板橋區幸福路36號","121.461605","25.0202333333333","6500100","板橋區"
"220070","AAC-253","2018/11/24 19:37:53","新北市板橋區民族路199號","121.468963333333","25.007475","6500100","板橋區"
"235068","KEA-2873","2018/11/24 19:37:37","新北市中和區中和路55號","121.500578333333","25.0014616666667","6500300","中和區"
"235061","KEA-2875","2018/11/24 19:37:47","新北市中和區民安街2巷29號","121.480105","25.00157","6500300","中和區"
"235064","KEA-2876","2018/11/24 19:37:47","新北市中和區南華路57號","121.504298333333","24.9969316666667","6500300","中和區"
