"lineid","car","time","location","longitude","latitude","cityid","cityname"
"234046","148-BY","2018/11/24 19:57:45","新北市永和區成功路一段30號","121.527071666667","25.0047016666667","6500400","永和區"
"234007","207-UY","2018/11/24 19:57:40","新北市永和區保生路22巷17號","121.507108333333","25.008105","6500400","永和區"
"234081","298-R6","2018/11/24 19:57:30","新北市永和區永亨路112號","121.523696666667","25.0044166666667","6500400","永和區"
"234038","336-UY","2018/11/24 19:57:43","新北市永和區成功路二段123號","121.526683333333","24.9984083333333","6500400","永和區"
"234064","337-UY","2018/11/24 19:57:33","新北市永和區中正路412巷20弄32號","121.519141666667","25.0012233333333","6500400","永和區"
"234070","552-UM","2018/11/24 19:57:41","新北市永和區國光路6號","121.519723333333","25.008505","6500400","永和區"
"234017","745-BX","2018/11/24 19:57:45","新北市永和區文化路72號","121.514245","25.0151183333333","6500400","永和區"
"234030","746-BX","2018/11/24 19:57:48","新北市永和區民生路67巷8號","121.523043333333","24.9971983333333","6500400","永和區"
"234054","KEA-2590","2018/11/24 19:57:46","新北市永和區環河東路一段122號","121.520675","25.0156516666667","6500400","永和區"
"234013","KEA-2591","2018/11/24 19:57:29","新北市永和區保生路55號","121.504715","25.010595","6500400","永和區"
"234061","AAD-866","2018/11/24 19:57:44","新北市永和區得和路76號","121.516405","24.999955","6500400","永和區"
"234086","748-BX","2018/11/24 19:57:45","新北市永和區福和路196號","121.520001666667","25.0077733333333","6500400","永和區"
"234042","862-TW","2018/11/24 19:57:38","新北市永和區中和路335巷18弄15號","121.507856666667","25.0004233333333","6500400","永和區"
"234050","863-TW","2018/11/24 19:57:40","新北市永和區保安路222號","121.507205","25.0135233333333","6500400","永和區"
"234026","9371-KE","2018/11/24 19:57:33","新北市永和區水源街27巷1號","121.511168333333","25.0042933333333","6500400","永和區"
"234011","9373-KE","2018/11/24 19:57:35","新北市永和區仁愛路352巷106號","121.5007","25.0081166666667","6500400","永和區"
"249005","172-UM","2018/11/24 19:57:32","新北市八里區楓林路4號","121.381653333333","25.1297083333333","6502300","八里區"
"249004","303-UY","2018/11/24 19:57:39","新北市八里區中山路一段217巷62號","121.411811666667","25.157435","6502300","八里區"
"249002","305-UY","2018/11/24 19:57:45","新北市八里區頂寮一街48號","121.450561666667","25.12412","6502300","八里區"
"249003","593-UM","2018/11/24 19:57:46","新北市八里區中華路二段560巷3號","121.398655","25.145075","6502300","八里區"
"248016","026-BX","2018/11/24 19:57:42","新北市五股區成泰路三段577巷80弄69號","121.449745","25.10515","6501500","五股區"
"248008","095-VK","2018/11/24 19:57:30","新北市五股區四維路30巷29號","121.46855","25.0714833333333","6501500","五股區"
"248020","225-UY","2018/11/24 19:57:45","新北市五股區中直路26-1號","121.426198333333","25.1113766666667","6501500","五股區"
"248012","247-BX","2018/11/24 19:57:44","新北市五股區民義路一段112-10號","121.435361666667","25.0852233333333","6501500","五股區"
"248014","261-SL","2018/11/24 19:57:27","新北市五股區五福路14巷4號","121.434618333333","25.08867","6501500","五股區"
"248010","272-BY","2018/11/24 19:57:43","新北市五股區登林路36-2號","121.432373333333","25.0686933333333","6501500","五股區"
"248004","677-BX","2018/11/24 19:57:32","新北市五股區成泰路一段32巷62號","121.434988333333","25.066975","6501500","五股區"
"248002","678-BX","2018/11/24 19:56:45","新北市五股區成泰路三段625-2號","121.452723333333","25.1042633333333","6501500","五股區"
"234077","969-R7","2018/11/24 19:57:45","新北市永和區民有街21巷2號","121.516736666667","24.9964383333333","6500400","永和區"
"234074","AAC-211","2018/11/24 19:57:44","新北市永和區豫溪街207巷1號","121.52352","25.0099166666667","6500400","永和區"
"234067","AAC-212","2018/11/24 19:57:30","新北市永和區中山路一段230號","121.507996666667","25.0080983333333","6500400","永和區"
"234003","AAC-295","2018/11/24 19:57:34","新北市永和區永和路二段3號","121.514425","25.009915","6500400","永和區"
"243010","267-VK","2018/11/24 19:57:47","新北市泰山區中華街10巷1號","121.427903333333","25.0525016666667","6501600","泰山區"
"243013","AAD-798","2018/11/24 19:38:25","新北市泰山區應化街7號","121.423875","25.043725","6501600","泰山區"
"243009","297-R6","2018/11/24 19:57:46","新北市泰山區楓江路16巷13號","121.43398","25.06178","6501600","泰山區"
"243016","KEA-2801","2018/11/24 19:57:46","新北市泰山區貴陽街4號","121.421501666667","25.03324","6501600","泰山區"
"243015","421-VK","2018/11/24 19:57:43","新北市泰山區明志路二段194號","121.427246666667","25.04964","6501600","泰山區"
"243011","KEA-2215","2018/11/24 19:57:31","新北市泰山區明志路三段196巷39號","121.421751666667","25.0398433333333","6501600","泰山區"
"243012","646-TV","2018/11/24 19:57:28","新北市泰山區福興三街193號","121.433408333333","25.057345","6501600","泰山區"
"243014","680-BX","2018/11/24 19:57:42","新北市泰山區泰林路二段121號","121.4343","25.0596316666667","6501600","泰山區"
"222003","436-BY","2018/11/24 19:57:42","新北市深坑區埔新街14號","121.620766666667","25.00393","6501800","深坑區"
"222002","659-BX","2018/11/24 19:57:45","新北市深坑區北深路二段55巷12弄12號","121.618658333333","25.003305","6501800","深坑區"
"231044","001-UM","2018/11/24 19:57:42","新北市新店區復興路27號","121.538996666667","24.9867133333333","6500600","新店區"
"231041","002-UM","2018/11/24 19:57:39","新北市新店區中正路351號","121.535256666667","24.9759366666667","6500600","新店區"
"231059","046-UY","2018/11/24 19:57:32","新北市新店區安和路一段45號","121.517416666667","24.9657233333333","6500600","新店區"
"231040","047-UY","2018/11/24 19:57:37","新北市新店區中正路100號","121.54335","24.9704733333333","6500600","新店區"
"231046","107-UY","2018/11/24 19:57:48","新北市新店區中央路133巷27弄46號","121.532693333333","24.974325","6500600","新店區"
"231052","108-UY","2018/11/24 19:57:37","新北市新店區新烏路三段寶島巷2弄3號","121.55202","24.8986183333333","6500600","新店區"
"231048","187-VK","2018/11/24 19:57:19","新北市新店區寶興路47號","121.549188333333","24.9734466666667","6500600","新店區"
"231057","256-BX","2018/11/24 19:57:42","新北市新店區花園二路一段11號","121.555498333333","24.9325416666667","6500600","新店區"
"231042","268-BY","2018/11/24 19:57:37","新北市新店區中興路一段280號","121.545476666667","24.9684083333333","6500600","新店區"
"231051","278-BY","2018/11/24 19:57:41","新北市新店區中央一街6號","121.528901666667","24.97277","6500600","新店區"
"231050","AAD-862","2018/11/24 19:57:35","新北市新店區北宜路二段417號","121.560135","24.9544533333333","6500600","新店區"
"231066","4716-K9","2018/11/24 19:57:42","新北市新店區安康路二段341巷5號","121.49693","24.95487","6500600","新店區"
"231056","4715-K9","2018/11/24 19:57:41","新北市新店區北新路二段173號","121.54289","24.9766816666667","6500600","新店區"
"231067","4772-VM","2018/11/24 19:57:42","新北市新店區秀山路11巷12弄15號","121.53142","24.959575","6500600","新店區"
"231065","512-UM","2018/11/24 19:57:46","新北市新店區安祥路108巷3號","121.475101666667","24.9587366666667","6500600","新店區"
"231049","513-UM","2018/11/24 19:57:33","新北市新店區建國路156號","121.5386","24.9792916666667","6500600","新店區"
"231064","515-UM","2018/11/24 19:57:34","新北市新店區安和路二段77號","121.518306666667","24.9688066666667","6500600","新店區"
"231063","616-UM","2018/11/24 19:57:47","新北市新店區車子路11號","121.50304","24.95199","6500600","新店區"
"231061","619-UM","2018/11/24 19:57:39","新北市新店區安民街333號","121.517298333333","24.9747633333333","6500600","新店區"
"231068","718-UY","2018/11/24 19:57:28","新北市新店區安一路一段1-1號","121.519601666667","24.9616366666667","6500600","新店區"
"231054","719-UY","2018/11/24 19:57:36","新北市新店區光明街96巷3號","121.539491666667","24.960015","6500600","新店區"
"231062","720-UM","2018/11/24 19:57:36","新北市新店區華城路36巷1-1號","121.528088333333","24.9554216666667","6500600","新店區"
"231060","897-TW","2018/11/24 19:57:37","新北市新店區安康路三段29號","121.493078333333","24.9529783333333","6500600","新店區"
"231045","898-TW","2018/11/24 19:57:42","新北市新店區北宜路二段150-2號","121.557985","24.9540383333333","6500600","新店區"
"231043","899-TW","2018/11/24 19:57:45","新北市新店區中正路263-4號","121.538226666667","24.9737566666667","6500600","新店區"
"231055","AKT-0513","2018/11/24 19:57:43","新北市新店區中華路83巷47號","121.538581666667","24.9676716666667","6500600","新店區"
"241011","013-R5","2018/11/24 19:57:45","新北市三重區三和路二段206號","121.498168333333","25.069275","6500200","三重區"
"241028","022-UY","2018/11/24 19:57:46","新北市三重區中正北路9號","121.492848333333","25.0613633333333","6500200","三重區"
"241008","059-VK","2018/11/24 19:57:32","新北市三重區永福街122-2號","121.479123333333","25.07503","6500200","三重區"
"241022","060-VK","2018/11/24 19:57:37","新北市三重區過圳街31巷2號","121.489273333333","25.0605066666667","6500200","三重區"
"241031","061-VK","2018/11/24 19:57:44","新北市三重區重新路四段144巷30號","121.487105","25.055195","6500200","三重區"
"241015","062-VK","2018/11/24 19:57:36","新北市三重區三和路二段2-2號","121.501425","25.066575","6500200","三重區"
"241017","063-VK","2018/11/24 19:57:28","新北市三重區自強路一段306號","121.49135","25.0684216666667","6500200","三重區"
"241024","065-VK","2018/11/24 19:57:48","新北市三重區大勇街55號","121.481075","25.0716816666667","6500200","三重區"
"241026","066-VK","2018/11/24 19:57:40","新北市三重區中央南路27號","121.501283333333","25.06225","6500200","三重區"
"241003","091-VK","2018/11/24 19:57:47","新北市三重區仁愛街435號","121.49015","25.0820366666667","6500200","三重區"
"251014","742-BX","2018/11/24 19:57:44","新北市淡水區石頭厝14-53號","121.464161666667","25.236675","6501000","淡水區"
"241005","262-UM","2018/11/24 19:57:30","新北市三重區溪尾街325巷40弄1號","121.488758333333","25.0832783333333","6500200","三重區"
"241016","265-UM","2018/11/24 19:57:45","新北市三重區正義北路46號","121.497226666667","25.0637316666667","6500200","三重區"
"241009","267-UM","2018/11/24 19:57:48","新北市三重區三和路四段392號","121.481851666667","25.0791866666667","6500200","三重區"
"241018","268-UM","2018/11/24 19:57:38","新北市三重區正義北路244巷84號","121.493748333333","25.0675933333333","6500200","三重區"
"241032","269-UM","2018/11/24 19:57:29","新北市三重區朝陽街25號","121.483613333333","25.056555","6500200","三重區"
"241013","270-UM","2018/11/24 19:57:28","新北市三重區三和路三段125巷40號","121.493956666667","25.07376","6500200","三重區"
"241025","271-UM","2018/11/24 19:57:16","新北市三重區頂崁街210巷16號","121.476488333333","25.067785","6500200","三重區"
"241007","398-BY","2018/11/24 19:57:28","新北市三重區慈愛街64號","121.48701","25.079525","6500200","三重區"
"241035","KEA-2210","2018/11/24 19:57:31","新北市三重區大榮街9號","121.498131666667","25.0632483333333","6500200","三重區"
"241004","475-VK","2018/11/24 19:57:42","新北市三重區五華街74號","121.493406666667","25.082035","6500200","三重區"
"241030","480-VK","2018/11/24 19:57:49","新北市三重區重新路四段248號","121.486113333333","25.0534216666667","6500200","三重區"
"241014","543-UM","2018/11/24 19:57:35","新北市三重區三和路二段109號","121.499283333333","25.06874","6500200","三重區"
"241023","545-UM","2018/11/24 19:57:47","新北市三重區頂崁街172號","121.477576666667","25.0659083333333","6500200","三重區"
"241001","547-UM","2018/11/24 19:57:49","新北市三重區仁愛街269巷20號","121.493706666667","25.0791666666667","6500200","三重區"
"241019","KEA-2593","2018/11/24 19:57:31","新北市三重區重陽路四段40號","121.49137","25.0699766666667","6500200","三重區"
"241006","AAD-863","2018/11/24 19:57:38","新北市三重區力行路二段138-1號","121.482366666667","25.07568","6500200","三重區"
"241020","743-BX","2018/11/24 19:44:32","新北市三重區後竹圍街10號","121.49161","25.0736383333333","6500200","三重區"
"241012","941-UM","2018/11/24 19:57:40","新北市三重區仁厚街62號","121.500476666667","25.0766366666667","6500200","三重區"
"241029","942-UM","2018/11/24 19:57:44","新北市三重區重安街1號","121.490038333333","25.058265","6500200","三重區"
"235066","003-UY","2018/11/24 19:57:38","新北市中和區中山路二段47號","121.50436","25.0049133333333","6500300","中和區"
"235056","096-UM","2018/11/24 19:57:39","新北市中和區中山路三段170巷6弄23號","121.473275","25.0074233333333","6500300","中和區"
"235039","097-UM","2018/11/24 19:57:40","新北市中和區景平路278巷6號","121.513925","24.9927216666667","6500300","中和區"
"235065","098-UM","2018/11/24 19:57:39","新北市中和區福美路240號","121.498808333333","25.005265","6500300","中和區"
"235058","151-BY","2018/11/24 19:57:36","新北市中和區員山路150巷2弄23號","121.481776666667","24.99776","6500300","中和區"
"235055","183-VK","2018/11/24 19:57:44","新北市中和區民生街23巷1弄2號","121.470885","25.005325","6500300","中和區"
"235038","185-VK","2018/11/24 19:57:34","新北市中和區自強路60號","121.520033333333","24.9944116666667","6500300","中和區"
"235049","186-VK","2018/11/24 19:57:37","新北市中和區景平路546號","121.50234","24.9947383333333","6500300","中和區"
"235067","255-BX","2018/11/24 19:57:38","新北市中和區新生街132號","121.48357","25.0010516666667","6500300","中和區"
"235044","293-VK","2018/11/24 19:57:38","新北市中和區板南路132號","121.502351666667","24.9925383333333","6500300","中和區"
"235043","352-BY","2018/11/24 19:57:35","新北市中和區興南路二段159巷18號","121.505263333333","24.982965","6500300","中和區"
"235042","KEA-2878","2018/11/24 19:57:43","新北市新店區環河路550號","121.526218333333","24.9843066666667","6500300","中和區"
"247012","KEA-2869","2018/11/24 19:57:37","新北市蘆洲區民族路151號","121.479585","25.08796","6501400","蘆洲區"
"235050","4979-A6","2018/11/24 19:57:38","新北市中和區景平路183號","121.511793333333","24.992505","6500300","中和區"
"235069","4980-A6","2018/11/24 19:57:48","新北市中和區圓通路152-2號","121.497916666667","24.9957583333333","6500300","中和區"
"235070","558-UM","2018/11/24 19:57:42","新北市中和區中正路406號","121.492473333333","24.9941816666667","6500300","中和區"
"235054","640-BX","2018/11/24 19:57:38","新北市中和區莒光路11號","121.471986666667","25.005775","6500300","中和區"
"235047","732-UM","2018/11/24 19:57:35","新北市中和區和平街88號","121.507456666667","24.9912016666667","6500300","中和區"
"235046","733-UM","2018/11/24 19:57:37","新北市中和區興南路一段93巷85號","121.510585","24.9862883333333","6500300","中和區"
"235041","802-TS","2018/11/24 19:57:37","新北市中和區安平路128號","121.512091666667","24.9977533333333","6500300","中和區"
"235052","805-TS","2018/11/24 19:57:44","新北市中和區華新街192巷22弄9號","121.506585","24.9832133333333","6500300","中和區"
"235048","896-TW","2018/11/24 19:57:40","新北市中和區景新街397號","121.512556666667","24.990035","6500300","中和區"
"235053","900-TW","2018/11/24 19:57:31","新北市中和區華安街99號","121.468171666667","24.9962816666667","6500300","中和區"
"235051","157-BY","2018/11/24 19:57:41","新北市中和區景安路247巷7號","121.504395","24.9906733333333","6500300","中和區"
"235037","AAC-213","2018/11/24 19:57:43","新北市中和區自立路153號","121.522571666667","24.9928916666667","6500300","中和區"
"235059","AAC-215","2018/11/24 19:57:28","新北市中和區圓通路367巷20弄1號","121.492118333333","24.9882283333333","6500300","中和區"
"220068","013-TV","2018/11/24 19:57:47","新北市板橋區中山路二段光榮巷30弄28號","121.484895","25.0207016666667","6500100","板橋區"
"220065","072-UY","2018/11/24 19:57:39","新北市板橋區中山路一段154巷25號","121.465365","25.010495","6500100","板橋區"
"220106","075-UY","2018/11/24 19:57:37","新北市板橋區民治街82巷25號","121.478701666667","25.0326533333333","6500100","板橋區"
"247002","893-R6","2018/11/24 19:57:47","新北市蘆洲區永樂街31巷12號","121.458145","25.0877633333333","6501400","蘆洲區"
"247016","546-UM","2018/11/24 19:57:30","新北市蘆洲區中正路101號","121.469953333333","25.08404","6501400","蘆洲區"
"247024","500-BY","2018/11/24 19:57:43","新北市蘆洲區光榮路120巷8弄25號","121.465595","25.0876716666667","6501400","蘆洲區"
"247014","339-TH","2018/11/24 19:57:31","新北市蘆洲區成功路136號","121.471978333333","25.0828916666667","6501400","蘆洲區"
"247006","337-TH","2018/11/24 19:57:32","新北市蘆洲區九芎街139巷8號","121.465793333333","25.07916","6501400","蘆洲區"
"247008","336-TH","2018/11/24 19:57:44","新北市蘆洲區信義路119巷1號","121.47844","25.0803583333333","6501400","蘆洲區"
"247020","057-VK","2018/11/24 19:57:40","新北市蘆洲區民義街25號","121.471736666667","25.088935","6501400","蘆洲區"
"247018","007-UY","2018/11/24 19:57:37","新北市蘆洲區民族路290巷11號","121.478468333333","25.0897983333333","6501400","蘆洲區"
"226004","312-R5","2018/11/24 19:57:29","新北市平溪區十分里十分街259號","121.778116666667","25.0452116666667","6502400","平溪區"
"228003","097-TW","2018/11/24 19:57:38","新北市貢寮區仁理村仁和路268號","121.924246666667","25.0544616666667","6502600","貢寮區"
"227010","642-TC","2018/11/24 19:57:37","新北市雙溪區新基里新基南街25號","121.866286666667","25.0381466666667","6502500","雙溪區"
"227002","400-TW","2018/11/24 19:57:36","新北市雙溪區雙溪里長安街16號","121.864993333333","25.0347","6502500","雙溪區"
"222001","KEA-2212","2018/11/24 19:57:46","新北市深坑區北深路三段105號","121.60558","25.001785","6501800","深坑區"
"208002","KEA-2872","2018/11/24 19:57:45","新北市金山區環金路65號","121.637885","25.21739","6502700","金山區"
"208003","665-BX","2018/11/24 19:57:37","新北市金山區永興里濆水路10-2號","121.623496666667","25.2715366666667","6502700","金山區"
"208001","761-BX","2018/11/24 19:57:36","新北市金山區南勢41-1號","121.629115","25.2198383333333","6502700","金山區"
"251009","008-UM","2018/11/24 19:57:32","新北市淡水區英專路28巷2弄16號","121.445845","25.1695116666667","6501000","淡水區"
"251005","010-UM","2018/11/24 19:57:26","新北市淡水區學府路136巷8號","121.450961666667","25.1728983333333","6501000","淡水區"
"251013","KEA-2871","2018/11/24 19:57:42","新北市淡水區淡金路三段254號","121.44903","25.2062116666667","6501000","淡水區"
"251016","179-VK","2018/11/24 19:57:46","新北市淡水區番子田16-13號","121.453698333333","25.2317383333333","6501000","淡水區"
"251008","181-VK","2018/11/24 19:57:36","新北市淡水區中正路一段132巷7弄8號","121.422323333333","25.1801233333333","6501000","淡水區"
"251015","182-VK","2018/11/24 19:57:28","新北市淡水區商工路143號","121.447238333333","25.1882966666667","6501000","淡水區"
"251010","413-VK","2018/11/24 19:57:45","新北市淡水區崁頂128號","121.431918333333","25.2043633333333","6501000","淡水區"
"251012","441-VK","2018/11/24 19:57:31","新北市淡水區下圭柔山91巷6號","121.437178333333","25.2101566666667","6501000","淡水區"
"251004","443-VK","2018/11/24 19:57:48","新北市淡水區民族路50巷34號","121.461205","25.1357983333333","6501000","淡水區"
"251001","559-UM","2018/11/24 19:57:47","新北市淡水區淡金路二段401號","121.446838333333","25.187","6501000","淡水區"
"251006","561-UM","2018/11/24 19:57:36","新北市淡水區水碓街31號","121.443786666667","25.1773166666667","6501000","淡水區"
"251011","650-BX","2018/11/24 19:57:34","新北市淡水區崁頂55-3號","121.442173333333","25.19668","6501000","淡水區"
"251003","766-UM","2018/11/24 19:57:38","新北市淡水區中山北路二段189巷15弄29號","121.443431666667","25.184155","6501000","淡水區"
"207003","550-UM","2018/11/24 19:57:37","新北市萬里區大鵬里萬里加投59-1號","121.642335","25.2125366666667","6502800","萬里區"
"207004","225-TW","2018/11/24 19:57:35","新北市萬里區北基里忠二街35號","121.685635","25.1757483333333","6502800","萬里區"
"252002","178-VK","2018/11/24 19:57:42","新北市三芝區三民街39巷36號","121.505438333333","25.257535","6502100","三芝區"
"252001","292-VK","2018/11/24 19:57:43","新北市三芝區公正街66號","121.49978","25.257415","6502100","三芝區"
"237004","KEA-2597","2018/11/24 19:57:40","新北市三峽區添福107-16號","121.373345","24.9029666666667","6500900","三峽區"
"237007","153-BY","2018/11/24 19:57:43","新北市三峽區二鬮路136巷24弄67號","121.35742","24.9106333333333","6500900","三峽區"
"237009","210-TH","2018/11/24 19:57:45","新北市三峽區民族街28巷3號","121.36903","24.9308266666667","6500900","三峽區"
"237013","252-BX","2018/11/24 19:57:47","新北市樹林區學勤路199號","121.376933333333","24.9478083333333","6500900","三峽區"
"237012","275-BY","2018/11/24 19:57:31","新北市三峽區中華路115號","121.371233333333","24.9280683333333","6500900","三峽區"
"237008","302-VK","2018/11/24 19:57:37","新北市三峽區中華路76-2號","121.37157","24.9290366666667","6500900","三峽區"
"237006","5529-G3","2018/11/24 19:57:27","新北市三峽區中正路二段168號","121.366015","24.9155733333333","6500900","三峽區"
"236070","105-UM","2018/11/24 19:57:42","新北市土城區忠義路95號","121.443591666667","24.9643483333333","6501300","土城區"
"236042","KED-0685","2018/11/24 19:57:43","新北市土城區學府路一段143巷2號","121.453733333333","24.9860066666667","6501300","土城區"
"236079","166-UM","2018/11/24 19:57:29","新北市土城區中州路30巷5號","121.413503333333","24.9587033333333","6501300","土城區"
"236030","253-BX","2018/11/24 19:57:35","新北市土城區中央路一段260巷25號","121.442745","24.9846416666667","6501300","土城區"
"236026","269-VK","2018/11/24 19:57:43","新北市土城區員林街71巷2號","121.444453333333","24.9771716666667","6501300","土城區"
"236014","270-VK","2018/11/24 19:57:40","新北市土城區廣福街123號","121.456298333333","24.9928783333333","6501300","土城區"
"236038","271-VK","2018/11/24 19:57:30","新北市土城區國際路70號","121.466575","24.9779066666667","6501300","土城區"
"236021","752-BX","2018/11/24 19:57:38","新北市土城區延吉街75巷7號","121.472471666667","24.987035","6501300","土城區"
"236059","912-UM","2018/11/24 19:57:39","新北市土城區中央路一段245號","121.445423333333","24.9860966666667","6501300","土城區"
"236049","913-UM","2018/11/24 19:57:39","新北市土城區金城路三段203號","121.470298333333","24.989075","6501300","土城區"
"236063","915-UM","2018/11/24 19:57:30","新北市土城區金城路三段73巷9弄7號","121.465895","24.9874816666667","6501300","土城區"
"236055","970-R7","2018/11/24 19:57:39","新北市土城區立德路97號","121.463153333333","24.98767","6501300","土城區"
"242036","AAC-296","2018/11/24 19:57:38","新北市新莊區民安路207巷57號","121.4288","25.0248566666667","6500500","新莊區"
"242058","986-R7","2018/11/24 19:57:35","新北市新莊區八德街87號","121.424525","25.0216133333333","6500500","新莊區"
"242056","751-BX","2018/11/24 19:57:42","新北市新莊區新豐街20巷28號","121.447581666667","25.0344416666667","6500500","新莊區"
"242029","705-TV","2018/11/24 19:57:30","新北市新莊區中榮街152巷42號","121.445466666667","25.0537666666667","6500500","新莊區"
"242027","615-BX","2018/11/24 19:57:34","新北市新莊區幸福路902號","121.443026666667","25.0493033333333","6500500","新莊區"
"242025","613-BX","2018/11/24 19:57:16","新北市新莊區化成路531巷50號","121.462176666667","25.064275","6500500","新莊區"
"242048","497-BY","2018/11/24 19:57:43","新北市新莊區富國路109巷2號","121.423791666667","25.0251233333333","6500500","新莊區"
"242002","440-UM","2018/11/24 19:57:45","新北市新莊區中正路190號","121.449651666667","25.0354683333333","6500500","新莊區"
"242023","362-BY","2018/11/24 19:57:42","新北市新莊區化成路424號","121.466028333333","25.0510433333333","6500500","新莊區"
"242061","353-BY","2018/11/24 19:57:44","新北市新莊區瓊泰路3號","121.44485","25.0286283333333","6500500","新莊區"
"242011","132-UY","2018/11/24 19:57:42","新北市新莊區中港路531巷60號","121.450173333333","25.051575","6500500","新莊區"
"242034","135-UY","2018/11/24 19:57:42","新北市新莊區建中街72號","121.447566666667","25.036905","6500500","新莊區"
"242051","172-VK","2018/11/24 19:56:44","新北市新莊區西盛街176號","121.427971666667","25.018875","6500500","新莊區"
"242013","173-VK","2018/11/24 19:57:45","新北市新莊區幸福路608號","121.451821666667","25.0492483333333","6500500","新莊區"
"242019","175-VK","2018/11/24 19:57:30","新北市新莊區民生街22號","121.456011666667","25.0421233333333","6500500","新莊區"
"242007","176-VK","2018/11/24 19:57:39","新北市新莊區榮華路一段2號","121.457963333333","25.0551666666667","6500500","新莊區"
"242017","346-TH","2018/11/24 19:57:41","新北市新莊區中安街38號","121.452865","25.0464816666667","6500500","新莊區"
"242031","348-TH","2018/11/24 19:57:37","新北市新莊區公園一路86號","121.443305","25.0370116666667","6500500","新莊區"
"242004","349-TH","2018/11/24 19:57:45","新北市新莊區化成路219號","121.465966666667","25.0525166666667","6500500","新莊區"
"242021","350-TH","2018/11/24 19:57:40","新北市新莊區建中街48巷10弄12號","121.448606666667","25.0384166666667","6500500","新莊區"
"242015","351-TH","2018/11/24 19:57:37","新北市新莊區復興路一段47巷9號","121.446808333333","25.0426333333333","6500500","新莊區"
"238015","755-BX","2018/11/24 19:57:42","新北市樹林區中山路三段210-2號","121.381441666667","24.9655683333333","6500700","樹林區"
"238021","KEA-2539","2018/11/24 19:57:40","新北市樹林區佳園路三段99巷19號","121.389301666667","24.9521833333333","6500700","樹林區"
"238017","283-BY","2018/11/24 19:57:49","新北市樹林區保安街二段45巷6號","121.415676666667","25.0001383333333","6500700","樹林區"
"221008","489-VK","2018/11/24 19:57:43","台北市內湖區康樂街125巷2號","121.619655","25.0733416666667","6501100","汐止區"
"221036","130-UY","2018/11/24 19:57:39","新北市汐止區新台五路二段85巷12號","121.664405","25.0672283333333","6501100","汐止區"
"221015","131-UY","2018/11/24 19:57:39","新北市汐止區大同路三段41號","121.666811666667","25.0764616666667","6501100","汐止區"
"221010","269-BY","2018/11/24 19:57:42","新北市汐止區連峰街227號","121.645056666667","25.08111","6501100","汐止區"
"221012","278-VK","2018/11/24 19:57:43","新北市汐止區大同路三段262號","121.676408333333","25.0719066666667","6501100","汐止區"
"221023","279-VK","2018/11/24 19:57:44","新北市汐止區明峰街200-1號","121.627736666667","25.0693733333333","6501100","汐止區"
"221032","280-BY","2018/11/24 19:57:41","新北市汐止區橫科路18巷15號","121.61771","25.050255","6501100","汐止區"
"221027","281-BY","2018/11/24 19:57:30","新北市汐止區中正路75號","121.66158","25.0694916666667","6501100","汐止區"
"221029","298-VK","2018/11/24 19:57:46","新北市汐止區樟樹一路139巷24號","121.641136666667","25.0662333333333","6501100","汐止區"
"221021","299-VK","2018/11/24 19:57:47","新北市汐止區復興路58巷11弄6號","121.65624","25.061815","6501100","汐止區"
"221031","353-TW","2018/11/24 19:57:44","新北市汐止區福德一路215號","121.634626666667","25.0652866666667","6501100","汐止區"
"221035","622-UM","2018/11/24 19:57:49","新北市汐止區長江街39巷4號","121.655651666667","25.0715483333333","6501100","汐止區"
"221025","623-UM","2018/11/24 19:57:36","新北市汐止區秀峰路107號","121.660228333333","25.0634416666667","6501100","汐止區"
"221038","646-BX","2018/11/24 19:57:40","新北市汐止區忠孝東路497號","121.666485","25.0746816666667","6501100","汐止區"
"221033","647-BX","2018/11/24 19:57:37","新北市汐止區東勢街190巷5號","121.633893333333","25.0415883333333","6501100","汐止區"
"221002","707-TV","2018/11/24 19:57:43","新北市汐止區工建路504號","121.633188333333","25.0583683333333","6501100","汐止區"
"221018","753-BX","2018/11/24 19:57:40","新北市汐止區茄苳路12號","121.664836666667","25.0705816666667","6501100","汐止區"
"220079","145-BY","2018/11/24 19:57:33","新北市板橋區南雅西路二段209號","121.451183333333","25.0135016666667","6500100","板橋區"
"220080","200-UY","2018/11/24 19:57:37","新北市板橋區大觀路二段79巷2弄15號","121.44741","25.00166","6500100","板橋區"
"220082","610-BX","2018/11/24 19:57:45","新北市板橋區大觀路三段121號","121.432708333333","24.9944533333333","6500100","板橋區"
"220101","245-BX","2018/11/24 19:57:38","新北市板橋區雙十路一段44巷36號","121.477151666667","25.0248283333333","6500100","板橋區"
"224002","257-TC","2018/11/24 19:57:37","新北市瑞芳區員山子路員山巷24-1號","121.816831666667","25.104545","6501200","瑞芳區"
"220072","277-BY","2018/11/24 19:57:31","新北市板橋區金門街111-3號","121.433115","24.9920616666667","6500100","板橋區"
"220064","282-UM","2018/11/24 19:57:34","新北市板橋區實踐路33-2號","121.463651666667","25.006995","6500100","板橋區"
"220071","283-VK","2018/11/24 19:57:37","新北市板橋區五權街1-8號","121.463765","24.9950483333333","6500100","板橋區"
"220094","285-UM","2018/11/24 19:57:39","新北市板橋區雨農路16號","121.462136666667","25.0247633333333","6500100","板橋區"
"220083","286-VK","2018/11/24 19:57:27","新北市板橋區僑中二街8巷13號","121.446486666667","25.0112666666667","6500100","板橋區"
"220081","287-VK","2018/11/24 19:57:45","新北市板橋區大觀路一段28巷91-1號","121.45014","25.0113666666667","6500100","板橋區"
"220090","288-VK","2018/11/24 19:57:44","新北市板橋區幸福路32巷2弄31號","121.460903333333","25.02186","6500100","板橋區"
"220061","295-UM","2018/11/24 19:57:34","新北市板橋區板新路136號","121.47071","25.0155366666667","6500100","板橋區"
"220084","296-UM","2018/11/24 19:57:44","新北市板橋區滿平街2巷27號","121.425375","24.9892816666667","6500100","板橋區"
"220053","299-UM","2018/11/24 19:57:43","新北市板橋區永豐街129號","121.474661666667","25.0198216666667","6500100","板橋區"
"242042","281-VK","2018/11/24 19:57:46","新北市新莊區青山路一段50號","121.409963333333","25.0278233333333","6500500","新莊區"
"220075","303-R5","2018/11/24 19:57:35","新北市板橋區金華街10巷77號","121.457973333333","25.0203916666667","6500100","板橋區"
"220062","305-R5","2018/11/24 19:57:46","新北市板橋區萬安街20巷2弄13號","121.485291666667","25.0227283333333","6500100","板橋區"
"220092","307-R5","2018/11/24 19:57:41","新北市板橋區英士路58巷38號","121.460323333333","25.0258033333333","6500100","板橋區"
"220098","317-R6","2018/11/24 19:57:44","新北市板橋區漢生西路165巷1號","121.46278","25.0233316666667","6500100","板橋區"
"220089","487-VK","2018/11/24 19:57:31","新北市板橋區新海路385巷22弄12號","121.457678333333","25.0262966666667","6500100","板橋區"
"220035","560-BX","2018/11/24 19:57:41","新北市板橋區新生街53巷3弄12號","121.457015","25.0217466666667","6500100","板橋區"
"220103","561-BX","2018/11/24 19:57:40","新北市板橋區自由路13號","121.465515","25.02269","6500100","板橋區"
"220069","568-UM","2018/11/24 19:57:47","新北市板橋區貴興路115號","121.455701666667","25.002545","6500100","板橋區"
"220055","630-UY","2018/11/24 19:57:26","新北市板橋區仁愛路62巷15弄2號","121.460015","24.998455","6500100","板橋區"
"220091","637-BX","2018/11/24 19:57:38","新北市板橋區文聖街89巷2號","121.477518333333","25.0299233333333","6500100","板橋區"
"220057","686-BX","2018/11/24 19:57:45","新北市板橋區四川路二段130巷32-2號","121.449628333333","24.99466","6500100","板橋區"
"220093","689-BX","2018/11/24 19:57:44","新北市板橋區長江路三段116號","121.4751","25.0343783333333","6500100","板橋區"
"220054","741-BX","2018/11/24 19:57:31","新北市板橋區實踐路93巷19號","121.464896666667","25.00546","6500100","板橋區"
"220067","829-TW","2018/11/24 19:57:40","新北市板橋區漢生東路163號","121.469271666667","25.0125666666667","6500100","板橋區"
"220102","830-TW","2018/11/24 19:57:44","新北市板橋區仁化街42巷7號","121.475425","25.0312916666667","6500100","板橋區"
"220096","831-TW","2018/11/24 19:57:42","新北市板橋區莒光路133巷24號","121.472723333333","25.0246583333333","6500100","板橋區"
"220088","833-TW","2018/11/24 19:57:44","新北市板橋區大同街89號","121.48","25.0282333333333","6500100","板橋區"
"220074","895-R6","2018/11/24 19:57:41","新北市板橋區府後街2號","121.459255","25.00988","6500100","板橋區"
"220073","985-R7","2018/11/24 19:57:30","新北市板橋區南雅西路二段83號","121.452666666667","25.0102766666667","6500100","板橋區"
"220097","AAC-210","2018/11/24 19:57:30","新北市板橋區光正街43號","121.46181","25.0172183333333","6500100","板橋區"
"220070","AAC-253","2018/11/24 19:57:41","新北市板橋區四川路一段233號","121.459956666667","25.0029766666667","6500100","板橋區"
"235068","KEA-2873","2018/11/24 19:57:37","新北市中和區景平路736巷5弄11號","121.497681666667","25.0034883333333","6500300","中和區"
