"lineid","car","time","location","longitude","latitude","cityid","cityname"
"234046","148-BY","2018/11/24 20:27:45","新北市新店區柴埕路116號","121.504898333333","24.9599716666667","6500400","永和區"
"234081","298-R6","2018/11/24 20:27:30","新北市永和區國中路130號","121.523493333333","25.0067733333333","6500400","永和區"
"234038","336-UY","2018/11/24 20:27:31","新北市永和區環河東路四段38號","121.528743333333","24.9989283333333","6500400","永和區"
"234064","337-UY","2018/11/24 20:27:33","新北市永和區中正路417號","121.517093333333","25.0048433333333","6500400","永和區"
"234070","552-UM","2018/11/24 20:27:41","新北市永和區永亨路6-1號","121.519383333333","25.0056366666667","6500400","永和區"
"234030","746-BX","2018/11/24 20:27:48","新北市永和區民族街81巷60號","121.520113333333","24.99655","6500400","永和區"
"234054","KEA-2590","2018/11/24 20:27:49","新北市永和區環河東路一段82號","121.519625","25.0164716666667","6500400","永和區"
"234061","AAD-866","2018/11/24 20:27:44","新北市永和區安樂路194巷17弄8號","121.516073333333","25.0013166666667","6500400","永和區"
"234086","748-BX","2018/11/24 20:27:45","新北市永和區光復街21號","121.51641","25.0173816666667","6500400","永和區"
"234042","862-TW","2018/11/24 20:27:38","新北市永和區安樂路248-2號","121.514686666667","25.0034783333333","6500400","永和區"
"234050","863-TW","2018/11/24 20:27:46","新北市永和區新生路135號","121.507543333333","25.0150133333333","6500400","永和區"
"234023","9372-KE","2018/11/24 20:27:46","新北市永和區博愛街32巷17-1號","121.518911666667","25.015235","6500400","永和區"
"234011","9373-KE","2018/11/24 20:27:30","新北市永和區保生路55-1號","121.504538333333","25.010895","6500400","永和區"
"249004","303-UY","2018/11/24 20:27:39","新北市八里區中山路一段129巷27號","121.414058333333","25.1586566666667","6502300","八里區"
"249002","305-UY","2018/11/24 20:27:45","新北市八里區龍米路二段125巷13號","121.445965","25.1454966666667","6502300","八里區"
"249003","593-UM","2018/11/24 20:27:46","新北市八里區華峰一街40號","121.398638333333","25.1464416666667","6502300","八里區"
"248002","678-BX","2018/11/24 20:27:45","新北市五股區成泰路三段64號","121.44299","25.0893983333333","6501500","五股區"
"234074","AAC-211","2018/11/24 20:27:44","新北市永和區豫溪街217巷29號","121.524321666667","25.0102366666667","6500400","永和區"
"234067","AAC-212","2018/11/24 20:27:44","新北市永和區保平路292巷13弄6號","121.50712","25.005365","6500400","永和區"
"234003","AAC-295","2018/11/24 20:27:34","新北市永和區中正路620號","121.517005","25.0078216666667","6500400","永和區"
"244018","403-UM","2018/11/24 20:15:35","新北市林口區粉寮69號","121.405016666667","25.0908716666667","6501700","林口區"
"243010","267-VK","2018/11/24 20:27:28","新北市泰山區新生路31巷7號","121.427658333333","25.0458683333333","6501600","泰山區"
"243013","AAD-798","2018/11/24 20:27:45","新北市泰山區貴子路9巷6號","121.425508333333","25.0421966666667","6501600","泰山區"
"243009","297-R6","2018/11/24 20:27:46","新北市泰山區忠孝街43號","121.42888","25.0654733333333","6501600","泰山區"
"243016","KEA-2801","2018/11/24 20:27:46","新北市泰山區明志路二段307號","121.426606666667","25.0463816666667","6501600","泰山區"
"243015","421-VK","2018/11/24 20:27:43","新北市泰山區泰林路二段280巷1號","121.43149","25.062425","6501600","泰山區"
"243011","KEA-2215","2018/11/24 20:27:31","新北市泰山區台麗街57號","121.425281666667","25.037855","6501600","泰山區"
"243012","646-TV","2018/11/24 20:27:48","新北市泰山區泰林路二段364號","121.428638333333","25.0636833333333","6501600","泰山區"
"243014","680-BX","2018/11/24 20:27:30","新北市泰山區泰林路二段2-10號","121.420081666667","25.0648216666667","6501600","泰山區"
"222003","436-BY","2018/11/24 20:27:42","新北市深坑區深坑街27號","121.61594","25.002345","6501800","深坑區"
"222002","659-BX","2018/11/24 20:25:25","新北市深坑區萬福路16巷49號","121.611146666667","25.0085866666667","6501800","深坑區"
"231044","001-UM","2018/11/24 20:27:42","新北市新店區建國路132號","121.539071666667","24.9788933333333","6500600","新店區"
"231041","002-UM","2018/11/24 20:27:49","新北市新店區中正路501-2號","121.533648333333","24.9837166666667","6500600","新店區"
"231059","046-UY","2018/11/24 20:27:32","新北市新店區安德街132號","121.508663333333","24.9603016666667","6500600","新店區"
"231040","047-UY","2018/11/24 20:27:37","新北市新店區自由街2-1號","121.535578333333","24.9755783333333","6500600","新店區"
"231046","107-UY","2018/11/24 20:27:30","新北市新店區薏仁坑路自強巷6號","121.496485","24.9583333333333","6500600","新店區"
"231052","108-UY","2018/11/24 20:27:44","新北市新店區松林路38號","121.546251666667","24.9103016666667","6500600","新店區"
"231048","187-VK","2018/11/24 20:27:39","新北市新店區寶慶街58巷21-1號","121.542","24.987295","6500600","新店區"
"231057","256-BX","2018/11/24 20:27:42","新北市新店區花園五路二段1號","121.55348","24.9342716666667","6500600","新店區"
"231042","268-BY","2018/11/24 20:27:36","新北市新店區寶橋路138號","121.54761","24.9764066666667","6500600","新店區"
"231051","278-BY","2018/11/24 20:27:41","新北市新店區中央七街38號","121.529025","24.97562","6500600","新店區"
"231050","AAD-862","2018/11/24 20:27:42","新北市新店區建興街4號","121.540093333333","24.97649","6500600","新店區"
"231058","3713-VJ","2018/11/24 20:27:44","新北市新店區三民路191號","121.535541666667","24.9757233333333","6500600","新店區"
"231066","4716-K9","2018/11/24 20:27:42","新北市新店區安興路51號","121.516511666667","24.971785","6500600","新店區"
"231056","4715-K9","2018/11/24 20:27:41","新北市新店區民生路75巷225-1號","121.533143333333","24.9811966666667","6500600","新店區"
"231067","4772-VM","2018/11/24 20:27:42","新北市新店區安華路28-1號","121.519625","24.9608783333333","6500600","新店區"
"231065","512-UM","2018/11/24 20:27:46","新北市新店區安祥路102巷42弄67號","121.48627","24.9632683333333","6500600","新店區"
"231049","513-UM","2018/11/24 20:27:33","新北市新店區華潭街1巷2號","121.529428333333","24.9502616666667","6500600","新店區"
"231064","515-UM","2018/11/24 20:27:35","新北市新店區新和街34號","121.519123333333","24.9847533333333","6500600","新店區"
"231063","616-UM","2018/11/24 20:27:47","新北市新店區玫瑰路4-1號","121.493576666667","24.9513933333333","6500600","新店區"
"231061","619-UM","2018/11/24 20:27:39","新北市新店區新和街36號","121.519263333333","24.9848916666667","6500600","新店區"
"231068","718-UY","2018/11/24 20:27:48","新北市新店區中興路三段223號","121.54299","24.9830266666667","6500600","新店區"
"231054","719-UY","2018/11/24 20:27:36","新北市新店區檳榔路109號","121.544295","24.9618566666667","6500600","新店區"
"231062","720-UM","2018/11/24 20:27:36","新北市新店區安泰路7巷16號","121.485686666667","24.9509616666667","6500600","新店區"
"231060","897-TW","2018/11/24 20:27:37","新北市新店區錦秀路1號","121.478983333333","24.945715","6500600","新店區"
"231045","898-TW","2018/11/24 20:27:42","新北市新店區新坡一街32號","121.54917","24.962275","6500600","新店區"
"231043","899-TW","2018/11/24 20:27:45","新北市新店區建國路104-1號","121.539881666667","24.9778366666667","6500600","新店區"
"241011","013-R5","2018/11/24 20:27:45","新北市三重區龍門路26-2號","121.495471666667","25.072025","6500200","三重區"
"241028","022-UY","2018/11/24 20:27:46","新北市三重區光興街89號","121.497468333333","25.05992","6500200","三重區"
"241008","059-VK","2018/11/24 20:27:32","新北市三重區車路頭街139巷2號","121.483906666667","25.0762483333333","6500200","三重區"
"241022","060-VK","2018/11/24 20:27:37","新北市三重區民生街61巷18弄10號","121.487605","25.0627866666667","6500200","三重區"
"241031","061-VK","2018/11/24 20:27:44","新北市三重區三寧街15號","121.489446666667","25.0598","6500200","三重區"
"241015","062-VK","2018/11/24 20:27:31","新北市三重區文化北路41號","121.498976666667","25.0652083333333","6500200","三重區"
"241017","063-VK","2018/11/24 20:27:48","新北市三重區自強路一段298號","121.491403333333","25.0683283333333","6500200","三重區"
"241024","065-VK","2018/11/24 20:27:28","新北市三重區中正北路276巷14號","121.480503333333","25.06781","6500200","三重區"
"241026","066-VK","2018/11/24 20:27:40","新北市三重區環河南路30號","121.503323333333","25.062085","6500200","三重區"
"241002","090-VK","2018/11/24 20:27:33","新北市三重區五華街21巷43號","121.496531666667","25.0816633333333","6500200","三重區"
"241003","091-VK","2018/11/24 20:27:47","新北市三重區富華街175號","121.493563333333","25.085245","6500200","三重區"
"251014","742-BX","2018/11/24 20:27:44","新北市淡水區石頭厝8-9號","121.46045","25.23771","6501000","淡水區"
"241005","262-UM","2018/11/24 20:27:30","新北市三重區五華街133號","121.491101666667","25.08446","6500200","三重區"
"241016","265-UM","2018/11/24 20:27:45","新北市三重區信義西街138號","121.495411666667","25.06417","6500200","三重區"
"241009","267-UM","2018/11/24 20:27:35","新北市三重區三和路四段406巷33號","121.480145","25.0795133333333","6500200","三重區"
"241018","268-UM","2018/11/24 20:27:37","新北市三重區自強路一段155-1號","121.493693333333","25.0672566666667","6500200","三重區"
"241032","269-UM","2018/11/24 20:27:49","新北市三重區重陽路一段120巷37號","121.485058333333","25.0602533333333","6500200","三重區"
"241013","270-UM","2018/11/24 20:27:28","新北市三重區溪尾街9號","121.491636666667","25.0743966666667","6500200","三重區"
"241025","271-UM","2018/11/24 20:27:36","新北市三重區頂崁街210巷27號","121.475758333333","25.0681683333333","6500200","三重區"
"241007","398-BY","2018/11/24 20:27:48","新北市三重區自強路四段32-2號","121.489038333333","25.0770816666667","6500200","三重區"
"241035","KEA-2210","2018/11/24 20:27:31","新北市三重區重新路二段24號","121.499303333333","25.0626616666667","6500200","三重區"
"241004","475-VK","2018/11/24 20:27:42","新北市三重區溪尾街203號","121.48856","25.0807666666667","6500200","三重區"
"241030","480-VK","2018/11/24 20:27:49","新北市三重區成功路75號","121.48878","25.051185","6500200","三重區"
"241014","543-UM","2018/11/24 20:27:34","新北市三重區龍濱路64號","121.502423333333","25.0692","6500200","三重區"
"241023","545-UM","2018/11/24 20:27:46","新北市三重區自由街16號","121.479863333333","25.066485","6500200","三重區"
"241001","547-UM","2018/11/24 20:27:29","新北市三重區福隆路10號","121.490191666667","25.07736","6500200","三重區"
"241019","KEA-2593","2018/11/24 20:27:31","新北市三重區重陽路四段81號","121.492515","25.071035","6500200","三重區"
"241006","AAD-863","2018/11/24 20:27:38","新北市三重區車路頭街139巷14號","121.484356666667","25.07614","6500200","三重區"
"241020","743-BX","2018/11/24 20:27:32","新北市三重區三和路三段146-1號","121.493168333333","25.0727266666667","6500200","三重區"
"241012","941-UM","2018/11/24 20:27:40","新北市三重區龍門路230號","121.500583333333","25.0736216666667","6500200","三重區"
"241029","942-UM","2018/11/24 20:27:44","新北市三重區集美街227號","121.492176666667","25.05508","6500200","三重區"
"235066","003-UY","2018/11/24 20:27:38","新北市中和區光華街59-1號","121.506381666667","25.00312","6500300","中和區"
"235039","097-UM","2018/11/24 20:27:40","新北市新店區安興路51號","121.516566666667","24.9716866666667","6500300","中和區"
"235065","098-UM","2018/11/24 20:27:39","新北市中和區永和路39巷2號","121.498016666667","25.0049266666667","6500300","中和區"
"247012","KEA-2869","2018/11/24 20:27:37","新北市蘆洲區復興路201號","121.479485","25.0895616666667","6501400","蘆洲區"
"235050","4979-A6","2018/11/24 20:27:38","新北市中和區景新街160巷1弄1號","121.505491666667","24.9970433333333","6500300","中和區"
"235069","4980-A6","2018/11/24 20:27:48","新北市中和區錦和路212號","121.490388333333","24.9945916666667","6500300","中和區"
"235054","640-BX","2018/11/24 20:25:39","新北市八里區中山路三段409號","121.368733333333","25.1344883333333","6500300","中和區"
"235059","AAC-215","2018/11/24 20:27:48","新北市中和區員山路28-29號","121.480873333333","24.98704","6500300","中和區"
"247002","893-R6","2018/11/24 20:27:47","新北市蘆洲區長安街361巷26號","121.455988333333","25.0875966666667","6501400","蘆洲區"
"247016","546-UM","2018/11/24 20:27:40","新北市蘆洲區光華路148號","121.46594","25.08226","6501400","蘆洲區"
"247024","500-BY","2018/11/24 20:27:43","新北市蘆洲區長樂路2-6號","121.464556666667","25.084305","6501400","蘆洲區"
"247014","339-TH","2018/11/24 20:27:30","新北市蘆洲區中山二路79號","121.473056666667","25.081895","6501400","蘆洲區"
"247006","337-TH","2018/11/24 20:27:32","新北市蘆洲區和平路121巷14弄29號","121.46605","25.0801616666667","6501400","蘆洲區"
"247008","336-TH","2018/11/24 20:27:44","新北市蘆洲區永安北路二段76巷15號","121.482601666667","25.085235","6501400","蘆洲區"
"247020","057-VK","2018/11/24 20:27:40","新北市蘆洲區水湳街395號","121.46939","25.0945283333333","6501400","蘆洲區"
"247010","056-VK","2018/11/24 20:27:30","新北市蘆洲區信義路224號","121.47895","25.08523","6501400","蘆洲區"
"247018","007-UY","2018/11/24 20:27:37","新北市蘆洲區民族路317號","121.474405","25.0913583333333","6501400","蘆洲區"
"247004","002-UY","2018/11/24 20:27:45","新北市蘆洲區長安街297號","121.458001666667","25.0848583333333","6501400","蘆洲區"
"247022","001-UY","2018/11/24 20:27:43","新北市蘆洲區中正路301號","121.466481666667","25.0882716666667","6501400","蘆洲區"
"224010","AGQ-8101","2018/11/24 20:27:29","新北市瑞芳區輕便路39號","121.845536666667","25.1103366666667","6501200","瑞芳區"
"222001","KEA-2212","2018/11/24 20:27:46","新北市深坑區北深路三段329號","121.597196666667","25.0050166666667","6501800","深坑區"
"251009","008-UM","2018/11/24 20:27:32","新北市淡水區中正東路二段91號","121.459296666667","25.15246","6501000","淡水區"
"251002","012-UM","2018/11/24 20:27:46","新北市淡水區中正路27號","121.442553333333","25.1696233333333","6501000","淡水區"
"251013","KEA-2871","2018/11/24 20:27:42","新北市淡水區後坑子6號","121.463781666667","25.2065716666667","6501000","淡水區"
"251016","179-VK","2018/11/24 20:27:46","新北市淡水區新埔子11-7號","121.447451666667","25.2285133333333","6501000","淡水區"
"251008","181-VK","2018/11/24 20:27:36","新北市淡水區淡海路204號","121.42024","25.1856083333333","6501000","淡水區"
"251015","182-VK","2018/11/24 20:27:36","新北市淡水區牛埔子10-1號","121.450106666667","25.2184733333333","6501000","淡水區"
"251010","413-VK","2018/11/24 20:27:45","新北市淡水區沙崙路200號","121.424645","25.183895","6501000","淡水區"
"251012","441-VK","2018/11/24 20:27:31","新北市淡水區頂田寮路109號","121.45744","25.2161133333333","6501000","淡水區"
"251004","443-VK","2018/11/24 20:22:08","新北市淡水區民生路29號","121.461425","25.1380383333333","6501000","淡水區"
"251001","559-UM","2018/11/24 20:27:47","新北市淡水區新市一路三段8號","121.445073333333","25.1828716666667","6501000","淡水區"
"251006","561-UM","2018/11/24 20:27:36","新北市淡水區商工路350號","121.4675","25.18545","6501000","淡水區"
"251007","577-R6","2018/11/24 20:27:39","新北市淡水區中山北路三段165-1號","121.445276666667","25.1967666666667","6501000","淡水區"
"251003","766-UM","2018/11/24 20:27:38","新北市淡水區新生街108巷2號","121.4401","25.1747316666667","6501000","淡水區"
"207004","225-TW","2018/11/24 20:27:35","新北市萬里區北基里忠二街13號","121.68478","25.1756016666667","6502800","萬里區"
"252002","178-VK","2018/11/24 20:27:42","新北市三芝區淡金路二段47-2號","121.503691666667","25.260535","6502100","三芝區"
"252001","292-VK","2018/11/24 20:27:43","新北市三芝區中山路一段35號","121.50062","25.257945","6502100","三芝區"
"237007","153-BY","2018/11/24 20:27:43","新北市三峽區文化路209號","121.366288333333","24.9356116666667","6500900","三峽區"
"236030","253-BX","2018/11/24 20:27:35","新北市土城區中華路一段32號","121.446733333333","24.9895533333333","6501300","土城區"
"236014","270-VK","2018/11/24 20:27:40","新北市土城區廣明街61號","121.45505","24.9936166666667","6501300","土城區"
"242036","AAC-296","2018/11/24 20:27:48","新北市新莊區後港一路76巷12弄1號","121.427275","25.0258566666667","6500500","新莊區"
"242058","986-R7","2018/11/24 20:27:35","新北市新莊區四維路149號","121.42265","25.0220933333333","6500500","新莊區"
"242056","751-BX","2018/11/24 20:27:42","新北市新莊區瓊泰路152號","121.443178333333","25.0324033333333","6500500","新莊區"
"242029","705-TV","2018/11/24 20:27:50","新北市新莊區中華路二段186號","121.453055","25.0513966666667","6500500","新莊區"
"242025","613-BX","2018/11/24 20:27:37","新北市新莊區五工二路50巷13號","121.461301666667","25.065735","6500500","新莊區"
"242044","566-BX","2018/11/24 20:27:44","新北市新莊區中正路新建巷51號","121.414658333333","25.0215666666667","6500500","新莊區"
"242048","497-BY","2018/11/24 20:27:42","新北市新莊區中正路871巷1號","121.418125","25.0270366666667","6500500","新莊區"
"242053","441-UM","2018/11/24 20:27:46","新北市新莊區民安西路229巷16號","121.426913333333","25.014165","6500500","新莊區"
"242002","440-UM","2018/11/24 20:27:45","新北市新莊區中正路80號","121.457648333333","25.037345","6500500","新莊區"
"242039","415-TV","2018/11/24 20:27:36","新北市新莊區八德街15巷21號","121.426005","25.02214","6500500","新莊區"
"242009","413-TV","2018/11/24 20:27:49","新北市新莊區昌盛街79號","121.455448333333","25.0500916666667","6500500","新莊區"
"242046","400-BY","2018/11/24 20:27:29","新北市新莊區中正路新雅巷2弄1號","121.417963333333","25.02536","6500500","新莊區"
"242023","362-BY","2018/11/24 20:27:42","新北市新莊區化成路432號","121.466011666667","25.0512883333333","6500500","新莊區"
"242061","353-BY","2018/11/24 20:27:44","新北市新莊區民安東路130號","121.43091","25.0206466666667","6500500","新莊區"
"242011","132-UY","2018/11/24 20:27:41","新北市新莊區中義街29號","121.450375","25.05113","6500500","新莊區"
"242034","135-UY","2018/11/24 20:27:42","新北市新莊區中正路334巷8號","121.445805","25.03526","6500500","新莊區"
"242051","172-VK","2018/11/24 20:26:57","新北市新莊區民安西路227號","121.426166666667","25.014265","6500500","新莊區"
"242013","173-VK","2018/11/24 20:27:44","新北市新莊區中榮街81巷8號","121.4454","25.0524216666667","6500500","新莊區"
"242019","175-VK","2018/11/24 20:27:30","新北市新莊區銘德街49巷13號","121.45733","25.042925","6500500","新莊區"
"242007","176-VK","2018/11/24 20:27:39","新北市新莊區福壽街85號","121.45819","25.0500516666667","6500500","新莊區"
"242017","346-TH","2018/11/24 20:27:48","新北市新莊區中港三街22號","121.450576666667","25.0465133333333","6500500","新莊區"
"242031","348-TH","2018/11/24 20:27:45","新北市新莊區三和路6號","121.440353333333","25.0345","6500500","新莊區"
"242004","349-TH","2018/11/24 20:27:45","新北市新莊區化成路387號","121.465295","25.0583933333333","6500500","新莊區"
"242021","350-TH","2018/11/24 20:27:43","新北市新莊區公園路48號","121.44906","25.039405","6500500","新莊區"
"242015","351-TH","2018/11/24 20:27:37","新北市新莊區中平路36巷15號","121.445486666667","25.0436166666667","6500500","新莊區"
"221008","489-VK","2018/11/24 20:27:43","新北市汐止區康寧街706-1號","121.638138333333","25.072765","6501100","汐止區"
"221036","130-UY","2018/11/24 20:27:39","新北市汐止區新台五路二段1號","121.661738333333","25.0657816666667","6501100","汐止區"
"221015","131-UY","2018/11/24 20:27:39","新北市汐止區建成路142巷19弄15號","121.661905","25.0738716666667","6501100","汐止區"
"221010","269-BY","2018/11/24 20:27:49","新北市汐止區八連路二段428號","121.628833333333","25.1025716666667","6501100","汐止區"
"221012","278-VK","2018/11/24 20:27:44","新北市汐止區大同路三段491號","121.67996","25.0711616666667","6501100","汐止區"
"221023","279-VK","2018/11/24 20:27:28","新北市汐止區湖東街19號","121.63549","25.0723416666667","6501100","汐止區"
"221032","280-BY","2018/11/24 20:27:41","新北市汐止區弘道街53巷22號","121.618751666667","25.0494883333333","6501100","汐止區"
"221027","281-BY","2018/11/24 20:27:30","新北市汐止區中正路235號","121.657716666667","25.0686183333333","6501100","汐止區"
"221029","298-VK","2018/11/24 20:27:44","新北市汐止區樟樹二路106巷9-1號","121.640263333333","25.0646066666667","6501100","汐止區"
"221021","299-VK","2018/11/24 20:27:47","新北市汐止區水源路一段288號","121.654171666667","25.05814","6501100","汐止區"
"221031","353-TW","2018/11/24 20:27:44","新北市汐止區中興路110巷38號","121.634443333333","25.0648933333333","6501100","汐止區"
"221035","622-UM","2018/11/24 20:27:49","新北市汐止區長江街101-5號","121.658728333333","25.0731883333333","6501100","汐止區"
"221025","623-UM","2018/11/24 20:27:36","新北市汐止區水源路二段86號","121.656473333333","25.0561483333333","6501100","汐止區"
"221038","646-BX","2018/11/24 20:27:40","新北市汐止區秀峰路57號","121.659735","25.0651383333333","6501100","汐止區"
"221033","647-BX","2018/11/24 20:27:42","新北市汐止區林森街73巷11號","121.623638333333","25.041115","6501100","汐止區"
"221002","707-TV","2018/11/24 20:27:43","新北市汐止區福德二路37-1號","121.634746666667","25.0676333333333","6501100","汐止區"
"221018","753-BX","2018/11/24 20:27:40","新北市汐止區茄苳路225巷11弄3號","121.671326666667","25.0694333333333","6501100","汐止區"
"220101","245-BX","2018/11/24 20:27:38","新北市五股區凌雲路三段15-3號","121.428866666667","25.108835","6500100","板橋區"
"220083","286-VK","2018/11/24 20:27:47","新北市板橋區僑中二街100巷12號","121.44546","25.0085466666667","6500100","板橋區"
"242042","281-VK","2018/11/24 20:27:46","新北市新莊區中正路694巷96號","121.41717","25.02968","6500500","新莊區"
"220092","307-R5","2018/11/24 20:27:41","新北市板橋區金門街215巷57弄62號","121.435085","24.9906733333333","6500100","板橋區"
"220089","487-VK","2018/11/24 20:27:51","新北市板橋區四維路343號","121.462425","25.0298366666667","6500100","板橋區"
"220103","561-BX","2018/11/24 20:27:40","新北市板橋區漢生東路23巷56弄12號","121.466393333333","25.0180916666667","6500100","板橋區"
"220093","689-BX","2018/11/24 20:27:44","新北市八里區荖阡坑路22-6號","121.398983333333","25.134375","6500100","板橋區"
"220070","AAC-253","2018/11/24 20:27:41","新北市五股區成泰路一段8巷9-9號","121.437626666667","25.0684766666667","6500100","板橋區"
