"lineid","car","time","location","longitude","latitude","cityid","cityname"
"249004","303-UY","2018/11/24 20:47:39","新北市八里區中山路一段65巷13號","121.418245","25.1593516666667","6502300","八里區"
"249003","593-UM","2018/11/24 20:47:45","新北市林口區汕頭32號","121.366543333333","25.1350233333333","6502300","八里區"
"234074","AAC-211","2018/11/24 20:47:44","新北市永和區環河東路二段8號","121.52211","25.0133483333333","6500400","永和區"
"222003","436-BY","2018/11/24 20:47:42","新北市深坑區阿柔洋40號","121.610315","24.998495","6501800","深坑區"
"222002","659-BX","2018/11/24 20:47:45","新北市深坑區北深路三段93巷73號","121.603396666667","25.0012083333333","6501800","深坑區"
"231044","001-UM","2018/11/24 20:47:42","新北市新店區中正路348號","121.53629","24.9754083333333","6500600","新店區"
"231059","046-UY","2018/11/24 20:47:32","新北市新店區僑愛五路1號","121.499791666667","24.944105","6500600","新店區"
"231040","047-UY","2018/11/24 20:47:37","新北市新店區中正路272號","121.538985","24.9736916666667","6500600","新店區"
"231052","108-UY","2018/11/24 20:47:36","新北市新店區新烏路一段193號","121.547431666667","24.93156","6500600","新店區"
"231048","187-VK","2018/11/24 20:47:39","新北市新店區寶元路二段1巷2號","121.550748333333","24.9840566666667","6500600","新店區"
"231057","256-BX","2018/11/24 20:47:42","新北市新店區新烏路一段73號","121.546226666667","24.9430483333333","6500600","新店區"
"231042","268-BY","2018/11/24 20:47:36","新北市新店區寶高路120巷1號","121.554593333333","24.9760683333333","6500600","新店區"
"231051","278-BY","2018/11/24 20:47:41","新北市新店區民生路156巷85號","121.52729","24.9819916666667","6500600","新店區"
"231050","AAD-862","2018/11/24 20:47:35","新北市新店區三民路20巷22號","121.53795","24.9711866666667","6500600","新店區"
"231058","3713-VJ","2018/11/24 20:47:44","新北市新店區平等街73號","121.53574","24.9722466666667","6500600","新店區"
"231066","4716-K9","2018/11/24 20:47:42","新北市新店區安興路112號","121.51464","24.9776633333333","6500600","新店區"
"231056","4715-K9","2018/11/24 20:47:41","新北市新店區薏仁坑路2-1號","121.500845","24.958295","6500600","新店區"
"231067","4772-VM","2018/11/24 20:47:42","新北市新店區安康路一段351-1號","121.519391666667","24.9640633333333","6500600","新店區"
"231065","512-UM","2018/11/24 20:47:46","新北市新店區安祥路104巷6弄26號","121.48247","24.9626083333333","6500600","新店區"
"231049","513-UM","2018/11/24 20:47:33","新北市新店區永業路81巷1弄1-1號","121.52932","24.9492183333333","6500600","新店區"
"231064","515-UM","2018/11/24 20:47:34","新北市新店區安民街379巷7號","121.51595","24.9760566666667","6500600","新店區"
"231063","616-UM","2018/11/24 20:47:47","新北市新店區如意街7-5號","121.49515","24.9485083333333","6500600","新店區"
"231061","619-UM","2018/11/24 20:47:39","新北市新店區新和街59巷2號","121.520118333333","24.9856433333333","6500600","新店區"
"231068","718-UY","2018/11/24 20:47:48","新北市新店區寶元路一段84巷2號","121.544355","24.9839","6500600","新店區"
"231054","719-UY","2018/11/24 20:47:36","新北市新店區北新路一段96巷23號","121.542953333333","24.96874","6500600","新店區"
"231062","720-UM","2018/11/24 20:47:36","新北市新店區裕合街29號","121.489085","24.94996","6500600","新店區"
"231060","897-TW","2018/11/24 20:47:37","新北市新店區安康路三段635-1號","121.470881666667","24.939815","6500600","新店區"
"231045","898-TW","2018/11/24 20:47:42","新北市新店區中興路一段179號","121.542963333333","24.964755","6500600","新店區"
"231043","899-TW","2018/11/24 20:47:45","新北市新店區建國路78號","121.540603333333","24.9765016666667","6500600","新店區"
"241011","013-R5","2018/11/24 20:47:45","新北市三重區河邊北街140號","121.503431666667","25.0721466666667","6500200","三重區"
"241028","022-UY","2018/11/24 20:47:46","新北市三重區中正南路50號","121.493991666667","25.0599166666667","6500200","三重區"
"241008","059-VK","2018/11/24 20:47:32","新北市三重區永福街72巷11號","121.479433333333","25.076825","6500200","三重區"
"241022","060-VK","2018/11/24 20:47:37","新北市三重區過圳街27-5號","121.487991666667","25.0624283333333","6500200","三重區"
"241031","061-VK","2018/11/24 20:47:44","新北市三重區重陽路一段113巷3號","121.487508333333","25.0598133333333","6500200","三重區"
"241015","062-VK","2018/11/24 20:47:51","新北市三重區自強路一段8號","121.498825","25.0683316666667","6500200","三重區"
"241017","063-VK","2018/11/24 20:47:48","新北市三重區民生街30號","121.491768333333","25.0671766666667","6500200","三重區"
"241024","065-VK","2018/11/24 20:47:48","新北市三重區三民街206號","121.480986666667","25.0662516666667","6500200","三重區"
"241026","066-VK","2018/11/24 20:47:40","新北市三重區和平街1號","121.500083333333","25.062345","6500200","三重區"
"241002","090-VK","2018/11/24 20:47:32","新北市三重區仁義街167巷39號","121.498325","25.0822083333333","6500200","三重區"
"241003","091-VK","2018/11/24 20:47:47","新北市三重區集賢路87-1號","121.493626666667","25.086815","6500200","三重區"
"251014","742-BX","2018/11/24 20:47:44","新北市淡水區公埔子32-8號","121.461645","25.2323666666667","6501000","淡水區"
"241005","262-UM","2018/11/24 20:47:30","新北市三重區五華街141巷35號","121.49246","25.085755","6500200","三重區"
"241016","265-UM","2018/11/24 20:47:45","新北市三重區正義北路147號","121.496558333333","25.066805","6500200","三重區"
"241009","267-UM","2018/11/24 20:47:35","新北市三重區三和路四段388-2號","121.482023333333","25.079085","6500200","三重區"
"241018","268-UM","2018/11/24 20:47:37","新北市三重區重陽路四段57號","121.492046666667","25.0704416666667","6500200","三重區"
"241032","269-UM","2018/11/24 20:47:49","新北市三重區重陽路一段120巷37號","121.485085","25.06026","6500200","三重區"
"241013","270-UM","2018/11/24 20:47:48","新北市三重區仁愛街129巷2號","121.495681666667","25.0749516666667","6500200","三重區"
"241025","271-UM","2018/11/24 20:47:36","新北市三重區貴陽街21號","121.484251666667","25.0618916666667","6500200","三重區"
"241007","398-BY","2018/11/24 20:47:28","新北市三重區慈愛街6號","121.484403333333","25.0783833333333","6500200","三重區"
"241035","KEA-2210","2018/11/24 20:47:51","新北市三重區三和路三段28-2號","121.496471666667","25.0705683333333","6500200","三重區"
"241004","475-VK","2018/11/24 20:47:41","新北市三重區分子尾街29號","121.489428333333","25.0812866666667","6500200","三重區"
"241030","480-VK","2018/11/24 20:47:49","新北市三重區昌隆街16號","121.492111666667","25.0525966666667","6500200","三重區"
"241014","543-UM","2018/11/24 20:47:34","新北市三重區萬全街59號","121.501176666667","25.0701933333333","6500200","三重區"
"241023","545-UM","2018/11/24 20:47:46","新北市三重區忠孝路三段84巷5號","121.480188333333","25.0643733333333","6500200","三重區"
"241001","547-UM","2018/11/24 20:47:49","新北市三重區自強路三段97號","121.487616666667","25.0751566666667","6500200","三重區"
"241019","KEA-2593","2018/11/24 20:47:31","新北市三重區忠孝路一段1號","121.492363333333","25.0717766666667","6500200","三重區"
"241006","AAD-863","2018/11/24 20:47:38","新北市三重區車路頭街139巷14號","121.484333333333","25.0761766666667","6500200","三重區"
"241020","743-BX","2018/11/24 20:36:12","新北市三重區忠孝路一段75號","121.490531666667","25.0720716666667","6500200","三重區"
"241012","941-UM","2018/11/24 20:47:40","新北市三重區仁信街29號","121.501243333333","25.07556","6500200","三重區"
"241029","942-UM","2018/11/24 20:47:44","新北市三重區重安街14號","121.490333333333","25.058195","6500200","三重區"
"247012","KEA-2869","2018/11/24 20:47:37","新北市蘆洲區復興路340巷41號","121.48387","25.0886783333333","6501400","蘆洲區"
"235069","4980-A6","2018/11/24 20:47:28","新北市中和區民樂路15號","121.481826666667","25.0017966666667","6500300","中和區"
"247002","893-R6","2018/11/24 20:47:47","新北市蘆洲區長榮路329號","121.45971","25.0871066666667","6501400","蘆洲區"
"247016","546-UM","2018/11/24 20:47:30","新北市蘆洲區中正路50號","121.470875","25.08271","6501400","蘆洲區"
"247024","500-BY","2018/11/24 20:47:43","新北市蘆洲區長樂路136號","121.462108333333","25.0900683333333","6501400","蘆洲區"
"247014","339-TH","2018/11/24 20:47:30","新北市蘆洲區復興路50號","121.472793333333","25.0854733333333","6501400","蘆洲區"
"247006","337-TH","2018/11/24 20:47:32","新北市蘆洲區永安南路二段16巷8號","121.467763333333","25.0772","6501400","蘆洲區"
"247008","336-TH","2018/11/24 20:47:44","新北市蘆洲區永安北路二段44號","121.482426666667","25.0832933333333","6501400","蘆洲區"
"247020","057-VK","2018/11/24 20:47:40","新北市蘆洲區仁愛街60號","121.47155","25.0938133333333","6501400","蘆洲區"
"247010","056-VK","2018/11/24 20:47:30","新北市蘆洲區鷺江街91號","121.476911666667","25.0837583333333","6501400","蘆洲區"
"247018","007-UY","2018/11/24 20:47:37","新北市蘆洲區民權路70號","121.474973333333","25.0873183333333","6501400","蘆洲區"
"247004","002-UY","2018/11/24 20:47:45","新北市蘆洲區長安街109號","121.461478333333","25.08105","6501400","蘆洲區"
"247022","001-UY","2018/11/24 20:47:42","新北市蘆洲區水湳街52號","121.471126666667","25.089935","6501400","蘆洲區"
"222001","KEA-2212","2018/11/24 20:47:46","新北市深坑區北深路三段129號","121.604026666667","25.0024966666667","6501800","深坑區"
"251009","008-UM","2018/11/24 20:34:20","新北市淡水區民權路187巷15號","121.460141666667","25.1334533333333","6501000","淡水區"
"251002","012-UM","2018/11/24 20:47:46","新北市淡水區中正東路6號","121.447031666667","25.1670316666667","6501000","淡水區"
"251013","KEA-2871","2018/11/24 20:47:42","新北市淡水區行忠路116號","121.452641666667","25.1990033333333","6501000","淡水區"
"251016","179-VK","2018/11/24 20:47:46","新北市淡水區淡金路四段180號","121.451566666667","25.2212983333333","6501000","淡水區"
"251015","182-VK","2018/11/24 20:47:36","新北市淡水區淡金路四段542巷17號","121.452736666667","25.2270966666667","6501000","淡水區"
"251010","413-VK","2018/11/24 20:47:45","新北市淡水區沙崙路126號","121.423533333333","25.1830033333333","6501000","淡水區"
"251012","441-VK","2018/11/24 20:47:45","新北市淡水區淡金路四段463號","121.451915","25.2234133333333","6501000","淡水區"
"251004","443-VK","2018/11/24 20:22:08","新北市淡水區民生路29號","121.461425","25.1380383333333","6501000","淡水區"
"251001","559-UM","2018/11/24 20:47:47","新北市淡水區淡金路218號","121.460521666667","25.1671783333333","6501000","淡水區"
"251007","577-R6","2018/11/24 20:47:39","新北市淡水區鄧公路35巷2號","121.451521666667","25.171215","6501000","淡水區"
"251011","650-BX","2018/11/24 20:47:34","新北市淡水區新市一路一段281巷2號","121.434325","25.1863983333333","6501000","淡水區"
"251003","766-UM","2018/11/24 20:47:38","新北市淡水區中山北路一段207巷76號","121.441083333333","25.17957","6501000","淡水區"
"237007","153-BY","2018/11/24 20:47:43","新北市樹林區中山路三段210-2號","121.380875","24.9663016666667","6500900","三峽區"
"242036","AAC-296","2018/11/24 20:47:38","新北市新莊區中正路516號","121.433561666667","25.0323616666667","6500500","新莊區"
"242056","751-BX","2018/11/24 20:47:42","新北市新莊區瓊泰路85號","121.443091666667","25.0294983333333","6500500","新莊區"
"242029","705-TV","2018/11/24 20:47:30","新北市新莊區中央路295號","121.451565","25.058975","6500500","新莊區"
"242025","613-BX","2018/11/24 20:45:56","新北市五股區中直路21號","121.421055","25.1120733333333","6500500","新莊區"
"242044","566-BX","2018/11/24 20:47:44","新北市新莊區裕民街19巷6號","121.419998333333","25.0250966666667","6500500","新莊區"
"242053","441-UM","2018/11/24 20:47:43","新北市新莊區新樹路279號","121.434108333333","25.020515","6500500","新莊區"
"242002","440-UM","2018/11/24 20:47:45","新北市新莊區中港路五守新村23巷2號","121.454961666667","25.0384533333333","6500500","新莊區"
"242039","415-TV","2018/11/24 20:47:36","新北市新莊區瓊林路59-11號","121.441641666667","25.0241933333333","6500500","新莊區"
"242009","413-TV","2018/11/24 20:47:29","新北市新莊區幸福路552號","121.454943333333","25.04943","6500500","新莊區"
"242046","400-BY","2018/11/24 20:47:29","新北市新莊區中正路591號","121.433165","25.03218","6500500","新莊區"
"242023","362-BY","2018/11/24 20:47:42","新北市三重區光復路二段180號","121.4716","25.0625766666667","6500500","新莊區"
"242011","132-UY","2018/11/24 20:47:41","新北市泰山區新五路一段25號","121.442323333333","25.0589616666667","6500500","新莊區"
"242051","172-VK","2018/11/24 20:47:37","新北市新莊區新樹路206巷3號","121.433485","25.02044","6500500","新莊區"
"242031","348-TH","2018/11/24 20:47:36","新北市新莊區中正路533-2號","121.439083333333","25.0332583333333","6500500","新莊區"
"242015","351-TH","2018/11/24 20:47:37","新北市新莊區和興街1號","121.447471666667","25.03874","6500500","新莊區"
"221036","130-UY","2018/11/24 20:47:39","新北市汐止區大同路二段187巷53號","121.6522","25.0663683333333","6501100","汐止區"
"221027","281-BY","2018/11/24 20:47:30","新北市汐止區大同路二段403號","121.658196666667","25.0673433333333","6501100","汐止區"
"221029","298-VK","2018/11/24 20:47:39","新北市汐止區樟樹二路106-1號","121.639605","25.0641083333333","6501100","汐止區"
"221035","622-UM","2018/11/24 20:47:49","新北市汐止區汐萬路一段144-2號","121.653023333333","25.0711533333333","6501100","汐止區"
"221038","646-BX","2018/11/24 20:47:40","新北市汐止區汐萬路一段256巷3號","121.652226666667","25.0747283333333","6501100","汐止區"
"221033","647-BX","2018/11/24 20:47:37","新北市汐止區合順街18巷8弄5號","121.620355","25.0419316666667","6501100","汐止區"
"221002","707-TV","2018/11/24 20:47:42","新北市汐止區福德二路二段170號","121.629546666667","25.0649566666667","6501100","汐止區"
"221018","753-BX","2018/11/24 20:47:40","新北市汐止區大同路二段407號","121.658345","25.0672483333333","6501100","汐止區"
"220083","286-VK","2018/11/24 20:47:46","新北市板橋區僑中二街116巷17號","121.444886666667","25.00647","6500100","板橋區"
"242042","281-VK","2018/11/24 20:47:46","新北市新莊區天祥街1巷1號","121.417195","25.0270966666667","6500500","新莊區"
"220103","561-BX","2018/11/24 20:47:39","新北市板橋區中山路一段29號","121.45983","25.008995","6500100","板橋區"
"220070","AAC-253","2018/11/24 20:47:41","新北市林口區汕頭32號","121.366343333333","25.134925","6500100","板橋區"
