"lineid","car","time","location","longitude","latitude","cityid","cityname"
"249003","593-UM","2018/11/24 21:24:38","新北市八里區挖子尾街6號","121.41544","25.1641633333333","6502300","八里區"
"251014","742-BX","2018/11/24 21:47:44","新北市淡水區行忠路2號","121.44766","25.1985966666667","6501000","淡水區"
"241032","269-UM","2018/11/24 21:47:49","新北市八里區荖阡坑路4-31號","121.398301666667","25.1418883333333","6500200","三重區"
"247012","KEA-2869","2018/11/24 21:47:37","新北市八里區中山路三段386號","121.368576666667","25.1356466666667","6501400","蘆洲區"
"235010","733-UM","2018/11/24 21:38:16","新北市中和區員山路36巷13號","121.484176666667","24.9908066666667","6500300","中和區"
"251009","008-UM","2018/11/24 21:47:41","新北市淡水區民族路35巷15號","121.464748333333","25.1367633333333","6501000","淡水區"
"251005","010-UM","2018/11/24 21:47:47","新北市淡水區鄧公路30-7號","121.452335","25.1697633333333","6501000","淡水區"
"251002","012-UM","2018/11/24 21:47:46","新北市淡水區學府路210號","121.447633333333","25.1764633333333","6501000","淡水區"
"251008","181-VK","2018/11/24 21:47:36","新北市淡水區學府路96號","121.449681666667","25.1715416666667","6501000","淡水區"
"251010","413-VK","2018/11/24 21:47:45","新北市淡水區中正路二段215號","121.426255","25.1892883333333","6501000","淡水區"
"251012","441-VK","2018/11/24 21:47:50","新北市淡水區淡金路三段347號","121.448796666667","25.2067433333333","6501000","淡水區"
"251004","443-VK","2018/11/24 21:47:42","新北市淡水區自強路201巷39號","121.462145","25.1267833333333","6501000","淡水區"
"251006","561-UM","2018/11/24 21:47:36","新北市淡水區中正路11巷3號","121.437825","25.170765","6501000","淡水區"
"251007","577-R6","2018/11/24 21:47:39","新北市淡水區北新路184巷242號","121.451883333333","25.1769616666667","6501000","淡水區"
"251011","650-BX","2018/11/24 21:47:34","新北市淡水區新民街322巷9號","121.436318333333","25.182835","6501000","淡水區"
"251003","766-UM","2018/11/24 21:47:38","新北市淡水區新春街96號","121.439091666667","25.1824333333333","6501000","淡水區"
"220070","AAC-253","2018/11/24 21:47:41","新北市板橋區華東街1-9號","121.448265","24.9948633333333","6500100","板橋區"
