"lineid","car","time","location","longitude","latitude","cityid","cityname"
"234040","862-TW","2018/11/24 21:57:00","新北市永和區福和路1號","121.526321666667","25.0097033333333","6500400","永和區"
"241032","269-UM","2018/11/24 21:59:49","新北市五股區中興路三段2巷10號","121.449086666667","25.0810383333333","6500200","三重區"
"235010","733-UM","2018/11/24 21:38:16","新北市中和區員山路36巷13號","121.484176666667","24.9908066666667","6500300","中和區"
"251005","010-UM","2018/11/24 21:59:46","新北市淡水區鄧公路30巷2弄63號","121.454438333333","25.1692816666667","6501000","淡水區"
"251008","181-VK","2018/11/24 21:59:36","新北市淡水區學府路104號","121.449858333333","25.1717916666667","6501000","淡水區"
"251010","413-VK","2018/11/24 21:59:45","新北市淡水區中正路二段215號","121.426261666667","25.1892666666667","6501000","淡水區"
"251004","443-VK","2018/11/24 21:59:42","新北市淡水區民族路31-13號","121.46144","25.1364083333333","6501000","淡水區"
"251006","561-UM","2018/11/24 21:59:36","新北市淡水區中正路11巷3號","121.437825","25.1707616666667","6501000","淡水區"
"251007","577-R6","2018/11/24 21:59:39","新北市淡水區北新路184巷29號","121.450345","25.1781583333333","6501000","淡水區"
"251011","650-BX","2018/11/24 21:59:34","新北市淡水區水碓街7號","121.443155","25.1771016666667","6501000","淡水區"
"251003","766-UM","2018/11/24 21:59:38","新北市淡水區新春街96號","121.43911","25.1824066666667","6501000","淡水區"
"220070","AAC-253","2018/11/24 21:59:41","新北市板橋區華東街1-9號","121.44826","24.994865","6500100","板橋區"
