"lineid","car","time","location","longitude","latitude","cityid","cityname"
"251008","181-VK","2018/11/24 22:27:36","新北市淡水區學府路104號","121.449831666667","25.1718","6501000","淡水區"
"251010","413-VK","2018/11/24 22:27:45","新北市淡水區沙崙路200號","121.424665","25.18393","6501000","淡水區"
"251004","443-VK","2018/11/24 22:24:22","新北市淡水區民族路33號","121.462213333333","25.135875","6501000","淡水區"
"251007","577-R6","2018/11/24 22:27:39","新北市淡水區北新路135號","121.44935","25.17883","6501000","淡水區"
"251011","650-BX","2018/11/24 22:27:34","新北市淡水區水碓街7號","121.443225","25.1771133333333","6501000","淡水區"
"220070","AAC-253","2018/11/24 22:07:26","新北市板橋區華東街1-9號","121.448266666667","24.9948616666667","6500100","板橋區"
