"lineid","car","time","location","longitude","latitude","cityid","cityname"
"248005","653-BX","2018/04/10 08:21:00","新北市五股區明德路12巷6號","121.433365","25.0718433333333","6501500","五股區"
"244002","248-BX","2018/04/10 08:39:36","新北市林口區下福里99-1號","121.29092","25.1174433333333","6501700","林口區"
"222004","289-BY","2018/04/10 08:38:35","新北市深坑區王軍寮1-3號","121.620793333333","24.985845","6501800","深坑區"
"231007","189-VK","2018/04/10 08:39:39","新北市新店區小坑二路15號","121.530328333333","24.91671","6500600","新店區"
"231009","192-VK","2018/04/10 08:39:34","新北市新店區新烏路三段165巷42-2號","121.5536","24.9010233333333","6500600","新店區"
"235001","611-BX","2018/04/10 08:39:42","新北市中和區員山路274號","121.481343333333","25.0019383333333","6500300","中和區"
"226005","5620-A6","2018/04/10 08:39:40","新北市平溪區南山里南山坪126號","121.785705","25.0460833333333","6502400","平溪區"
"226002","7418-A5","2018/04/10 08:38:37","新北市平溪區東勢里東勢格11號","121.735231666667","25.0029583333333","6502400","平溪區"
"226003","AGD-0702","2018/04/10 08:39:41","新北市平溪區十分里十分街240號","121.778146666667","25.0444116666667","6502400","平溪區"
"223006","022-BY","2018/04/10 08:39:26","新北市石碇區碇坪路一段130號","121.659165","24.9912983333333","6501900","石碇區"
"223001","205-TH","2018/04/10 08:39:31","新北市石碇區北宜路六段柑腳巷3-1號","121.65933","24.93788","6501900","石碇區"
"223008","406-TH","2018/04/10 08:39:20","新北市石碇區碇南路二段松柏崎巷45號","121.678031666667","25.0254566666667","6501900","石碇區"
"223001","592-UM","2018/04/10 08:39:41","新北市石碇區北宜路六段柑腳巷2號","121.659613333333","24.9380416666667","6501900","石碇區"
"223004","660-BX","2018/04/10 08:39:30","新北市石碇區崩山24-2號","121.678618333333","24.96787","6501900","石碇區"
"223007","661-BX","2018/04/10 08:39:31","新北市石碇區碇南路二段5號","121.67205","25.027155","6501900","石碇區"
"223005","677-TV","2018/04/10 08:39:39","新北市石碇區崩山33-3號","121.677043333333","24.9656566666667","6501900","石碇區"
"227006","282-VK","2018/04/10 08:39:24","新北市雙溪區上林里新寮子25號","121.831355","25.0271233333333","6502500","雙溪區"
"252004","249-BX","2018/04/10 08:39:42","新北市三芝區興華里楓子林38號","121.490688333333","25.2078866666667","6502100","三芝區"
"252007","AAC-283","2018/04/10 08:39:32","新北市三芝區後厝里番子崙20-1號","121.485655","25.2340916666667","6502100","三芝區"
"237001","159-UY","2018/04/10 08:39:22","新北市三峽區三樹路201號","121.377995","24.942175","6500900","三峽區"
"236008","165-UM","2018/04/10 08:39:36","新北市土城區金城路二段23-1號","121.448636666667","24.9769466666667","6501300","土城區"
"236002","339-SR","2018/04/10 08:39:21","新北市土城區中央路三段99-6號","121.436596666667","24.9670733333333","6501300","土城區"
"236006","498-BY","2018/04/10 08:39:30","新北市土城區永和街46號","121.434541666667","24.960675","6501300","土城區"
"220080","461-BY","2018/04/10 08:39:35","新北市板橋區大觀路二段435-10號","121.445601666667","24.9945483333333","6500100","板橋區"
