"lineid","car","time","location","longitude","latitude","cityid","cityname"
"248005","653-BX","2018/04/10 08:57:23","新北市五股區明德路12巷6號","121.433345","25.0718566666667","6501500","五股區"
"222004","289-BY","2018/04/10 08:57:35","新北市深坑區大崙尾1-1號","121.615685","24.9752","6501800","深坑區"
"231007","189-VK","2018/04/10 08:57:39","新北市新店區小坑二路17號","121.528085","24.9147066666667","6500600","新店區"
"231009","192-VK","2018/04/10 08:57:38","新北市新店區廣興路7-2號","121.54608","24.9121883333333","6500600","新店區"
"235001","611-BX","2018/04/10 08:57:22","新北市中和區華安街16巷2-1號","121.466685","24.9979316666667","6500300","中和區"
"226005","5620-A6","2018/04/10 08:57:40","新北市平溪區望古里灰3-1號","121.75538","25.0305933333333","6502400","平溪區"
"226002","7418-A5","2018/04/10 08:54:37","新北市平溪區東勢里東勢格10號","121.735533333333","25.00307","6502400","平溪區"
"226003","AGD-0702","2018/04/10 08:50:41","新北市平溪區南山里南山坪5號","121.761511666667","25.03374","6502400","平溪區"
"223001","205-TH","2018/04/10 08:57:31","新北市石碇區北宜路六段十三股巷3號","121.649668333333","24.9442883333333","6501900","石碇區"
"223008","406-TH","2018/04/10 08:54:58","新北市石碇區光明路28號","121.695253333333","25.023765","6501900","石碇區"
"223001","592-UM","2018/04/10 08:57:41","新北市石碇區北宜路五段十股寮巷5-2號","121.641735","24.9513233333333","6501900","石碇區"
"223004","660-BX","2018/04/10 08:57:30","新北市石碇區碇坪路二段51號","121.684365","24.97178","6501900","石碇區"
"223007","661-BX","2018/04/10 08:57:31","新北市石碇區光明路28號","121.695283333333","25.02375","6501900","石碇區"
"223005","677-TV","2018/04/10 08:57:22","新北市石碇區磨石坑18-9號","121.68386","24.9682616666667","6501900","石碇區"
"227006","282-VK","2018/04/10 08:57:43","新北市雙溪區上林里大瀨8號","121.827356666667","25.02401","6502500","雙溪區"
"252004","249-BX","2018/04/10 08:57:42","新北市三芝區興華里田心子31號","121.48883","25.2004233333333","6502100","三芝區"
"252007","AAC-283","2018/04/10 08:57:32","新北市三芝區錫板里番婆林44號","121.493496666667","25.2371083333333","6502100","三芝區"
"237001","159-UY","2018/04/10 08:57:22","新北市樹林區學勤路200號","121.377373333333","24.94688","6500900","三峽區"
"236008","165-UM","2018/04/10 08:57:36","新北市土城區中央路三段119-1號","121.434201666667","24.965745","6501300","土城區"
"236002","339-SR","2018/04/10 08:57:41","新北市土城區學府路二段79號","121.448678333333","24.9811066666667","6501300","土城區"
"236006","498-BY","2018/04/10 08:57:30","新北市土城區承天路10號","121.437191666667","24.9648333333333","6501300","土城區"
"220080","461-BY","2018/04/10 08:41:52","新北市板橋區華東街1-9號","121.448113333333","24.9947783333333","6500100","板橋區"
