"lineid","car","time","location","longitude","latitude","cityid","cityname"
"248005","653-BX","2018/04/10 10:09:23","新北市五股區中興路二段161號","121.457586666667","25.0770266666667","6501500","五股區"
"243001","267-VK","2018/04/10 09:51:14","新北市泰山區犁頭窠3-1號","121.422051666667","25.060545","6501600","泰山區"
"231007","189-VK","2018/04/10 10:09:39","新北市新店區新潭路三段215巷25號","121.508151666667","24.9040666666667","6500600","新店區"
"231009","192-VK","2018/04/10 10:09:34","新北市新店區平廣路一段30-1號","121.534761666667","24.903115","6500600","新店區"
"227006","282-VK","2018/04/10 10:09:43","新北市雙溪區長源里柑腳18號","121.804706666667","25.01434","6502500","雙溪區"
"252004","249-BX","2018/04/10 10:09:22","新北市三芝區福德里埔尾17號","121.504565","25.24419","6502100","三芝區"
"252007","AAC-283","2018/04/10 10:09:32","新北市三芝區古庄里古庄103-1號","121.494918333333","25.2719716666667","6502100","三芝區"
"237001","159-UY","2018/04/10 10:09:42","新北市三峽區國際一街45號","121.372566666667","24.9420616666667","6500900","三峽區"
