"lineid","car","time","location","longitude","latitude","cityid","cityname"
"248005","653-BX","2018/04/10 10:29:23","新北市五股區中興路二段37巷26號","121.460523333333","25.0749616666667","6501500","五股區"
"231007","189-VK","2018/04/10 10:29:39","新北市新店區新潭路三段121巷8號","121.51208","24.9122866666667","6500600","新店區"
"231009","192-VK","2018/04/10 10:29:34","新北市新店區小坑一路35巷2號","121.527966666667","24.9091466666667","6500600","新店區"
"227006","282-VK","2018/04/10 10:29:43","新北市雙溪區上林里新寮子13-5號","121.838358333333","25.033005","6502500","雙溪區"
"237001","159-UY","2018/04/10 10:29:42","新北市三峽區學勤路198-2號","121.377321666667","24.9467016666667","6500900","三峽區"
