"lineid","car","time","location","longitude","latitude","cityid","cityname"
"234044","148-BY","2018/04/10 13:59:36","新北市永和區成功路一段20號","121.526933333333","25.0050066666667","6500400","永和區"
"234068","149-BY","2018/04/10 13:59:36","新北市永和區國光路14號","121.519063333333","25.008385","6500400","永和區"
"234005","207-UY","2018/04/10 13:59:31","新北市中和區中和路296-1號","121.509013333333","24.9996016666667","6500400","永和區"
"234078","298-R6","2018/04/10 13:59:42","新北市永和區國中路53號","121.524623333333","25.0058866666667","6500400","永和區"
"234036","336-UY","2018/04/10 13:59:35","新北市永和區成功路二段80號","121.526643333333","24.998755","6500400","永和區"
"234062","337-UY","2018/04/10 13:59:38","新北市永和區中正路428巷30弄59號","121.519826666667","25.0012666666667","6500400","永和區"
"234084","338-UY","2018/04/10 13:59:46","新北市永和區福和路130號","121.52198","25.0079966666667","6500400","永和區"
"234066","553-UM","2018/04/10 13:59:38","新北市永和區永貞路358號","121.510235","25.0066066666667","6500400","永和區"
"234015","745-BX","2018/04/10 13:59:41","新北市永和區文化路34號","121.515035","25.0150733333333","6500400","永和區"
"234028","746-BX","2018/04/10 13:59:45","新北市永和區四維街67號","121.525695","24.9978733333333","6500400","永和區"
"234052","KEA-2590","2018/04/10 13:59:37","新北市永和區竹林路39巷46號","121.520225","25.0152733333333","6500400","永和區"
"234012","KEA-2591","2018/04/10 13:59:37","新北市永和區保生路55號","121.504691666667","25.0106233333333","6500400","永和區"
"234060","AAD-866","2018/04/10 13:59:50","新北市永和區中正路151巷8弄1號","121.515941666667","24.9986983333333","6500400","永和區"
"234040","862-TW","2018/04/10 13:59:36","新北市永和區中和路335巷14號","121.507485","25.00027","6500400","永和區"
"234048","863-TW","2018/04/10 13:59:42","新北市永和區保安路250號","121.50644","25.01261","6500400","永和區"
"234010","9373-KE","2018/04/10 13:59:28","新北市永和區仁愛路352巷112弄8號","121.501043333333","25.008535","6500400","永和區"
"248017","225-UY","2018/04/10 13:59:28","新北市五股區民義路二段18-1號","121.420498333333","25.096625","6501500","五股區"
"234022","9380-KE","2018/04/10 13:59:46","新北市永和區復興街52號","121.516518333333","25.0131833333333","6500400","永和區"
"234076","969-R7","2018/04/10 13:59:44","新北市永和區民族街43巷15號","121.519191666667","24.998425","6500400","永和區"
"234072","AAC-211","2018/04/10 13:59:46","新北市永和區豫溪街161-1號","121.521478333333","25.0104916666667","6500400","永和區"
"234001","AAC-295","2018/04/10 13:59:38","新北市永和區福和路316-3號","121.515891666667","25.0074166666667","6500400","永和區"
"231002","002-UM","2018/04/10 13:59:35","新北市新店區中正路630號","121.533943333333","24.989045","6500600","新店區"
"231038","0293-UT","2018/04/10 13:59:48","新北市新店區溪洲路101-1號","121.532031666667","24.9624533333333","6500600","新店區"
"231028","046-UY","2018/04/10 13:59:42","新北市新店區安和路三段46號","121.51795","24.9819216666667","6500600","新店區"
"231001","047-UY","2018/04/10 13:59:30","新北市新店區三民路20巷3號","121.537238333333","24.97096","6500600","新店區"
"231005","106-UY","2018/04/10 13:59:38","新北市新店區中興路三段221-2號","121.543388333333","24.9825116666667","6500600","新店區"
"231020","110-UY","2018/04/10 13:59:41","新北市新店區屈尺路93號","121.545565","24.923165","6500600","新店區"
"231012","187-VK","2018/04/10 13:59:31","新北市新店區中正路2號","121.546001666667","24.969445","6500600","新店區"
"231010","188-VK","2018/04/10 13:59:44","新北市新店區中央路151號","121.529366666667","24.97223","6500600","新店區"
"231026","256-BX","2018/04/10 13:59:31","新北市新店區安康路一段35-1號","121.532101666667","24.9606133333333","6500600","新店區"
"231018","278-BY","2018/04/10 13:59:35","新北市新店區中央路192號","121.530926666667","24.9748283333333","6500600","新店區"
"231015","AAD-862","2018/04/10 13:59:48","新北市新店區北宜路二段291號","121.555635","24.9536916666667","6500600","新店區"
"231027","3713-VJ","2018/04/10 13:59:39","新北市新店區中興路一段24-2號","121.53859","24.9583883333333","6500600","新店區"
"231037","4716-K9","2018/04/10 13:59:45","新北市新店區安康路三段355巷1號","121.484335","24.9507766666667","6500600","新店區"
"231025","4715-K9","2018/04/10 13:59:47","新北市新店區中正路328巷5號","121.53715","24.97527","6500600","新店區"
"231036","512-UM","2018/04/10 13:59:41","新北市新店區安祥路109巷2號","121.475301666667","24.95868","6500600","新店區"
"231013","513-UM","2018/04/10 13:59:44","新北市新店區明德路62號","121.54163","24.9793583333333","6500600","新店區"
"231006","618-UM","2018/04/10 13:59:30","新北市新店區北宜路二段215號","121.553316666667","24.95317","6500600","新店區"
"231030","619-UM","2018/04/10 13:59:48","新北市新店區安康路一段302號","121.518488333333","24.964085","6500600","新店區"
"231034","641-BX","2018/04/10 13:59:36","新北市新店區達觀路14巷1號","121.50462","24.9416483333333","6500600","新店區"
"231003","645-TV","2018/04/10 13:59:30","新北市新店區光明街138巷13弄3號","121.540421666667","24.9612383333333","6500600","新店區"
"231035","719-UM","2018/04/10 13:59:41","新北市新店區安和路一段52巷2號","121.517656666667","24.9662433333333","6500600","新店區"
"231023","719-UY","2018/04/10 13:59:29","新北市新店區文中路40號","121.539688333333","24.9565716666667","6500600","新店區"
"231032","720-UM","2018/04/10 13:59:49","新北市新店區華城路16-1號","121.529171666667","24.9575633333333","6500600","新店區"
"231029","897-TW","2018/04/10 13:59:39","新北市新店區安和路一段1號","121.516505","24.9637533333333","6500600","新店區"
"231004","899-TW","2018/04/10 13:59:44","新北市新店區北新路二段125號","121.542863333333","24.97523","6500600","新店區"
"231024","AKT-0513","2018/04/10 13:59:44","新北市新店區中華路83巷67號","121.538301666667","24.9672633333333","6500600","新店區"
"235030","003-UY","2018/04/10 13:59:32","新北市中和區光華街10號","121.504173333333","25.0042166666667","6500300","中和區"
"235028","005-UY","2018/04/10 13:59:43","新北市中和區泰和街38巷19號","121.498808333333","25.0007983333333","6500300","中和區"
"235027","006-UY","2018/04/10 13:59:41","新北市中和區連城路403號","121.486151666667","24.9962433333333","6500300","中和區"
"235020","096-UM","2018/04/10 13:59:39","新北市中和區中正路1220巷1號","121.47969","25.0110683333333","6500300","中和區"
"235003","097-UM","2018/04/10 13:59:29","新北市中和區景平路64巷18號","121.522381666667","24.9912933333333","6500300","中和區"
"235029","098-UM","2018/04/10 13:59:44","新北市中和區中山路二段136巷40號","121.501203333333","25.0044966666667","6500300","中和區"
"235004","150-BY","2018/04/10 13:59:43","新北市中和區保健路65號","121.509733333333","24.9971466666667","6500300","中和區"
"235022","151-BY","2018/04/10 13:59:29","新北市中和區員山路90號","121.48089","24.9943566666667","6500300","中和區"
"235019","183-VK","2018/04/10 13:59:48","新北市中和區中山路三段206號","121.47158","25.006505","6500300","中和區"
"235002","185-VK","2018/04/10 13:59:37","新北市中和區大勇街27巷1號","121.517291666667","24.9935166666667","6500300","中和區"
"235013","186-VK","2018/04/10 13:59:46","新北市中和區景安路130號","121.505201666667","24.9945233333333","6500300","中和區"
"235031","255-BX","2018/04/10 13:59:45","新北市中和區新生街197號","121.483751666667","25.0001","6500300","中和區"
"235008","293-VK","2018/04/10 13:59:38","新北市中和區中興街161巷1弄1號","121.5002","24.99094","6500300","中和區"
"235036","301-VK","2018/04/10 13:59:46","新北市中和區中山路二段103號","121.503366666667","25.0038216666667","6500300","中和區"
"235007","352-BY","2018/04/10 13:59:47","新北市中和區成功路81號","121.526191666667","24.99213","6500300","中和區"
"235032","377-QA","2018/04/10 13:59:30","新北市中和區連勝街38巷22號","121.497781666667","24.99818","6500300","中和區"
"235025","378-QA","2018/04/10 13:59:41","新北市中和區中山路三段65號","121.476478333333","25.0057766666667","6500300","中和區"
"235024","269-TV","2018/04/10 13:59:30","新北市中和區中山路三段159號","121.473413333333","25.00623","6500300","中和區"
"235014","4979-A6","2018/04/10 13:59:45","新北市中和區興南路二段49號","121.507271666667","24.9854116666667","6500300","中和區"
"235033","4980-A6","2018/04/10 13:59:40","新北市中和區中和路185號","121.503371666667","24.9998516666667","6500300","中和區"
"235006","551-UM","2018/04/10 13:59:34","新北市中和區秀朗路三段10巷21弄8號","121.525233333333","24.99602","6500300","中和區"
"235034","558-UM","2018/04/10 13:59:28","新北市中和區安和路159號","121.506196666667","24.9974466666667","6500300","中和區"
"235009","565-BX","2018/04/10 13:59:34","新北市中和區景新街467巷20弄86號","121.51442","24.9875916666667","6500300","中和區"
"235018","640-BX","2018/04/10 13:59:38","新北市中和區國光街8巷2號","121.471813333333","25.0001816666667","6500300","中和區"
"235011","732-UM","2018/04/10 13:59:38","新北市中和區興南路二段54巷11弄13號","121.505486666667","24.9852366666667","6500300","中和區"
"235010","733-UM","2018/04/10 13:59:41","新北市中和區興南路一段135巷20號","121.50932","24.9869766666667","6500300","中和區"
"235035","783-BX","2018/04/10 13:59:45","新北市中和區立德街76號","121.487615","25.007825","6500300","中和區"
"235026","800-TS","2018/04/10 13:59:43","新北市中和區中山路二段378號","121.491326666667","25.0035983333333","6500300","中和區"
"235021","801-TS","2018/04/10 13:59:38","新北市中和區民利街56號","121.479015","24.9988016666667","6500300","中和區"
"235016","805-TS","2018/04/10 13:59:32","新北市中和區興南路二段131-9號","121.503996666667","24.9808816666667","6500300","中和區"
"235012","896-TW","2018/04/10 13:59:48","新北市中和區華新街84號","121.508431666667","24.9833116666667","6500300","中和區"
"235017","900-TW","2018/04/10 13:59:44","新北市中和區民德路378號","121.465226666667","24.994435","6500300","中和區"
"235015","157-BY","2018/04/10 13:59:28","新北市中和區忠孝街19巷24-1號","121.510001666667","24.9835083333333","6500300","中和區"
"235001","AAC-213","2018/04/10 13:59:42","新北市中和區秀朗路三段10巷16弄2號","121.524058333333","24.9962616666667","6500300","中和區"
"235023","AAC-215","2018/04/10 13:59:28","新北市中和區圓通路369巷14弄20號","121.490431666667","24.9878766666667","6500300","中和區"
"220004","015-TV","2018/04/10 13:59:28","新北市板橋區信義路112號","121.458186666667","24.99252","6500100","板橋區"
"220013","072-UY","2018/04/10 13:59:44","新北市板橋區漢生東路342號","121.471776666667","25.0074233333333","6500100","板橋區"
"220034","073-UY","2018/04/10 13:59:40","新北市板橋區中正路236巷46號","121.457378333333","25.0192733333333","6500100","板橋區"
"220014","075-UY","2018/04/10 13:59:51","新北市板橋區三民路二段正隆巷16號","121.477791666667","25.012945","6500100","板橋區"
"220017","AAD-861","2018/04/10 13:59:39","新北市板橋區縣民大道一段108號","121.45703","25.0056983333333","6500100","板橋區"
"247009","341-TH","2018/04/10 13:59:47","新北市蘆洲區集賢路224巷1號","121.482266666667","25.08664","6501400","蘆洲區"
"247011","339-TH","2018/04/10 13:59:28","新北市蘆洲區民族路87號","121.479401666667","25.0861783333333","6501400","蘆洲區"
"247003","337-TH","2018/04/10 13:59:31","新北市蘆洲區中華街8號","121.463298333333","25.081635","6501400","蘆洲區"
"247005","336-TH","2018/04/10 13:59:40","新北市蘆洲區永安南路二段76號","121.464468333333","25.0782083333333","6501400","蘆洲區"
"247017","057-VK","2018/04/10 13:59:47","新北市蘆洲區民族路227巷22弄1號","121.476646666667","25.0890683333333","6501400","蘆洲區"
"247007","056-VK","2018/04/10 13:59:44","新北市蘆洲區永安北路二段16號","121.481396666667","25.0809283333333","6501400","蘆洲區"
"247013","053-VK","2018/04/10 13:59:40","新北市蘆洲區中正路116號","121.469425","25.0847216666667","6501400","蘆洲區"
"247015","007-UY","2018/04/10 13:59:44","新北市蘆洲區光華路40號","121.468926666667","25.083175","6501400","蘆洲區"
"247019","001-UY","2018/04/10 13:59:49","新北市蘆洲區民族路422巷33弄1號","121.473381666667","25.09344","6501400","蘆洲區"
"235005","251-BX","2018/04/10 13:59:41","新北市中和區中安街26號","121.513325","25.0029466666667","6500300","中和區"
"228004","212-TW","2018/04/10 13:59:33","新北市貢寮區龍崗里嵩陽街35-1號","121.906741666667","25.017605","6502600","貢寮區"
"228005","828-UM","2018/04/10 13:53:41","新北市貢寮區美豐里土地公嶺24號","121.890876666667","25.06503","6502600","貢寮區"
"207002","749-BX","2018/04/10 13:59:38","新北市萬里區溪底里溪底路10號","121.617565","25.1486666666667","6502800","萬里區"
"207001","662-BX","2018/04/10 13:59:31","新北市萬里區磺潭里清水18號","121.637766666667","25.1977283333333","6502800","萬里區"
"252005","AAC-283","2018/04/10 13:59:38","新北市三芝區橫山里大坑70-3號","121.533955","25.2541366666667","6502100","三芝區"
"236065","105-UM","2018/04/10 13:59:45","新北市土城區和平路54號","121.445183333333","24.9690266666667","6501300","土城區"
"236040","107-UM","2018/04/10 13:59:43","新北市土城區中華路一段251號","121.440613333333","24.9812433333333","6501300","土城區"
"236074","166-UM","2018/04/10 13:59:37","新北市土城區永寧路32巷10弄25號","121.428806666667","24.9611233333333","6501300","土城區"
"236029","253-BX","2018/04/10 13:59:45","新北市土城區城林路6巷80號","121.438483333333","24.9798333333333","6501300","土城區"
"236024","269-VK","2018/04/10 13:59:49","新北市土城區中華路二段62號","121.438965","24.9770166666667","6501300","土城區"
"236013","270-VK","2018/04/10 13:59:39","新北市土城區學府路二段225號","121.445266666667","24.9781316666667","6501300","土城區"
"236032","271-VK","2018/04/10 13:59:34","新北市土城區城林路6巷80號","121.43845","24.979785","6501300","土城區"
"236017","401-BY","2018/04/10 13:59:35","新北市土城區城林路6巷80號","121.43838","24.9797133333333","6501300","土城區"
"236006","498-BY","2018/04/10 13:59:37","新北市土城區中央路一段260號","121.444191666667","24.98425","6501300","土城區"
"236057","912-UM","2018/04/10 13:59:39","新北市土城區中央路三段238號","121.428523333333","24.964425","6501300","土城區"
"236045","913-UM","2018/04/10 13:59:50","新北市土城區員林街5號","121.442505","24.9781483333333","6501300","土城區"
"236060","915-UM","2018/04/10 13:59:45","新北市土城區員福街12號","121.441663333333","24.9785733333333","6501300","土城區"
"236054","AAC-216","2018/04/10 13:59:46","新北市土城區城林路6巷80號","121.438233333333","24.9798783333333","6501300","土城區"
"242048","172-VK","2018/04/10 13:59:43","新北市板橋區大觀路三段2巷7號","121.435176666667","24.9963783333333","6500500","新莊區"
"220027","145-BY","2018/04/10 13:59:48","新北市板橋區民權路202巷6弄2號","121.460033333333","25.0145983333333","6500100","板橋區"
"220028","200-UY","2018/04/10 13:59:46","新北市板橋區大觀路二段153巷46弄42號","121.449231666667","25.0002066666667","6500100","板橋區"
"220105","KEA-2550","2018/04/10 13:59:42","新北市板橋區莒光路69號","121.471475","25.0243616666667","6500100","板橋區"
"220030","610-BX","2018/04/10 13:59:50","新北市板橋區溪北路17號","121.426938333333","24.9903533333333","6500100","板橋區"
"220050","245-BX","2018/04/10 13:59:43","新北市板橋區文化路二段182巷13號","121.472168333333","25.0267133333333","6500100","板橋區"
"220052","257-TC","2018/04/10 13:59:42","新北市板橋區縣民大道二段200巷13號","121.469926666667","25.0177016666667","6500100","板橋區"
"220040","267-BY","2018/04/10 13:59:41","新北市板橋區大同街52號","121.478833333333","25.0275483333333","6500100","板橋區"
"220020","277-BY","2018/04/10 13:59:37","新北市板橋區大觀路三段36巷4號","121.433823333333","24.9959066666667","6500100","板橋區"
"220018","282-UM","2018/04/10 13:59:38","新北市板橋區四川路一段296號","121.4587","25.0005466666667","6500100","板橋區"
"220019","283-VK","2018/04/10 13:59:29","新北市板橋區重慶路245巷50弄32號","121.465315","25.0006733333333","6500100","板橋區"
"220043","285-UM","2018/04/10 13:59:31","新北市板橋區文化路二段76號","121.469206666667","25.0251216666667","6500100","板橋區"
"220001","285-VK","2018/04/10 13:59:46","新北市板橋區中山路二段145號","121.47537","25.0164966666667","6500100","板橋區"
"220031","286-VK","2018/04/10 13:59:45","新北市板橋區龍興街97巷8號","121.443848333333","25.0028183333333","6500100","板橋區"
"220029","287-VK","2018/04/10 13:59:28","新北市板橋區光華街44巷2-1號","121.453791666667","25.0129383333333","6500100","板橋區"
"220039","288-VK","2018/04/10 13:59:35","新北市板橋區四維路177巷1弄2號","121.464063333333","25.0261533333333","6500100","板橋區"
"220009","293-UM","2018/04/10 13:59:49","新北市板橋區永豐街120巷2弄11號","121.476343333333","25.0202783333333","6500100","板橋區"
"220023","303-R5","2018/04/10 13:59:33","新北市板橋區館前西路213巷7號","121.454475","25.0083216666667","6500100","板橋區"
"220010","305-R5","2018/04/10 13:59:47","新北市板橋區三民路二段245巷44號","121.480925","25.0125683333333","6500100","板橋區"
"220041","307-R5","2018/04/10 13:59:41","新北市板橋區文化路一段90號","121.464395","25.0177683333333","6500100","板橋區"
"220047","317-R6","2018/04/10 13:59:36","新北市板橋區民有街32號","121.465993333333","25.0254033333333","6500100","板橋區"
"220012","486-VK","2018/04/10 13:59:43","新北市板橋區板新路237號","121.46754","25.01589","6500100","板橋區"
"220037","491-VK","2018/04/10 13:59:36","新北市板橋區民生路二段216號","121.469366666667","25.0215066666667","6500100","板橋區"
"220104","560-BX","2018/04/10 13:59:45","新北市板橋區中正路375巷30號","121.45346","25.0207733333333","6500100","板橋區"
"220032","568-UM","2018/04/10 13:59:29","新北市板橋區大觀路三段50巷49號","121.432231666667","24.9958883333333","6500100","板橋區"
"220011","609-BX","2018/04/10 13:59:32","新北市板橋區中山路二段229號","121.47684","25.017355","6500100","板橋區"
"220003","630-UY","2018/04/10 13:59:38","新北市板橋區中山路一段158巷27號","121.46668","25.0111983333333","6500100","板橋區"
"220005","686-BX","2018/04/10 13:59:45","新北市板橋區重慶路56號","121.461676666667","25.0072233333333","6500100","板橋區"
"220042","689-BX","2018/04/10 13:59:41","新北市板橋區民生路三段64號","121.467061666667","25.0253166666667","6500100","板橋區"
"220002","741-BX","2018/04/10 13:59:31","新北市板橋區重慶路127巷16號","121.4635","25.0048933333333","6500100","板橋區"
"220051","KEA-2699","2018/04/10 13:59:41","新北市板橋區懷德街235巷2-1號","121.481353333333","25.028075","6500100","板橋區"
"220016","830-TW","2018/04/10 13:59:43","新北市板橋區中山路二段465巷24號","121.481478333333","25.021125","6500100","板橋區"
"220045","831-TW","2018/04/10 13:59:47","新北市板橋區莒光路135號","121.473155","25.0241","6500100","板橋區"
"220038","833-TW","2018/04/10 13:59:44","新北市板橋區文化路二段294號","121.472183333333","25.0295316666667","6500100","板橋區"
"220022","895-R6","2018/04/10 13:59:29","新北市板橋區南雅南路一段8-5號","121.455971666667","25.0065166666667","6500100","板橋區"
"220021","985-R7","2018/04/10 13:59:31","新北市板橋區中正路43號","121.456331666667","25.01341","6500100","板橋區"
"220046","AAC-210","2018/04/10 13:59:29","新北市板橋區漢生東路7號","121.46472","25.0175883333333","6500100","板橋區"
"220025","AAC-253","2018/04/10 13:59:34","新北市板橋區大觀路一段38巷1號","121.443525","25.0044083333333","6500100","板橋區"
