"lineid","car","time","location","longitude","latitude","cityid","cityname"
"234044","148-BY","2018/04/10 14:09:36","新北市永和區得和路354號","121.523921666667","24.9994416666667","6500400","永和區"
"234068","149-BY","2018/04/10 14:09:36","新北市永和區福和路231號","121.518595","25.00755","6500400","永和區"
"234005","207-UY","2018/04/10 14:09:31","新北市中和區保平路360號","121.506356666667","25.0038583333333","6500400","永和區"
"234078","298-R6","2018/04/10 14:09:37","新北市永和區永亨路100號","121.523101666667","25.0048883333333","6500400","永和區"
"234036","336-UY","2018/04/10 14:09:35","新北市永和區成功路一段47巷9號","121.527578333333","25.0040466666667","6500400","永和區"
"234062","337-UY","2018/04/10 14:09:38","新北市永和區永利路146號","121.522325","25.002775","6500400","永和區"
"234084","338-UY","2018/04/10 14:09:32","新北市永和區中正路652號","121.516853333333","25.0086033333333","6500400","永和區"
"234066","553-UM","2018/04/10 14:09:38","新北市永和區保平路236巷1弄2號","121.508846666667","25.0059116666667","6500400","永和區"
"234015","745-BX","2018/04/10 14:09:41","新北市永和區仁愛路54-1號","121.513651666667","25.0134033333333","6500400","永和區"
"234028","746-BX","2018/04/10 14:09:45","新北市永和區民生路22巷36號","121.520878333333","24.99695","6500400","永和區"
"234052","KEA-2590","2018/04/10 14:09:37","新北市永和區博愛街21巷1號","121.517653333333","25.0158583333333","6500400","永和區"
"234012","KEA-2591","2018/04/10 14:09:37","新北市永和區中山路一段263號","121.507393333333","25.0073683333333","6500400","永和區"
"234060","AAD-866","2018/04/10 14:09:50","新北市永和區安樂路166號","121.514505","25.0008383333333","6500400","永和區"
"234040","862-TW","2018/04/10 14:09:36","新北市永和區雙和街64巷19號","121.509681666667","25.00341","6500400","永和區"
"234048","863-TW","2018/04/10 14:09:42","新北市永和區環河西路二段65號","121.506968333333","25.0152666666667","6500400","永和區"
"234025","9371-KE","2018/04/10 14:09:33","新北市永和區安樂路272巷9弄7號","121.515078333333","25.0046516666667","6500400","永和區"
"234010","9373-KE","2018/04/10 14:09:28","新北市永和區仁愛路352巷122弄11號","121.50066","25.0088733333333","6500400","永和區"
"248017","225-UY","2018/04/10 14:09:49","新北市五股區民義路一段220巷17號","121.428956666667","25.0945966666667","6501500","五股區"
"234022","9380-KE","2018/04/10 14:09:46","新北市永和區博愛街30號","121.518631666667","25.0156933333333","6500400","永和區"
"234076","969-R7","2018/04/10 14:09:43","新北市中和區自強路6-2號","121.519913333333","24.9960116666667","6500400","永和區"
"234072","AAC-211","2018/04/10 14:09:46","新北市永和區竹林路201巷24弄1號","121.522353333333","25.0096616666667","6500400","永和區"
"234001","AAC-295","2018/04/10 14:09:38","新北市永和區中山路一段2號","121.514326666667","25.0104316666667","6500400","永和區"
"231002","002-UM","2018/04/10 14:09:35","新北市新店區中正路487號","121.533801666667","24.9820833333333","6500600","新店區"
"231038","0293-UT","2018/04/10 14:09:48","新北市新店區溪洲路52號","121.5328","24.961325","6500600","新店區"
"231028","046-UY","2018/04/10 14:09:42","新北市新店區安業街1-1號","121.516563333333","24.97868","6500600","新店區"
"231001","047-UY","2018/04/10 14:09:31","新北市新店區中華路14號","121.540533333333","24.9675583333333","6500600","新店區"
"231005","106-UY","2018/04/10 14:09:38","新北市新店區中興路三段259號","121.54233","24.9845583333333","6500600","新店區"
"231020","110-UY","2018/04/10 14:09:47","新北市新店區屈尺路75號","121.545756666667","24.9226716666667","6500600","新店區"
"231012","187-VK","2018/04/10 14:09:31","新北市新店區中興路一段264號","121.544773333333","24.9672633333333","6500600","新店區"
"231010","188-VK","2018/04/10 14:09:44","新北市新店區安康路一段258號","121.520706666667","24.9639416666667","6500600","新店區"
"231018","278-BY","2018/04/10 14:09:35","新北市新店區中央五街46號","121.528143333333","24.97519","6500600","新店區"
"231015","AAD-862","2018/04/10 14:09:38","新北市新店區中生路88號","121.565028333333","24.9512933333333","6500600","新店區"
"231027","3713-VJ","2018/04/10 14:09:19","新北市新店區北宜路一段3號","121.538306666667","24.9583966666667","6500600","新店區"
"231037","4716-K9","2018/04/10 14:09:45","新北市新店區安康路三段148號","121.490623333333","24.9517816666667","6500600","新店區"
"231025","4715-K9","2018/04/10 14:09:47","新北市新店區自立街45巷7號","121.5366","24.9795816666667","6500600","新店區"
"231036","512-UM","2018/04/10 14:09:36","新北市新店區安祥路109巷2號","121.475186666667","24.9584033333333","6500600","新店區"
"231013","513-UM","2018/04/10 14:09:44","新北市新店區北新路三段49號","121.541816666667","24.98059","6500600","新店區"
"231006","618-UM","2018/04/10 14:09:30","新北市新店區北宜路二段150-2號","121.558008333333","24.9540683333333","6500600","新店區"
"231030","619-UM","2018/04/10 14:09:28","新北市新店區安興路3巷2號","121.515093333333","24.9676283333333","6500600","新店區"
"231034","641-BX","2018/04/10 14:09:36","新北市新店區車子路11號","121.503001666667","24.9520466666667","6500600","新店區"
"231003","645-TV","2018/04/10 14:09:30","新北市新店區中興路一段34號","121.538653333333","24.9586183333333","6500600","新店區"
"231035","719-UM","2018/04/10 14:09:41","新北市新店區安和路一段52巷2-1號","121.517656666667","24.9662533333333","6500600","新店區"
"231023","719-UY","2018/04/10 14:09:50","新北市新店區北宜路一段37號","121.538441666667","24.95741","6500600","新店區"
"231032","720-UM","2018/04/10 14:09:49","新北市新店區永業路41號","121.532441666667","24.9552366666667","6500600","新店區"
"231029","897-TW","2018/04/10 14:09:39","新北市新店區安康路二段156號","121.512301666667","24.9609666666667","6500600","新店區"
"231004","899-TW","2018/04/10 14:09:39","新北市新店區北新路二段156-1號","121.543071666667","24.975555","6500600","新店區"
"231024","AKT-0513","2018/04/10 14:09:44","新北市新店區中華路83巷67號","121.538326666667","24.9672633333333","6500600","新店區"
"235030","003-UY","2018/04/10 14:09:32","新北市中和區廣福路112號","121.502148333333","25.00126","6500300","中和區"
"235028","005-UY","2018/04/10 14:09:43","新北市中和區泰和街48號","121.499011666667","24.9996033333333","6500300","中和區"
"235027","006-UY","2018/04/10 14:09:41","新北市中和區連城路249巷5號","121.49369","24.9968133333333","6500300","中和區"
"235020","096-UM","2018/04/10 14:09:39","新北市中和區員山路568號","121.47861","25.0105683333333","6500300","中和區"
"235003","097-UM","2018/04/10 14:09:29","新北市中和區秀峰街56號","121.521016666667","24.9903466666667","6500300","中和區"
"235029","098-UM","2018/04/10 14:09:44","新北市中和區中山路二段64巷16弄12號","121.503645","25.006025","6500300","中和區"
"235004","150-BY","2018/04/10 14:09:43","新北市中和區宜安路121號","121.510021666667","24.9978833333333","6500300","中和區"
"235022","151-BY","2018/04/10 14:09:49","新北市中和區員山路110號","121.481086666667","24.995615","6500300","中和區"
"235019","183-VK","2018/04/10 14:09:28","新北市中和區德光路55號","121.469916666667","25.0039233333333","6500300","中和區"
"235002","185-VK","2018/04/10 14:09:37","新北市中和區大仁街10巷9弄20號","121.519141666667","24.9927916666667","6500300","中和區"
"235013","186-VK","2018/04/10 14:09:46","新北市中和區景新街170號","121.506043333333","24.9965666666667","6500300","中和區"
"235031","255-BX","2018/04/10 14:09:45","新北市中和區新生街168號","121.483683333333","25.0002033333333","6500300","中和區"
"235008","293-VK","2018/04/10 14:09:38","新北市中和區中興街214號","121.499461666667","24.9899766666667","6500300","中和區"
"235036","301-VK","2018/04/10 14:09:46","新北市中和區景平路681號","121.496476666667","25.0029466666667","6500300","中和區"
"235007","352-BY","2018/04/10 14:09:47","新北市中和區景平路120號","121.519288333333","24.9918283333333","6500300","中和區"
"235032","377-QA","2018/04/10 14:09:30","新北市中和區連勝街47-8號","121.498426666667","24.9972616666667","6500300","中和區"
"235025","378-QA","2018/04/10 14:09:41","新北市中和區員山路130號","121.481101666667","24.9962166666667","6500300","中和區"
"235024","269-TV","2018/04/10 14:09:30","新北市中和區民享街91-12號","121.474636666667","25.0007316666667","6500300","中和區"
"235014","4979-A6","2018/04/10 14:09:45","新北市中和區復興路280巷18弄20號","121.501716666667","24.992165","6500300","中和區"
"235033","4980-A6","2018/04/10 14:09:40","新北市中和區廣福路106號","121.502435","25.0012533333333","6500300","中和區"
"235006","551-UM","2018/04/10 14:09:34","新北市中和區自立路16巷2號","121.521628333333","24.99377","6500300","中和區"
"235034","558-UM","2018/04/10 14:09:28","新北市中和區中和路85號","121.501056666667","25.0007083333333","6500300","中和區"
"235009","565-BX","2018/04/10 14:09:34","新北市中和區景新街467巷35弄4號","121.514585","24.9891166666667","6500300","中和區"
"235018","640-BX","2018/04/10 14:09:38","新北市中和區民德路189巷7號","121.469183333333","24.9989816666667","6500300","中和區"
"235011","732-UM","2018/04/10 14:09:38","新北市中和區興南路一段80號","121.510336666667","24.9899166666667","6500300","中和區"
"235010","733-UM","2018/04/10 14:09:33","新北市中和區忠孝街1巷8號","121.508801666667","24.9834766666667","6500300","中和區"
"235035","783-BX","2018/04/10 14:09:25","新北市中和區立言街53號","121.488265","25.007095","6500300","中和區"
"235026","800-TS","2018/04/10 14:09:39","新北市中和區橋安街6號","121.49279","25.0035316666667","6500300","中和區"
"235021","801-TS","2018/04/10 14:09:38","新北市中和區民利街53號","121.479426666667","24.9987766666667","6500300","中和區"
"235016","805-TS","2018/04/10 14:09:32","新北市中和區興南路二段114巷21弄2號","121.503608333333","24.984435","6500300","中和區"
"235012","896-TW","2018/04/10 14:09:48","新北市中和區華新街109巷24號","121.508481666667","24.9804833333333","6500300","中和區"
"235017","900-TW","2018/04/10 14:09:44","新北市中和區華福街71巷32號","121.467683333333","24.9970233333333","6500300","中和區"
"235015","157-BY","2018/04/10 14:09:48","新北市中和區和平街2巷2弄2號","121.51027","24.9902016666667","6500300","中和區"
"235001","AAC-213","2018/04/10 14:09:42","新北市中和區秀朗路三段50巷2弄1號","121.526011666667","24.9955183333333","6500300","中和區"
"235023","AAC-215","2018/04/10 14:09:48","新北市中和區圓通路417-29號","121.488496666667","24.9885883333333","6500300","中和區"
"220004","015-TV","2018/04/10 14:09:08","新北市板橋區信義路110巷1弄11號","121.45825","24.9920833333333","6500100","板橋區"
"220013","072-UY","2018/04/10 14:09:44","新北市板橋區民族路219巷68號","121.468748333333","25.00858","6500100","板橋區"
"220034","073-UY","2018/04/10 14:09:40","新北市板橋區中正路216巷95號","121.458701666667","25.0191783333333","6500100","板橋區"
"220014","075-UY","2018/04/10 14:09:46","新北市板橋區民享街116巷2弄14號","121.477546666667","25.0156","6500100","板橋區"
"220017","AAD-861","2018/04/10 14:09:39","新北市板橋區四川路一段98號","121.459501666667","25.0048433333333","6500100","板橋區"
"247023","893-R6","2018/04/10 14:09:41","新北市蘆洲區光明路139號","121.464098333333","25.0885383333333","6501400","蘆洲區"
"247021","500-BY","2018/04/10 14:09:16","新北市蘆洲區三民路164號","121.469996666667","25.0882133333333","6501400","蘆洲區"
"247009","341-TH","2018/04/10 14:09:37","新北市蘆洲區信義路158-6號","121.479418333333","25.0839266666667","6501400","蘆洲區"
"247011","339-TH","2018/04/10 14:09:48","新北市蘆洲區信義路345號","121.477813333333","25.08721","6501400","蘆洲區"
"247003","337-TH","2018/04/10 14:09:38","新北市蘆洲區長安街150號","121.459925","25.0822716666667","6501400","蘆洲區"
"247005","336-TH","2018/04/10 14:09:40","新北市蘆洲區永安南路二段16巷18號","121.467986666667","25.0778283333333","6501400","蘆洲區"
"247017","057-VK","2018/04/10 14:09:40","新北市蘆洲區民族路201巷7號","121.477496666667","25.0889","6501400","蘆洲區"
"247007","056-VK","2018/04/10 14:09:44","新北市蘆洲區中山一路308號","121.469766666667","25.0775816666667","6501400","蘆洲區"
"247013","053-VK","2018/04/10 14:09:46","新北市蘆洲區忠孝路57號","121.471353333333","25.0867033333333","6501400","蘆洲區"
"247015","007-UY","2018/04/10 14:09:24","新北市蘆洲區中正路185巷11號","121.467748333333","25.084855","6501400","蘆洲區"
"247001","002-UY","2018/04/10 14:09:39","新北市蘆洲區永平街42-1號","121.458173333333","25.0912716666667","6501400","蘆洲區"
"247019","001-UY","2018/04/10 14:09:49","新北市蘆洲區仁愛街36巷15號","121.472693333333","25.0936933333333","6501400","蘆洲區"
"235005","251-BX","2018/04/10 14:09:38","新北市中和區中安街172號","121.510908333333","24.999785","6500300","中和區"
"228004","212-TW","2018/04/10 14:09:32","新北市貢寮區雙玉里德心街9-1號","121.918473333333","25.0159933333333","6502600","貢寮區"
"228005","828-UM","2018/04/10 14:09:41","新北市貢寮區美豐里土地公嶺21-2號","121.888895","25.06196","6502600","貢寮區"
"207002","749-BX","2018/04/10 14:09:38","新北市萬里區溪底里瑞泉路9號","121.604873333333","25.1440133333333","6502800","萬里區"
"207001","662-BX","2018/04/10 14:09:31","新北市萬里區磺潭里清水18號","121.638078333333","25.19756","6502800","萬里區"
"252005","AAC-283","2018/04/10 14:09:38","新北市三芝區橫山里橫山23-6號","121.540856666667","25.2627266666667","6502100","三芝區"
"236065","105-UM","2018/04/10 14:09:45","新北市土城區明德路一段385-1號","121.452663333333","24.9797616666667","6501300","土城區"
"236040","107-UM","2018/04/10 14:09:43","新北市土城區裕生路106號","121.446776666667","24.9843916666667","6501300","土城區"
"236074","166-UM","2018/04/10 14:09:37","新北市土城區永和街5號","121.434546666667","24.9651266666667","6501300","土城區"
"236029","253-BX","2018/04/10 14:09:45","新北市土城區城林路6巷80號","121.438553333333","24.9796766666667","6501300","土城區"
"236024","269-VK","2018/04/10 14:09:49","新北市土城區承天路20號","121.439545","24.9634216666667","6501300","土城區"
"236013","270-VK","2018/04/10 14:09:39","新北市土城區青雲路39巷7號","121.46033","24.9875133333333","6501300","土城區"
"236032","271-VK","2018/04/10 14:09:34","新北市土城區青雲路449-1號","121.458911666667","24.9747616666667","6501300","土城區"
"236017","401-BY","2018/04/10 14:09:35","新北市土城區城林路6巷80號","121.438391666667","24.9796783333333","6501300","土城區"
"236006","498-BY","2018/04/10 14:09:37","新北市土城區中華路一段10-1號","121.448035","24.990715","6501300","土城區"
"236057","912-UM","2018/04/10 14:09:39","新北市土城區中央路四段172號","121.416723333333","24.9580266666667","6501300","土城區"
"236045","913-UM","2018/04/10 14:09:30","新北市土城區明德路一段365-1號","121.453521666667","24.979095","6501300","土城區"
"236060","915-UM","2018/04/10 14:09:45","新北市土城區金城路三段180號","121.46803","24.987775","6501300","土城區"
"236054","AAC-216","2018/04/10 14:09:46","新北市土城區中華路二段102號","121.438051666667","24.9743866666667","6501300","土城區"
"242048","172-VK","2018/04/10 14:09:03","新北市樹林區八德街646號","121.396685","24.96924","6500500","新莊區"
"220027","145-BY","2018/04/10 14:09:48","新北市板橋區民權路202巷18弄1-2號","121.460815","25.0165433333333","6500100","板橋區"
"220028","200-UY","2018/04/10 14:09:46","新北市板橋區大觀路二段3巷53號","121.449196666667","25.0035066666667","6500100","板橋區"
"220105","KEA-2550","2018/04/10 14:09:42","新北市板橋區雙十路三段14號","121.471656666667","25.0303483333333","6500100","板橋區"
"220030","610-BX","2018/04/10 14:09:50","新北市板橋區滿平街84巷102號","121.426693333333","24.9866366666667","6500100","板橋區"
"220050","245-BX","2018/04/10 14:09:43","新北市板橋區民生路二段161巷17號","121.470286666667","25.01935","6500100","板橋區"
"220052","257-TC","2018/04/10 14:09:42","新北市板橋區文化路1段188巷43-1號","121.467643333333","25.0187883333333","6500100","板橋區"
"220040","267-BY","2018/04/10 14:09:45","新北市板橋區縣民大道三段247巷11號","121.481678333333","25.0264116666667","6500100","板橋區"
"220020","277-BY","2018/04/10 14:09:43","新北市板橋區大觀路三段50巷63號","121.431745","24.996145","6500100","板橋區"
"220018","282-UM","2018/04/10 14:09:48","新北市板橋區忠孝路23號","121.4605","25.0020716666667","6500100","板橋區"
"220019","283-VK","2018/04/10 14:09:29","新北市板橋區重慶路247-3號","121.463353333333","25.00034","6500100","板橋區"
"220043","285-UM","2018/04/10 14:09:45","新北市板橋區光武街130號","121.465478333333","25.0297716666667","6500100","板橋區"
"220001","285-VK","2018/04/10 14:09:46","新北市板橋區懷仁街16號","121.476081666667","25.0197716666667","6500100","板橋區"
"220031","286-VK","2018/04/10 14:09:43","新北市板橋區龍興街95巷25-3號","121.443078333333","25.0028933333333","6500100","板橋區"
"220029","287-VK","2018/04/10 14:09:28","新北市板橋區南雅西路二段20號","121.452938333333","25.0094566666667","6500100","板橋區"
"220039","288-VK","2018/04/10 14:09:35","新北市板橋區裕民街45巷2號","121.46144","25.0284866666667","6500100","板橋區"
"220009","293-UM","2018/04/10 14:09:49","新北市板橋區三民路二段21巷45號","121.480608333333","25.0183083333333","6500100","板橋區"
"220023","303-R5","2018/04/10 14:09:33","新北市板橋區中正路1巷20號","121.455066666667","25.011495","6500100","板橋區"
"220010","305-R5","2018/04/10 14:09:47","新北市板橋區三民路二段居仁巷2弄13號","121.47965","25.0129016666667","6500100","板橋區"
"220041","307-R5","2018/04/10 14:09:41","新北市板橋區文化路二段225巷58號","121.46932","25.0285066666667","6500100","板橋區"
"220047","317-R6","2018/04/10 14:09:35","新北市板橋區自由路53號","121.465408333333","25.0236066666667","6500100","板橋區"
"220012","486-VK","2018/04/10 14:09:39","新北市板橋區民生路一段3號","121.476585","25.0119583333333","6500100","板橋區"
"220037","491-VK","2018/04/10 14:09:40","新北市板橋區文化路二段182巷5弄13號","121.471918333333","25.0275566666667","6500100","板橋區"
"220104","560-BX","2018/04/10 14:09:45","新北市板橋區瑞安街31巷5號","121.45594","25.022725","6500100","板橋區"
"220032","568-UM","2018/04/10 14:09:43","新北市板橋區溪崑二街17-1號","121.428985","24.9916383333333","6500100","板橋區"
"220011","609-BX","2018/04/10 14:09:30","新北市板橋區三民路二段202-5號","121.47893","25.014545","6500100","板橋區"
"220003","630-UY","2018/04/10 14:09:41","新北市板橋區新民街4巷2弄2-1號","121.464143333333","25.00987","6500100","板橋區"
"220005","686-BX","2018/04/10 14:09:46","新北市板橋區重慶路275號","121.463368333333","24.9995833333333","6500100","板橋區"
"220042","689-BX","2018/04/10 14:09:41","新北市板橋區民生路三段257號","121.464553333333","25.0293633333333","6500100","板橋區"
"220002","741-BX","2018/04/10 14:09:31","新北市板橋區後埔街54號","121.460571666667","25.005765","6500100","板橋區"
"220051","KEA-2699","2018/04/10 14:09:42","新北市板橋區田單街49巷2號","121.48256","25.0280683333333","6500100","板橋區"
"220016","830-TW","2018/04/10 14:09:43","新北市板橋區三民路一段1巷49號","121.480786666667","25.0248533333333","6500100","板橋區"
"220045","831-TW","2018/04/10 14:09:42","新北市板橋區大同街8巷16號","121.477186666667","25.02627","6500100","板橋區"
"220038","833-TW","2018/04/10 14:09:44","新北市板橋區文化路二段389號","121.473483333333","25.0315033333333","6500100","板橋區"
"220022","895-R6","2018/04/10 14:09:49","新北市板橋區府中路126-2號","121.455191666667","25.00954","6500100","板橋區"
"220021","985-R7","2018/04/10 14:09:51","新北市板橋區中正路187號","121.456426666667","25.0168766666667","6500100","板橋區"
"220046","AAC-210","2018/04/10 14:09:49","新北市板橋區新海路135巷29號","121.460025","25.0229266666667","6500100","板橋區"
"220025","AAC-253","2018/04/10 14:09:40","新北市板橋區大觀路二段142-6號","121.442255","24.9990083333333","6500100","板橋區"
