"lineid","car","time","location","longitude","latitude","cityid","cityname"
"234044","148-BY","2018/04/10 14:19:36","新北市永和區林森路65號","121.524106666667","25.0041483333333","6500400","永和區"
"234068","149-BY","2018/04/10 14:19:36","新北市永和區福和路263巷25號","121.518128333333","25.0063","6500400","永和區"
"234005","207-UY","2018/04/10 14:19:31","新北市永和區中正路708號","121.516026666667","25.0099833333333","6500400","永和區"
"234078","298-R6","2018/04/10 14:19:37","新北市永和區福和路57巷4弄1號","121.522906666667","25.0073466666667","6500400","永和區"
"234036","336-UY","2018/04/10 14:19:35","新北市永和區成功路一段14號","121.527075","25.005215","6500400","永和區"
"234062","337-UY","2018/04/10 14:19:38","新北市永和區中正路342號","121.517895","25.00025","6500400","永和區"
"234084","338-UY","2018/04/10 14:19:38","新北市永和區永和路二段181號","121.515368333333","25.0133683333333","6500400","永和區"
"234066","553-UM","2018/04/10 14:19:38","新北市永和區保平路292巷60號","121.506843333333","25.0060183333333","6500400","永和區"
"234028","746-BX","2018/04/10 14:19:45","新北市永和區民權路49巷33號","121.52181","24.9975866666667","6500400","永和區"
"234052","KEA-2590","2018/04/10 14:19:37","新北市永和區光復街2巷24號","121.517523333333","25.0166","6500400","永和區"
"234060","AAD-866","2018/04/10 14:19:41","新北市永和區安樂路194巷39弄8號","121.51634","25.00148","6500400","永和區"
"234040","862-TW","2018/04/10 14:19:36","新北市中和區中安街202-1號","121.51185","24.99901","6500400","永和區"
"234048","863-TW","2018/04/10 14:19:42","新北市永和區新生路53巷2弄27號","121.508666666667","25.0158533333333","6500400","永和區"
"234025","9371-KE","2018/04/10 14:19:46","新北市永和區安樂路144巷29號","121.51512","24.99984","6500400","永和區"
"248017","225-UY","2018/04/10 14:19:28","新北市五股區壟路1-4號","121.419256666667","25.0960116666667","6501500","五股區"
"234022","9380-KE","2018/04/10 14:19:45","新北市永和區竹林路30號","121.517105","25.0147966666667","6500400","永和區"
"234076","969-R7","2018/04/10 14:19:43","新北市永和區民族街81巷58號","121.520046666667","24.9965116666667","6500400","永和區"
"234072","AAC-211","2018/04/10 14:19:46","新北市永和區竹林路119巷30弄1號","121.52201","25.0117466666667","6500400","永和區"
"234001","AAC-295","2018/04/10 14:19:38","新北市永和區中正路628號","121.516945","25.0079833333333","6500400","永和區"
"231002","002-UM","2018/04/10 14:19:46","新北市新店區中央路22號","121.533328333333","24.9786983333333","6500600","新店區"
"231038","0293-UT","2018/04/10 14:19:48","新北市新店區溪洲路8巷13-1號","121.533436666667","24.9619416666667","6500600","新店區"
"231028","046-UY","2018/04/10 14:19:42","新北市新店區安和路二段115號","121.518761666667","24.9702633333333","6500600","新店區"
"231001","047-UY","2018/04/10 14:19:30","新北市新店區中正路75巷71號","121.543043333333","24.9689","6500600","新店區"
"231005","106-UY","2018/04/10 14:19:38","新北市新店區中興路三段145號","121.544436666667","24.97994","6500600","新店區"
"231020","110-UY","2018/04/10 14:19:41","新北市新店區新烏路二段446號","121.551631666667","24.9078916666667","6500600","新店區"
"231012","187-VK","2018/04/10 14:19:31","新北市新店區五峰路61巷9號","121.549211666667","24.969615","6500600","新店區"
"231018","278-BY","2018/04/10 14:19:35","新北市新店區中央四街19號","121.529196666667","24.974145","6500600","新店區"
"231015","AAD-862","2018/04/10 14:19:49","新北市新店區北宜路二段392巷17號","121.566803333333","24.95357","6500600","新店區"
"231027","3713-VJ","2018/04/10 14:19:39","新北市新店區北新路二段198號","121.542991666667","24.9766716666667","6500600","新店區"
"231037","4716-K9","2018/04/10 14:19:45","新北市新店區車子路10-1號","121.504608333333","24.954795","6500600","新店區"
"231025","4715-K9","2018/04/10 14:19:47","新北市新店區自立街5號","121.538688333333","24.9782916666667","6500600","新店區"
"231036","512-UM","2018/04/10 14:19:36","新北市新店區安祥路109巷151弄10號","121.478193333333","24.9589316666667","6500600","新店區"
"231013","513-UM","2018/04/10 14:19:44","新北市新店區民權路88-5號","121.536265","24.9834683333333","6500600","新店區"
"231006","618-UM","2018/04/10 14:19:50","新北市新店區北宜路二段599號","121.568211666667","24.95576","6500600","新店區"
"231030","619-UM","2018/04/10 14:19:48","新北市新店區安民街3巷9號","121.514386666667","24.96418","6500600","新店區"
"231034","641-BX","2018/04/10 14:19:36","新北市新店區車子路11號","121.50297","24.9521","6500600","新店區"
"231003","645-TV","2018/04/10 14:19:50","新北市新店區中興路一段216號","121.543815","24.965875","6500600","新店區"
"231035","719-UM","2018/04/10 14:19:48","新北市新店區安民街156巷33號","121.517976666667","24.9700383333333","6500600","新店區"
"231023","719-UY","2018/04/10 14:19:50","新北市新店區中興路一段65號","121.540043333333","24.9608266666667","6500600","新店區"
"231032","720-UM","2018/04/10 14:19:49","新北市新店區碧潭路64號","121.534753333333","24.9571566666667","6500600","新店區"
"231029","897-TW","2018/04/10 14:19:39","新北市新店區安康路二段161號","121.510196666667","24.9593466666667","6500600","新店區"
"231004","899-TW","2018/04/10 14:19:34","新北市新店區中正路159號","121.541248333333","24.9719116666667","6500600","新店區"
"231024","AKT-0513","2018/04/10 14:19:44","新北市新店區中華路83巷67號","121.53831","24.9672833333333","6500600","新店區"
"235030","003-UY","2018/04/10 14:19:32","新北市中和區中和路102號","121.502703333333","24.999635","6500300","中和區"
"235028","005-UY","2018/04/10 14:19:47","新北市中和區南山路24號","121.502005","24.99817","6500300","中和區"
"235027","006-UY","2018/04/10 14:19:41","新北市中和區圓通路198巷7號","121.495698333333","24.994355","6500300","中和區"
"235020","096-UM","2018/04/10 14:19:42","新北市中和區員山路504號","121.47931","25.0081733333333","6500300","中和區"
"235003","097-UM","2018/04/10 14:19:29","新北市中和區秀峰街103巷4弄1號","121.520351666667","24.98988","6500300","中和區"
"235029","098-UM","2018/04/10 14:19:44","新北市中和區永和路52號","121.499195","25.0040566666667","6500300","中和區"
"235004","150-BY","2018/04/10 14:19:22","新北市中和區保健路50巷35號","121.509895","24.9959883333333","6500300","中和區"
"235022","151-BY","2018/04/10 14:19:49","新北市中和區員山路36巷16-2號","121.485213333333","24.9916683333333","6500300","中和區"
"235019","183-VK","2018/04/10 14:19:28","新北市中和區莒光路3巷1號","121.471935","25.0061583333333","6500300","中和區"
"235002","185-VK","2018/04/10 14:19:37","新北市中和區大仁街10巷27弄1號","121.519153333333","24.9925066666667","6500300","中和區"
"235013","186-VK","2018/04/10 14:19:46","新北市中和區景新街230巷2號","121.508128333333","24.9941233333333","6500300","中和區"
"235031","255-BX","2018/04/10 14:19:45","新北市中和區新生街164號","121.483655","25.000245","6500300","中和區"
"235008","293-VK","2018/04/10 14:19:38","新北市中和區中興街266巷2號","121.498536666667","24.9875233333333","6500300","中和區"
"235036","301-VK","2018/04/10 14:19:50","新北市中和區莊敬路33巷6號","121.500476666667","25.00512","6500300","中和區"
"235007","352-BY","2018/04/10 14:19:47","新北市中和區景平路296號","121.512975","24.99272","6500300","中和區"
"235032","377-QA","2018/04/10 14:19:30","新北市中和區廟美街12號","121.50105","25.0016533333333","6500300","中和區"
"235025","378-QA","2018/04/10 14:19:41","新北市中和區民利街31巷2弄19號","121.479918333333","24.9983166666667","6500300","中和區"
"235024","269-TV","2018/04/10 14:19:30","新北市中和區中山路三段109號","121.474848333333","25.0058116666667","6500300","中和區"
"235014","4979-A6","2018/04/10 14:19:45","新北市中和區復興路348號","121.50006","24.9903883333333","6500300","中和區"
"235033","4980-A6","2018/04/10 14:19:40","新北市中和區景平路736巷1弄2號","121.49704","25.003895","6500300","中和區"
"235006","551-UM","2018/04/10 14:19:34","新北市永和區中正路109號","121.515581666667","24.997505","6500300","中和區"
"235034","558-UM","2018/04/10 14:19:48","新北市中和區中山路二段259號","121.49709","25.0023666666667","6500300","中和區"
"235009","565-BX","2018/04/10 14:19:34","新北市中和區景新街423巷35弄23號","121.513898333333","24.9904983333333","6500300","中和區"
"235018","640-BX","2018/04/10 14:19:38","新北市中和區國光街107巷2弄2-1號","121.470086666667","25.0001383333333","6500300","中和區"
"235011","732-UM","2018/04/10 14:19:38","新北市中和區景平路241巷57號","121.508055","24.9920983333333","6500300","中和區"
"235010","733-UM","2018/04/10 14:19:33","新北市中和區華新街98號","121.508585","24.98287","6500300","中和區"
"235035","783-BX","2018/04/10 14:19:45","新北市中和區連城路519號","121.482098333333","24.9952583333333","6500300","中和區"
"235026","800-TS","2018/04/10 14:19:39","新北市中和區中山路二段520號","121.486071666667","25.0049583333333","6500300","中和區"
"235021","801-TS","2018/04/10 14:19:38","新北市中和區員山路423巷4號","121.480473333333","25.0032916666667","6500300","中和區"
"235016","805-TS","2018/04/10 14:19:32","新北市中和區興南路二段124號","121.504341666667","24.9836833333333","6500300","中和區"
"235012","896-TW","2018/04/10 14:19:28","新北市中和區忠孝街3號","121.509488333333","24.9828966666667","6500300","中和區"
"235017","900-TW","2018/04/10 14:19:43","新北市中和區華安街17巷33號","121.46757","24.998325","6500300","中和區"
"235015","157-BY","2018/04/10 14:19:28","新北市中和區和平街54巷5弄1號","121.508908333333","24.9913783333333","6500300","中和區"
"235001","AAC-213","2018/04/10 14:19:42","新北市中和區自立路15巷8號","121.52287","24.9959916666667","6500300","中和區"
"235023","AAC-215","2018/04/10 14:19:48","新北市中和區錦和路163號","121.491971666667","24.9921333333333","6500300","中和區"
"220004","015-TV","2018/04/10 14:19:48","新北市板橋區國慶路6號","121.458043333333","24.9947533333333","6500100","板橋區"
"220013","072-UY","2018/04/10 14:19:44","新北市板橋區國泰街75巷9號","121.467705","25.00609","6500100","板橋區"
"220034","073-UY","2018/04/10 14:19:49","新北市板橋區中正路250巷27號","121.456785","25.01955","6500100","板橋區"
"220014","075-UY","2018/04/10 14:19:46","新北市板橋區長安街178巷13號","121.474376666667","25.0108966666667","6500100","板橋區"
"220017","AAD-861","2018/04/10 14:19:39","新北市板橋區貴興路49號","121.457266666667","25.003235","6500100","板橋區"
"247023","893-R6","2018/04/10 14:19:41","新北市蘆洲區長榮路713號","121.461186666667","25.0931316666667","6501400","蘆洲區"
"247021","500-BY","2018/04/10 14:19:36","新北市蘆洲區三民路370-6號","121.465296666667","25.0926583333333","6501400","蘆洲區"
"247009","341-TH","2018/04/10 14:19:37","新北市蘆洲區三民路26巷35號","121.477096666667","25.0829333333333","6501400","蘆洲區"
"247011","339-TH","2018/04/10 14:19:48","新北市蘆洲區民權路3巷26號","121.475286666667","25.0854933333333","6501400","蘆洲區"
"247003","337-TH","2018/04/10 14:19:37","新北市蘆洲區長安街202號","121.458523333333","25.084235","6501400","蘆洲區"
"247005","336-TH","2018/04/10 14:19:40","新北市蘆洲區長安街23巷21號","121.463473333333","25.0784833333333","6501400","蘆洲區"
"247017","057-VK","2018/04/10 14:19:40","新北市蘆洲區民權路118巷1號","121.473598333333","25.088735","6501400","蘆洲區"
"247013","053-VK","2018/04/10 14:19:40","新北市蘆洲區成功路67號","121.47282","25.0807233333333","6501400","蘆洲區"
"247015","007-UY","2018/04/10 14:19:44","新北市蘆洲區中正路185巷31弄35號","121.467103333333","25.0834166666667","6501400","蘆洲區"
"247001","002-UY","2018/04/10 14:19:39","新北市蘆洲區永樂街52-2號","121.457358333333","25.08842","6501400","蘆洲區"
"247019","001-UY","2018/04/10 14:19:49","新北市蘆洲區仁愛街35巷15弄2號","121.471476666667","25.092595","6501400","蘆洲區"
"235005","251-BX","2018/04/10 14:19:35","新北市中和區安平路142號","121.512343333333","24.998025","6500300","中和區"
"228004","212-TW","2018/04/10 14:19:32","新北市貢寮區雙玉里田寮洋街39號","121.925003333333","25.0139416666667","6502600","貢寮區"
"228005","828-UM","2018/04/10 14:19:41","新北市貢寮區美豐里雞母嶺街63號","121.899575","25.0624716666667","6502600","貢寮區"
"207002","749-BX","2018/04/10 14:19:45","新北市萬里區溪底里福德坑路2-2號","121.624685","25.1559083333333","6502800","萬里區"
"207001","662-BX","2018/04/10 14:19:31","新北市萬里區磺潭里清水18號","121.637891666667","25.1975883333333","6502800","萬里區"
"252005","AAC-283","2018/04/10 14:19:38","新北市三芝區橫山里大坑98-2號","121.526296666667","25.260445","6502100","三芝區"
"236065","105-UM","2018/04/10 14:19:45","新北市土城區明德路一段128巷7號","121.463258333333","24.9790416666667","6501300","土城區"
"236040","107-UM","2018/04/10 14:19:43","新北市土城區樂利街3巷6號","121.448403333333","24.98615","6501300","土城區"
"236074","166-UM","2018/04/10 14:19:37","新北市土城區中央路三段281巷23弄19號","121.426395","24.961535","6501300","土城區"
"236029","253-BX","2018/04/10 14:19:45","新北市土城區順風路65號","121.440261666667","24.9774733333333","6501300","土城區"
"236024","269-VK","2018/04/10 14:19:49","新北市土城區承天路18號","121.439385","24.963555","6501300","土城區"
"236013","270-VK","2018/04/10 14:19:39","新北市土城區青雲路39巷7號","121.46028","24.9875216666667","6501300","土城區"
"236032","271-VK","2018/04/10 14:19:34","新北市土城區青雲路451巷6號","121.459498333333","24.974565","6501300","土城區"
"236017","401-BY","2018/04/10 14:19:35","新北市土城區清水路270號","121.461798333333","24.9834283333333","6501300","土城區"
"236006","498-BY","2018/04/10 14:19:37","新北市土城區中華路一段85號","121.444863333333","24.9876633333333","6501300","土城區"
"236057","912-UM","2018/04/10 14:19:39","新北市土城區中央路四段450號","121.410471666667","24.9512066666667","6501300","土城區"
"236045","913-UM","2018/04/10 14:19:50","新北市土城區明德路一段375-1號","121.454935","24.9781683333333","6501300","土城區"
"236060","915-UM","2018/04/10 14:19:45","新北市土城區延壽路44巷11號","121.471406666667","24.9929983333333","6501300","土城區"
"236054","AAC-216","2018/04/10 14:19:46","新北市土城區中華路二段102號","121.4381","24.97436","6501300","土城區"
"220027","145-BY","2018/04/10 14:19:48","新北市板橋區民權路302巷11號","121.457523333333","25.0165283333333","6500100","板橋區"
"220028","200-UY","2018/04/10 14:19:46","新北市板橋區大觀路二段37巷87-1號","121.450385","25.002295","6500100","板橋區"
"220105","KEA-2550","2018/04/10 14:19:42","新北市板橋區雙十路三段70巷2號","121.470311666667","25.0323833333333","6500100","板橋區"
"220030","610-BX","2018/04/10 14:19:30","新北市板橋區金門街264號","121.429956666667","24.986525","6500100","板橋區"
"220050","245-BX","2018/04/10 14:19:43","新北市板橋區莊敬路2-1號","121.47391","25.0285116666667","6500100","板橋區"
"220052","257-TC","2018/04/10 14:19:41","新北市板橋區文化路一段188巷9弄19號","121.468061666667","25.0192166666667","6500100","板橋區"
"220040","267-BY","2018/04/10 14:19:47","新北市板橋區松柏街70巷3號","121.476656666667","25.0302116666667","6500100","板橋區"
"220020","277-BY","2018/04/10 14:19:37","新北市板橋區金門街369巷48號","121.428458333333","24.9825966666667","6500100","板橋區"
"220018","282-UM","2018/04/10 14:19:39","新北市板橋區忠孝路116號","121.462848333333","25.0022133333333","6500100","板橋區"
"220019","283-VK","2018/04/10 14:19:49","新北市板橋區忠孝路48巷36-2號","121.460735","25.0004116666667","6500100","板橋區"
"220043","285-UM","2018/04/10 14:19:31","新北市板橋區吳鳳路82號","121.46697","25.0312266666667","6500100","板橋區"
"220001","285-VK","2018/04/10 14:19:46","新北市板橋區永豐街146號","121.478133333333","25.0212666666667","6500100","板橋區"
"220031","286-VK","2018/04/10 14:19:30","新北市板橋區龍興街71巷21號","121.442935","25.0022083333333","6500100","板橋區"
"220029","287-VK","2018/04/10 14:19:48","新北市板橋區南雅南路一段106號","121.454868333333","25.004425","6500100","板橋區"
"220039","288-VK","2018/04/10 14:19:48","新北市板橋區長江路一段106巷13弄13號","121.460586666667","25.029365","6500100","板橋區"
"220009","293-UM","2018/04/10 14:19:36","新北市板橋區中山路二段173號","121.47598","25.0168933333333","6500100","板橋區"
"220023","303-R5","2018/04/10 14:19:33","新北市板橋區南雅南路一段71號","121.455875","25.005655","6500100","板橋區"
"220010","305-R5","2018/04/10 14:19:47","新北市板橋區三民路二段153巷26號","121.480711666667","25.0150833333333","6500100","板橋區"
"220041","307-R5","2018/04/10 14:19:41","新北市板橋區文化路二段125巷2號","121.46946","25.02648","6500100","板橋區"
"220047","317-R6","2018/04/10 14:19:35","新北市板橋區四維路266巷2弄20號","121.463988333333","25.028195","6500100","板橋區"
"220012","486-VK","2018/04/10 14:19:39","新北市板橋區縣民大道二段68-1號","121.463355","25.013235","6500100","板橋區"
"220037","491-VK","2018/04/10 14:19:38","新北市板橋區雙十路二段84號","121.474896666667","25.02821","6500100","板橋區"
"220104","560-BX","2018/04/10 14:19:45","新北市板橋區中正路332-11號","121.454298333333","25.023115","6500100","板橋區"
"220032","568-UM","2018/04/10 14:19:42","新北市板橋區滿平街136巷2弄1號","121.428566666667","24.9879483333333","6500100","板橋區"
"220011","609-BX","2018/04/10 14:19:34","新北市板橋區三民路二段212號","121.478906666667","25.0118516666667","6500100","板橋區"
"220003","630-UY","2018/04/10 14:19:38","新北市板橋區館前東路156巷18號","121.46418","25.00695","6500100","板橋區"
"220005","686-BX","2018/04/10 14:19:44","新北市板橋區和平路157號","121.463496666667","24.995795","6500100","板橋區"
"220042","689-BX","2018/04/10 14:19:47","新北市板橋區漢生西路26號","121.463593333333","25.0181716666667","6500100","板橋區"
"220002","741-BX","2018/04/10 14:19:31","新北市板橋區光明街15號","121.460386666667","25.002565","6500100","板橋區"
"220051","KEA-2699","2018/04/10 14:19:41","新北市板橋區松柏街20號","121.474405","25.02974","6500100","板橋區"
"220016","830-TW","2018/04/10 14:19:43","新北市板橋區翠華街6巷105號","121.481928333333","25.0252766666667","6500100","板橋區"
"220045","831-TW","2018/04/10 14:19:41","新北市板橋區大同街35巷16號","121.477468333333","25.027785","6500100","板橋區"
"220038","833-TW","2018/04/10 14:19:44","新北市板橋區文化路一段383號","121.467178333333","25.02174","6500100","板橋區"
"220022","895-R6","2018/04/10 14:19:49","新北市板橋區後菜園街4號","121.457723333333","25.0105066666667","6500100","板橋區"
"220021","985-R7","2018/04/10 14:19:31","新北市板橋區新生街89巷20號","121.457466666667","25.0225333333333","6500100","板橋區"
"220046","AAC-210","2018/04/10 14:19:49","新北市板橋區幸福路32巷3弄8號","121.460921666667","25.0208533333333","6500100","板橋區"
"220025","AAC-253","2018/04/10 14:19:49","新北市板橋區大觀路一段35巷4弄4號","121.448963333333","25.0083466666667","6500100","板橋區"
