"lineid","car","time","location","longitude","latitude","cityid","cityname"
"248017","225-UY","2018/04/10 15:09:49","新北市五股區登林路118-1號","121.417586666667","25.0745183333333","6501500","五股區"
"231002","002-UM","2018/04/10 15:09:35","新北市新店區中正路545號","121.533755","24.9876916666667","6500600","新店區"
"231038","0293-UT","2018/04/10 15:09:48","新北市新店區安華路28-1號","121.519756666667","24.96099","6500600","新店區"
"231028","046-UY","2018/04/10 15:09:42","新北市新店區僑信路119號","121.500798333333","24.9459066666667","6500600","新店區"
"231001","047-UY","2018/04/10 15:09:51","新北市新店區中正路218號","121.540306666667","24.9726583333333","6500600","新店區"
"231005","106-UY","2018/04/10 15:09:38","新北市新店區民族路45-2號","121.540556666667","24.9784783333333","6500600","新店區"
"231020","110-UY","2018/04/10 15:09:41","新北市新店區永福路86-1號","121.562893333333","24.9288783333333","6500600","新店區"
"231012","187-VK","2018/04/10 15:09:31","新北市新店區寶元路一段65號","121.542208333333","24.9858533333333","6500600","新店區"
"231026","256-BX","2018/04/10 15:09:37","新北市新店區建興街9巷1號","121.539873333333","24.9763333333333","6500600","新店區"
"231018","278-BY","2018/04/10 15:09:35","新北市新店區溪園路459號","121.52518","24.9772333333333","6500600","新店區"
"231015","AAD-862","2018/04/10 15:09:28","新北市新店區明山路29號","121.564768333333","24.95664","6500600","新店區"
"231037","4716-K9","2018/04/10 15:09:45","新北市新店區安興路56號","121.516508333333","24.97498","6500600","新店區"
"231025","4715-K9","2018/04/10 15:09:47","新北市新店區民權路107-4號","121.536278333333","24.9823133333333","6500600","新店區"
"231036","512-UM","2018/04/10 15:09:36","新北市新店區安祥路104巷11弄16號","121.480923333333","24.9636533333333","6500600","新店區"
"231006","618-UM","2018/04/10 15:09:50","新北市新店區新坡一街16號","121.548886666667","24.9618083333333","6500600","新店區"
"231034","641-BX","2018/04/10 15:09:36","新北市新店區玫瑰路4-1號","121.493615","24.9514183333333","6500600","新店區"
"231003","645-TV","2018/04/10 15:09:30","新北市新店區寶橋路221號","121.549341666667","24.97753","6500600","新店區"
"231039","718-UY","2018/04/10 15:09:45","新北市新店區北新路三段120號","121.542025","24.9817466666667","6500600","新店區"
"231035","719-UM","2018/04/10 15:09:41","新北市新店區永平街66號","121.516195","24.9849116666667","6500600","新店區"
"231023","719-UY","2018/04/10 15:09:50","新北市新店區檳榔路22巷1號","121.541393333333","24.964095","6500600","新店區"
"231032","720-UM","2018/04/10 15:09:49","新北市新店區安泰路109-3號","121.486663333333","24.9436316666667","6500600","新店區"
"231029","897-TW","2018/04/10 15:09:39","新北市新店區安康路三段738號","121.473781666667","24.9420616666667","6500600","新店區"
"231004","899-TW","2018/04/10 15:09:34","新北市新店區建國路21號","121.540095","24.9738766666667","6500600","新店區"
"231024","AKT-0513","2018/04/10 15:09:44","新北市新店區北新路一段297巷29號","121.540551666667","24.968195","6500600","新店區"
"241013","270-UM","2018/04/10 15:09:34","新北市三重區重新路四段121號","121.484768333333","25.0525133333333","6500200","三重區"
"235030","003-UY","2018/04/10 15:09:32","新北市中和區保平路300號","121.507803333333","25.0045833333333","6500300","中和區"
"235020","096-UM","2018/04/10 15:09:39","新北市中和區中山路三段170巷2弄12號","121.473288333333","25.0067166666667","6500300","中和區"
"235003","097-UM","2018/04/10 15:09:46","新北市中和區安樂路217巷20弄8號","121.513596666667","24.9988566666667","6500300","中和區"
"235004","150-BY","2018/04/10 15:09:43","新北市中和區景安路79巷21號","121.507056666667","24.99676","6500300","中和區"
"235013","186-VK","2018/04/10 15:09:46","新北市中和區圓通路183號","121.497455","24.9947483333333","6500300","中和區"
"235031","255-BX","2018/04/10 15:09:45","新北市五股區新五路三段260號","121.448251666667","25.09084","6500300","中和區"
"235007","352-BY","2018/04/10 15:09:47","新北市中和區興南路二段159巷4號","121.505025","24.9833416666667","6500300","中和區"
"235014","4979-A6","2018/04/10 15:09:45","新北市中和區景新街313號","121.511076666667","24.9923983333333","6500300","中和區"
"235033","4980-A6","2018/04/10 15:09:45","新北市中和區景新街45號","121.50418","24.9990933333333","6500300","中和區"
"235034","558-UM","2018/04/10 15:09:48","新北市中和區中正路304號","121.494101666667","24.9942066666667","6500300","中和區"
"235018","640-BX","2018/04/10 15:09:38","新北市中和區中山路三段124號","121.474448333333","25.0063533333333","6500300","中和區"
"235035","783-BX","2018/04/10 15:09:45","新北市中和區立德街321號","121.482105","25.010415","6500300","中和區"
"235012","896-TW","2018/04/10 15:09:48","新北市中和區興南路一段129號","121.508911666667","24.987675","6500300","中和區"
"235023","AAC-215","2018/04/10 15:09:48","新北市中和區圓通路335巷33弄19號","121.493013333333","24.9888033333333","6500300","中和區"
"220013","072-UY","2018/04/10 15:09:44","新北市板橋區南雅南路二段144巷1號","121.451453333333","24.9959883333333","6500100","板橋區"
"220014","075-UY","2018/04/10 15:09:46","新北市板橋區中山路一段206巷4弄2號","121.470225","25.01315","6500100","板橋區"
"220017","AAD-861","2018/04/10 15:09:39","新北市新莊區中環路一段38號","121.442516666667","25.0277166666667","6500100","板橋區"
"247009","341-TH","2018/04/10 15:09:46","新北市五股區中興路三段163號","121.449301666667","25.08077","6501400","蘆洲區"
"247006","336-TH","2018/04/10 14:48:28","新北市五股區中興路三段2巷10號","121.44931","25.0809916666667","6501400","蘆洲區"
"228004","212-TW","2018/04/10 15:09:32","新北市貢寮區雙玉里田寮洋街20號","121.922681666667","25.0241216666667","6502600","貢寮區"
"207002","749-BX","2018/04/10 15:09:38","新北市萬里區崁腳里內中福路80號","121.657106666667","25.1673","6502800","萬里區"
"207001","662-BX","2018/04/10 15:09:30","新北市萬里區大鵬里萬里加投10號","121.651768333333","25.20752","6502800","萬里區"
"236065","105-UM","2018/04/10 15:09:45","新北市土城區中華路一段5號","121.447048333333","24.9896016666667","6501300","土城區"
"236040","107-UM","2018/04/10 15:09:43","新北市土城區裕民路259號","121.455003333333","24.9828666666667","6501300","土城區"
"236074","166-UM","2018/04/10 15:09:37","新北市土城區中州路27巷14-2號","121.413365","24.957415","6501300","土城區"
"236029","253-BX","2018/04/10 15:09:45","新北市土城區福祥街55號","121.440858333333","24.98014","6501300","土城區"
"236024","269-VK","2018/04/10 15:09:29","新北市土城區中央路二段149巷37號","121.443323333333","24.9767066666667","6501300","土城區"
"236013","270-VK","2018/04/10 15:09:50","新北市土城區學府路一段23巷37號","121.457358333333","24.9865316666667","6501300","土城區"
"236032","271-VK","2018/04/10 15:09:34","新北市土城區國際路46號","121.466246666667","24.97895","6501300","土城區"
"236017","401-BY","2018/04/10 15:09:35","新北市土城區峰廷街3號","121.469276666667","24.987445","6501300","土城區"
"236057","912-UM","2018/04/10 15:09:39","新北市土城區金城路一段131號","121.444801666667","24.9737533333333","6501300","土城區"
"236045","913-UM","2018/04/10 15:09:35","新北市土城區清水路202號","121.46054","24.9819266666667","6501300","土城區"
"236060","915-UM","2018/04/10 15:09:45","新北市土城區延和路107號","121.467608333333","24.9903716666667","6501300","土城區"
"236054","AAC-216","2018/04/10 15:09:46","新北市土城區學府路一段276號","121.450096666667","24.98306","6501300","土城區"
"220050","245-BX","2018/04/10 15:09:43","新北市板橋區雙十路二段47巷4弄22號","121.474901666667","25.026415","6500100","板橋區"
"220052","257-TC","2018/04/10 15:09:41","新北市板橋區陽明街279巷35-2號","121.46111","25.0256283333333","6500100","板橋區"
"220018","282-UM","2018/04/10 15:09:38","新北市板橋區德興街33號","121.453543333333","24.993915","6500100","板橋區"
"220031","286-VK","2018/04/10 15:09:49","新北市板橋區大觀路一段38巷156弄77號","121.443015","25.0067783333333","6500100","板橋區"
"220029","287-VK","2018/04/10 15:09:48","新北市板橋區大觀路一段28巷106-1號","121.450798333333","25.0108266666667","6500100","板橋區"
"220009","293-UM","2018/04/10 15:09:49","新北市板橋區四川路一段290號","121.45861","25.0007116666667","6500100","板橋區"
"220010","305-R5","2018/04/10 15:09:46","新北市板橋區民生路二段56-6號","121.470923333333","25.0190633333333","6500100","板橋區"
"220041","307-R5","2018/04/10 15:09:46","新北市板橋區民權路170巷19號","121.460216666667","25.0134716666667","6500100","板橋區"
"220037","491-VK","2018/04/10 15:09:31","新北市板橋區懷德街127巷26-2號","121.47977","25.031195","6500100","板橋區"
"220032","568-UM","2018/04/10 15:09:49","新北市樹林區中山路三段210-2號","121.380778333333","24.9674","6500100","板橋區"
"220003","630-UY","2018/04/10 15:09:38","新北市板橋區仁愛路21號","121.458885","24.9995116666667","6500100","板橋區"
"220042","689-BX","2018/04/10 15:09:41","新北市板橋區長江路二段57號","121.464508333333","25.0314066666667","6500100","板橋區"
"220051","KEA-2699","2018/04/10 15:09:41","新北市板橋區民治街135號","121.477718333333","25.0307633333333","6500100","板橋區"
"220016","830-TW","2018/04/10 15:09:43","新北市板橋區光復街228號","121.484871666667","25.0212866666667","6500100","板橋區"
"220038","833-TW","2018/04/10 15:09:44","新北市板橋區互助街104號","121.459845","25.025995","6500100","板橋區"
"220046","AAC-210","2018/04/10 15:09:49","新北市板橋區文化路一段101巷13號","121.460928333333","25.01463","6500100","板橋區"
"220025","AAC-253","2018/04/10 15:09:33","新北市板橋區板城路319號","121.451801666667","25.0012816666667","6500100","板橋區"
