"lineid","car","time","location","longitude","latitude","cityid","cityname"
"248020","225-UY","2018/04/10 15:40:34","新北市五股區中興路二段83巷26-6號","121.460028333333","25.07525","6501500","五股區"
"231046","188-VK","2018/04/10 16:09:38","新北市新店區灣潭路2-4號","121.536548333333","24.9501283333333","6500600","新店區"
"231018","278-BY","2018/04/10 16:09:35","新北市新店區中正路694巷15號","121.535385","24.9908633333333","6500600","新店區"
"231035","719-UM","2018/04/10 16:09:41","新北市新店區薏仁坑路自強巷6號","121.496833333333","24.95823","6500600","新店區"
"241011","013-R5","2018/04/10 16:09:40","新北市三重區三和路三段94號","121.494315","25.0720433333333","6500200","三重區"
"241028","022-UY","2018/04/10 16:09:30","新北市三重區正義南路107號","121.498251666667","25.05856","6500200","三重區"
"241008","059-VK","2018/04/10 16:09:39","新北市三重區永福街122-2號","121.479008333333","25.07536","6500200","三重區"
"241015","062-VK","2018/04/10 16:09:45","新北市三重區福德南路65巷2號","121.502586666667","25.060335","6500200","三重區"
"241017","063-VK","2018/04/10 16:09:35","新北市三重區民生街80號","121.490433333333","25.0646233333333","6500200","三重區"
"241024","065-VK","2018/04/10 16:09:50","新北市三重區中正北路145巷3弄12號","121.483806666667","25.067425","6500200","三重區"
"241026","066-VK","2018/04/10 16:09:35","新北市三重區重新路二段68號","121.497623333333","25.0620783333333","6500200","三重區"
"241002","090-VK","2018/04/10 16:09:34","新北市三重區仁義街91號","121.499743333333","25.0796633333333","6500200","三重區"
"241003","091-VK","2018/04/10 16:09:52","新北市三重區仁義街241巷20號","121.49663","25.0831783333333","6500200","三重區"
"241005","262-UM","2018/04/10 16:09:47","新北市三重區溪尾街300-2號","121.487481666667","25.0837333333333","6500200","三重區"
"241016","265-UM","2018/04/10 16:09:43","新北市三重區新北大道一段8號","121.488665","25.061395","6500200","三重區"
"241018","268-UM","2018/04/10 16:09:35","新北市三重區明志街28號","121.491711666667","25.0640033333333","6500200","三重區"
"241013","270-UM","2018/04/10 16:09:33","新北市三重區文化北路248號","121.497356666667","25.070005","6500200","三重區"
"241025","271-UM","2018/04/10 16:09:33","新北市三重區忠孝路三段40巷10號","121.482051666667","25.0663833333333","6500200","三重區"
"241007","398-BY","2018/04/10 16:09:49","新北市三重區慈愛街10號","121.484551666667","25.0784183333333","6500200","三重區"
"241004","475-VK","2018/04/10 16:09:47","新北市三重區五華街74號","121.493381666667","25.08204","6500200","三重區"
"241020","478-VK","2018/04/10 16:09:50","新北市三重區車路頭街4巷23號","121.483141666667","25.0702033333333","6500200","三重區"
"241014","543-UM","2018/04/10 16:09:36","新北市三重區福德南路86號","121.502436666667","25.0599816666667","6500200","三重區"
"241023","545-UM","2018/04/10 16:09:37","新北市三重區力行路一段74號","121.484141666667","25.0694816666667","6500200","三重區"
"241001","547-UM","2018/04/10 16:09:43","新北市三重區自強路三段97號","121.487628333333","25.0751883333333","6500200","三重區"
"241019","KEA-2593","2018/04/10 16:09:53","新北市三重區自強路二段74巷73號","121.486935","25.0693016666667","6500200","三重區"
"241006","AAD-863","2018/04/10 16:09:51","新北市三重區力行路二段164號","121.482926666667","25.0766533333333","6500200","三重區"
"241022","887-TS","2018/04/10 16:09:36","新北市三重區重陽路二段72號","121.487353333333","25.0640683333333","6500200","三重區"
"241012","941-UM","2018/04/10 16:09:36","新北市三重區正義北路115號","121.496906666667","25.0658733333333","6500200","三重區"
"241029","942-UM","2018/04/10 16:09:47","新北市三重區同安街26-1號","121.496191666667","25.0567766666667","6500200","三重區"
"241033","AAC-255","2018/04/10 16:09:47","新北市三重區五谷王南街50-1號","121.473886666667","25.0446066666667","6500200","三重區"
"235026","800-TS","2018/04/10 16:09:39","新北市中和區永和路171巷3弄3號","121.49246","25.0066016666667","6500300","中和區"
"224007","275-VK","2018/04/10 16:09:45","新北市瑞芳區粗坑口路66號","121.761288333333","25.098975","6501200","瑞芳區"
"227003","642-TC","2018/04/10 16:09:50","新北市雙溪區上林里內平林47號","121.833286666667","25.0304466666667","6502500","雙溪區"
"227009","400-TW","2018/04/10 16:09:50","新北市雙溪區三港里雙澳路75號","121.883051666667","25.0542616666667","6502500","雙溪區"
"251013","179-VK","2018/04/10 16:09:51","新北市淡水區淡金路三段26號","121.447443333333","25.198255","6501000","淡水區"
"251008","181-VK","2018/04/10 16:09:40","新北市淡水區真理街1號","121.438121666667","25.172895","6501000","淡水區"
