"lineid","car","time","location","longitude","latitude","cityid","cityname"
"249005","172-UM","2018/04/10 17:19:33","新北市八里區荖阡坑路50號","121.413505","25.12289","6502300","八里區"
"249001","173-UM","2018/04/10 17:19:32","新北市八里區中華路二段165巷3號","121.407641666667","25.1508883333333","6502300","八里區"
"249004","303-UY","2018/04/10 17:19:45","新北市八里區賢三街30號","121.418566666667","25.1587566666667","6502300","八里區"
"249002","305-UY","2018/04/10 17:19:38","新北市八里區龍米路二段117巷37號","121.443346666667","25.1418566666667","6502300","八里區"
"249003","593-UM","2018/04/10 17:19:34","新北市八里區中山路二段460號","121.399086666667","25.1472033333333","6502300","八里區"
"244007","080-UY","2018/04/10 17:19:35","新北市林口區中湖40-9號","121.383286666667","25.0911616666667","6501700","林口區"
"244023","483-VK","2018/04/10 17:19:37","新北市林口區仁愛路一段645號","121.388576666667","25.0766616666667","6501700","林口區"
"244017","485-VK","2018/04/10 17:19:44","新北市林口區粉寮69號","121.404971666667","25.0908483333333","6501700","林口區"
"244019","657-BX","2018/04/10 17:19:54","新北市林口區文化二路一段346號","121.372916666667","25.0752583333333","6501700","林口區"
"244025","837-TS","2018/04/10 17:19:46","新北市林口區民富街82號","121.37127","25.0747516666667","6501700","林口區"
"244021","838-TS","2018/04/10 17:19:50","新北市林口區粉寮路二段458號","121.404368333333","25.098745","6501700","林口區"
"231046","188-VK","2018/04/10 17:19:38","新北市新店區直潭路92號","121.530893333333","24.937615","6500600","新店區"
"241011","013-R5","2018/04/10 17:19:40","新北市三重區河邊北街124巷3號","121.503538333333","25.0716066666667","6500200","三重區"
"241028","022-UY","2018/04/10 17:19:49","新北市三重區仁化街63-3號","121.493908333333","25.0589116666667","6500200","三重區"
"241008","059-VK","2018/04/10 17:19:45","新北市三重區永福街72巷29號","121.479978333333","25.0764483333333","6500200","三重區"
"241009","060-VK","2018/04/10 17:19:50","新北市三重區仁愛街598號","121.484055","25.0809616666667","6500200","三重區"
"241015","062-VK","2018/04/10 17:19:45","新北市三重區福德北路89號","121.501876666667","25.06626","6500200","三重區"
"241017","063-VK","2018/04/10 17:19:35","新北市三重區大同北路85號","121.494828333333","25.063575","6500200","三重區"
"241024","065-VK","2018/04/10 17:19:50","新北市三重區後竹圍街301號","121.4786","25.06982","6500200","三重區"
"241026","066-VK","2018/04/10 17:19:35","新北市三重區福裕街31號","121.499271666667","25.0615883333333","6500200","三重區"
"241002","090-VK","2018/04/10 17:19:33","新北市三重區自強路五段51號","121.49437","25.081665","6500200","三重區"
"241003","091-VK","2018/04/10 17:19:52","新北市三重區富福街20號","121.490388333333","25.08347","6500200","三重區"
"241005","262-UM","2018/04/10 17:19:47","新北市三重區永安北路二段25巷20號","121.48268","25.0819316666667","6500200","三重區"
"241016","265-UM","2018/04/10 17:19:43","新北市三重區大同北路54巷1號","121.494248333333","25.063645","6500200","三重區"
"241018","268-UM","2018/04/10 17:19:35","新北市三重區安慶街175-1號","121.493761666667","25.0685466666667","6500200","三重區"
"241032","269-UM","2018/04/10 17:19:35","新北市三重區中華路2巷2號","121.482985","25.0601866666667","6500200","三重區"
"241013","270-UM","2018/04/10 17:19:33","新北市三重區仁愛街112巷10號","121.494516666667","25.0742216666667","6500200","三重區"
"241025","271-UM","2018/04/10 17:19:53","新北市三重區中正北路406號","121.475343333333","25.0706116666667","6500200","三重區"
"241007","398-BY","2018/04/10 17:19:49","新北市三重區三和路四段155巷33號","121.484938333333","25.0787733333333","6500200","三重區"
"241004","475-VK","2018/04/10 17:19:47","新北市三重區五華街141巷58號","121.493498333333","25.0867083333333","6500200","三重區"
"241020","478-VK","2018/04/10 17:19:50","新北市三重區自強路三段7巷64號","121.488911666667","25.0725383333333","6500200","三重區"
"241030","480-VK","2018/04/10 17:19:52","新北市三重區集美街117號","121.489938333333","25.0527133333333","6500200","三重區"
"241014","543-UM","2018/04/10 17:19:35","新北市三重區三和路二段83號","121.500098333333","25.0684733333333","6500200","三重區"
"241023","545-UM","2018/04/10 17:19:37","新北市三重區三民街166號","121.482263333333","25.06549","6500200","三重區"
"241019","KEA-2593","2018/04/10 17:19:33","新北市三重區自強路二段100號","121.487338333333","25.0713416666667","6500200","三重區"
"241006","AAD-863","2018/04/10 17:19:39","新北市三重區車路頭街137號","121.484123333333","25.076195","6500200","三重區"
"241022","887-TS","2018/04/10 17:19:36","新北市三重區重陽路二段34巷44號","121.485633333333","25.063795","6500200","三重區"
"241012","941-UM","2018/04/10 17:19:36","新北市三重區仁興街31巷39號","121.500258333333","25.0754333333333","6500200","三重區"
"241029","942-UM","2018/04/10 17:19:47","新北市三重區重安街14號","121.490183333333","25.058195","6500200","三重區"
"241033","AAC-255","2018/04/10 17:19:47","新北市新莊區化成路630巷19弄12號","121.467241666667","25.055865","6500200","三重區"
"235061","378-QA","2018/04/10 17:07:22","新北市中和區員山路36巷16-2號","121.485136666667","24.9916583333333","6500300","中和區"
"247024","893-R6","2018/04/10 17:19:41","新北市蘆洲區長榮路335號","121.459738333333","25.08731","6501400","蘆洲區"
"247022","500-BY","2018/04/10 17:19:53","新北市蘆洲區三民路128巷82弄2號","121.469923333333","25.089665","6501400","蘆洲區"
"247010","341-TH","2018/04/10 17:19:43","新北市蘆洲區中山一路120巷7弄31號","121.476945","25.0825416666667","6501400","蘆洲區"
"247012","339-TH","2018/04/10 17:19:35","新北市蘆洲區信義路319巷10弄3號","121.477578333333","25.08643","6501400","蘆洲區"
"247004","337-TH","2018/04/10 17:19:51","新北市蘆洲區長安街225號","121.459533333333","25.0824883333333","6501400","蘆洲區"
"247006","336-TH","2018/04/10 17:19:53","新北市蘆洲區長安街46巷5號","121.463643333333","25.0800016666667","6501400","蘆洲區"
"247018","057-VK","2018/04/10 17:19:41","新北市蘆洲區民權路68巷8號","121.475353333333","25.0876216666667","6501400","蘆洲區"
"247008","056-VK","2018/04/10 17:19:49","新北市蘆洲區永安北路一段72巷12號","121.476801666667","25.0771683333333","6501400","蘆洲區"
"247014","053-VK","2018/04/10 17:19:49","新北市蘆洲區中正路79-3號","121.47013","25.08339","6501400","蘆洲區"
"247016","007-UY","2018/04/10 17:19:48","新北市蘆洲區正和街110號","121.467761666667","25.0805283333333","6501400","蘆洲區"
"247002","002-UY","2018/04/10 17:19:35","新北市蘆洲區永樂街38巷33弄9號","121.457688333333","25.089555","6501400","蘆洲區"
"247020","001-UY","2018/04/10 17:19:36","新北市蘆洲區仁愛街37號","121.472241666667","25.0927633333333","6501400","蘆洲區"
"228001","212-TW","2018/04/10 17:19:52","新北市貢寮區仁理村仁和路78號","121.922833333333","25.0502616666667","6502600","貢寮區"
"228002","663-BX","2018/04/10 17:19:44","新北市貢寮區雙玉里下雙溪街26號","121.924615","25.0112683333333","6502600","貢寮區"
"228003","828-UM","2018/04/10 17:19:36","新北市貢寮區福隆里興隆街15號","121.943846666667","25.016665","6502600","貢寮區"
"224010","AGQ-8101","2018/04/10 17:18:54","新北市瑞芳區逢甲路28號","121.811645","25.10832","6501200","瑞芳區"
"224006","676-BX","2018/04/10 17:19:50","新北市瑞芳區傑魚坑路322號","121.786323333333","25.1046466666667","6501200","瑞芳區"
"224008","285-BY","2018/04/10 17:19:36","新北市瑞芳區侯硐路310-1號","121.831671666667","25.09031","6501200","瑞芳區"
"224009","273-VK","2018/04/10 17:19:40","新北市瑞芳區汽車路29號","121.844526666667","25.1098366666667","6501200","瑞芳區"
"224005","271-BY","2018/04/10 17:19:44","新北市瑞芳區鼻頭路95號","121.9161","25.124275","6501200","瑞芳區"
"227003","642-TC","2018/04/10 17:19:50","新北市雙溪區上林里內平林65號","121.831465","25.02912","6502500","雙溪區"
"227009","400-TW","2018/04/10 17:19:50","新北市雙溪區三貂里定福路22-1號","121.85149","25.0732633333333","6502500","雙溪區"
"251004","009-UM","2018/04/10 17:19:41","新北市淡水區中正東路二段88巷15號","121.459036666667","25.150475","6501000","淡水區"
"251002","012-UM","2018/04/10 17:19:43","新北市淡水區中正路二段31號","121.419375","25.1816283333333","6501000","淡水區"
"251013","179-VK","2018/04/10 17:19:31","新北市淡水區大竹圍1-1號","121.470215","25.19603","6501000","淡水區"
"251014","180-VK","2018/04/10 17:19:35","新北市淡水區公埔子5-1號","121.467038333333","25.2263866666667","6501000","淡水區"
"251008","181-VK","2018/04/10 17:19:40","新北市淡水區大同路287號","121.468153333333","25.1425716666667","6501000","淡水區"
"251015","182-VK","2018/04/10 17:19:54","新北市淡水區樹林口168號","121.475793333333","25.1668283333333","6501000","淡水區"
"251010","413-VK","2018/04/10 17:19:29","新北市淡水區中正路二段301號","121.426161666667","25.1902933333333","6501000","淡水區"
"251012","441-VK","2018/04/10 17:19:51","新北市淡水區中山北路一段156號","121.444178333333","25.1779833333333","6501000","淡水區"
"251016","442-VK","2018/04/10 17:19:39","新北市淡水區鄒厝崙5-1號","121.470915","25.1871983333333","6501000","淡水區"
"251005","443-VK","2018/04/10 17:19:35","新北市淡水區鄧公路19-1號","121.450256666667","25.1699416666667","6501000","淡水區"
"251006","561-UM","2018/04/10 17:19:51","新北市淡水區中山路190號","121.441533333333","25.1745666666667","6501000","淡水區"
"251009","575-R6","2018/04/10 17:19:53","新北市淡水區三民街19號","121.43901","25.1718116666667","6501000","淡水區"
"251007","577-R6","2018/04/10 17:19:54","新北市淡水區民生路60號","121.462066666667","25.1379366666667","6501000","淡水區"
"251011","650-BX","2018/04/10 17:19:39","新北市淡水區坪頂路150號","121.467995","25.1622","6501000","淡水區"
"251003","673-BX","2018/04/10 17:19:46","新北市淡水區中正路二段31號","121.419268333333","25.1818566666667","6501000","淡水區"
"207003","550-UM","2018/04/10 17:19:51","新北市萬里區萬里里瑪鋉路314號","121.688228333333","25.1821166666667","6502800","萬里區"
"252002","178-VK","2018/04/10 17:19:38","新北市三芝區忠孝街1-15號","121.505596666667","25.25393","6502100","三芝區"
"252001","292-VK","2018/04/10 17:19:39","新北市三芝區淡金路一段3號","121.498108333333","25.2596516666667","6502100","三芝區"
"237012","275-BY","2018/04/10 17:19:49","新北市三峽區中山路459巷137號","121.350066666667","24.933855","6500900","三峽區"
"242034","AAC-296","2018/04/10 17:19:51","新北市新莊區新莊路664-2號","121.442118333333","25.0327766666667","6500500","新莊區"
"242054","751-BX","2018/04/10 17:19:45","新北市新莊區環河路636-1號","121.43663","25.0107733333333","6500500","新莊區"
"242029","705-TV","2018/04/10 17:19:51","新北市新莊區幸福路862號","121.443686666667","25.0490483333333","6500500","新莊區"
"242027","615-BX","2018/04/10 17:19:43","新北市新莊區中港路264號","121.453606666667","25.0437033333333","6500500","新莊區"
"242025","613-BX","2018/04/10 17:19:49","新北市新莊區中港一街147號","121.447763333333","25.0450216666667","6500500","新莊區"
"242042","566-BX","2018/04/10 17:19:52","新北市新莊區中正路481號","121.441328333333","25.0338","6500500","新莊區"
"242046","497-BY","2018/04/10 17:19:45","新北市新莊區新樹路65-5號","121.439448333333","25.0308266666667","6500500","新莊區"
"242051","441-UM","2018/04/10 17:19:55","新北市新莊區瓊林路182-8號","121.439973333333","25.0215966666667","6500500","新莊區"
"242056","440-UM","2018/04/10 17:19:41","新北市新莊區中正路473-1號","121.442136666667","25.0332233333333","6500500","新莊區"
"242037","415-TV","2018/04/10 17:19:35","新北市新莊區中正路475號","121.441541666667","25.0338233333333","6500500","新莊區"
"242007","413-TV","2018/04/10 17:19:49","新北市新莊區新泰路502巷4號","121.442691666667","25.0463616666667","6500500","新莊區"
"242044","400-BY","2018/04/10 17:19:36","新北市新莊區中正路612-1號","121.42598","25.03008","6500500","新莊區"
"242023","362-BY","2018/04/10 17:19:45","新北市新莊區新泰路502巷6號","121.442741666667","25.046385","6500500","新莊區"
"242061","353-BY","2018/04/10 17:19:49","新北市泰山區磚雅厝3號","121.441985","25.04192","6500500","新莊區"
"242039","133-UY","2018/04/10 17:19:46","新北市新莊區新樹路52-3號","121.437531666667","25.0270116666667","6500500","新莊區"
"242048","172-VK","2018/04/10 17:19:35","新北市新莊區龍安路116號","121.418926666667","25.0203783333333","6500500","新莊區"
"242017","175-VK","2018/04/10 17:19:42","新北市新莊區新泰路502巷6號","121.442746666667","25.046375","6500500","新莊區"
"242005","176-VK","2018/04/10 17:19:52","新北市新莊區新泰路502巷2號","121.442608333333","25.0462833333333","6500500","新莊區"
"242015","346-TH","2018/04/10 17:19:49","新北市新莊區仁愛街73號","121.444068333333","25.03775","6500500","新莊區"
"242021","348-TH","2018/04/10 17:19:44","新北市新莊區中港路275號","121.453435","25.0436616666667","6500500","新莊區"
"242002","349-TH","2018/04/10 17:19:47","新北市新莊區新泰路313號","121.44521","25.04137","6500500","新莊區"
"242019","350-TH","2018/04/10 17:19:52","新北市新莊區新泰路496號","121.442601666667","25.0462","6500500","新莊區"
"242013","351-TH","2018/04/10 17:19:48","新北市新莊區新泰路357巷3弄1號","121.442358333333","25.0414466666667","6500500","新莊區"
"238019","599-UM","2018/04/10 17:19:35","新北市樹林區八德街253號","121.421708333333","24.978495","6500700","樹林區"
"238018","571-TV","2018/04/10 17:19:49","新北市樹林區樹中街63-1號","121.421225","24.98532","6500700","樹林區"
"238024","5061-A6","2018/04/10 17:19:37","新北市樹林區博愛一街29巷64號","121.425965","24.9917016666667","6500700","樹林區"
"238022","KEA-2213","2018/04/10 17:19:48","新北市樹林區仁愛街83巷1號","121.424245","24.9831666666667","6500700","樹林區"
"238021","KEA-2539","2018/04/10 17:19:47","新北市樹林區西圳街一段165巷2-1號","121.395713333333","24.9611133333333","6500700","樹林區"
"238017","283-BY","2018/04/10 17:19:42","新北市樹林區保安街一段328號","121.418313333333","24.99772","6500700","樹林區"
"238014","282-BY","2018/04/10 17:19:38","新北市樹林區大安路325號","121.417365","24.99174","6500700","樹林區"
"238026","172-UY","2018/04/10 17:19:53","新北市樹林區味王街46巷19號","121.40347","24.97371","6500700","樹林區"
"238016","169-UY","2018/04/10 17:19:52","新北市樹林區八德街1號","121.417585","24.9849683333333","6500700","樹林區"
"239007","AAC-297","2018/04/10 17:19:43","新北市鶯歌區光復街9號","121.351691666667","24.9550283333333","6500800","鶯歌區"
"239006","891-R6","2018/04/10 17:19:38","新北市鶯歌區德昌街50號","121.33331","24.9599066666667","6500800","鶯歌區"
"239008","527-UM","2018/04/10 17:19:43","新北市鶯歌區西湖街289巷5號","121.33978","24.9688033333333","6500800","鶯歌區"
"239005","526-UM","2018/04/10 17:19:44","新北市鶯歌區福德二街18號","121.329748333333","24.9672466666667","6500800","鶯歌區"
"239001","417-VK","2018/04/10 17:19:33","新北市鶯歌區黃厝街31巷39-1號","121.3427","24.945465","6500800","鶯歌區"
"239003","360-BY","2018/04/10 17:19:43","新北市鶯歌區德昌二街33號","121.333313333333","24.9586516666667","6500800","鶯歌區"
"239002","359-BY","2018/04/10 17:19:37","新北市鶯歌區南雅路20號","121.349351666667","24.9540683333333","6500800","鶯歌區"
"239004","193-VK","2018/04/10 17:19:36","新北市鶯歌區文化路324巷1-35號","121.352303333333","24.9457033333333","6500800","鶯歌區"
"242009","281-VK","2018/04/10 17:19:42","新北市新莊區中誠街144號","121.448725","25.047485","6500500","新莊區"
"242032","280-VK","2018/04/10 17:19:45","新北市新莊區新泰路357巷3弄57號","121.442268333333","25.0397416666667","6500500","新莊區"
