"lineid","car","time","location","longitude","latitude","cityid","cityname"
"234026","9371-KE","2018/04/10 17:39:39","新北市永和區中正路625號","121.51571","25.0100083333333","6500400","永和區"
"249005","172-UM","2018/04/10 17:39:53","新北市八里區荖阡坑路34號","121.40275","25.129765","6502300","八里區"
"249001","173-UM","2018/04/10 17:39:52","新北市八里區龍米路二段148號","121.437086666667","25.15577","6502300","八里區"
"249004","303-UY","2018/04/10 17:39:45","新北市八里區大崁一街2號","121.420545","25.157835","6502300","八里區"
"249002","305-UY","2018/04/10 17:39:38","新北市八里區石壁腳19號","121.441695","25.1353616666667","6502300","八里區"
"249003","593-UM","2018/04/10 17:39:54","新北市八里區中山路二段228號","121.405108333333","25.151275","6502300","八里區"
"232011","375-UM","2018/04/10 17:39:37","新北市坪林區水柳腳34號","121.710136666667","24.9352966666667","6502000","坪林區"
"244013","069-UM","2018/04/10 17:39:36","新北市林口區中正路555號","121.381116666667","25.0768866666667","6501700","林口區"
"244007","080-UY","2018/04/10 17:39:35","新北市林口區林口路231號","121.387023333333","25.0833733333333","6501700","林口區"
"244009","410-SL","2018/04/10 17:39:41","新北市林口區中北三街318號","121.382841666667","25.08366","6501700","林口區"
"244023","483-VK","2018/04/10 17:39:37","新北市林口區東明一街142巷20號","121.389788333333","25.0714283333333","6501700","林口區"
"244017","485-VK","2018/04/10 17:39:44","新北市林口區忠孝路407號","121.370408333333","25.07059","6501700","林口區"
"244019","657-BX","2018/04/10 17:39:34","新北市林口區文化一路一段83巷14弄40號","121.372018333333","25.0713083333333","6501700","林口區"
"244025","837-TS","2018/04/10 17:39:46","新北市林口區文化三路一段377-1號","121.365091666667","25.07363","6501700","林口區"
"244021","838-TS","2018/04/10 17:39:50","新北市林口區仁愛路一段34號","121.397248333333","25.0754633333333","6501700","林口區"
"243013","646-TV","2018/04/10 17:39:48","新北市泰山區錢厝坑8-1號","121.408415","25.0495283333333","6501600","泰山區"
"231046","188-VK","2018/04/10 17:39:38","新北市新店區直潭路92號","121.530886666667","24.9376083333333","6500600","新店區"
"241017","063-VK","2018/04/10 17:39:35","新北市三重區大同北路32號","121.495295","25.0626333333333","6500200","三重區"
"241024","065-VK","2018/04/10 17:39:50","新北市三重區力行路二段9巷39號","121.483646666667","25.07219","6500200","三重區"
"241002","090-VK","2018/04/10 17:39:34","新北市三重區福隆路47號","121.491011666667","25.0776516666667","6500200","三重區"
"241003","091-VK","2018/04/10 17:39:52","新北市三重區五華街141巷58號","121.49351","25.0866333333333","6500200","三重區"
"241005","262-UM","2018/04/10 17:39:47","新北市三重區仁愛街512號","121.487353333333","25.0820116666667","6500200","三重區"
"241016","265-UM","2018/04/10 17:39:53","新北市三重區重新路二段64號","121.497865","25.06212","6500200","三重區"
"241007","398-BY","2018/04/10 17:39:49","新北市三重區車路頭街80巷2號","121.48422","25.0735283333333","6500200","三重區"
"241014","543-UM","2018/04/10 17:39:35","新北市三重區龍濱路287號","121.501133333333","25.073745","6500200","三重區"
"241023","545-UM","2018/04/10 17:39:37","新北市三重區中華路130號","121.483556666667","25.0639883333333","6500200","三重區"
"241012","941-UM","2018/04/10 17:39:36","新北市三重區河邊北街252號","121.501793333333","25.0760933333333","6500200","三重區"
"241033","AAC-255","2018/04/10 17:39:47","新北市三重區光復路一段49號","121.472113333333","25.0488383333333","6500200","三重區"
"235064","005-UY","2018/04/10 17:39:38","新北市中和區員山路36巷16-2號","121.485225","24.991465","6500300","中和區"
"247024","893-R6","2018/04/10 17:39:40","新北市蘆洲區長樂路125-1號","121.462096666667","25.08808","6501400","蘆洲區"
"247022","500-BY","2018/04/10 17:39:53","新北市蘆洲區三民路277號","121.467703333333","25.089915","6501400","蘆洲區"
"247010","341-TH","2018/04/10 17:39:43","新北市蘆洲區中山一路114號","121.477066666667","25.0815216666667","6501400","蘆洲區"
"247012","339-TH","2018/04/10 17:39:35","新北市蘆洲區民權路5號","121.476581666667","25.085775","6501400","蘆洲區"
"247004","337-TH","2018/04/10 17:39:51","新北市蘆洲區長安街172巷16號","121.45979","25.0836233333333","6501400","蘆洲區"
"247006","336-TH","2018/04/10 17:39:33","新北市蘆洲區長安街5號","121.464395","25.0788583333333","6501400","蘆洲區"
"247018","057-VK","2018/04/10 17:39:41","新北市蘆洲區民權路61巷4弄2號","121.473523333333","25.08787","6501400","蘆洲區"
"247008","056-VK","2018/04/10 17:39:49","新北市蘆洲區民生街127號","121.472651666667","25.0789866666667","6501400","蘆洲區"
"247014","053-VK","2018/04/10 17:39:42","新北市蘆洲區中山二路135號","121.471971666667","25.0816283333333","6501400","蘆洲區"
"247016","007-UY","2018/04/10 17:39:48","新北市蘆洲區光華路46巷21弄1號","121.468391666667","25.08358","6501400","蘆洲區"
"247002","002-UY","2018/04/10 17:39:35","新北市蘆洲區永平街63號","121.457485","25.0915233333333","6501400","蘆洲區"
"247020","001-UY","2018/04/10 17:39:56","新北市蘆洲區民族路355號","121.471865","25.09166","6501400","蘆洲區"
"228002","663-BX","2018/04/10 17:39:52","新北市貢寮區福隆里外隆林街15-11號","121.958453333333","25.0042716666667","6502600","貢寮區"
"228003","828-UM","2018/04/10 17:39:36","新北市貢寮區真理里延平街83號","121.92457","25.056155","6502600","貢寮區"
"224010","AGQ-8101","2018/04/10 17:39:54","新北市瑞芳區逢甲路139號","121.807223333333","25.109765","6501200","瑞芳區"
"224006","676-BX","2018/04/10 17:39:50","新北市瑞芳區中山路318號","121.796808333333","25.1100083333333","6501200","瑞芳區"
"224008","285-BY","2018/04/10 17:39:39","新北市瑞芳區瑞柑新村60號","121.828063333333","25.1068483333333","6501200","瑞芳區"
"224009","273-VK","2018/04/10 17:39:40","新北市瑞芳區金光路376號","121.850785","25.110725","6501200","瑞芳區"
"224005","271-BY","2018/04/10 17:39:44","新北市瑞芳區海濱路8-6號","121.83167","25.1261766666667","6501200","瑞芳區"
"208002","KEA-2872","2018/04/10 17:39:34","新北市金山區磺清路121號","121.639768333333","25.2281966666667","6502700","金山區"
"251004","009-UM","2018/04/10 17:39:41","新北市淡水區中正東路二段163號","121.459216666667","25.1451616666667","6501000","淡水區"
"251001","011-UM","2018/04/10 17:39:52","新北市淡水區民權路92巷35-1號","121.462191666667","25.126625","6501000","淡水區"
"251002","012-UM","2018/04/10 17:39:43","新北市淡水區中山路143-2號","121.440573333333","25.172015","6501000","淡水區"
"251013","179-VK","2018/04/10 17:39:51","新北市淡水區演戲埔腳3-3號","121.473621666667","25.1924766666667","6501000","淡水區"
"251014","180-VK","2018/04/10 17:39:35","新北市淡水區公埔子15-1號","121.479176666667","25.2266766666667","6501000","淡水區"
"251008","181-VK","2018/04/10 17:39:40","新北市淡水區八勢路73巷12號","121.463486666667","25.1539116666667","6501000","淡水區"
"251015","182-VK","2018/04/10 17:39:33","新北市淡水區樹興里25號","121.486641666667","25.170045","6501000","淡水區"
"251010","413-VK","2018/04/10 17:39:49","新北市淡水區淡海路280巷33弄34-2號","121.41874","25.1886233333333","6501000","淡水區"
"251012","441-VK","2018/04/10 17:39:51","新北市淡水區北新路200巷8號","121.451723333333","25.179655","6501000","淡水區"
"251016","442-VK","2018/04/10 17:39:39","新北市淡水區埤島75號","121.454163333333","25.19455","6501000","淡水區"
"251005","443-VK","2018/04/10 17:39:35","新北市淡水區鄧公路33巷2號","121.451406666667","25.1710183333333","6501000","淡水區"
"251006","561-UM","2018/04/10 17:39:51","新北市淡水區大信街7號","121.441658333333","25.1763733333333","6501000","淡水區"
"251009","575-R6","2018/04/10 17:39:32","新北市淡水區中正路36號","121.443805","25.169235","6501000","淡水區"
"251007","577-R6","2018/04/10 17:39:34","新北市淡水區民生路52巷31號","121.46312","25.13779","6501000","淡水區"
"251011","650-BX","2018/04/10 17:39:39","新北市淡水區小坪頂13-3號","121.486581666667","25.156165","6501000","淡水區"
"251003","673-BX","2018/04/10 17:39:46","新北市淡水區中山北路一段52號","121.441828333333","25.1756283333333","6501000","淡水區"
"207003","550-UM","2018/04/10 17:39:51","新北市萬里區野柳里東澳路64-1號","121.691813333333","25.199805","6502800","萬里區"
"207004","225-TW","2018/04/10 17:39:36","新北市萬里區中幅里中福路8-1號","121.685605","25.164635","6502800","萬里區"
"252002","178-VK","2018/04/10 17:39:38","新北市三芝區中正路二段21號","121.504303333333","25.2552866666667","6502100","三芝區"
"252001","292-VK","2018/04/10 17:39:39","新北市三芝區淡金路一段83號","121.502108333333","25.2589766666667","6502100","三芝區"
"237012","275-BY","2018/04/10 17:39:49","新北市三峽區中山路459巷163-3號","121.348815","24.9332166666667","6500900","三峽區"
"237008","302-VK","2018/04/10 17:39:53","新北市三峽區中山路459巷66號","121.355365","24.9363283333333","6500900","三峽區"
"237006","5529-G3","2018/04/10 17:39:41","新北市三峽區介壽路一段552巷16號","121.387665","24.932395","6500900","三峽區"
"237010","706-TV","2018/04/10 17:39:42","新北市三峽區中山路129號","121.365316666667","24.9360566666667","6500900","三峽區"
"236070","105-UM","2018/04/10 17:39:44","新北市土城區城林路6巷80號","121.438456666667","24.979765","6501300","土城區"
"236079","166-UM","2018/04/10 17:39:41","新北市土城區城林路6巷80號","121.438508333333","24.9797033333333","6501300","土城區"
"236030","253-BX","2018/04/10 17:39:39","新北市土城區城林路6巷80號","121.438516666667","24.9796216666667","6501300","土城區"
"236014","270-VK","2018/04/10 17:39:51","新北市土城區城林路6巷80號","121.438513333333","24.9796366666667","6501300","土城區"
"236038","271-VK","2018/04/10 17:39:40","新北市土城區城林路6巷80號","121.438526666667","24.9796016666667","6501300","土城區"
"236021","401-BY","2018/04/10 17:39:35","新北市土城區城林路6巷80號","121.438758333333","24.97964","6501300","土城區"
"236059","912-UM","2018/04/10 17:39:45","新北市土城區城林路6巷80號","121.438555","24.97978","6501300","土城區"
"236055","AAC-216","2018/04/10 17:39:49","新北市土城區城林路6巷80號","121.438693333333","24.9796816666667","6501300","土城區"
"242034","AAC-296","2018/04/10 17:39:51","新北市新莊區新莊路532號","121.445633333333","25.0329333333333","6500500","新莊區"
"242058","986-R7","2018/04/10 17:39:51","新北市新莊區中正路646號","121.421711666667","25.0286966666667","6500500","新莊區"
"242054","751-BX","2018/04/10 17:39:45","新北市新莊區新樹路699巷2號","121.432323333333","25.00219","6500500","新莊區"
"242029","705-TV","2018/04/10 17:39:51","新北市新莊區復興路一段163號","121.450995","25.0433683333333","6500500","新莊區"
"242027","615-BX","2018/04/10 17:39:43","新北市新莊區福壽街122號","121.457885","25.0510916666667","6500500","新莊區"
"242025","613-BX","2018/04/10 17:39:48","新北市新莊區思源路118號","121.460135","25.0469233333333","6500500","新莊區"
"242042","566-BX","2018/04/10 17:39:52","新北市新莊區中正路514巷49號","121.432216666667","25.0335583333333","6500500","新莊區"
"242046","497-BY","2018/04/10 17:39:48","新北市新莊區建國一路27號","121.43407","25.0313133333333","6500500","新莊區"
"242051","441-UM","2018/04/10 17:39:55","新北市新莊區西盛街216號","121.42809","25.01731","6500500","新莊區"
"242056","440-UM","2018/04/10 17:39:41","新北市新莊區泰豐街28號","121.448368333333","25.0318333333333","6500500","新莊區"
"242037","415-TV","2018/04/10 17:39:37","新北市新莊區後港一路122號","121.429098333333","25.0271333333333","6500500","新莊區"
"242007","413-TV","2018/04/10 17:39:29","新北市新莊區福樂街118巷5號","121.457263333333","25.0481283333333","6500500","新莊區"
"242044","400-BY","2018/04/10 17:39:36","新北市新莊區富國路65巷7號","121.419811666667","25.02655","6500500","新莊區"
"242023","362-BY","2018/04/10 17:39:49","新北市新莊區民樂街54號","121.457978333333","25.041705","6500500","新莊區"
"242061","353-BY","2018/04/10 17:39:49","新北市新莊區瓊林南路103巷8弄19號","121.435238333333","25.0115533333333","6500500","新莊區"
"242039","133-UY","2018/04/10 17:39:46","新北市新莊區民安西路37號","121.42773","25.0209316666667","6500500","新莊區"
"242048","172-VK","2018/04/10 17:39:42","新北市新莊區萬安街136號","121.420211666667","25.02145","6500500","新莊區"
"242011","173-VK","2018/04/10 17:39:41","新北市新莊區中原路90號","121.451131666667","25.054405","6500500","新莊區"
"242017","175-VK","2018/04/10 17:39:42","新北市新莊區中和街30巷13號","121.448901666667","25.0438716666667","6500500","新莊區"
"242005","176-VK","2018/04/10 17:39:52","新北市新莊區自立街208號","121.456948333333","25.0455333333333","6500500","新莊區"
"242015","346-TH","2018/04/10 17:39:48","新北市新莊區新泰路295號","121.445493333333","25.0408233333333","6500500","新莊區"
"242021","348-TH","2018/04/10 17:39:42","新北市新莊區中華路一段122號","121.452495","25.0407266666667","6500500","新莊區"
"242002","349-TH","2018/04/10 17:39:48","新北市新莊區新莊路292號","121.451273333333","25.0337666666667","6500500","新莊區"
"242019","350-TH","2018/04/10 17:39:52","新北市新莊區中港路181號","121.454943333333","25.0415933333333","6500500","新莊區"
"242013","351-TH","2018/04/10 17:39:48","新北市新莊區中誠街120號","121.449323333333","25.0476333333333","6500500","新莊區"
"238015","755-BX","2018/04/10 17:39:36","新北市樹林區啟智街36號","121.420681666667","24.99317","6500700","樹林區"
"238019","599-UM","2018/04/10 17:39:38","新北市樹林區中華路221-1號","121.419153333333","24.9808216666667","6500700","樹林區"
"238018","571-TV","2018/04/10 17:39:44","新北市樹林區鎮前街119號","121.424241666667","24.9896366666667","6500700","樹林區"
"238024","5061-A6","2018/04/10 17:39:37","新北市樹林區環河路110號","121.426001666667","24.9773033333333","6500700","樹林區"
"238022","KEA-2213","2018/04/10 17:39:48","新北市樹林區中華路187巷7號","121.42066","24.9812683333333","6500700","樹林區"
"238021","KEA-2539","2018/04/10 17:39:47","新北市樹林區柑園街一段236號","121.392313333333","24.9562966666667","6500700","樹林區"
"238025","303-VK","2018/04/10 17:39:44","新北市樹林區保安街二段223號","121.41324","25.004425","6500700","樹林區"
"238017","283-BY","2018/04/10 17:39:42","新北市樹林區中正路286-1號","121.415985","25.0086733333333","6500700","樹林區"
"238014","282-BY","2018/04/10 17:39:52","新北市樹林區保安街一段372號","121.417785","24.998775","6500700","樹林區"
"238026","172-UY","2018/04/10 17:39:34","新北市樹林區新興街11巷10號","121.40179","24.9735366666667","6500700","樹林區"
"238016","169-UY","2018/04/10 17:39:32","新北市樹林區育英街119-1號","121.420048333333","24.9893266666667","6500700","樹林區"
"239007","AAC-297","2018/04/10 17:39:43","新北市鶯歌區鶯桃路182巷14號","121.337228333333","24.9558583333333","6500800","鶯歌區"
"239006","891-R6","2018/04/10 17:39:38","新北市鶯歌區永和街34巷10弄8號","121.333305","24.9671966666667","6500800","鶯歌區"
"239008","527-UM","2018/04/10 17:39:43","新北市鶯歌區大湖路732巷45號","121.33352","24.9781233333333","6500800","鶯歌區"
"239005","526-UM","2018/04/10 17:39:44","新北市鶯歌區鶯桃路二段20號","121.326136666667","24.9723433333333","6500800","鶯歌區"
"239001","417-VK","2018/04/10 17:39:33","新北市鶯歌區中正三路256-2號","121.329545","24.93633","6500800","鶯歌區"
"239003","360-BY","2018/04/10 17:39:43","新北市鶯歌區鶯桃路206巷28號","121.337755","24.9597083333333","6500800","鶯歌區"
"239002","359-BY","2018/04/10 17:39:37","新北市鶯歌區育德街37號","121.344166666667","24.9551116666667","6500800","鶯歌區"
"239004","193-VK","2018/04/10 17:39:36","新北市鶯歌區三鶯路81號","121.358145","24.9430966666667","6500800","鶯歌區"
"221008","489-VK","2018/04/10 17:39:39","新北市汐止區康寧街901號","121.65141","25.075005","6501100","汐止區"
"221010","269-BY","2018/04/10 17:39:38","新北市汐止區汐萬路一段418巷33號","121.650573333333","25.0789116666667","6501100","汐止區"
"221018","277-VK","2018/04/10 17:39:42","新北市汐止區汐萬路一段256巷3號","121.652258333333","25.0746833333333","6501100","汐止區"
"221023","279-VK","2018/04/10 17:39:46","新北市汐止區康寧街901號","121.651696666667","25.074895","6501100","汐止區"
"221032","280-BY","2018/04/10 17:39:46","新北市汐止區連峰街1巷1號","121.64681","25.0760966666667","6501100","汐止區"
"221021","299-VK","2018/04/10 17:39:45","新北市汐止區汐萬路一段256巷1號","121.651758333333","25.0748733333333","6501100","汐止區"
"221033","647-BX","2018/04/10 17:38:53","新北市汐止區林森街131巷36號","121.624951666667","25.0419733333333","6501100","汐止區"
"221002","707-TV","2018/04/10 17:39:48","新北市汐止區康寧街901號","121.651506666667","25.074955","6501100","汐止區"
"221018","753-BX","2018/04/10 17:39:49","新北市汐止區康寧街901號","121.65135","25.075025","6501100","汐止區"
"242009","281-VK","2018/04/10 17:39:42","新北市新莊區昌明街14巷3弄2號","121.457325","25.0530233333333","6500500","新莊區"
"242032","280-VK","2018/04/10 17:39:51","新北市新莊區新泰路369巷25號","121.442595","25.0432466666667","6500500","新莊區"
