"lineid","car","time","location","longitude","latitude","cityid","cityname"
"234046","148-BY","2018/04/10 18:49:55","新北市永和區秀朗路二段124-3號","121.52481","25.001525","6500400","永和區"
"234070","149-BY","2018/04/10 18:49:53","新北市永和區竹林路96巷4號","121.519128333333","25.0121283333333","6500400","永和區"
"234007","207-UY","2018/04/10 18:49:37","新北市永和區文化路170號","121.511948333333","25.0154883333333","6500400","永和區"
"234081","298-R6","2018/04/10 18:49:35","新北市永和區永利路100號","121.521075","25.0035366666667","6500400","永和區"
"234038","336-UY","2018/04/10 18:49:48","新北市永和區成功路二段30號","121.526766666667","25.0004533333333","6500400","永和區"
"234086","338-UY","2018/04/10 18:49:39","新北市永和區中正路63號","121.514786666667","24.99656","6500400","永和區"
"234067","553-UM","2018/04/10 18:49:39","新北市永和區中和路625號","121.512996666667","25.00487","6500400","永和區"
"234017","745-BX","2018/04/10 18:49:38","新北市永和區忠孝街26巷27弄1號","121.515251666667","25.0170166666667","6500400","永和區"
"234030","746-BX","2018/04/10 18:49:47","新北市永和區得和路351號","121.52417","24.9995","6500400","永和區"
"234054","KEA-2590","2018/04/10 18:49:38","新北市永和區豫溪街191巷5號","121.523615","25.0104733333333","6500400","永和區"
"234013","KEA-2591","2018/04/10 18:49:52","新北市永和區仁愛路202巷34號","121.508975","25.0131683333333","6500400","永和區"
"234061","AAD-866","2018/04/10 18:49:50","新北市永和區福和路309巷1號","121.516366666667","25.0070766666667","6500400","永和區"
"234042","862-TW","2018/04/10 18:49:36","新北市永和區永貞路306號","121.511885","25.00486","6500400","永和區"
"234050","863-TW","2018/04/10 18:49:52","新北市永和區保安路2號","121.510828333333","25.0174233333333","6500400","永和區"
"234026","9371-KE","2018/04/10 18:49:39","新北市永和區自由街58號","121.513756666667","25.00597","6500400","永和區"
"234011","9373-KE","2018/04/10 18:49:51","新北市永和區文化路124號","121.513081666667","25.01534","6500400","永和區"
"249005","172-UM","2018/04/10 18:49:53","新北市八里區長道坑17號","121.396048333333","25.1155033333333","6502300","八里區"
"249001","173-UM","2018/04/10 18:49:52","新北市八里區龍米路二段58號","121.448236666667","25.1408466666667","6502300","八里區"
"248016","026-BX","2018/04/10 18:49:43","新北市五股區凌雲路一段149巷13-1號","121.448606666667","25.100865","6501500","五股區"
"248006","077-UY","2018/04/10 18:49:45","新北市五股區四維路4號","121.467226666667","25.0713116666667","6501500","五股區"
"248008","095-VK","2018/04/10 18:49:50","新北市五股區中興路一段151巷32號","121.465091666667","25.0727983333333","6501500","五股區"
"248020","225-UY","2018/04/10 18:49:36","新北市五股區凌雲路三段82-3號","121.431405","25.11794","6501500","五股區"
"248012","247-BX","2018/04/10 18:49:45","新北市五股區成泰路二段147巷34-22號","121.436743333333","25.0894766666667","6501500","五股區"
"248014","261-SL","2018/04/10 18:49:44","新北市五股區民義路一段107巷23號","121.432195","25.0843816666667","6501500","五股區"
"248010","272-BY","2018/04/10 18:49:52","新北市五股區水碓五路117號","121.43074","25.07285","6501500","五股區"
"248004","677-BX","2018/04/10 18:49:51","新北市五股區民義路二段41-1號","121.411196666667","25.10369","6501500","五股區"
"248002","678-BX","2018/04/10 18:49:49","新北市五股區成泰路三段454號","121.451455","25.100345","6501500","五股區"
"234023","9380-KE","2018/04/10 18:49:47","新北市永和區豫溪街191巷2號","121.52367","25.01042","6500400","永和區"
"234077","969-R7","2018/04/10 18:49:46","新北市永和區中正路2巷29弄2-2號","121.51386","24.99376","6500400","永和區"
"234074","AAC-211","2018/04/10 18:49:44","新北市永和區福和路1號","121.526275","25.0097983333333","6500400","永和區"
"234003","AAC-295","2018/04/10 18:49:34","新北市永和區中正路641號","121.515321666667","25.0100883333333","6500400","永和區"
"232011","375-UM","2018/04/10 18:49:43","新北市坪林區坪林街39號","121.71165","24.937125","6502000","坪林區"
"244013","069-UM","2018/04/10 18:49:56","新北市林口區麗園一街6巷9-2號","121.374965","25.0712733333333","6501700","林口區"
"244009","410-SL","2018/04/10 18:49:41","新北市林口區竹林路344號","121.391558333333","25.0837283333333","6501700","林口區"
"244023","483-VK","2018/04/10 18:49:57","新北市林口區文化三路二段77巷39號","121.373061666667","25.0801983333333","6501700","林口區"
"244017","485-VK","2018/04/10 18:49:44","新北市林口區文化二路一段20巷23號","121.365676666667","25.0675566666667","6501700","林口區"
"244019","657-BX","2018/04/10 18:49:34","新北市林口區麗園二街23巷17-1號","121.380096666667","25.0704516666667","6501700","林口區"
"244011","701-TV","2018/04/10 18:49:37","新北市林口區中正路18號","121.396101666667","25.0774816666667","6501700","林口區"
"244025","837-TS","2018/04/10 18:49:46","新北市林口區南勢里57-3號","121.360221666667","25.0779133333333","6501700","林口區"
"243012","AAD-798","2018/04/10 18:49:37","新北市泰山區福興三街13號","121.434438333333","25.0577983333333","6501600","泰山區"
"243015","380-SR","2018/04/10 18:49:39","新北市泰山區美寧街54號","121.430475","25.0644833333333","6501600","泰山區"
"243014","421-VK","2018/04/10 18:49:35","新北市泰山區犁頭窠3-1號","121.422203333333","25.06059","6501600","泰山區"
"243013","646-TV","2018/04/10 18:49:48","新北市泰山區明志路三段206巷3號","121.423255","25.0379766666667","6501600","泰山區"
"243016","680-BX","2018/04/10 18:49:51","新北市泰山區明志路二段137號","121.427631666667","25.050585","6501600","泰山區"
"222003","436-BY","2018/04/10 18:49:50","新北市深坑區深南路32號","121.620923333333","25.008405","6501800","深坑區"
"222002","659-BX","2018/04/10 18:49:39","新北市深坑區文山路一段69號","121.626981666667","25.00184","6501800","深坑區"
"231041","002-UM","2018/04/10 18:49:40","新北市新店區安華路28-1號","121.519718333333","24.9607416666667","6500600","新店區"
"231059","046-UY","2018/04/10 18:49:40","新北市新店區安華路28-1號","121.519643333333","24.960815","6500600","新店區"
"231040","047-UY","2018/04/10 18:49:49","新北市新店區中央路175-3號","121.534988333333","24.9696416666667","6500600","新店區"
"231044","106-UY","2018/04/10 18:49:48","新北市新店區中興路三段88號","121.545566666667","24.97854","6500600","新店區"
"231053","110-UY","2018/04/10 18:49:53","新北市新店區新烏路一段105巷15-1號","121.546305","24.9405416666667","6500600","新店區"
"231048","187-VK","2018/04/10 18:49:51","新北市新店區北新路二段2號","121.542513333333","24.9703183333333","6500600","新店區"
"231046","188-VK","2018/04/10 18:49:38","新北市新店區直潭路60號","121.531728333333","24.9409966666667","6500600","新店區"
"231051","278-BY","2018/04/10 18:49:55","新北市新店區中央路81號","121.5323","24.9766","6500600","新店區"
"231050","AAD-862","2018/04/10 18:49:37","新北市新店區安康路一段223號","121.525735","24.9630566666667","6500600","新店區"
"231058","3713-VJ","2018/04/10 18:49:50","新北市新店區中興路一段290號","121.54586","24.9690316666667","6500600","新店區"
"231066","4716-K9","2018/04/10 18:49:44","新北市新店區安豐路22巷15號","121.502973333333","24.9549033333333","6500600","新店區"
"231056","4715-K9","2018/04/10 18:49:38","新北市新店區建國路150號","121.53884","24.979155","6500600","新店區"
"231067","4772-VM","2018/04/10 18:49:52","新北市新店區安康路一段279號","121.523728333333","24.96352","6500600","新店區"
"231065","512-UM","2018/04/10 18:49:49","新北市新店區安康路二段397巷2-1號","121.494545","24.9536733333333","6500600","新店區"
"231049","513-UM","2018/04/10 18:49:42","新北市新店區安康路一段107-2號","121.52872","24.9616466666667","6500600","新店區"
"231045","618-UM","2018/04/10 18:49:50","新北市新店區安康路一段186號","121.52481","24.963325","6500600","新店區"
"231061","619-UM","2018/04/10 18:49:40","新北市新店區安華路28-1號","121.519518333333","24.9610233333333","6500600","新店區"
"231063","641-BX","2018/04/10 18:49:54","新北市新店區車子路109號","121.505336666667","24.9525766666667","6500600","新店區"
"231042","645-TV","2018/04/10 18:49:51","新北市新店區北新路一段86號","121.541491666667","24.96741","6500600","新店區"
"231064","719-UM","2018/04/10 18:49:51","新北市新店區安華路28-1號","121.519573333333","24.9612266666667","6500600","新店區"
"231054","719-UY","2018/04/10 18:49:40","新北市新店區新店路13號","121.540328333333","24.9528166666667","6500600","新店區"
"231062","720-UM","2018/04/10 18:49:40","新北市新店區安華路28-1號","121.519195","24.96135","6500600","新店區"
"231060","897-TW","2018/04/10 18:49:51","新北市新店區安華路28-1號","121.519683333333","24.960805","6500600","新店區"
"231043","899-TW","2018/04/10 18:49:47","新北市新店區安康路一段79巷1號","121.5299","24.9612166666667","6500600","新店區"
"231055","AKT-0513","2018/04/10 18:49:35","新北市新店區北新路一段271巷5號","121.540541666667","24.9667283333333","6500600","新店區"
"235066","003-UY","2018/04/10 18:49:51","新北市中和區中山路二段131巷21號","121.503483333333","25.0025216666667","6500300","中和區"
"235064","005-UY","2018/04/10 18:49:38","新北市中和區連城路75巷5-2號","121.49822","24.998805","6500300","中和區"
"235063","006-UY","2018/04/10 18:49:42","新北市中和區連城路319巷11弄12號","121.489615","24.99495","6500300","中和區"
"235056","096-UM","2018/04/10 18:49:45","新北市中和區員山路568號","121.478705","25.0108016666667","6500300","中和區"
"235039","097-UM","2018/04/10 18:49:52","新北市永和區中正路51號","121.514401666667","24.9964533333333","6500300","中和區"
"235065","098-UM","2018/04/10 18:49:53","新北市中和區中山路二段2巷27號","121.50319","25.0069616666667","6500300","中和區"
"235040","150-BY","2018/04/10 18:49:49","新北市中和區保健路91號","121.511201666667","24.99666","6500300","中和區"
"235058","151-BY","2018/04/10 18:49:50","新北市中和區連城路559號","121.47993","24.9947366666667","6500300","中和區"
"235055","183-VK","2018/04/10 18:49:42","新北市中和區民生街51號","121.469698333333","25.0051316666667","6500300","中和區"
"235038","185-VK","2018/04/10 18:49:41","新北市中和區大勇街48號","121.517716666667","24.9940033333333","6500300","中和區"
"235049","186-VK","2018/04/10 18:49:46","新北市中和區景安路179號","121.505143333333","24.9940833333333","6500300","中和區"
"235067","255-BX","2018/04/10 18:30:51","新北市中和區新生街44號","121.483198333333","25.0033466666667","6500300","中和區"
"235044","293-VK","2018/04/10 18:49:48","新北市中和區中興街169號","121.499921666667","24.9905933333333","6500300","中和區"
"235072","301-VK","2018/04/10 18:49:49","新北市中和區中山路二段131-6號","121.502288333333","25.0031783333333","6500300","中和區"
"235043","352-BY","2018/04/10 18:49:48","新北市中和區成功路115號","121.52596","24.991075","6500300","中和區"
"235068","377-QA","2018/04/10 18:49:58","新北市中和區中正路211巷38-5號","121.49758","24.9925966666667","6500300","中和區"
"235061","378-QA","2018/04/10 18:49:49","新北市中和區民治街128巷3號","121.475041666667","25.0028733333333","6500300","中和區"
"235060","269-TV","2018/04/10 18:49:56","新北市中和區中山路三段166號","121.472963333333","25.0063616666667","6500300","中和區"
"235050","4979-A6","2018/04/10 18:49:48","新北市中和區四維街36號","121.512501666667","24.98708","6500300","中和區"
"235069","4980-A6","2018/04/10 18:49:49","新北市中和區連城路65巷7號","121.49786","25.00095","6500300","中和區"
"235042","551-UM","2018/04/10 18:49:53","新北市中和區秀朗路三段110號","121.525393333333","24.992915","6500300","中和區"
"235070","558-UM","2018/04/10 18:49:40","新北市中和區南山路17號","121.501991666667","24.9991183333333","6500300","中和區"
"235045","565-BX","2018/04/10 18:49:49","新北市中和區南山路236巷30弄1號","121.505333333333","24.9884866666667","6500300","中和區"
"235054","640-BX","2018/04/10 18:49:43","新北市中和區民享街68巷6號","121.473751666667","25.001825","6500300","中和區"
"235047","732-UM","2018/04/10 18:49:44","新北市中和區興南路二段90號","121.505256666667","24.9846116666667","6500300","中和區"
"235046","733-UM","2018/04/10 18:49:49","新北市中和區忠孝街99-3號","121.511911666667","24.98614","6500300","中和區"
"235071","783-BX","2018/04/10 18:49:37","新北市中和區員山路36巷16-3號","121.485216666667","24.9911183333333","6500300","中和區"
"235062","800-TS","2018/04/10 18:49:38","新北市中和區中山路二段328-3號","121.495135","25.0023133333333","6500300","中和區"
"235057","801-TS","2018/04/10 18:49:55","新北市中和區民安街25巷23號","121.48063","24.99978","6500300","中和區"
"235052","805-TS","2018/04/10 18:49:54","新北市中和區興南路二段399巷22號","121.499103333333","24.9788983333333","6500300","中和區"
"235048","896-TW","2018/04/10 18:49:53","新北市中和區南山路252號","121.50791","24.9886666666667","6500300","中和區"
"235053","900-TW","2018/04/10 18:49:37","新北市中和區民德路290巷17號","121.466515","24.9958966666667","6500300","中和區"
"235051","157-BY","2018/04/10 18:49:48","新北市中和區華新街109巷16號","121.50878","24.981005","6500300","中和區"
"235037","AAC-213","2018/04/10 18:49:53","新北市中和區秀朗路三段128巷11號","121.524498333333","24.9932616666667","6500300","中和區"
"235059","AAC-215","2018/04/10 18:49:45","新北市中和區圓通路395號","121.489556666667","24.9890366666667","6500300","中和區"
"220056","015-TV","2018/04/10 18:49:45","新北市板橋區四川路二段34巷1弄1號","121.453583333333","24.99613","6500100","板橋區"
"220065","072-UY","2018/04/10 18:49:40","新北市板橋區民族路247巷5弄42號","121.470175","25.00849","6500100","板橋區"
"220086","073-UY","2018/04/10 18:49:56","新北市板橋區大智街71巷3弄1號","121.453475","25.0152916666667","6500100","板橋區"
"220067","075-UY","2018/04/10 18:49:41","新北市板橋區民生路一段30-1號","121.476883333333","25.0136483333333","6500100","板橋區"
"220017","AAD-861","2018/04/10 18:49:36","新北市板橋區南雅南路二段4巷6號","121.454031666667","25.00369","6500100","板橋區"
"226004","312-R5","2018/04/10 18:49:44","新北市平溪區靜安路二段496號","121.743541666667","25.0264933333333","6502400","平溪區"
"226004","8452-VL","2018/04/10 18:49:43","新北市平溪區靜安路二段488號","121.743465","25.0263166666667","6502400","平溪區"
"235041","251-BX","2018/04/10 18:49:47","新北市中和區中安街218號","121.512008333333","24.9988183333333","6500300","中和區"
"228001","212-TW","2018/04/10 18:49:40","新北市貢寮區仁理村研海街12-1號","121.923808333333","25.0516683333333","6502600","貢寮區"
"228002","663-BX","2018/04/10 18:49:44","新北市貢寮區福隆里東興街6-11號","121.950776666667","25.0210416666667","6502600","貢寮區"
"228003","828-UM","2018/04/10 18:49:56","新北市貢寮區和美里龍洞街63-5號","121.916868333333","25.118055","6502600","貢寮區"
"224010","AGQ-8101","2018/04/10 18:48:54","新北市瑞芳區基山街4號","121.845126666667","25.1097333333333","6501200","瑞芳區"
"224006","676-BX","2018/04/10 18:49:50","新北市瑞芳區中正路65號","121.806048333333","25.1074483333333","6501200","瑞芳區"
"224002","639-TC","2018/04/10 18:49:45","新北市瑞芳區靜安路四段59號","121.793845","25.10322","6501200","瑞芳區"
"224008","285-BY","2018/04/10 18:49:36","新北市瑞芳區裕民新城1號","121.80198","25.1120083333333","6501200","瑞芳區"
"224007","275-VK","2018/04/10 18:49:46","新北市瑞芳區大埔路128-2號","121.761951666667","25.1008466666667","6501200","瑞芳區"
"224009","273-VK","2018/04/10 18:49:40","新北市瑞芳區祈堂路53-1號","121.859571666667","25.1104233333333","6501200","瑞芳區"
"224005","271-BY","2018/04/10 18:49:43","新北市瑞芳區瑞濱路7號","121.827118333333","25.1216466666667","6501200","瑞芳區"
"227003","642-TC","2018/04/10 18:49:50","新北市雙溪區平林里梅竹蹊21號","121.861705","25.03597","6502500","雙溪區"
"227009","400-TW","2018/04/10 18:49:50","新北市雙溪區牡丹里聖南26號","121.856646666667","25.052995","6502500","雙溪區"
"253005","032-BX","2018/04/10 18:49:51","新北市石門區中山路28-3號","121.565858333333","25.2898333333333","6502200","石門區"
"253006","295-VK","2018/04/10 18:49:36","新北市石門區下員坑16號","121.511273333333","25.2839416666667","6502200","石門區"
"222001","KEA-2212","2018/04/10 18:49:47","新北市深坑區松柏街30巷2號","121.638611666667","25.011235","6501800","深坑區"
"208002","KEA-2872","2018/04/10 18:49:54","新北市金山區信義路66號","121.635665","25.2189216666667","6502700","金山區"
"208003","665-BX","2018/04/10 18:49:44","新北市金山區中山路334號","121.633673333333","25.2251283333333","6502700","金山區"
"251001","011-UM","2018/04/10 18:49:52","新北市淡水區自強路271號","121.462723333333","25.1281316666667","6501000","淡水區"
"251002","012-UM","2018/04/10 18:49:43","新北市淡水區學府路75號","121.448476666667","25.1699033333333","6501000","淡水區"
"251013","179-VK","2018/04/10 18:49:51","新北市淡水區頂田寮路1111號","121.492151666667","25.2127333333333","6501000","淡水區"
"251014","180-VK","2018/04/10 18:49:55","新北市淡水區崙頂3號","121.489943333333","25.223925","6501000","淡水區"
"251015","182-VK","2018/04/10 18:49:53","新北市淡水區興福寮1-7號","121.487306666667","25.16499","6501000","淡水區"
"251010","413-VK","2018/04/10 18:49:49","新北市淡水區沙崙路11號","121.421101666667","25.181275","6501000","淡水區"
"251012","441-VK","2018/04/10 18:49:55","新北市淡水區新興街13號","121.443303333333","25.1804633333333","6501000","淡水區"
"251016","442-VK","2018/04/10 18:49:39","新北市淡水區下圭柔山71-3號","121.447011666667","25.2061716666667","6501000","淡水區"
"251006","561-UM","2018/04/10 18:49:51","新北市淡水區崁頂61號","121.439886666667","25.2009766666667","6501000","淡水區"
"251009","575-R6","2018/04/10 18:49:52","新北市淡水區重建街158號","121.440583333333","25.1736866666667","6501000","淡水區"
"251007","577-R6","2018/04/10 18:49:34","新北市淡水區中正東路二段143巷2弄1號","121.460711666667","25.1473233333333","6501000","淡水區"
"251011","650-BX","2018/04/10 18:49:39","新北市淡水區學府路4號","121.447476666667","25.1677583333333","6501000","淡水區"
"251003","673-BX","2018/04/10 18:49:46","新北市淡水區中山北路一段186巷24號","121.446261666667","25.1785433333333","6501000","淡水區"
"207003","550-UM","2018/04/10 18:49:50","新北市萬里區大鵬里頂社1號","121.656998333333","25.2096966666667","6502800","萬里區"
"207004","225-TW","2018/04/10 18:49:56","新北市萬里區萬里里獅頭路23號","121.693226666667","25.1782566666667","6502800","萬里區"
"252002","178-VK","2018/04/10 18:49:38","新北市三芝區中正路一段112號","121.504851666667","25.256345","6502100","三芝區"
"252003","249-BX","2018/04/10 18:49:40","新北市三芝區後厝里大片頭83-3號","121.45897","25.24402","6502100","三芝區"
"252001","292-VK","2018/04/10 18:49:39","新北市三芝區中正路三段9號","121.502896666667","25.2539266666667","6502100","三芝區"
"237004","KEA-2597","2018/04/10 18:49:51","新北市三峽區有木205號","121.439015","24.8519416666667","6500900","三峽區"
"237007","153-BY","2018/04/10 18:49:43","新北市三峽區柑樹路2巷11號","121.362095","24.9050816666667","6500900","三峽區"
"237013","252-BX","2018/04/10 18:49:38","新北市三峽區光明路69巷25號","121.37669","24.9292183333333","6500900","三峽區"
"237012","275-BY","2018/04/10 18:49:49","新北市三峽區三樹路340號","121.383966666667","24.9433133333333","6500900","三峽區"
"237008","302-VK","2018/04/10 18:49:53","新北市三峽區白雞33-54號","121.37053","24.91268","6500900","三峽區"
"237014","433-BY","2018/04/10 18:49:49","新北市三峽區隆恩街172號","121.362763333333","24.9427616666667","6500900","三峽區"
"237006","5529-G3","2018/04/10 18:49:40","新北市三峽區溪東路233巷51-1號","121.410595","24.93455","6500900","三峽區"
"237010","706-TV","2018/04/10 18:49:42","新北市三峽區國光街350巷16號","121.371695","24.9401716666667","6500900","三峽區"
"237005","AKY-6261","2018/04/10 18:49:39","新北市三峽區中山路459巷58號","121.356006666667","24.9366583333333","6500900","三峽區"
"236070","105-UM","2018/04/10 18:49:44","新北市土城區延和路21巷17號","121.464033333333","24.988875","6501300","土城區"
"236042","107-UM","2018/04/10 18:49:49","新北市土城區裕民路114巷27號","121.450376666667","24.9857","6501300","土城區"
"236079","166-UM","2018/04/10 18:49:41","新北市土城區中央路四段185巷30弄1號","121.4158","24.955785","6501300","土城區"
"236030","253-BX","2018/04/10 18:49:45","新北市土城區忠義路34號","121.440438333333","24.9698233333333","6501300","土城區"
"236026","269-VK","2018/04/10 18:49:41","新北市土城區興城路48號","121.441351666667","24.9726283333333","6501300","土城區"
"236014","270-VK","2018/04/10 18:49:51","新北市土城區金城路二段354巷4號","121.460931666667","24.9848966666667","6501300","土城區"
"236038","271-VK","2018/04/10 18:49:39","新北市土城區明德路一段221巷9號","121.463778333333","24.9780033333333","6501300","土城區"
"236021","401-BY","2018/04/10 18:49:55","新北市土城區延吉街253巷7號","121.467805","24.9845683333333","6501300","土城區"
"236059","912-UM","2018/04/10 18:49:45","新北市土城區金城路一段84號","121.444741666667","24.9733666666667","6501300","土城區"
"236049","913-UM","2018/04/10 18:49:53","新北市土城區廣福街68巷18弄1號","121.4594","24.990475","6501300","土城區"
"236063","915-UM","2018/04/10 18:49:45","新北市土城區金城路三段207巷17號","121.469995","24.9901433333333","6501300","土城區"
"236055","AAC-216","2018/04/10 18:49:49","新北市土城區裕民路179號","121.453371666667","24.9847416666667","6501300","土城區"
"242058","986-R7","2018/04/10 18:49:49","新北市泰山區民生路122號","121.435331666667","25.0460516666667","6500500","新莊區"
"242002","349-TH","2018/04/10 18:49:47","新北市新莊區三和路12-18號","121.441961666667","25.03764","6500500","新莊區"
"238023","601-UM","2018/04/10 18:49:36","桃園市龜山區萬壽路一段253號","121.404316666667","25.017265","6500700","樹林區"
"238019","599-UM","2018/04/10 18:49:38","新北市樹林區東陽街20號","121.412941666667","24.981855","6500700","樹林區"
"238018","571-TV","2018/04/10 18:49:44","新北市樹林區鎮前街165號","121.422265","24.987165","6500700","樹林區"
"238024","5061-A6","2018/04/10 18:49:37","新北市樹林區八德街418號","121.403143333333","24.970485","6500700","樹林區"
"238022","KEA-2213","2018/04/10 18:49:48","新北市樹林區東大街1-5號","121.413201666667","24.9764916666667","6500700","樹林區"
"238025","303-VK","2018/04/10 18:49:44","新北市樹林區中山路三段22號","121.395638333333","24.97292","6500700","樹林區"
"238017","283-BY","2018/04/10 18:49:42","新北市樹林區光興街50號","121.40986","25.0026866666667","6500700","樹林區"
"238014","282-BY","2018/04/10 18:49:47","新北市樹林區大安路111巷51號","121.423635","24.99735","6500700","樹林區"
"238026","172-UY","2018/04/10 18:49:53","新北市樹林區吉祥街31號","121.396015","24.9737533333333","6500700","樹林區"
"238016","169-UY","2018/04/10 18:49:52","新北市樹林區文化街28號","121.419288333333","24.9876766666667","6500700","樹林區"
"239007","AAC-297","2018/04/10 18:49:43","新北市鶯歌區成功街20巷11號","121.358868333333","24.95769","6500800","鶯歌區"
"239006","891-R6","2018/04/10 18:49:47","新北市鶯歌區鶯桃路296巷72弄2號","121.336653333333","24.961605","6500800","鶯歌區"
"239008","527-UM","2018/04/10 18:49:42","新北市鶯歌區國際二路20巷19號","121.337143333333","24.975365","6500800","鶯歌區"
"239005","526-UM","2018/04/10 18:49:44","新北市鶯歌區大湖路361巷24弄12號","121.33009","24.9780216666667","6500800","鶯歌區"
"239001","417-VK","2018/04/10 18:49:53","新北市鶯歌區永明街15號","121.338648333333","24.955515","6500800","鶯歌區"
"239003","360-BY","2018/04/10 18:49:43","新北市鶯歌區鶯桃路654號","121.329298333333","24.9690766666667","6500800","鶯歌區"
"239002","359-BY","2018/04/10 18:49:36","新北市鶯歌區中正一路213號","121.353931666667","24.9570116666667","6500800","鶯歌區"
"239004","193-VK","2018/04/10 18:49:36","新北市鶯歌區中正三路247巷76號","121.33368","24.9364316666667","6500800","鶯歌區"
"221008","489-VK","2018/04/10 18:49:39","新北市汐止區康寧街901號","121.651396666667","25.07503","6501100","汐止區"
"221036","130-UY","2018/04/10 18:49:35","新北市汐止區南昌街21號","121.663365","25.06932","6501100","汐止區"
"221015","131-UY","2018/04/10 18:49:39","新北市汐止區鄉長路一段43號","121.665343333333","25.075065","6501100","汐止區"
"221010","269-BY","2018/04/10 18:49:38","新北市汐止區汐萬路一段256巷3號","121.652486666667","25.0745466666667","6501100","汐止區"
"221018","277-VK","2018/04/10 18:49:42","新北市汐止區福德一路300巷21號","121.63062","25.0640366666667","6501100","汐止區"
"221012","278-VK","2018/04/10 18:49:45","新北市汐止區汐萬路一段256巷3號","121.652608333333","25.0745466666667","6501100","汐止區"
"221023","279-VK","2018/04/10 18:49:46","新北市汐止區汐萬路一段256巷3號","121.653463333333","25.0746633333333","6501100","汐止區"
"221032","280-BY","2018/04/10 18:49:46","新北市汐止區民權街二段48號","121.619401666667","25.0490883333333","6501100","汐止區"
"221027","281-BY","2018/04/10 18:49:46","新北市汐止區康寧街901號","121.651448333333","25.074925","6501100","汐止區"
"221029","298-VK","2018/04/10 18:49:42","新北市汐止區工建路64號","121.640558333333","25.0630766666667","6501100","汐止區"
"221035","622-UM","2018/04/10 18:49:34","新北市汐止區汐萬路一段159號","121.653073333333","25.0710266666667","6501100","汐止區"
"221025","623-UM","2018/04/10 18:49:45","新北市汐止區仁愛路36號","121.660511666667","25.0628416666667","6501100","汐止區"
"221038","646-BX","2018/04/10 18:49:48","新北市汐止區康寧街901號","121.650735","25.07527","6501100","汐止區"
"221033","647-BX","2018/04/10 18:49:53","新北市汐止區南勢街1巷1號","121.627056666667","25.0374283333333","6501100","汐止區"
"221002","707-TV","2018/04/10 18:49:48","新北市汐止區大同路一段161號","121.632648333333","25.05656","6501100","汐止區"
"220079","145-BY","2018/04/10 18:49:56","新北市板橋區民權路202巷7弄8號","121.459813333333","25.014845","6500100","板橋區"
"220080","200-UY","2018/04/10 18:49:41","新北市板橋區大觀路二段265巷60弄53號","121.441331666667","24.99776","6500100","板橋區"
"220106","KEA-2550","2018/04/10 18:49:47","新北市板橋區民生路二段161巷1號","121.470175","25.0199166666667","6500100","板橋區"
"220082","610-BX","2018/04/10 18:49:43","新北市板橋區篤行路三段77號","121.426935","24.9852333333333","6500100","板橋區"
"220103","257-TC","2018/04/10 18:49:40","新北市板橋區民生路二段161巷5號","121.470255","25.0197216666667","6500100","板橋區"
"220091","267-BY","2018/04/10 18:49:56","新北市板橋區民生路二段120號","121.470578333333","25.0194366666667","6500100","板橋區"
"220072","277-BY","2018/04/10 18:49:55","新北市板橋區大觀路三段36巷59號","121.434465","24.9969716666667","6500100","板橋區"
"220070","282-UM","2018/04/10 18:49:42","新北市板橋區四川路一段133號","121.459918333333","25.00451","6500100","板橋區"
"220071","283-VK","2018/04/10 18:49:44","新北市板橋區忠孝路196巷47號","121.465715","25.00153","6500100","板橋區"
"220094","285-UM","2018/04/10 18:49:55","新北市板橋區民生路二段161巷3號","121.470045","25.0197633333333","6500100","板橋區"
"220053","285-VK","2018/04/10 18:49:46","新北市板橋區民生路二段103號","121.471386666667","25.017875","6500100","板橋區"
"220083","286-VK","2018/04/10 18:49:57","新北市板橋區僑中一街125巷6弄2號","121.445543333333","25.0115666666667","6500100","板橋區"
"220081","287-VK","2018/04/10 18:49:47","新北市板橋區光華街13巷27號","121.453201666667","25.01129","6500100","板橋區"
"220090","288-VK","2018/04/10 18:49:38","新北市板橋區民生路二段161巷9號","121.47021","25.0196516666667","6500100","板橋區"
"220061","293-UM","2018/04/10 18:49:47","新北市板橋區太和街4巷15號","121.474315","25.0200233333333","6500100","板橋區"
"220075","303-R5","2018/04/10 18:49:41","新北市板橋區南雅東路88號","121.453916666667","25.007605","6500100","板橋區"
"220062","305-R5","2018/04/10 18:49:49","新北市板橋區中山路二段25號","121.472475","25.0152383333333","6500100","板橋區"
"220092","307-R5","2018/04/10 18:49:45","新北市板橋區民生路二段161巷9號","121.470236666667","25.0195933333333","6500100","板橋區"
"220098","317-R6","2018/04/10 18:49:53","新北市板橋區民生路二段120號","121.470493333333","25.019565","6500100","板橋區"
"220064","486-VK","2018/04/10 18:49:44","新北市板橋區中山路二段37號","121.473075","25.01551","6500100","板橋區"
"220035","560-BX","2018/04/10 18:49:40","新北市板橋區中正路325巷30-2號","121.45302","25.0186916666667","6500100","板橋區"
"220084","568-UM","2018/04/10 18:49:44","新北市板橋區大觀路二段150巷60號","121.441535","25.0005266666667","6500100","板橋區"
"220063","609-BX","2018/04/10 18:49:36","新北市板橋區民生路二段89-4號","121.47105","25.0181566666667","6500100","板橋區"
"220055","630-UY","2018/04/10 18:49:49","新北市板橋區縣民大道一段300號","121.461398333333","25.01058","6500100","板橋區"
"220057","686-BX","2018/04/10 18:49:51","新北市板橋區南雅南路二段118號","121.452438333333","25.0001116666667","6500100","板橋區"
"220093","689-BX","2018/04/10 18:49:42","新北市板橋區民生路二段161巷1號","121.470133333333","25.02009","6500100","板橋區"
"220054","741-BX","2018/04/10 18:49:55","新北市板橋區館前東路22號","121.460143333333","25.0071333333333","6500100","板橋區"
"220102","KEA-2699","2018/04/10 18:49:40","新北市板橋區民生路二段161巷1號","121.470146666667","25.0201133333333","6500100","板橋區"
"220068","830-TW","2018/04/10 18:49:44","新北市板橋區縣民大道二段200巷35號","121.470931666667","25.0181183333333","6500100","板橋區"
"220096","831-TW","2018/04/10 18:49:36","新北市板橋區民生路二段161巷1號","121.470268333333","25.0199716666667","6500100","板橋區"
"220074","895-R6","2018/04/10 18:49:51","新北市板橋區南門街39號","121.457293333333","25.0088","6500100","板橋區"
"220073","985-R7","2018/04/10 18:49:52","新北市板橋區館前西路127號","121.456595","25.0076083333333","6500100","板橋區"
"220077","AAC-253","2018/04/10 18:49:48","新北市板橋區龍興街97巷1號","121.444105","25.0025716666667","6500100","板橋區"
