"lineid","car","time","location","longitude","latitude","cityid","cityname"
"234046","148-BY","2018/04/10 19:19:55","新北市永和區得和路327號","121.52353","24.9996666666667","6500400","永和區"
"234070","149-BY","2018/04/10 19:19:53","新北市永和區豫溪街33號","121.516421666667","25.0098766666667","6500400","永和區"
"234007","207-UY","2018/04/10 19:19:37","新北市永和區中山路一段320號","121.506571666667","25.0070166666667","6500400","永和區"
"234081","298-R6","2018/04/10 19:19:55","新北市永和區福和路7巷14弄2號","121.525471666667","25.0072616666667","6500400","永和區"
"234038","336-UY","2018/04/10 19:19:54","新北市永和區民樂街55巷4號","121.527613333333","24.99844","6500400","永和區"
"234064","337-UY","2018/04/10 19:19:51","新北市永和區永元路17巷6弄2號","121.521333333333","25.000645","6500400","永和區"
"234086","338-UY","2018/04/10 19:19:39","新北市永和區永利路72號","121.52027","25.004255","6500400","永和區"
"234067","553-UM","2018/04/10 19:19:44","新北市永和區保平路52號","121.5113","25.007055","6500400","永和區"
"234017","745-BX","2018/04/10 19:19:48","新北市永和區文化路144巷19弄20號","121.512215","25.01681","6500400","永和區"
"234030","746-BX","2018/04/10 19:19:51","新北市永和區厚德街83號","121.52427","24.9987616666667","6500400","永和區"
"234054","KEA-2590","2018/04/10 19:19:38","新北市永和區中興街35號","121.516221666667","25.0118266666667","6500400","永和區"
"234013","KEA-2591","2018/04/10 19:19:41","新北市永和區信義路46-1號","121.513283333333","25.012405","6500400","永和區"
"234061","AAD-866","2018/04/10 19:19:50","新北市永和區秀朗路一段120號","121.51707","25.0036233333333","6500400","永和區"
"234042","862-TW","2018/04/10 19:19:56","新北市永和區保平路151巷2弄6-3號","121.509575","25.005305","6500400","永和區"
"234050","863-TW","2018/04/10 19:19:52","新北市永和區保福路二段88巷25號","121.511631666667","25.0137283333333","6500400","永和區"
"234026","9371-KE","2018/04/10 19:19:52","新北市永和區安樂路144巷24號","121.515113333333","24.9996983333333","6500400","永和區"
"234011","9373-KE","2018/04/10 19:19:51","新北市永和區保福路二段37號","121.510876666667","25.0115233333333","6500400","永和區"
"249005","172-UM","2018/04/10 19:19:53","新北市八里區中華路三段170-1號","121.392181666667","25.1304733333333","6502300","八里區"
"249001","173-UM","2018/04/10 19:19:52","新北市八里區中華路二段31-1號","121.412178333333","25.1550916666667","6502300","八里區"
"249003","593-UM","2018/04/10 19:19:51","新北市八里區中山路二段355號","121.399073333333","25.1471516666667","6502300","八里區"
"248020","225-UY","2018/04/10 18:56:57","新北市五股區凌雲路三段57號","121.425281666667","25.1250033333333","6501500","五股區"
"248012","247-BX","2018/04/10 19:19:38","新北市五股區中興路四段48巷16號","121.43862","25.0834316666667","6501500","五股區"
"248010","272-BY","2018/04/10 19:19:41","新北市五股區自強路90巷72號","121.430756666667","25.0712816666667","6501500","五股區"
"248004","677-BX","2018/04/10 19:19:46","新北市五股區五福路77號","121.432455","25.0901483333333","6501500","五股區"
"248002","678-BX","2018/04/10 19:19:49","新北市五股區凌雲路一段158巷14號","121.447808333333","25.1034266666667","6501500","五股區"
"234023","9380-KE","2018/04/10 19:19:47","新北市永和區中興街52巷9弄8號","121.517681666667","25.0111116666667","6500400","永和區"
"234077","969-R7","2018/04/10 19:19:46","新北市永和區民治街72巷12號","121.518151666667","24.9986083333333","6500400","永和區"
"234074","AAC-211","2018/04/10 19:19:43","新北市永和區竹林路100-1號","121.519596666667","25.012045","6500400","永和區"
"234003","AAC-295","2018/04/10 19:19:54","新北市永和區中山路一段110號","121.510788333333","25.0103116666667","6500400","永和區"
"244013","069-UM","2018/04/10 19:19:41","新北市林口區麗園一街9巷2號","121.376923333333","25.0709883333333","6501700","林口區"
"244023","483-VK","2018/04/10 19:19:37","新北市林口區文化三路一段636-1號","121.371795","25.077155","6501700","林口區"
"244019","657-BX","2018/04/10 19:19:54","新北市林口區麗園一街3號","121.375878333333","25.0721883333333","6501700","林口區"
"244011","701-TV","2018/04/10 19:19:37","新北市林口區中山路564號","121.378095","25.083685","6501700","林口區"
"243012","AAD-798","2018/04/10 19:19:37","新北市泰山區仁愛路94號","121.43324","25.0554383333333","6501600","泰山區"
"243015","380-SR","2018/04/10 19:19:39","新北市泰山區公園路71號","121.426376666667","25.05551","6501600","泰山區"
"243014","421-VK","2018/04/10 19:19:55","新北市泰山區泰林路二段222號","121.432511666667","25.0619566666667","6501600","泰山區"
"243010","KEA-2215","2018/04/10 19:19:54","新北市泰山區明志路一段494號","121.430205","25.054675","6501600","泰山區"
"243009","KEA-2216","2018/04/10 19:19:35","新北市泰山區和平街2號","121.43409","25.06456","6501600","泰山區"
"243013","646-TV","2018/04/10 19:19:48","新北市泰山區明志路三段145巷7號","121.425433333333","25.040035","6501600","泰山區"
"243016","680-BX","2018/04/10 19:19:51","新北市泰山區工專路27號","121.423398333333","25.0398666666667","6501600","泰山區"
"222003","436-BY","2018/04/10 19:19:50","新北市深坑區深南路204號","121.626631666667","25.0159983333333","6501800","深坑區"
"222002","659-BX","2018/04/10 19:19:39","新北市深坑區北深路一段177號","121.63257","25.01089","6501800","深坑區"
"231041","002-UM","2018/04/10 19:19:40","新北市新店區溪園路245-6號","121.525441666667","24.98329","6500600","新店區"
"231059","046-UY","2018/04/10 19:19:40","新北市新店區安和路二段191號","121.518198333333","24.9749983333333","6500600","新店區"
"231040","047-UY","2018/04/10 19:19:49","新北市新店區三民路49號","121.537033333333","24.9709633333333","6500600","新店區"
"231044","106-UY","2018/04/10 19:19:50","新北市新店區寶慶街71號","121.541981666667","24.9865883333333","6500600","新店區"
"231053","110-UY","2018/04/10 19:19:53","新北市新店區自強路236號","121.547143333333","24.91867","6500600","新店區"
"231048","187-VK","2018/04/10 19:19:51","新北市新店區中興路二段81號","121.546798333333","24.9711683333333","6500600","新店區"
"231046","188-VK","2018/04/10 19:19:38","新北市新店區華城路36巷1-1號","121.528478333333","24.955305","6500600","新店區"
"231051","278-BY","2018/04/10 19:19:55","新北市新店區中央路129號","121.530586666667","24.9740433333333","6500600","新店區"
"231050","AAD-862","2018/04/10 19:19:57","新北市新店區竹林路65號","121.553021666667","24.9511766666667","6500600","新店區"
"231058","3713-VJ","2018/04/10 19:19:50","新北市新店區北新路二段57號","121.542863333333","24.97314","6500600","新店區"
"231066","4716-K9","2018/04/10 19:19:44","新北市新店區安康路三段355巷12號","121.484855","24.95019","6500600","新店區"
"231056","4715-K9","2018/04/10 19:19:38","新北市新店區溪園路401號","121.523753333333","24.9780366666667","6500600","新店區"
"231065","512-UM","2018/04/10 19:19:49","新北市新店區安祥路110巷26號","121.474281666667","24.9562716666667","6500600","新店區"
"231049","513-UM","2018/04/10 19:19:42","新北市新店區明德路111號","121.541536666667","24.9794366666667","6500600","新店區"
"231045","618-UM","2018/04/10 19:19:50","新北市新店區北宜路一段286號","121.546613333333","24.9526416666667","6500600","新店區"
"231061","619-UM","2018/04/10 19:19:40","新北市新店區安康路一段52巷2號","121.53007","24.9611633333333","6500600","新店區"
"231063","641-BX","2018/04/10 19:19:34","新北市新店區達觀路14巷3號","121.503296666667","24.94184","6500600","新店區"
"231042","645-TV","2018/04/10 19:19:51","新北市新店區中興路一段60號","121.539216666667","24.9596183333333","6500600","新店區"
"231064","719-UM","2018/04/10 19:19:51","新北市新店區安忠路57巷26弄15號","121.512781666667","24.958465","6500600","新店區"
"231054","719-UY","2018/04/10 19:19:40","新北市新店區北宜路一段28號","121.538066666667","24.95696","6500600","新店區"
"231062","720-UM","2018/04/10 19:19:40","新北市新店區安康路一段164-1號","121.526053333333","24.96303","6500600","新店區"
"231060","897-TW","2018/04/10 19:19:51","新北市新店區安康路二段105-1號","121.512723333333","24.9623383333333","6500600","新店區"
"231043","899-TW","2018/04/10 19:19:47","新北市新店區北新路二段128號","121.542985","24.9748283333333","6500600","新店區"
"231055","AKT-0513","2018/04/10 19:19:35","新北市新店區安德街60巷17號","121.51027","24.96311","6500600","新店區"
"241009","060-VK","2018/04/10 19:19:50","新北市三重區溪尾街218巷37-7號","121.486378333333","25.08123","6500200","三重區"
"241031","061-VK","2018/04/10 19:19:49","新北市三重區重新路四段101-8號","121.48566","25.0539466666667","6500200","三重區"
"241017","063-VK","2018/04/10 19:19:35","新北市三重區大同北路217號","121.491506666667","25.0659933333333","6500200","三重區"
"241026","066-VK","2018/04/10 19:19:55","新北市三重區中正南路246號","121.493418333333","25.0540683333333","6500200","三重區"
"241032","269-UM","2018/04/10 19:19:42","新北市三重區新生街94號","121.483508333333","25.059275","6500200","三重區"
"241025","271-UM","2018/04/10 19:19:45","新北市三重區中正北路438號","121.474336666667","25.071275","6500200","三重區"
"241007","398-BY","2018/04/10 19:19:49","新北市三重區慈愛街50號","121.485986666667","25.079125","6500200","三重區"
"241020","478-VK","2018/04/10 19:19:43","新北市三重區大智街238-3號","121.489386666667","25.07292","6500200","三重區"
"241030","480-VK","2018/04/10 19:19:52","新北市三重區成功路41巷93號","121.49141","25.05308","6500200","三重區"
"241006","AAD-863","2018/04/10 19:19:39","新北市三重區車路頭街149-2號","121.483786666667","25.0767916666667","6500200","三重區"
"241022","887-TS","2018/04/10 19:19:46","新北市三重區中正北路50號","121.487081666667","25.0642166666667","6500200","三重區"
"241029","942-UM","2018/04/10 19:19:47","新北市三重區重安街53巷3號","121.491445","25.0565516666667","6500200","三重區"
"235066","003-UY","2018/04/10 19:19:51","新北市中和區中和路102號","121.50267","24.9997883333333","6500300","中和區"
"235064","005-UY","2018/04/10 19:19:38","新北市中和區泰和街38巷18號","121.498875","25.0008483333333","6500300","中和區"
"235063","006-UY","2018/04/10 19:19:42","新北市中和區連城路249巷28弄1號","121.494793333333","24.9949033333333","6500300","中和區"
"235056","096-UM","2018/04/10 19:19:44","新北市中和區員山路527號","121.479633333333","25.006895","6500300","中和區"
"235039","097-UM","2018/04/10 19:19:52","新北市中和區自立路60號","121.52365","24.991545","6500300","中和區"
"235065","098-UM","2018/04/10 19:19:53","新北市中和區中山路二段2巷3弄1號","121.50487","25.0061466666667","6500300","中和區"
"235040","150-BY","2018/04/10 19:19:49","新北市中和區安平路55號","121.509545","24.99559","6500300","中和區"
"235058","151-BY","2018/04/10 19:19:50","新北市中和區員山路123號","121.480995","24.9954983333333","6500300","中和區"
"235055","183-VK","2018/04/10 19:19:43","新北市中和區德光路55號","121.470003333333","25.0038666666667","6500300","中和區"
"235038","185-VK","2018/04/10 19:19:41","新北市中和區大仁街10巷48-1號","121.519508333333","24.9924233333333","6500300","中和區"
"235049","186-VK","2018/04/10 19:19:46","新北市中和區景新街235號","121.508148333333","24.9945883333333","6500300","中和區"
"235067","255-BX","2018/04/10 19:18:31","新北市中和區民樂路56號","121.48334","25.0012266666667","6500300","中和區"
"235044","293-VK","2018/04/10 19:19:48","新北市中和區復興路306號","121.501275","24.9903083333333","6500300","中和區"
"235072","301-VK","2018/04/10 19:19:49","新北市中和區連城路265巷1號","121.491448333333","24.996375","6500300","中和區"
"235043","352-BY","2018/04/10 19:19:47","新北市中和區景平路404號","121.509061666667","24.993145","6500300","中和區"
"235068","377-QA","2018/04/10 19:19:38","新北市中和區連勝街26巷2號","121.498293333333","24.998145","6500300","中和區"
"235061","378-QA","2018/04/10 19:19:55","新北市中和區員山路212號","121.481308333333","25.0008316666667","6500300","中和區"
"235060","269-TV","2018/04/10 19:19:36","新北市中和區員山路300號","121.481355","25.0026316666667","6500300","中和區"
"235050","4979-A6","2018/04/10 19:19:48","新北市中和區復興路280巷18弄20號","121.501718333333","24.992365","6500300","中和區"
"235069","4980-A6","2018/04/10 19:19:41","新北市中和區廣福路116號","121.50195","25.0011266666667","6500300","中和區"
"235042","551-UM","2018/04/10 19:19:52","新北市永和區中正路226號","121.516008333333","24.9978683333333","6500300","中和區"
"235070","558-UM","2018/04/10 19:19:40","新北市中和區中山路二段229號","121.498405","25.002445","6500300","中和區"
"235045","565-BX","2018/04/10 19:19:46","新北市中和區景新街467巷15弄11號","121.513698333333","24.98866","6500300","中和區"
"235054","640-BX","2018/04/10 19:19:43","新北市中和區國光街107巷2弄5-4號","121.469995","24.9998383333333","6500300","中和區"
"235047","732-UM","2018/04/10 19:19:44","新北市中和區和平街54巷5弄1號","121.508886666667","24.99134","6500300","中和區"
"235046","733-UM","2018/04/10 19:19:49","新北市中和區華新街115號","121.507278333333","24.9821483333333","6500300","中和區"
"235071","783-BX","2018/04/10 19:19:37","新北市中和區中正路637巷52弄3號","121.485333333333","24.99364","6500300","中和區"
"235057","801-TS","2018/04/10 19:19:55","新北市中和區員山路423巷9號","121.480518333333","25.0030933333333","6500300","中和區"
"235052","805-TS","2018/04/10 19:19:54","新北市中和區華新街143巷19號","121.506575","24.980945","6500300","中和區"
"235048","896-TW","2018/04/10 19:19:53","新北市中和區忠孝街64號","121.511888333333","24.9839633333333","6500300","中和區"
"235053","900-TW","2018/04/10 19:19:45","新北市中和區民德路214號","121.468226666667","24.99817","6500300","中和區"
"235051","157-BY","2018/04/10 19:19:48","新北市中和區和平街54巷8弄30號","121.509651666667","24.9913566666667","6500300","中和區"
"235037","AAC-213","2018/04/10 19:19:53","新北市中和區秀朗路三段10巷37弄14號","121.52349","24.995905","6500300","中和區"
"235059","AAC-215","2018/04/10 19:19:45","新北市中和區圓通路286巷1號","121.491333333333","24.9910383333333","6500300","中和區"
"220056","015-TV","2018/04/10 19:19:53","新北市板橋區信義路142號","121.458765","24.9920816666667","6500100","板橋區"
"220065","072-UY","2018/04/10 19:19:40","新北市板橋區國泰街77號","121.467405","25.0065416666667","6500100","板橋區"
"220086","073-UY","2018/04/10 19:19:50","新北市板橋區中正路216巷92號","121.458531666667","25.01908","6500100","板橋區"
"220067","075-UY","2018/04/10 19:19:41","新北市板橋區長安街178巷3號","121.474116666667","25.01114","6500100","板橋區"
"220069","AAD-861","2018/04/10 19:19:36","新北市板橋區貴興路37號","121.457615","25.00378","6500100","板橋區"
"226004","312-R5","2018/04/10 19:19:43","新北市平溪區十分里十分街82號","121.776441666667","25.0422416666667","6502400","平溪區"
"226004","8452-VL","2018/04/10 19:19:43","新北市平溪區十分里十分街90號","121.776628333333","25.0423883333333","6502400","平溪區"
"235041","251-BX","2018/04/10 19:19:47","新北市中和區景安路9號","121.507998333333","24.9990083333333","6500300","中和區"
"228001","212-TW","2018/04/10 19:19:40","新北市貢寮區真理里新港街10號","121.925503333333","25.0544016666667","6502600","貢寮區"
"228002","663-BX","2018/04/10 19:19:44","新北市貢寮區龍門里復興街46-2號","121.928551666667","25.029925","6502600","貢寮區"
"228003","828-UM","2018/04/10 19:19:56","新北市貢寮區和美里和美街19-2號","121.912755","25.0826066666667","6502600","貢寮區"
"224010","AGQ-8101","2018/04/10 19:11:14","新北市瑞芳區基山街161號","121.843496666667","25.1081266666667","6501200","瑞芳區"
"224006","676-BX","2018/04/10 19:19:50","新北市瑞芳區中山路266號","121.799423333333","25.1075983333333","6501200","瑞芳區"
"224008","285-BY","2018/04/10 19:19:46","新北市瑞芳區一坑路217號","121.801406666667","25.108905","6501200","瑞芳區"
"224007","275-VK","2018/04/10 19:19:46","新北市瑞芳區大寮路356-1號","121.784621666667","25.1032066666667","6501200","瑞芳區"
"224005","271-BY","2018/04/10 19:19:43","新北市瑞芳區員山子路23號","121.822078333333","25.1027416666667","6501200","瑞芳區"
"227003","642-TC","2018/04/10 19:19:50","新北市雙溪區平林里梅竹蹊39號","121.86074","25.03588","6502500","雙溪區"
"227009","400-TW","2018/04/10 19:19:50","新北市雙溪區新基里新基北街40號","121.868501666667","25.038015","6502500","雙溪區"
"253005","032-BX","2018/04/10 19:19:51","新北市石門區阿里荖5號","121.610426666667","25.27975","6502200","石門區"
"253006","295-VK","2018/04/10 19:19:56","新北市石門區楓林23-19號","121.537531666667","25.2905","6502200","石門區"
"222001","KEA-2212","2018/04/10 19:19:47","新北市深坑區北深路二段84號","121.617523333333","25.0035133333333","6501800","深坑區"
"208002","KEA-2872","2018/04/10 19:19:54","新北市金山區中華路159號","121.63269","25.2218466666667","6502700","金山區"
"208003","665-BX","2018/04/10 19:19:52","新北市金山區忠孝一路42號","121.63787","25.2201166666667","6502700","金山區"
"251001","011-UM","2018/04/10 19:19:52","新北市淡水區民權路231號","121.460693333333","25.1292833333333","6501000","淡水區"
"251013","179-VK","2018/04/10 19:19:51","新北市淡水區安子內12號","121.481561666667","25.2190783333333","6501000","淡水區"
"251014","180-VK","2018/04/10 19:19:55","新北市淡水區小中寮19-7號","121.484755","25.2296466666667","6501000","淡水區"
"251015","182-VK","2018/04/10 19:19:53","新北市淡水區山子邊16巷4號","121.485438333333","25.18197","6501000","淡水區"
"251010","413-VK","2018/04/10 19:19:49","新北市淡水區沙崙路27號","121.421433333333","25.1816083333333","6501000","淡水區"
"251012","441-VK","2018/04/10 19:19:51","新北市淡水區中山北路三段164號","121.445668333333","25.19661","6501000","淡水區"
"251016","442-VK","2018/04/10 19:19:39","新北市淡水區淡金路三段350巷18號","121.450786666667","25.208355","6501000","淡水區"
"251005","443-VK","2018/04/10 19:19:35","新北市淡水區水源街一段27巷1號","121.443113333333","25.1724483333333","6501000","淡水區"
"251006","561-UM","2018/04/10 19:19:50","新北市淡水區中山北路三段163號","121.445281666667","25.1965533333333","6501000","淡水區"
"251009","575-R6","2018/04/10 19:19:52","新北市淡水區大忠街5巷9號","121.44336","25.1765333333333","6501000","淡水區"
"251007","577-R6","2018/04/10 19:19:54","新北市淡水區民生路117巷33-2號","121.46487","25.1396283333333","6501000","淡水區"
"251003","673-BX","2018/04/10 19:19:46","新北市淡水區中山北路一段33號","121.441606666667","25.175235","6501000","淡水區"
"207003","550-UM","2018/04/10 19:19:50","新北市萬里區大鵬里萬里加投79-3號","121.647341666667","25.2123516666667","6502800","萬里區"
"207004","225-TW","2018/04/10 19:19:56","新北市萬里區萬里里瑪鋉路6號","121.687588333333","25.1750983333333","6502800","萬里區"
"252002","178-VK","2018/04/10 19:19:58","新北市三芝區淡金路二段18-1號","121.502688333333","25.2594766666667","6502100","三芝區"
"252001","292-VK","2018/04/10 19:19:39","新北市三芝區長勤街37巷18號","121.501178333333","25.2550816666667","6502100","三芝區"
"237004","KEA-2597","2018/04/10 19:19:42","新北市三峽區有木205-1號","121.43905","24.85147","6500900","三峽區"
"237007","153-BY","2018/04/10 19:19:43","新北市三峽區二鬮路83-1號","121.359386666667","24.9067666666667","6500900","三峽區"
"237009","210-TH","2018/04/10 19:19:39","新北市三峽區信義街1號","121.370831666667","24.9361433333333","6500900","三峽區"
"237013","252-BX","2018/04/10 19:19:38","新北市三峽區光明路75巷19號","121.37731","24.9280483333333","6500900","三峽區"
"237012","275-BY","2018/04/10 19:19:49","新北市三峽區三樹路222巷236弄23號","121.391283333333","24.9431116666667","6500900","三峽區"
"237008","302-VK","2018/04/10 19:19:53","新北市三峽區大同路154號","121.373103333333","24.9267483333333","6500900","三峽區"
"237014","433-BY","2018/04/10 19:19:49","新北市三峽區中山路67巷32號","121.366918333333","24.9342883333333","6500900","三峽區"
"237006","5529-G3","2018/04/10 19:19:40","新北市三峽區中正路一段330-10號","121.369911666667","24.9245666666667","6500900","三峽區"
"237010","706-TV","2018/04/10 19:19:42","新北市三峽區復興路19號","121.373966666667","24.9362966666667","6500900","三峽區"
"237005","AKY-6261","2018/04/10 19:19:39","新北市三峽區中山路459巷50號","121.356348333333","24.9371383333333","6500900","三峽區"
"236070","105-UM","2018/04/10 19:19:44","新北市土城區學成路147號","121.448833333333","24.9895233333333","6501300","土城區"
"236079","166-UM","2018/04/10 19:19:41","新北市土城區中央路四段321巷32-1號","121.411615","24.9514033333333","6501300","土城區"
"236026","269-VK","2018/04/10 19:19:41","新北市土城區員林街76號","121.444351666667","24.9767283333333","6501300","土城區"
"236014","270-VK","2018/04/10 19:19:51","新北市土城區廣福街7號","121.457228333333","24.9888366666667","6501300","土城區"
"236021","401-BY","2018/04/10 19:19:55","新北市土城區峰廷街3號","121.469053333333","24.9873233333333","6501300","土城區"
"236059","912-UM","2018/04/10 19:19:45","新北市土城區中央路三段49號","121.438956666667","24.9697266666667","6501300","土城區"
"236049","913-UM","2018/04/10 19:19:53","新北市土城區明德路一段398-1號","121.453633333333","24.9790716666667","6501300","土城區"
"238015","755-BX","2018/04/10 19:19:45","新北市樹林區大安路521號","121.413973333333","24.9858833333333","6500700","樹林區"
"238023","601-UM","2018/04/10 19:19:36","新北市樹林區三興路37號","121.396133333333","25.0146216666667","6500700","樹林區"
"238019","599-UM","2018/04/10 19:19:38","新北市樹林區鎮前街347巷8號","121.416793333333","24.9834733333333","6500700","樹林區"
"238018","571-TV","2018/04/10 19:19:51","新北市樹林區中華路60號","121.420685","24.9819483333333","6500700","樹林區"
"238024","5061-A6","2018/04/10 19:19:37","新北市樹林區福德街48-12號","121.398763333333","24.9748116666667","6500700","樹林區"
"238022","KEA-2213","2018/04/10 19:19:48","新北市樹林區中華路190-6號","121.410445","24.9804233333333","6500700","樹林區"
"238021","KEA-2539","2018/04/10 19:19:40","新北市樹林區柑園街二段386巷18號","121.367445","24.9495366666667","6500700","樹林區"
"238025","303-VK","2018/04/10 19:19:43","新北市樹林區中華路190-6號","121.410143333333","24.980495","6500700","樹林區"
"238017","283-BY","2018/04/10 19:19:42","新北市樹林區光興街63巷8號","121.41072","25.002055","6500700","樹林區"
"238014","282-BY","2018/04/10 19:19:38","新北市樹林區保安二街5號","121.425338333333","24.993855","6500700","樹林區"
"238026","172-UY","2018/04/10 19:19:53","新北市樹林區佳園路三段69號","121.387628333333","24.95283","6500700","樹林區"
"238016","169-UY","2018/04/10 19:19:52","新北市樹林區中山路二段80-1號","121.414833333333","24.983905","6500700","樹林區"
"239007","AAC-297","2018/04/10 19:19:43","新北市鶯歌區大湖路余厝巷11號","121.341931666667","24.9614616666667","6500800","鶯歌區"
"239006","891-R6","2018/04/10 19:19:47","新北市鶯歌區鶯桃路67巷9號","121.340943333333","24.9521316666667","6500800","鶯歌區"
"239001","417-VK","2018/04/10 19:19:53","新北市鶯歌區建國路463號","121.33931","24.9519683333333","6500800","鶯歌區"
"239003","360-BY","2018/04/10 19:19:43","新北市鶯歌區中正二路11號","121.35151","24.951525","6500800","鶯歌區"
"239002","359-BY","2018/04/10 19:19:56","新北市鶯歌區大湖路185巷20號","121.342783333333","24.9705616666667","6500800","鶯歌區"
"239004","193-VK","2018/04/10 19:19:55","新北市鶯歌區鶯華新村34號","121.330305","24.9342783333333","6500800","鶯歌區"
"221008","489-VK","2018/04/10 19:19:39","新北市汐止區康寧街279號","121.62603","25.0671066666667","6501100","汐止區"
"221036","130-UY","2018/04/10 19:19:55","新北市汐止區汐萬路一段256巷1號","121.651711666667","25.07482","6501100","汐止區"
"221015","131-UY","2018/04/10 19:19:39","新北市汐止區康寧街901號","121.65166","25.0749466666667","6501100","汐止區"
"221010","269-BY","2018/04/10 19:19:38","新北市汐止區康寧街901號","121.651503333333","25.0749883333333","6501100","汐止區"
"221018","277-VK","2018/04/10 19:19:42","新北市汐止區汐萬路一段256巷3號","121.652956666667","25.0743966666667","6501100","汐止區"
"221012","278-VK","2018/04/10 19:19:45","新北市汐止區汐萬路一段266號","121.650925","25.0739866666667","6501100","汐止區"
"221023","279-VK","2018/04/10 19:19:46","新北市汐止區康寧街901號","121.650978333333","25.0752066666667","6501100","汐止區"
"221027","281-BY","2018/04/10 19:19:46","新北市汐止區汐萬路一段273號","121.65047","25.0745016666667","6501100","汐止區"
"221029","298-VK","2018/04/10 19:19:42","新北市汐止區康寧街901號","121.651633333333","25.0748616666667","6501100","汐止區"
"221025","623-UM","2018/04/10 19:19:45","新北市汐止區康寧街901號","121.651655","25.0749416666667","6501100","汐止區"
"221038","646-BX","2018/04/10 19:19:48","新北市汐止區康寧街901號","121.65071","25.0752966666667","6501100","汐止區"
"221033","647-BX","2018/04/10 19:19:53","新北市汐止區南勢街1巷1號","121.62702","25.0374","6501100","汐止區"
"221002","707-TV","2018/04/10 19:19:53","新北市汐止區大同路一段398號","121.639756666667","25.0598383333333","6501100","汐止區"
"220079","145-BY","2018/04/10 19:19:46","新北市板橋區民權路202巷36號","121.460636666667","25.0175883333333","6500100","板橋區"
"220080","200-UY","2018/04/10 19:19:47","新北市板橋區大觀路二段19巷37號","121.44806","25.003195","6500100","板橋區"
"220106","KEA-2550","2018/04/10 19:19:47","新北市板橋區長江路二段277號","121.470025","25.03305","6500100","板橋區"
"220082","610-BX","2018/04/10 19:19:52","新北市板橋區金門街249號","121.43198","24.9891783333333","6500100","板橋區"
"220101","245-BX","2018/04/10 19:19:53","新北市板橋區莊敬路61號","121.473938333333","25.0269483333333","6500100","板橋區"
"220103","257-TC","2018/04/10 19:19:40","新北市板橋區文化路一段188巷7弄18號","121.467651666667","25.0195983333333","6500100","板橋區"
"220091","267-BY","2018/04/10 19:19:56","新北市板橋區萬板路478號","121.4799","25.026165","6500100","板橋區"
"220072","277-BY","2018/04/10 19:19:53","新北市板橋區金門街339-2號","121.429315","24.9856233333333","6500100","板橋區"
"220070","282-UM","2018/04/10 19:19:42","新北市板橋區忠孝路20號","121.459948333333","25.001765","6500100","板橋區"
"220071","283-VK","2018/04/10 19:19:44","新北市板橋區忠孝路48巷7弄2號","121.461128333333","25.0003866666667","6500100","板橋區"
"220094","285-UM","2018/04/10 19:19:35","新北市板橋區吳鳳路23號","121.466985","25.0311333333333","6500100","板橋區"
"220053","285-VK","2018/04/10 19:19:51","新北市板橋區富山街13巷6弄5號","121.477933333333","25.0212","6500100","板橋區"
"220083","286-VK","2018/04/10 19:19:49","新北市板橋區龍興街73巷19號","121.44304","25.0024666666667","6500100","板橋區"
"220081","287-VK","2018/04/10 19:19:47","新北市板橋區南雅西路一段116號","121.452791666667","25.0064816666667","6500100","板橋區"
"220090","288-VK","2018/04/10 19:19:54","新北市板橋區長江路一段106巷13弄32號","121.461313333333","25.0297066666667","6500100","板橋區"
"220061","293-UM","2018/04/10 19:19:47","新北市板橋區中山路二段309巷12號","121.478478333333","25.01893","6500100","板橋區"
"220075","303-R5","2018/04/10 19:19:41","新北市板橋區中正路289巷6號","121.45505","25.01923","6500100","板橋區"
"220062","305-R5","2018/04/10 19:19:49","新北市板橋區三民路二段153巷36弄2號","121.481255","25.0140666666667","6500100","板橋區"
"220092","307-R5","2018/04/10 19:19:46","新北市板橋區光武街42-2號","121.467681666667","25.0262966666667","6500100","板橋區"
"220098","317-R6","2018/04/10 19:19:53","新北市板橋區民有街89巷5號","121.464508333333","25.0274466666667","6500100","板橋區"
"220064","486-VK","2018/04/10 19:19:49","新北市板橋區縣民大道二段3號","121.462603333333","25.0119816666667","6500100","板橋區"
"220088","491-VK","2018/04/10 19:19:55","新北市板橋區雙十路二段6-6號","121.476796666667","25.0262466666667","6500100","板橋區"
"220035","560-BX","2018/04/10 19:19:40","新北市板橋區中正路362號","121.454556666667","25.0239533333333","6500100","板橋區"
"220084","568-UM","2018/04/10 19:19:44","新北市板橋區滿平街136巷2弄24號","121.428041666667","24.98822","6500100","板橋區"
"220063","609-BX","2018/04/10 19:19:56","新北市板橋區三民路二段32號","121.479225","25.0178566666667","6500100","板橋區"
"220055","630-UY","2018/04/10 19:19:49","新北市板橋區館前東路156巷21號","121.464293333333","25.0068466666667","6500100","板橋區"
"220057","686-BX","2018/04/10 19:19:50","新北市板橋區和平路161巷22號","121.463341666667","24.996635","6500100","板橋區"
"220093","689-BX","2018/04/10 19:19:42","新北市板橋區文化路一段116號","121.465021666667","25.0183516666667","6500100","板橋區"
"220054","741-BX","2018/04/10 19:19:40","新北市板橋區實踐路153號","121.464245","25.0042033333333","6500100","板橋區"
"220102","KEA-2699","2018/04/10 19:19:48","新北市板橋區田單街47號","121.482476666667","25.0283066666667","6500100","板橋區"
"220068","830-TW","2018/04/10 19:19:47","新北市板橋區三民路一段1巷58號","121.480828333333","25.0247983333333","6500100","板橋區"
"220096","831-TW","2018/04/10 19:19:55","新北市板橋區大同街14-4號","121.477485","25.02691","6500100","板橋區"
"220089","833-TW","2018/04/10 19:19:37","新北市板橋區文化路一段379號","121.467101666667","25.0215483333333","6500100","板橋區"
"220074","895-R6","2018/04/10 19:19:51","新北市板橋區中正路自強新村73-1號","121.4548","25.01292","6500100","板橋區"
"220073","985-R7","2018/04/10 19:19:52","新北市板橋區新生街89巷2號","121.45832","25.0220716666667","6500100","板橋區"
"220097","AAC-210","2018/04/10 19:19:52","新北市板橋區幸福路60巷4號","121.460788333333","25.020965","6500100","板橋區"
"220077","AAC-253","2018/04/10 19:19:48","新北市板橋區僑中二街50號","121.446723333333","25.0104433333333","6500100","板橋區"
