"lineid","car","time","location","longitude","latitude","cityid","cityname"
"234046","148-BY","2018/04/10 19:39:55","新北市永和區永元路95巷4號","121.522478333333","25.00214","6500400","永和區"
"234070","149-BY","2018/04/10 19:39:53","新北市永和區永和路二段217號","121.51556","25.0140283333333","6500400","永和區"
"234007","207-UY","2018/04/10 19:39:57","新北市永和區永和路一段10號","121.512951666667","25.0046016666667","6500400","永和區"
"234081","298-R6","2018/04/10 19:39:55","新北市永和區林森路20巷3號","121.525993333333","25.005515","6500400","永和區"
"234038","336-UY","2018/04/10 19:39:48","新北市永和區民樂街31巷4號","121.527791666667","25.001475","6500400","永和區"
"234064","337-UY","2018/04/10 19:39:51","新北市永和區秀朗路一段192巷6弄14號","121.519115","25.0022683333333","6500400","永和區"
"234086","338-UY","2018/04/10 19:39:39","新北市永和區永亨路160號","121.525775","25.0037833333333","6500400","永和區"
"234067","553-UM","2018/04/10 19:39:39","新北市永和區永平路173巷9號","121.51016","25.008365","6500400","永和區"
"234017","745-BX","2018/04/10 19:39:38","新北市永和區永和路二段425巷57弄7號","121.51365","25.017055","6500400","永和區"
"234030","746-BX","2018/04/10 19:39:52","新北市永和區四維街103巷5號","121.524006666667","24.9978916666667","6500400","永和區"
"234054","KEA-2590","2018/04/10 19:39:38","新北市永和區竹林路39巷26號","121.519025","25.0147933333333","6500400","永和區"
"234013","KEA-2591","2018/04/10 19:39:41","新北市永和區仁愛路247號","121.508738333333","25.0118083333333","6500400","永和區"
"234061","AAD-866","2018/04/10 19:39:50","新北市永和區中正路446號","121.51744","25.0028783333333","6500400","永和區"
"234042","862-TW","2018/04/10 19:39:56","新北市永和區中和路427號","121.509453333333","25.000815","6500400","永和區"
"234050","863-TW","2018/04/10 19:39:52","新北市永和區保安路53號","121.509418333333","25.0157666666667","6500400","永和區"
"234026","9371-KE","2018/04/10 19:39:38","新北市永和區中和路497號","121.510476666667","25.0025083333333","6500400","永和區"
"249002","305-UY","2018/04/10 19:39:38","新北市八里區頂寮二街27-1號","121.450258333333","25.1249283333333","6502300","八里區"
"249003","593-UM","2018/04/10 19:39:51","新北市八里區中華路二段536-1號","121.399275","25.1452583333333","6502300","八里區"
"248016","026-BX","2018/04/10 19:39:35","新北市五股區成泰路四段45-2號","121.456588333333","25.111425","6501500","五股區"
"248008","095-VK","2018/04/10 19:39:50","新北市五股區四維路116-2號","121.46786","25.07464","6501500","五股區"
"248012","247-BX","2018/04/10 19:39:38","新北市五股區成泰路二段91巷25號","121.437291666667","25.08458","6501500","五股區"
"248014","261-SL","2018/04/10 19:39:37","新北市五股區五福路68巷1弄1號","121.433411666667","25.0904316666667","6501500","五股區"
"248010","272-BY","2018/04/10 19:39:41","新北市五股區自強路90巷42號","121.431673333333","25.0719416666667","6501500","五股區"
"248004","677-BX","2018/04/10 19:39:46","新北市五股區成泰路二段64號","121.437388333333","25.0821633333333","6501500","五股區"
"248002","678-BX","2018/04/10 19:39:49","新北市五股區成泰路三段577巷49號","121.450745","25.1031516666667","6501500","五股區"
"234023","9380-KE","2018/04/10 19:39:50","新北市永和區竹林路91巷62號","121.521675","25.0130483333333","6500400","永和區"
"234077","969-R7","2018/04/10 19:39:46","新北市永和區民權路82號","121.5197","24.99725","6500400","永和區"
"234074","AAC-211","2018/04/10 19:39:44","新北市永和區竹林路227號","121.521073333333","25.0084916666667","6500400","永和區"
"234003","AAC-295","2018/04/10 19:39:54","新北市永和區自由街71號","121.51343","25.00531","6500400","永和區"
"244011","701-TV","2018/04/10 19:39:57","新北市八里區中山路三段390號","121.368343333333","25.135715","6501700","林口區"
"243012","AAD-798","2018/04/10 19:39:57","新北市泰山區全興路298號","121.436805","25.051435","6501600","泰山區"
"243015","380-SR","2018/04/10 19:39:39","新北市泰山區民權街13巷2號","121.428476666667","25.050965","6501600","泰山區"
"243014","421-VK","2018/04/10 19:39:55","新北市泰山區泰林路二段33-7號","121.435206666667","25.056455","6501600","泰山區"
"243010","KEA-2215","2018/04/10 19:39:54","新北市泰山區明志路二段7巷11號","121.430683333333","25.053315","6501600","泰山區"
"243009","KEA-2216","2018/04/10 19:39:35","新北市泰山區美寧街58號","121.43063","25.0646833333333","6501600","泰山區"
"243013","646-TV","2018/04/10 19:39:48","新北市泰山區應化街13號","121.423843333333","25.0436083333333","6501600","泰山區"
"243016","680-BX","2018/04/10 19:39:51","新北市泰山區中山路三段114號","121.417821666667","25.0321283333333","6501600","泰山區"
"222003","436-BY","2018/04/10 19:31:20","新北市深坑區深南路51-1號","121.621133333333","25.0098733333333","6501800","深坑區"
"222002","659-BX","2018/04/10 19:39:39","新北市深坑區北深路一段177號","121.632568333333","25.0108733333333","6501800","深坑區"
"231041","002-UM","2018/04/10 19:39:40","新北市新店區中正路487號","121.533915","24.98211","6500600","新店區"
"231059","046-UY","2018/04/10 19:39:41","新北市新店區安和路三段47-1號","121.51807","24.9822983333333","6500600","新店區"
"231040","047-UY","2018/04/10 19:39:49","新北市新店區中正路75巷71號","121.543113333333","24.9688","6500600","新店區"
"231044","106-UY","2018/04/10 19:39:48","新北市新店區北新路三段109號","121.541266666667","24.9822433333333","6500600","新店區"
"231053","110-UY","2018/04/10 19:39:53","新北市新店區廣興路110號","121.536371666667","24.911855","6500600","新店區"
"231048","187-VK","2018/04/10 19:39:50","新北市新店區五峰路61巷13號","121.549473333333","24.9695433333333","6500600","新店區"
"231046","188-VK","2018/04/10 19:39:38","新北市新店區中正路329巷11-1號","121.534925","24.9737833333333","6500600","新店區"
"231057","256-BX","2018/04/10 19:39:38","新北市新店區橘園一路11號","121.547966666667","24.933995","6500600","新店區"
"231051","278-BY","2018/04/10 19:39:35","新北市新店區中央四街22號","121.52908","24.9741483333333","6500600","新店區"
"231050","AAD-862","2018/04/10 19:39:37","新北市新店區郵政路1號","121.557568333333","24.95241","6500600","新店區"
"231058","3713-VJ","2018/04/10 19:39:50","新北市新店區北新路一段339號","121.541961666667","24.9687866666667","6500600","新店區"
"231066","4716-K9","2018/04/10 19:39:44","新北市新店區安康路二段341巷4號","121.496901666667","24.9548766666667","6500600","新店區"
"231056","4715-K9","2018/04/10 19:39:38","新北市新店區安康路二段320巷15弄2號","121.504275","24.959685","6500600","新店區"
"231067","4772-VM","2018/04/10 19:39:52","新北市新店區精忠路10-1號","121.532651666667","24.9590633333333","6500600","新店區"
"231065","512-UM","2018/04/10 19:39:49","新北市新店區安祥路109巷85弄29號","121.478513333333","24.9599616666667","6500600","新店區"
"231049","513-UM","2018/04/10 19:39:43","新北市新店區大豐路71號","121.539298333333","24.9794833333333","6500600","新店區"
"231045","618-UM","2018/04/10 19:39:50","新北市新店區北宜路二段419-2號","121.560358333333","24.954465","6500600","新店區"
"231061","619-UM","2018/04/10 19:39:40","新北市新店區安民街36號","121.515851666667","24.9652216666667","6500600","新店區"
"231063","641-BX","2018/04/10 19:39:54","新北市新店區達觀路16號","121.50342","24.9401116666667","6500600","新店區"
"231042","645-TV","2018/04/10 19:39:51","新北市新店區中興路一段214號","121.543905","24.9655583333333","6500600","新店區"
"231068","718-UY","2018/04/10 19:39:41","新北市新店區安華路28-1號","121.519465","24.961165","6500600","新店區"
"231064","719-UM","2018/04/10 19:39:51","新北市新店區安和路一段52巷2-1號","121.517681666667","24.9663783333333","6500600","新店區"
"231054","719-UY","2018/04/10 19:39:40","新北市新店區北宜路一段39巷20號","121.538883333333","24.9582","6500600","新店區"
"231062","720-UM","2018/04/10 19:39:45","新北市新店區合作路32號","121.532975","24.9577666666667","6500600","新店區"
"231060","897-TW","2018/04/10 19:39:51","新北市新店區安康路二段161號","121.51016","24.9594333333333","6500600","新店區"
"231043","899-TW","2018/04/10 19:39:47","新北市新店區中正路129號","121.541963333333","24.9713333333333","6500600","新店區"
"231055","AKT-0513","2018/04/10 19:39:35","新北市新店區力行路5號","121.539411666667","24.9645583333333","6500600","新店區"
"241011","013-R5","2018/04/10 19:39:53","新北市三重區秀江街185號","121.498008333333","25.07172","6500200","三重區"
"241028","022-UY","2018/04/10 19:39:42","新北市三重區中正南路196號","121.493863333333","25.05601","6500200","三重區"
"241008","059-VK","2018/04/10 19:39:51","新北市三重區永福街125巷5號","121.478598333333","25.0771716666667","6500200","三重區"
"241009","060-VK","2018/04/10 19:39:50","新北市三重區三和路四段400巷30號","121.48007","25.0790966666667","6500200","三重區"
"241031","061-VK","2018/04/10 19:39:49","新北市三重區重新路四段240號","121.486041666667","25.05367","6500200","三重區"
"241015","062-VK","2018/04/10 19:39:53","新北市三重區福德北路34號","121.502031666667","25.06522","6500200","三重區"
"241017","063-VK","2018/04/10 19:39:35","新北市三重區重陽路三段5巷30號","121.491305","25.0654566666667","6500200","三重區"
"241026","066-VK","2018/04/10 19:39:54","新北市三重區光興街19號","121.499945","25.0602783333333","6500200","三重區"
"241003","091-VK","2018/04/10 19:39:41","新北市三重區仁義街395號","121.494468333333","25.0854733333333","6500200","三重區"
"241032","269-UM","2018/04/10 19:39:41","新北市三重區重陽路一段60巷72號","121.484388333333","25.05818","6500200","三重區"
"241013","270-UM","2018/04/10 19:39:41","新北市三重區仁賢街3號","121.495776666667","25.07454","6500200","三重區"
"241025","271-UM","2018/04/10 19:39:45","新北市三重區頂崁街189號","121.477576666667","25.066375","6500200","三重區"
"241007","398-BY","2018/04/10 19:39:49","新北市三重區三和路四段125巷74號","121.487278333333","25.0785316666667","6500200","三重區"
"241035","KEA-2210","2018/04/10 19:39:39","新北市三重區信義西街21號","121.497666666667","25.06467","6500200","三重區"
"241020","478-VK","2018/04/10 19:39:42","新北市三重區三和路四段6號","121.491576666667","25.0738516666667","6500200","三重區"
"241030","480-VK","2018/04/10 19:39:52","新北市三重區新興路3號","121.492758333333","25.0530116666667","6500200","三重區"
"241014","543-UM","2018/04/10 19:39:55","新北市三重區河邊北街80號","121.504301666667","25.0689266666667","6500200","三重區"
"241023","545-UM","2018/04/10 19:39:57","新北市三重區忠孝路三段99巷4號","121.480066666667","25.0642133333333","6500200","三重區"
"241001","547-UM","2018/04/10 19:39:35","新北市三重區仁愛街315巷19號","121.493511666667","25.0797866666667","6500200","三重區"
"241019","KEA-2593","2018/04/10 19:39:53","新北市三重區六張街194巷1弄2號","121.4886","25.06809","6500200","三重區"
"241006","AAD-863","2018/04/10 19:39:39","新北市三重區車路頭街100巷10號","121.483811666667","25.0744166666667","6500200","三重區"
"241022","887-TS","2018/04/10 19:39:44","新北市三重區中正北路162號","121.484605","25.0659866666667","6500200","三重區"
"241012","941-UM","2018/04/10 19:39:55","新北市三重區河邊北街256巷41號","121.500368333333","25.0758333333333","6500200","三重區"
"241029","942-UM","2018/04/10 19:39:47","新北市三重區重安街102號","121.492951666667","25.055795","6500200","三重區"
"235066","003-UY","2018/04/10 19:39:51","新北市中和區南華路89號","121.505565","24.9975166666667","6500300","中和區"
"235064","005-UY","2018/04/10 19:39:38","新北市中和區南山路125號","121.50245","24.99718","6500300","中和區"
"235063","006-UY","2018/04/10 19:39:42","新北市中和區安邦街49號","121.496313333333","24.997425","6500300","中和區"
"235056","096-UM","2018/04/10 19:39:44","新北市中和區民富街94號","121.47699","25.0086016666667","6500300","中和區"
"235039","097-UM","2018/04/10 19:39:52","新北市中和區秀峰街103巷3弄2號","121.520506666667","24.9899983333333","6500300","中和區"
"235065","098-UM","2018/04/10 19:39:53","新北市中和區永和路9巷1號","121.499211666667","25.0039983333333","6500300","中和區"
"235040","150-BY","2018/04/10 19:39:49","新北市中和區宜安路92巷1號","121.510841666667","24.99767","6500300","中和區"
"235058","151-BY","2018/04/10 19:39:50","新北市中和區員山路36巷16-8號","121.485326666667","24.9923133333333","6500300","中和區"
"235055","183-VK","2018/04/10 19:39:42","新北市中和區中山路三段209號","121.471953333333","25.0062266666667","6500300","中和區"
"235038","185-VK","2018/04/10 19:39:41","新北市中和區大智街55巷30弄4號","121.52109","24.9930333333333","6500300","中和區"
"235049","186-VK","2018/04/10 19:39:46","新北市中和區安平路12號","121.509233333333","24.9940816666667","6500300","中和區"
"235067","255-BX","2018/04/10 19:38:31","新北市中和區新生街176巷32號","121.482406666667","24.9993383333333","6500300","中和區"
"235044","293-VK","2018/04/10 19:39:48","新北市中和區興南路一段111號","121.509408333333","24.9880116666667","6500300","中和區"
"235072","301-VK","2018/04/10 19:39:49","新北市中和區中正路432巷11號","121.490683333333","24.9957133333333","6500300","中和區"
"235043","352-BY","2018/04/10 19:39:47","新北市中和區興南路一段93巷2號","121.509576666667","24.98849","6500300","中和區"
"235068","377-QA","2018/04/10 19:39:38","新北市中和區泰和街45號","121.498968333333","24.9993283333333","6500300","中和區"
"235061","378-QA","2018/04/10 19:39:37","新北市中和區民安街2巷14號","121.480246666667","25.00155","6500300","中和區"
"235060","269-TV","2018/04/10 19:39:36","新北市中和區中山路二段523巷12號","121.481486666667","25.0044483333333","6500300","中和區"
"235050","4979-A6","2018/04/10 19:39:48","新北市中和區員山路36巷13號","121.484436666667","24.9911216666667","6500300","中和區"
"235042","551-UM","2018/04/10 19:39:53","新北市中和區保健路46巷9號","121.509613333333","24.9966816666667","6500300","中和區"
"235070","558-UM","2018/04/10 19:39:40","新北市中和區景平路545巷1弄13號","121.498805","24.998945","6500300","中和區"
"235045","565-BX","2018/04/10 19:39:46","新北市中和區景平路151巷47號","121.514801666667","24.99027","6500300","中和區"
"235054","640-BX","2018/04/10 19:39:43","新北市中和區國光街107巷4弄22號","121.470005","24.9991216666667","6500300","中和區"
"235047","732-UM","2018/04/10 19:39:44","新北市中和區南山路263巷13號","121.504353333333","24.9929583333333","6500300","中和區"
"235046","733-UM","2018/04/10 19:39:49","新北市中和區四維街7號","121.513493333333","24.9873116666667","6500300","中和區"
"235071","783-BX","2018/04/10 19:39:57","新北市中和區中正路839巷29號","121.483643333333","25.0023866666667","6500300","中和區"
"235057","801-TS","2018/04/10 19:39:55","新北市中和區員山路168號","121.481308333333","24.9998483333333","6500300","中和區"
"235052","805-TS","2018/04/10 19:39:54","新北市中和區華新街206巷11號","121.506335","24.9824116666667","6500300","中和區"
"235048","896-TW","2018/04/10 19:39:53","新北市中和區忠孝街1巷2-1號","121.509176666667","24.983025","6500300","中和區"
"235053","900-TW","2018/04/10 19:39:57","新北市中和區國光街215巷4弄2號","121.46631","25.0018466666667","6500300","中和區"
"235051","157-BY","2018/04/10 19:39:48","新北市中和區板南路132號","121.502431666667","24.9926583333333","6500300","中和區"
"235037","AAC-213","2018/04/10 19:39:53","新北市中和區秀朗路三段93號","121.5265","24.9953666666667","6500300","中和區"
"235059","AAC-215","2018/04/10 19:39:45","新北市中和區圓通路284號","121.491493333333","24.9905283333333","6500300","中和區"
"220056","015-TV","2018/04/10 19:36:20","新北市板橋區四川路二段47巷1弄4號","121.454363333333","24.9949583333333","6500100","板橋區"
"220065","072-UY","2018/04/10 19:39:50","新北市板橋區國泰街39巷5弄10號","121.468728333333","25.00603","6500100","板橋區"
"220086","073-UY","2018/04/10 19:39:44","新北市板橋區中正路170號","121.456461666667","25.017075","6500100","板橋區"
"220067","075-UY","2018/04/10 19:39:41","新北市板橋區漢生東路279巷10弄11號","121.472116666667","25.0086816666667","6500100","板橋區"
"220069","AAD-861","2018/04/10 19:39:35","新北市板橋區貴興路88-3號","121.455905","25.0032766666667","6500100","板橋區"
"247004","337-TH","2018/04/10 19:39:39","新北市蘆洲區長安街98巷4號","121.462285","25.0812416666667","6501400","蘆洲區"
"247008","056-VK","2018/04/10 19:39:39","新北市蘆洲區中山一路129號","121.475833333333","25.0816166666667","6501400","蘆洲區"
"226004","312-R5","2018/04/10 19:39:51","新北市平溪區石底里公園街18-3號","121.733215","25.025855","6502400","平溪區"
"226004","8452-VL","2018/04/10 19:39:43","新北市平溪區靜安路二段390號","121.738436666667","25.0242883333333","6502400","平溪區"
"235041","251-BX","2018/04/10 19:39:47","新北市永和區中和路603號","121.512305","25.0041466666667","6500300","中和區"
"228001","212-TW","2018/04/10 19:39:40","新北市貢寮區真理里延平街22-9號","121.924608333333","25.0559866666667","6502600","貢寮區"
"228003","828-UM","2018/04/10 19:39:36","新北市貢寮區真理里美艷山街15-3號","121.923656666667","25.068055","6502600","貢寮區"
"224010","AGQ-8101","2018/04/10 19:27:54","新北市瑞芳區汽車路34號","121.846","25.1102733333333","6501200","瑞芳區"
"224002","639-TC","2018/04/10 19:39:54","新北市瑞芳區民享新村21號","121.81689","25.105665","6501200","瑞芳區"
"227003","642-TC","2018/04/10 19:39:50","新北市雙溪區雙溪里太平路16號","121.86447","25.0352333333333","6502500","雙溪區"
"227009","400-TW","2018/04/10 19:39:50","新北市雙溪區新基里新基北街22號","121.867226666667","25.0389466666667","6502500","雙溪區"
"222001","KEA-2212","2018/04/10 19:39:47","新北市深坑區深坑街142號","121.613126666667","25.0014533333333","6501800","深坑區"
"208002","KEA-2872","2018/04/10 19:39:54","新北市金山區四維路4號","121.63541","25.2226216666667","6502700","金山區"
"208003","665-BX","2018/04/10 19:39:44","新北市金山區中山路151號","121.638633333333","25.2201133333333","6502700","金山區"
"251004","009-UM","2018/04/10 19:39:41","新北市淡水區民權路6號","121.459611666667","25.1394966666667","6501000","淡水區"
"251001","011-UM","2018/04/10 19:39:51","新北市淡水區民權路41號","121.459783333333","25.140455","6501000","淡水區"
"251013","179-VK","2018/04/10 19:39:51","新北市淡水區頂田寮11-6號","121.465203333333","25.2137633333333","6501000","淡水區"
"251014","180-VK","2018/04/10 19:39:35","新北市淡水區北勢子20號","121.475981666667","25.231935","6501000","淡水區"
"251008","181-VK","2018/04/10 19:39:44","新北市淡水區中正路一段8巷1弄11號","121.428345","25.175845","6501000","淡水區"
"251015","182-VK","2018/04/10 19:39:53","新北市淡水區泉洲厝25-6號","121.485853333333","25.1885316666667","6501000","淡水區"
"251010","413-VK","2018/04/10 19:39:49","新北市淡水區崁頂三路115號","121.431503333333","25.2009833333333","6501000","淡水區"
"251012","441-VK","2018/04/10 19:39:51","新北市淡水區中山北路三段156號","121.445605","25.195695","6501000","淡水區"
"251016","442-VK","2018/04/10 19:39:39","新北市淡水區淡金路三段350巷18號","121.450768333333","25.2083883333333","6501000","淡水區"
"251005","443-VK","2018/04/10 19:39:35","新北市淡水區原德路108巷2號","121.443361666667","25.17345","6501000","淡水區"
"251006","561-UM","2018/04/10 19:39:50","新北市淡水區中山北路一段207巷39號","121.442655","25.178975","6501000","淡水區"
"251009","575-R6","2018/04/10 19:39:52","新北市淡水區中山北路一段188-5號","121.444421666667","25.1791316666667","6501000","淡水區"
"251007","577-R6","2018/04/10 19:39:54","新北市淡水區中正東路一段111巷23號","121.455218333333","25.1609883333333","6501000","淡水區"
"251011","650-BX","2018/04/10 19:39:39","新北市淡水區中正東路二段5巷38號","121.460621666667","25.1582133333333","6501000","淡水區"
"251003","673-BX","2018/04/10 19:39:46","新北市淡水區崁頂132號","121.431411666667","25.2054433333333","6501000","淡水區"
"207003","550-UM","2018/04/10 19:39:51","新北市萬里區大鵬里萬里加投287-2號","121.645748333333","25.217645","6502800","萬里區"
"207004","225-TW","2018/04/10 19:39:36","新北市萬里區萬里里瑪鋉路5-2號","121.686941666667","25.1751916666667","6502800","萬里區"
"252002","178-VK","2018/04/10 19:39:58","新北市三芝區中正路一段18巷56號","121.504275","25.2587266666667","6502100","三芝區"
"252001","292-VK","2018/04/10 19:39:39","新北市三芝區公正街9號","121.499741666667","25.2574833333333","6502100","三芝區"
"237004","KEA-2597","2018/04/10 19:39:42","新北市三峽區插角123號","121.410133333333","24.870685","6500900","三峽區"
"237007","153-BY","2018/04/10 19:39:43","新北市三峽區二鬮路136巷24弄3號","121.355903333333","24.9101533333333","6500900","三峽區"
"237009","210-TH","2018/04/10 19:39:39","新北市三峽區中園街84號","121.367803333333","24.9248133333333","6500900","三峽區"
"237013","252-BX","2018/04/10 19:39:38","新北市三峽區介壽路二段24-5號","121.390658333333","24.9351033333333","6500900","三峽區"
"237012","275-BY","2018/04/10 19:39:49","新北市三峽區光明路21號","121.373211666667","24.93123","6500900","三峽區"
"237008","302-VK","2018/04/10 19:39:53","新北市三峽區大同路147巷9號","121.371143333333","24.92638","6500900","三峽區"
"237014","433-BY","2018/04/10 19:39:49","新北市三峽區添福141-13號","121.374476666667","24.9010133333333","6500900","三峽區"
"237006","5529-G3","2018/04/10 19:39:40","新北市三峽區中正路一段330-10號","121.369878333333","24.9246516666667","6500900","三峽區"
"237005","AKY-6261","2018/04/10 19:39:39","新北市三峽區中山路146號","121.364941666667","24.9363266666667","6500900","三峽區"
"236070","105-UM","2018/04/10 19:39:44","新北市土城區金城路一段191號","121.445931666667","24.97478","6501300","土城區"
"236079","166-UM","2018/04/10 19:39:41","新北市土城區中州路27巷1號","121.41389","24.957605","6501300","土城區"
"236030","253-BX","2018/04/10 19:39:39","新北市土城區福祥街56號","121.441506666667","24.9813483333333","6501300","土城區"
"236026","269-VK","2018/04/10 19:39:41","新北市土城區中央路二段61巷22號","121.443261666667","24.9788083333333","6501300","土城區"
"236038","271-VK","2018/04/10 19:39:39","新北市土城區青雲路257巷6號","121.459505","24.9807216666667","6501300","土城區"
"236021","401-BY","2018/04/10 19:39:34","新北市土城區峰廷街3號","121.469048333333","24.98733","6501300","土城區"
"236049","913-UM","2018/04/10 19:39:53","新北市土城區明德路一段67號","121.465436666667","24.9842766666667","6501300","土城區"
"236063","915-UM","2018/04/10 19:39:44","新北市土城區延平街22號","121.46828","24.9912366666667","6501300","土城區"
"236055","AAC-216","2018/04/10 19:39:49","新北市土城區學府路一段104-1號","121.455873333333","24.9877333333333","6501300","土城區"
"242023","362-BY","2018/04/10 19:39:36","新北市新莊區復興路二段150號","121.457845","25.0443066666667","6500500","新莊區"
"242048","172-VK","2018/04/10 19:39:54","新北市新莊區民安路37巷11號","121.424181666667","25.02708","6500500","新莊區"
"242005","176-VK","2018/04/10 19:39:55","新北市新莊區化成路29巷69號","121.462178333333","25.0439116666667","6500500","新莊區"
"242013","351-TH","2018/04/10 19:39:54","新北市新莊區中誠街121巷1號","121.449433333333","25.0473933333333","6500500","新莊區"
"238015","755-BX","2018/04/10 19:39:45","新北市樹林區日新街79號","121.42192","24.9906916666667","6500700","樹林區"
"238023","601-UM","2018/04/10 19:39:56","新北市樹林區三福街150號","121.405253333333","25.0160466666667","6500700","樹林區"
"238019","599-UM","2018/04/10 19:39:58","新北市樹林區東陽街34號","121.41331","24.981135","6500700","樹林區"
"238024","5061-A6","2018/04/10 19:39:37","新北市樹林區育德街78-1號","121.387538333333","24.968145","6500700","樹林區"
"238022","KEA-2213","2018/04/10 19:39:49","新北市樹林區名園街51巷6弄1號","121.420575","24.9783816666667","6500700","樹林區"
"238021","KEA-2539","2018/04/10 19:39:40","新北市樹林區佳園路三段175號","121.385653333333","24.94799","6500700","樹林區"
"238025","303-VK","2018/04/10 19:39:46","新北市樹林區中山路一段191號","121.421426666667","24.9877116666667","6500700","樹林區"
"238017","283-BY","2018/04/10 19:39:42","新北市樹林區保安二街二段6號","121.416095","25.00084","6500700","樹林區"
"238014","282-BY","2018/04/10 19:39:58","新北市樹林區千歲街30巷8號","121.425903333333","24.9961833333333","6500700","樹林區"
"239006","891-R6","2018/04/10 19:39:54","新北市鶯歌區重慶街6-1號","121.351975","24.9526816666667","6500800","鶯歌區"
"239004","193-VK","2018/04/10 19:39:55","新北市鶯歌區二甲路83-4號","121.339535","24.9327433333333","6500800","鶯歌區"
"221008","489-VK","2018/04/10 19:39:39","新北市汐止區康寧街61巷34號","121.619883333333","25.06755","6501100","汐止區"
"221036","130-UY","2018/04/10 19:39:55","新北市汐止區康寧街901號","121.650885","25.0751533333333","6501100","汐止區"
"221015","131-UY","2018/04/10 19:39:38","新北市汐止區康寧街901號","121.651478333333","25.074995","6501100","汐止區"
"221010","269-BY","2018/04/10 19:39:38","新北市汐止區汐萬路一段355-1號","121.650041666667","25.0775","6501100","汐止區"
"221018","277-VK","2018/04/10 19:39:42","新北市汐止區康寧街901號","121.650821666667","25.0752666666667","6501100","汐止區"
"221012","278-VK","2018/04/10 19:39:45","新北市汐止區大同路三段392號","121.681508333333","25.0715416666667","6501100","汐止區"
"221023","279-VK","2018/04/10 19:39:46","新北市汐止區中興路286巷1號","121.6283","25.069505","6501100","汐止區"
"221027","281-BY","2018/04/10 19:39:46","新北市汐止區忠孝東路9號","121.65832","25.0659166666667","6501100","汐止區"
"221029","298-VK","2018/04/10 19:39:42","新北市汐止區康寧街901號","121.651443333333","25.0749466666667","6501100","汐止區"
"221021","299-VK","2018/04/10 19:39:45","新北市汐止區南興路6巷1號","121.651718333333","25.0633666666667","6501100","汐止區"
"221025","623-UM","2018/04/10 19:39:45","新北市汐止區福安街20巷2號","121.662443333333","25.0651883333333","6501100","汐止區"
"221038","646-BX","2018/04/10 19:39:48","新北市汐止區忠孝東路223號","121.662151666667","25.0667283333333","6501100","汐止區"
"221033","647-BX","2018/04/10 19:39:53","新北市汐止區南勢街1巷1號","121.627023333333","25.0375166666667","6501100","汐止區"
"221002","707-TV","2018/04/10 19:39:48","新北市汐止區大同路一段219巷27號","121.633248333333","25.0584216666667","6501100","汐止區"
"220079","145-BY","2018/04/10 19:39:46","新北市板橋區建國街68號","121.459156666667","25.0171883333333","6500100","板橋區"
"220080","200-UY","2018/04/10 19:39:47","新北市板橋區大觀路二段37巷294號","121.450066666667","25.001795","6500100","板橋區"
"220106","KEA-2550","2018/04/10 19:39:47","新北市板橋區民治街26巷10號","121.477543333333","25.03378","6500100","板橋區"
"220082","610-BX","2018/04/10 19:39:43","新北市板橋區溪北路101號","121.428948333333","24.9891816666667","6500100","板橋區"
"220101","245-BX","2018/04/10 19:39:53","新北市板橋區莊敬路220巷1號","121.472643333333","25.0213383333333","6500100","板橋區"
"220103","257-TC","2018/04/10 19:39:41","新北市板橋區文化路一段286巷2弄2號","121.46847","25.021175","6500100","板橋區"
"220091","267-BY","2018/04/10 19:39:36","新北市板橋區懷德街139巷20弄6-2號","121.48009","25.0307033333333","6500100","板橋區"
"220072","277-BY","2018/04/10 19:39:54","新北市板橋區金門街215巷2弄1號","121.432486666667","24.988995","6500100","板橋區"
"220070","282-UM","2018/04/10 19:39:44","新北市板橋區民族路271號","121.470785","25.00683","6500100","板橋區"
"220071","283-VK","2018/04/10 19:39:44","新北市板橋區四川路一段314號","121.458406666667","25.0002416666667","6500100","板橋區"
"220094","285-UM","2018/04/10 19:39:55","新北市板橋區銘傳街96號","121.469686666667","25.0315916666667","6500100","板橋區"
"220053","285-VK","2018/04/10 19:39:46","新北市板橋區中山路二段146號","121.476638333333","25.0169666666667","6500100","板橋區"
"220083","286-VK","2018/04/10 19:39:49","新北市板橋區龍興街95巷2號","121.4441","25.0025033333333","6500100","板橋區"
"220081","287-VK","2018/04/10 19:39:47","新北市板橋區大觀路一段29巷131弄12號","121.45067","25.0050666666667","6500100","板橋區"
"220090","288-VK","2018/04/10 19:39:59","新北市板橋區長江路一段48巷19弄1號","121.459428333333","25.0280483333333","6500100","板橋區"
"220061","293-UM","2018/04/10 19:39:47","新北市板橋區漢生東路113巷30號","121.468443333333","25.01548","6500100","板橋區"
"220075","303-R5","2018/04/10 19:39:41","新北市板橋區金華街3號","121.45554","25.0201666666667","6500100","板橋區"
"220062","305-R5","2018/04/10 19:39:49","新北市板橋區三民路二段83號","121.479528333333","25.0166533333333","6500100","板橋區"
"220092","307-R5","2018/04/10 19:39:45","新北市板橋區文化路一段387巷21-4號","121.466063333333","25.022245","6500100","板橋區"
"220098","317-R6","2018/04/10 19:39:53","新北市板橋區民生路三段299巷20號","121.462663333333","25.030175","6500100","板橋區"
"220064","486-VK","2018/04/10 19:39:49","新北市板橋區中山路一段133號","121.462453333333","25.0105","6500100","板橋區"
"242032","280-VK","2018/04/10 19:39:53","新北市新莊區新泰路211號","121.446318333333","25.0387616666667","6500500","新莊區"
"220088","491-VK","2018/04/10 19:39:37","新北市板橋區民治街28號","121.477993333333","25.03423","6500100","板橋區"
"220035","560-BX","2018/04/10 19:39:52","新北市板橋區金華街85巷33號","121.458846666667","25.021275","6500100","板橋區"
"220084","568-UM","2018/04/10 19:39:44","新北市板橋區滿平二街2巷1弄10號","121.42507","24.98648","6500100","板橋區"
"220063","609-BX","2018/04/10 19:39:56","新北市板橋區中山路二段539巷18弄5號","121.483285","25.022555","6500100","板橋區"
"220055","630-UY","2018/04/10 19:39:49","新北市板橋區國慶路149巷5號","121.46119","24.996945","6500100","板橋區"
"220057","686-BX","2018/04/10 19:39:51","新北市板橋區國慶路160-3號","121.461868333333","24.9960033333333","6500100","板橋區"
"220093","689-BX","2018/04/10 19:39:49","新北市板橋區長江路一段100號","121.459386666667","25.0294983333333","6500100","板橋區"
"220054","741-BX","2018/04/10 19:39:40","新北市板橋區實踐路205號","121.464705","25.0027933333333","6500100","板橋區"
"220102","KEA-2699","2018/04/10 19:39:40","新北市板橋區文化路二段410巷54號","121.474791666667","25.0302","6500100","板橋區"
"220068","830-TW","2018/04/10 19:39:44","新北市板橋區中山路二段503號","121.482723333333","25.0210916666667","6500100","板橋區"
"220096","831-TW","2018/04/10 19:39:55","新北市板橋區民生路二段226巷6弄6號","121.46956","25.0215883333333","6500100","板橋區"
"220089","833-TW","2018/04/10 19:39:37","新北市板橋區英士路41號","121.461461666667","25.024835","6500100","板橋區"
"220074","895-R6","2018/04/10 19:39:52","新北市板橋區府中路99號","121.456898333333","25.0094716666667","6500100","板橋區"
"220073","985-R7","2018/04/10 19:39:52","新北市板橋區國光路33號","121.457311666667","25.0176316666667","6500100","板橋區"
"220097","AAC-210","2018/04/10 19:39:53","新北市板橋區漢生西路89巷2弄6號","121.462016666667","25.0195216666667","6500100","板橋區"
"220077","AAC-253","2018/04/10 19:39:55","新北市板橋區僑中一街100號","121.446731666667","25.0116316666667","6500100","板橋區"
