"lineid","car","time","location","longitude","latitude","cityid","cityname"
"234046","148-BY","2018/04/10 19:49:55","新北市永和區永利路133號","121.524103333333","25.0032566666667","6500400","永和區"
"234070","149-BY","2018/04/10 19:49:53","新北市永和區竹林路81號","121.519506666667","25.0125666666667","6500400","永和區"
"234007","207-UY","2018/04/10 19:49:37","新北市中和區中和路262號","121.508448333333","24.99963","6500400","永和區"
"234081","298-R6","2018/04/10 19:49:55","新北市永和區永亨路119號","121.523778333333","25.0045166666667","6500400","永和區"
"234038","336-UY","2018/04/10 19:49:48","新北市永和區秀朗路二段289號","121.526138333333","24.998125","6500400","永和區"
"234064","337-UY","2018/04/10 19:49:51","新北市永和區中正路368巷22號","121.51853","25.0007516666667","6500400","永和區"
"234086","338-UY","2018/04/10 19:49:39","新北市永和區永利路6-1號","121.517505","25.0059116666667","6500400","永和區"
"234067","553-UM","2018/04/10 19:49:39","新北市永和區中山路一段255巷20號","121.508385","25.00716","6500400","永和區"
"234017","745-BX","2018/04/10 19:49:38","新北市永和區永和路二段299號","121.516006666667","25.0161933333333","6500400","永和區"
"234030","746-BX","2018/04/10 19:49:47","新北市永和區民生路67巷52號","121.525345","24.9974583333333","6500400","永和區"
"234054","KEA-2590","2018/04/10 19:49:38","新北市永和區竹林路73-1號","121.51882","25.0132166666667","6500400","永和區"
"234013","KEA-2591","2018/04/10 19:49:42","新北市永和區永平路314號","121.507028333333","25.0126233333333","6500400","永和區"
"234061","AAD-866","2018/04/10 19:49:51","新北市永和區中正路132號","121.514565","24.9959566666667","6500400","永和區"
"234042","862-TW","2018/04/10 19:49:36","新北市永和區中和路389巷13號","121.508095","25.00106","6500400","永和區"
"234050","863-TW","2018/04/10 19:49:52","新北市永和區保安路77號","121.508638333333","25.01488","6500400","永和區"
"234026","9371-KE","2018/04/10 19:49:39","新北市永和區雙和街25巷4號","121.508933333333","25.00191","6500400","永和區"
"234011","9373-KE","2018/04/10 19:49:51","新北市永和區仁愛路306巷33號","121.502148333333","25.0085733333333","6500400","永和區"
"249001","173-UM","2018/04/10 19:49:40","新北市八里區中華路二段252號","121.405406666667","25.1496783333333","6502300","八里區"
"249004","303-UY","2018/04/10 19:49:47","新北市八里區仁愛路59號","121.412321666667","25.16015","6502300","八里區"
"249002","305-UY","2018/04/10 19:49:38","新北市八里區頂寮五街20號","121.451316666667","25.1261683333333","6502300","八里區"
"249003","593-UM","2018/04/10 19:49:51","新北市八里區中華路二段560巷9號","121.398321666667","25.1449816666667","6502300","八里區"
"248016","026-BX","2018/04/10 19:49:55","新北市五股區成泰路三段601巷17-1號","121.451745","25.103305","6501500","五股區"
"248008","095-VK","2018/04/10 19:49:50","新北市五股區四維路140號","121.46817","25.07544","6501500","五股區"
"248012","247-BX","2018/04/10 19:49:38","新北市五股區蓬萊路10-2號","121.43511","25.079455","6501500","五股區"
"248014","261-SL","2018/04/10 19:49:45","新北市五股區五福路32巷26號","121.434946666667","25.0896816666667","6501500","五股區"
"248010","272-BY","2018/04/10 19:49:41","新北市五股區登林路76-5號","121.430656666667","25.0695066666667","6501500","五股區"
"248004","677-BX","2018/04/10 19:49:47","新北市五股區成泰路一段149-6號","121.435386666667","25.0735783333333","6501500","五股區"
"248002","678-BX","2018/04/10 19:49:49","新北市五股區成泰路四段15-3號","121.453123333333","25.106895","6501500","五股區"
"234077","969-R7","2018/04/10 19:49:46","新北市永和區智光街53號","121.517146666667","24.9979566666667","6500400","永和區"
"234074","AAC-211","2018/04/10 19:49:43","新北市永和區竹林路179巷16號","121.521303333333","25.009915","6500400","永和區"
"234003","AAC-295","2018/04/10 19:49:54","新北市永和區福和路345號","121.515448333333","25.0071633333333","6500400","永和區"
"243012","AAD-798","2018/04/10 19:49:57","新北市泰山區全興路109號","121.433715","25.05662","6501600","泰山區"
"243015","380-SR","2018/04/10 19:49:39","新北市泰山區明志路二段237巷19號","121.42795","25.0480366666667","6501600","泰山區"
"243014","421-VK","2018/04/10 19:49:55","新北市泰山區泰林路二段33-8號","121.435196666667","25.05649","6501600","泰山區"
"243010","KEA-2215","2018/04/10 19:49:54","新北市泰山區民生路33號","121.430463333333","25.05216","6501600","泰山區"
"243009","KEA-2216","2018/04/10 19:49:35","新北市泰山區美寧街60號","121.43093","25.0646316666667","6501600","泰山區"
"243013","646-TV","2018/04/10 19:49:48","新北市泰山區應化街13號","121.423865","25.0436533333333","6501600","泰山區"
"243016","680-BX","2018/04/10 19:49:51","新北市泰山區中山路三段114號","121.41787","25.0320833333333","6501600","泰山區"
"222003","436-BY","2018/04/10 19:31:20","新北市深坑區深南路51-1號","121.621133333333","25.0098733333333","6501800","深坑區"
"222002","659-BX","2018/04/10 19:49:39","新北市深坑區北深路一段355號","121.622696666667","25.0051333333333","6501800","深坑區"
"231041","002-UM","2018/04/10 19:49:40","新北市新店區中央路226號","121.529621666667","24.9728","6500600","新店區"
"231059","046-UY","2018/04/10 19:49:41","新北市新店區安和路二段109號","121.51875","24.9698916666667","6500600","新店區"
"231040","047-UY","2018/04/10 19:49:49","新北市新店區北新路一段96巷23號","121.54299","24.9686333333333","6500600","新店區"
"231044","106-UY","2018/04/10 19:49:48","新北市新店區復興路68號","121.53772","24.986795","6500600","新店區"
"231053","110-UY","2018/04/10 19:49:53","新北市新店區新烏路二段431號","121.551988333333","24.9089166666667","6500600","新店區"
"231048","187-VK","2018/04/10 19:49:51","新北市新店區寶興路56號","121.54975","24.9723683333333","6500600","新店區"
"231046","188-VK","2018/04/10 19:49:38","新北市新店區三民路159巷19弄48號","121.532191666667","24.9731816666667","6500600","新店區"
"231057","256-BX","2018/04/10 19:49:38","新北市新店區梅崗三路1號","121.557736666667","24.93111","6500600","新店區"
"231051","278-BY","2018/04/10 19:49:35","新北市新店區中央三街37號","121.528053333333","24.9743416666667","6500600","新店區"
"231050","AAD-862","2018/04/10 19:49:17","新北市新店區北宜路二段579巷43號","121.564856666667","24.9548883333333","6500600","新店區"
"231058","3713-VJ","2018/04/10 19:49:50","新北市新店區安康路二段320巷6號","121.504673333333","24.9598433333333","6500600","新店區"
"231056","4715-K9","2018/04/10 19:49:38","新北市新店區中央路19號","121.533201666667","24.978225","6500600","新店區"
"231067","4772-VM","2018/04/10 19:49:52","新北市新店區精忠路10-1號","121.532653333333","24.95907","6500600","新店區"
"231065","512-UM","2018/04/10 19:49:49","新北市新店區安祥路109巷151弄12-1號","121.478031666667","24.9588283333333","6500600","新店區"
"231049","513-UM","2018/04/10 19:49:47","新北市新店區民權路127巷3號","121.535185","24.9819866666667","6500600","新店區"
"231045","618-UM","2018/04/10 19:49:50","新北市新店區中生路66號","121.564683333333","24.952335","6500600","新店區"
"231061","619-UM","2018/04/10 19:49:47","新北市新店區安民街141號","121.516493333333","24.9695183333333","6500600","新店區"
"231063","641-BX","2018/04/10 19:49:54","新北市新店區車子路11號","121.502986666667","24.9520416666667","6500600","新店區"
"231042","645-TV","2018/04/10 19:49:51","新北市新店區中興路一段266-6號","121.545063333333","24.9676983333333","6500600","新店區"
"231068","718-UY","2018/04/10 19:49:41","新北市新店區安華路28-1號","121.519403333333","24.9611933333333","6500600","新店區"
"231064","719-UM","2018/04/10 19:49:51","新北市新店區安和路二段32-1號","121.518068333333","24.9676083333333","6500600","新店區"
"231054","719-UY","2018/04/10 19:49:40","新北市新店區光明街138巷22號","121.540393333333","24.96096","6500600","新店區"
"231062","720-UM","2018/04/10 19:49:40","新北市新店區永業路51巷2號","121.531895","24.95473","6500600","新店區"
"231060","897-TW","2018/04/10 19:49:51","新北市新店區安康路二段237號","121.508308333333","24.9586033333333","6500600","新店區"
"231043","899-TW","2018/04/10 19:49:47","新北市新店區中正路263-2號","121.538398333333","24.9737416666667","6500600","新店區"
"231055","AKT-0513","2018/04/10 19:49:55","新北市新店區力行路12號","121.53937","24.9646283333333","6500600","新店區"
"241011","013-R5","2018/04/10 19:49:53","新北市三重區三和路二段173巷19號","121.498386666667","25.0700383333333","6500200","三重區"
"241028","022-UY","2018/04/10 19:49:42","新北市三重區中正南路157號","121.493758333333","25.056085","6500200","三重區"
"241008","059-VK","2018/04/10 19:49:51","新北市三重區永福街98巷7號","121.479311666667","25.0759716666667","6500200","三重區"
"241009","060-VK","2018/04/10 19:49:50","新北市三重區三和路四段396巷18號","121.48049","25.07885","6500200","三重區"
"241031","061-VK","2018/04/10 19:49:49","新北市三重區重新路四段240號","121.486043333333","25.0536883333333","6500200","三重區"
"241015","062-VK","2018/04/10 19:49:53","新北市三重區三和路一段2號","121.503888333333","25.0642866666667","6500200","三重區"
"241017","063-VK","2018/04/10 19:49:55","新北市三重區重陽路三段5巷8弄10號","121.489516666667","25.06646","6500200","三重區"
"241026","066-VK","2018/04/10 19:49:55","新北市三重區文化南路42號","121.500415","25.0602516666667","6500200","三重區"
"241003","091-VK","2018/04/10 19:49:41","新北市三重區五華街93巷11號","121.492223333333","25.083765","6500200","三重區"
"241016","265-UM","2018/04/10 19:49:53","新北市三重區正義北路48巷56號","121.495986666667","25.0635783333333","6500200","三重區"
"241018","268-UM","2018/04/10 19:49:46","新北市三重區雙園街57巷25號","121.494565","25.0684133333333","6500200","三重區"
"241032","269-UM","2018/04/10 19:49:41","新北市三重區重陽路一段44巷9號","121.486035","25.057785","6500200","三重區"
"241013","270-UM","2018/04/10 19:49:41","新北市三重區仁愛街102巷8號","121.494763333333","25.0738983333333","6500200","三重區"
"241025","271-UM","2018/04/10 19:49:45","新北市三重區忠孝路三段52號","121.48068","25.0656416666667","6500200","三重區"
"241007","398-BY","2018/04/10 19:49:49","新北市三重區三和路四段125巷8號","121.485128333333","25.0780333333333","6500200","三重區"
"241035","KEA-2210","2018/04/10 19:49:39","新北市三重區大榮街53號","121.499213333333","25.063485","6500200","三重區"
"241020","478-VK","2018/04/10 19:49:42","新北市三重區忠孝路一段101號","121.489291666667","25.07211","6500200","三重區"
"241030","480-VK","2018/04/10 19:49:52","新北市三重區環河南路254巷51號","121.488918333333","25.0518066666667","6500200","三重區"
"241014","543-UM","2018/04/10 19:49:55","新北市三重區三和路二段37-7號","121.501301666667","25.0674216666667","6500200","三重區"
"241023","545-UM","2018/04/10 19:49:37","新北市三重區頂崁街172號","121.47758","25.0659783333333","6500200","三重區"
"241001","547-UM","2018/04/10 19:49:55","新北市三重區仁愛街329號","121.492415","25.079615","6500200","三重區"
"241019","KEA-2593","2018/04/10 19:49:53","新北市三重區自強路二段74巷15號","121.488083333333","25.070035","6500200","三重區"
"241006","AAD-863","2018/04/10 19:49:39","新北市三重區力行路二段76巷27號","121.480731666667","25.0734116666667","6500200","三重區"
"241022","887-TS","2018/04/10 19:49:44","新北市三重區新北大道一段7號","121.489696666667","25.061515","6500200","三重區"
"241012","941-UM","2018/04/10 19:49:55","新北市三重區仁興街56巷36號","121.498276666667","25.0754933333333","6500200","三重區"
"241029","942-UM","2018/04/10 19:49:47","新北市三重區光明路11號","121.49094","25.0587683333333","6500200","三重區"
"241033","AAC-255","2018/04/10 19:49:38","新北市三重區五谷王南街46巷11號","121.474891666667","25.0449466666667","6500200","三重區"
"235066","003-UY","2018/04/10 19:49:51","新北市中和區南工路22巷1號","121.505593333333","25.0007733333333","6500300","中和區"
"235064","005-UY","2018/04/10 19:49:58","新北市中和區圓通路25號","121.501225","24.99779","6500300","中和區"
"235063","006-UY","2018/04/10 19:49:42","新北市中和區連城路263巷27弄2號","121.492746666667","24.9946166666667","6500300","中和區"
"235056","096-UM","2018/04/10 19:49:44","新北市中和區中山路三段136巷10弄13號","121.474043333333","25.0074783333333","6500300","中和區"
"235039","097-UM","2018/04/10 19:49:52","新北市中和區大勇街27巷6號","121.517125","24.9936633333333","6500300","中和區"
"235065","098-UM","2018/04/10 19:49:53","新北市中和區莊敬路29號","121.500268333333","25.00469","6500300","中和區"
"235040","150-BY","2018/04/10 19:49:49","新北市中和區安平路30號","121.509608333333","24.9948316666667","6500300","中和區"
"235058","151-BY","2018/04/10 19:49:50","新北市中和區員山路141號","121.481055","24.9960433333333","6500300","中和區"
"235055","183-VK","2018/04/10 19:49:42","新北市中和區中山路三段181巷24號","121.472798333333","25.005115","6500300","中和區"
"235049","186-VK","2018/04/10 19:49:46","新北市中和區中興街36號","121.500903333333","24.9946783333333","6500300","中和區"
"235067","255-BX","2018/04/10 19:38:31","新北市中和區新生街176巷32號","121.482406666667","24.9993383333333","6500300","中和區"
"235044","293-VK","2018/04/10 19:49:48","新北市中和區中正路1號","121.5034","24.9934033333333","6500300","中和區"
"235043","352-BY","2018/04/10 19:49:47","新北市中和區興南路二段159巷7號","121.505278333333","24.9832166666667","6500300","中和區"
"235068","377-QA","2018/04/10 19:49:30","新北市中和區莊敬路16巷13號","121.50018","25.00392","6500300","中和區"
"235061","378-QA","2018/04/10 19:49:46","新北市中和區民樂路5號","121.48168","25.0012716666667","6500300","中和區"
"235060","269-TV","2018/04/10 19:49:36","新北市中和區員山路388號","121.48071","25.0045216666667","6500300","中和區"
"235050","4979-A6","2018/04/10 19:49:48","新北市中和區景平路241巷84弄54號","121.506091666667","24.9923866666667","6500300","中和區"
"235069","4980-A6","2018/04/10 19:49:41","新北市中和區中正路637巷60弄61號","121.485326666667","24.99297","6500300","中和區"
"235042","551-UM","2018/04/10 19:49:53","新北市中和區保健路7巷7號","121.508125","24.9987883333333","6500300","中和區"
"235070","558-UM","2018/04/10 19:49:40","新北市中和區景平路499號","121.499751666667","24.9984116666667","6500300","中和區"
"235045","565-BX","2018/04/10 19:49:46","新北市中和區景平路177號","121.511856666667","24.99257","6500300","中和區"
"235054","640-BX","2018/04/10 19:49:46","新北市中和區莒光路97-2號","121.472378333333","25.0029666666667","6500300","中和區"
"235047","732-UM","2018/04/10 19:49:56","新北市中和區興南路一段61號","121.510421666667","24.9896583333333","6500300","中和區"
"235046","733-UM","2018/04/10 19:49:49","新北市中和區仁愛街35號","121.510901666667","24.9886583333333","6500300","中和區"
"235071","783-BX","2018/04/10 19:49:37","新北市中和區永和路333巷1-6號","121.484965","25.0112116666667","6500300","中和區"
"235057","801-TS","2018/04/10 19:49:55","新北市中和區員山路325-3號","121.481193333333","25.0008016666667","6500300","中和區"
"235052","805-TS","2018/04/10 19:49:54","新北市中和區華新街30巷18-1號","121.506781666667","24.9844483333333","6500300","中和區"
"235048","896-TW","2018/04/10 19:49:53","新北市中和區興南路一段137號","121.508833333333","24.987555","6500300","中和區"
"235053","900-TW","2018/04/10 19:49:57","新北市中和區國光街189巷12弄2號","121.467433333333","25.00151","6500300","中和區"
"235051","157-BY","2018/04/10 19:49:48","新北市中和區中興街180巷52弄2號","121.49884","24.9887383333333","6500300","中和區"
"235037","AAC-213","2018/04/10 19:49:53","新北市中和區自立路64號","121.523841666667","24.9913783333333","6500300","中和區"
"235059","AAC-215","2018/04/10 19:49:45","新北市中和區圓通路305巷18號","121.49502","24.9890416666667","6500300","中和區"
"220056","015-TV","2018/04/10 19:49:04","新北市板橋區四川路二段117巷15號","121.451966666667","24.9940233333333","6500100","板橋區"
"220065","072-UY","2018/04/10 19:49:40","新北市板橋區民族路69巷18弄1號","121.466471666667","25.0100816666667","6500100","板橋區"
"220086","073-UY","2018/04/10 19:49:57","新北市板橋區館前西路164號","121.452665","25.0088316666667","6500100","板橋區"
"220067","075-UY","2018/04/10 19:49:41","新北市板橋區長安街255巷40號","121.472525","25.01121","6500100","板橋區"
"220069","AAD-861","2018/04/10 19:49:55","新北市板橋區南雅南路二段11-29號","121.453818333333","25.0014733333333","6500100","板橋區"
"247004","337-TH","2018/04/10 19:49:49","新北市蘆洲區中原路19號","121.460505","25.082915","6501400","蘆洲區"
"247006","336-TH","2018/04/10 19:49:49","新北市蘆洲區永安南路二段26號","121.467295","25.07703","6501400","蘆洲區"
"247008","056-VK","2018/04/10 19:49:39","新北市蘆洲區信義路95號","121.47779","25.0801116666667","6501400","蘆洲區"
"247014","053-VK","2018/04/10 19:49:48","新北市蘆洲區中央路103號","121.472293333333","25.0841016666667","6501400","蘆洲區"
"247002","002-UY","2018/04/10 19:49:53","新北市蘆洲區永平街27號","121.458715","25.090675","6501400","蘆洲區"
"226004","312-R5","2018/04/10 19:49:43","新北市平溪區石底里公園街18-3號","121.733773333333","25.025305","6502400","平溪區"
"235041","251-BX","2018/04/10 19:49:47","新北市中和區永貞路239巷3號","121.51285","25.0034716666667","6500300","中和區"
"228001","212-TW","2018/04/10 19:49:40","新北市貢寮區真理里新港街78號","121.927236666667","25.05581","6502600","貢寮區"
"228003","828-UM","2018/04/10 19:49:56","新北市貢寮區真理里延平街153號","121.925088333333","25.0580933333333","6502600","貢寮區"
"224010","AGQ-8101","2018/04/10 19:49:37","新北市瑞芳區輕便路268號","121.844645","25.1089533333333","6501200","瑞芳區"
"224002","639-TC","2018/04/10 19:49:45","新北市瑞芳區員山子路員山巷18-1號","121.81676","25.1039516666667","6501200","瑞芳區"
"227003","642-TC","2018/04/10 19:49:50","新北市雙溪區雙溪里內挖路47號","121.863248333333","25.0367616666667","6502500","雙溪區"
"227009","400-TW","2018/04/10 19:49:50","新北市雙溪區新基里朝陽街18-1號","121.865941666667","25.0387916666667","6502500","雙溪區"
"222001","KEA-2212","2018/04/10 19:49:47","新北市深坑區北深路三段66號","121.607896666667","25.00135","6501800","深坑區"
"208002","KEA-2872","2018/04/10 19:49:54","新北市金山區中山路268號","121.635351666667","25.2241683333333","6502700","金山區"
"208003","665-BX","2018/04/10 19:49:54","新北市金山區海興路112-1號","121.631136666667","25.23871","6502700","金山區"
"251004","009-UM","2018/04/10 19:49:41","新北市淡水區民權路185巷17號","121.460463333333","25.13394","6501000","淡水區"
"251001","011-UM","2018/04/10 19:49:51","新北市淡水區中正東路二段37號","121.459241666667","25.1562883333333","6501000","淡水區"
"251002","012-UM","2018/04/10 19:49:43","新北市淡水區新市二路三段20號","121.43129","25.1927333333333","6501000","淡水區"
"251013","179-VK","2018/04/10 19:49:51","新北市淡水區淡金路三段461巷11-3號","121.450533333333","25.213845","6501000","淡水區"
"251014","180-VK","2018/04/10 19:49:55","新北市淡水區番社前2-6號","121.469996666667","25.2370416666667","6501000","淡水區"
"251008","181-VK","2018/04/10 19:49:40","新北市淡水區中正路二段24巷2-1號","121.426788333333","25.17699","6501000","淡水區"
"251015","182-VK","2018/04/10 19:49:33","新北市淡水區北新路一段3-1號","121.475061666667","25.1849133333333","6501000","淡水區"
"251012","441-VK","2018/04/10 19:49:51","新北市淡水區中山北路三段156號","121.4458","25.195805","6501000","淡水區"
"251016","442-VK","2018/04/10 19:49:39","新北市淡水區三塊厝2-1號","121.454568333333","25.20965","6501000","淡水區"
"251005","443-VK","2018/04/10 19:49:35","新北市淡水區中山路18-1號","121.444485","25.1692066666667","6501000","淡水區"
"251006","561-UM","2018/04/10 19:49:50","新北市淡水區水碓街15號","121.443455","25.1769666666667","6501000","淡水區"
"251009","575-R6","2018/04/10 19:49:32","新北市淡水區中正路32號","121.443813333333","25.1692116666667","6501000","淡水區"
"251007","577-R6","2018/04/10 19:49:56","新北市淡水區竿蓁一街123號","121.455546666667","25.165755","6501000","淡水區"
"251011","650-BX","2018/04/10 19:49:39","新北市淡水區淡金路二段600號","121.446728333333","25.19229","6501000","淡水區"
"251003","673-BX","2018/04/10 19:49:46","新北市淡水區下圭柔山90-8號","121.431836666667","25.2120516666667","6501000","淡水區"
"207003","550-UM","2018/04/10 19:49:54","新北市萬里區大鵬里萬里加投44-3號","121.640618333333","25.2094133333333","6502800","萬里區"
"207004","225-TW","2018/04/10 19:49:36","新北市萬里區萬里里瑪鋉路238號","121.68916","25.180395","6502800","萬里區"
"252002","178-VK","2018/04/10 19:49:18","新北市三芝區三民街31號","121.504583333333","25.258495","6502100","三芝區"
"252001","292-VK","2018/04/10 19:49:39","新北市三芝區公正街9號","121.49976","25.257505","6502100","三芝區"
"237004","KEA-2597","2018/04/10 19:49:42","新北市三峽區添福151-2號","121.375111666667","24.8990183333333","6500900","三峽區"
"237007","153-BY","2018/04/10 19:49:43","新北市三峽區二鬮路57-2號","121.361475","24.9095866666667","6500900","三峽區"
"237009","210-TH","2018/04/10 19:49:39","新北市三峽區民族街78巷8號","121.368636666667","24.9296033333333","6500900","三峽區"
"237013","252-BX","2018/04/10 19:49:38","新北市三峽區溪北街38號","121.396858333333","24.9360916666667","6500900","三峽區"
"237012","275-BY","2018/04/10 19:49:49","新北市三峽區中華路5-1號","121.374681666667","24.932595","6500900","三峽區"
"237008","302-VK","2018/04/10 19:49:53","新北市三峽區中正路一段108巷15號","121.37337","24.93022","6500900","三峽區"
"237014","433-BY","2018/04/10 19:49:49","新北市三峽區添福2-4號","121.370598333333","24.90911","6500900","三峽區"
"237006","5529-G3","2018/04/10 19:49:40","新北市三峽區中正路一段328-7號","121.370781666667","24.9247533333333","6500900","三峽區"
"237005","AKY-6261","2018/04/10 19:49:39","新北市三峽區長泰街102號","121.37601","24.9332866666667","6500900","三峽區"
"236070","105-UM","2018/04/10 19:49:44","新北市土城區水源街33號","121.440913333333","24.975495","6501300","土城區"
"236079","166-UM","2018/04/10 19:49:41","新北市土城區中央路四段347號","121.409191666667","24.950495","6501300","土城區"
"236030","253-BX","2018/04/10 19:49:39","新北市土城區中央路一段294號","121.44332","24.9823433333333","6501300","土城區"
"236026","269-VK","2018/04/10 19:49:41","新北市土城區中央路二段61巷46號","121.444286666667","24.9786083333333","6501300","土城區"
"236038","271-VK","2018/04/10 19:49:39","新北市土城區國際路158巷29號","121.468511666667","24.9758266666667","6501300","土城區"
"236021","401-BY","2018/04/10 19:49:55","新北市土城區延吉街137巷12弄3號","121.470728333333","24.98549","6501300","土城區"
"236059","912-UM","2018/04/10 19:49:45","新北市土城區中央路一段263號","121.445098333333","24.9854066666667","6501300","土城區"
"236049","913-UM","2018/04/10 19:49:53","新北市土城區青雲路250-1號","121.458946666667","24.9800033333333","6501300","土城區"
"236063","915-UM","2018/04/10 19:49:44","新北市土城區延和路105巷5弄2號","121.467215","24.99128","6501300","土城區"
"236055","AAC-216","2018/04/10 19:49:49","新北市土城區延和路104號","121.466915","24.9896166666667","6501300","土城區"
"242034","AAC-296","2018/04/10 19:49:55","新北市新莊區仁愛街59號","121.444275","25.037345","6500500","新莊區"
"242029","705-TV","2018/04/10 19:49:46","新北市新莊區中平路279號","121.444803333333","25.0501416666667","6500500","新莊區"
"242025","613-BX","2018/04/10 19:49:40","新北市新莊區五權一路12巷21弄17號","121.458175","25.0648783333333","6500500","新莊區"
"242046","497-BY","2018/04/10 19:49:45","新北市新莊區後港一路160號","121.430721666667","25.0276166666667","6500500","新莊區"
"242056","440-UM","2018/04/10 19:49:56","新北市新莊區新泰路89號","121.44886","25.0345216666667","6500500","新莊區"
"242023","362-BY","2018/04/10 19:49:55","新北市新莊區化成路75號","121.465541666667","25.0462733333333","6500500","新莊區"
"242039","133-UY","2018/04/10 19:49:46","新北市新莊區民安路299巷24號","121.429306666667","25.0231933333333","6500500","新莊區"
"242048","172-VK","2018/04/10 19:49:34","新北市新莊區建安街76巷1弄18號","121.42594","25.02436","6500500","新莊區"
"242005","176-VK","2018/04/10 19:49:38","新北市新莊區化成路63巷24弄41號","121.462123333333","25.0459566666667","6500500","新莊區"
"242021","348-TH","2018/04/10 19:49:44","新北市新莊區新泰路127號","121.448346666667","25.0362316666667","6500500","新莊區"
"242019","350-TH","2018/04/10 19:49:45","新北市新莊區中華路一段130號","121.452678333333","25.0411116666667","6500500","新莊區"
"242013","351-TH","2018/04/10 19:49:48","新北市新莊區中泰街34號","121.450931666667","25.046965","6500500","新莊區"
"238015","755-BX","2018/04/10 19:49:45","新北市樹林區大安路593號","121.411631666667","24.9830466666667","6500700","樹林區"
"238023","601-UM","2018/04/10 19:49:56","新北市樹林區中正路216-3號","121.419428333333","25.006225","6500700","樹林區"
"238021","KEA-2539","2018/04/10 19:49:42","新北市樹林區佳園路三段113巷19號","121.387611666667","24.9502033333333","6500700","樹林區"
"238025","303-VK","2018/04/10 19:49:43","新北市樹林區中山路二段162號","121.412006666667","24.9828433333333","6500700","樹林區"
"239006","891-R6","2018/04/10 19:49:47","新北市鶯歌區文化路145巷4號","121.356706666667","24.953995","6500800","鶯歌區"
"221008","489-VK","2018/04/10 19:49:39","新北市汐止區康寧街145號","121.62159","25.0664616666667","6501100","汐止區"
"221036","130-UY","2018/04/10 19:49:55","新北市汐止區大同路二段330號","121.656383333333","25.066965","6501100","汐止區"
"221015","131-UY","2018/04/10 19:49:39","新北市汐止區大同路二段527號","121.661665","25.0689716666667","6501100","汐止區"
"221010","269-BY","2018/04/10 19:49:38","新北市汐止區八連路一段72號","121.646891666667","25.081125","6501100","汐止區"
"221018","277-VK","2018/04/10 19:49:42","新北市汐止區福德二路54巷2弄13號","121.634338333333","25.06799","6501100","汐止區"
"221012","278-VK","2018/04/10 19:49:45","新北市汐止區大同路三段541號","121.681126666667","25.0714216666667","6501100","汐止區"
"221023","279-VK","2018/04/10 19:49:46","新北市汐止區民族三街45號","121.629733333333","25.0699316666667","6501100","汐止區"
"221032","280-BY","2018/04/10 19:49:46","新北市汐止區新台五路一段97-1號","121.651218333333","25.0615483333333","6501100","汐止區"
"221027","281-BY","2018/04/10 19:49:46","新北市汐止區中正路9號","121.662951666667","25.0701183333333","6501100","汐止區"
"221029","298-VK","2018/04/10 19:49:42","新北市汐止區康寧街901號","121.651448333333","25.07499","6501100","汐止區"
"221021","299-VK","2018/04/10 19:49:45","新北市汐止區新興路110號","121.657496666667","25.0608783333333","6501100","汐止區"
"221035","622-UM","2018/04/10 19:49:49","新北市汐止區長江街13巷7號","121.654633333333","25.0718216666667","6501100","汐止區"
"221025","623-UM","2018/04/10 19:49:45","新北市汐止區秀峰路81巷15弄2號","121.66077","25.064395","6501100","汐止區"
"221038","646-BX","2018/04/10 19:49:48","新北市汐止區忠孝東路351號","121.665618333333","25.0704516666667","6501100","汐止區"
"221033","647-BX","2018/04/10 19:49:53","新北市汐止區東勢街76巷100-1號","121.636436666667","25.0389483333333","6501100","汐止區"
"221002","707-TV","2018/04/10 19:49:48","新北市汐止區大同路一段219巷26號","121.633263333333","25.05861","6501100","汐止區"
"221018","753-BX","2018/04/10 19:49:49","新北市汐止區大同路二段544號","121.661656666667","25.06885","6501100","汐止區"
"220079","145-BY","2018/04/10 19:49:51","新北市板橋區中正路183巷28號","121.45565","25.0166066666667","6500100","板橋區"
"220080","200-UY","2018/04/10 19:49:53","新北市板橋區大觀路二段55號","121.446888333333","25.0027783333333","6500100","板橋區"
"220106","KEA-2550","2018/04/10 19:49:47","新北市板橋區民治街71巷33號","121.480563333333","25.0333633333333","6500100","板橋區"
"220082","610-BX","2018/04/10 19:49:43","新北市板橋區大觀路三段223號","121.431096666667","24.9927183333333","6500100","板橋區"
"220101","245-BX","2018/04/10 19:49:53","新北市板橋區縣民大道三段91號","121.475653333333","25.0220316666667","6500100","板橋區"
"220103","257-TC","2018/04/10 19:49:40","新北市板橋區陽明街29巷3號","121.465165","25.0216566666667","6500100","板橋區"
"220091","267-BY","2018/04/10 19:49:36","新北市板橋區民治街86號","121.479396666667","25.032015","6500100","板橋區"
"220072","277-BY","2018/04/10 19:49:53","新北市板橋區金門街151巷42弄2號","121.433948333333","24.990235","6500100","板橋區"
"220070","282-UM","2018/04/10 19:49:42","新北市板橋區館前東路126號","121.463918333333","25.0077233333333","6500100","板橋區"
"220071","283-VK","2018/04/10 19:49:44","新北市板橋區五權街32巷36號","121.463606666667","24.992595","6500100","板橋區"
"220094","285-UM","2018/04/10 19:49:55","新北市板橋區長江路二段153號","121.46609","25.03182","6500100","板橋區"
"220053","285-VK","2018/04/10 19:49:46","新北市板橋區中山路二段60巷1弄4號","121.474453333333","25.0153516666667","6500100","板橋區"
"220083","286-VK","2018/04/10 19:49:49","新北市板橋區僑中二街12巷2號","121.446843333333","25.0107866666667","6500100","板橋區"
"220081","287-VK","2018/04/10 19:49:47","新北市板橋區大觀路一段28巷10號","121.449925","25.008855","6500100","板橋區"
"220090","288-VK","2018/04/10 19:49:47","新北市板橋區龍泉街54巷7弄5號","121.456628333333","25.0264116666667","6500100","板橋區"
"220061","293-UM","2018/04/10 19:49:47","新北市板橋區觀光街3巷1號","121.471908333333","25.01576","6500100","板橋區"
"220075","303-R5","2018/04/10 19:49:41","新北市板橋區金華街10巷48弄71號","121.459561666667","25.0203483333333","6500100","板橋區"
"220062","305-R5","2018/04/10 19:49:49","新北市板橋區中山路二段416巷38弄36號","121.481778333333","25.0195266666667","6500100","板橋區"
"220092","307-R5","2018/04/10 19:49:53","新北市板橋區陽明街164巷30號","121.46486","25.0245333333333","6500100","板橋區"
"220098","317-R6","2018/04/10 19:49:53","新北市板橋區裕民街111巷2號","121.459705","25.02741","6500100","板橋區"
"220064","486-VK","2018/04/10 19:49:54","新北市板橋區實踐路195號","121.464425","25.0031083333333","6500100","板橋區"
"242032","280-VK","2018/04/10 19:49:53","新北市新莊區忠孝街72號","121.443925","25.036425","6500500","新莊區"
"220088","491-VK","2018/04/10 19:49:37","新北市板橋區松柏街85號","121.476758333333","25.03083","6500100","板橋區"
"220035","560-BX","2018/04/10 19:49:51","新北市板橋區金華街25號","121.455981666667","25.02048","6500100","板橋區"
"220084","568-UM","2018/04/10 19:49:44","新北市板橋區滿平街2巷5-2號","121.425833333333","24.9899483333333","6500100","板橋區"
"220063","609-BX","2018/04/10 19:49:44","新北市板橋區三民路一段140號","121.47909","25.020215","6500100","板橋區"
"220055","630-UY","2018/04/10 19:49:49","新北市板橋區國慶路149巷13弄13號","121.460213333333","24.9967066666667","6500100","板橋區"
"220057","686-BX","2018/04/10 19:49:51","新北市板橋區廣權路16號","121.461245","24.99155","6500100","板橋區"
"220093","689-BX","2018/04/10 19:49:42","新北市板橋區長江路二段41號","121.463761666667","25.03122","6500100","板橋區"
"220054","741-BX","2018/04/10 19:49:28","新北市板橋區忠孝路忠義巷22弄1號","121.466951666667","25.00395","6500100","板橋區"
"220102","KEA-2699","2018/04/10 19:49:40","新北市板橋區松柏街57-4號","121.47569","25.03034","6500100","板橋區"
"220068","830-TW","2018/04/10 19:49:49","新北市板橋區中山路二段416巷47弄30號","121.48366","25.01943","6500100","板橋區"
"220096","831-TW","2018/04/10 19:49:55","新北市板橋區民生路二段240巷44號","121.469515","25.0229383333333","6500100","板橋區"
"220089","833-TW","2018/04/10 19:49:57","新北市板橋區龍泉街100-4號","121.456743333333","25.0249116666667","6500100","板橋區"
"220074","895-R6","2018/04/10 19:49:51","新北市板橋區南門街10號","121.457481666667","25.0090133333333","6500100","板橋區"
"220073","985-R7","2018/04/10 19:49:52","新北市板橋區大仁街13號","121.455786666667","25.0168583333333","6500100","板橋區"
"220097","AAC-210","2018/04/10 19:49:52","新北市板橋區文化路一段285巷4號","121.464346666667","25.01902","6500100","板橋區"
"220077","AAC-253","2018/04/10 19:49:47","新北市板橋區僑中一街124巷3弄1號","121.445936666667","25.01234","6500100","板橋區"
