"lineid","car","time","location","longitude","latitude","cityid","cityname"
"234046","148-BY","2018/04/10 20:09:15","新北市永和區得和路326號","121.523233333333","24.999425","6500400","永和區"
"234070","149-BY","2018/04/10 20:09:13","新北市永和區福和路204號","121.519741666667","25.0078416666667","6500400","永和區"
"234007","207-UY","2018/04/10 20:09:17","新北市永和區保生路22巷14號","121.507511666667","25.008265","6500400","永和區"
"234081","298-R6","2018/04/10 20:09:15","新北市永和區國中路109巷1弄2號","121.524018333333","25.0058766666667","6500400","永和區"
"234038","336-UY","2018/04/10 20:09:08","新北市永和區成功路一段47巷28號","121.527676666667","25.00387","6500400","永和區"
"234064","337-UY","2018/04/10 20:09:11","新北市永和區永元路95號","121.52222","25.001855","6500400","永和區"
"234086","338-UY","2018/04/10 20:09:19","新北市永和區福和路285號","121.517341666667","25.0073883333333","6500400","永和區"
"234067","553-UM","2018/04/10 20:09:19","新北市永和區保平路214巷10弄1號","121.509273333333","25.00653","6500400","永和區"
"234017","745-BX","2018/04/10 20:09:18","新北市永和區文化路123號","121.51227","25.0153266666667","6500400","永和區"
"234030","746-BX","2018/04/10 20:09:07","新北市永和區民權路49巷28號","121.521565","24.9974333333333","6500400","永和區"
"234054","KEA-2590","2018/04/10 20:09:22","新北市永和區博愛街14號","121.516975","25.01574","6500400","永和區"
"234013","KEA-2591","2018/04/10 20:09:21","新北市永和區永貞路387號","121.507985","25.0086733333333","6500400","永和區"
"234061","AAD-866","2018/04/10 20:09:10","新北市永和區中正路151巷8弄2號","121.516018333333","24.99859","6500400","永和區"
"234042","862-TW","2018/04/10 20:09:28","新北市永和區雙和街50號","121.508945","25.003095","6500400","永和區"
"234050","863-TW","2018/04/10 20:09:12","新北市永和區永平路374號","121.505698333333","25.0139283333333","6500400","永和區"
"234011","9373-KE","2018/04/10 20:09:11","新北市永和區仁愛路352巷122弄17號","121.50092","25.0089016666667","6500400","永和區"
"249005","172-UM","2018/04/10 20:09:13","新北市八里區下罟子61號","121.387023333333","25.1361833333333","6502300","八里區"
"249001","173-UM","2018/04/10 20:09:25","新北市八里區中華路二段318號","121.40353","25.1481466666667","6502300","八里區"
"249004","303-UY","2018/04/10 20:09:07","新北市八里區中山路一段398巷51弄1號","121.410923333333","25.1586833333333","6502300","八里區"
"249002","305-UY","2018/04/10 20:09:18","新北市五股區成泰路四段43號","121.455635","25.1099466666667","6502300","八里區"
"249003","593-UM","2018/04/10 20:09:11","新北市八里區中山路二段540巷9弄5號","121.396813333333","25.1468783333333","6502300","八里區"
"248016","026-BX","2018/04/10 20:09:15","新北市五股區天乙路67號","121.448158333333","25.1046016666667","6501500","五股區"
"248008","095-VK","2018/04/10 20:09:10","新北市五股區中興路一段1巷23號","121.469805","25.070665","6501500","五股區"
"248012","247-BX","2018/04/10 20:09:18","新北市五股區民義路一段206號","121.430551666667","25.0891983333333","6501500","五股區"
"248014","261-SL","2018/04/10 20:09:17","新北市五股區成泰路三段93號","121.44395","25.0901483333333","6501500","五股區"
"248010","272-BY","2018/04/10 20:09:21","新北市五股區成泰路一段7巷11號","121.433071666667","25.0667516666667","6501500","五股區"
"248004","677-BX","2018/04/10 20:09:27","新北市五股區成泰路一段135號","121.435526666667","25.072765","6501500","五股區"
"248002","678-BX","2018/04/10 20:09:09","新北市五股區成泰路三段280號","121.447393333333","25.0940483333333","6501500","五股區"
"234023","9380-KE","2018/04/10 20:09:27","新北市永和區豫溪街57巷8弄6號","121.51766","25.0104166666667","6500400","永和區"
"234077","969-R7","2018/04/10 20:09:26","新北市永和區民享街23巷5弄8號","121.516123333333","24.9956833333333","6500400","永和區"
"234074","AAC-211","2018/04/10 20:09:24","新北市永和區竹林路179巷37號","121.52222","25.0104283333333","6500400","永和區"
"234003","AAC-295","2018/04/10 20:09:14","新北市永和區中正路614號","121.517023333333","25.0075233333333","6500400","永和區"
"243012","AAD-798","2018/04/10 20:09:17","新北市泰山區楓江路39-2號","121.435075","25.062375","6501600","泰山區"
"243015","380-SR","2018/04/10 20:09:19","新北市泰山區明志路一段384號","121.430743333333","25.0574233333333","6501600","泰山區"
"243014","421-VK","2018/04/10 20:09:15","新北市泰山區明志路一段24號","121.433611666667","25.06542","6501600","泰山區"
"243010","KEA-2215","2018/04/10 20:09:14","新北市泰山區明志路二段136巷48號","121.426226666667","25.0520633333333","6501600","泰山區"
"243009","KEA-2216","2018/04/10 20:09:21","新北市泰山區泰林路二段116巷4弄1號","121.435143333333","25.059535","6501600","泰山區"
"243013","646-TV","2018/04/10 20:09:08","新北市泰山區明志路二段359巷22號","121.426011666667","25.043855","6501600","泰山區"
"243016","680-BX","2018/04/10 20:09:11","新北市泰山區新北大道六段323號","121.423173333333","25.0335816666667","6501600","泰山區"
"222003","436-BY","2018/04/10 20:09:20","新北市深坑區埔新街60號","121.620176666667","25.002425","6501800","深坑區"
"222002","659-BX","2018/04/10 20:09:22","新北市深坑區北深路三段160號","121.602625","25.0034033333333","6501800","深坑區"
"231041","002-UM","2018/04/10 20:09:20","新北市新店區中正路468號","121.53402","24.9794183333333","6500600","新店區"
"231059","046-UY","2018/04/10 20:09:21","新北市新店區安德街73號","121.510175","24.9615033333333","6500600","新店區"
"231040","047-UY","2018/04/10 20:09:09","新北市新店區中正路104號","121.543186666667","24.9705983333333","6500600","新店區"
"231044","106-UY","2018/04/10 20:09:08","新北市新店區寶慶街66號","121.541946666667","24.9869116666667","6500600","新店區"
"231053","110-UY","2018/04/10 20:09:13","新北市新店區新烏路三段290巷3號","121.548836666667","24.8976366666667","6500600","新店區"
"231048","187-VK","2018/04/10 20:09:10","新北市新店區寶橋路61號","121.54514","24.9751016666667","6500600","新店區"
"231057","256-BX","2018/04/10 20:09:18","新北市新店區花園一路一段2號","121.553128333333","24.9324466666667","6500600","新店區"
"231051","278-BY","2018/04/10 20:09:15","新北市新店區中央五街1號","121.530261666667","24.9741316666667","6500600","新店區"
"231050","AAD-862","2018/04/10 20:09:17","新北市新店區北新路一段96巷23號","121.542818333333","24.968675","6500600","新店區"
"231058","3713-VJ","2018/04/10 20:09:10","新北市新店區中央路22-1號","121.533348333333","24.9785583333333","6500600","新店區"
"231066","4716-K9","2018/04/10 20:09:24","新北市新店區安民街179號","121.516756666667","24.9704716666667","6500600","新店區"
"231056","4715-K9","2018/04/10 20:09:21","新北市新店區北新路二段59巷1號","121.542395","24.9729466666667","6500600","新店區"
"231067","4772-VM","2018/04/10 20:09:13","新北市新店區溪洲路6巷6-2號","121.533888333333","24.9611566666667","6500600","新店區"
"231065","512-UM","2018/04/10 20:09:09","新北市新店區安祥路106巷193號","121.474156666667","24.9600233333333","6500600","新店區"
"231049","513-UM","2018/04/10 20:09:23","新北市新店區北新路二段121巷4號","121.542218333333","24.9751583333333","6500600","新店區"
"231045","618-UM","2018/04/10 20:09:10","新北市新店區北宜路一段154號","121.540343333333","24.9537383333333","6500600","新店區"
"231061","619-UM","2018/04/10 20:09:20","新北市新店區安民街389號","121.51617","24.9768816666667","6500600","新店區"
"231063","641-BX","2018/04/10 20:09:14","新北市新店區黎明路54巷2號","121.502308333333","24.9483266666667","6500600","新店區"
"231042","645-TV","2018/04/10 20:09:11","新北市新店區中興路二段43號","121.546355","24.9701433333333","6500600","新店區"
"231068","718-UY","2018/04/10 20:09:21","新北市新店區寶興路42巷31號","121.547708333333","24.9720633333333","6500600","新店區"
"231064","719-UM","2018/04/10 20:09:10","新北市新店區安光路13號","121.513413333333","24.963845","6500600","新店區"
"231054","719-UY","2018/04/10 20:09:20","新北市新店區檳榔路43巷2號","121.542996666667","24.963045","6500600","新店區"
"231062","720-UM","2018/04/10 20:09:20","新北市新店區安康路一段229號","121.525578333333","24.9631466666667","6500600","新店區"
"231060","897-TW","2018/04/10 20:09:11","新北市新店區安康路三段454號","121.484373333333","24.9511616666667","6500600","新店區"
"231043","899-TW","2018/04/10 20:09:22","新北市新店區民族路184號","121.536973333333","24.976135","6500600","新店區"
"231055","AKT-0513","2018/04/10 20:09:15","新北市新店區中華路42巷10號","121.540376666667","24.9684383333333","6500600","新店區"
"241011","013-R5","2018/04/10 20:09:13","新北市三重區秀江街234號","121.496511666667","25.0714716666667","6500200","三重區"
"241028","022-UY","2018/04/10 20:09:22","新北市三重區仁化街123號","121.49465","25.0576216666667","6500200","三重區"
"241008","059-VK","2018/04/10 20:09:11","新北市三重區永福街197巷15-1號","121.478885","25.0743633333333","6500200","三重區"
"241009","060-VK","2018/04/10 20:09:10","新北市三重區永福街123號","121.478915","25.0770683333333","6500200","三重區"
"241031","061-VK","2018/04/10 20:09:09","新北市三重區過圳街9-1號","121.488778333333","25.0601383333333","6500200","三重區"
"241015","062-VK","2018/04/10 20:09:14","新北市三重區福德北路20號","121.502291666667","25.0646933333333","6500200","三重區"
"241017","063-VK","2018/04/10 20:09:15","新北市三重區長壽西街181號","121.492408333333","25.0665016666667","6500200","三重區"
"241024","065-VK","2018/04/10 20:09:10","新北市三重區中正北路169號","121.478736666667","25.0693433333333","6500200","三重區"
"241026","066-VK","2018/04/10 20:09:14","新北市三重區福德南路65巷1號","121.502413333333","25.06051","6500200","三重區"
"241002","090-VK","2018/04/10 20:09:14","新北市三重區仁忠街27號","121.496023333333","25.0821283333333","6500200","三重區"
"241003","091-VK","2018/04/10 20:09:21","新北市三重區仁愛街472號","121.489665","25.0824133333333","6500200","三重區"
"241016","265-UM","2018/04/10 20:09:13","新北市三重區中正北路25巷14號","121.493533333333","25.0628966666667","6500200","三重區"
"241018","268-UM","2018/04/10 20:09:26","新北市三重區正義北路256巷102號","121.493796666667","25.0679266666667","6500200","三重區"
"241032","269-UM","2018/04/10 20:09:21","新北市三重區捷運路61號","121.483455","25.0556933333333","6500200","三重區"
"241013","270-UM","2018/04/10 20:09:21","新北市三重區三和路三段151巷47號","121.494198333333","25.0742716666667","6500200","三重區"
"241025","271-UM","2018/04/10 20:09:24","新北市三重區中正北路169號","121.47836","25.0692883333333","6500200","三重區"
"241007","398-BY","2018/04/10 20:09:08","新北市三重區三和路四段111-31號","121.486808333333","25.077505","6500200","三重區"
"241035","KEA-2210","2018/04/10 20:09:19","新北市三重區平安街32號","121.498255","25.0640266666667","6500200","三重區"
"241020","478-VK","2018/04/10 20:09:22","新北市三重區三和路三段188號","121.491865","25.073635","6500200","三重區"
"241030","480-VK","2018/04/10 20:09:18","新北市三重區集美街75巷27號","121.488","25.0530116666667","6500200","三重區"
"241014","543-UM","2018/04/10 20:09:15","新北市三重區長壽街120巷47號","121.502121666667","25.06969","6500200","三重區"
"241023","545-UM","2018/04/10 20:09:17","新北市三重區頂崁街233號","121.476975","25.0685133333333","6500200","三重區"
"241001","547-UM","2018/04/10 20:09:15","新北市三重區三和路四段89巷2號","121.488975","25.0757216666667","6500200","三重區"
"241019","KEA-2593","2018/04/10 20:09:13","新北市三重區自強路二段33巷18號","121.490016666667","25.0697683333333","6500200","三重區"
"241006","AAD-863","2018/04/10 20:09:19","新北市三重區車路頭街139巷14號","121.484296666667","25.076325","6500200","三重區"
"241022","887-TS","2018/04/10 20:09:24","新北市三重區重陽路二段2號","121.486726666667","25.0617766666667","6500200","三重區"
"241012","941-UM","2018/04/10 20:09:15","新北市三重區仁愛街125巷73號","121.497816666667","25.0758533333333","6500200","三重區"
"241029","942-UM","2018/04/10 20:09:07","新北市三重區光明路32巷14號","121.49173","25.058695","6500200","三重區"
"241033","AAC-255","2018/04/10 20:09:23","新北市三重區光復路一段68巷4號","121.47173","25.04922","6500200","三重區"
"235066","003-UY","2018/04/10 20:09:11","新北市中和區中山路二段3巷34號","121.50724","25.0049833333333","6500300","中和區"
"235039","097-UM","2018/04/10 20:09:12","新北市中和區大勇街29巷14號","121.51581","24.9946983333333","6500300","中和區"
"235065","098-UM","2018/04/10 20:09:13","新北市中和區永和路90巷11號","121.497753333333","25.006035","6500300","中和區"
"235040","150-BY","2018/04/10 20:09:09","新北市中和區保健路23號","121.508341666667","24.9981116666667","6500300","中和區"
"235058","151-BY","2018/04/10 20:09:10","新北市中和區員山路150巷2弄17號","121.481735","24.9979933333333","6500300","中和區"
"235068","377-QA","2018/04/10 20:09:17","新北市中和區福祥路85巷3號","121.498778333333","25.005675","6500300","中和區"
"235050","4979-A6","2018/04/10 20:09:28","新北市中和區景新街323-1號","121.511293333333","24.9921566666667","6500300","中和區"
"235069","4980-A6","2018/04/10 20:09:21","新北市中和區景新街132巷8-4號","121.50468","24.99815","6500300","中和區"
"235070","558-UM","2018/04/10 20:09:20","新北市中和區中正路448號","121.490905","24.9941133333333","6500300","中和區"
"235026","800-TS","2018/04/10 20:09:18","新北市中和區員山路36巷13號","121.484276666667","24.9907533333333","6500300","中和區"
"235051","157-BY","2018/04/10 20:09:08","新北市中和區景安路220巷16號","121.502866666667","24.9913816666667","6500300","中和區"
"235037","AAC-213","2018/04/10 20:09:13","新北市中和區自立路147號","121.522613333333","24.9929866666667","6500300","中和區"
"235059","AAC-215","2018/04/10 20:09:25","新北市中和區圓通路335巷33弄19號","121.492963333333","24.9888333333333","6500300","中和區"
"220067","075-UY","2018/04/10 20:09:20","新北市板橋區中山路一段256號","121.471595","25.0146433333333","6500100","板橋區"
"220069","AAD-861","2018/04/10 20:09:26","新北市板橋區大明街20巷19弄3號","121.458376666667","25.0031266666667","6500100","板橋區"
"247024","893-R6","2018/04/10 20:09:20","新北市蘆洲區光明路139號","121.464438333333","25.0885433333333","6501400","蘆洲區"
"247022","500-BY","2018/04/10 20:09:16","新北市蘆洲區三民路173號","121.471031666667","25.087315","6501400","蘆洲區"
"247010","341-TH","2018/04/10 20:09:10","新北市蘆洲區集賢路401號","121.480126666667","25.0816916666667","6501400","蘆洲區"
"247012","339-TH","2018/04/10 20:09:15","新北市蘆洲區民族路250巷2號","121.479306666667","25.0886966666667","6501400","蘆洲區"
"247004","337-TH","2018/04/10 20:09:23","新北市蘆洲區永安南路二段328巷15弄5號","121.456448333333","25.0836966666667","6501400","蘆洲區"
"247006","336-TH","2018/04/10 20:09:13","新北市蘆洲區永安南路二段18號","121.467706666667","25.077155","6501400","蘆洲區"
"247008","056-VK","2018/04/10 20:09:19","新北市蘆洲區中山一路197巷4弄2號","121.474553333333","25.0808533333333","6501400","蘆洲區"
"247014","053-VK","2018/04/10 20:09:28","新北市蘆洲區中山二路265巷13號","121.470458333333","25.0795533333333","6501400","蘆洲區"
"247016","007-UY","2018/04/10 20:09:15","新北市蘆洲區光華路128號","121.466555","25.0825166666667","6501400","蘆洲區"
"247002","002-UY","2018/04/10 20:09:13","新北市蘆洲區永康街54號","121.459218333333","25.086175","6501400","蘆洲區"
"247020","001-UY","2018/04/10 20:09:12","新北市蘆洲區民權路106巷5弄2-1號","121.474355","25.0890833333333","6501400","蘆洲區"
"222001","KEA-2212","2018/04/10 20:09:07","新北市深坑區北深路三段193號","121.601166666667","25.0037466666667","6501800","深坑區"
"208002","KEA-2872","2018/04/10 20:09:14","新北市金山區環金路462號","121.630136666667","25.22484","6502700","金山區"
"208003","665-BX","2018/04/10 20:09:24","新北市金山區香園15號","121.63411","25.2528983333333","6502700","金山區"
"251004","009-UM","2018/04/10 20:01:41","新北市淡水區民族路31-7號","121.461173333333","25.1365166666667","6501000","淡水區"
"251002","012-UM","2018/04/10 20:09:23","新北市淡水區中正路294號","121.437586666667","25.172035","6501000","淡水區"
"251013","179-VK","2018/04/10 20:09:11","新北市淡水區奎柔山路752巷1號","121.472933333333","25.2052616666667","6501000","淡水區"
"251014","180-VK","2018/04/10 20:09:15","新北市淡水區石頭厝3號","121.458706666667","25.235555","6501000","淡水區"
"251008","181-VK","2018/04/10 20:09:20","新北市淡水區淡海路72巷30弄1號","121.424431666667","25.182645","6501000","淡水區"
"251015","182-VK","2018/04/10 20:09:13","新北市淡水區埤島3-20號","121.447045","25.1913083333333","6501000","淡水區"
"251010","413-VK","2018/04/10 20:09:09","新北市淡水區崁頂五路303號","121.424335","25.1979916666667","6501000","淡水區"
"251012","441-VK","2018/04/10 20:09:11","新北市淡水區下圭柔山61-9號","121.447971666667","25.2043966666667","6501000","淡水區"
"251016","442-VK","2018/04/10 20:09:19","新北市淡水區番子田18-1號","121.456746666667","25.229425","6501000","淡水區"
"251006","561-UM","2018/04/10 20:09:10","新北市淡水區北新路141巷29號","121.448231666667","25.17958","6501000","淡水區"
"251009","575-R6","2018/04/10 20:09:12","新北市淡水區學府路51巷1弄27-4號","121.447211666667","25.1686216666667","6501000","淡水區"
"207003","550-UM","2018/04/10 20:09:10","新北市萬里區大鵬里萬里加投192號","121.64285","25.2156983333333","6502800","萬里區"
"207004","225-TW","2018/04/10 20:09:16","新北市萬里區北基里大勇路14號","121.681926666667","25.1765716666667","6502800","萬里區"
"252002","178-VK","2018/04/10 20:09:25","新北市三芝區三民街2號","121.503998333333","25.2580133333333","6502100","三芝區"
"252001","292-VK","2018/04/10 20:09:19","新北市三芝區公正街9號","121.499786666667","25.257515","6502100","三芝區"
"237006","5529-G3","2018/04/10 20:09:20","新北市三峽區嘉添105號","121.370153333333","24.90992","6500900","三峽區"
"237005","AKY-6261","2018/04/10 20:09:19","新北市三峽區三樹路98巷74弄25號","121.385028333333","24.9384766666667","6500900","三峽區"
"236070","105-UM","2018/04/10 20:09:24","新北市土城區中央路三段185-6號","121.431768333333","24.9648016666667","6501300","土城區"
"236079","166-UM","2018/04/10 20:09:21","新北市土城區中山路47號","121.420683333333","24.9629316666667","6501300","土城區"
"236030","253-BX","2018/04/10 20:09:19","新北市土城區中央路一段116號","121.446525","24.9880333333333","6501300","土城區"
"236026","269-VK","2018/04/10 20:09:21","新北市土城區中央路一段245-1號","121.445216666667","24.98588","6501300","土城區"
"236014","270-VK","2018/04/10 20:09:11","新北市土城區廣明街1號","121.455918333333","24.9918383333333","6501300","土城區"
"236038","271-VK","2018/04/10 20:09:21","新北市土城區明德路一段48巷12號","121.464651666667","24.98383","6501300","土城區"
"236021","401-BY","2018/04/10 20:09:15","新北市土城區和城路二段255巷82-1號","121.474661666667","24.9872766666667","6501300","土城區"
"236059","912-UM","2018/04/10 20:09:26","新北市土城區中央路二段144號","121.442038333333","24.977175","6501300","土城區"
"236049","913-UM","2018/04/10 20:09:13","新北市土城區金城路三段176-1號","121.46776","24.9876766666667","6501300","土城區"
"236063","915-UM","2018/04/10 20:09:29","新北市土城區延和路12巷15號","121.464585","24.9874583333333","6501300","土城區"
"236055","AAC-216","2018/04/10 20:09:09","新北市土城區學成路18號","121.453148333333","24.9868633333333","6501300","土城區"
"242034","AAC-296","2018/04/10 20:09:15","新北市新莊區中正路318巷15號","121.446368333333","25.0359633333333","6500500","新莊區"
"242058","986-R7","2018/04/10 20:09:21","新北市新莊區八德街169號","121.423348333333","25.0190316666667","6500500","新莊區"
"242054","751-BX","2018/04/10 20:09:25","新北市新莊區西盛街387巷13號","121.428533333333","25.0130266666667","6500500","新莊區"
"242029","705-TV","2018/04/10 20:09:26","新北市新莊區中原路319號","121.446513333333","25.0544833333333","6500500","新莊區"
"242027","615-BX","2018/04/10 20:09:25","新北市新莊區中平路285號","121.44476","25.0504016666667","6500500","新莊區"
"242025","613-BX","2018/04/10 20:09:24","新北市新莊區五工路68巷9號","121.458358333333","25.063995","6500500","新莊區"
"242042","566-BX","2018/04/10 20:09:20","新北市新莊區青山路一段179號","121.400395","25.0301983333333","6500500","新莊區"
"242046","497-BY","2018/04/10 20:09:25","新北市新莊區裕民街103巷19號","121.41948","25.0228716666667","6500500","新莊區"
"242051","441-UM","2018/04/10 20:09:15","新北市新莊區民安西路175號","121.426081666667","25.0159433333333","6500500","新莊區"
"242056","440-UM","2018/04/10 20:09:16","新北市新莊區新莊路649巷15弄1號","121.445","25.0314833333333","6500500","新莊區"
"242037","415-TV","2018/04/10 20:09:17","新北市新莊區建安街11號","121.428905","25.02656","6500500","新莊區"
"242044","400-BY","2018/04/10 20:09:20","新北市新莊區中正路895-46號","121.412196666667","25.0213466666667","6500500","新莊區"
"242023","362-BY","2018/04/10 20:09:16","新北市新莊區化成路317號","121.465963333333","25.0557316666667","6500500","新莊區"
"242061","353-BY","2018/04/10 20:09:27","新北市新莊區瓊林路瓊英巷9號","121.443303333333","25.0275716666667","6500500","新莊區"
"242039","133-UY","2018/04/10 20:09:06","新北市新莊區龍安路523號","121.427216666667","25.01787","6500500","新莊區"
"242048","172-VK","2018/04/10 20:09:14","新北市新莊區四維路182巷8號","121.421926666667","25.021925","6500500","新莊區"
"242011","173-VK","2018/04/10 20:09:21","新北市新莊區中信街61號","121.44923","25.0508166666667","6500500","新莊區"
"242017","175-VK","2018/04/10 20:09:19","新北市新莊區中港路397號","121.451788333333","25.0468833333333","6500500","新莊區"
"242005","176-VK","2018/04/10 20:09:25","新北市新莊區頭興街9巷1號","121.462371666667","25.05354","6500500","新莊區"
"242015","346-TH","2018/04/10 20:09:28","新北市新莊區中平路26巷43號","121.446858333333","25.0434316666667","6500500","新莊區"
"242021","348-TH","2018/04/10 20:09:24","新北市新莊區建中街32巷7號","121.448843333333","25.0378083333333","6500500","新莊區"
"242002","349-TH","2018/04/10 20:09:16","新北市新莊區中正路113號","121.460483333333","25.0388633333333","6500500","新莊區"
"242019","350-TH","2018/04/10 20:09:25","新北市新莊區民樂街59號","121.457856666667","25.04169","6500500","新莊區"
"242013","351-TH","2018/04/10 20:09:08","新北市新莊區幸福路710巷5弄1號","121.449051666667","25.0497733333333","6500500","新莊區"
"238021","KEA-2539","2018/04/10 20:09:20","新北市樹林區佳園路三段99巷19號","121.38933","24.9521733333333","6500700","樹林區"
"221008","489-VK","2018/04/10 20:09:19","新北市汐止區忠三街9巷32號","121.62453","25.0801866666667","6501100","汐止區"
"221036","130-UY","2018/04/10 20:09:17","新北市汐止區新台五路二段80號","121.662345","25.0657733333333","6501100","汐止區"
"221015","131-UY","2018/04/10 20:09:19","新北市汐止區建成路23巷3號","121.664333333333","25.07241","6501100","汐止區"
"221010","269-BY","2018/04/10 20:09:17","新北市汐止區八連路一段330號","121.640708333333","25.088355","6501100","汐止區"
"221018","277-VK","2018/04/10 20:09:22","新北市汐止區中興路214巷14號","121.63161","25.0666933333333","6501100","汐止區"
"221012","278-VK","2018/04/10 20:09:25","新北市汐止區汐平路二段55號","121.699198333333","25.06078","6501100","汐止區"
"221023","279-VK","2018/04/10 20:09:26","新北市汐止區明峰街298巷3弄2號","121.625066666667","25.0683466666667","6501100","汐止區"
"221032","280-BY","2018/04/10 20:09:26","新北市汐止區弘道街9巷2弄2號","121.616995","25.048865","6501100","汐止區"
"221027","281-BY","2018/04/10 20:09:26","新北市汐止區中正路133號","121.660093333333","25.0691783333333","6501100","汐止區"
"221029","298-VK","2018/04/10 20:09:22","新北市汐止區樟樹一路119巷10弄2號","121.641191666667","25.06473","6501100","汐止區"
"221021","299-VK","2018/04/10 20:09:25","新北市汐止區連興街144號","121.65398","25.0614283333333","6501100","汐止區"
"221035","622-UM","2018/04/10 20:09:28","新北市汐止區長江街79巷19號","121.65775","25.073015","6501100","汐止區"
"221025","623-UM","2018/04/10 20:09:05","新北市汐止區連興街139號","121.654025","25.0616333333333","6501100","汐止區"
"221038","646-BX","2018/04/10 20:09:28","新北市汐止區大同路三段66-3號","121.66813","25.07722","6501100","汐止區"
"221033","647-BX","2018/04/10 20:09:13","新北市汐止區東勢街201巷104號","121.633541666667","25.0430083333333","6501100","汐止區"
"221002","707-TV","2018/04/10 20:09:08","新北市汐止區大同路一段219巷26號","121.633076666667","25.0586716666667","6501100","汐止區"
"221018","753-BX","2018/04/10 20:09:09","新北市汐止區茄苳路311號","121.673461666667","25.0667183333333","6501100","汐止區"
"220080","200-UY","2018/04/10 20:09:21","新北市板橋區大觀路二段187巷5號","121.445226666667","24.9997516666667","6500100","板橋區"
"220101","245-BX","2018/04/10 20:09:15","新北市板橋區雙十路二段47巷4弄22號","121.47499","25.0264616666667","6500100","板橋區"
"220103","257-TC","2018/04/10 20:09:20","新北市板橋區自由路26巷23號","121.466571666667","25.0225216666667","6500100","板橋區"
"220070","282-UM","2018/04/10 20:09:22","新北市板橋區德興街39號","121.453485","24.993705","6500100","板橋區"
"220071","283-VK","2018/04/10 20:09:24","新北市板橋區廣權路99號","121.464543333333","24.9927166666667","6500100","板橋區"
"220094","285-UM","2018/04/10 20:09:15","新北市板橋區陽明街48號","121.465403333333","25.02209","6500100","板橋區"
"220083","286-VK","2018/04/10 20:09:09","新北市板橋區僑中二街100巷20號","121.445163333333","25.0085966666667","6500100","板橋區"
"220081","287-VK","2018/04/10 20:09:07","新北市板橋區僑中一街124巷18弄38號","121.447616666667","25.013555","6500100","板橋區"
"220061","293-UM","2018/04/10 20:09:27","新北市板橋區中山路一段152號","121.464415","25.01116","6500100","板橋區"
"242009","281-VK","2018/04/10 20:09:21","新北市新莊區昌盛街35巷3弄1號","121.454043333333","25.0504116666667","6500500","新莊區"
"220092","307-R5","2018/04/10 20:09:25","新北市板橋區公館街106號","121.461186666667","25.01676","6500100","板橋區"
"220098","317-R6","2018/04/10 20:09:04","新北市板橋區新海路72巷17號","121.46244","25.0222983333333","6500100","板橋區"
"242032","280-VK","2018/04/10 20:09:13","新北市新莊區公園一路39號","121.443258333333","25.0355583333333","6500500","新莊區"
"220088","491-VK","2018/04/10 20:09:17","新北市板橋區仁化街132號","121.477425","25.0328483333333","6500100","板橋區"
"220055","630-UY","2018/04/10 20:09:09","新北市板橋區仁愛路86巷22-1號","121.460851666667","24.9986433333333","6500100","板橋區"
"220093","689-BX","2018/04/10 20:09:22","新北市板橋區長江路三段56號","121.473455","25.033935","6500100","板橋區"
"220102","KEA-2699","2018/04/10 20:09:20","新北市板橋區懷德街75號","121.477798333333","25.0321983333333","6500100","板橋區"
"220068","830-TW","2018/04/10 20:09:24","新北市板橋區中山路二段375號","121.480006666667","25.0191833333333","6500100","板橋區"
"220096","831-TW","2018/04/10 20:09:15","新北市板橋區莒光路79巷4號","121.471971666667","25.02441","6500100","板橋區"
"220089","833-TW","2018/04/10 20:09:17","新北市板橋區互助街33號","121.461473333333","25.0267066666667","6500100","板橋區"
"220074","895-R6","2018/04/10 20:09:10","新北市板橋區府後街1巷2-2號","121.45917","25.0105583333333","6500100","板橋區"
"220097","AAC-210","2018/04/10 20:09:27","新北市板橋區光正街9巷2弄2號","121.46272","25.0168183333333","6500100","板橋區"
