"lineid","car","time","location","longitude","latitude","cityid","cityname"
"234070","149-BY","2018/04/10 20:19:53","新北市永和區福和路263巷7弄1號","121.517898333333","25.006995","6500400","永和區"
"234007","207-UY","2018/04/10 20:19:57","新北市永和區保順路11號","121.504288333333","25.0097016666667","6500400","永和區"
"234081","298-R6","2018/04/10 20:19:55","新北市永和區國中路130號","121.52348","25.00682","6500400","永和區"
"234038","336-UY","2018/04/10 20:19:48","新北市永和區成功路一段1號","121.527246666667","25.0053633333333","6500400","永和區"
"234064","337-UY","2018/04/10 20:19:51","新北市永和區得和路104巷4號","121.517943333333","24.999865","6500400","永和區"
"234086","338-UY","2018/04/10 20:19:39","新北市永和區永和路二段91號","121.514725","25.011525","6500400","永和區"
"234067","553-UM","2018/04/10 20:19:55","新北市永和區保平路268巷4號","121.508318333333","25.0056016666667","6500400","永和區"
"234017","745-BX","2018/04/10 20:19:38","新北市永和區文化路8號","121.515541666667","25.0150433333333","6500400","永和區"
"234030","746-BX","2018/04/10 20:19:52","新北市永和區民有街75巷10弄22號","121.519253333333","24.9959983333333","6500400","永和區"
"234054","KEA-2590","2018/04/10 20:19:38","新北市永和區光復街2巷18號","121.51714","25.0166133333333","6500400","永和區"
"234013","KEA-2591","2018/04/10 20:19:41","新北市永和區仁愛路278號","121.503876666667","25.0083116666667","6500400","永和區"
"234061","AAD-866","2018/04/10 20:19:50","新北市永和區得和路29號","121.515878333333","25.0002766666667","6500400","永和區"
"234042","862-TW","2018/04/10 20:19:56","新北市永和區雙和街6巷3號","121.509785","25.0020416666667","6500400","永和區"
"234050","863-TW","2018/04/10 20:19:52","新北市永和區新生路2-7號","121.509363333333","25.01694","6500400","永和區"
"249005","172-UM","2018/04/10 20:19:53","新北市八里區下罟子5-11號","121.387211666667","25.14237","6502300","八里區"
"249001","173-UM","2018/04/10 20:19:40","新北市八里區中華路二段341-10號","121.399123333333","25.1449916666667","6502300","八里區"
"249004","303-UY","2018/04/10 20:19:47","新北市八里區中山路一段129巷19-1號","121.413948333333","25.158675","6502300","八里區"
"249002","305-UY","2018/04/10 20:19:38","新北市八里區龍米路一段446號","121.450603333333","25.1346016666667","6502300","八里區"
"249003","593-UM","2018/04/10 20:19:51","新北市八里區華峰一街69號","121.398308333333","25.1459366666667","6502300","八里區"
"248016","026-BX","2018/04/10 20:19:55","新北市五股區天乙路34號","121.448431666667","25.1034983333333","6501500","五股區"
"248012","247-BX","2018/04/10 20:19:58","新北市五股區五福路51號","121.432833333333","25.0894633333333","6501500","五股區"
"248014","261-SL","2018/04/10 20:19:37","新北市八里區商港路88-1號","121.393305","25.149505","6501500","五股區"
"248010","272-BY","2018/04/10 20:19:41","新北市五股區成泰路一段2-9號","121.434296666667","25.067195","6501500","五股區"
"248004","677-BX","2018/04/10 20:19:46","新北市五股區中興路四段23號","121.43891","25.08266","6501500","五股區"
"248002","678-BX","2018/04/10 20:19:49","新北市五股區成泰路三段101-1號","121.443948333333","25.0902916666667","6501500","五股區"
"234023","9380-KE","2018/04/10 20:19:46","新北市永和區中正路662巷23號","121.517556666667","25.008815","6500400","永和區"
"234077","969-R7","2018/04/10 20:19:46","新北市中和區安樂路58號","121.512028333333","24.993185","6500400","永和區"
"234074","AAC-211","2018/04/10 20:19:44","新北市永和區竹林路201巷22弄5號","121.52234","25.0093683333333","6500400","永和區"
"234003","AAC-295","2018/04/10 20:19:54","新北市永和區大新街12號","121.514915","25.00846","6500400","永和區"
"243012","AAD-798","2018/04/10 20:19:57","新北市泰山區楓樹街35號","121.435203333333","25.06419","6501600","泰山區"
"243015","380-SR","2018/04/10 20:19:39","新北市泰山區仁德路65號","121.434385","25.0568266666667","6501600","泰山區"
"243014","421-VK","2018/04/10 20:19:55","新北市泰山區泰林路二段420號","121.427078333333","25.0643033333333","6501600","泰山區"
"243010","KEA-2215","2018/04/10 20:19:54","新北市泰山區明志路二段254巷6號","121.426495","25.0476366666667","6501600","泰山區"
"243009","KEA-2216","2018/04/10 20:19:49","新北市泰山區泰林路二段290號","121.431108333333","25.0627233333333","6501600","泰山區"
"243013","646-TV","2018/04/10 20:19:48","新北市泰山區中央路14巷1號","121.426516666667","25.0436366666667","6501600","泰山區"
"243016","680-BX","2018/04/10 20:19:51","新北市泰山區明志路三段277號","121.422921666667","25.036755","6501600","泰山區"
"222003","436-BY","2018/04/10 20:19:40","新北市深坑區文化街43號","121.617635","25.001885","6501800","深坑區"
"222002","659-BX","2018/04/10 20:19:48","新北市深坑區萬福路75巷46號","121.598256666667","25.00984","6501800","深坑區"
"231041","002-UM","2018/04/10 20:19:40","新北市新店區二十張路3-5號","121.540151666667","24.982685","6500600","新店區"
"231059","046-UY","2018/04/10 20:19:40","新北市新店區安德街120巷6號","121.509051666667","24.9608116666667","6500600","新店區"
"231040","047-UY","2018/04/10 20:19:49","新北市新店區中華路147號","121.538431666667","24.9706366666667","6500600","新店區"
"231044","106-UY","2018/04/10 20:19:48","新北市新店區北新路三段49號","121.541926666667","24.9805283333333","6500600","新店區"
"231053","110-UY","2018/04/10 20:19:53","新北市新店區新烏路三段15號","121.552673333333","24.9059066666667","6500600","新店區"
"231048","187-VK","2018/04/10 20:19:50","新北市新店區中興路三段6號","121.546855","24.9767666666667","6500600","新店區"
"231057","256-BX","2018/04/10 20:19:57","新北市新店區花園七路一段16巷1號","121.55389","24.934895","6500600","新店區"
"231051","278-BY","2018/04/10 20:19:55","新北市新店區中央六街85號","121.526655","24.9766533333333","6500600","新店區"
"231050","AAD-862","2018/04/10 20:19:37","新北市新店區北新路二段2號","121.542675","24.97075","6500600","新店區"
"231058","3713-VJ","2018/04/10 20:19:50","新北市新店區中正路360號","121.535656666667","24.9759066666667","6500600","新店區"
"231066","4716-K9","2018/04/10 20:19:44","新北市新店區安民街341-1號","121.516905","24.9749633333333","6500600","新店區"
"231056","4715-K9","2018/04/10 20:19:38","新北市新店區中正路275巷25號","121.53703","24.9731833333333","6500600","新店區"
"231067","4772-VM","2018/04/10 20:19:52","新北市新店區安康路一段24巷5號","121.5319","24.960985","6500600","新店區"
"231065","512-UM","2018/04/10 20:19:49","新北市新店區安祥路104巷6弄36號","121.483103333333","24.962955","6500600","新店區"
"231049","513-UM","2018/04/10 20:19:42","新北市新店區北新路一段128-3號","121.542173333333","24.96997","6500600","新店區"
"231045","618-UM","2018/04/10 20:19:50","新北市新店區新坡一街86號","121.548276666667","24.9618666666667","6500600","新店區"
"231061","619-UM","2018/04/10 20:19:40","新北市新店區安興路57號","121.516338333333","24.9720083333333","6500600","新店區"
"231063","641-BX","2018/04/10 20:19:54","新北市新店區柴埕路100-2號","121.503155","24.959435","6500600","新店區"
"231042","645-TV","2018/04/10 20:19:51","新北市新店區中興路二段233號","121.547556666667","24.9749766666667","6500600","新店區"
"231068","718-UY","2018/04/10 20:19:41","新北市新店區民權路21-1號","121.541845","24.9827633333333","6500600","新店區"
"231064","719-UM","2018/04/10 20:18:10","新北市新店區安利街30號","121.519098333333","24.9747716666667","6500600","新店區"
"231054","719-UY","2018/04/10 20:19:40","新北市新店區檳榔路109號","121.544498333333","24.9616366666667","6500600","新店區"
"231062","720-UM","2018/04/10 20:19:40","新北市新店區安泰路7巷16號","121.485695","24.9510033333333","6500600","新店區"
"231060","897-TW","2018/04/10 20:19:51","新北市新店區錦秀路11巷11號","121.479853333333","24.9446483333333","6500600","新店區"
"231043","899-TW","2018/04/10 20:19:47","新北市新店區建國路131號","121.539426666667","24.9781816666667","6500600","新店區"
"231055","AKT-0513","2018/04/10 20:19:55","新北市新店區新明街11號","121.540925","24.9682316666667","6500600","新店區"
"241011","013-R5","2018/04/10 20:19:53","新北市三重區龍門路230號","121.500338333333","25.0735583333333","6500200","三重區"
"241028","022-UY","2018/04/10 20:19:42","新北市三重區大同南路128號","121.496343333333","25.05827","6500200","三重區"
"241008","059-VK","2018/04/10 20:19:51","新北市三重區永福街156號","121.480451666667","25.0745033333333","6500200","三重區"
"241009","060-VK","2018/04/10 20:19:50","新北市三重區三和路四段384號","121.482191666667","25.0787466666667","6500200","三重區"
"241031","061-VK","2018/04/10 20:19:49","新北市三重區三寧街15號","121.489516666667","25.059815","6500200","三重區"
"241015","062-VK","2018/04/10 20:19:53","新北市三重區重新路一段136號","121.50018","25.062765","6500200","三重區"
"241017","063-VK","2018/04/10 20:19:55","新北市三重區自強路一段207號","121.49153","25.0683516666667","6500200","三重區"
"241024","065-VK","2018/04/10 20:19:50","新北市三重區忠孝路三段15巷1號","121.48149","25.0674433333333","6500200","三重區"
"241026","066-VK","2018/04/10 20:19:54","新北市三重區福德南路23號","121.5027","25.0628716666667","6500200","三重區"
"241002","090-VK","2018/04/10 20:19:53","新北市三重區仁義街143巷2號","121.497228333333","25.08085","6500200","三重區"
"241003","091-VK","2018/04/10 20:19:41","新北市三重區富華街61號","121.491268333333","25.0835616666667","6500200","三重區"
"241005","262-UM","2018/04/10 20:19:47","新北市三重區仁愛街475號","121.489256666667","25.082235","6500200","三重區"
"241016","265-UM","2018/04/10 20:19:53","新北市三重區大同北路91號","121.494686666667","25.06363","6500200","三重區"
"241018","268-UM","2018/04/10 20:19:45","新北市三重區自強路一段155-1號","121.493693333333","25.0672383333333","6500200","三重區"
"241032","269-UM","2018/04/10 20:19:41","新北市三重區捷運路37巷20號","121.484103333333","25.057015","6500200","三重區"
"241013","270-UM","2018/04/10 20:19:41","新北市三重區三和路三段167巷16號","121.492466666667","25.074275","6500200","三重區"
"241025","271-UM","2018/04/10 20:19:45","新北市三重區頂崁街210巷23弄1號","121.475925","25.0680616666667","6500200","三重區"
"241007","398-BY","2018/04/10 20:19:49","新北市三重區溪尾街108巷50號","121.487481666667","25.07815","6500200","三重區"
"241035","KEA-2210","2018/04/10 20:19:59","新北市三重區正義北路33巷16號","121.498081666667","25.0637866666667","6500200","三重區"
"241020","478-VK","2018/04/10 20:19:42","新北市三重區三和路三段170巷9號","121.492263333333","25.073045","6500200","三重區"
"241030","480-VK","2018/04/10 20:19:52","新北市三重區集美街75巷43號","121.487608333333","25.0525416666667","6500200","三重區"
"241014","543-UM","2018/04/10 20:19:55","新北市三重區龍濱路196號","121.501025","25.0733416666667","6500200","三重區"
"241023","545-UM","2018/04/10 20:19:57","新北市三重區忠孝路三段52號","121.480638333333","25.0656416666667","6500200","三重區"
"241001","547-UM","2018/04/10 20:19:35","新北市三重區自強路四段31巷7號","121.489678333333","25.076625","6500200","三重區"
"241019","KEA-2593","2018/04/10 20:19:53","新北市三重區忠孝路一段66號","121.490248333333","25.0717583333333","6500200","三重區"
"241006","AAD-863","2018/04/10 20:19:39","新北市三重區車路頭街139巷14號","121.484345","25.07633","6500200","三重區"
"241022","887-TS","2018/04/10 20:19:50","新北市三重區市前街2號","121.488961666667","25.0619366666667","6500200","三重區"
"241012","941-UM","2018/04/10 20:19:55","新北市三重區河邊北街262號","121.501641666667","25.0763933333333","6500200","三重區"
"241029","942-UM","2018/04/10 20:19:47","新北市三重區重安街98號","121.492638333333","25.05613","6500200","三重區"
"241033","AAC-255","2018/04/10 20:19:58","新北市三重區五谷王北街77號","121.475768333333","25.050025","6500200","三重區"
"235066","003-UY","2018/04/10 20:19:55","新北市中和區南工路87號","121.507163333333","25.00311","6500300","中和區"
"235039","097-UM","2018/04/10 20:19:52","新北市中和區自強路52號","121.520151666667","24.9948233333333","6500300","中和區"
"235065","098-UM","2018/04/10 20:19:53","新北市中和區永和路128巷47號","121.497693333333","25.0069283333333","6500300","中和區"
"235068","377-QA","2018/04/10 20:19:37","新北市中和區勝利路35巷9弄14號","121.49986","25.00714","6500300","中和區"
"235050","4979-A6","2018/04/10 20:19:48","新北市中和區景平路466號","121.505701666667","24.993645","6500300","中和區"
"235069","4980-A6","2018/04/10 20:19:41","新北市中和區中正路226號","121.496151666667","24.9940533333333","6500300","中和區"
"235026","800-TS","2018/04/10 20:19:58","新北市中和區員山路36巷16-8號","121.485171666667","24.9923266666667","6500300","中和區"
"235059","AAC-215","2018/04/10 20:19:45","新北市中和區圓通路332號","121.484341666667","24.986835","6500300","中和區"
"247024","893-R6","2018/04/10 20:19:40","新北市蘆洲區光榮路120巷8弄53號","121.464023333333","25.0873516666667","6501400","蘆洲區"
"247022","500-BY","2018/04/10 20:19:36","新北市蘆洲區中正路192巷11號","121.46755","25.0885433333333","6501400","蘆洲區"
"247010","341-TH","2018/04/10 20:19:50","新北市蘆洲區信義路188巷2弄2號","121.479343333333","25.08433","6501400","蘆洲區"
"247012","339-TH","2018/04/10 20:19:55","新北市蘆洲區集賢路224巷23號","121.481565","25.0869416666667","6501400","蘆洲區"
"247004","337-TH","2018/04/10 20:19:39","新北市蘆洲區長安街303號","121.457976666667","25.0849583333333","6501400","蘆洲區"
"247006","336-TH","2018/04/10 20:19:49","新北市蘆洲區九芎街167巷3號","121.46511","25.0785416666667","6501400","蘆洲區"
"247018","057-VK","2018/04/10 20:19:40","新北市蘆洲區民族路265號","121.476168333333","25.0905966666667","6501400","蘆洲區"
"247014","053-VK","2018/04/10 20:19:48","新北市蘆洲區中山二路141號","121.471735","25.08155","6501400","蘆洲區"
"247016","007-UY","2018/04/10 20:19:55","新北市蘆洲區中正路185巷90號","121.465446666667","25.0839033333333","6501400","蘆洲區"
"247002","002-UY","2018/04/10 20:19:53","新北市蘆洲區環堤大道98號","121.45535","25.08638","6501400","蘆洲區"
"222001","KEA-2212","2018/04/10 20:19:47","新北市深坑區北深路三段233號","121.599861666667","25.0041516666667","6501800","深坑區"
"208002","KEA-2872","2018/04/10 20:19:54","新北市金山區磺清路135號","121.639551666667","25.22777","6502700","金山區"
"251004","009-UM","2018/04/10 20:19:41","新北市淡水區民權路24號","121.45982","25.13766","6501000","淡水區"
"251002","012-UM","2018/04/10 20:19:43","新北市淡水區中正路51號","121.441871666667","25.1695166666667","6501000","淡水區"
"251013","179-VK","2018/04/10 20:19:51","新北市淡水區水汴頭4-3號","121.475176666667","25.204535","6501000","淡水區"
"251014","180-VK","2018/04/10 20:19:55","新北市淡水區石頭厝3號","121.458703333333","25.235555","6501000","淡水區"
"251008","181-VK","2018/04/10 20:19:40","新北市淡水區淡海路150巷21號","121.422016666667","25.1845033333333","6501000","淡水區"
"251015","182-VK","2018/04/10 20:19:53","新北市淡水區淡金路四段542巷17號","121.452705","25.227105","6501000","淡水區"
"251010","413-VK","2018/04/10 20:19:56","新北市淡水區新民街一段132號","121.427618333333","25.1887616666667","6501000","淡水區"
"251012","441-VK","2018/04/10 20:19:51","新北市淡水區下圭柔山431-1號","121.449818333333","25.21031","6501000","淡水區"
"251016","442-VK","2018/04/10 20:19:39","新北市淡水區淡金路五段20號","121.453078333333","25.2324133333333","6501000","淡水區"
"251006","561-UM","2018/04/10 20:19:50","新北市淡水區北新路171號","121.450466666667","25.179445","6501000","淡水區"
"251009","575-R6","2018/04/10 20:19:52","新北市淡水區清水街5號","121.44507","25.170275","6501000","淡水區"
"251003","673-BX","2018/04/10 20:19:46","新北市淡水區中山北路一段166號","121.444135","25.1784183333333","6501000","淡水區"
"207004","225-TW","2018/04/10 20:19:56","新北市萬里區北基里大仁路11號","121.682653333333","25.17555","6502800","萬里區"
"252002","178-VK","2018/04/10 20:19:38","新北市三芝區中正路一段16-1號","121.502926666667","25.258685","6502100","三芝區"
"252001","292-VK","2018/04/10 20:19:39","新北市三芝區中山路一段31號","121.500555","25.2580233333333","6502100","三芝區"
"237006","5529-G3","2018/04/10 20:19:40","新北市三峽區中正路二段37號","121.36677","24.9189216666667","6500900","三峽區"
"236070","105-UM","2018/04/10 20:19:44","新北市土城區三民路47-1號","121.419825","24.9641366666667","6501300","土城區"
"236030","253-BX","2018/04/10 20:19:39","新北市土城區學成路108巷13弄11號","121.44959","24.9901033333333","6501300","土城區"
"236026","269-VK","2018/04/10 20:19:48","新北市土城區中央路一段249巷22號","121.446345","24.9853383333333","6501300","土城區"
"236014","270-VK","2018/04/10 20:19:51","新北市土城區廣明街90巷24號","121.455636666667","24.9945466666667","6501300","土城區"
"236059","912-UM","2018/04/10 20:19:45","新北市土城區中央路三段85-4號","121.437998333333","24.968365","6501300","土城區"
"242034","AAC-296","2018/04/10 20:19:55","新北市新莊區仁愛街54巷12號","121.445041666667","25.0370833333333","6500500","新莊區"
"242058","986-R7","2018/04/10 20:19:41","新北市新莊區龍安路268號","121.421803333333","25.0192533333333","6500500","新莊區"
"242054","751-BX","2018/04/10 20:19:45","新北市新莊區民安西路261巷18號","121.42674","25.0130233333333","6500500","新莊區"
"242029","705-TV","2018/04/10 20:19:46","新北市新莊區中原路205號","121.450955","25.0542016666667","6500500","新莊區"
"242027","615-BX","2018/04/10 20:19:46","新北市新莊區幸福路602-1號","121.452171666667","25.0493916666667","6500500","新莊區"
"242025","613-BX","2018/04/10 20:19:18","新北市新莊區五工一路85號","121.461631666667","25.0675083333333","6500500","新莊區"
"242042","566-BX","2018/04/10 20:19:52","新北市新莊區壽山路79號","121.408738333333","25.0330016666667","6500500","新莊區"
"242046","497-BY","2018/04/10 20:19:48","新北市新莊區中正路新生巷23號","121.416948333333","25.0236566666667","6500500","新莊區"
"242051","441-UM","2018/04/10 20:19:54","新北市新莊區民安西路250號","121.425875","25.013665","6500500","新莊區"
"242056","440-UM","2018/04/10 20:19:56","新北市新莊區豐年街28巷21號","121.445535","25.0323383333333","6500500","新莊區"
"242037","415-TV","2018/04/10 20:19:55","新北市新莊區建安街62巷3弄2號","121.42679","25.0250966666667","6500500","新莊區"
"242007","413-TV","2018/04/10 20:19:52","新北市新莊區福壽街94巷15號","121.459058333333","25.0500983333333","6500500","新莊區"
"242044","400-BY","2018/04/10 20:19:55","新北市新莊區中正路新建巷28弄55號","121.413815","25.021435","6500500","新莊區"
"242023","362-BY","2018/04/10 20:19:56","新北市新莊區化成路854號","121.464723333333","25.06061","6500500","新莊區"
"242061","353-BY","2018/04/10 20:19:47","新北市新莊區瓊林路206-6號","121.4354","25.0222383333333","6500500","新莊區"
"242039","133-UY","2018/04/10 20:19:46","新北市新莊區成功街62號","121.424431666667","25.0194366666667","6500500","新莊區"
"242048","172-VK","2018/04/10 20:19:54","新北市新莊區龍安路222號","121.420305","25.0198883333333","6500500","新莊區"
"242011","173-VK","2018/04/10 20:19:21","新北市新莊區中信街21號","121.451013333333","25.050685","6500500","新莊區"
"242017","175-VK","2018/04/10 20:19:39","新北市新莊區中港一街97號","121.44916","25.04526","6500500","新莊區"
"242005","176-VK","2018/04/10 20:19:41","新北市新莊區頭前路15巷2號","121.467856666667","25.0521916666667","6500500","新莊區"
"242015","346-TH","2018/04/10 20:19:48","新北市新莊區永樂街237巷2號","121.446295","25.044355","6500500","新莊區"
"242021","348-TH","2018/04/10 20:19:44","新北市新莊區和興街49號","121.446566666667","25.0406716666667","6500500","新莊區"
"242002","349-TH","2018/04/10 20:19:36","新北市新莊區中正路1號","121.465171666667","25.04158","6500500","新莊區"
"242019","350-TH","2018/04/10 20:19:44","新北市新莊區銘德街83號","121.4563","25.0433633333333","6500500","新莊區"
"242013","351-TH","2018/04/10 20:19:57","新北市新莊區中平路270巷7弄58號","121.446328333333","25.0508233333333","6500500","新莊區"
"221008","489-VK","2018/04/10 20:19:39","新北市汐止區康寧街87-2號","121.620045","25.0664316666667","6501100","汐止區"
"221036","130-UY","2018/04/10 20:19:55","新北市汐止區福安街57巷2號","121.663978333333","25.0638083333333","6501100","汐止區"
"221015","131-UY","2018/04/10 20:19:38","新北市汐止區建成路160巷16號","121.66185","25.0739833333333","6501100","汐止區"
"221010","269-BY","2018/04/10 20:19:38","新北市汐止區八連路二段616號","121.624966666667","25.1098266666667","6501100","汐止區"
"221018","277-VK","2018/04/10 20:19:42","新北市汐止區中興路150巷15號","121.63306","25.0650716666667","6501100","汐止區"
"221012","278-VK","2018/04/10 20:19:45","新北市汐止區保新街154號","121.68842","25.06853","6501100","汐止區"
"221023","279-VK","2018/04/10 20:19:46","新北市汐止區明峰街113號","121.631258333333","25.0711166666667","6501100","汐止區"
"221032","280-BY","2018/04/10 20:19:46","新北市汐止區民權街二段70號","121.618968333333","25.04816","6501100","汐止區"
"221027","281-BY","2018/04/10 20:19:46","新北市汐止區大同路二段353號","121.656913333333","25.06723","6501100","汐止區"
"221029","298-VK","2018/04/10 20:19:42","新北市汐止區工建路98號","121.639516666667","25.0636666666667","6501100","汐止區"
"221021","299-VK","2018/04/10 20:19:45","新北市汐止區水源路一段270號","121.654185","25.0586816666667","6501100","汐止區"
"221035","622-UM","2018/04/10 20:19:49","新北市汐止區長江街101-5號","121.658893333333","25.0730633333333","6501100","汐止區"
"221025","623-UM","2018/04/10 20:19:45","新北市汐止區水源路二段30號","121.654846666667","25.05739","6501100","汐止區"
"221038","646-BX","2018/04/10 20:19:48","新北市汐止區忠孝東路428-3號","121.666181666667","25.0720683333333","6501100","汐止區"
"221033","647-BX","2018/04/10 20:19:33","新北市汐止區東勢街201巷2號","121.633765","25.04202","6501100","汐止區"
"221002","707-TV","2018/04/10 20:19:48","新北市汐止區福德三路75號","121.636436666667","25.0691133333333","6501100","汐止區"
"221018","753-BX","2018/04/10 20:19:49","新北市汐止區茄苳路239巷1號","121.671355","25.0684666666667","6501100","汐止區"
"220101","245-BX","2018/04/10 20:19:53","新北市板橋區萬板路516號","121.480571666667","25.02632","6500100","板橋區"
"220103","257-TC","2018/04/10 20:19:40","新北市板橋區陽明街267號","121.462368333333","25.025815","6500100","板橋區"
"220070","282-UM","2018/04/10 20:19:42","新北市板橋區四川路二段237號","121.450945","24.994035","6500100","板橋區"
"220083","286-VK","2018/04/10 20:19:49","新北市板橋區僑中二街106巷8-1號","121.445525","25.0076566666667","6500100","板橋區"
"220081","287-VK","2018/04/10 20:19:47","新北市板橋區僑中一街80巷1弄9號","121.447151666667","25.0119366666667","6500100","板橋區"
"220061","293-UM","2018/04/10 20:19:56","新北市板橋區文華街18號","121.457641666667","25.00056","6500100","板橋區"
"242009","281-VK","2018/04/10 20:19:41","新北市新莊區昌平街1號","121.454741666667","25.05126","6500500","新莊區"
"220092","307-R5","2018/04/10 20:19:45","新北市板橋區民權路117號","121.45873","25.0133816666667","6500100","板橋區"
"242032","280-VK","2018/04/10 20:19:53","新北市新莊區義豐街7號","121.441081666667","25.03461","6500500","新莊區"
"220055","630-UY","2018/04/10 20:19:49","新北市板橋區仁愛路62巷6號","121.45984","24.9989516666667","6500100","板橋區"
"220093","689-BX","2018/04/10 20:19:42","新北市板橋區長江路一段184號","121.461988333333","25.0305933333333","6500100","板橋區"
"220102","KEA-2699","2018/04/10 20:19:40","新北市板橋區縣民大道三段33-1號","121.474428333333","25.0209616666667","6500100","板橋區"
"220089","833-TW","2018/04/10 20:19:37","新北市板橋區四維路137巷17號","121.464358333333","25.0249283333333","6500100","板橋區"
"220097","AAC-210","2018/04/10 20:19:53","新北市板橋區民權路202巷16弄12號","121.461168333333","25.0160033333333","6500100","板橋區"
