"lineid","car","time","location","longitude","latitude","cityid","cityname"
"234066","553-UM","2018/04/10 21:41:33","新北市永和區福和路1號","121.525881666667","25.009635","6500400","永和區"
"247010","341-TH","2018/04/10 22:09:10","新北市八里區荖阡坑路7-2號","121.398378333333","25.141485","6501400","蘆洲區"
"251004","009-UM","2018/04/10 22:09:16","新北市淡水區民族路33號","121.462278333333","25.13589","6501000","淡水區"
"251007","179-VK","2018/04/10 22:09:11","新北市淡水區北新路137號","121.449468333333","25.1788166666667","6501000","淡水區"
"251008","181-VK","2018/04/10 22:09:26","新北市淡水區學府路104號","121.44985","25.1717683333333","6501000","淡水區"
"251010","413-VK","2018/04/10 22:09:29","新北市淡水區沙崙路200號","121.424721666667","25.18393","6501000","淡水區"
"251007","577-R6","2018/04/10 22:09:29","新北市淡水區淡金路二段365號","121.44726","25.1853016666667","6501000","淡水區"
"251011","650-BX","2018/04/10 22:09:19","新北市淡水區水碓街7號","121.443181666667","25.1771383333333","6501000","淡水區"
