"lineid","car","time","location","longitude","latitude","cityid","cityname"
"247010","341-TH","2018/04/10 22:29:30","新北市五股區中興路三段163號","121.449298333333","25.080965","6501400","蘆洲區"
"247005","336-TH","2018/04/10 22:20:34","新北市五股區中興路三段163號","121.449281666667","25.080805","6501400","蘆洲區"
"251004","009-UM","2018/04/10 22:29:16","新北市淡水區民族路33號","121.462271666667","25.135775","6501000","淡水區"
"251007","179-VK","2018/04/10 22:29:31","新北市淡水區北新路186-3號","121.449616666667","25.178795","6501000","淡水區"
"251008","181-VK","2018/04/10 22:29:26","新北市淡水區學府路104號","121.449886666667","25.171765","6501000","淡水區"
"251010","413-VK","2018/04/10 22:29:29","新北市淡水區沙崙路200號","121.424655","25.1838683333333","6501000","淡水區"
