"lineid","car","time","location","longitude","latitude","cityid","cityname"
"248005","653-BX","2018/05/12 08:08:41","新北市五股區明德路12巷3號","121.433313333333","25.07179","6501500","五股區"
"244005","248-BX","2018/05/12 08:08:40","新北市林口區下福里99-2號","121.287251666667","25.1171116666667","6501700","林口區"
"244001","657-BX","2018/05/12 08:08:58","新北市林口區粉寮路一段53號","121.396935","25.0777783333333","6501700","林口區"
"222004","289-BY","2018/05/12 08:08:46","新北市深坑區昇高坑路43號","121.628966666667","24.9975633333333","6501800","深坑區"
"231007","189-VK","2018/05/12 08:08:49","新北市新店區新潭路一段18巷7號","121.522396666667","24.94303","6500600","新店區"
"231008","192-VK","2018/05/12 08:08:52","新北市新店區中興路一段203號","121.54354","24.9656766666667","6500600","新店區"
"235001","611-BX","2018/05/12 08:09:00","新北市中和區圓通路367巷33弄80號","121.495121666667","24.9840233333333","6500300","中和區"
"226005","5620-A6","2018/05/12 08:08:50","新北市平溪區靜安路二段548號","121.746536666667","25.0255533333333","6502400","平溪區"
"226007","7418-A5","2018/05/12 08:08:54","新北市平溪區十分里姜仔坑2號","121.766475","25.0352166666667","6502400","平溪區"
"226003","AGD-0702","2018/05/12 08:08:46","新北市平溪區十分里十分街286號","121.776615","25.0467966666667","6502400","平溪區"
"223006","022-BY","2018/05/12 08:08:53","新北市石碇區石崁1號","121.651698333333","25.0020266666667","6501900","石碇區"
"223001","205-TH","2018/05/12 08:08:59","新北市石碇區北宜路六段塗潭巷2號","121.645383333333","24.9366366666667","6501900","石碇區"
"223008","406-TH","2018/05/12 08:08:45","新北市石碇區靜安路一段266號","121.68402","25.0090633333333","6501900","石碇區"
"223001","592-UM","2018/05/12 08:08:46","新北市石碇區北宜路六段塗潭巷2號","121.645503333333","24.93683","6501900","石碇區"
"223004","660-BX","2018/05/12 08:08:58","新北市石碇區外按11-5號","121.651356666667","24.9993683333333","6501900","石碇區"
"223007","661-BX","2018/05/12 08:08:44","新北市石碇區靜安路一段266號","121.683855","25.0090633333333","6501900","石碇區"
"223005","677-TV","2018/05/12 08:09:00","新北市石碇區外按18-2號","121.651215","24.9994633333333","6501900","石碇區"
"227006","030-BX","2018/05/12 08:08:58","新北市雙溪區牡丹里聖南29號","121.856088333333","25.0512083333333","6502500","雙溪區"
"252004","249-BX","2018/05/12 08:08:48","新北市三芝區興華里車埕15-3號","121.502005","25.1967383333333","6502100","三芝區"
"252007","AAC-283","2018/05/12 08:08:41","新北市三芝區後厝里大片頭83-1號","121.458553333333","25.2450466666667","6502100","三芝區"
"237001","159-UY","2018/05/12 08:09:01","新北市三峽區三樹路199號","121.378088333333","24.9421833333333","6500900","三峽區"
"236011","165-UM","2018/05/12 08:08:55","新北市土城區青雲路585-6號","121.459448333333","24.97139","6501300","土城區"
"236002","339-SR","2018/05/12 08:08:57","新北市土城區中央路四段464號","121.409733333333","24.9503283333333","6501300","土城區"
"236006","498-BY","2018/05/12 08:09:02","新北市土城區永平街51號","121.427838333333","24.9591666666667","6501300","土城區"
"220070","282-UM","2018/05/12 08:08:55","新北市八里區商港路105巷15-1號","121.393236666667","25.1495683333333","6500100","板橋區"
