"lineid","car","time","location","longitude","latitude","cityid","cityname"
"248004","655-BX","2018/05/12 10:51:15","新北市五股區中興路二段83巷26-6號","121.45991","25.0752933333333","6501500","五股區"
"244002","656-BX","2018/05/12 11:09:00","新北市林口區中山路319號","121.383466666667","25.0805733333333","6501700","林口區"
"244001","657-BX","2018/05/12 11:09:01","新北市林口區中山路73號","121.392775","25.07852","6501700","林口區"
"231007","189-VK","2018/05/12 11:08:49","新北市新店區華城路77巷6號","121.5244","24.9457933333333","6500600","新店區"
"231008","192-VK","2018/05/12 11:08:51","新北市新店區頂石厝路8號","121.540915","24.9195933333333","6500600","新店區"
"227006","030-BX","2018/05/12 11:08:58","新北市雙溪區魚行里坤溪8號","121.86632","25.0212466666667","6502500","雙溪區"
"239006","661-UM","2018/05/12 11:08:53","新北市鶯歌區中山路202號","121.3457","24.95704","6500800","鶯歌區"
