"lineid","car","time","location","longitude","latitude","cityid","cityname"
"234044","148-BY","2018/05/12 13:29:05","新北市永和區秀朗路二段131號","121.524565","25.0017066666667","6500400","永和區"
"234005","207-UY","2018/05/12 13:29:07","新北市永和區保平路268巷51弄12號","121.506296666667","25.00644","6500400","永和區"
"234078","298-R6","2018/05/12 13:29:03","新北市永和區福和路5號","121.525045","25.0087516666667","6500400","永和區"
"234036","336-UY","2018/05/12 13:29:06","新北市永和區民樂街30巷2號","121.527531666667","25.00125","6500400","永和區"
"234062","337-UY","2018/05/12 13:29:05","新北市永和區中正路368巷1弄88號","121.520536666667","25.00077","6500400","永和區"
"234084","338-UY","2018/05/12 13:28:55","新北市永和區林森路92號","121.523291666667","25.00371","6500400","永和區"
"234068","552-UM","2018/05/12 13:28:49","新北市永和區警光街12號","121.519698333333","25.0095366666667","6500400","永和區"
"234015","745-BX","2018/05/12 13:28:47","新北市永和區環河西路一段1號","121.51533","25.0180116666667","6500400","永和區"
"234028","746-BX","2018/05/12 13:29:04","新北市永和區四維街44號","121.525211666667","24.9981083333333","6500400","永和區"
"234052","KEA-2590","2018/05/12 13:28:59","新北市永和區永和路二段170號","121.515373333333","25.0130683333333","6500400","永和區"
"234012","KEA-2591","2018/05/12 13:28:47","新北市永和區中山路一段168號","121.509413333333","25.0091816666667","6500400","永和區"
"234060","AAD-866","2018/05/12 13:29:09","新北市永和區中正路548-2號","121.517303333333","25.0054983333333","6500400","永和區"
"234040","862-TW","2018/05/12 13:29:03","新北市永和區水源街39巷25號","121.510728333333","25.0033583333333","6500400","永和區"
"234048","863-TW","2018/05/12 13:28:51","新北市永和區信義路104號","121.512468333333","25.0140433333333","6500400","永和區"
"234025","9371-KE","2018/05/12 13:29:08","新北市永和區中山路一段17巷4弄14號","121.513178333333","25.0102283333333","6500400","永和區"
"234010","9373-KE","2018/05/12 13:29:07","新北市永和區仁愛路141巷5弄12號","121.512291666667","25.0122366666667","6500400","永和區"
"248017","225-UY","2018/05/12 13:29:06","新北市五股區民義路二段52巷15-3號","121.410985","25.1120416666667","6501500","五股區"
"234022","9380-KE","2018/05/12 13:28:56","新北市永和區竹林路91巷47弄3號","121.521165","25.012895","6500400","永和區"
"234076","969-R7","2018/05/12 13:28:58","新北市永和區智光街22號","121.517906666667","24.9992466666667","6500400","永和區"
"234072","AAC-211","2018/05/12 13:29:06","新北市永和區永和路二段105號","121.514973333333","25.0118216666667","6500400","永和區"
"234066","AAC-212","2018/05/12 13:29:03","新北市永和區永貞路360巷8號","121.510571666667","25.0068433333333","6500400","永和區"
"234001","AAC-295","2018/05/12 13:28:56","新北市永和區永和路一段122號","121.51386","25.0077383333333","6500400","永和區"
"244005","248-BX","2018/05/12 13:29:00","新北市林口區文化三路二段181-1號","121.375426666667","25.0821983333333","6501700","林口區"
"231002","002-UM","2018/05/12 13:28:59","新北市新店區環河路64號","121.537161666667","24.9627683333333","6500600","新店區"
"231027","0291-UT","2018/05/12 13:29:04","新北市新店區新店後街90號","121.537648333333","24.9549383333333","6500600","新店區"
"231028","046-UY","2018/05/12 13:29:02","新北市新店區安華路28-1號","121.519635","24.9609133333333","6500600","新店區"
"231001","047-UY","2018/05/12 13:28:52","新北市新店區中央路238號","121.529173333333","24.972225","6500600","新店區"
"231005","106-UY","2018/05/12 13:29:06","新北市新店區北新路一段303號","121.541545","24.9674516666667","6500600","新店區"
"231010","107-UY","2018/05/12 13:28:56","新北市新店區中央路71號","121.532425","24.9767816666667","6500600","新店區"
"231020","108-UY","2018/05/12 13:28:48","新北市新店區永興路88-1號","121.544046666667","24.9337116666667","6500600","新店區"
"231012","187-VK","2018/05/12 13:29:02","新北市新店區北新路一段343號","121.541956666667","24.96889","6500600","新店區"
"231023","KEA-2219","2018/05/12 13:29:07","新北市新店區新店路13號","121.540316666667","24.952855","6500600","新店區"
"231003","268-BY","2018/05/12 13:28:47","新北市新店區秀山路43號","121.531451666667","24.9608216666667","6500600","新店區"
"231018","278-BY","2018/05/12 13:28:49","新北市新店區中央路67號","121.53256","24.97695","6500600","新店區"
"231017","AAD-862","2018/05/12 13:28:58","新北市新店區新烏路一段11巷21號","121.547973333333","24.950845","6500600","新店區"
"231038","3712-VJ","2018/05/12 13:29:04","新北市新店區安華路30巷1號","121.51958","24.9592433333333","6500600","新店區"
"231037","4716-K9","2018/05/12 13:28:54","新北市新店區薏仁坑路31號","121.495026666667","24.961205","6500600","新店區"
"231025","4715-K9","2018/05/12 13:29:01","新北市新店區中央六街58號","121.527858333333","24.97576","6500600","新店區"
"231036","512-UM","2018/05/12 13:28:52","新北市新店區安祥路190巷29號","121.477925","24.95533","6500600","新店區"
"231013","513-UM","2018/05/12 13:28:53","新北市新店區安康路一段94-3號","121.52763","24.9621816666667","6500600","新店區"
"231026","515-UM","2018/05/12 13:29:02","新北市新店區安康路一段107-2號","121.52885","24.9616466666667","6500600","新店區"
"231034","616-UM","2018/05/12 13:29:02","新北市新店區安華路1-1號","121.519483333333","24.9604466666667","6500600","新店區"
"231006","617-UM","2018/05/12 13:29:01","新北市新店區安康路一段50號","121.5302","24.961135","6500600","新店區"
"231030","619-UM","2018/05/12 13:28:51","新北市新店區安華路28-1號","121.519573333333","24.960835","6500600","新店區"
"231035","719-UM","2018/05/12 13:28:56","新北市新店區安一路一段1-1號","121.519563333333","24.9611783333333","6500600","新店區"
"231033","720-UM","2018/05/12 13:29:00","新北市新店區安忠路205巷8號","121.509375","24.9547066666667","6500600","新店區"
"231029","897-TW","2018/05/12 13:28:57","新北市新店區安華路30巷12-1號","121.51831","24.9580266666667","6500600","新店區"
"231004","899-TW","2018/05/12 13:28:50","新北市新店區安康路一段297號","121.52247","24.963715","6500600","新店區"
"231024","AKT-0513","2018/05/12 13:29:07","新北市新店區北新路二段29巷1弄8號","121.54206","24.9722783333333","6500600","新店區"
"235028","005-UY","2018/05/12 13:28:57","新北市中和區圓通路141巷37弄1號","121.499001666667","24.9949633333333","6500300","中和區"
"235027","006-UY","2018/05/12 13:29:03","新北市中和區連城路347巷6弄2號","121.488278333333","24.9953733333333","6500300","中和區"
"235011","031-BX","2018/05/12 13:29:01","新北市中和區南山路320巷11號","121.507496666667","24.9864716666667","6500300","中和區"
"235020","096-UM","2018/05/12 13:29:03","新北市中和區中山路二段586號","121.482423333333","25.00515","6500300","中和區"
"235003","097-UM","2018/05/12 13:29:00","新北市中和區安平路59號","121.509635","24.99497","6500300","中和區"
"235004","150-BY","2018/05/12 13:28:54","新北市中和區保健路50巷66號","121.5093","24.99518","6500300","中和區"
"235022","151-BY","2018/05/12 13:28:46","新北市中和區圓通路369巷156弄39號","121.489383333333","24.9820933333333","6500300","中和區"
"235019","183-VK","2018/05/12 13:29:00","新北市中和區莒光路207號","121.470001666667","24.995655","6500300","中和區"
"235002","185-VK","2018/05/12 13:28:52","新北市中和區立人街14巷49號","121.519021666667","24.99554","6500300","中和區"
"235013","186-VK","2018/05/12 13:29:03","新北市中和區景安路142號","121.50499","24.994025","6500300","中和區"
"235031","255-BX","2018/05/12 13:29:05","新北市中和區新生街220巷15弄1號","121.482938333333","24.998255","6500300","中和區"
"235036","301-VK","2018/05/12 13:28:59","新北市中和區連城路249號","121.49282","24.9967683333333","6500300","中和區"
"235007","352-BY","2018/05/12 13:29:03","新北市中和區景平路275號","121.507855","24.9930683333333","6500300","中和區"
"235032","377-QA","2018/05/12 13:29:00","新北市中和區中正路273-5號","121.49565","24.99323","6500300","中和區"
"235025","378-QA","2018/05/12 13:28:51","新北市中和區民享街93-1號","121.474665","25.00054","6500300","中和區"
"235014","4979-A6","2018/05/12 13:29:00","新北市中和區景新街410巷18弄12號","121.511975","24.9895966666667","6500300","中和區"
"235033","4980-A6","2018/05/12 13:29:00","新北市中和區連城路127巷9-1號","121.496528333333","24.9986266666667","6500300","中和區"
"235006","551-UM","2018/05/12 13:28:55","新北市中和區自立路58巷25弄2號","121.522945","24.9913283333333","6500300","中和區"
"235034","558-UM","2018/05/12 13:28:56","新北市中和區景平路582號","121.501368333333","24.99572","6500300","中和區"
"235009","565-BX","2018/05/12 13:29:08","新北市中和區南山路236巷22弄14號","121.50525","24.989235","6500300","中和區"
"235018","640-BX","2018/05/12 13:28:53","新北市中和區民享街86巷1號","121.474511666667","25.000885","6500300","中和區"
"235024","647-TV","2018/05/12 13:28:56","新北市中和區員山路339號","121.481266666667","25.0015816666667","6500300","中和區"
"235035","783-BX","2018/05/12 13:28:58","新北市中和區板南路472-1號","121.488938333333","25.006475","6500300","中和區"
"235026","800-TS","2018/05/12 13:29:01","新北市中和區景平路756號","121.496388333333","25.0047166666667","6500300","中和區"
"235021","801-TS","2018/05/12 13:29:06","新北市中和區民享街97巷19號","121.475403333333","24.999535","6500300","中和區"
"235005","802-TS","2018/05/12 13:29:07","新北市中和區中和路318號","121.5096","25.0004616666667","6500300","中和區"
"235016","805-TS","2018/05/12 13:29:05","新北市中和區興南路二段133號","121.50525","24.9842033333333","6500300","中和區"
"235012","896-TW","2018/05/12 13:29:04","新北市中和區連城路249-1號","121.493101666667","24.996785","6500300","中和區"
"235017","900-TW","2018/05/12 13:28:56","新北市中和區民享街463號","121.469933333333","24.99268","6500300","中和區"
"235030","911-UM","2018/05/12 13:28:52","新北市中和區中山路二段117號","121.502958333333","25.0037783333333","6500300","中和區"
"235015","157-BY","2018/05/12 13:28:54","新北市中和區興南路二段142巷25弄2號","121.502943333333","24.9837866666667","6500300","中和區"
"235001","AAC-213","2018/05/12 13:28:53","新北市中和區景德街95-1號","121.515563333333","24.991165","6500300","中和區"
"235023","AAC-215","2018/05/12 13:28:55","新北市中和區員山路36巷16-3號","121.484943333333","24.99134","6500300","中和區"
"220013","072-UY","2018/05/12 13:28:58","新北市板橋區縣民大道一段322號","121.461733333333","25.0109733333333","6500100","板橋區"
"247007","056-VK","2018/05/12 13:28:56","新北市五股區工商路8號","121.440788333333","25.0826433333333","6501400","蘆洲區"
"247019","001-UY","2018/05/12 13:29:01","新北市五股區中興路三段163號","121.449343333333","25.0805","6501400","蘆洲區"
"235029","251-BX","2018/05/12 13:29:06","新北市中和區莊敬路49巷10弄15號","121.502328333333","25.005545","6500300","中和區"
"228005","097-TW","2018/05/12 13:29:00","新北市貢寮區美豐里文秀坑8號","121.902583333333","25.0504483333333","6502600","貢寮區"
"228004","212-TW","2018/05/12 13:28:53","新北市貢寮區龍崗里石壁坑街17號","121.910335","24.989465","6502600","貢寮區"
"253003","6232-TK","2018/05/12 13:29:07","新北市石門區石崩山20-2號","121.567108333333","25.2729733333333","6502200","石門區"
"253001","6251-TK","2018/05/12 13:28:58","新北市石門區下員坑21-1號","121.511138333333","25.27716","6502200","石門區"
"253002","637-UY","2018/05/12 13:28:58","新北市石門區九芎林5-3號","121.559901666667","25.269855","6502200","石門區"
"253004","8270-PC","2018/05/12 13:28:52","新北市石門區竹子湖11號","121.617893333333","25.2585666666667","6502200","石門區"
"207002","749-BX","2018/05/12 13:28:56","新北市萬里區崁腳里崁腳路166號","121.645033333333","25.155825","6502800","萬里區"
"252005","073-UM","2018/05/12 13:28:49","新北市三芝區福德里土地公埔66-1號","121.51739","25.2265683333333","6502100","三芝區"
"207001","662-BX","2018/05/12 13:28:57","新北市萬里區野柳里八斗60-1號","121.667125","25.204255","6502800","萬里區"
"236074","166-UM","2018/05/12 13:28:50","新北市土城區城林路6巷80號","121.438661666667","24.9797366666667","6501300","土城區"
"236006","498-BY","2018/05/12 13:29:01","新北市土城區慶祥街66號","121.43641","24.973765","6501300","土城區"
"221012","278-VK","2018/05/12 13:29:06","新北市汐止區大同路一段146巷19號","121.633058333333","25.05358","6501100","汐止區"
"221032","280-BY","2018/05/12 13:28:54","新北市汐止區水源路一段56號","121.657441666667","25.0655883333333","6501100","汐止區"
"220030","610-BX","2018/05/12 13:28:58","新北市板橋區華東街1-10號","121.448278333333","24.9949133333333","6500100","板橋區"
"220019","283-VK","2018/05/12 13:28:51","新北市板橋區華東街1-9號","121.448126666667","24.9949116666667","6500100","板橋區"
"220023","303-R5","2018/05/12 13:28:57","新北市板橋區華東街1-9號","121.448063333333","24.9948766666667","6500100","板橋區"
"220010","305-R5","2018/05/12 13:28:55","新北市板橋區民生路二段120號","121.470366666667","25.0196966666667","6500100","板橋區"
"220012","486-VK","2018/05/12 13:28:52","新北市板橋區南雅南路二段116號","121.452528333333","25.0005066666667","6500100","板橋區"
"220104","560-BX","2018/05/12 13:28:51","新北市板橋區南雅南路二段13號","121.452961666667","24.99943","6500100","板橋區"
"220005","686-BX","2018/05/12 13:28:59","新北市板橋區華東街1-9號","121.448183333333","24.99497","6500100","板橋區"
"220025","687-BX","2018/05/12 13:29:04","新北市板橋區篤行路一段32號","121.431886666667","24.9939683333333","6500100","板橋區"
"220002","741-BX","2018/05/12 13:29:08","新北市板橋區華東街1-9號","121.448156666667","24.9949066666667","6500100","板橋區"
"220014","829-TW","2018/05/12 13:29:05","新北市板橋區民生路二段120號","121.470368333333","25.01976","6500100","板橋區"
"220022","895-R6","2018/05/12 13:29:00","新北市板橋區華東街1-10號","121.448561666667","24.9949","6500100","板橋區"
"220021","985-R7","2018/05/12 13:28:48","新北市板橋區華東街1-10號","121.448323333333","24.99495","6500100","板橋區"
"220018","AAC-253","2018/05/12 13:29:00","新北市板橋區華東街1-9號","121.448265","24.994875","6500100","板橋區"
