"lineid","car","time","location","longitude","latitude","cityid","cityname"
"234044","148-BY","2018/05/12 13:49:05","新北市永和區永利路358號","121.526166666667","25.003345","6500400","永和區"
"234005","207-UY","2018/05/12 13:49:07","新北市永和區永和路一段84號","121.513011666667","25.006725","6500400","永和區"
"234078","298-R6","2018/05/12 13:49:04","新北市永和區永利路81巷21號","121.522248333333","25.003815","6500400","永和區"
"234036","336-UY","2018/05/12 13:48:52","新北市永和區民樂街59巷1號","121.527776666667","24.9984433333333","6500400","永和區"
"234062","337-UY","2018/05/12 13:49:05","新北市永和區中正路370號","121.517625","25.0008733333333","6500400","永和區"
"234084","338-UY","2018/05/12 13:48:55","新北市永和區永亨路9號","121.519408333333","25.0057933333333","6500400","永和區"
"234068","552-UM","2018/05/12 13:48:54","新北市永和區竹林路78號","121.519328333333","25.012785","6500400","永和區"
"234015","745-BX","2018/05/12 13:49:07","新北市永和區文化路17號","121.515081666667","25.014985","6500400","永和區"
"234028","746-BX","2018/05/12 13:49:07","新北市永和區民生路47巷9號","121.523331666667","24.9977966666667","6500400","永和區"
"234052","KEA-2590","2018/05/12 13:48:59","新北市永和區竹林路39巷28弄29號","121.519656666667","25.0143933333333","6500400","永和區"
"234012","KEA-2591","2018/05/12 13:49:03","新北市永和區永平路280號","121.507875","25.0118483333333","6500400","永和區"
"234060","AAD-866","2018/05/12 13:49:08","新北市永和區中正路324號","121.517533333333","24.9995616666667","6500400","永和區"
"234040","862-TW","2018/05/12 13:49:04","新北市永和區中和路389巷2-1號","121.508343333333","25.000425","6500400","永和區"
"234048","863-TW","2018/05/12 13:48:51","新北市永和區保安路75號","121.508625","25.01496","6500400","永和區"
"234010","9373-KE","2018/05/12 13:49:03","新北市永和區保安路151號","121.506873333333","25.012985","6500400","永和區"
"248017","225-UY","2018/05/12 13:49:06","新北市五股區民義路二段22巷21號","121.421271666667","25.09781","6501500","五股區"
"234022","9380-KE","2018/05/12 13:48:59","新北市永和區中正路654巷26號","121.517668333333","25.008575","6500400","永和區"
"234076","969-R7","2018/05/12 13:48:58","新北市永和區民族街37巷1弄2號","121.518966666667","24.9990533333333","6500400","永和區"
"234072","AAC-211","2018/05/12 13:49:05","新北市永和區豫溪街189巷1號","121.522553333333","25.0102716666667","6500400","永和區"
"234066","AAC-212","2018/05/12 13:49:03","新北市永和區永貞路355巷24號","121.508711666667","25.0072783333333","6500400","永和區"
"234001","AAC-295","2018/05/12 13:48:56","新北市永和區永和路一段107號","121.51386","25.007935","6500400","永和區"
"231002","002-UM","2018/05/12 13:48:59","新北市新店區溪園路221號","121.526006666667","24.983845","6500600","新店區"
"231027","0291-UT","2018/05/12 13:49:04","新北市新店區北宜路一段39巷20號","121.538913333333","24.95841","6500600","新店區"
"231028","046-UY","2018/05/12 13:49:08","新北市新店區安和路二段201號","121.51791","24.9751816666667","6500600","新店區"
"231001","047-UY","2018/05/12 13:48:52","新北市新店區三民路62號","121.53512","24.9722066666667","6500600","新店區"
"231005","106-UY","2018/05/12 13:48:46","新北市新店區寶中路116號","121.550016666667","24.9788766666667","6500600","新店區"
"231010","107-UY","2018/05/12 13:48:56","新北市新店區三民路60巷5號","121.535371666667","24.9725233333333","6500600","新店區"
"231020","108-UY","2018/05/12 13:48:48","新北市新店區新烏路二段50巷12弄2號","121.547523333333","24.9274483333333","6500600","新店區"
"231012","187-VK","2018/05/12 13:49:02","新北市新店區德正街27巷29弄36號","121.545761666667","24.9724066666667","6500600","新店區"
"231023","KEA-2219","2018/05/12 13:49:07","新北市新店區國校路51巷1號","121.538103333333","24.95463","6500600","新店區"
"231003","268-BY","2018/05/12 13:49:06","新北市新店區中興路一段161號","121.54247","24.9641783333333","6500600","新店區"
"231018","278-BY","2018/05/12 13:49:09","新北市新店區中正路399巷18號","121.534025","24.9768883333333","6500600","新店區"
"231017","AAD-862","2018/05/12 13:48:58","新北市新店區竹林路72巷15號","121.554091666667","24.95064","6500600","新店區"
"231038","3712-VJ","2018/05/12 13:49:04","新北市新店區安康路一段321巷5號","121.521866666667","24.962655","6500600","新店區"
"231037","4716-K9","2018/05/12 13:48:54","新北市新店區安康路三段355巷41號","121.484976666667","24.9495133333333","6500600","新店區"
"231025","4715-K9","2018/05/12 13:49:01","新北市新店區中正路448-1號","121.533936666667","24.9787783333333","6500600","新店區"
"231036","512-UM","2018/05/12 13:48:52","新北市新店區安祥路110巷37號","121.4733","24.956685","6500600","新店區"
"231013","513-UM","2018/05/12 13:48:55","新北市新店區二十張路25巷18弄2號","121.539221666667","24.98178","6500600","新店區"
"231026","515-UM","2018/05/12 13:49:02","新北市新店區三民路84巷12號","121.534888333333","24.9731516666667","6500600","新店區"
"231034","616-UM","2018/05/12 13:49:02","新北市新店區達觀路14巷3號","121.503213333333","24.94174","6500600","新店區"
"231006","617-UM","2018/05/12 13:49:01","新北市新店區北宜路一段260號","121.545708333333","24.9527366666667","6500600","新店區"
"231030","619-UM","2018/05/12 13:48:51","新北市新店區安康路一段20號","121.531103333333","24.9610733333333","6500600","新店區"
"231035","719-UM","2018/05/12 13:48:56","新北市新店區安忠路205巷8號","121.509923333333","24.9554666666667","6500600","新店區"
"231033","720-UM","2018/05/12 13:49:00","新北市新店區莒光路87巷15號","121.525841666667","24.9534433333333","6500600","新店區"
"231029","897-TW","2018/05/12 13:48:57","新北市新店區安康路二段140號","121.512515","24.96177","6500600","新店區"
"231004","899-TW","2018/05/12 13:48:50","新北市新店區寶橋路69-1號","121.545458333333","24.9750416666667","6500600","新店區"
"231024","AKT-0513","2018/05/12 13:49:07","新北市新店區新生街14號","121.540041666667","24.9661883333333","6500600","新店區"
"235028","005-UY","2018/05/12 13:48:57","新北市中和區景平路545巷8號","121.498068333333","24.9992216666667","6500300","中和區"
"235027","006-UY","2018/05/12 13:49:04","新北市中和區中正路442巷11號","121.49051","24.99477","6500300","中和區"
"235011","031-BX","2018/05/12 13:49:01","新北市中和區興南路二段34巷55號","121.504986666667","24.9864266666667","6500300","中和區"
"235020","096-UM","2018/05/12 13:49:02","新北市中和區中正路1204號","121.48015","25.010645","6500300","中和區"
"235003","097-UM","2018/05/12 13:49:00","新北市中和區景平路278巷16弄8號","121.514246666667","24.9934833333333","6500300","中和區"
"235004","150-BY","2018/05/12 13:48:54","新北市中和區保健路48巷61號","121.50938","24.9959383333333","6500300","中和區"
"235022","151-BY","2018/05/12 13:49:06","新北市中和區員山路111號","121.480866666667","24.9947633333333","6500300","中和區"
"235019","183-VK","2018/05/12 13:49:00","新北市中和區德光路77巷6弄2號","121.469768333333","25.0034733333333","6500300","中和區"
"235002","185-VK","2018/05/12 13:48:52","新北市中和區大勇街43巷8號","121.517535","24.994745","6500300","中和區"
"235013","186-VK","2018/05/12 13:49:02","新北市中和區明義街11巷12弄2號","121.503673333333","24.9946766666667","6500300","中和區"
"235031","255-BX","2018/05/12 13:49:05","新北市中和區新生街266號","121.483456666667","24.9971933333333","6500300","中和區"
"235008","293-VK","2018/05/12 13:49:08","新北市中和區中興街133號","121.49997","24.991505","6500300","中和區"
"235036","301-VK","2018/05/12 13:48:59","新北市中和區中山路二段41號","121.504628333333","25.0050616666667","6500300","中和區"
"235007","352-BY","2018/05/12 13:49:03","新北市中和區秀朗路三段72號","121.526346666667","24.994375","6500300","中和區"
"235032","377-QA","2018/05/12 13:49:00","新北市中和區圓通路297巷11弄12號","121.495683333333","24.991635","6500300","中和區"
"235025","378-QA","2018/05/12 13:48:51","新北市中和區自治街18號","121.47462","25.00301","6500300","中和區"
"235014","4979-A6","2018/05/12 13:49:00","新北市中和區忠孝街62巷32號","121.512911666667","24.9835316666667","6500300","中和區"
"235033","4980-A6","2018/05/12 13:49:00","新北市中和區南山路17號","121.502126666667","24.9991166666667","6500300","中和區"
"235006","551-UM","2018/05/12 13:48:55","新北市中和區秀朗路三段100巷2弄1號","121.525178333333","24.9934133333333","6500300","中和區"
"235034","558-UM","2018/05/12 13:48:56","新北市中和區南山路27號","121.502028333333","24.9989666666667","6500300","中和區"
"235009","565-BX","2018/05/12 13:49:03","新北市中和區捷運路189號","121.505385","24.9913933333333","6500300","中和區"
"235018","640-BX","2018/05/12 13:48:52","新北市中和區民享街58-1號","121.474113333333","25.00225","6500300","中和區"
"235024","647-TV","2018/05/12 13:48:53","新北市中和區中山路三段209號","121.471955","25.00643","6500300","中和區"
"235010","733-UM","2018/05/12 13:49:06","新北市中和區仁愛街36巷45號","121.51136","24.98653","6500300","中和區"
"235035","783-BX","2018/05/12 13:48:58","新北市中和區中山路二段472號","121.488168333333","25.005015","6500300","中和區"
"235026","800-TS","2018/05/12 13:49:09","新北市中和區中山路二段342號","121.493865","25.0024233333333","6500300","中和區"
"235021","801-TS","2018/05/12 13:49:06","新北市中和區民安街25巷11號","121.48053","25.0003333333333","6500300","中和區"
"235005","802-TS","2018/05/12 13:49:07","新北市中和區永貞路290號","121.512938333333","25.0041616666667","6500300","中和區"
"235016","805-TS","2018/05/12 13:49:05","新北市中和區興南路二段399巷37號","121.500743333333","24.9775566666667","6500300","中和區"
"235012","896-TW","2018/05/12 13:49:04","新北市中和區南山路250巷2號","121.507713333333","24.988985","6500300","中和區"
"235017","900-TW","2018/05/12 13:48:56","新北市中和區華福街42巷4號","121.466356666667","24.9962733333333","6500300","中和區"
"235030","911-UM","2018/05/12 13:48:52","新北市中和區水源路18巷3號","121.504098333333","25.003155","6500300","中和區"
"235015","157-BY","2018/05/12 13:48:53","新北市中和區華新街109巷11弄2-4號","121.508751666667","24.9796316666667","6500300","中和區"
"235001","AAC-213","2018/05/12 13:48:53","新北市中和區秀朗路三段177號","121.524366666667","24.99121","6500300","中和區"
"235023","AAC-215","2018/05/12 13:48:55","新北市中和區圓通路385號","121.490171666667","24.9892316666667","6500300","中和區"
"220028","015-TV","2018/05/12 13:49:06","新北市板橋區大觀路二段265巷60弄32號","121.4413","24.9978433333333","6500100","板橋區"
"220013","072-UY","2018/05/12 13:48:58","新北市板橋區漢生東路282號","121.471223333333","25.0090183333333","6500100","板橋區"
"220034","073-UY","2018/05/12 13:48:54","新北市板橋區大智街71巷7弄1號","121.453168333333","25.0146266666667","6500100","板橋區"
"220105","075-UY","2018/05/12 13:49:07","新北市板橋區民生路二段120號","121.470981666667","25.0194633333333","6500100","板橋區"
"220017","AAD-861","2018/05/12 13:48:58","新北市板橋區館前西路19-2號","121.458731666667","25.0067466666667","6500100","板橋區"
"247003","337-TH","2018/05/12 13:48:47","新北市蘆洲區中原路32號","121.459983333333","25.0827533333333","6501400","蘆洲區"
"247005","336-TH","2018/05/12 13:48:59","新北市蘆洲區和平路77號","121.469326666667","25.0790233333333","6501400","蘆洲區"
"247007","056-VK","2018/05/12 13:48:56","新北市蘆洲區永安北路二段76巷18號","121.483123333333","25.0854583333333","6501400","蘆洲區"
"247019","001-UY","2018/05/12 13:49:01","新北市蘆洲區民族路422巷48弄28號","121.474751666667","25.0930866666667","6501400","蘆洲區"
"235029","251-BX","2018/05/12 13:48:55","新北市中和區中山路二段2巷45弄12號","121.501948333333","25.0067216666667","6500300","中和區"
"228005","097-TW","2018/05/12 13:49:00","新北市雙溪區三港里雙澳路100號","121.88917","25.0558983333333","6502600","貢寮區"
"228004","212-TW","2018/05/12 13:41:33","新北市貢寮區龍崗里嵩陽街41號","121.905265","25.0133683333333","6502600","貢寮區"
"253003","6232-TK","2018/05/12 13:49:07","新北市石門區尖子鹿8-1號","121.575241666667","25.279965","6502200","石門區"
"253001","6251-TK","2018/05/12 13:48:58","新北市石門區八甲60-5號","121.526195","25.2712083333333","6502200","石門區"
"253002","637-UY","2018/05/12 13:48:58","新北市石門區尖山湖18號","121.558973333333","25.2470383333333","6502200","石門區"
"253004","8270-PC","2018/05/12 13:48:52","新北市石門區阿里荖47-2號","121.60363","25.2769033333333","6502200","石門區"
"207002","749-BX","2018/05/12 13:48:56","新北市萬里區崁腳里崁腳路166號","121.64505","25.15586","6502800","萬里區"
"252005","073-UM","2018/05/12 13:48:49","新北市三芝區圓山里木屐寮38-2號","121.53093","25.228305","6502100","三芝區"
"207001","662-BX","2018/05/12 13:48:57","新北市萬里區磺潭里清水9號","121.640446666667","25.2000166666667","6502800","萬里區"
"236068","105-UM","2018/05/12 13:49:06","新北市土城區城林路6巷80號","121.438685","24.9796766666667","6501300","土城區"
"236040","107-UM","2018/05/12 13:49:05","新北市土城區城林路6巷80號","121.438456666667","24.979765","6501300","土城區"
"236074","166-UM","2018/05/12 13:48:55","新北市土城區中央路三段140號","121.433223333333","24.9655683333333","6501300","土城區"
"236024","269-VK","2018/05/12 13:48:55","新北市土城區中華路二段2號","121.43946","24.9795733333333","6501300","土城區"
"236013","270-VK","2018/05/12 13:48:56","新北市土城區城林路6巷80號","121.438653333333","24.9797716666667","6501300","土城區"
"236032","271-VK","2018/05/12 13:49:05","新北市土城區城林路6巷80號","121.438603333333","24.9797433333333","6501300","土城區"
"236017","401-BY","2018/05/12 13:49:03","新北市土城區城林路6巷80號","121.438826666667","24.979665","6501300","土城區"
"236006","498-BY","2018/05/12 13:49:01","新北市土城區中央路一段287號","121.44444","24.984505","6501300","土城區"
"236057","912-UM","2018/05/12 13:49:02","新北市土城區中華路二段90號","121.43842","24.9750066666667","6501300","土城區"
"236045","913-UM","2018/05/12 13:48:51","新北市土城區城林路6巷80號","121.438525","24.979625","6501300","土城區"
"236060","915-UM","2018/05/12 13:48:54","新北市土城區城林路6巷80號","121.43845","24.9797233333333","6501300","土城區"
"236054","AAC-216","2018/05/12 13:48:51","新北市土城區城林路6巷80號","121.438468333333","24.979785","6501300","土城區"
"221012","278-VK","2018/05/12 13:49:06","新北市新店區安豐路30-1號","121.50068","24.9569283333333","6501100","汐止區"
"220027","145-BY","2018/05/12 13:49:03","新北市板橋區國光路184號","121.460968333333","25.0183783333333","6500100","板橋區"
"220030","610-BX","2018/05/12 13:48:58","新北市板橋區篤行路三段玉平巷76弄10號","121.427701666667","24.9859016666667","6500100","板橋區"
"220050","245-BX","2018/05/12 13:48:55","新北市板橋區民生路二段188號","121.470143333333","25.0204383333333","6500100","板橋區"
"220052","257-TC","2018/05/12 13:48:56","新北市板橋區民生路二段89-6號","121.470536666667","25.019215","6500100","板橋區"
"220040","267-BY","2018/05/12 13:46:53","新北市板橋區民生路二段188號","121.470241666667","25.020305","6500100","板橋區"
"220004","276-BY","2018/05/12 13:49:03","新北市板橋區信義路16-7號","121.457055","24.9956433333333","6500100","板橋區"
"220020","277-BY","2018/05/12 13:48:50","新北市板橋區大觀路三段50巷103號","121.431098333333","24.99691","6500100","板橋區"
"220019","283-VK","2018/05/12 13:48:51","新北市板橋區重慶路245巷61號","121.465596666667","25.0010116666667","6500100","板橋區"
"220043","285-UM","2018/05/12 13:49:02","新北市板橋區民生路二段161巷3號","121.470216666667","25.0197833333333","6500100","板橋區"
"220001","285-VK","2018/05/12 13:48:50","新北市板橋區民生路二段56-6號","121.470831666667","25.018785","6500100","板橋區"
"220031","286-VK","2018/05/12 13:49:04","新北市板橋區大觀路一段38巷156弄67號","121.442276666667","25.007005","6500100","板橋區"
"220029","287-VK","2018/05/12 13:49:04","新北市板橋區光華街13巷6號","121.45392","25.0115016666667","6500100","板橋區"
"220039","288-VK","2018/05/12 13:48:58","新北市板橋區民生路二段120號","121.470458333333","25.0196716666667","6500100","板橋區"
"220009","293-UM","2018/05/12 13:48:49","新北市板橋區太和街5巷14號","121.473206666667","25.01988","6500100","板橋區"
"220032","296-UM","2018/05/12 13:49:04","新北市板橋區大觀路二段152號","121.441696666667","24.9988233333333","6500100","板橋區"
"220023","303-R5","2018/05/12 13:48:57","新北市板橋區南雅東路89號","121.453253333333","25.00844","6500100","板橋區"
"220010","305-R5","2018/05/12 13:48:55","新北市板橋區中山路二段40巷17號","121.473335","25.0148866666667","6500100","板橋區"
"220041","307-R5","2018/05/12 13:49:08","新北市板橋區民生路二段120號","121.470358333333","25.0197716666667","6500100","板橋區"
"220047","317-R6","2018/05/12 13:49:07","新北市板橋區民生路二段120號","121.470561666667","25.0198883333333","6500100","板橋區"
"220012","486-VK","2018/05/12 13:48:52","新北市板橋區民生路二段36-1號","121.472113333333","25.016755","6500100","板橋區"
"220037","491-VK","2018/05/12 13:48:58","新北市板橋區民生路二段188號","121.469878333333","25.0204233333333","6500100","板橋區"
"220104","560-BX","2018/05/12 13:48:57","新北市板橋區中正路325巷3弄3-1號","121.453726666667","25.0190683333333","6500100","板橋區"
"220011","609-BX","2018/05/12 13:48:55","新北市板橋區民生路二段15-1號","121.472861666667","25.0159083333333","6500100","板橋區"
"220003","630-UY","2018/05/12 13:49:01","新北市板橋區縣民大道二段68-1號","121.463488333333","25.0128516666667","6500100","板橋區"
"220005","686-BX","2018/05/12 13:48:59","新北市板橋區南雅西路一段7巷5號","121.454478333333","25.0038866666667","6500100","板橋區"
"220025","687-BX","2018/05/12 13:49:04","新北市板橋區大觀路三段57號","121.433788333333","24.9954983333333","6500100","板橋區"
"220042","689-BX","2018/05/12 13:48:49","新北市板橋區民生路二段161巷1號","121.470195","25.0199383333333","6500100","板橋區"
"220002","741-BX","2018/05/12 13:49:08","新北市板橋區館前東路23號","121.460361666667","25.0072533333333","6500100","板橋區"
"220051","KEA-2699","2018/05/12 13:48:47","新北市板橋區民生路二段161巷1號","121.47015","25.020005","6500100","板橋區"
"220014","829-TW","2018/05/12 13:49:05","新北市板橋區民生路一段30號","121.47582","25.0130916666667","6500100","板橋區"
"220016","830-TW","2018/05/12 13:49:05","新北市板橋區民生路二段89-6號","121.470715","25.0188616666667","6500100","板橋區"
"220038","833-TW","2018/05/12 13:49:04","新北市板橋區民生路二段188號","121.469988333333","25.02059","6500100","板橋區"
"220022","895-R6","2018/05/12 13:49:00","新北市板橋區府中路29號","121.458866666667","25.0089","6500100","板橋區"
"220021","985-R7","2018/05/12 13:49:08","新北市板橋區府中路65號","121.458263333333","25.0094916666667","6500100","板橋區"
"220046","AAC-210","2018/05/12 13:48:52","新北市板橋區民生路二段184號","121.471028333333","25.020095","6500100","板橋區"
"220018","AAC-253","2018/05/12 13:49:00","新北市板橋區四川路一段65號","121.459621666667","25.0059966666667","6500100","板橋區"
