"lineid","car","time","location","longitude","latitude","cityid","cityname"
"234028","746-BX","2018/05/12 14:49:04","新北市板橋區民生路三段32-6號","121.467168333333","25.0247433333333","6500400","永和區"
"234025","9371-KE","2018/05/12 14:48:48","新北市永和區雙和街52巷1-1號","121.50909","25.003225","6500400","永和區"
"234072","AAC-211","2018/05/12 14:49:05","新北市永和區環河西路二段239號","121.500603333333","25.0100216666667","6500400","永和區"
"231002","002-UM","2018/05/12 14:48:59","新北市新店區民權路63號","121.539173333333","24.9829466666667","6500600","新店區"
"231027","0291-UT","2018/05/12 14:49:03","新北市新店區安和路三段4巷3號","121.519485","24.9810216666667","6500600","新店區"
"231028","046-UY","2018/05/12 14:49:06","新北市新店區安成街38號","121.509865","24.9611916666667","6500600","新店區"
"231001","047-UY","2018/05/12 14:49:00","新北市新店區三民路165號","121.534606666667","24.9746383333333","6500600","新店區"
"231005","106-UY","2018/05/12 14:49:06","新北市新店區復興路2號","121.532495","24.9882783333333","6500600","新店區"
"231020","108-UY","2018/05/12 14:48:48","新北市新店區永福路54號","121.558226666667","24.9286333333333","6500600","新店區"
"231012","187-VK","2018/05/12 14:49:02","新北市新店區寶橋路80號","121.546293333333","24.9753783333333","6500600","新店區"
"231023","KEA-2219","2018/05/12 14:48:47","新北市新店區檳榔路109號","121.544233333333","24.9617083333333","6500600","新店區"
"231003","268-BY","2018/05/12 14:49:06","新北市新店區中興路二段55號","121.546488333333","24.9702816666667","6500600","新店區"
"231018","278-BY","2018/05/12 14:49:09","新北市新店區中央六街6號","121.530268333333","24.9744066666667","6500600","新店區"
"231017","AAD-862","2018/05/12 14:48:58","新北市新店區北宜路三段54號","121.572663333333","24.9509466666667","6500600","新店區"
"231038","3712-VJ","2018/05/12 14:49:03","新北市新店區安一路一段1-1號","121.519523333333","24.961105","6500600","新店區"
"231037","4716-K9","2018/05/12 14:48:53","新北市新店區柴埕路60巷7-2號","121.508881666667","24.9647916666667","6500600","新店區"
"231025","4715-K9","2018/05/12 14:49:01","新北市新店區民族路110號","121.537605","24.97692","6500600","新店區"
"231036","512-UM","2018/05/12 14:49:00","新北市新店區安祥路104巷6弄6號","121.481651666667","24.9627116666667","6500600","新店區"
"231013","513-UM","2018/05/12 14:49:05","新北市新店區北新路二段55號","121.54262","24.9731266666667","6500600","新店區"
"231026","515-UM","2018/05/12 14:49:06","新北市新店區安一路一段1-1號","121.519776666667","24.9612116666667","6500600","新店區"
"231034","616-UM","2018/05/12 14:49:02","新北市新店區安康路二段337-1號","121.498371666667","24.9560366666667","6500600","新店區"
"231006","617-UM","2018/05/12 14:49:01","新北市新店區北宜路一段121-3號","121.54034","24.9538483333333","6500600","新店區"
"231030","619-UM","2018/05/12 14:48:51","新北市新店區安民街254號","121.517673333333","24.97325","6500600","新店區"
"231035","719-UM","2018/05/12 14:48:56","新北市新店區柴埕路52巷1-6號","121.512891666667","24.9647516666667","6500600","新店區"
"231033","720-UM","2018/05/12 14:48:59","新北市新店區安泰路22號","121.485371666667","24.9484183333333","6500600","新店區"
"231029","897-TW","2018/05/12 14:48:57","新北市新店區錦秀路5號","121.479458333333","24.9448366666667","6500600","新店區"
"231004","899-TW","2018/05/12 14:48:53","新北市新店區民族路91號","121.538658333333","24.9777566666667","6500600","新店區"
"231024","AKT-0513","2018/05/12 14:49:07","新北市新店區力行路12號","121.539368333333","24.9646383333333","6500600","新店區"
"235011","031-BX","2018/05/12 14:49:01","新北市中和區和平街110號","121.507088333333","24.9914766666667","6500300","中和區"
"235020","096-UM","2018/05/12 14:45:42","新北市中和區中山路三段114巷68號","121.47588","25.0075916666667","6500300","中和區"
"235003","097-UM","2018/05/12 14:49:00","新北市中和區安平路186號","121.512971666667","24.9990116666667","6500300","中和區"
"235004","150-BY","2018/05/12 14:48:54","新北市中和區安和路39號","121.509663333333","24.9948883333333","6500300","中和區"
"235022","151-BY","2018/05/12 14:49:06","新北市中和區員山路146巷1號","121.481478333333","24.996825","6500300","中和區"
"235019","183-VK","2018/05/12 14:49:00","新北市中和區民德路4號","121.46881","25.0032033333333","6500300","中和區"
"235002","185-VK","2018/05/12 14:48:52","新北市中和區大勇街31巷13弄13號","121.51735","24.99396","6500300","中和區"
"235013","186-VK","2018/05/12 14:49:02","新北市中和區南華路2號","121.502161666667","24.9954333333333","6500300","中和區"
"235031","255-BX","2018/05/12 14:49:05","新北市中和區中正路751巷3弄7號","121.484403333333","24.999405","6500300","中和區"
"235008","293-VK","2018/05/12 14:48:48","新北市中和區南山路325-1號","121.505223333333","24.9910783333333","6500300","中和區"
"235036","301-VK","2018/05/12 14:48:59","新北市中和區中山路二段3巷22弄3號","121.506323333333","25.0052183333333","6500300","中和區"
"235007","352-BY","2018/05/12 14:49:03","新北市中和區安和路91號","121.507456666667","24.995585","6500300","中和區"
"235032","377-QA","2018/05/12 14:49:00","新北市中和區中山路二段252號","121.497533333333","25.0028033333333","6500300","中和區"
"235014","4979-A6","2018/05/12 14:49:00","新北市中和區景平路241巷84弄54號","121.506128333333","24.992405","6500300","中和區"
"235033","4980-A6","2018/05/12 14:49:00","新北市中和區和城路一段271巷1號","121.485443333333","24.9917033333333","6500300","中和區"
"235006","551-UM","2018/05/12 14:48:55","新北市中和區宜安路143號","121.509208333333","24.9984366666667","6500300","中和區"
"235034","558-UM","2018/05/12 14:48:56","新北市中和區景平路517號","121.499166666667","24.998765","6500300","中和區"
"235018","640-BX","2018/05/12 14:48:52","新北市中和區莒光路200號","121.472026666667","24.99835","6500300","中和區"
"235024","647-TV","2018/05/12 14:48:53","新北市中和區新生街30巷26號","121.482356666667","25.003855","6500300","中和區"
"235010","733-UM","2018/05/12 14:49:06","新北市中和區仁愛街112號","121.511648333333","24.987","6500300","中和區"
"235026","800-TS","2018/05/12 14:49:03","新北市中和區中山路二段380-1號","121.491108333333","25.0035866666667","6500300","中和區"
"235021","801-TS","2018/05/12 14:49:06","新北市中和區中正路866-1號","121.484433333333","25.0059083333333","6500300","中和區"
"235005","802-TS","2018/05/12 14:49:07","新北市中和區安平路11號","121.50899","24.9936833333333","6500300","中和區"
"235016","805-TS","2018/05/12 14:49:04","新北市中和區華新街192巷22弄31-4號","121.507268333333","24.983595","6500300","中和區"
"235012","896-TW","2018/05/12 14:49:04","新北市中和區忠孝街105號","121.512005","24.9863966666667","6500300","中和區"
"235017","900-TW","2018/05/12 14:48:56","新北市中和區國光街142巷10號","121.468285","25.0018583333333","6500300","中和區"
"235030","911-UM","2018/05/12 14:48:54","新北市中和區中和路265號","121.505396666667","24.9999166666667","6500300","中和區"
"235015","157-BY","2018/05/12 14:48:53","新北市中和區復興路301巷16號","121.50146","24.98953","6500300","中和區"
"235001","AAC-213","2018/05/12 14:48:53","新北市中和區秀朗路三段142號","121.52436","24.991445","6500300","中和區"
"235023","AAC-215","2018/05/12 14:48:55","新北市中和區圓通路305巷5弄12號","121.493983333333","24.9902666666667","6500300","中和區"
"220028","015-TV","2018/05/12 14:49:06","新北市板橋區大觀路二段69巷9號","121.44698","25.00225","6500100","板橋區"
"220013","072-UY","2018/05/12 14:48:58","新北市板橋區民族路270巷47號","121.469151666667","25.0058016666667","6500100","板橋區"
"220034","073-UY","2018/05/12 14:48:52","新北市板橋區中正路1巷4號","121.455703333333","25.011925","6500100","板橋區"
"220105","075-UY","2018/05/12 14:49:07","新北市板橋區文化路二段650巷19號","121.478153333333","25.0348366666667","6500100","板橋區"
"220017","AAD-861","2018/05/12 14:48:58","新北市板橋區貴興路111號","121.455891666667","25.00251","6500100","板橋區"
"247009","341-TH","2018/05/12 14:49:05","新北市蘆洲區中山二路309號","121.468776666667","25.077335","6501400","蘆洲區"
"247015","007-UY","2018/05/12 14:48:48","新北市蘆洲區和平路207號","121.465938333333","25.0817083333333","6501400","蘆洲區"
"247001","002-UY","2018/05/12 14:48:49","新北市蘆洲區長安街246巷35號","121.458531666667","25.0864416666667","6501400","蘆洲區"
"235029","251-BX","2018/05/12 14:48:55","新北市中和區福祥路58號","121.49935","25.0046966666667","6500300","中和區"
"228005","097-TW","2018/05/12 14:48:59","新北市貢寮區美豐里丹裡街69號","121.905861666667","25.0554466666667","6502600","貢寮區"
"228004","212-TW","2018/05/12 14:48:53","新北市貢寮區福隆里裕隆街3-1號","121.946261666667","25.01592","6502600","貢寮區"
"253003","6232-TK","2018/05/12 14:49:07","新北市石門區尖子鹿87號","121.579045","25.2914383333333","6502200","石門區"
"253001","6251-TK","2018/05/12 14:48:57","新北市石門區崁子腳56號","121.537521666667","25.27433","6502200","石門區"
"253002","637-UY","2018/05/12 14:48:58","新北市石門區崁子腳28-2號","121.540073333333","25.2889383333333","6502200","石門區"
"253004","8270-PC","2018/05/12 14:49:02","新北市石門區茂林社區227-1號","121.59164","25.2704366666667","6502200","石門區"
"207002","749-BX","2018/05/12 14:48:56","新北市萬里區崁腳里崁腳路73號","121.647608333333","25.1596283333333","6502800","萬里區"
"252005","073-UM","2018/05/12 14:49:09","新北市三芝區橫山里大坑98-1號","121.52616","25.2620933333333","6502100","三芝區"
"207001","662-BX","2018/05/12 14:48:16","新北市萬里區雙興里二坪路10號","121.647403333333","25.1755216666667","6502800","萬里區"
"236068","105-UM","2018/05/12 14:49:06","新北市土城區明德路一段371號","121.45296","24.979685","6501300","土城區"
"236040","107-UM","2018/05/12 14:49:05","新北市土城區裕民路114巷1-2號","121.450783333333","24.98626","6501300","土城區"
"236074","166-UM","2018/05/12 14:48:55","新北市土城區中央路四段125巷2弄1號","121.416641666667","24.9572033333333","6501300","土城區"
"236029","253-BX","2018/05/12 14:48:57","新北市土城區忠義路26巷19號","121.4398","24.9698716666667","6501300","土城區"
"236024","269-VK","2018/05/12 14:48:55","新北市土城區慶安街44號","121.441271666667","24.97333","6501300","土城區"
"236013","270-VK","2018/05/12 14:48:56","新北市土城區金城路二段360-2號","121.46178","24.98515","6501300","土城區"
"236032","271-VK","2018/05/12 14:49:05","新北市土城區明德路一段235巷9號","121.463188333333","24.9778516666667","6501300","土城區"
"236017","401-BY","2018/05/12 14:49:03","新北市土城區延吉街251號","121.467736666667","24.9848366666667","6501300","土城區"
"236057","912-UM","2018/05/12 14:49:02","新北市土城區金城路一段131號","121.445111666667","24.973735","6501300","土城區"
"236045","913-UM","2018/05/12 14:48:56","新北市土城區廣福街68巷18弄1號","121.459498333333","24.9905533333333","6501300","土城區"
"236060","915-UM","2018/05/12 14:48:54","新北市土城區延和路177巷24號","121.470188333333","24.990845","6501300","土城區"
"236054","AAC-216","2018/05/12 14:49:11","新北市土城區學府路一段169號","121.452703333333","24.9854083333333","6501300","土城區"
"221002","707-TV","2018/05/12 14:48:59","新北市汐止區新台五路一段97-1號","121.651283333333","25.061495","6501100","汐止區"
"220027","145-BY","2018/05/12 14:49:02","新北市板橋區中正路170號","121.4564","25.0171366666667","6500100","板橋區"
"220030","610-BX","2018/05/12 14:48:58","新北市板橋區金門街247號","121.431991666667","24.9892","6500100","板橋區"
"220050","245-BX","2018/05/12 14:48:55","新北市板橋區縣民大道三段95號","121.475851666667","25.0221083333333","6500100","板橋區"
"220052","257-TC","2018/05/12 14:48:56","新北市板橋區陽明街29巷1弄6號","121.464881666667","25.0215333333333","6500100","板橋區"
"220040","267-BY","2018/05/12 14:48:53","新北市板橋區民治街81巷7號","121.480098333333","25.032295","6500100","板橋區"
"220020","277-BY","2018/05/12 14:48:50","新北市板橋區篤行路二段31號","121.431786666667","24.9926283333333","6500100","板橋區"
"220019","283-VK","2018/05/12 14:48:51","新北市板橋區五權街30巷24弄4號","121.463938333333","24.9933883333333","6500100","板橋區"
"220043","285-UM","2018/05/12 14:49:02","新北市板橋區長江路一段105巷1弄1號","121.459336666667","25.0300566666667","6500100","板橋區"
"220001","285-VK","2018/05/12 14:49:10","新北市板橋區民享街23號","121.475351666667","25.0146133333333","6500100","板橋區"
"220031","286-VK","2018/05/12 14:48:57","新北市板橋區大觀路一段38巷156弄175號","121.443971666667","25.0092716666667","6500100","板橋區"
"220029","287-VK","2018/05/12 14:48:56","新北市板橋區僑中一街80巷6弄1號","121.447726666667","25.0122","6500100","板橋區"
"220039","288-VK","2018/05/12 14:48:58","新北市板橋區龍泉街72巷13號","121.456108333333","25.02627","6500100","板橋區"
"220009","293-UM","2018/05/12 14:49:10","新北市板橋區觀光街5號","121.471856666667","25.0158316666667","6500100","板橋區"
"220032","296-UM","2018/05/12 14:49:04","新北市板橋區板林路158號","121.424436666667","24.9878483333333","6500100","板橋區"
"220023","303-R5","2018/05/12 14:49:03","新北市板橋區金華街10巷48弄26號","121.457938333333","25.0199783333333","6500100","板橋區"
"220010","305-R5","2018/05/12 14:49:05","新北市板橋區光復街33巷35號","121.48251","25.0189533333333","6500100","板橋區"
"220041","307-R5","2018/05/12 14:49:08","新北市板橋區四維路259巷11號","121.462726666667","25.02782","6500100","板橋區"
"220047","317-R6","2018/05/12 14:49:04","新北市板橋區新海路385巷24號","121.457995","25.0255883333333","6500100","板橋區"
"220012","486-VK","2018/05/12 14:48:52","新北市板橋區館前東路82號","121.462063333333","25.0074266666667","6500100","板橋區"
"220037","491-VK","2018/05/12 14:49:08","新北市板橋區仁化街189號","121.478303333333","25.0341683333333","6500100","板橋區"
"220104","560-BX","2018/05/12 14:49:10","新北市板橋區新生街23巷10號","121.456241666667","25.021735","6500100","板橋區"
"220011","609-BX","2018/05/12 14:49:10","新北市板橋區三民路一段31巷82號","121.481111666667","25.0232933333333","6500100","板橋區"
"220003","630-UY","2018/05/12 14:49:01","新北市板橋區仁愛路62巷15弄16-3號","121.460835","24.998595","6500100","板橋區"
"220005","686-BX","2018/05/12 14:49:09","新北市板橋區廣和街79號","121.462648333333","24.992185","6500100","板橋區"
"220025","687-BX","2018/05/12 14:49:04","新北市板橋區僑中一街124巷3弄25號","121.444706666667","25.012215","6500100","板橋區"
"220042","689-BX","2018/05/12 14:49:09","新北市板橋區長江路二段59號","121.46465","25.03138","6500100","板橋區"
"220002","741-BX","2018/05/12 14:48:48","新北市板橋區實踐路93巷86號","121.467078333333","25.0045533333333","6500100","板橋區"
"220051","KEA-2699","2018/05/12 14:49:07","新北市板橋區文化路二段410巷2號","121.47403","25.0314966666667","6500100","板橋區"
"220014","829-TW","2018/05/12 14:49:05","新北市板橋區漢生東路193巷66號","121.473188333333","25.01199","6500100","板橋區"
"220016","830-TW","2018/05/12 14:49:06","新北市板橋區中山路二段412巷29弄19號","121.484696666667","25.0203366666667","6500100","板橋區"
"220045","831-TW","2018/05/12 14:49:07","新北市板橋區莒光路64號","121.471123333333","25.02405","6500100","板橋區"
"220038","833-TW","2018/05/12 14:49:04","新北市板橋區龍泉街94-4號","121.456586666667","25.025125","6500100","板橋區"
"220022","895-R6","2018/05/12 14:49:00","新北市板橋區文化路一段32巷15號","121.459873333333","25.011265","6500100","板橋區"
"220021","985-R7","2018/05/12 14:49:07","新北市板橋區南雅西路二段98-4號","121.45238","25.0115783333333","6500100","板橋區"
"220046","AAC-210","2018/05/12 14:48:55","新北市板橋區文化路一段285巷55號","121.463216666667","25.01982","6500100","板橋區"
"220018","AAC-253","2018/05/12 14:49:00","新北市板橋區成都街87號","121.462898333333","25.005205","6500100","板橋區"
