"lineid","car","time","location","longitude","latitude","cityid","cityname"
"234026","9371-KE","2018/05/12 17:48:55","新北市永和區中山路一段36號","121.51351","25.0105816666667","6500400","永和區"
"234011","9373-KE","2018/05/12 17:47:47","新北市永和區福和路1號","121.525743333333","25.0097466666667","6500400","永和區"
"249005","172-UM","2018/05/12 17:49:08","新北市八里區荖阡坑路34-3號","121.4024","25.1314966666667","6502300","八里區"
"249001","173-UM","2018/05/12 17:48:52","新北市八里區龍米路二段143號","121.444128333333","25.1491516666667","6502300","八里區"
"249004","303-UY","2018/05/12 17:48:54","新北市八里區中華路12-1號","121.416223333333","25.1542833333333","6502300","八里區"
"249002","305-UY","2018/05/12 17:49:09","新北市八里區龍形五街37巷3-1號","121.448803333333","25.1325916666667","6502300","八里區"
"249003","759-BX","2018/05/12 17:49:13","新北市八里區中山路二段119號","121.405441666667","25.1520866666667","6502300","八里區"
"248016","026-BX","2018/05/12 17:48:52","新北市五股區中興路二段83巷26-6號","121.45997","25.0752816666667","6501500","五股區"
"248008","095-VK","2018/05/12 17:49:04","新北市五股區中興路二段37巷28號","121.460203333333","25.0749883333333","6501500","五股區"
"248020","225-UY","2018/05/12 17:49:09","新北市五股區中興路二段83巷26-6號","121.460011666667","25.0751016666667","6501500","五股區"
"248004","655-BX","2018/05/12 17:49:09","新北市五股區中興路二段83巷26-6號","121.459881666667","25.075155","6501500","五股區"
"248002","678-BX","2018/05/12 17:49:03","新北市五股區中興路二段37巷26號","121.46046","25.0748183333333","6501500","五股區"
"232011","375-UM","2018/05/12 17:48:56","新北市坪林區北宜路八段218號","121.708701666667","24.9348166666667","6502000","坪林區"
"244013","069-UM","2018/05/12 17:49:13","新北市林口區中正路453號","121.384371666667","25.0777433333333","6501700","林口區"
"244007","080-UY","2018/05/12 17:49:06","新北市林口區林口路199號","121.38725","25.0825233333333","6501700","林口區"
"244019","403-UM","2018/05/12 17:49:00","新北市林口區麗園路96號","121.37169","25.06828","6501700","林口區"
"244009","410-SL","2018/05/12 17:49:01","新北市林口區寶林路105號","121.383628333333","25.0851833333333","6501700","林口區"
"244023","483-VK","2018/05/12 17:49:07","新北市林口區興林路318巷13號","121.388196666667","25.0704983333333","6501700","林口區"
"244017","485-VK","2018/05/12 17:49:05","新北市林口區文化二路一段260巷4號","121.371195","25.07324","6501700","林口區"
"244011","657-BX","2018/05/12 17:48:53","新北市林口區竹林路33號","121.386546666667","25.077565","6501700","林口區"
"244025","837-TS","2018/05/12 17:48:57","新北市林口區忠孝三路36號","121.360506666667","25.06967","6501700","林口區"
"244021","838-TS","2018/05/12 17:49:03","新北市林口區仁愛路一段167巷71號","121.39709","25.0727933333333","6501700","林口區"
"222003","436-BY","2018/05/12 17:48:54","新北市深坑區阿柔洋60-1號","121.608656666667","24.9985133333333","6501800","深坑區"
"222002","659-BX","2018/05/12 17:49:04","新北市深坑區平埔街22巷8號","121.614916666667","25.0008833333333","6501800","深坑區"
"231046","107-UY","2018/05/12 17:48:53","新北市新店區康雅崙路24號","121.535398333333","24.92679","6500600","新店區"
"241024","065-VK","2018/05/12 17:49:07","新北市三重區國道路一段39巷1號","121.484075","25.0730633333333","6500200","三重區"
"241016","266-UM","2018/05/12 17:49:11","新北市三重區新北大道一段7號","121.48973","25.06134","6500200","三重區"
"241033","AAC-255","2018/05/12 17:49:04","新北市三重區光復路一段11號","121.47215","25.0471816666667","6500200","三重區"
"235038","185-VK","2018/05/12 17:49:10","新北市中和區員山路36巷16-2號","121.485276666667","24.9917816666667","6500300","中和區"
"247024","893-R6","2018/05/12 17:48:56","新北市蘆洲區光榮路65號","121.461193333333","25.088445","6501400","蘆洲區"
"247014","546-UM","2018/05/12 17:48:57","新北市蘆洲區保和街69巷16號","121.469573333333","25.085425","6501400","蘆洲區"
"247022","500-BY","2018/05/12 17:49:09","新北市蘆洲區中正路353號","121.465426666667","25.0897066666667","6501400","蘆洲區"
"247010","341-TH","2018/05/12 17:49:06","新北市蘆洲區民族路31-2號","121.477668333333","25.0849183333333","6501400","蘆洲區"
"247012","339-TH","2018/05/12 17:49:01","新北市蘆洲區復興路132號","121.47671","25.0874783333333","6501400","蘆洲區"
"247004","337-TH","2018/05/12 17:49:08","新北市蘆洲區永康街118號","121.457918333333","25.0852","6501400","蘆洲區"
"247006","336-TH","2018/05/12 17:49:00","新北市蘆洲區長安街7號","121.464306666667","25.0788483333333","6501400","蘆洲區"
"247018","057-VK","2018/05/12 17:47:52","新北市蘆洲區復興路233號","121.480146666667","25.0899","6501400","蘆洲區"
"247008","056-VK","2018/05/12 17:48:59","新北市蘆洲區中山一路211號","121.473935","25.0807333333333","6501400","蘆洲區"
"247016","007-UY","2018/05/12 17:49:06","新北市蘆洲區中正路185巷23弄23號","121.467581666667","25.0840566666667","6501400","蘆洲區"
"247002","002-UY","2018/05/12 17:49:06","新北市蘆洲區永平街32巷21弄15號","121.458535","25.0919716666667","6501400","蘆洲區"
"247020","001-UY","2018/05/12 17:49:06","新北市蘆洲區民義街71巷10號","121.472913333333","25.0904166666667","6501400","蘆洲區"
"228003","097-TW","2018/05/12 17:49:09","新北市貢寮區真理里美艷山街6-2號","121.928895","25.0607333333333","6502600","貢寮區"
"228001","212-TW","2018/05/12 17:49:03","新北市貢寮區仁理村仁愛路95-1號","121.927678333333","25.055425","6502600","貢寮區"
"228002","585-TW","2018/05/12 17:49:05","新北市貢寮區福隆里外隆林街15號","121.958943333333","25.0036233333333","6502600","貢寮區"
"224010","AGQ-8101","2018/05/12 17:48:50","新北市瑞芳區明燈路一段13號","121.82637","25.1092783333333","6501200","瑞芳區"
"224006","676-BX","2018/05/12 17:49:01","新北市瑞芳區傑魚坑路183號","121.788503333333","25.108255","6501200","瑞芳區"
"224008","285-BY","2018/05/12 17:49:05","新北市瑞芳區明燈路一段175號","121.819223333333","25.1077","6501200","瑞芳區"
"224009","273-VK","2018/05/12 17:49:03","新北市瑞芳區山尖路165號","121.85289","25.1130283333333","6501200","瑞芳區"
"224005","271-BY","2018/05/12 17:49:07","新北市瑞芳區建基路一段4-2號","121.820826666667","25.1214016666667","6501200","瑞芳區"
"227010","642-TC","2018/05/12 17:48:59","新北市雙溪區三貂里定福路1-2號","121.850788333333","25.06342","6502500","雙溪區"
"253006","295-VK","2018/05/12 17:49:03","新北市石門區中山路64號","121.567191666667","25.29092","6502200","石門區"
"208003","665-BX","2018/05/12 17:49:13","新北市金山區磺清路135號","121.63939","25.2275966666667","6502700","金山區"
"208001","761-BX","2018/05/12 17:49:08","新北市金山區磺清路108巷2號","121.640001666667","25.2281583333333","6502700","金山區"
"251009","008-UM","2018/05/12 17:49:00","新北市淡水區長興街48號","121.444228333333","25.1716433333333","6501000","淡水區"
"251004","009-UM","2018/05/12 17:49:03","新北市淡水區民權一街25號","121.45903","25.1362766666667","6501000","淡水區"
"251001","011-UM","2018/05/12 17:48:58","新北市淡水區民權路92巷35-1號","121.462095","25.1265183333333","6501000","淡水區"
"251002","012-UM","2018/05/12 17:48:58","新北市淡水區中山路68號","121.443446666667","25.1705533333333","6501000","淡水區"
"251013","KEA-2871","2018/05/12 17:49:04","新北市淡水區泉洲厝31號","121.479611666667","25.19103","6501000","淡水區"
"251014","180-VK","2018/05/12 17:49:00","新北市淡水區公埔子16-6號","121.480993333333","25.2245483333333","6501000","淡水區"
"251008","181-VK","2018/05/12 17:49:00","新北市淡水區八勢路一段133號","121.467235","25.1576566666667","6501000","淡水區"
"251015","182-VK","2018/05/12 17:49:08","新北市淡水區興福寮32-2號","121.491443333333","25.1632683333333","6501000","淡水區"
"251010","413-VK","2018/05/12 17:49:00","新北市淡水區淡海路280巷33弄34-2號","121.41872","25.1886116666667","6501000","淡水區"
"251012","441-VK","2018/05/12 17:49:10","新北市淡水區鄒厝崙33號","121.472085","25.1847583333333","6501000","淡水區"
"251007","442-VK","2018/05/12 17:49:06","新北市淡水區民生路6巷3號","121.460785","25.1376","6501000","淡水區"
"251005","443-VK","2018/05/12 17:49:12","新北市淡水區學府路104號","121.449936666667","25.1718766666667","6501000","淡水區"
"251006","561-UM","2018/05/12 17:49:10","新北市淡水區中山北路一段45巷18號","121.44096","25.1759266666667","6501000","淡水區"
"251016","575-R6","2018/05/12 17:49:03","新北市淡水區埤島39-15號","121.452766666667","25.1958566666667","6501000","淡水區"
"251011","650-BX","2018/05/12 17:44:38","新北市淡水區吳(仔)厝10-3號","121.48138","25.147715","6501000","淡水區"
"251003","766-UM","2018/05/12 17:48:53","新北市淡水區大忠街5巷2號","121.443151666667","25.1763783333333","6501000","淡水區"
"207003","550-UM","2018/05/12 17:48:53","新北市萬里區野柳里東澳路55號","121.692035","25.2032683333333","6502800","萬里區"
"207004","225-TW","2018/05/12 17:49:03","新北市萬里區萬里里瑪鋉頂街66號","121.68895","25.1800816666667","6502800","萬里區"
"252002","178-VK","2018/05/12 17:49:04","新北市三芝區智成街33號","121.503811666667","25.2565716666667","6502100","三芝區"
"252001","292-VK","2018/05/12 17:49:03","新北市三芝區淡金路一段14號","121.499303333333","25.2594833333333","6502100","三芝區"
"237004","KEA-2597","2018/05/12 17:49:11","新北市三峽區中山路286號","121.361103333333","24.9379033333333","6500900","三峽區"
"237011","572-TV","2018/05/12 17:48:57","新北市三峽區光明路69巷2號","121.376085","24.9287416666667","6500900","三峽區"
"237009","210-TH","2018/05/12 17:48:53","新北市三峽區大勇路15號","121.367218333333","24.9368066666667","6500900","三峽區"
"237013","252-BX","2018/05/12 17:49:09","新北市三峽區愛國路33-9號","121.374766666667","24.9328716666667","6500900","三峽區"
"237012","275-BY","2018/05/12 17:48:41","新北市三峽區文化路93號","121.37122","24.9360116666667","6500900","三峽區"
"237008","302-VK","2018/05/12 17:49:05","新北市三峽區中正路二段23號","121.367045","24.9192083333333","6500900","三峽區"
"237014","433-BY","2018/05/12 17:48:57","新北市三峽區文化路120巷21號","121.371025","24.9367666666667","6500900","三峽區"
"237006","5529-G3","2018/05/12 17:49:02","新北市三峽區介壽路二段136巷106弄2號","121.391853333333","24.9332766666667","6500900","三峽區"
"237010","706-TV","2018/05/12 17:48:51","新北市三峽區文化路242號","121.367523333333","24.93586","6500900","三峽區"
"237005","AKY-6261","2018/05/12 17:49:04","新北市三峽區中山路459巷92號","121.353993333333","24.9357916666667","6500900","三峽區"
"236070","105-UM","2018/05/12 17:49:00","新北市土城區青雲路605巷6號","121.459631666667","24.9694683333333","6501300","土城區"
"236042","107-UM","2018/05/12 17:48:57","新北市土城區城林路6巷80號","121.438536666667","24.9797583333333","6501300","土城區"
"236079","166-UM","2018/05/12 17:48:55","新北市土城區中華路二段2號","121.438945","24.9798033333333","6501300","土城區"
"236030","253-BX","2018/05/12 17:48:52","新北市土城區城林路6巷80號","121.43867","24.97969","6501300","土城區"
"236026","269-VK","2018/05/12 17:49:09","新北市土城區中華路二段187號","121.438326666667","24.9745816666667","6501300","土城區"
"236014","270-VK","2018/05/12 17:48:59","新北市土城區城林路6巷80號","121.438511666667","24.9796083333333","6501300","土城區"
"236038","271-VK","2018/05/12 17:49:07","新北市土城區城林路6巷80號","121.438368333333","24.9796466666667","6501300","土城區"
"236021","401-BY","2018/05/12 17:49:03","新北市土城區城林路6巷80號","121.43878","24.9796233333333","6501300","土城區"
"236059","912-UM","2018/05/12 17:49:02","新北市土城區中華路二段90號","121.438451666667","24.97505","6501300","土城區"
"236049","913-UM","2018/05/12 17:49:01","新北市土城區城林路6巷80號","121.43843","24.9796033333333","6501300","土城區"
"236063","915-UM","2018/05/12 17:48:51","新北市土城區城林路6巷80號","121.438503333333","24.9796233333333","6501300","土城區"
"236055","AAC-216","2018/05/12 17:48:54","新北市土城區城林路6巷80號","121.438475","24.9796983333333","6501300","土城區"
"242034","AAC-296","2018/05/12 17:48:55","新北市新莊區新莊路749號","121.442723333333","25.0327616666667","6500500","新莊區"
"242058","986-R7","2018/05/12 17:49:08","新北市新莊區中正路708號","121.416168333333","25.0248216666667","6500500","新莊區"
"242053","751-BX","2018/05/12 17:48:55","新北市新莊區民安西路468-1號","121.431663333333","25.007855","6500500","新莊區"
"242027","615-BX","2018/05/12 17:49:09","新北市新莊區福壽街173號","121.458053333333","25.0539133333333","6500500","新莊區"
"242025","613-BX","2018/05/12 17:48:59","新北市三重區新北大道二段69號","121.468541666667","25.06131","6500500","新莊區"
"242029","612-BX","2018/05/12 17:49:01","新北市新莊區新泰路295號","121.445466666667","25.040885","6500500","新莊區"
"242042","566-BX","2018/05/12 17:48:55","新北市泰山區中山路二段841號","121.425871666667","25.0354","6500500","新莊區"
"242046","497-BY","2018/05/12 17:49:10","新北市新莊區福營路125巷18號","121.433356666667","25.0311916666667","6500500","新莊區"
"242051","441-UM","2018/05/12 17:49:03","新北市新莊區西盛街269巷22號","121.42885","25.0154833333333","6500500","新莊區"
"242056","440-UM","2018/05/12 17:49:01","新北市新莊區瓊林路38巷39號","121.44662","25.0303783333333","6500500","新莊區"
"242007","413-TV","2018/05/12 17:49:12","新北市新莊區福樂街118巷14號","121.457553333333","25.0482133333333","6500500","新莊區"
"242023","362-BY","2018/05/12 17:49:06","新北市新莊區福樂街35號","121.457633333333","25.0469483333333","6500500","新莊區"
"242061","353-BY","2018/05/12 17:49:13","新北市新莊區新樹路545號","121.432885","25.0076583333333","6500500","新莊區"
"242039","133-UY","2018/05/12 17:49:04","新北市新莊區民安路103號","121.424585","25.025095","6500500","新莊區"
"242031","135-UY","2018/05/12 17:49:11","新北市新莊區新泰路357巷3弄17號","121.442295","25.0408233333333","6500500","新莊區"
"242048","172-VK","2018/05/12 17:49:05","新北市新莊區萬安街60巷3號","121.420681666667","25.0235416666667","6500500","新莊區"
"242017","175-VK","2018/05/12 17:48:56","新北市新莊區永安街3號","121.452336666667","25.0447583333333","6500500","新莊區"
"242004","176-VK","2018/05/12 17:49:05","新北市新莊區福樂街32號","121.457841666667","25.04544","6500500","新莊區"
"242015","346-TH","2018/05/12 17:49:11","新北市新莊區新泰路502巷40號","121.443716666667","25.04639","6500500","新莊區"
"242021","347-TH","2018/05/12 17:49:05","新北市新莊區中港路208號","121.454755","25.0425283333333","6500500","新莊區"
"242044","348-TH","2018/05/12 17:49:07","新北市新莊區雙鳳路9號","121.417125","25.0267633333333","6500500","新莊區"
"242036","349-TH","2018/05/12 17:48:57","新北市新莊區後港一路108號","121.428368333333","25.026805","6500500","新莊區"
"242019","350-TH","2018/05/12 17:49:04","新北市新莊區民樂街42號","121.458021666667","25.0413416666667","6500500","新莊區"
"242013","351-TH","2018/05/12 17:48:57","新北市新莊區中誠街168號","121.448118333333","25.0475416666667","6500500","新莊區"
"238015","755-BX","2018/05/12 17:49:06","新北市樹林區樹德街136巷33號","121.420015","24.99425","6500700","樹林區"
"238019","599-UM","2018/05/12 17:49:04","新北市樹林區太平路243號","121.418643333333","24.9756266666667","6500700","樹林區"
"238018","571-TV","2018/05/12 17:49:04","新北市樹林區博愛街155號","121.425571666667","24.9902316666667","6500700","樹林區"
"238021","KEA-2217","2018/05/12 17:48:56","新北市樹林區柑園街一段112號","121.400581666667","24.9586666666667","6500700","樹林區"
"238022","KEA-2213","2018/05/12 17:49:10","新北市樹林區太順街62巷3弄21號","121.416941666667","24.979345","6500700","樹林區"
"238025","303-VK","2018/05/12 17:49:00","新北市樹林區三俊街32號","121.411646666667","25.0154533333333","6500700","樹林區"
"238017","283-BY","2018/05/12 17:48:53","新北市樹林區三德街38號","121.415493333333","25.0131333333333","6500700","樹林區"
"238014","282-BY","2018/05/12 17:49:03","新北市樹林區大安路145巷11號","121.422526666667","24.9965516666667","6500700","樹林區"
"238020","268-VK","2018/05/12 17:48:51","新北市新莊區龍安路254巷18-1號","121.420676666667","25.018415","6500700","樹林區"
"238026","172-UY","2018/05/12 17:49:03","新北市樹林區新興街59號","121.399871666667","24.971355","6500700","樹林區"
"238016","169-UY","2018/05/12 17:49:10","新北市樹林區復興路375號","121.416941666667","24.9868566666667","6500700","樹林區"
"239007","AAC-297","2018/05/12 17:49:10","新北市鶯歌區永樂街36號","121.34192","24.9540033333333","6500800","鶯歌區"
"239006","891-R6","2018/05/12 17:49:01","新北市鶯歌區鶯桃路413巷33號","121.330905","24.9634416666667","6500800","鶯歌區"
"239008","527-UM","2018/05/12 17:49:04","新北市鶯歌區香賓街13巷16號","121.336405","24.9800116666667","6500800","鶯歌區"
"239005","526-UM","2018/05/12 17:48:57","新北市鶯歌區鳳吉四街36號","121.327391666667","24.9728866666667","6500800","鶯歌區"
"239001","417-VK","2018/05/12 17:49:06","新北市鶯歌區中正三路460號","121.321301666667","24.934265","6500800","鶯歌區"
"239003","360-BY","2018/05/12 17:49:08","新北市鶯歌區永吉街41號","121.335631666667","24.95732","6500800","鶯歌區"
"239002","359-BY","2018/05/12 17:49:01","新北市鶯歌區光明街101號","121.34465","24.9556416666667","6500800","鶯歌區"
"239004","193-VK","2018/05/12 17:49:06","新北市鶯歌區文化路136巷38號","121.351303333333","24.9507683333333","6500800","鶯歌區"
"221008","489-VK","2018/05/12 17:48:54","新北市汐止區汐萬路一段329號","121.649893333333","25.0756883333333","6501100","汐止區"
"221036","130-UY","2018/05/12 17:49:01","新北市汐止區汐萬路一段222號","121.65163","25.072925","6501100","汐止區"
"221015","131-UY","2018/05/12 17:49:03","新北市汐止區長江街213號","121.661116666667","25.07739","6501100","汐止區"
"221010","269-BY","2018/05/12 17:49:04","新北市汐止區汐萬路二段109號","121.648318333333","25.0836516666667","6501100","汐止區"
"221012","278-VK","2018/05/12 17:48:57","新北市汐止區長江街194號","121.660496666667","25.0770033333333","6501100","汐止區"
"221023","279-VK","2018/05/12 17:49:05","新北市汐止區民族二街9號","121.63502","25.0709466666667","6501100","汐止區"
"221002","280-BY","2018/05/12 17:49:07","新北市汐止區大同路一段219巷26號","121.633108333333","25.0588883333333","6501100","汐止區"
"221027","281-BY","2018/05/12 17:48:54","新北市汐止區康寧街901號","121.651758333333","25.0749616666667","6501100","汐止區"
"221029","298-VK","2018/05/12 17:49:10","新北市汐止區康寧街901號","121.651683333333","25.074915","6501100","汐止區"
"221031","353-TW","2018/05/12 17:48:57","新北市汐止區中興路39號","121.634598333333","25.0622666666667","6501100","汐止區"
"221035","622-UM","2018/05/12 17:49:11","新北市汐止區汐萬路一段160號","121.652565","25.0715166666667","6501100","汐止區"
"221025","623-UM","2018/05/12 17:49:06","新北市汐止區大同路二段187巷53號","121.652175","25.06639","6501100","汐止區"
"221038","646-BX","2018/05/12 17:49:04","新北市汐止區汐萬路一段312號","121.650465","25.07529","6501100","汐止區"
"221033","647-BX","2018/05/12 17:41:39","新北市汐止區林森街78號","121.623901666667","25.0405666666667","6501100","汐止區"
"221002","707-TV","2018/05/12 17:49:05","新北市汐止區康寧街901號","121.651528333333","25.07497","6501100","汐止區"
"221018","753-BX","2018/05/12 17:49:09","新北市汐止區大同路二段510號","121.66082","25.0682416666667","6501100","汐止區"
"242002","KEA-2550","2018/05/12 17:48:58","新北市新莊區景德路140號","121.451115","25.0341616666667","6500500","新莊區"
"242009","281-VK","2018/05/12 17:49:02","新北市新莊區昌明街30巷3弄2號","121.456745","25.0526666666667","6500500","新莊區"
