"lineid","car","time","location","longitude","latitude","cityid","cityname"
"234026","9371-KE","2018/05/12 17:58:55","新北市永和區永和路一段45-1號","121.512828333333","25.0062833333333","6500400","永和區"
"234011","9373-KE","2018/05/12 17:47:47","新北市永和區福和路1號","121.525743333333","25.0097466666667","6500400","永和區"
"249005","172-UM","2018/05/12 17:59:08","新北市八里區荖阡坑路20-3號","121.397971666667","25.13652","6502300","八里區"
"249001","173-UM","2018/05/12 17:59:12","新北市八里區龍米路二段36號","121.448548333333","25.1400733333333","6502300","八里區"
"249004","303-UY","2018/05/12 17:59:10","新北市八里區龍米路三段46號","121.427878333333","25.1591683333333","6502300","八里區"
"249002","305-UY","2018/05/12 17:59:09","新北市八里區龍米路一段259號","121.450851666667","25.133705","6502300","八里區"
"249003","759-BX","2018/05/12 17:59:13","新北市八里區中華路二段258巷2號","121.405108333333","25.149775","6502300","八里區"
"248016","026-BX","2018/05/12 17:58:52","新北市五股區中興路二段83巷26-6號","121.460061666667","25.0752616666667","6501500","五股區"
"248006","077-UY","2018/05/12 17:59:00","新北市五股區中興路二段37巷28號","121.460113333333","25.07497","6501500","五股區"
"248008","095-VK","2018/05/12 17:59:04","新北市五股區更洲路6號","121.4586","25.0785933333333","6501500","五股區"
"248020","225-UY","2018/05/12 17:59:09","新北市五股區中興路二段83巷26-6號","121.459543333333","25.0753883333333","6501500","五股區"
"248004","655-BX","2018/05/12 17:59:10","新北市五股區中興路二段83巷26-6號","121.459686666667","25.07521","6501500","五股區"
"248002","678-BX","2018/05/12 17:59:03","新北市五股區中興路二段37巷26號","121.4605","25.0747616666667","6501500","五股區"
"232011","375-UM","2018/05/12 17:58:56","新北市坪林區北宜路八段223號","121.70886","24.9349866666667","6502000","坪林區"
"244013","069-UM","2018/05/12 17:59:12","新北市林口區中山路73號","121.392668333333","25.0785233333333","6501700","林口區"
"244007","080-UY","2018/05/12 17:59:06","新北市林口區竹林路265-1號","121.38916","25.0805166666667","6501700","林口區"
"244019","403-UM","2018/05/12 17:59:01","新北市林口區麗園路167號","121.371566666667","25.066895","6501700","林口區"
"244009","410-SL","2018/05/12 17:59:01","新北市林口區林口路297巷11號","121.385593333333","25.0844816666667","6501700","林口區"
"244023","483-VK","2018/05/12 17:59:07","新北市林口區育林街30號","121.385816666667","25.0737116666667","6501700","林口區"
"244017","485-VK","2018/05/12 17:59:05","新北市林口區文化二路一段339號","121.37032","25.0731766666667","6501700","林口區"
"244011","657-BX","2018/05/12 17:59:13","新北市林口區中正路160號","121.392371666667","25.0774833333333","6501700","林口區"
"244025","837-TS","2018/05/12 17:59:04","新北市林口區八德路408號","121.358483333333","25.0659466666667","6501700","林口區"
"244021","838-TS","2018/05/12 17:59:03","新北市林口區新寮47-1號","121.401698333333","25.0656316666667","6501700","林口區"
"222003","436-BY","2018/05/12 17:58:54","新北市深坑區炮子崙24號","121.604751666667","24.9871116666667","6501800","深坑區"
"222002","659-BX","2018/05/12 17:59:04","新北市深坑區平埔街5巷2號","121.61565","25.0011983333333","6501800","深坑區"
"231046","107-UY","2018/05/12 17:59:13","新北市新店區下石厝路18號","121.533315","24.92786","6500600","新店區"
"241024","065-VK","2018/05/12 17:59:07","新北市三重區中正北路193巷33號","121.476173333333","25.0707816666667","6500200","三重區"
"241016","266-UM","2018/05/12 17:59:11","新北市三重區中正北路105號","121.489538333333","25.0633383333333","6500200","三重區"
"241033","AAC-255","2018/05/12 17:59:04","新北市三重區重新路五段561號","121.470448333333","25.0460016666667","6500200","三重區"
"235064","005-UY","2018/05/12 17:59:10","新北市中和區員山路36巷16-3號","121.485018333333","24.9911733333333","6500300","中和區"
"235058","151-BY","2018/05/12 17:59:09","新北市中和區中正路501號","121.48901","24.99353","6500300","中和區"
"235038","185-VK","2018/05/12 17:59:10","新北市中和區景平路287號","121.507288333333","24.9930866666667","6500300","中和區"
"235042","551-UM","2018/05/12 17:58:55","新北市中和區中正路507號","121.488491666667","24.99359","6500300","中和區"
"235054","640-BX","2018/05/12 17:58:57","新北市中和區和城路一段271巷1號","121.48541","24.9916983333333","6500300","中和區"
"235052","805-TS","2018/05/12 17:59:10","新北市中和區員山路36巷16號","121.484438333333","24.991555","6500300","中和區"
"235051","157-BY","2018/05/12 17:58:54","新北市中和區員山路36巷16-3號","121.484676666667","24.9912066666667","6500300","中和區"
"235037","AAC-213","2018/05/12 17:59:09","新北市中和區中正路395號","121.489701666667","24.9936016666667","6500300","中和區"
"247014","546-UM","2018/05/12 17:59:00","新北市蘆洲區忠孝路45號","121.471278333333","25.0860833333333","6501400","蘆洲區"
"247022","500-BY","2018/05/12 17:59:09","新北市蘆洲區中正路516巷12號","121.462443333333","25.0980766666667","6501400","蘆洲區"
"247010","341-TH","2018/05/12 17:59:02","新北市蘆洲區信義路168號","121.479401666667","25.0838133333333","6501400","蘆洲區"
"247012","339-TH","2018/05/12 17:59:01","新北市蘆洲區民族路193號","121.478445","25.0889816666667","6501400","蘆洲區"
"247006","336-TH","2018/05/12 17:59:00","新北市蘆洲區永安南路二段96號","121.463465","25.0780633333333","6501400","蘆洲區"
"247016","007-UY","2018/05/12 17:59:05","新北市蘆洲區中正路185巷59號","121.465226666667","25.0836333333333","6501400","蘆洲區"
"247002","002-UY","2018/05/12 17:59:06","新北市蘆洲區永平街32巷45弄22號","121.458735","25.092915","6501400","蘆洲區"
"247020","001-UY","2018/05/12 17:59:06","新北市蘆洲區民義街35巷14號","121.471521666667","25.089765","6501400","蘆洲區"
"235065","251-BX","2018/05/12 17:58:58","新北市中和區民樂路77號","121.484351666667","25.001355","6500300","中和區"
"228003","097-TW","2018/05/12 17:59:09","新北市貢寮區真理里美艷山街6-2號","121.928895","25.0607116666667","6502600","貢寮區"
"228001","212-TW","2018/05/12 17:59:03","新北市貢寮區真理里新港街26巷53號","121.92827","25.0537266666667","6502600","貢寮區"
"228002","585-TW","2018/05/12 17:59:05","新北市貢寮區福隆里桂安街15號","121.963161666667","25.021035","6502600","貢寮區"
"224010","AGQ-8101","2018/05/12 17:57:10","新北市瑞芳區烏勢巷145號","121.847873333333","25.1090833333333","6501200","瑞芳區"
"224006","676-BX","2018/05/12 17:59:13","新北市瑞芳區傑魚坑路314號","121.78676","25.1054366666667","6501200","瑞芳區"
"224002","639-TC","2018/05/12 17:58:57","新北市瑞芳區三爪子坑路137號","121.810445","25.1066","6501200","瑞芳區"
"224008","285-BY","2018/05/12 17:59:05","新北市瑞芳區明燈路一段45巷83號","121.822008333333","25.104685","6501200","瑞芳區"
"224009","273-VK","2018/05/12 17:59:03","新北市瑞芳區金光路255號","121.850151666667","25.10766","6501200","瑞芳區"
"224005","271-BY","2018/05/12 17:59:07","新北市瑞芳區深澳路18-1號","121.820288333333","25.1330683333333","6501200","瑞芳區"
"227010","642-TC","2018/05/12 17:58:59","新北市雙溪區三貂里定福路1-2號","121.850703333333","25.0634483333333","6502500","雙溪區"
"253005","032-BX","2018/05/12 17:59:08","新北市石門區中山路64-1號","121.567423333333","25.2903083333333","6502200","石門區"
"253006","295-VK","2018/05/12 17:59:03","新北市石門區大丘田45-2號","121.54982","25.2748183333333","6502200","石門區"
"222001","KEA-2212","2018/05/12 17:59:12","新北市深坑區北深路三段34號","121.609116666667","25.0012233333333","6501800","深坑區"
"208002","KEA-2872","2018/05/12 17:59:05","新北市金山區三界壇路61號","121.626858333333","25.2280866666667","6502700","金山區"
"208003","665-BX","2018/05/12 17:59:06","新北市金山區磺港里磺港路304號","121.643796666667","25.2269333333333","6502700","金山區"
"208001","761-BX","2018/05/12 17:59:08","新北市金山區磺港里社寮16-1號","121.639223333333","25.2261966666667","6502700","金山區"
"251009","008-UM","2018/05/12 17:59:00","新北市淡水區大仁街6巷1號","121.442505","25.1746","6501000","淡水區"
"251004","009-UM","2018/05/12 17:59:03","新北市淡水區民權路189號","121.459726666667","25.133375","6501000","淡水區"
"251001","011-UM","2018/05/12 17:58:58","新北市淡水區民權路94巷1號","121.463048333333","25.1247983333333","6501000","淡水區"
"251002","012-UM","2018/05/12 17:58:58","新北市淡水區中正東路34-3號","121.448616666667","25.1659916666667","6501000","淡水區"
"251013","KEA-2871","2018/05/12 17:59:04","新北市淡水區泉洲厝31號","121.479551666667","25.1910116666667","6501000","淡水區"
"251014","180-VK","2018/05/12 17:59:00","新北市淡水區公埔子16-6號","121.480985","25.224545","6501000","淡水區"
"251008","181-VK","2018/05/12 17:59:08","新北市淡水區八勢一街32巷8號","121.46131","25.1562016666667","6501000","淡水區"
"251015","182-VK","2018/05/12 17:59:08","新北市淡水區興福寮66巷539號","121.484553333333","25.165065","6501000","淡水區"
"251010","413-VK","2018/05/12 17:59:00","新北市淡水區中正路一段87巷13弄1號","121.420765","25.17854","6501000","淡水區"
"251012","441-VK","2018/05/12 17:59:10","新北市淡水區北新路三段38巷7號","121.484573333333","25.1869933333333","6501000","淡水區"
"251005","443-VK","2018/05/12 17:58:52","新北市淡水區英專路119號","121.445845","25.1724133333333","6501000","淡水區"
"251006","561-UM","2018/05/12 17:59:10","新北市淡水區真理街2號","121.43875","25.1729866666667","6501000","淡水區"
"251016","575-R6","2018/05/12 17:59:03","新北市淡水區埤島30-14號","121.448223333333","25.1980416666667","6501000","淡水區"
"251011","650-BX","2018/05/12 17:58:58","新北市淡水區三空泉5號","121.476436666667","25.1612933333333","6501000","淡水區"
"251003","766-UM","2018/05/12 17:58:53","新北市淡水區大忠街90號","121.444871666667","25.17634","6501000","淡水區"
"207003","550-UM","2018/05/12 17:58:53","新北市萬里區港東路野柳風景區攤販66號","121.69131","25.2058366666667","6502800","萬里區"
"207004","225-TW","2018/05/12 17:59:03","新北市萬里區中幅里中福路48號","121.683221666667","25.1740083333333","6502800","萬里區"
"252002","178-VK","2018/05/12 17:59:04","新北市三芝區中山路二段43號","121.502983333333","25.255055","6502100","三芝區"
"252001","292-VK","2018/05/12 17:59:03","新北市三芝區中興街一段47號","121.498041666667","25.2573616666667","6502100","三芝區"
"237004","KEA-2597","2018/05/12 17:59:11","新北市三峽區中園街225號","121.366921666667","24.9200183333333","6500900","三峽區"
"237007","153-BY","2018/05/12 17:59:05","新北市三峽區中園街181號","121.367035","24.9215166666667","6500900","三峽區"
"237011","572-TV","2018/05/12 17:58:57","新北市三峽區大同路11-1號","121.377301666667","24.9287733333333","6500900","三峽區"
"237009","210-TH","2018/05/12 17:59:13","新北市三峽區中山路106巷23號","121.36606","24.9364133333333","6500900","三峽區"
"237013","252-BX","2018/05/12 17:59:09","新北市三峽區介壽路一段57-1號","121.375603333333","24.932875","6500900","三峽區"
"237012","275-BY","2018/05/12 17:59:01","新北市三峽區民生街19巷9號","121.376163333333","24.9360366666667","6500900","三峽區"
"237008","302-VK","2018/05/12 17:59:05","新北市三峽區白雞38-19號","121.373371666667","24.9119816666667","6500900","三峽區"
"237014","433-BY","2018/05/12 17:58:57","新北市三峽區復興路101巷1弄79號","121.370921666667","24.937555","6500900","三峽區"
"237006","5529-G3","2018/05/12 17:59:02","新北市三峽區介壽路二段138巷1弄137-1號","121.399506666667","24.9309666666667","6500900","三峽區"
"237010","706-TV","2018/05/12 17:59:11","新北市三峽區民權街169號","121.367976666667","24.9301866666667","6500900","三峽區"
"237005","AKY-6261","2018/05/12 17:59:04","新北市三峽區復興路239-1號","121.368168333333","24.9385366666667","6500900","三峽區"
"236070","105-UM","2018/05/12 17:59:06","新北市土城區石門路36號","121.457696666667","24.9643183333333","6501300","土城區"
"236042","107-UM","2018/05/12 17:58:57","新北市土城區城林路6巷80號","121.438536666667","24.9797533333333","6501300","土城區"
"236079","166-UM","2018/05/12 17:58:55","新北市土城區永寧路41號","121.430083333333","24.9619666666667","6501300","土城區"
"236030","253-BX","2018/05/12 17:59:12","新北市土城區城林路6巷80號","121.43867","24.97969","6501300","土城區"
"236026","269-VK","2018/05/12 17:59:09","新北市土城區承天路18號","121.439463333333","24.9634166666667","6501300","土城區"
"236014","270-VK","2018/05/12 17:58:59","新北市土城區城林路6巷80號","121.438521666667","24.9795366666667","6501300","土城區"
"236038","271-VK","2018/05/12 17:59:07","新北市土城區城林路6巷80號","121.438461666667","24.979745","6501300","土城區"
"236021","401-BY","2018/05/12 17:59:03","新北市土城區城林路6巷80號","121.438751666667","24.97967","6501300","土城區"
"236059","912-UM","2018/05/12 17:59:02","新北市土城區中央路三段244巷5號","121.427825","24.9642016666667","6501300","土城區"
"236049","913-UM","2018/05/12 17:59:01","新北市土城區城林路6巷80號","121.438448333333","24.9796133333333","6501300","土城區"
"236063","915-UM","2018/05/12 17:59:11","新北市土城區城林路6巷80號","121.438515","24.9796066666667","6501300","土城區"
"236055","AAC-216","2018/05/12 17:58:54","新北市土城區城林路6巷80號","121.438495","24.9797383333333","6501300","土城區"
"242034","AAC-296","2018/05/12 17:59:08","新北市新莊區景德路536號","121.443733333333","25.033235","6500500","新莊區"
"242058","986-R7","2018/05/12 17:59:10","新北市新莊區雙鳳路134巷7號","121.412563333333","25.0280383333333","6500500","新莊區"
"242053","751-BX","2018/05/12 17:58:55","新北市新莊區光華街4號","121.428658333333","25.0106633333333","6500500","新莊區"
"242027","615-BX","2018/05/12 17:59:09","新北市新莊區思源路338號","121.459946666667","25.05125","6500500","新莊區"
"242025","613-BX","2018/05/12 17:59:04","新北市新莊區五工路70號","121.458085","25.0634033333333","6500500","新莊區"
"242029","612-BX","2018/05/12 17:59:01","新北市新莊區中平路110巷3號","121.445228333333","25.04607","6500500","新莊區"
"242042","566-BX","2018/05/12 17:58:55","新北市泰山區明志路三段529號","121.420436666667","25.0297783333333","6500500","新莊區"
"242046","497-BY","2018/05/12 17:59:04","新北市新莊區福營路195巷24號","121.431908333333","25.029855","6500500","新莊區"
"242051","441-UM","2018/05/12 17:59:00","新北市新莊區民安西路115號","121.426731666667","25.01789","6500500","新莊區"
"242056","440-UM","2018/05/12 17:59:09","新北市新莊區豐年街128號","121.446471666667","25.0296333333333","6500500","新莊區"
"242007","413-TV","2018/05/12 17:59:11","新北市新莊區福樂街156巷12弄8號","121.456363333333","25.0487483333333","6500500","新莊區"
"242023","362-BY","2018/05/12 17:59:06","新北市新莊區福壽街72號","121.458256666667","25.04931","6500500","新莊區"
"242061","353-BY","2018/05/12 17:59:06","新北市新莊區新樹路287號","121.433963333333","25.0203033333333","6500500","新莊區"
"242039","133-UY","2018/05/12 17:59:04","新北市新莊區民安西路88巷12弄19號","121.425926666667","25.02051","6500500","新莊區"
"242031","135-UY","2018/05/12 17:59:09","新北市新莊區新泰路308號","121.445405","25.0411966666667","6500500","新莊區"
"242048","172-VK","2018/05/12 17:59:05","新北市新莊區萬安街47巷2號","121.421665","25.0244616666667","6500500","新莊區"
"242011","173-VK","2018/05/12 17:59:07","新北市新莊區中港路629-1號","121.450946666667","25.0539533333333","6500500","新莊區"
"242017","175-VK","2018/05/12 17:58:55","新北市新莊區永樂街172號","121.44852","25.0447766666667","6500500","新莊區"
"242004","176-VK","2018/05/12 17:59:05","新北市新莊區福樂街122號","121.457033333333","25.047885","6500500","新莊區"
"242015","346-TH","2018/05/12 17:59:11","新北市新莊區中平路71巷6號","121.444368333333","25.0452366666667","6500500","新莊區"
"242021","347-TH","2018/05/12 17:59:01","新北市新莊區中華路一段8號","121.452036666667","25.03681","6500500","新莊區"
"242044","348-TH","2018/05/12 17:58:59","新北市新莊區雙鳳路135號","121.4129","25.0273083333333","6500500","新莊區"
"242036","349-TH","2018/05/12 17:58:57","新北市新莊區建福路51號","121.426685","25.0275866666667","6500500","新莊區"
"242019","350-TH","2018/05/12 17:59:04","新北市新莊區明中街49巷16號","121.45655","25.03918","6500500","新莊區"
"242013","351-TH","2018/05/12 17:58:57","新北市新莊區中和街125巷8號","121.447063333333","25.048615","6500500","新莊區"
"238015","755-BX","2018/05/12 17:59:01","新北市樹林區文德街2巷17號","121.41971","24.9917983333333","6500700","樹林區"
"238023","601-UM","2018/05/12 17:58:54","新北市樹林區福興街18-1號","121.40419","25.0158583333333","6500700","樹林區"
"238019","599-UM","2018/05/12 17:59:04","新北市樹林區水源街42號","121.425581666667","24.9813616666667","6500700","樹林區"
"238018","571-TV","2018/05/12 17:59:06","新北市樹林區樹新路106巷1號","121.43007","24.9976816666667","6500700","樹林區"
"238021","KEA-2217","2018/05/12 17:58:59","新北市樹林區柑園街一段33巷21號","121.404865","24.95791","6500700","樹林區"
"238022","KEA-2213","2018/05/12 17:59:10","新北市樹林區國凱街21-1號","121.418986666667","24.9782333333333","6500700","樹林區"
"238025","303-VK","2018/05/12 17:59:07","新北市樹林區三俊街121號","121.417608333333","25.0155716666667","6500700","樹林區"
"238017","283-BY","2018/05/12 17:59:13","新北市樹林區三俊街2號","121.410713333333","25.0151916666667","6500700","樹林區"
"238014","282-BY","2018/05/12 17:59:03","新北市樹林區中正路45巷8號","121.426606666667","24.9993033333333","6500700","樹林區"
"238020","268-VK","2018/05/12 17:59:11","新北市樹林區三龍街120號","121.415445","25.0184066666667","6500700","樹林區"
"238026","172-UY","2018/05/12 17:59:03","新北市樹林區中山路三段125-10號","121.397358333333","24.9734633333333","6500700","樹林區"
"238016","169-UY","2018/05/12 17:59:01","新北市樹林區復興路288號","121.417526666667","24.9877683333333","6500700","樹林區"
"239007","AAC-297","2018/05/12 17:59:10","新北市鶯歌區尖山埔路199號","121.345271666667","24.9504716666667","6500800","鶯歌區"
"239006","891-R6","2018/05/12 17:59:01","新北市鶯歌區鶯桃路455巷6弄2號","121.331906666667","24.9647533333333","6500800","鶯歌區"
"239008","527-UM","2018/05/12 17:59:04","新北市鶯歌區朝陽街50巷2號","121.337741666667","24.978025","6500800","鶯歌區"
"239005","526-UM","2018/05/12 17:58:57","新北市鶯歌區鶯桃路658巷135號","121.331836666667","24.9730916666667","6500800","鶯歌區"
"239001","417-VK","2018/05/12 17:59:03","新北市鶯歌區中正三路191號","121.335528333333","24.9393733333333","6500800","鶯歌區"
"239003","360-BY","2018/05/12 17:59:08","新北市鶯歌區鶯桃路334號","121.333908333333","24.9621316666667","6500800","鶯歌區"
"239002","359-BY","2018/05/12 17:59:01","新北市鶯歌區育才街27巷1號","121.349136666667","24.9549166666667","6500800","鶯歌區"
"239004","193-VK","2018/05/12 17:59:06","新北市鶯歌區尖山路101巷13-1號","121.346621666667","24.9424816666667","6500800","鶯歌區"
"221008","489-VK","2018/05/12 17:58:54","新北市汐止區明峰街70-1號","121.632243333333","25.0711833333333","6501100","汐止區"
"221036","130-UY","2018/05/12 17:59:07","新北市汐止區大同路三段56號","121.667558333333","25.0770433333333","6501100","汐止區"
"221015","131-UY","2018/05/12 17:59:03","新北市汐止區長江街309號","121.666126666667","25.0814733333333","6501100","汐止區"
"221010","269-BY","2018/05/12 17:59:04","新北市汐止區汐萬路二段245巷46號","121.644725","25.087745","6501100","汐止區"
"221012","278-VK","2018/05/12 17:58:57","新北市汐止區長興街二段16號","121.672781666667","25.0810666666667","6501100","汐止區"
"221023","279-VK","2018/05/12 17:59:05","新北市汐止區民族六街1巷2號","121.629276666667","25.07069","6501100","汐止區"
"221002","280-BY","2018/05/12 17:59:07","新北市汐止區民權街一段16號","121.621275","25.0533533333333","6501100","汐止區"
"221027","281-BY","2018/05/12 17:58:54","新北市汐止區大同路二段374號","121.657778333333","25.0671083333333","6501100","汐止區"
"221029","298-VK","2018/05/12 17:58:50","新北市汐止區樟樹二路344-1號","121.641618333333","25.07068","6501100","汐止區"
"221031","353-TW","2018/05/12 17:58:57","新北市汐止區中興路169號","121.63087","25.0663283333333","6501100","汐止區"
"221035","622-UM","2018/05/12 17:59:11","新北市汐止區新江北路30巷30弄9號","121.65119","25.0697366666667","6501100","汐止區"
"221025","623-UM","2018/05/12 17:59:06","新北市汐止區仁愛路17號","121.659225","25.0639366666667","6501100","汐止區"
"221038","646-BX","2018/05/12 17:59:06","新北市汐止區連興街128巷7弄8號","121.653488333333","25.0613633333333","6501100","汐止區"
"221033","647-BX","2018/05/12 17:58:59","新北市汐止區合順街39巷5號","121.620645","25.0433866666667","6501100","汐止區"
"221002","707-TV","2018/05/12 17:59:05","新北市汐止區中興路29號","121.634918333333","25.0617216666667","6501100","汐止區"
"221018","753-BX","2018/05/12 17:59:09","新北市汐止區招商街6號","121.666538333333","25.06875","6501100","汐止區"
"242002","KEA-2550","2018/05/12 17:58:58","新北市新莊區中正路153-1號","121.455983333333","25.0367666666667","6500500","新莊區"
"242009","281-VK","2018/05/12 17:59:06","新北市新莊區中華路二段308號","121.45291","25.0540533333333","6500500","新莊區"
