"lineid","car","time","location","longitude","latitude","cityid","cityname"
"234046","148-BY","2018/05/12 18:29:03","新北市永和區福和路1號","121.526515","25.0099266666667","6500400","永和區"
"234007","207-UY","2018/05/12 18:29:04","新北市永和區環河西路二段209巷23號","121.501821666667","25.010075","6500400","永和區"
"234081","298-R6","2018/05/12 18:28:54","新北市永和區林森路6號","121.526635","25.00571","6500400","永和區"
"234086","338-UY","2018/05/12 18:29:00","新北市永和區環河東路二段100號","121.524151666667","25.0102983333333","6500400","永和區"
"234013","KEA-2591","2018/05/12 18:29:11","新北市永和區環河西路一段95巷2-3號","121.511653333333","25.0179116666667","6500400","永和區"
"234042","862-TW","2018/05/12 18:29:11","新北市永和區環河東路二段98號","121.524153333333","25.0103866666667","6500400","永和區"
"234026","9371-KE","2018/05/12 18:28:54","新北市永和區永和路二段22號","121.514775","25.010105","6500400","永和區"
"234011","9373-KE","2018/05/12 18:29:00","新北市永和區保福路二段158巷1號","121.509068333333","25.015005","6500400","永和區"
"249005","172-UM","2018/05/12 18:29:08","新北市八里區中華路三段128號","121.392365","25.135985","6502300","八里區"
"249001","173-UM","2018/05/12 18:29:12","新北市八里區龍米路一段118號","121.453198333333","25.1251816666667","6502300","八里區"
"249004","303-UY","2018/05/12 18:28:54","新北市八里區忠孝路51號","121.428198333333","25.16016","6502300","八里區"
"249002","305-UY","2018/05/12 18:29:09","新北市八里區龍形三街2號","121.450255","25.131835","6502300","八里區"
"248014","025-BX","2018/05/12 18:29:09","新北市五股區明德路7巷8號","121.434861666667","25.07087","6501500","五股區"
"248016","026-BX","2018/05/12 18:29:12","新北市五股區凌雲路一段133巷22號","121.449226666667","25.1016183333333","6501500","五股區"
"248006","077-UY","2018/05/12 18:29:00","新北市五股區四維路55號","121.467188333333","25.07145","6501500","五股區"
"248008","095-VK","2018/05/12 18:29:04","新北市五股區四維路185巷60號","121.462476666667","25.0781383333333","6501500","五股區"
"248020","225-UY","2018/05/12 18:29:09","新北市五股區孝義路80號","121.44972","25.1146916666667","6501500","五股區"
"248010","272-BY","2018/05/12 18:28:54","新北市五股區明德路10號","121.433355","25.07175","6501500","五股區"
"248004","655-BX","2018/05/12 18:29:10","新北市五股區工商路87號","121.437871666667","25.0850283333333","6501500","五股區"
"248002","678-BX","2018/05/12 18:29:03","新北市五股區西雲路116-6號","121.444728333333","25.09359","6501500","五股區"
"248012","682-TV","2018/05/12 18:29:12","新北市五股區御成路112號","121.441573333333","25.0936116666667","6501500","五股區"
"234077","969-R7","2018/05/12 18:29:09","新北市永和區福和路1號","121.526466666667","25.009705","6500400","永和區"
"244013","069-UM","2018/05/12 18:29:12","新北市林口區中山路299號","121.383686666667","25.0795433333333","6501700","林口區"
"244007","080-UY","2018/05/12 18:29:06","新北市林口區後湖11-63號","121.387085","25.0976133333333","6501700","林口區"
"244019","403-UM","2018/05/12 18:29:00","新北市林口區忠孝路589巷5號","121.37509","25.0687366666667","6501700","林口區"
"244009","410-SL","2018/05/12 18:29:01","新北市林口區中華一路69號","121.38045","25.0849716666667","6501700","林口區"
"244023","483-VK","2018/05/12 18:29:07","新北市林口區仁愛路二段62巷11號","121.384198333333","25.0760116666667","6501700","林口區"
"244017","485-VK","2018/05/12 18:29:05","新北市林口區八德路62號","121.365726666667","25.065585","6501700","林口區"
"244011","657-BX","2018/05/12 18:29:13","新北市林口區中山路152號","121.391078333333","25.0787316666667","6501700","林口區"
"244025","837-TS","2018/05/12 18:28:57","新北市林口區南勢街280號","121.357601666667","25.0764433333333","6501700","林口區"
"244021","838-TS","2018/05/12 18:29:03","新北市林口區自強六街8號","121.399853333333","25.07675","6501700","林口區"
"243013","AAD-798","2018/05/12 18:28:59","新北市泰山區明志路三段206巷3號","121.423326666667","25.037965","6501600","泰山區"
"243012","646-TV","2018/05/12 18:28:59","新北市泰山區泰林路二段461號","121.425581666667","25.0640366666667","6501600","泰山區"
"222003","436-BY","2018/05/12 18:29:14","新北市深坑區文山路一段28-1號","121.630815","25.0053633333333","6501800","深坑區"
"222002","659-BX","2018/05/12 18:29:04","新北市深坑區雲鄉路141號","121.622226666667","24.9982016666667","6501800","深坑區"
"231041","002-UM","2018/05/12 18:29:05","新北市新店區安華路28-1號","121.519573333333","24.9608783333333","6500600","新店區"
"231059","046-UY","2018/05/12 18:28:59","新北市新店區安華路28-1號","121.51954","24.9608333333333","6500600","新店區"
"231040","047-UY","2018/05/12 18:29:13","新北市新店區安華路28-1號","121.519356666667","24.9608966666667","6500600","新店區"
"231044","106-UY","2018/05/12 18:29:12","新北市新店區安華路28-1號","121.519723333333","24.9608766666667","6500600","新店區"
"231046","107-UY","2018/05/12 18:29:13","新北市新店區直潭七街60號","121.532253333333","24.9397883333333","6500600","新店區"
"231052","108-UY","2018/05/12 18:29:10","新北市新店區新烏路一段58-1號","121.545913333333","24.9498816666667","6500600","新店區"
"231048","187-VK","2018/05/12 18:28:57","新北市新店區安一路一段1-1號","121.519641666667","24.96111","6500600","新店區"
"231054","KEA-2219","2018/05/12 18:29:13","新北市新店區安一路一段1-1號","121.519731666667","24.96126","6500600","新店區"
"231042","268-BY","2018/05/12 18:28:57","新北市新店區安華路28-1號","121.519906666667","24.9608183333333","6500600","新店區"
"231051","278-BY","2018/05/12 18:29:13","新北市新店區安一路一段1-1號","121.51973","24.9611533333333","6500600","新店區"
"231050","AAD-862","2018/05/12 18:29:09","新北市新店區安一路一段1-1號","121.519761666667","24.9612516666667","6500600","新店區"
"231058","3713-VJ","2018/05/12 18:29:06","新北市新店區環河路7號","121.537981666667","24.9611783333333","6500600","新店區"
"231066","4716-K9","2018/05/12 18:29:03","新北市新店區安一路一段1-1號","121.519423333333","24.9611716666667","6500600","新店區"
"231056","4715-K9","2018/05/12 18:29:10","新北市新店區二十張路105巷16號","121.536885","24.979025","6500600","新店區"
"231067","4772-VM","2018/05/12 18:29:13","新北市新店區安華路1-1號","121.519463333333","24.9604666666667","6500600","新店區"
"231065","512-UM","2018/05/12 18:29:12","新北市新店區安一路一段1-1號","121.519408333333","24.961215","6500600","新店區"
"231049","513-UM","2018/05/12 18:29:10","新北市新店區安一路一段1-1號","121.519665","24.961205","6500600","新店區"
"231057","515-UM","2018/05/12 18:29:10","新北市新店區秀山路14號","121.532655","24.9603466666667","6500600","新店區"
"231063","616-UM","2018/05/12 18:29:12","新北市新店區安華路28-1號","121.519465","24.96058","6500600","新店區"
"231045","617-UM","2018/05/12 18:29:07","新北市新店區安華路28-1號","121.519505","24.96081","6500600","新店區"
"231061","619-UM","2018/05/12 18:29:09","新北市新店區安華路28-1號","121.519608333333","24.96087","6500600","新店區"
"231064","719-UM","2018/05/12 18:29:00","新北市新店區安一路一段1-1號","121.519573333333","24.9611333333333","6500600","新店區"
"231062","720-UM","2018/05/12 18:28:54","新北市新店區安一路一段1-1號","121.519343333333","24.96108","6500600","新店區"
"231060","897-TW","2018/05/12 18:29:08","新北市新店區安華路28-1號","121.519605","24.9608683333333","6500600","新店區"
"231043","899-TW","2018/05/12 18:29:01","新北市新店區安華路28-1號","121.519346666667","24.960825","6500600","新店區"
"231055","AKT-0513","2018/05/12 18:29:13","新北市新店區北新路二段29巷1弄5號","121.542135","24.9722916666667","6500600","新店區"
"235064","005-UY","2018/05/12 18:29:11","新北市中和區連城路139巷66號","121.496795","24.9967866666667","6500300","中和區"
"235063","006-UY","2018/05/12 18:28:58","新北市中和區連城路347巷16弄17號","121.487948333333","24.9950316666667","6500300","中和區"
"235047","031-BX","2018/05/12 18:29:07","新北市中和區南山路320巷8號","121.507511666667","24.9865466666667","6500300","中和區"
"235056","096-UM","2018/05/12 18:28:56","新北市中和區員山路611巷5弄1號","121.477951666667","25.0112533333333","6500300","中和區"
"235039","097-UM","2018/05/12 18:29:12","新北市中和區景安路68號","121.505801666667","24.99667","6500300","中和區"
"235040","150-BY","2018/05/12 18:29:11","新北市中和區安平路38號","121.50987","24.9950133333333","6500300","中和區"
"235058","151-BY","2018/05/12 18:29:09","新北市中和區圓通路369巷30弄16號","121.489526666667","24.9851266666667","6500300","中和區"
"235055","183-VK","2018/05/12 18:29:11","新北市中和區民享街86巷31號","121.472718333333","25.0003283333333","6500300","中和區"
"235038","185-VK","2018/05/12 18:29:10","新北市中和區立人街14巷40弄2號","121.519138333333","24.995525","6500300","中和區"
"235049","186-VK","2018/05/12 18:28:57","新北市中和區中正路2-1號","121.503091666667","24.9935116666667","6500300","中和區"
"235067","255-BX","2018/05/12 18:29:14","新北市中和區新生街28號","121.483188333333","25.00394","6500300","中和區"
"235072","301-VK","2018/05/12 18:28:55","新北市中和區連城路4號","121.499203333333","25.0023866666667","6500300","中和區"
"235043","352-BY","2018/05/12 18:29:12","新北市中和區景平路257號","121.508558333333","24.9929083333333","6500300","中和區"
"235068","377-QA","2018/05/12 18:28:53","新北市中和區圓通路287號","121.49521","24.9928016666667","6500300","中和區"
"235061","378-QA","2018/05/12 18:29:07","新北市中和區民享街97巷14號","121.47519","24.9997016666667","6500300","中和區"
"235050","4979-A6","2018/05/12 18:29:04","新北市中和區景新街362巷5號","121.511965","24.990115","6500300","中和區"
"235069","4980-A6","2018/05/12 18:29:11","新北市中和區連城路127巷23號","121.49694","24.9978766666667","6500300","中和區"
"235042","551-UM","2018/05/12 18:29:15","新北市中和區秀朗路三段150巷23號","121.523373333333","24.9908916666667","6500300","中和區"
"235070","558-UM","2018/05/12 18:28:55","新北市中和區南華路36號","121.503583333333","24.9962633333333","6500300","中和區"
"235045","565-BX","2018/05/12 18:29:03","新北市中和區南山路236巷22弄23號","121.504895","24.989215","6500300","中和區"
"235054","640-BX","2018/05/12 18:28:56","新北市中和區民享街87號","121.474245","25.0016066666667","6500300","中和區"
"235060","647-TV","2018/05/12 18:29:10","新北市中和區員山路451號","121.480608333333","25.004175","6500300","中和區"
"235046","733-UM","2018/05/12 18:29:10","新北市中和區板南路100號","121.503775","24.9923466666667","6500300","中和區"
"235071","783-BX","2018/05/12 18:28:55","新北市中和區員山路36巷16-3號","121.485235","24.9911983333333","6500300","中和區"
"235062","800-TS","2018/05/12 18:29:13","新北市中和區永和路57巷8號","121.496938333333","25.0050533333333","6500300","中和區"
"235057","801-TS","2018/05/12 18:29:04","新北市中和區民享街97巷22號","121.475255","24.9999933333333","6500300","中和區"
"235041","802-TS","2018/05/12 18:29:09","新北市中和區中正路19號","121.502923333333","24.9934233333333","6500300","中和區"
"235052","805-TS","2018/05/12 18:29:10","新北市中和區興南路二段133號","121.505238333333","24.984215","6500300","中和區"
"235048","896-TW","2018/05/12 18:28:58","新北市中和區中正路83號","121.50066","24.99345","6500300","中和區"
"235053","900-TW","2018/05/12 18:28:58","新北市中和區民享街469-1號","121.469848333333","24.992275","6500300","中和區"
"235066","911-UM","2018/05/12 18:29:00","新北市中和區中山路二段118號","121.502563333333","25.0039916666667","6500300","中和區"
"235051","157-BY","2018/05/12 18:29:14","新北市中和區興南路二段142巷37弄1號","121.502211666667","24.9846166666667","6500300","中和區"
"235037","AAC-213","2018/05/12 18:29:09","新北市中和區景德街95號","121.515718333333","24.9913383333333","6500300","中和區"
"235059","AAC-215","2018/05/12 18:28:59","新北市中和區員山路36巷16-3號","121.484988333333","24.9913066666667","6500300","中和區"
"220065","072-UY","2018/05/12 18:28:59","新北市板橋區華興街91巷4號","121.456498333333","25.00511","6500100","板橋區"
"226004","312-R5","2018/05/12 18:29:11","新北市平溪區白石里白石腳211號","121.728158333333","25.022705","6502400","平溪區"
"235065","251-BX","2018/05/12 18:28:58","新北市中和區莊敬路49巷20弄20號","121.502641666667","25.0055816666667","6500300","中和區"
"228003","097-TW","2018/05/12 18:29:09","新北市貢寮區和美里和美街37號","121.912315","25.0872433333333","6502600","貢寮區"
"228001","212-TW","2018/05/12 18:29:03","新北市貢寮區仁理村保健街25號","121.923335","25.049985","6502600","貢寮區"
"228002","585-TW","2018/05/12 18:29:05","新北市貢寮區福連里福連街37號","121.988935","25.0106683333333","6502600","貢寮區"
"224006","676-BX","2018/05/12 18:29:01","新北市瑞芳區明燈路二段60號","121.809673333333","25.1074433333333","6501200","瑞芳區"
"224002","639-TC","2018/05/12 18:28:57","新北市瑞芳區三爪子坑路91巷31號","121.811911666667","25.1063633333333","6501200","瑞芳區"
"224008","285-BY","2018/05/12 18:29:12","新北市瑞芳區岳王路1巷5號","121.806406666667","25.1104","6501200","瑞芳區"
"224007","275-VK","2018/05/12 18:29:01","新北市瑞芳區大埔路國宅新村66號","121.764956666667","25.1004133333333","6501200","瑞芳區"
"224009","273-VK","2018/05/12 18:29:03","新北市瑞芳區五號路128號","121.854938333333","25.110835","6501200","瑞芳區"
"224005","271-BY","2018/05/12 18:29:09","新北市瑞芳區瑞濱路93號","121.82053","25.1207366666667","6501200","瑞芳區"
"227010","642-TC","2018/05/12 18:28:59","新北市雙溪區牡丹里牡丹149號","121.851486666667","25.0589183333333","6502500","雙溪區"
"227002","400-TW","2018/05/12 18:29:05","新北市雙溪區魚行里坤溪21-1號","121.870965","25.027235","6502500","雙溪區"
"253005","032-BX","2018/05/12 18:29:08","新北市石門區老崩山10-4號","121.552726666667","25.2910716666667","6502200","石門區"
"253006","295-VK","2018/05/12 18:27:43","新北市石門區公地20號","121.545771666667","25.2901966666667","6502200","石門區"
"222001","KEA-2212","2018/05/12 18:29:12","新北市深坑區北深路一段199號","121.63043","25.00905","6501800","深坑區"
"208002","KEA-2872","2018/05/12 18:29:05","新北市金山區民生路202號","121.644548333333","25.22242","6502700","金山區"
"208003","665-BX","2018/05/12 18:29:13","新北市金山區中山路16號","121.641693333333","25.2182766666667","6502700","金山區"
"208001","761-BX","2018/05/12 18:29:08","新北市金山區金包里街148號","121.637598333333","25.222625","6502700","金山區"
"251004","009-UM","2018/05/12 18:29:03","新北市淡水區民族路31巷17號","121.462171666667","25.1363683333333","6501000","淡水區"
"251001","011-UM","2018/05/12 18:28:58","新北市淡水區自強路355號","121.464178333333","25.13303","6501000","淡水區"
"251002","012-UM","2018/05/12 18:28:58","新北市淡水區竿蓁二街19巷7弄2號","121.453003333333","25.1636566666667","6501000","淡水區"
"251013","KEA-2871","2018/05/12 18:29:04","新北市淡水區椿子林19-1號","121.480353333333","25.2039783333333","6501000","淡水區"
"251014","180-VK","2018/05/12 18:29:00","新北市淡水區南平20號","121.493761666667","25.216695","6501000","淡水區"
"251008","181-VK","2018/05/12 18:29:08","新北市淡水區北投子86-5號","121.469121666667","25.182155","6501000","淡水區"
"251015","182-VK","2018/05/12 18:29:08","新北市淡水區興福寮88巷216號","121.485938333333","25.166555","6501000","淡水區"
"251010","413-VK","2018/05/12 18:29:00","新北市淡水區沙崙路181巷1號","121.424141666667","25.184225","6501000","淡水區"
"251012","441-VK","2018/05/12 18:28:30","新北市淡水區北投子48號","121.462698333333","25.1821833333333","6501000","淡水區"
"251005","443-VK","2018/05/12 18:29:11","新北市淡水區中正東路3號","121.445318333333","25.16866","6501000","淡水區"
"251006","561-UM","2018/05/12 18:29:10","新北市淡水區中山北路一段230號","121.444851666667","25.180975","6501000","淡水區"
"251016","575-R6","2018/05/12 18:29:03","新北市淡水區下圭柔山70巷4號","121.446358333333","25.207805","6501000","淡水區"
"251011","650-BX","2018/05/12 18:28:58","新北市淡水區中正東路一段3巷2號","121.450376666667","25.1649916666667","6501000","淡水區"
"251003","766-UM","2018/05/12 18:29:13","新北市淡水區北新路169巷35-1號","121.449555","25.180035","6501000","淡水區"
"207003","550-UM","2018/05/12 18:29:13","新北市萬里區野柳里港東路151-2號","121.688403333333","25.2050766666667","6502800","萬里區"
"207004","225-TW","2018/05/12 18:29:03","新北市萬里區萬里里瑪鋉頂街48-1號","121.689206666667","25.1796133333333","6502800","萬里區"
"252002","178-VK","2018/05/12 18:29:04","新北市三芝區中山路二段39號","121.502913333333","25.2551083333333","6502100","三芝區"
"252003","249-BX","2018/05/12 18:29:14","新北市三芝區後厝里北勢子42-1號","121.471953333333","25.2524966666667","6502100","三芝區"
"252001","292-VK","2018/05/12 18:29:03","新北市三芝區中興街一段50號","121.498236666667","25.2566816666667","6502100","三芝區"
"237004","KEA-2597","2018/05/12 18:29:11","新北市三峽區五寮89-10號","121.359275","24.8572366666667","6500900","三峽區"
"237007","153-BY","2018/05/12 18:29:05","新北市三峽區中正路三段170巷34號","121.352605","24.9045966666667","6500900","三峽區"
"237011","572-TV","2018/05/12 18:28:57","新北市三峽區溪東路218巷2-1號","121.40739","24.9322566666667","6500900","三峽區"
"237009","210-TH","2018/05/12 18:28:53","新北市三峽區大同路254號","121.365965","24.9253566666667","6500900","三峽區"
"237013","252-BX","2018/05/12 18:29:09","新北市三峽區光明路69巷25號","121.376646666667","24.92919","6500900","三峽區"
"237012","275-BY","2018/05/12 18:29:01","新北市三峽區三樹路214巷11號","121.379916666667","24.9416716666667","6500900","三峽區"
"237008","302-VK","2018/05/12 18:29:05","新北市三峽區白雞68-225號","121.390676666667","24.908955","6500900","三峽區"
"237014","433-BY","2018/05/12 18:29:07","新北市三峽區和平街57號","121.370091666667","24.9362583333333","6500900","三峽區"
"237006","5529-G3","2018/05/12 18:29:07","新北市三峽區溪東路313號","121.410491666667","24.9306183333333","6500900","三峽區"
"237010","706-TV","2018/05/12 18:29:11","新北市三峽區復興路449號","121.362626666667","24.9384183333333","6500900","三峽區"
"237005","AKY-6261","2018/05/12 18:29:04","新北市三峽區清水街342號","121.370918333333","24.9336883333333","6500900","三峽區"
"236070","105-UM","2018/05/12 18:29:01","新北市土城區永豐路255巷21弄2-1號","121.475031666667","24.9737333333333","6501300","土城區"
"236042","107-UM","2018/05/12 18:28:57","新北市土城區學成路99巷11號","121.449988333333","24.98844","6501300","土城區"
"236079","166-UM","2018/05/12 18:28:55","新北市土城區中央路四段27-1號","121.42463","24.9618166666667","6501300","土城區"
"236030","253-BX","2018/05/12 18:29:12","新北市土城區水源街81巷16號","121.439386666667","24.9759666666667","6501300","土城區"
"236026","269-VK","2018/05/12 18:29:09","新北市土城區南天母路137-2號","121.447595","24.9540433333333","6501300","土城區"
"236014","270-VK","2018/05/12 18:28:59","新北市土城區青雲路39巷7號","121.460285","24.9873966666667","6501300","土城區"
"236038","271-VK","2018/05/12 18:29:07","新北市土城區青雲路451巷2弄2號","121.459026666667","24.9745466666667","6501300","土城區"
"236021","401-BY","2018/05/12 18:29:02","新北市土城區永豐路202巷14號","121.466153333333","24.9835083333333","6501300","土城區"
"236059","912-UM","2018/05/12 18:29:01","新北市土城區中央路四段141號","121.415713333333","24.9571066666667","6501300","土城區"
"236049","913-UM","2018/05/12 18:29:01","新北市土城區青雲路396號","121.458786666667","24.9728883333333","6501300","土城區"
"236063","915-UM","2018/05/12 18:29:11","新北市土城區延壽路77巷6弄12號","121.468406666667","24.993125","6501300","土城區"
"236055","AAC-216","2018/05/12 18:29:03","新北市土城區中華路二段61號","121.439428333333","24.978685","6501300","土城區"
"242058","986-R7","2018/05/12 18:29:08","新北市新莊區中正路897-10號","121.411591666667","25.0216283333333","6500500","新莊區"
"242053","751-BX","2018/05/12 18:28:55","新北市新莊區樹新路120巷47號","121.430173333333","24.995845","6500500","新莊區"
"242025","613-BX","2018/05/12 18:28:39","新北市新莊區新北大道四段209號","121.444656666667","25.0559766666667","6500500","新莊區"
"242042","566-BX","2018/05/12 18:28:55","新北市新莊區天祥街121巷24號","121.414126666667","25.0289333333333","6500500","新莊區"
"242046","497-BY","2018/05/12 18:29:04","新北市新莊區福營路340號","121.421585","25.0267216666667","6500500","新莊區"
"242056","440-UM","2018/05/12 18:29:01","新北市新莊區中環路一段32號","121.442741666667","25.0273666666667","6500500","新莊區"
"242061","353-BY","2018/05/12 18:29:06","新北市新莊區民安路188巷8弄5號","121.424343333333","25.0238166666667","6500500","新莊區"
"242039","133-UY","2018/05/12 18:29:04","新北市樹林區八德街65-2號","121.399998333333","24.9693283333333","6500500","新莊區"
"242031","135-UY","2018/05/12 18:29:09","新北市新莊區新泰路357巷3弄1號","121.442455","25.04134","6500500","新莊區"
"242011","173-VK","2018/05/12 18:03:22","新北市新莊區中榮街56巷12號","121.44927","25.053635","6500500","新莊區"
"242044","348-TH","2018/05/12 18:28:59","新北市新莊區中正路887-36號","121.41567","25.02366","6500500","新莊區"
"238015","755-BX","2018/05/12 18:29:01","新北市樹林區啟智街158號","121.415166666667","24.98732","6500700","樹林區"
"238023","601-UM","2018/05/12 18:28:54","新北市樹林區忠信街15號","121.407651666667","25.0150283333333","6500700","樹林區"
"238018","571-TV","2018/05/12 18:29:04","新北市樹林區樹新路85號","121.427705","24.9953866666667","6500700","樹林區"
"238024","5061-A6","2018/05/12 18:28:29","新北市樹林區中山路一段146號","121.42261","24.9900483333333","6500700","樹林區"
"238025","303-VK","2018/05/12 18:29:00","新北市樹林區大安路531號","121.413608333333","24.985435","6500700","樹林區"
"238017","283-BY","2018/05/12 18:28:53","新北市樹林區光興街50號","121.409805","25.0026783333333","6500700","樹林區"
"238014","282-BY","2018/05/12 18:29:03","新北市樹林區大安路111巷4號","121.423008333333","24.9974633333333","6500700","樹林區"
"238020","268-VK","2018/05/12 18:29:11","新北市樹林區三俊街127號","121.417935","25.015905","6500700","樹林區"
"238026","172-UY","2018/05/12 18:29:03","新北市樹林區八德街828-18號","121.392518333333","24.9693216666667","6500700","樹林區"
"238016","169-UY","2018/05/12 18:29:01","新北市樹林區文化街28號","121.419231666667","24.987695","6500700","樹林區"
"239007","AAC-297","2018/05/12 18:28:50","新北市鶯歌區國慶街20號","121.349523333333","24.9562433333333","6500800","鶯歌區"
"239006","891-R6","2018/05/12 18:29:01","新北市鶯歌區鶯桃路296巷46-3號","121.335801666667","24.9612716666667","6500800","鶯歌區"
"239008","527-UM","2018/05/12 18:29:04","新北市鶯歌區國際一路14號","121.336186666667","24.976545","6500800","鶯歌區"
"239005","526-UM","2018/05/12 18:29:11","新北市鶯歌區鳳吉一街158號","121.328696666667","24.9753366666667","6500800","鶯歌區"
"239001","417-VK","2018/05/12 18:29:03","新北市鶯歌區二甲路17號","121.338605","24.940365","6500800","鶯歌區"
"239003","360-BY","2018/05/12 18:29:08","新北市鶯歌區鶯桃路451-1號","121.332268333333","24.9655966666667","6500800","鶯歌區"
"239002","359-BY","2018/05/12 18:29:01","新北市鶯歌區中正一路259號","121.35485","24.9570666666667","6500800","鶯歌區"
"239004","193-VK","2018/05/12 18:29:06","新北市鶯歌區尖山路293巷13號","121.341586666667","24.9442316666667","6500800","鶯歌區"
"221008","489-VK","2018/05/12 18:28:54","新北市汐止區康寧街901號","121.651431666667","25.07508","6501100","汐止區"
"221036","130-UY","2018/05/12 18:29:01","新北市汐止區南昌街35號","121.662741666667","25.06902","6501100","汐止區"
"221015","131-UY","2018/05/12 18:29:03","新北市汐止區鄉友街46號","121.669085","25.0816366666667","6501100","汐止區"
"221010","269-BY","2018/05/12 18:29:04","新北市汐止區汐萬路三段252巷6號","121.644266666667","25.1046983333333","6501100","汐止區"
"221012","278-VK","2018/05/12 18:28:57","新北市汐止區保長路51巷1號","121.673263333333","25.0788933333333","6501100","汐止區"
"221023","279-VK","2018/05/12 18:29:05","新北市汐止區康寧街534巷18號","121.634493333333","25.0689","6501100","汐止區"
"221032","280-BY","2018/05/12 18:29:07","新北市汐止區福山街62巷4號","121.61805","25.04661","6501100","汐止區"
"221027","281-BY","2018/05/12 18:29:14","新北市汐止區和平街39號","121.662285","25.07066","6501100","汐止區"
"221029","298-VK","2018/05/12 18:26:30","新北市汐止區樟樹二路330巷76號","121.643038333333","25.0700566666667","6501100","汐止區"
"221031","353-TW","2018/05/12 18:28:57","新北市汐止區光復街8巷23-1號","121.637975","25.0571483333333","6501100","汐止區"
"221035","622-UM","2018/05/12 18:29:10","新北市汐止區大同路二段124號","121.651183333333","25.0638833333333","6501100","汐止區"
"221025","623-UM","2018/05/12 18:29:06","新北市汐止區仁愛路124號","121.663021666667","25.0638133333333","6501100","汐止區"
"221038","646-BX","2018/05/12 18:29:04","新北市汐止區汐萬路一段117號","121.6542","25.07101","6501100","汐止區"
"221033","647-BX","2018/05/12 18:29:02","新北市汐止區宜興街30巷1號","121.621881666667","25.041765","6501100","汐止區"
"221002","707-TV","2018/05/12 18:29:05","新北市汐止區福德一路141巷8號","121.636873333333","25.0666366666667","6501100","汐止區"
"221018","753-BX","2018/05/12 18:29:09","新北市汐止區茄苳路224巷3弄6號","121.670858333333","25.0682683333333","6501100","汐止區"
"242002","KEA-2550","2018/05/12 18:28:58","新北市新莊區新泰路255巷83號","121.442275","25.0391433333333","6500500","新莊區"
"220071","283-VK","2018/05/12 18:28:56","新北市板橋區華東街1-9號","121.448146666667","24.9947966666667","6500100","板橋區"
"220083","286-VK","2018/05/12 18:29:09","新北市板橋區華東街1-10號","121.4483","24.994955","6500100","板橋區"
"220081","287-VK","2018/05/12 18:28:58","新北市板橋區華東街1-10號","121.448648333333","24.9950383333333","6500100","板橋區"
"220084","296-UM","2018/05/12 18:28:57","新北市板橋區華東街1-9號","121.448213333333","24.9949316666667","6500100","板橋區"
"220064","486-VK","2018/05/12 18:29:06","新北市板橋區華東街1-10號","121.448393333333","24.9949116666667","6500100","板橋區"
"220035","560-BX","2018/05/12 18:29:13","新北市板橋區南雅南路二段18號","121.454533333333","25.003375","6500100","板橋區"
"220005","686-BX","2018/05/12 18:29:07","新北市板橋區華東街1-10號","121.448266666667","24.9949183333333","6500100","板橋區"
"220077","687-BX","2018/05/12 18:29:07","新北市板橋區華東街1-10號","121.4483","24.994905","6500100","板橋區"
"220074","895-R6","2018/05/12 18:29:02","新北市板橋區華東街1-10號","121.44834","24.9949116666667","6500100","板橋區"
