"lineid","car","time","location","longitude","latitude","cityid","cityname"
"234046","148-BY","2018/05/12 18:49:03","新北市永和區秀朗路二段148巷12弄16號","121.52486","25.00112","6500400","永和區"
"234007","207-UY","2018/05/12 18:49:04","新北市永和區文化路170號","121.511885","25.01557","6500400","永和區"
"234081","298-R6","2018/05/12 18:48:54","新北市永和區永利路112號","121.521225","25.0032416666667","6500400","永和區"
"234038","336-UY","2018/05/12 18:49:02","新北市永和區福和路1號","121.525368333333","25.0096083333333","6500400","永和區"
"234064","337-UY","2018/05/12 18:49:08","新北市永和區福和路1號","121.525503333333","25.009595","6500400","永和區"
"234086","338-UY","2018/05/12 18:49:08","新北市永和區中正路7號","121.514013333333","24.9956166666667","6500400","永和區"
"234017","745-BX","2018/05/12 18:49:04","新北市永和區永和路二段405巷3號","121.515246666667","25.0170566666667","6500400","永和區"
"234030","746-BX","2018/05/12 18:48:59","新北市永和區得和路321號","121.52337","24.9995633333333","6500400","永和區"
"234054","KEA-2590","2018/05/12 18:49:02","新北市永和區環河東路二段92號","121.524338333333","25.0106266666667","6500400","永和區"
"234013","KEA-2591","2018/05/12 18:49:11","新北市永和區保福路二段133巷32號","121.508931666667","25.013405","6500400","永和區"
"234061","AAD-866","2018/05/12 18:49:02","新北市永和區福和路311-1號","121.516186666667","25.00699","6500400","永和區"
"234042","862-TW","2018/05/12 18:49:11","新北市永和區永貞路267號","121.511775","25.0047683333333","6500400","永和區"
"234050","863-TW","2018/05/12 18:49:01","新北市永和區豫溪街217巷19號","121.524848333333","25.010205","6500400","永和區"
"234011","9373-KE","2018/05/12 18:49:00","新北市永和區文化路126巷1號","121.51302","25.0154566666667","6500400","永和區"
"249005","172-UM","2018/05/12 18:49:08","新北市八里區長道坑16-1號","121.395243333333","25.11704","6502300","八里區"
"249001","173-UM","2018/05/12 18:49:11","新北市八里區龍米路二段56號","121.44828","25.140825","6502300","八里區"
"249004","303-UY","2018/05/12 18:49:06","新北市八里區中山路一段268巷28號","121.414621666667","25.160665","6502300","八里區"
"248016","026-BX","2018/05/12 18:49:12","新北市五股區凌雲路一段133巷5號","121.449383333333","25.1017983333333","6501500","五股區"
"248006","077-UY","2018/05/12 18:49:00","新北市五股區中興路一段171巷63號","121.46552","25.0705633333333","6501500","五股區"
"248008","095-VK","2018/05/12 18:49:04","新北市五股區中興路一段151巷1弄2號","121.464963333333","25.0730416666667","6501500","五股區"
"248020","225-UY","2018/05/12 18:49:09","新北市五股區凌雲路三段田埔巷13號","121.43548","25.1208733333333","6501500","五股區"
"248010","272-BY","2018/05/12 18:49:14","新北市五股區水碓二路21號","121.429818333333","25.072045","6501500","五股區"
"248004","655-BX","2018/05/12 18:49:10","新北市五股區民義路二段23-3號","121.417536666667","25.09849","6501500","五股區"
"248002","678-BX","2018/05/12 18:49:03","新北市五股區成泰路三段435巷16號","121.449483333333","25.0981","6501500","五股區"
"248012","682-TV","2018/05/12 18:49:12","新北市五股區成泰路二段147巷34-7號","121.436428333333","25.089005","6501500","五股區"
"234023","9380-KE","2018/05/12 18:49:08","新北市永和區竹林路119巷26號","121.52119","25.0117816666667","6500400","永和區"
"234077","969-R7","2018/05/12 18:49:09","新北市永和區中正路194號","121.515498333333","24.997205","6500400","永和區"
"234074","AAC-211","2018/05/12 18:49:13","新北市永和區福和路1號","121.526251666667","25.0096983333333","6500400","永和區"
"234003","AAC-295","2018/05/12 18:48:58","新北市永和區中正路644號","121.516916666667","25.0083383333333","6500400","永和區"
"232011","375-UM","2018/05/12 18:49:06","新北市坪林區坪林街79號","121.71157","24.9371366666667","6502000","坪林區"
"244013","069-UM","2018/05/12 18:48:52","新北市林口區文化一路一段166號","121.37629","25.0734583333333","6501700","林口區"
"244007","080-UY","2018/05/12 18:49:06","新北市林口區太平里2鄰9號","121.38001","25.114165","6501700","林口區"
"244019","403-UM","2018/05/12 18:48:41","新北市林口區麗園二街23巷88號","121.380628333333","25.0702383333333","6501700","林口區"
"244009","410-SL","2018/05/12 18:49:01","新北市林口區民生路139號","121.377926666667","25.08829","6501700","林口區"
"244023","483-VK","2018/05/12 18:49:07","新北市林口區文化三路二段211巷85號","121.375023333333","25.0840866666667","6501700","林口區"
"244017","485-VK","2018/05/12 18:49:05","新北市林口區文化二路一段68巷18-2號","121.366136666667","25.0677766666667","6501700","林口區"
"244011","657-BX","2018/05/12 18:48:53","新北市林口區中正路17號","121.396661666667","25.0773066666667","6501700","林口區"
"244025","837-TS","2018/05/12 18:48:57","新北市林口區南勢一街34號","121.36113","25.07602","6501700","林口區"
"243013","AAD-798","2018/05/12 18:28:59","新北市泰山區明志路三段206巷3號","121.423326666667","25.037965","6501600","泰山區"
"243016","380-SR","2018/05/12 18:49:09","新北市泰山區明志路二段135號","121.42767","25.0508433333333","6501600","泰山區"
"243012","646-TV","2018/05/12 18:48:58","新北市泰山區泰林路二段73巷27號","121.434411666667","25.0578816666667","6501600","泰山區"
"243014","680-BX","2018/05/12 18:49:09","新北市泰山區黎明路31號","121.4214","25.06073","6501600","泰山區"
"222003","436-BY","2018/05/12 18:48:54","新北市深坑區翠谷街17巷30號","121.62571","25.0097733333333","6501800","深坑區"
"222002","659-BX","2018/05/12 18:49:04","新北市深坑區文山路一段69號","121.627073333333","25.0019066666667","6501800","深坑區"
"231041","002-UM","2018/05/12 18:49:05","新北市新店區安華路28-1號","121.519618333333","24.9608016666667","6500600","新店區"
"231059","046-UY","2018/05/12 18:48:59","新北市新店區安華路28-1號","121.519536666667","24.960745","6500600","新店區"
"231040","047-UY","2018/05/12 18:49:13","新北市新店區中央路149號","121.530073333333","24.9734016666667","6500600","新店區"
"231044","106-UY","2018/05/12 18:49:12","新北市新店區中正路58號","121.544345","24.970085","6500600","新店區"
"231046","107-UY","2018/05/12 18:48:59","新北市新店區直潭路37號","121.53391","24.9427066666667","6500600","新店區"
"231052","108-UY","2018/05/12 18:49:10","新北市新店區新烏路二段3號","121.543425","24.9298266666667","6500600","新店區"
"231048","187-VK","2018/05/12 18:48:57","新北市新店區北新路一段72號","121.541296666667","24.9670083333333","6500600","新店區"
"231054","KEA-2219","2018/05/12 18:49:13","新北市新店區安康路一段65號","121.53037","24.9610566666667","6500600","新店區"
"231042","268-BY","2018/05/12 18:48:57","新北市新店區北新路一段126巷27號","121.543316666667","24.9696266666667","6500600","新店區"
"231051","278-BY","2018/05/12 18:49:13","新北市新店區中央路47號","121.532741666667","24.9774533333333","6500600","新店區"
"231050","AAD-862","2018/05/12 18:49:09","新北市新店區秀山路43號","121.531516666667","24.960825","6500600","新店區"
"231058","3713-VJ","2018/05/12 18:49:06","新北市新店區新店路13號","121.540281666667","24.9528833333333","6500600","新店區"
"231066","4716-K9","2018/05/12 18:49:03","新北市新店區安豐路22巷1號","121.501398333333","24.9561016666667","6500600","新店區"
"231056","4715-K9","2018/05/12 18:49:10","新北市新店區大同街25號","121.538718333333","24.9807133333333","6500600","新店區"
"231067","4772-VM","2018/05/12 18:48:53","新北市新店區安康路一段291巷50號","121.522978333333","24.9614366666667","6500600","新店區"
"231065","512-UM","2018/05/12 18:49:12","新北市新店區安忠路205巷8號","121.508665","24.9546883333333","6500600","新店區"
"231049","513-UM","2018/05/12 18:49:11","新北市新店區中央路81號","121.532245","24.97655","6500600","新店區"
"231063","616-UM","2018/05/12 18:49:11","新北市新店區安華路1-1號","121.519426666667","24.9604533333333","6500600","新店區"
"231045","617-UM","2018/05/12 18:49:07","新北市新店區安康路一段35號","121.531611666667","24.960705","6500600","新店區"
"231061","619-UM","2018/05/12 18:49:09","新北市新店區安華路28-1號","121.519585","24.9607866666667","6500600","新店區"
"231064","719-UM","2018/05/12 18:49:00","新北市新店區安一路一段1-1號","121.51952","24.961065","6500600","新店區"
"231062","720-UM","2018/05/12 18:48:54","新北市新店區安華路28-1號","121.519675","24.96103","6500600","新店區"
"231060","897-TW","2018/05/12 18:49:08","新北市新店區安華路28-1號","121.519526666667","24.9607916666667","6500600","新店區"
"231043","899-TW","2018/05/12 18:49:01","新北市新店區安康路一段132號","121.52671","24.96278","6500600","新店區"
"231055","AKT-0513","2018/05/12 18:49:13","新北市新店區新生街12號","121.540086666667","24.96617","6500600","新店區"
"235064","005-UY","2018/05/12 18:49:10","新北市中和區泰和街43號","121.499051666667","24.999455","6500300","中和區"
"235063","006-UY","2018/05/12 18:48:58","新北市中和區連城路391號","121.48652","24.99617","6500300","中和區"
"235047","031-BX","2018/05/12 18:49:06","新北市中和區興南路二段34巷55號","121.504935","24.9864066666667","6500300","中和區"
"235056","096-UM","2018/05/12 18:48:56","新北市中和區員山路611巷5弄3號","121.478016666667","25.0111733333333","6500300","中和區"
"235039","097-UM","2018/05/12 18:49:12","新北市中和區宜安路18巷14號","121.513813333333","24.9962733333333","6500300","中和區"
"235040","150-BY","2018/05/12 18:49:11","新北市中和區安平路36巷5號","121.510288333333","24.9948016666667","6500300","中和區"
"235058","151-BY","2018/05/12 18:49:09","新北市中和區連城路380號","121.480798333333","24.99514","6500300","中和區"
"235055","183-VK","2018/05/12 18:49:11","新北市中和區民生街22號","121.469986666667","25.0053783333333","6500300","中和區"
"235038","185-VK","2018/05/12 18:49:10","新北市中和區大勇街43巷4號","121.517733333333","24.994725","6500300","中和區"
"235049","186-VK","2018/05/12 18:48:57","新北市中和區明義街16號","121.504591666667","24.994875","6500300","中和區"
"235067","255-BX","2018/05/12 18:48:54","新北市中和區中正路839巷31號","121.48371","25.0023433333333","6500300","中和區"
"235044","293-VK","2018/05/12 18:48:55","新北市中和區中興街141號","121.499915","24.9912566666667","6500300","中和區"
"235072","301-VK","2018/05/12 18:48:55","新北市中和區中山路二段178巷1號","121.500596666667","25.0028383333333","6500300","中和區"
"235043","352-BY","2018/05/12 18:49:12","新北市中和區成功路47號","121.526161666667","24.9929883333333","6500300","中和區"
"235068","377-QA","2018/05/12 18:49:13","新北市中和區中正路211巷13弄1號","121.49714","24.99286","6500300","中和區"
"235061","378-QA","2018/05/12 18:49:07","新北市中和區民享街32巷2號","121.473958333333","25.003305","6500300","中和區"
"235050","4979-A6","2018/05/12 18:49:04","新北市中和區忠孝街62巷9弄1號","121.513125","24.983935","6500300","中和區"
"235069","4980-A6","2018/05/12 18:49:11","新北市中和區南山路81巷8弄12號","121.502536666667","24.9976866666667","6500300","中和區"
"235042","551-UM","2018/05/12 18:49:15","新北市中和區秀朗路三段135巷7弄10號","121.525598333333","24.99185","6500300","中和區"
"235070","558-UM","2018/05/12 18:48:55","新北市中和區中和路102號","121.502725","24.99978","6500300","中和區"
"235045","565-BX","2018/05/12 18:49:03","新北市中和區景安路192號","121.504351666667","24.991655","6500300","中和區"
"235054","640-BX","2018/05/12 18:48:56","新北市中和區民享街68巷15號","121.473378333333","25.0017116666667","6500300","中和區"
"235060","647-TV","2018/05/12 18:49:10","新北市中和區中山路三段214號","121.471388333333","25.00653","6500300","中和區"
"235046","733-UM","2018/05/12 18:49:10","新北市中和區仁愛街36巷36號","121.511218333333","24.9866066666667","6500300","中和區"
"235071","783-BX","2018/05/12 18:48:55","新北市中和區員山路36巷16-3號","121.485211666667","24.9911616666667","6500300","中和區"
"235062","800-TS","2018/05/12 18:48:53","新北市中和區景平路669號","121.496425","25.00267","6500300","中和區"
"235057","801-TS","2018/05/12 18:49:04","新北市中和區民安街22巷23號","121.479485","25.0014033333333","6500300","中和區"
"235041","802-TS","2018/05/12 18:49:09","新北市中和區宜安路118巷18號","121.510821666667","24.9985816666667","6500300","中和區"
"235052","805-TS","2018/05/12 18:49:10","新北市中和區興南路三段16號","121.497533333333","24.9796316666667","6500300","中和區"
"235048","896-TW","2018/05/12 18:48:58","新北市中和區華新街28-1號","121.507671666667","24.9846083333333","6500300","中和區"
"235053","900-TW","2018/05/12 18:48:58","新北市中和區民德路290巷21號","121.466396666667","24.99597","6500300","中和區"
"235066","911-UM","2018/05/12 18:49:00","新北市中和區中山路二段131巷29號","121.503735","25.0027416666667","6500300","中和區"
"235051","157-BY","2018/05/12 18:49:14","新北市中和區忠孝街106巷2號","121.512306666667","24.9845283333333","6500300","中和區"
"235037","AAC-213","2018/05/12 18:49:15","新北市中和區秀朗路三段128巷9弄1號","121.524565","24.9931033333333","6500300","中和區"
"235059","AAC-215","2018/05/12 18:48:59","新北市中和區圓通路391號","121.490083333333","24.9891733333333","6500300","中和區"
"220080","015-TV","2018/05/12 18:48:58","新北市板橋區大觀路二段365巷15號","121.44114","24.998105","6500100","板橋區"
"220065","072-UY","2018/05/12 18:48:59","新北市板橋區民族路247巷5弄42號","121.470145","25.0084933333333","6500100","板橋區"
"220106","075-UY","2018/05/12 18:49:03","新北市板橋區民生路二段120號","121.470498333333","25.0197533333333","6500100","板橋區"
"220069","AAD-861","2018/05/12 18:49:08","新北市板橋區南雅南路一段1巷1弄15號","121.457156666667","25.0059916666667","6500100","板橋區"
"226004","312-R5","2018/05/12 18:49:11","新北市平溪區靜安路二段352號","121.73754","25.02443","6502400","平溪區"
"235065","251-BX","2018/05/12 18:48:58","新北市中和區中山路二段2巷17號","121.503635","25.006975","6500300","中和區"
"228003","097-TW","2018/05/12 18:49:11","新北市貢寮區和美里龍洞街53號","121.912211666667","25.11375","6502600","貢寮區"
"228001","212-TW","2018/05/12 18:49:03","新北市貢寮區仁理村保健街69號","121.923716666667","25.0516233333333","6502600","貢寮區"
"228002","585-TW","2018/05/12 18:49:05","新北市貢寮區福隆里東興街6-11號","121.950741666667","25.0210966666667","6502600","貢寮區"
"224010","AGQ-8101","2018/05/12 18:49:10","新北市瑞芳區烏勢巷108號","121.846126666667","25.1089366666667","6501200","瑞芳區"
"224006","676-BX","2018/05/12 18:49:06","新北市瑞芳區中正路38號","121.807198333333","25.107285","6501200","瑞芳區"
"224002","639-TC","2018/05/12 18:48:56","新北市瑞芳區中山路312號","121.796976666667","25.1100133333333","6501200","瑞芳區"
"224008","285-BY","2018/05/12 18:49:10","新北市瑞芳區裕民新城1號","121.801956666667","25.1119766666667","6501200","瑞芳區"
"224007","275-VK","2018/05/12 18:49:01","新北市瑞芳區大埔路東泰新村2號","121.761295","25.1012083333333","6501200","瑞芳區"
"224009","273-VK","2018/05/12 18:49:03","新北市瑞芳區祈堂路2號","121.859708333333","25.1116966666667","6501200","瑞芳區"
"224005","271-BY","2018/05/12 18:49:07","新北市瑞芳區濱二路56-1號","121.832125","25.1178316666667","6501200","瑞芳區"
"227010","642-TC","2018/05/12 18:48:59","新北市雙溪區牡丹里聖南50-1號","121.854758333333","25.0551583333333","6502500","雙溪區"
"227002","400-TW","2018/05/12 18:49:05","新北市雙溪區平林里梅竹蹊28號","121.861623333333","25.03601","6502500","雙溪區"
"253005","032-BX","2018/05/12 18:49:08","新北市石門區中山路28-3號","121.565865","25.28983","6502200","石門區"
"253006","295-VK","2018/05/12 18:49:03","新北市石門區下員坑16號","121.510766666667","25.28353","6502200","石門區"
"222001","KEA-2212","2018/05/12 18:49:12","新北市深坑區松柏街33號","121.638533333333","25.01142","6501800","深坑區"
"208002","KEA-2872","2018/05/12 18:49:11","新北市金山區信義路61號","121.635868333333","25.2190266666667","6502700","金山區"
"208003","665-BX","2018/05/12 18:49:13","新北市金山區中山路393號","121.633403333333","25.2251966666667","6502700","金山區"
"208001","761-BX","2018/05/12 18:49:08","新北市金山區文化三路66巷1號","121.634155","25.225615","6502700","金山區"
"251001","011-UM","2018/05/12 18:49:00","新北市淡水區自強路108-18號","121.461596666667","25.1310316666667","6501000","淡水區"
"251002","012-UM","2018/05/12 18:48:58","新北市淡水區學府路65號","121.448305","25.169615","6501000","淡水區"
"251013","KEA-2871","2018/05/12 18:49:04","新北市淡水區小坑子頭2-1號","121.482588333333","25.2127466666667","6501000","淡水區"
"251014","180-VK","2018/05/12 18:49:00","新北市淡水區崙頂2-2號","121.491651666667","25.22391","6501000","淡水區"
"251015","182-VK","2018/05/12 18:49:08","新北市淡水區興福寮66巷115號","121.487173333333","25.16146","6501000","淡水區"
"251010","413-VK","2018/05/12 18:49:00","新北市淡水區沙崙路20號","121.42127","25.1811883333333","6501000","淡水區"
"251012","441-VK","2018/05/12 18:49:10","新北市淡水區新興街3號","121.443733333333","25.18033","6501000","淡水區"
"251007","442-VK","2018/05/12 18:49:06","新北市淡水區民生路117巷3號","121.46495","25.13878","6501000","淡水區"
"251016","575-R6","2018/05/12 18:49:03","新北市淡水區下圭柔山71-3號","121.447078333333","25.2061783333333","6501000","淡水區"
"251011","650-BX","2018/05/12 18:48:58","新北市淡水區鄧公路18號","121.451051666667","25.1697433333333","6501000","淡水區"
"251003","766-UM","2018/05/12 18:48:53","新北市淡水區中山北路一段212巷38號","121.446066666667","25.17906","6501000","淡水區"
"207003","550-UM","2018/05/12 18:49:10","新北市萬里區大鵬里頂社1-2號","121.657346666667","25.209685","6502800","萬里區"
"207004","225-TW","2018/05/12 18:49:02","新北市萬里區萬里里獅頭路23號","121.693271666667","25.178235","6502800","萬里區"
"252002","178-VK","2018/05/12 18:49:04","新北市三芝區中正路一段101-1號","121.504771666667","25.2563766666667","6502100","三芝區"
"252003","249-BX","2018/05/12 18:48:54","新北市三芝區後厝里大片頭108號","121.458481666667","25.2427816666667","6502100","三芝區"
"252001","292-VK","2018/05/12 18:49:03","新北市三芝區中正路三段9號","121.502848333333","25.253925","6502100","三芝區"
"237004","KEA-2597","2018/05/12 18:49:10","新北市三峽區插角232號","121.414465","24.8689133333333","6500900","三峽區"
"237007","153-BY","2018/05/12 18:49:05","新北市三峽區柑樹路6巷2號","121.36265","24.90515","6500900","三峽區"
"237011","572-TV","2018/05/12 18:48:57","新北市三峽區介壽路三段113號","121.396615","24.9412633333333","6500900","三峽區"
"237013","252-BX","2018/05/12 18:49:09","新北市三峽區光明路69巷25號","121.376711666667","24.9292716666667","6500900","三峽區"
"237012","275-BY","2018/05/12 18:49:01","新北市三峽區三樹路340號","121.383981666667","24.9433233333333","6500900","三峽區"
"237008","302-VK","2018/05/12 18:49:05","新北市三峽區白雞30-3號","121.36987","24.91223","6500900","三峽區"
"237014","433-BY","2018/05/12 18:48:56","新北市三峽區隆恩街158巷68號","121.365166666667","24.94475","6500900","三峽區"
"237006","5529-G3","2018/05/12 18:49:02","新北市三峽區溪東路233巷4弄19號","121.407261666667","24.933765","6500900","三峽區"
"237010","706-TV","2018/05/12 18:49:11","新北市三峽區國光街326號","121.372315","24.9392933333333","6500900","三峽區"
"237005","AKY-6261","2018/05/12 18:49:04","新北市三峽區中山路99-1號","121.365831666667","24.93564","6500900","三峽區"
"236070","105-UM","2018/05/12 18:48:41","新北市土城區立德路16號","121.462651666667","24.9878566666667","6501300","土城區"
"236042","107-UM","2018/05/12 18:49:03","新北市土城區裕民路92巷25弄11號","121.450135","24.9856083333333","6501300","土城區"
"236079","166-UM","2018/05/12 18:48:55","新北市土城區中央路四段67巷60-13號","121.416856666667","24.955965","6501300","土城區"
"236030","253-BX","2018/05/12 18:48:52","新北市土城區忠義路26巷10號","121.439893333333","24.9698833333333","6501300","土城區"
"236026","269-VK","2018/05/12 18:49:09","新北市土城區慶安街79號","121.440631666667","24.97258","6501300","土城區"
"236014","270-VK","2018/05/12 18:48:59","新北市土城區金城路二段354巷8號","121.460798333333","24.9844733333333","6501300","土城區"
"236038","271-VK","2018/05/12 18:49:07","新北市土城區明德路一段221巷5號","121.463703333333","24.9780616666667","6501300","土城區"
"236021","401-BY","2018/05/12 18:49:03","新北市土城區延吉街253巷9號","121.467918333333","24.9844466666667","6501300","土城區"
"236059","912-UM","2018/05/12 18:49:01","新北市土城區金城路二段2巷5號","121.447565","24.97605","6501300","土城區"
"236049","913-UM","2018/05/12 18:49:11","新北市土城區青雲路2號","121.460311666667","24.9898066666667","6501300","土城區"
"236063","915-UM","2018/05/12 18:49:11","新北市土城區金城路三段207巷6弄13號","121.470766666667","24.9903","6501300","土城區"
"236055","AAC-216","2018/05/12 18:48:54","新北市土城區裕民路190號","121.45294","24.985015","6501300","土城區"
"242058","986-R7","2018/05/12 18:49:08","新北市泰山區中山路二段485號","121.432126666667","25.0434083333333","6500500","新莊區"
"238023","601-UM","2018/05/12 18:48:54","桃園市龜山區萬壽路一段253號","121.404261666667","25.0173833333333","6500700","樹林區"
"238019","599-UM","2018/05/12 18:49:04","新北市樹林區東陽街3號","121.41257","24.9822733333333","6500700","樹林區"
"238024","5061-A6","2018/05/12 18:49:09","新北市樹林區八德街368號","121.408186666667","24.969775","6500700","樹林區"
"238021","KEA-2217","2018/05/12 18:48:56","新北市樹林區西圳街二段62號","121.38673","24.9594433333333","6500700","樹林區"
"238025","303-VK","2018/05/12 18:48:40","新北市樹林區中山路三段22號","121.395626666667","24.9729833333333","6500700","樹林區"
"238017","283-BY","2018/05/12 18:48:53","新北市樹林區光興街44號","121.409881666667","25.002745","6500700","樹林區"
"238014","282-BY","2018/05/12 18:49:03","新北市樹林區潭興街107巷2弄15號","121.425013333333","24.9995883333333","6500700","樹林區"
"238020","268-VK","2018/05/12 18:49:11","新北市樹林區俊英街79號","121.426068333333","25.0075233333333","6500700","樹林區"
"238026","172-UY","2018/05/12 18:49:03","新北市樹林區中和街42巷5號","121.389478333333","24.9736416666667","6500700","樹林區"
"238016","169-UY","2018/05/12 18:49:01","新北市樹林區文化街22號","121.419593333333","24.9876433333333","6500700","樹林區"
"239007","AAC-297","2018/05/12 18:49:11","新北市鶯歌區成功街6巷28號","121.359401666667","24.9573866666667","6500800","鶯歌區"
"239006","891-R6","2018/05/12 18:49:01","新北市鶯歌區鶯桃路296巷72弄26號","121.337493333333","24.9609433333333","6500800","鶯歌區"
"239008","527-UM","2018/05/12 18:49:04","新北市鶯歌區國際二路34號","121.335955","24.9752366666667","6500800","鶯歌區"
"239005","526-UM","2018/05/12 18:48:57","新北市鶯歌區大湖路361巷22號","121.330388333333","24.9781116666667","6500800","鶯歌區"
"239001","417-VK","2018/05/12 18:49:03","新北市鶯歌區鶯桃路133號","121.338008333333","24.954655","6500800","鶯歌區"
"239003","360-BY","2018/05/12 18:49:07","新北市鶯歌區鶯桃路658巷10號","121.329521666667","24.9694783333333","6500800","鶯歌區"
"239002","359-BY","2018/05/12 18:49:01","新北市鶯歌區中山路215號","121.346563333333","24.95701","6500800","鶯歌區"
"239004","193-VK","2018/05/12 18:49:06","新北市鶯歌區中正三路194巷3號","121.332561666667","24.93852","6500800","鶯歌區"
"221008","489-VK","2018/05/12 18:48:54","新北市汐止區康寧街901號","121.651421666667","25.0749983333333","6501100","汐止區"
"221036","130-UY","2018/05/12 18:49:01","新北市汐止區忠孝東路273號","121.663745","25.0682833333333","6501100","汐止區"
"221015","131-UY","2018/05/12 18:49:03","新北市汐止區鄉長路一段55巷9號","121.665321666667","25.07612","6501100","汐止區"
"221010","269-BY","2018/05/12 18:49:04","新北市汐止區汐萬路一段310號","121.650401666667","25.0748416666667","6501100","汐止區"
"221012","278-VK","2018/05/12 18:48:57","新北市汐止區汐萬路一段256巷1號","121.651701666667","25.0748566666667","6501100","汐止區"
"221023","279-VK","2018/05/12 18:49:05","新北市汐止區汐萬路一段256巷3號","121.653353333333","25.0747166666667","6501100","汐止區"
"221032","280-BY","2018/05/12 18:49:07","新北市汐止區橫科路322巷24弄6-1號","121.620453333333","25.05003","6501100","汐止區"
"221027","281-BY","2018/05/12 18:49:14","新北市汐止區康寧街901號","121.651433333333","25.07499","6501100","汐止區"
"221029","298-VK","2018/05/12 18:41:53","新北市汐止區大同路一段515巷47弄68號","121.64233","25.0635383333333","6501100","汐止區"
"221031","353-TW","2018/05/12 18:48:57","新北市汐止區福德一路300巷13號","121.630835","25.06387","6501100","汐止區"
"221035","622-UM","2018/05/12 18:49:10","新北市汐止區汐萬路一段242號","121.651565","25.0730883333333","6501100","汐止區"
"221025","623-UM","2018/05/12 18:49:06","新北市汐止區仁愛路34號","121.660465","25.0628233333333","6501100","汐止區"
"221038","646-BX","2018/05/12 18:49:04","新北市汐止區汐萬路一段312號","121.650698333333","25.0753016666667","6501100","汐止區"
"221033","647-BX","2018/05/12 18:48:59","新北市汐止區南勢街3號","121.627086666667","25.0373783333333","6501100","汐止區"
"221002","707-TV","2018/05/12 18:49:05","新北市汐止區大同路一段89-3號","121.625085","25.0550566666667","6501100","汐止區"
"221018","753-BX","2018/05/12 18:49:09","新北市汐止區忠孝東路397號","121.665678333333","25.0708516666667","6501100","汐止區"
"220079","145-BY","2018/05/12 18:48:58","新北市板橋區民權路220號","121.458671666667","25.0141816666667","6500100","板橋區"
"220103","257-TC","2018/05/12 18:49:05","新北市板橋區民生路二段120號","121.470705","25.019595","6500100","板橋區"
"220056","276-BY","2018/05/12 18:49:08","新北市板橋區四川路二段23-3號","121.45472","24.9957366666667","6500100","板橋區"
"220072","277-BY","2018/05/12 18:49:14","新北市板橋區大觀路三段57號","121.433755","24.9954116666667","6500100","板橋區"
"220082","282-UM","2018/05/12 18:49:07","新北市板橋區篤行路二段126-3號","121.431233333333","24.990715","6500100","板橋區"
"220071","283-VK","2018/05/12 18:48:56","新北市板橋區四川路一段373號","121.458201666667","24.9995566666667","6500100","板橋區"
"220094","285-UM","2018/05/12 18:49:06","新北市板橋區民生路二段161巷3號","121.470288333333","25.019845","6500100","板橋區"
"220053","285-VK","2018/05/12 18:49:10","新北市板橋區民生路二段121號","121.470766666667","25.0184866666667","6500100","板橋區"
"220083","286-VK","2018/05/12 18:49:09","新北市板橋區僑中一街88號","121.447191666667","25.0116833333333","6500100","板橋區"
"220081","287-VK","2018/05/12 18:48:59","新北市板橋區光華街13巷29號","121.453068333333","25.0112566666667","6500100","板橋區"
"220090","288-VK","2018/05/12 18:49:08","新北市板橋區民生路二段120號","121.470593333333","25.0196033333333","6500100","板橋區"
"220061","293-UM","2018/05/12 18:48:55","新北市板橋區民生路二段123號","121.470673333333","25.0186716666667","6500100","板橋區"
"220084","296-UM","2018/05/12 18:48:57","新北市板橋區大觀路二段150巷65號","121.44148","25.000535","6500100","板橋區"
"220075","303-R5","2018/05/12 18:49:03","新北市板橋區館前西路263號","121.453991666667","25.0086733333333","6500100","板橋區"
"220062","305-R5","2018/05/12 18:49:01","新北市板橋區中山路二段23號","121.472408333333","25.0152983333333","6500100","板橋區"
"220092","307-R5","2018/05/12 18:48:55","新北市板橋區民生路二段120號","121.470718333333","25.01968","6500100","板橋區"
"220098","317-R6","2018/05/12 18:49:10","新北市板橋區民生路二段120號","121.470395","25.01974","6500100","板橋區"
"220064","486-VK","2018/05/12 18:48:46","新北市板橋區民生路二段36-1號","121.472098333333","25.01677","6500100","板橋區"
"220035","560-BX","2018/05/12 18:48:53","新北市板橋區中正路325巷41號","121.453383333333","25.0192866666667","6500100","板橋區"
"220063","609-BX","2018/05/12 18:49:06","新北市板橋區民生路二段123號","121.470545","25.0184633333333","6500100","板橋區"
"220055","630-UY","2018/05/12 18:49:06","新北市板橋區館前西路53號","121.457793333333","25.0067166666667","6500100","板橋區"
"220057","686-BX","2018/05/12 18:49:07","新北市板橋區縣民大道一段114號","121.457255","25.0059716666667","6500100","板橋區"
"220077","687-BX","2018/05/12 18:49:07","新北市板橋區龍興街99巷1號","121.444228333333","25.0028933333333","6500100","板橋區"
"220054","741-BX","2018/05/12 18:49:15","新北市板橋區館前西路44號","121.45857","25.0069316666667","6500100","板橋區"
"220102","KEA-2699","2018/05/12 18:49:08","新北市板橋區民生路二段188號","121.470186666667","25.0202983333333","6500100","板橋區"
"220067","829-TW","2018/05/12 18:49:10","新北市板橋區民生路二段123號","121.470738333333","25.0185483333333","6500100","板橋區"
"220068","830-TW","2018/05/12 18:49:01","新北市板橋區民生路二段123號","121.470558333333","25.0185466666667","6500100","板橋區"
"220074","895-R6","2018/05/12 18:49:02","新北市板橋區館前西路223號","121.454368333333","25.0086633333333","6500100","板橋區"
"220073","985-R7","2018/05/12 18:49:13","新北市板橋區中正路101號","121.456478333333","25.0146733333333","6500100","板橋區"
