"lineid","car","time","location","longitude","latitude","cityid","cityname"
"234046","148-BY","2018/05/12 19:09:03","新北市永和區永元路18巷25號","121.523593333333","25.0002233333333","6500400","永和區"
"234007","207-UY","2018/05/12 19:09:04","新北市永和區中山路一段143號","121.510303333333","25.0096833333333","6500400","永和區"
"234081","298-R6","2018/05/12 19:09:10","新北市永和區永貞路41號","121.521078333333","25.00645","6500400","永和區"
"234038","336-UY","2018/05/12 19:09:04","新北市永和區民樂街71巷1號","121.527373333333","24.9975216666667","6500400","永和區"
"234064","337-UY","2018/05/12 19:09:10","新北市永和區秀朗路二段46號","121.521353333333","25.00237","6500400","永和區"
"234086","338-UY","2018/05/12 19:09:00","新北市永和區永貞路71號","121.518868333333","25.0043733333333","6500400","永和區"
"234070","552-UM","2018/05/12 19:09:12","新北市永和區豫溪街95巷7號","121.51829","25.0104833333333","6500400","永和區"
"234017","745-BX","2018/05/12 19:09:04","新北市永和區文化路90巷8號","121.513971666667","25.0156383333333","6500400","永和區"
"234030","746-BX","2018/05/12 19:09:00","新北市永和區民生路29號","121.522735","24.9987183333333","6500400","永和區"
"234054","KEA-2590","2018/05/12 19:09:03","新北市永和區中興街133巷8號","121.518743333333","25.0127283333333","6500400","永和區"
"234013","KEA-2591","2018/05/12 19:09:11","新北市永和區中山路一段66號","121.512641666667","25.010705","6500400","永和區"
"234061","AAD-866","2018/05/12 19:09:02","新北市永和區安樂路306-8號","121.514666666667","25.005345","6500400","永和區"
"234042","862-TW","2018/05/12 19:09:11","新北市永和區永貞路305號","121.510631666667","25.005895","6500400","永和區"
"234050","863-TW","2018/05/12 19:09:01","新北市永和區文化路135巷24弄2號","121.510501666667","25.014555","6500400","永和區"
"234026","9371-KE","2018/05/12 19:09:14","新北市永和區安樂路419號","121.514475","25.004035","6500400","永和區"
"234011","9373-KE","2018/05/12 19:09:12","新北市永和區仁愛路141巷30弄5號","121.512001666667","25.0115233333333","6500400","永和區"
"249005","172-UM","2018/05/12 19:09:08","新北市八里區中華路三段99巷2號","121.393763333333","25.1383733333333","6502300","八里區"
"249001","173-UM","2018/05/12 19:09:11","新北市八里區龍米路二段228-1號","121.432698333333","25.1583933333333","6502300","八里區"
"248016","026-BX","2018/05/12 19:09:12","新北市五股區成泰路三段543巷56號","121.449575","25.1031116666667","6501500","五股區"
"248006","077-UY","2018/05/12 19:09:00","新北市五股區四維路127號","121.467508333333","25.0738766666667","6501500","五股區"
"248020","225-UY","2018/05/12 19:09:09","新北市五股區凌雲路三段59-2號","121.425165","25.1250183333333","6501500","五股區"
"248010","272-BY","2018/05/12 19:09:14","新北市五股區水碓一路23號","121.430653333333","25.071305","6501500","五股區"
"248004","655-BX","2018/05/12 19:08:50","新北市五股區六合街3號","121.431788333333","25.088555","6501500","五股區"
"248002","678-BX","2018/05/12 19:09:03","新北市五股區凌雲路一段158巷13號","121.44777","25.103525","6501500","五股區"
"248012","682-TV","2018/05/12 19:09:12","新北市五股區中興路四段48巷16號","121.43868","25.083405","6501500","五股區"
"234023","9380-KE","2018/05/12 19:09:08","新北市永和區中興街10巷1號","121.515621666667","25.0118483333333","6500400","永和區"
"234077","969-R7","2018/05/12 19:09:09","新北市永和區得和路123號","121.518823333333","25.0002683333333","6500400","永和區"
"234074","AAC-211","2018/05/12 19:08:54","新北市永和區竹林路202號","121.52058","25.0088066666667","6500400","永和區"
"234067","AAC-212","2018/05/12 19:09:12","新北市永和區保平路43號","121.511943333333","25.007225","6500400","永和區"
"234003","AAC-295","2018/05/12 19:08:58","新北市永和區保福路一段75號","121.511986666667","25.010405","6500400","永和區"
"244013","069-UM","2018/05/12 19:09:12","新北市林口區麗園一街11巷11號","121.378841666667","25.0705466666667","6501700","林口區"
"244019","403-UM","2018/05/12 19:09:00","新北市林口區麗園二街3巷1-2號","121.378105","25.0695633333333","6501700","林口區"
"244009","410-SL","2018/05/12 19:09:01","新北市林口區竹林路366巷6號","121.392203333333","25.0847416666667","6501700","林口區"
"244023","483-VK","2018/05/12 19:09:07","新北市林口區民族路288號","121.3706","25.0787233333333","6501700","林口區"
"244017","485-VK","2018/05/12 19:09:05","新北市林口區民族路302-99號","121.370801666667","25.079595","6501700","林口區"
"244011","657-BX","2018/05/12 19:09:13","新北市林口區中正路296巷11弄6號","121.387946666667","25.07819","6501700","林口區"
"243011","267-VK","2018/05/12 19:09:05","新北市泰山區明志路二段372巷2號","121.425343333333","25.0451366666667","6501600","泰山區"
"243013","AAD-798","2018/05/12 19:09:06","新北市泰山區明志路三段277號","121.423093333333","25.0368033333333","6501600","泰山區"
"243009","297-R6","2018/05/12 19:09:12","新北市泰山區福德街34號","121.432375","25.0633883333333","6501600","泰山區"
"243016","380-SR","2018/05/12 19:09:09","新北市泰山區明志路二段338號","121.426033333333","25.0455433333333","6501600","泰山區"
"243015","421-VK","2018/05/12 19:09:00","新北市泰山區明志路一段431號","121.430708333333","25.0564616666667","6501600","泰山區"
"243010","KEA-2216","2018/05/12 19:08:57","新北市泰山區明志路一段352巷10號","121.430451666667","25.0584866666667","6501600","泰山區"
"243012","646-TV","2018/05/12 19:08:58","新北市泰山區吳厝窠1號","121.427938333333","25.0585733333333","6501600","泰山區"
"243014","680-BX","2018/05/12 19:09:09","新北市泰山區泰林路二段411號","121.426731666667","25.064245","6501600","泰山區"
"222003","436-BY","2018/05/12 19:09:14","新北市深坑區深南路162號","121.626103333333","25.014975","6501800","深坑區"
"222002","659-BX","2018/05/12 19:09:04","新北市深坑區北深路一段250號","121.629731666667","25.0087533333333","6501800","深坑區"
"231041","002-UM","2018/05/12 19:09:11","新北市新店區溪園路383號","121.523386666667","24.979525","6500600","新店區"
"231059","046-UY","2018/05/12 19:08:59","新北市新店區安和路一段52巷2-1號","121.517598333333","24.966275","6500600","新店區"
"231040","047-UY","2018/05/12 19:09:13","新北市新店區三民路155-1號","121.533865","24.97338","6500600","新店區"
"231044","106-UY","2018/05/12 19:09:12","新北市新店區中興路三段160號","121.5443","24.9807533333333","6500600","新店區"
"231046","107-UY","2018/05/12 19:09:13","新北市新店區華潭街1巷49號","121.5262","24.9467783333333","6500600","新店區"
"231052","108-UY","2018/05/12 19:09:10","新北市新店區屈尺路93號","121.545588333333","24.923145","6500600","新店區"
"231048","187-VK","2018/05/12 19:08:57","新北市新店區德正街27巷29弄135號","121.545688333333","24.97322","6500600","新店區"
"231054","KEA-2219","2018/05/12 19:09:13","新北市新店區新店路137號","121.536998333333","24.9545866666667","6500600","新店區"
"231042","268-BY","2018/05/12 19:08:57","新北市新店區中興路一段167號","121.5427","24.9643116666667","6500600","新店區"
"231051","278-BY","2018/05/12 19:09:13","新北市新店區中正路400巷13號","121.535063333333","24.97811","6500600","新店區"
"231050","AAD-862","2018/05/12 19:09:10","新北市新店區竹林路2巷33號","121.55049","24.9502066666667","6500600","新店區"
"231058","3713-VJ","2018/05/12 19:09:06","新北市新店區光明街96巷3號","121.539335","24.9599466666667","6500600","新店區"
"231066","4716-K9","2018/05/12 19:09:03","新北市新店區安康路三段355巷2號","121.484461666667","24.95035","6500600","新店區"
"231056","4715-K9","2018/05/12 19:09:10","新北市新店區中央七街7號","121.530905","24.9753183333333","6500600","新店區"
"231067","4772-VM","2018/05/12 19:09:13","新北市新店區安康路二段320巷15弄18號","121.501911666667","24.9588816666667","6500600","新店區"
"231065","512-UM","2018/05/12 19:09:12","新北市新店區安祥路145巷1號","121.474728333333","24.9555733333333","6500600","新店區"
"231049","513-UM","2018/05/12 19:09:11","新北市新店區二十張路25巷3號","121.538921666667","24.9821166666667","6500600","新店區"
"231063","616-UM","2018/05/12 19:09:12","新北市新店區車子路117號","121.505428333333","24.9514716666667","6500600","新店區"
"231045","617-UM","2018/05/12 19:09:07","新北市新店區北宜路一段190號","121.541376666667","24.9528266666667","6500600","新店區"
"231061","619-UM","2018/05/12 19:09:09","新北市新店區安康路一段293號","121.522661666667","24.96369","6500600","新店區"
"231064","719-UM","2018/05/12 19:09:00","新北市新店區安忠路56巷6號","121.512881666667","24.95941","6500600","新店區"
"231062","720-UM","2018/05/12 19:09:14","新北市新店區安平路11巷2號","121.524266666667","24.9652083333333","6500600","新店區"
"231060","897-TW","2018/05/12 19:09:12","新北市新店區安康路二段295號","121.502585","24.9575133333333","6500600","新店區"
"231043","899-TW","2018/05/12 19:09:01","新北市新店區中興路二段252號","121.54742","24.9758983333333","6500600","新店區"
"241026","066-VK","2018/05/12 19:09:09","新北市三重區泉州街63-2號","121.4947","25.0543416666667","6500200","三重區"
"241035","462-BY","2018/05/12 19:09:11","新北市三重區重陽路一段43巷8號","121.487383333333","25.05812","6500200","三重區"
"241029","942-UM","2018/05/12 19:09:08","新北市三重區集美街263號","121.492476666667","25.0557433333333","6500200","三重區"
"235064","005-UY","2018/05/12 19:09:10","新北市中和區中和路26巷16號","121.4992","25.0014816666667","6500300","中和區"
"235063","006-UY","2018/05/12 19:08:58","新北市中和區中正路585號","121.485808333333","24.9946233333333","6500300","中和區"
"235047","031-BX","2018/05/12 19:09:06","新北市中和區興南路一段56巷1弄2號","121.51072","24.990805","6500300","中和區"
"235056","096-UM","2018/05/12 19:08:56","新北市板橋區三民路二段228號","121.478705","25.0111816666667","6500300","中和區"
"235039","097-UM","2018/05/12 19:09:12","新北市永和區民有街17號","121.516525","24.99671","6500300","中和區"
"235040","150-BY","2018/05/12 19:09:11","新北市中和區宜安路11巷11號","121.512853333333","24.99519","6500300","中和區"
"235058","151-BY","2018/05/12 19:09:09","新北市中和區員山路80號","121.480976666667","24.9940633333333","6500300","中和區"
"235055","183-VK","2018/05/12 19:09:11","新北市中和區德光路12號","121.4715","25.0046","6500300","中和區"
"235038","185-VK","2018/05/12 19:09:10","新北市中和區大仁街10巷27弄3號","121.519128333333","24.9927033333333","6500300","中和區"
"235049","186-VK","2018/05/12 19:09:01","新北市中和區明禮街18號","121.50476","24.99597","6500300","中和區"
"235067","255-BX","2018/05/12 19:08:54","新北市中和區新生街175號","121.48384","25.00073","6500300","中和區"
"235044","293-VK","2018/05/12 19:08:55","新北市中和區中興街222-6號","121.500603333333","24.9896783333333","6500300","中和區"
"235072","301-VK","2018/05/12 19:08:55","新北市中和區福祥路7號","121.499365","25.003125","6500300","中和區"
"235043","352-BY","2018/05/12 19:09:12","新北市中和區景平路120號","121.519185","24.9916883333333","6500300","中和區"
"235068","377-QA","2018/05/12 19:09:13","新北市中和區圓通路169號","121.49761","24.9954333333333","6500300","中和區"
"235061","378-QA","2018/05/12 19:09:07","新北市中和區中山路三段63巷13弄65號","121.476561666667","25.00318","6500300","中和區"
"235050","4979-A6","2018/05/12 19:09:04","新北市中和區復興路263巷9弄12號","121.50323","24.9896516666667","6500300","中和區"
"235069","4980-A6","2018/05/12 19:09:11","新北市中和區中和路165巷21號","121.503253333333","25.000525","6500300","中和區"
"235042","551-UM","2018/05/12 19:08:55","新北市中和區秀朗路三段10巷21弄8號","121.525163333333","24.9960433333333","6500300","中和區"
"235070","558-UM","2018/05/12 19:09:15","新北市中和區中和路8號","121.499516666667","25.0021716666667","6500300","中和區"
"235045","565-BX","2018/05/12 19:09:03","新北市中和區景新街467巷35弄20-3號","121.513976666667","24.9888933333333","6500300","中和區"
"235054","640-BX","2018/05/12 19:08:56","新北市中和區國光街54號","121.470623333333","25.00025","6500300","中和區"
"235060","647-TV","2018/05/12 19:09:10","新北市中和區中山路三段124號","121.474286666667","25.0061516666667","6500300","中和區"
"235046","733-UM","2018/05/12 19:09:10","新北市中和區忠孝街1巷53號","121.508361666667","24.9842916666667","6500300","中和區"
"235071","783-BX","2018/05/12 19:08:55","新北市中和區連城路314號","121.483528333333","24.99615","6500300","中和區"
"235057","801-TS","2018/05/12 19:09:04","新北市中和區民利街60號","121.479016666667","24.998705","6500300","中和區"
"235041","802-TS","2018/05/12 19:09:11","新北市中和區中和路232號","121.506641666667","24.9994383333333","6500300","中和區"
"235052","805-TS","2018/05/12 19:09:10","新北市中和區興南路二段128巷7弄6號","121.50306","24.9839016666667","6500300","中和區"
"235048","896-TW","2018/05/12 19:08:58","新北市中和區忠孝街7號","121.509866666667","24.9827883333333","6500300","中和區"
"235053","900-TW","2018/05/12 19:08:58","新北市中和區華福街88號","121.467573333333","24.9964666666667","6500300","中和區"
"235066","911-UM","2018/05/12 19:09:00","新北市中和區廣福路44號","121.504168333333","25.0020883333333","6500300","中和區"
"235051","157-BY","2018/05/12 19:08:54","新北市中和區興南路一段85巷33號","121.510465","24.9881966666667","6500300","中和區"
"235037","AAC-213","2018/05/12 19:09:08","新北市中和區秀朗路三段60巷9號","121.525676666667","24.9950683333333","6500300","中和區"
"235059","AAC-215","2018/05/12 19:08:59","新北市中和區圓通路294巷15號","121.488791666667","24.9901633333333","6500300","中和區"
"220080","015-TV","2018/05/12 19:08:59","新北市板橋區大觀路二段7巷38號","121.448328333333","25.0032716666667","6500100","板橋區"
"220065","072-UY","2018/05/12 19:08:59","新北市板橋區民族路151巷28號","121.46916","25.0082616666667","6500100","板橋區"
"220086","073-UY","2018/05/12 19:09:10","新北市板橋區國光路173巷16號","121.46038","25.0192016666667","6500100","板橋區"
"220106","075-UY","2018/05/12 19:09:03","新北市板橋區文化路二段315號","121.47211","25.0297666666667","6500100","板橋區"
"220069","AAD-861","2018/05/12 19:09:08","新北市板橋區華興街1號","121.45943","25.0046516666667","6500100","板橋區"
"226004","312-R5","2018/05/12 19:09:11","新北市平溪區靜安路三段240號","121.775855","25.0399216666667","6502400","平溪區"
"235065","251-BX","2018/05/12 19:08:58","新北市中和區莊敬路33號","121.501045","25.0050233333333","6500300","中和區"
"228003","097-TW","2018/05/12 19:09:08","新北市貢寮區和美里和美街38號","121.912125","25.088045","6502600","貢寮區"
"228001","212-TW","2018/05/12 19:09:03","新北市貢寮區真理里新港街10號","121.925523333333","25.0543966666667","6502600","貢寮區"
"228002","585-TW","2018/05/12 19:09:05","新北市貢寮區福隆里福隆街40號","121.945185","25.01755","6502600","貢寮區"
"224010","AGQ-8101","2018/05/12 19:07:44","新北市瑞芳區街頂巷1號","121.844895","25.1080416666667","6501200","瑞芳區"
"224006","676-BX","2018/05/12 19:09:13","新北市瑞芳區中山路30號","121.803863333333","25.10626","6501200","瑞芳區"
"224008","285-BY","2018/05/12 19:09:12","新北市瑞芳區瑞芳街82-1號","121.802865","25.110005","6501200","瑞芳區"
"224007","275-VK","2018/05/12 19:09:01","新北市瑞芳區瑞竹路114號","121.762225","25.1039483333333","6501200","瑞芳區"
"224009","273-VK","2018/05/12 19:09:03","新北市瑞芳區洞頂路101巷35號","121.8608","25.1200966666667","6501200","瑞芳區"
"224005","271-BY","2018/05/12 19:09:07","新北市瑞芳區國中新村34號","121.81651","25.1078766666667","6501200","瑞芳區"
"227010","642-TC","2018/05/12 19:08:59","新北市雙溪區牡丹里中正路23號","121.86466","25.0374616666667","6502500","雙溪區"
"227002","400-TW","2018/05/12 19:09:05","新北市雙溪區平林里外平林8-2號","121.859345","25.03815","6502500","雙溪區"
"253005","032-BX","2018/05/12 19:09:09","新北市石門區阿里荖40-1號","121.606136666667","25.2806583333333","6502200","石門區"
"253006","295-VK","2018/05/12 19:09:03","新北市石門區海灣新城1號","121.523166666667","25.2853683333333","6502200","石門區"
"222001","KEA-2212","2018/05/12 19:09:12","新北市深坑區北深路一段300號","121.624301666667","25.005765","6501800","深坑區"
"208002","KEA-2872","2018/05/12 19:09:05","新北市金山區中華路112巷13號","121.633968333333","25.22084","6502700","金山區"
"208003","665-BX","2018/05/12 19:08:53","新北市金山區中正路135號","121.63244","25.22154","6502700","金山區"
"208001","761-BX","2018/05/12 19:09:08","新北市金山區福德街14號","121.639286666667","25.2217666666667","6502700","金山區"
"251001","011-UM","2018/05/12 19:08:57","新北市淡水區民權路94巷1號","121.463096666667","25.1250683333333","6501000","淡水區"
"251002","012-UM","2018/05/12 19:08:58","新北市淡水區中山路93-1號","121.442275","25.1704516666667","6501000","淡水區"
"251013","KEA-2871","2018/05/12 19:09:04","新北市淡水區安子內12-1號","121.4815","25.2191016666667","6501000","淡水區"
"251014","180-VK","2018/05/12 19:09:00","新北市淡水區北勢子10-2號","121.483365","25.2288216666667","6501000","淡水區"
"251015","182-VK","2018/05/12 19:09:08","新北市淡水區埔子頂13號","121.483283333333","25.1728983333333","6501000","淡水區"
"251010","413-VK","2018/05/12 19:09:00","新北市淡水區中正路一段156巷3號","121.421183333333","25.180215","6501000","淡水區"
"251007","442-VK","2018/05/12 19:09:06","新北市淡水區民生路145巷58號","121.468026666667","25.1388","6501000","淡水區"
"251005","443-VK","2018/05/12 19:08:52","新北市淡水區中山路108巷16號","121.442208333333","25.1711233333333","6501000","淡水區"
"251006","561-UM","2018/05/12 19:09:10","新北市淡水區中山北路二段375號","121.444121666667","25.1869383333333","6501000","淡水區"
"251016","575-R6","2018/05/12 19:09:03","新北市淡水區淡金路三段170號","121.448733333333","25.2027533333333","6501000","淡水區"
"251011","650-BX","2018/05/12 19:05:53","新北市淡水區中正東路二段143巷2弄1號","121.460623333333","25.14732","6501000","淡水區"
"251003","766-UM","2018/05/12 19:09:13","新北市淡水區中山北路一段189號","121.443681666667","25.1782716666667","6501000","淡水區"
"207003","550-UM","2018/05/12 19:09:13","新北市萬里區大鵬里萬里加投24-2號","121.649116666667","25.20734","6502800","萬里區"
"207004","225-TW","2018/05/12 19:09:02","新北市萬里區萬里里瑪鋉下街50號","121.691541666667","25.1795","6502800","萬里區"
"252002","178-VK","2018/05/12 19:09:04","新北市三芝區埔坪里埔頭坑77號","121.509391666667","25.25441","6502100","三芝區"
"252003","249-BX","2018/05/12 19:09:14","新北市三芝區錫板里南勢崗6號","121.479568333333","25.2620166666667","6502100","三芝區"
"252001","292-VK","2018/05/12 19:09:03","新北市三芝區長勤街82號","121.500246666667","25.2550883333333","6502100","三芝區"
"237004","KEA-2597","2018/05/12 19:09:10","新北市三峽區有木154-5號","121.450411666667","24.84475","6500900","三峽區"
"237007","153-BY","2018/05/12 19:09:05","新北市三峽區中正路二段218號","121.36598","24.9139083333333","6500900","三峽區"
"237011","572-TV","2018/05/12 19:08:57","新北市三峽區中正路一段244號","121.371928333333","24.927105","6500900","三峽區"
"237013","252-BX","2018/05/12 19:09:09","新北市三峽區光明路69巷25號","121.376575","24.9292366666667","6500900","三峽區"
"237012","275-BY","2018/05/12 19:09:01","新北市三峽區三樹路222巷236弄23號","121.39143","24.9430416666667","6500900","三峽區"
"237008","302-VK","2018/05/12 19:09:05","新北市三峽區光明路100-6號","121.376131666667","24.9280033333333","6500900","三峽區"
"237014","433-BY","2018/05/12 19:08:57","新北市三峽區中山路184巷2號","121.364166666667","24.9369816666667","6500900","三峽區"
"237006","5529-G3","2018/05/12 19:09:02","新北市三峽區橫溪路95號","121.398393333333","24.9354533333333","6500900","三峽區"
"237010","706-TV","2018/05/12 19:09:11","新北市三峽區復興路159號","121.370505","24.9383716666667","6500900","三峽區"
"237005","AKY-6261","2018/05/12 19:09:04","新北市三峽區中山路459巷163-3號","121.348676666667","24.9329033333333","6500900","三峽區"
"236070","105-UM","2018/05/12 19:09:00","新北市土城區裕民路54號","121.448536666667","24.987885","6501300","土城區"
"236042","107-UM","2018/05/12 19:08:57","新北市土城區學府路一段276號","121.450146666667","24.9830416666667","6501300","土城區"
"236079","166-UM","2018/05/12 19:08:55","新北市土城區龍泉路50號","121.412815","24.9444766666667","6501300","土城區"
"236026","269-VK","2018/05/12 19:09:09","新北市土城區中央路二段177巷29號","121.444121666667","24.9762166666667","6501300","土城區"
"236014","270-VK","2018/05/12 19:08:59","新北市土城區學府路一段37巷23號","121.45769","24.987685","6501300","土城區"
"236038","271-VK","2018/05/12 19:09:07","新北市土城區清水路100號","121.457475","24.9813466666667","6501300","土城區"
"236021","401-BY","2018/05/12 19:09:02","新北市土城區延峰街36巷2號","121.46959","24.9846183333333","6501300","土城區"
"236059","912-UM","2018/05/12 19:09:02","新北市土城區金城路一段131號","121.444793333333","24.973705","6501300","土城區"
"236049","913-UM","2018/05/12 19:09:01","新北市土城區明德路一段365-1號","121.45363","24.9791083333333","6501300","土城區"
"236063","915-UM","2018/05/12 19:09:11","新北市土城區金城路三段71號","121.466441666667","24.9871233333333","6501300","土城區"
"236055","AAC-216","2018/05/12 19:09:05","新北市土城區學成路16號","121.453221666667","24.9867783333333","6501300","土城區"
"238015","755-BX","2018/05/12 19:09:01","新北市樹林區備內街99號","121.407903333333","24.989175","6500700","樹林區"
"238023","601-UM","2018/05/12 19:09:14","新北市樹林區大慶街48號","121.397106666667","25.0139816666667","6500700","樹林區"
"238019","599-UM","2018/05/12 19:09:04","新北市樹林區東華街83號","121.415675","24.9807983333333","6500700","樹林區"
"238018","571-TV","2018/05/12 19:09:04","新北市樹林區中山路三段73號","121.40044","24.9749766666667","6500700","樹林區"
"238024","5061-A6","2018/05/12 19:09:15","新北市樹林區中山路二段249巷21號","121.402743333333","24.97563","6500700","樹林區"
"238021","KEA-2217","2018/05/12 19:08:56","新北市樹林區柑園街二段426號","121.364736666667","24.9473866666667","6500700","樹林區"
"238025","303-VK","2018/05/12 19:09:00","新北市樹林區中山路三段325號","121.390923333333","24.9714583333333","6500700","樹林區"
"238017","283-BY","2018/05/12 19:08:33","新北市樹林區光興街368號","121.40678","25.0057133333333","6500700","樹林區"
"238014","282-BY","2018/05/12 19:09:03","新北市樹林區中正路22-1號","121.42783","24.9994366666667","6500700","樹林區"
"238020","268-VK","2018/05/12 19:09:11","新北市樹林區俊英街133巷18號","121.423711666667","25.0111766666667","6500700","樹林區"
"238026","172-UY","2018/05/12 19:09:03","新北市樹林區佳園路二段16-2號","121.392058333333","24.9635633333333","6500700","樹林區"
"238016","169-UY","2018/05/12 19:09:11","新北市樹林區中山路一段356巷8號","121.418908333333","24.9864533333333","6500700","樹林區"
"239007","AAC-297","2018/05/12 19:09:09","新北市鶯歌區中山路138巷3-10號","121.349701666667","24.95858","6500800","鶯歌區"
"239006","891-R6","2018/05/12 19:09:01","新北市鶯歌區鶯桃路173號","121.336938333333","24.9553716666667","6500800","鶯歌區"
"239008","527-UM","2018/05/12 19:09:04","新北市鶯歌區大湖路534號","121.337418333333","24.9728433333333","6500800","鶯歌區"
"239005","526-UM","2018/05/12 19:08:57","新北市鶯歌區中湖街170號","121.349306666667","24.974025","6500800","鶯歌區"
"239001","417-VK","2018/05/12 19:09:03","新北市鶯歌區永智街30號","121.336641666667","24.9545983333333","6500800","鶯歌區"
"239003","360-BY","2018/05/12 19:08:27","新北市鶯歌區德昌二街92-1號","121.332748333333","24.9551866666667","6500800","鶯歌區"
"239002","359-BY","2018/05/12 19:09:01","新北市鶯歌區大湖路530巷2-2號","121.337651666667","24.972315","6500800","鶯歌區"
"239004","193-VK","2018/05/12 19:09:06","新北市鶯歌區二甲路97號","121.333201666667","24.931695","6500800","鶯歌區"
"221008","489-VK","2018/05/12 19:09:14","新北市汐止區康寧街418-1號","121.630525","25.0680583333333","6501100","汐止區"
"221036","130-UY","2018/05/12 19:09:01","新北市汐止區康寧街901號","121.651613333333","25.0748783333333","6501100","汐止區"
"221015","131-UY","2018/05/12 19:09:03","新北市汐止區汐萬路一段256巷3號","121.652685","25.0745216666667","6501100","汐止區"
"221010","269-BY","2018/05/12 19:09:04","新北市汐止區康寧街901號","121.651556666667","25.0750666666667","6501100","汐止區"
"221012","278-VK","2018/05/12 19:08:57","新北市汐止區汐萬路一段308號","121.650706666667","25.0750616666667","6501100","汐止區"
"221023","279-VK","2018/05/12 19:09:05","新北市汐止區康寧街901號","121.650998333333","25.0752333333333","6501100","汐止區"
"221032","280-BY","2018/05/12 19:09:07","新北市汐止區新台五路一段1號","121.64636","25.0607233333333","6501100","汐止區"
"221027","281-BY","2018/05/12 19:09:14","新北市汐止區康寧街901號","121.651341666667","25.074945","6501100","汐止區"
"221029","298-VK","2018/05/12 19:06:31","新北市汐止區汐萬路一段312號","121.650511666667","25.0754083333333","6501100","汐止區"
"221031","353-TW","2018/05/12 19:08:57","新北市汐止區福德三路127號","121.633605","25.0676566666667","6501100","汐止區"
"221025","623-UM","2018/05/12 19:09:06","新北市汐止區康寧街901號","121.651453333333","25.074915","6501100","汐止區"
"221038","646-BX","2018/05/12 19:09:04","新北市汐止區康寧街901號","121.650713333333","25.0752833333333","6501100","汐止區"
"221033","647-BX","2018/05/12 19:08:39","新北市汐止區南勢街1巷1號","121.627038333333","25.03742","6501100","汐止區"
"221002","707-TV","2018/05/12 19:09:05","新北市汐止區大同路一段52號","121.622533333333","25.05487","6501100","汐止區"
"220079","145-BY","2018/05/12 19:09:12","新北市板橋區民權路260巷42號","121.459476666667","25.0151933333333","6500100","板橋區"
"220103","257-TC","2018/05/12 19:09:05","新北市板橋區文化路一段188巷9弄23號","121.468581666667","25.0194466666667","6500100","板橋區"
"220091","267-BY","2018/05/12 19:09:08","新北市板橋區縣民大道247巷33號","121.482045","25.0266716666667","6500100","板橋區"
"220056","276-BY","2018/05/12 19:09:02","新北市板橋區信義路74巷1弄1號","121.457255","24.9931416666667","6500100","板橋區"
"220072","277-BY","2018/05/12 19:09:14","新北市板橋區金門街369巷57弄8號","121.429235","24.98403","6500100","板橋區"
"220082","282-UM","2018/05/12 19:09:10","新北市板橋區溪崑二街87號","121.42729","24.9896133333333","6500100","板橋區"
"220071","283-VK","2018/05/12 19:08:55","新北市中和區華安街2號","121.465365","24.99868","6500100","板橋區"
"220094","285-UM","2018/05/12 19:09:06","新北市板橋區光武街102號","121.465941666667","25.0289066666667","6500100","板橋區"
"220053","285-VK","2018/05/12 19:09:10","新北市板橋區懷仁街10巷10號","121.475635","25.0199033333333","6500100","板橋區"
"220083","286-VK","2018/05/12 19:09:09","新北市板橋區大觀路二段174巷165弄2-1號","121.441563333333","25.0034433333333","6500100","板橋區"
"220081","287-VK","2018/05/12 19:09:06","新北市板橋區南雅西路二段110巷23號","121.45263","25.0126783333333","6500100","板橋區"
"220090","288-VK","2018/05/12 19:09:08","新北市板橋區裕民街45巷4號","121.46148","25.02835","6500100","板橋區"
"220061","293-UM","2018/05/12 19:09:15","新北市板橋區中山路二段267號","121.47764","25.0179516666667","6500100","板橋區"
"220084","296-UM","2018/05/12 19:08:57","新北市板橋區篤行路一段48號","121.4317","24.99352","6500100","板橋區"
"220075","303-R5","2018/05/12 19:09:03","新北市板橋區館前西路122號","121.456526666667","25.0077483333333","6500100","板橋區"
"220062","305-R5","2018/05/12 19:09:00","新北市板橋區三民路二段居仁巷1弄14號","121.479693333333","25.0136","6500100","板橋區"
"220092","307-R5","2018/05/12 19:08:56","新北市板橋區文化路二段19號","121.46871","25.0245916666667","6500100","板橋區"
"220098","317-R6","2018/05/12 19:09:10","新北市板橋區四維路103巷32號","121.464403333333","25.0240083333333","6500100","板橋區"
"220064","486-VK","2018/05/12 19:09:06","新北市板橋區中山路一段266號","121.472028333333","25.0148216666667","6500100","板橋區"
"220088","491-VK","2018/05/12 19:09:00","新北市板橋區文化路二段182巷1弄17號","121.471436666667","25.0279133333333","6500100","板橋區"
"220035","560-BX","2018/05/12 19:09:13","新北市板橋區瑞安街51號","121.455408333333","25.0222566666667","6500100","板橋區"
"220063","609-BX","2018/05/12 19:09:06","新北市板橋區三民路二段138巷1弄3號","121.47895","25.01536","6500100","板橋區"
"220055","630-UY","2018/05/12 19:09:06","新北市板橋區新民街7巷12號","121.463561666667","25.0104266666667","6500100","板橋區"
"220057","686-BX","2018/05/12 19:09:07","新北市板橋區重慶路290號","121.463643333333","24.9989916666667","6500100","板橋區"
"220077","687-BX","2018/05/12 19:09:11","新北市板橋區大觀路一段35巷2號","121.449188333333","25.0083816666667","6500100","板橋區"
"220093","689-BX","2018/05/12 19:09:10","新北市板橋區民生路三段221號","121.464863333333","25.0283583333333","6500100","板橋區"
"220054","741-BX","2018/05/12 19:08:55","新北市板橋區實踐路29號","121.463676666667","25.0071566666667","6500100","板橋區"
"220102","KEA-2699","2018/05/12 19:09:08","新北市板橋區田單街2巷39-3號","121.482291666667","25.0277266666667","6500100","板橋區"
"220067","829-TW","2018/05/12 19:09:10","新北市板橋區民享街116巷2弄18號","121.47739","25.015495","6500100","板橋區"
"220068","830-TW","2018/05/12 19:09:01","新北市板橋區三民路一段31巷9-2號","121.479686666667","25.0231583333333","6500100","板橋區"
"220096","831-TW","2018/05/12 19:09:07","新北市板橋區雙十路二段33巷1-1號","121.476506666667","25.0255916666667","6500100","板橋區"
"220089","833-TW","2018/05/12 19:09:13","新北市板橋區文化路二段419號","121.47453","25.0325216666667","6500100","板橋區"
"220074","895-R6","2018/05/12 19:09:02","新北市板橋區中正路自強新村45-1號","121.454821666667","25.01387","6500100","板橋區"
"220073","985-R7","2018/05/12 19:08:54","新北市板橋區新生街82號","121.45799","25.0214483333333","6500100","板橋區"
"220097","AAC-210","2018/05/12 19:09:09","新北市板橋區公館街252號","121.46005","25.0211916666667","6500100","板橋區"
"220070","AAC-253","2018/05/12 19:09:03","新北市板橋區四川路一段353號","121.458363333333","24.9998866666667","6500100","板橋區"
