"lineid","car","time","location","longitude","latitude","cityid","cityname"
"234046","148-BY","2018/05/12 19:59:03","新北市永和區成功路一段16巷4號","121.526766666667","25.005525","6500400","永和區"
"234007","207-UY","2018/05/12 19:59:04","新北市永和區永貞路391號","121.507766666667","25.008635","6500400","永和區"
"234081","298-R6","2018/05/12 19:58:53","新北市永和區國中路10號","121.524308333333","25.004835","6500400","永和區"
"234038","336-UY","2018/05/12 19:59:11","新北市永和區成功路二段142號","121.526536666667","24.9971866666667","6500400","永和區"
"234064","337-UY","2018/05/12 19:59:12","新北市永和區中正路412巷20弄15號","121.518813333333","25.0016416666667","6500400","永和區"
"234086","338-UY","2018/05/12 19:59:00","新北市永和區福和路73號","121.522583333333","25.00788","6500400","永和區"
"234070","552-UM","2018/05/12 19:59:08","新北市永和區國光路8號","121.519493333333","25.0084616666667","6500400","永和區"
"234017","745-BX","2018/05/12 19:59:15","新北市永和區文化路9巷16弄30號","121.514563333333","25.01489","6500400","永和區"
"234030","746-BX","2018/05/12 19:58:59","新北市永和區民生路22巷19號","121.521478333333","24.9971","6500400","永和區"
"234054","KEA-2590","2018/05/12 19:59:02","新北市永和區環河東路一段122號","121.520643333333","25.0155216666667","6500400","永和區"
"234013","KEA-2591","2018/05/12 19:59:11","新北市永和區保生路55號","121.504736666667","25.0106083333333","6500400","永和區"
"234061","AAD-866","2018/05/12 19:59:02","新北市永和區得和路47號","121.516651666667","25.0002616666667","6500400","永和區"
"234042","862-TW","2018/05/12 19:59:11","新北市永和區中和路335巷8號","121.507523333333","25.000055","6500400","永和區"
"234050","863-TW","2018/05/12 19:59:01","新北市永和區保安路254號","121.506305","25.0125366666667","6500400","永和區"
"234026","9371-KE","2018/05/12 19:58:54","新北市永和區水源街27巷11號","121.511446666667","25.0039466666667","6500400","永和區"
"234011","9373-KE","2018/05/12 19:59:00","新北市永和區仁愛路352巷120號","121.500296666667","25.00857","6500400","永和區"
"249005","172-UM","2018/05/12 19:59:08","新北市八里區楓林路3-2號","121.382586666667","25.12993","6502300","八里區"
"249001","173-UM","2018/05/12 19:59:02","新北市八里區中華路二段310號","121.403781666667","25.1483833333333","6502300","八里區"
"249004","303-UY","2018/05/12 19:59:01","新北市八里區中華路一段333-1號","121.413045","25.1541533333333","6502300","八里區"
"249002","305-UY","2018/05/12 19:58:49","新北市八里區頂寮一街42號","121.450546666667","25.123985","6502300","八里區"
"249003","759-BX","2018/05/12 19:59:09","新北市八里區中華路二段556號","121.39882","25.1452916666667","6502300","八里區"
"248014","025-BX","2018/05/12 19:59:11","新北市五股區五福路6巷15號","121.435283333333","25.0883866666667","6501500","五股區"
"248016","026-BX","2018/05/12 19:59:12","新北市五股區成泰路三段577巷80弄67號","121.44957","25.10516","6501500","五股區"
"248008","095-VK","2018/05/12 19:59:04","新北市五股區四維路30巷12號","121.467855","25.07153","6501500","五股區"
"248020","225-UY","2018/05/12 19:59:09","新北市五股區凌雲路三段46號","121.43074","25.108705","6501500","五股區"
"248010","272-BY","2018/05/12 19:59:14","新北市五股區登林路46巷2號","121.432101666667","25.068635","6501500","五股區"
"248004","655-BX","2018/05/12 19:59:10","新北市五股區成泰路一段32巷37號","121.435295","25.06714","6501500","五股區"
"248002","678-BX","2018/05/12 19:59:03","新北市五股區成泰路三段487號","121.450781666667","25.099295","6501500","五股區"
"248012","682-TV","2018/05/12 19:59:12","新北市五股區民義路一段112-10號","121.435401666667","25.0852733333333","6501500","五股區"
"234023","9380-KE","2018/05/12 19:59:08","新北市永和區豫溪街57巷8弄9號","121.51781","25.0104166666667","6500400","永和區"
"234077","969-R7","2018/05/12 19:59:09","新北市永和區民有街1號","121.515835","24.9974716666667","6500400","永和區"
"234074","AAC-211","2018/05/12 19:59:13","新北市永和區豫溪街215巷26號","121.523845","25.01019","6500400","永和區"
"234067","AAC-212","2018/05/12 19:59:03","新北市永和區保平路236巷24弄2號","121.508423333333","25.0070283333333","6500400","永和區"
"234003","AAC-295","2018/05/12 19:58:58","新北市永和區永和路二段3號","121.514325","25.009985","6500400","永和區"
"243011","267-VK","2018/05/12 19:59:05","新北市泰山區明志路三段196巷21弄17號","121.42263","25.0384383333333","6501600","泰山區"
"243013","AAD-798","2018/05/12 19:37:27","新北市泰山區應化街7號","121.423866666667","25.0437183333333","6501600","泰山區"
"243009","297-R6","2018/05/12 19:59:11","新北市泰山區楓江路16巷10號","121.433821666667","25.0619816666667","6501600","泰山區"
"243016","380-SR","2018/05/12 19:59:09","新北市泰山區貴鳳街2號","121.42107","25.0312316666667","6501600","泰山區"
"243015","421-VK","2018/05/12 19:59:00","新北市泰山區文程路1號","121.427615","25.0496533333333","6501600","泰山區"
"243010","KEA-2216","2018/05/12 19:58:57","新北市泰山區中華街10巷1號","121.427863333333","25.0525033333333","6501600","泰山區"
"243012","646-TV","2018/05/12 19:58:58","新北市泰山區全興路5號","121.432211666667","25.05907","6501600","泰山區"
"243014","680-BX","2018/05/12 19:59:09","新北市泰山區泰林路二段176號","121.433826666667","25.060635","6501600","泰山區"
"222003","436-BY","2018/05/12 19:59:12","新北市深坑區埔新街14號","121.620725","25.0039733333333","6501800","深坑區"
"222002","659-BX","2018/05/12 19:59:04","新北市深坑區北深路二段81巷8弄2號","121.618333333333","25.003145","6501800","深坑區"
"231041","002-UM","2018/05/12 19:59:05","新北市新店區三民路191號","121.535528333333","24.9756133333333","6500600","新店區"
"231059","046-UY","2018/05/12 19:59:13","新北市新店區安和路一段1號","121.5168","24.9638983333333","6500600","新店區"
"231040","047-UY","2018/05/12 19:59:13","新北市新店區中正路75巷71號","121.543156666667","24.968925","6500600","新店區"
"231044","106-UY","2018/05/12 19:59:12","新北市新店區復興路27號","121.539026666667","24.9866616666667","6500600","新店區"
"231046","107-UY","2018/05/12 19:59:13","新北市新店區中央路97號","121.531271666667","24.9749766666667","6500600","新店區"
"231052","108-UY","2018/05/12 19:59:10","新北市新店區新烏路三段寶島巷2弄3號","121.551975","24.8985716666667","6500600","新店區"
"231048","187-VK","2018/05/12 19:58:57","新北市新店區寶宏路16號","121.54919","24.9761466666667","6500600","新店區"
"231054","KEA-2219","2018/05/12 19:59:13","新北市新店區光明街133號","121.53946","24.96193","6500600","新店區"
"231042","268-BY","2018/05/12 19:58:57","新北市新店區中正路5號","121.54579","24.96906","6500600","新店區"
"231051","278-BY","2018/05/12 19:59:13","新北市新店區中央一街29號","121.527933333333","24.9733916666667","6500600","新店區"
"231050","AAD-862","2018/05/12 19:59:10","新北市新店區北宜路二段115號","121.550618333333","24.952875","6500600","新店區"
"231066","4716-K9","2018/05/12 19:59:03","新北市新店區柴埕路2-1號","121.515003333333","24.9659366666667","6500600","新店區"
"231056","4715-K9","2018/05/12 19:59:10","新北市新店區明德路24號","121.542045","24.9771733333333","6500600","新店區"
"231067","4772-VM","2018/05/12 19:59:13","新北市新店區秀山路45巷10號","121.531041666667","24.9602683333333","6500600","新店區"
"231065","512-UM","2018/05/12 19:59:12","新北市新店區安祥路109巷8號","121.47541","24.958815","6500600","新店區"
"231049","513-UM","2018/05/12 19:59:11","新北市新店區明德路75巷2號","121.541356666667","24.9781016666667","6500600","新店區"
"231057","515-UM","2018/05/12 19:59:04","新北市新店區花園二路一段11號","121.555466666667","24.93253","6500600","新店區"
"231063","616-UM","2018/05/12 19:59:11","新北市新店區黎明路9號","121.502608333333","24.950495","6500600","新店區"
"231045","617-UM","2018/05/12 19:59:07","新北市新店區北宜路二段269號","121.55469","24.9536083333333","6500600","新店區"
"231061","619-UM","2018/05/12 19:59:09","新北市新店區安民街311號","121.517518333333","24.974065","6500600","新店區"
"231068","718-UY","2018/05/12 19:59:15","新北市新店區安一路一段1-1號","121.519415","24.9613083333333","6500600","新店區"
"231064","719-UM","2018/05/12 19:59:00","新北市新店區光華街7巷2號","121.517556666667","24.9690933333333","6500600","新店區"
"231062","720-UM","2018/05/12 19:58:54","新北市新店區華城路10巷1-3號","121.528823333333","24.957785","6500600","新店區"
"231060","897-TW","2018/05/12 19:59:08","新北市新店區安康路二段458號","121.494323333333","24.9541266666667","6500600","新店區"
"231043","899-TW","2018/05/12 19:59:01","新北市新店區中正路282-11號","121.538536666667","24.9739866666667","6500600","新店區"
"231055","AKT-0513","2018/05/12 19:59:13","新北市新店區中華路83巷61號","121.538456666667","24.9674316666667","6500600","新店區"
"241011","013-R5","2018/05/12 19:59:11","新北市三重區三和路二段220號","121.497891666667","25.0695783333333","6500200","三重區"
"241008","059-VK","2018/05/12 19:59:01","新北市三重區永福街179巷28號","121.477985","25.0746916666667","6500200","三重區"
"241009","060-VK","2018/05/12 19:59:14","新北市三重區三和路四段392-1號","121.481625","25.07911","6500200","三重區"
"241015","062-VK","2018/05/12 19:59:06","新北市三重區三和路二段19號","121.501186666667","25.06697","6500200","三重區"
"241017","063-VK","2018/05/12 19:59:10","新北市三重區重陽路三段192-4號","121.490565","25.0685916666667","6500200","三重區"
"241024","065-VK","2018/05/12 19:59:09","新北市三重區力行路二段2號","121.481968333333","25.0718866666667","6500200","三重區"
"241026","066-VK","2018/05/12 19:59:09","新北市三重區中央南路9號","121.501096666667","25.0628183333333","6500200","三重區"
"241003","091-VK","2018/05/12 19:59:06","新北市三重區仁愛街445巷7號","121.490193333333","25.08244","6500200","三重區"
"241005","262-UM","2018/05/12 19:59:01","新北市三重區溪尾街325巷23號","121.488495","25.0833883333333","6500200","三重區"
"241028","265-UM","2018/05/12 19:59:02","新北市三重區中正南路41巷1號","121.493731666667","25.06002","6500200","三重區"
"241016","266-UM","2018/05/12 19:59:11","新北市三重區正義北路36巷17號","121.496651666667","25.0633916666667","6500200","三重區"
"241022","267-UM","2018/05/12 19:59:11","新北市三重區過圳街31巷2號","121.488905","25.06054","6500200","三重區"
"241018","268-UM","2018/05/12 19:59:06","新北市三重區正義北路244巷37號","121.495035","25.0679266666667","6500200","三重區"
"241032","269-UM","2018/05/12 19:58:59","新北市三重區朝陽街4巷1號","121.483495","25.0564883333333","6500200","三重區"
"241013","270-UM","2018/05/12 19:59:03","新北市三重區三和路三段125巷38號","121.493851666667","25.0737666666667","6500200","三重區"
"241025","271-UM","2018/05/12 19:59:13","新北市三重區頂崁街210巷16號","121.476495","25.0677266666667","6500200","三重區"
"241007","398-BY","2018/05/12 19:59:05","新北市三重區慈愛街84號","121.488338333333","25.0798416666667","6500200","三重區"
"241020","413-TH","2018/05/12 19:59:14","新北市三重區忠孝路一段101號","121.489545","25.0721016666667","6500200","三重區"
"241035","462-BY","2018/05/12 19:59:11","新北市三重區大榮街11號","121.498203333333","25.0632983333333","6500200","三重區"
"241004","475-VK","2018/05/12 19:59:02","新北市三重區仁愛街425巷95號","121.492295","25.082695","6500200","三重區"
"241014","543-UM","2018/05/12 19:59:01","新北市三重區介壽路1號","121.498983333333","25.0688866666667","6500200","三重區"
"241023","545-UM","2018/05/12 19:59:14","新北市三重區頂崁街172號","121.477555","25.065935","6500200","三重區"
"241001","547-UM","2018/05/12 19:58:59","新北市三重區仁愛街283巷29號","121.493983333333","25.0796266666667","6500200","三重區"
"241006","AAD-863","2018/05/12 19:59:00","新北市三重區力行路二段102號","121.481991666667","25.0747783333333","6500200","三重區"
"241030","743-BX","2018/05/12 19:59:15","新北市三重區重新路四段248-1號","121.486268333333","25.0534616666667","6500200","三重區"
"241019","887-TS","2018/05/12 19:59:08","新北市三重區重陽路四段27號","121.49144","25.069455","6500200","三重區"
"241012","941-UM","2018/05/12 19:59:05","新北市三重區仁厚街53號","121.50046","25.0765883333333","6500200","三重區"
"241029","942-UM","2018/05/12 19:59:08","新北市三重區重新路三段204號","121.49008","25.0583466666667","6500200","三重區"
"241033","AAC-255","2018/05/12 19:59:05","新北市三重區中興北街77號","121.469426666667","25.0477","6500200","三重區"
"235047","031-BX","2018/05/12 19:59:06","新北市中和區和平街74號","121.50788","24.9910016666667","6500300","中和區"
"235056","096-UM","2018/05/12 19:58:56","新北市中和區中山路三段166號","121.473","25.00651","6500300","中和區"
"235039","097-UM","2018/05/12 19:59:12","新北市中和區大勇街25巷29弄2號","121.515245","24.993925","6500300","中和區"
"235040","150-BY","2018/05/12 19:59:11","新北市中和區保健路12號","121.508016666667","24.997975","6500300","中和區"
"235058","151-BY","2018/05/12 19:59:09","新北市中和區員山路142巷24號","121.482481666667","24.996465","6500300","中和區"
"235055","183-VK","2018/05/12 19:59:11","新北市中和區民生街35巷3弄1號","121.47045","25.0049416666667","6500300","中和區"
"235049","186-VK","2018/05/12 19:59:03","新北市中和區南華路5號","121.502036666667","24.995485","6500300","中和區"
"235067","255-BX","2018/05/12 19:59:14","新北市中和區民樂路81號","121.484741666667","25.0013133333333","6500300","中和區"
"235044","293-VK","2018/05/12 19:58:55","新北市中和區南山路273號","121.503945","24.9923666666667","6500300","中和區"
"235043","352-BY","2018/05/12 19:59:12","新北市中和區興南路二段159巷7號","121.50536","24.9832","6500300","中和區"
"235068","377-QA","2018/05/12 19:59:13","新北市中和區中山路二段250巷24號","121.49727","25.0033083333333","6500300","中和區"
"235061","378-QA","2018/05/12 19:59:07","新北市中和區新生街176巷30號","121.482326666667","24.9997983333333","6500300","中和區"
"235050","4979-A6","2018/05/12 19:59:04","新北市中和區景平路155號","121.513446666667","24.9919933333333","6500300","中和區"
"235069","4980-A6","2018/05/12 19:59:11","新北市中和區圓通路213號","121.496856666667","24.9942833333333","6500300","中和區"
"235042","551-UM","2018/05/12 19:59:14","新北市中和區保健路9號","121.507843333333","24.9983","6500300","中和區"
"235070","558-UM","2018/05/12 19:59:15","新北市中和區中正路434號","121.491388333333","24.994275","6500300","中和區"
"235054","640-BX","2018/05/12 19:58:57","新北市中和區莒光路110號","121.47243","25.0021066666667","6500300","中和區"
"235046","733-UM","2018/05/12 19:59:10","新北市中和區興南路一段93巷89弄2號","121.510706666667","24.9859416666667","6500300","中和區"
"235041","802-TS","2018/05/12 19:59:09","新北市中和區安平路30號","121.50952","24.9946816666667","6500300","中和區"
"235052","805-TS","2018/05/12 19:59:10","新北市中和區華新街50巷5弄28號","121.507471666667","24.9834116666667","6500300","中和區"
"235048","896-TW","2018/05/12 19:58:58","新北市中和區景新街481號","121.513613333333","24.9875916666667","6500300","中和區"
"235053","900-TW","2018/05/12 19:58:58","新北市中和區華安街99號","121.468145","24.9963216666667","6500300","中和區"
"235066","911-UM","2018/05/12 19:59:00","新北市中和區光華街38號","121.504865","25.0038916666667","6500300","中和區"
"235051","157-BY","2018/05/12 19:59:14","新北市中和區中興街233巷10號","121.501491666667","24.989475","6500300","中和區"
"235037","AAC-213","2018/05/12 19:59:13","新北市中和區自立路99巷20號","121.523151666667","24.994605","6500300","中和區"
"235059","AAC-215","2018/05/12 19:58:59","新北市中和區圓通路335巷5弄15號","121.493548333333","24.9901266666667","6500300","中和區"
"220080","015-TV","2018/05/12 19:58:59","新北市板橋區大觀路二段61號","121.446636666667","25.0025833333333","6500100","板橋區"
"220065","072-UY","2018/05/12 19:59:08","新北市板橋區民族路69巷5號","121.46549","25.0091816666667","6500100","板橋區"
"220106","075-UY","2018/05/12 19:59:03","新北市板橋區民治街52巷11號","121.47893","25.0327916666667","6500100","板橋區"
"220069","AAD-861","2018/05/12 19:59:08","新北市板橋區大明街25巷4弄9號","121.457585","25.00211","6500100","板橋區"
"247024","893-R6","2018/05/12 19:58:55","新北市蘆洲區光榮路120巷8弄37號","121.464625","25.0879733333333","6501400","蘆洲區"
"247014","546-UM","2018/05/12 19:59:03","新北市蘆洲區成功路104號","121.472488333333","25.0822233333333","6501400","蘆洲區"
"247010","341-TH","2018/05/12 19:59:07","新北市三重區集賢路201號","121.483971666667","25.0878933333333","6501400","蘆洲區"
"247012","339-TH","2018/05/12 19:59:00","新北市蘆洲區民族路228號","121.479685","25.0881933333333","6501400","蘆洲區"
"247004","337-TH","2018/05/12 19:58:57","新北市蘆洲區永康街61號","121.456408333333","25.085165","6501400","蘆洲區"
"247006","336-TH","2018/05/12 19:58:58","新北市蘆洲區九芎街109號","121.465641666667","25.079675","6501400","蘆洲區"
"247008","056-VK","2018/05/12 19:59:10","新北市蘆洲區信義路109號","121.478306666667","25.0801","6501400","蘆洲區"
"247016","007-UY","2018/05/12 19:58:56","新北市蘆洲區中正路106號","121.469685","25.0845816666667","6501400","蘆洲區"
"247002","002-UY","2018/05/12 19:59:14","新北市蘆洲區永樂街31巷9號","121.458076666667","25.0872566666667","6501400","蘆洲區"
"247020","001-UY","2018/05/12 19:58:58","新北市蘆洲區民義街62號","121.472818333333","25.08963","6501400","蘆洲區"
"226004","312-R5","2018/05/12 19:58:31","新北市平溪區石底里公園街18-3號","121.733481666667","25.0259533333333","6502400","平溪區"
"235065","251-BX","2018/05/12 19:58:58","新北市中和區永和路39巷2號","121.498036666667","25.0048916666667","6500300","中和區"
"228003","097-TW","2018/05/12 19:59:08","新北市貢寮區仁理村仁和路220號","121.923815","25.0534083333333","6502600","貢寮區"
"224010","AGQ-8101","2018/05/12 19:59:10","新北市瑞芳區基山街196號","121.842646666667","25.1074433333333","6501200","瑞芳區"
"227010","642-TC","2018/05/12 19:58:59","新北市雙溪區新基里朝陽街10號","121.866183333333","25.038675","6502500","雙溪區"
"227002","400-TW","2018/05/12 19:59:05","新北市雙溪區雙溪里長安街16號","121.864965","25.0346883333333","6502500","雙溪區"
"222001","KEA-2212","2018/05/12 19:59:12","新北市深坑區北深路三段160號","121.602731666667","25.0034483333333","6501800","深坑區"
"208002","KEA-2872","2018/05/12 19:59:11","新北市金山區環金路201號","121.633326666667","25.2186716666667","6502700","金山區"
"208003","665-BX","2018/05/12 19:59:13","新北市金山區永興里濆水路2號","121.62474","25.270375","6502700","金山區"
"208001","761-BX","2018/05/12 19:59:08","新北市金山區重和里六股林口9號","121.599411666667","25.2117983333333","6502700","金山區"
"251009","008-UM","2018/05/12 19:59:00","新北市淡水區英專路28巷18號","121.445985","25.1698583333333","6501000","淡水區"
"251004","009-UM","2018/05/12 19:59:00","新北市淡水區民族路50巷26號","121.461086666667","25.1358616666667","6501000","淡水區"
"251001","011-UM","2018/05/12 19:58:57","新北市淡水區淡金路二段138號","121.44689","25.1877616666667","6501000","淡水區"
"251013","KEA-2871","2018/05/12 19:59:04","新北市淡水區下圭柔山63-7號","121.451763333333","25.2061733333333","6501000","淡水區"
"251014","180-VK","2018/05/12 19:59:00","新北市淡水區石頭厝13-2號","121.462423333333","25.236455","6501000","淡水區"
"251008","181-VK","2018/05/12 19:59:00","新北市淡水區淡海路72巷21號","121.424323333333","25.1813183333333","6501000","淡水區"
"251015","182-VK","2018/05/12 19:59:08","新北市淡水區商工路356號","121.46858","25.1854066666667","6501000","淡水區"
"251012","441-VK","2018/05/12 19:59:10","新北市淡水區下圭柔山110-10號","121.438781666667","25.21152","6501000","淡水區"
"251005","443-VK","2018/05/12 19:59:11","新北市淡水區學府路136巷30號","121.451715","25.1726916666667","6501000","淡水區"
"251006","561-UM","2018/05/12 19:59:10","新北市淡水區北新路10號","121.444515","25.1774333333333","6501000","淡水區"
"251016","575-R6","2018/05/12 19:59:03","新北市淡水區淡金路四段514號","121.452016666667","25.2256533333333","6501000","淡水區"
"251011","650-BX","2018/05/12 19:59:08","新北市淡水區崁頂55-3號","121.44229","25.196705","6501000","淡水區"
"251003","766-UM","2018/05/12 19:58:53","新北市淡水區中山北路二段383號","121.444141666667","25.1878066666667","6501000","淡水區"
"207003","550-UM","2018/05/12 19:59:13","新北市萬里區磺潭里公館崙8-2號","121.641496666667","25.2139716666667","6502800","萬里區"
"207004","225-TW","2018/05/12 19:59:02","新北市萬里區北基里忠二街35號","121.685628333333","25.1757466666667","6502800","萬里區"
"252002","178-VK","2018/05/12 19:59:04","新北市三芝區三民街39巷5號","121.505406666667","25.2576233333333","6502100","三芝區"
"252001","292-VK","2018/05/12 19:59:03","新北市三芝區公正街66號","121.499788333333","25.257435","6502100","三芝區"
"237004","KEA-2597","2018/05/12 19:59:11","新北市三峽區添福15-5號","121.372023333333","24.9059083333333","6500900","三峽區"
"237007","153-BY","2018/05/12 19:59:05","新北市三峽區麻園13號","121.362638333333","24.91575","6500900","三峽區"
"237009","210-TH","2018/05/12 19:59:13","新北市三峽區民族街3號","121.369096666667","24.9313783333333","6500900","三峽區"
"237012","275-BY","2018/05/12 19:59:01","新北市三峽區中華路72巷5號","121.371075","24.92961","6500900","三峽區"
"237008","302-VK","2018/05/12 19:59:05","新北市三峽區中正路一段174巷16號","121.371838333333","24.9288583333333","6500900","三峽區"
"237014","433-BY","2018/05/12 19:58:56","新北市三峽區白雞9-1號","121.36854","24.9124933333333","6500900","三峽區"
"237006","5529-G3","2018/05/12 19:59:02","新北市三峽區中正路二段88號","121.366538333333","24.9180616666667","6500900","三峽區"
"237005","AKY-6261","2018/05/12 19:59:04","新北市三峽區三樹路44巷19號","121.37858","24.9375516666667","6500900","三峽區"
"236070","105-UM","2018/05/12 19:59:00","新北市土城區忠義路92號","121.444351666667","24.962315","6501300","土城區"
"236042","107-UM","2018/05/12 19:58:57","新北市土城區學府路一段156號","121.454386666667","24.98681","6501300","土城區"
"236079","166-UM","2018/05/12 19:58:55","新北市土城區民生街4號","121.41415","24.9614816666667","6501300","土城區"
"236030","253-BX","2018/05/12 19:59:12","新北市土城區中央路一段248-3號","121.444343333333","24.9847166666667","6501300","土城區"
"236026","269-VK","2018/05/12 19:59:08","新北市土城區中央路一段280號","121.443596666667","24.982665","6501300","土城區"
"236014","270-VK","2018/05/12 19:58:59","新北市土城區廣福街123號","121.45625","24.99287","6501300","土城區"
"236038","271-VK","2018/05/12 19:59:07","新北市土城區國際路93號","121.46741","24.9757283333333","6501300","土城區"
"236021","401-BY","2018/05/12 19:59:02","新北市土城區延吉街57巷8-1號","121.472443333333","24.987355","6501300","土城區"
"236059","912-UM","2018/05/12 19:59:01","新北市土城區中央路一段289-1號","121.444258333333","24.984085","6501300","土城區"
"236049","913-UM","2018/05/12 19:59:01","新北市土城區金城路三段170號","121.467536666667","24.98756","6501300","土城區"
"236063","915-UM","2018/05/12 19:59:11","新北市土城區金城路三段73巷4弄34號","121.466271666667","24.98841","6501300","土城區"
"236055","AAC-216","2018/05/12 19:58:54","新北市土城區立德路28號","121.463103333333","24.9876383333333","6501300","土城區"
"242034","AAC-296","2018/05/12 19:59:12","新北市新莊區建中街94號","121.446736666667","25.036675","6500500","新莊區"
"242058","986-R7","2018/05/12 19:59:04","新北市新莊區八德街61號","121.424658333333","25.0218816666667","6500500","新莊區"
"242053","751-BX","2018/05/12 19:59:15","新北市新莊區西盛街420號","121.427165","25.01214","6500500","新莊區"
"242025","613-BX","2018/05/12 19:59:04","新北市新莊區五工二路86巷32號","121.46061","25.0673033333333","6500500","新莊區"
"242029","612-BX","2018/05/12 19:59:12","新北市新莊區中榮街152巷17號","121.445881666667","25.053365","6500500","新莊區"
"242046","497-BY","2018/05/12 19:59:05","新北市新莊區裕民街19巷4號","121.419651666667","25.0252016666667","6500500","新莊區"
"242051","441-UM","2018/05/12 19:59:00","新北市新莊區西盛街137號","121.42819","25.0185033333333","6500500","新莊區"
"242056","440-UM","2018/05/12 19:58:57","新北市新莊區新豐街20巷18號","121.447836666667","25.034545","6500500","新莊區"
"242007","413-TV","2018/05/12 19:59:11","新北市新莊區思源路585號","121.459646666667","25.0593716666667","6500500","新莊區"
"242023","362-BY","2018/05/12 19:59:10","新北市新莊區化成路414號","121.465926666667","25.050825","6500500","新莊區"
"242061","353-BY","2018/05/12 19:59:07","新北市新莊區瓊泰路22號","121.444483333333","25.0286733333333","6500500","新莊區"
"242039","133-UY","2018/05/12 19:59:04","新北市新莊區民安路287-5號","121.428846666667","25.02308","6500500","新莊區"
"242031","135-UY","2018/05/12 19:59:09","新北市新莊區忠孝街29巷43號","121.443555","25.037255","6500500","新莊區"
"242048","172-VK","2018/05/12 19:59:01","新北市新莊區富國路111號","121.42348","25.0248716666667","6500500","新莊區"
"242011","173-VK","2018/05/12 19:59:02","新北市新莊區中港路531巷52號","121.450733333333","25.0516733333333","6500500","新莊區"
"242017","175-VK","2018/05/12 19:59:15","新北市新莊區中安街35號","121.45259","25.0459516666667","6500500","新莊區"
"242004","176-VK","2018/05/12 19:59:16","新北市新莊區頭興街13巷1號","121.461605","25.0535733333333","6500500","新莊區"
"242015","346-TH","2018/05/12 19:59:01","新北市新莊區復興路一段47巷1號","121.446895","25.0423333333333","6500500","新莊區"
"242021","347-TH","2018/05/12 19:59:01","新北市新莊區建中街16巷28號","121.44915","25.038775","6500500","新莊區"
"242044","348-TH","2018/05/12 19:59:13","新北市新莊區中正路925號","121.410556666667","25.0211816666667","6500500","新莊區"
"242019","350-TH","2018/05/12 19:59:02","新北市新莊區民樂街65巷8號","121.457465","25.0418283333333","6500500","新莊區"
"242013","351-TH","2018/05/12 19:59:07","新北市新莊區幸福路670巷2弄1號","121.451065","25.0494616666667","6500500","新莊區"
"238015","755-BX","2018/05/12 19:58:41","新北市樹林區中山路三段214號","121.379866666667","24.9676666666667","6500700","樹林區"
"238021","KEA-2217","2018/05/12 19:58:56","新北市樹林區佳園路三段101巷38弄8號","121.3916","24.9508583333333","6500700","樹林區"
"238025","303-VK","2018/05/12 19:59:00","新北市樹林區中山路二段44號","121.417013333333","24.9848183333333","6500700","樹林區"
"239006","891-R6","2018/05/12 19:59:01","新北市鶯歌區文化路115巷23號","121.357718333333","24.955065","6500800","鶯歌區"
"221008","489-VK","2018/05/12 19:59:14","台北市內湖區康樂街113號","121.619065","25.0707366666667","6501100","汐止區"
"221036","130-UY","2018/05/12 19:59:01","新北市汐止區新台五路二段85巷3號","121.664456666667","25.0671516666667","6501100","汐止區"
"221015","131-UY","2018/05/12 19:59:03","新北市汐止區大同路三段21號","121.666455","25.0761016666667","6501100","汐止區"
"221010","269-BY","2018/05/12 19:59:04","新北市汐止區八連路一段86巷10號","121.644645","25.0803466666667","6501100","汐止區"
"221012","278-VK","2018/05/12 19:58:57","新北市汐止區大同路三段355號","121.675413333333","25.07303","6501100","汐止區"
"221023","279-VK","2018/05/12 19:59:05","新北市汐止區明峰街196號","121.627943333333","25.06949","6501100","汐止區"
"221032","280-BY","2018/05/12 19:59:07","新北市汐止區橫科路18巷2號","121.618006666667","25.050915","6501100","汐止區"
"221027","281-BY","2018/05/12 19:58:54","新北市汐止區中正路98號","121.661213333333","25.0694866666667","6501100","汐止區"
"221029","298-VK","2018/05/12 19:59:10","新北市汐止區樟樹一路137巷26號","121.64104","25.065965","6501100","汐止區"
"221021","299-VK","2018/05/12 19:59:10","新北市汐止區復興路42號","121.656531666667","25.062945","6501100","汐止區"
"221031","353-TW","2018/05/12 19:58:57","新北市汐止區福德一路172號","121.635848333333","25.0662616666667","6501100","汐止區"
"221035","622-UM","2018/05/12 19:59:10","新北市汐止區長江街57巷6號","121.656243333333","25.07183","6501100","汐止區"
"221025","623-UM","2018/05/12 19:59:06","新北市汐止區仁愛路113巷26號","121.661858333333","25.0643983333333","6501100","汐止區"
"221038","646-BX","2018/05/12 19:59:04","新北市汐止區忠孝東路487-8號","121.666151666667","25.0740766666667","6501100","汐止區"
"221033","647-BX","2018/05/12 19:59:03","新北市汐止區東勢街203號","121.633801666667","25.0418883333333","6501100","汐止區"
"221002","707-TV","2018/05/12 19:59:05","新北市汐止區大同路一段219巷26號","121.633295","25.0584866666667","6501100","汐止區"
"221018","753-BX","2018/05/12 19:59:09","新北市汐止區茄苳路289號","121.672623333333","25.06782","6501100","汐止區"
"220079","145-BY","2018/05/12 19:58:58","新北市板橋區中正路135巷30號","121.454941666667","25.0153166666667","6500100","板橋區"
"242002","KEA-2550","2018/05/12 19:58:58","新北市新莊區新泰路99號","121.449065","25.0348616666667","6500500","新莊區"
"220101","245-BX","2018/05/12 19:58:57","新北市板橋區雙十路二段4號","121.477101666667","25.025125","6500100","板橋區"
"220103","257-TC","2018/05/12 19:59:05","新北市板橋區陽明街48號","121.465481666667","25.0221833333333","6500100","板橋區"
"220091","267-BY","2018/05/12 19:59:08","新北市板橋區文聖街89巷21號","121.478265","25.0304316666667","6500100","板橋區"
"220072","277-BY","2018/05/12 19:59:14","新北市板橋區篤行路二段1巷11號","121.432353333333","24.9926133333333","6500100","板橋區"
"220082","282-UM","2018/05/12 19:59:07","新北市板橋區篤行路二段104號","121.43131","24.9912783333333","6500100","板橋區"
"220071","283-VK","2018/05/12 19:59:15","新北市板橋區五權街1-9號","121.463588333333","24.9951166666667","6500100","板橋區"
"220094","285-UM","2018/05/12 19:59:06","新北市板橋區雨農路27巷6號","121.46141","25.024005","6500100","板橋區"
"220053","285-VK","2018/05/12 19:59:10","新北市板橋區中山路二段92號","121.475278333333","25.0164216666667","6500100","板橋區"
"220083","286-VK","2018/05/12 19:59:09","新北市板橋區僑中二街48巷26號","121.445241666667","25.0104816666667","6500100","板橋區"
"220081","287-VK","2018/05/12 19:58:59","新北市板橋區大觀路一段28巷107-1號","121.449843333333","25.0122233333333","6500100","板橋區"
"220090","288-VK","2018/05/12 19:59:09","新北市板橋區幸福路32巷2弄46-1號","121.460768333333","25.0222016666667","6500100","板橋區"
"220061","293-UM","2018/05/12 19:59:15","新北市板橋區觀光街30號","121.471396666667","25.0162366666667","6500100","板橋區"
"220084","296-UM","2018/05/12 19:58:57","新北市樹林區博愛街206號","121.424613333333","24.9892016666667","6500100","板橋區"
"220075","303-R5","2018/05/12 19:59:13","新北市板橋區金華街10巷48弄77號","121.459793333333","25.020375","6500100","板橋區"
"220092","307-R5","2018/05/12 19:58:55","新北市板橋區新海路135巷39號","121.459486666667","25.022645","6500100","板橋區"
"220098","317-R6","2018/05/12 19:59:10","新北市板橋區漢生西路159號","121.462993333333","25.0234933333333","6500100","板橋區"
"220064","486-VK","2018/05/12 19:59:05","新北市板橋區區運路65號","121.46688","25.0106016666667","6500100","板橋區"
"220088","491-VK","2018/05/12 19:58:59","新北市板橋區懷德街181巷5號","121.479511666667","25.0300533333333","6500100","板橋區"
"220035","560-BX","2018/05/12 19:59:13","新北市板橋區新生街64-1號","121.45726","25.02082","6500100","板橋區"
"220063","609-BX","2018/05/12 19:59:06","新北市板橋區中山路二段86號","121.47508","25.0162333333333","6500100","板橋區"
"220055","630-UY","2018/05/12 19:59:06","新北市板橋區仁愛路62巷14弄1-3號","121.45991","24.998445","6500100","板橋區"
"220093","689-BX","2018/05/12 19:59:10","新北市板橋區長江路三段141號","121.475831666667","25.0346983333333","6500100","板橋區"
"220054","741-BX","2018/05/12 19:59:15","新北市板橋區忠孝路忠義巷3弄22號","121.465313333333","25.0040616666667","6500100","板橋區"
"220102","KEA-2699","2018/05/12 19:59:08","新北市板橋區仁化街56號","121.475718333333","25.0315616666667","6500100","板橋區"
"220067","829-TW","2018/05/12 19:59:10","新北市板橋區漢生東路193巷69弄1號","121.472345","25.01221","6500100","板橋區"
"220068","830-TW","2018/05/12 19:59:01","新北市板橋區光復街172巷25號","121.485643333333","25.01904","6500100","板橋區"
"220096","831-TW","2018/05/12 19:59:10","新北市板橋區莒光路16巷1號","121.469775","25.0244866666667","6500100","板橋區"
"220089","833-TW","2018/05/12 19:59:13","新北市板橋區龍泉街55巷32號","121.457838333333","25.025055","6500100","板橋區"
"220074","895-R6","2018/05/12 19:59:01","新北市板橋區明德街16號","121.46003","25.0105683333333","6500100","板橋區"
"220073","985-R7","2018/05/12 19:59:13","新北市板橋區大觀路一段28巷71號","121.449851666667","25.011105","6500100","板橋區"
"220097","AAC-210","2018/05/12 19:59:09","新北市板橋區光正街40號","121.461945","25.0174116666667","6500100","板橋區"
"220070","AAC-253","2018/05/12 19:59:03","新北市板橋區成都街3號","121.460131666667","25.0047816666667","6500100","板橋區"
