"lineid","car","time","location","longitude","latitude","cityid","cityname"
"234046","148-BY","2018/05/12 20:09:03","新北市永和區得和路392號","121.525286666667","24.9991816666667","6500400","永和區"
"234007","207-UY","2018/05/12 20:09:04","新北市永和區保生路22巷6號","121.507011666667","25.00794","6500400","永和區"
"234081","298-R6","2018/05/12 20:09:14","新北市永和區永亨路98號","121.523026666667","25.0047433333333","6500400","永和區"
"234038","336-UY","2018/05/12 20:09:02","新北市永和區成功路一段47巷8號","121.527553333333","25.0039516666667","6500400","永和區"
"234064","337-UY","2018/05/12 20:09:08","新北市永和區永元路95巷1號","121.522306666667","25.001885","6500400","永和區"
"234086","338-UY","2018/05/12 20:09:11","新北市永和區中正路652號","121.51689","25.0086116666667","6500400","永和區"
"234070","552-UM","2018/05/12 20:09:08","新北市永和區福和路221號","121.518911666667","25.0074616666667","6500400","永和區"
"234017","745-BX","2018/05/12 20:09:14","新北市永和區文化路103號","121.51306","25.0151933333333","6500400","永和區"
"234030","746-BX","2018/05/12 20:08:59","新北市永和區民權路49巷23號","121.521331666667","24.99745","6500400","永和區"
"234054","KEA-2590","2018/05/12 20:09:02","新北市永和區博愛街23號","121.517926666667","25.015885","6500400","永和區"
"234013","KEA-2591","2018/05/12 20:09:11","新北市永和區永貞路415號","121.507371666667","25.00935","6500400","永和區"
"234061","AAD-866","2018/05/12 20:09:02","新北市永和區中正路151巷14號","121.51565","24.998825","6500400","永和區"
"234042","862-TW","2018/05/12 20:09:11","新北市永和區雙和街15號","121.509453333333","25.00191","6500400","永和區"
"234050","863-TW","2018/05/12 20:09:01","新北市永和區環河西路二段109號","121.506263333333","25.0146333333333","6500400","永和區"
"234011","9373-KE","2018/05/12 20:09:00","新北市永和區仁愛路352巷122弄10號","121.500745","25.0087066666667","6500400","永和區"
"249005","172-UM","2018/05/12 20:09:08","新北市八里區下罟子50-1號","121.383105","25.1385516666667","6502300","八里區"
"249001","173-UM","2018/05/12 20:09:02","新北市八里區中華路二段310號","121.403781666667","25.1483833333333","6502300","八里區"
"249004","303-UY","2018/05/12 20:09:01","新北市八里區中山路一段189巷3號","121.411848333333","25.1581816666667","6502300","八里區"
"249002","305-UY","2018/05/12 20:09:09","新北市五股區成泰路四段45-2號","121.456605","25.1116083333333","6502300","八里區"
"249003","759-BX","2018/05/12 20:09:09","新北市八里區中山路二段540巷9弄27號","121.396445","25.1465033333333","6502300","八里區"
"248014","025-BX","2018/05/12 20:09:11","新北市五股區成泰路三段43-4號","121.442386666667","25.0889533333333","6501500","五股區"
"248016","026-BX","2018/05/12 20:09:12","新北市五股區凌雲路一段158巷50弄2號","121.447138333333","25.10445","6501500","五股區"
"248008","095-VK","2018/05/12 20:09:11","新北市五股區中興路一段1巷11號","121.469446666667","25.0715016666667","6501500","五股區"
"248020","225-UY","2018/05/12 20:09:09","新北市五股區凌雲路二段10號","121.44561","25.1025266666667","6501500","五股區"
"248010","272-BY","2018/05/12 20:09:14","新北市五股區成泰路一段7巷66號","121.432628333333","25.0679216666667","6501500","五股區"
"248004","655-BX","2018/05/12 20:09:10","新北市五股區成泰路一段173-1號","121.435165","25.0748466666667","6501500","五股區"
"248002","678-BX","2018/05/12 20:09:03","新北市五股區成泰路三段277號","121.447173333333","25.09401","6501500","五股區"
"248012","682-TV","2018/05/12 20:09:12","新北市五股區民義路一段212號","121.430463333333","25.089485","6501500","五股區"
"234023","9380-KE","2018/05/12 20:09:08","新北市永和區中正路662巷25號","121.517693333333","25.008815","6500400","永和區"
"234077","969-R7","2018/05/12 20:09:09","新北市永和區民享街23巷25號","121.516705","24.99557","6500400","永和區"
"234074","AAC-211","2018/05/12 20:09:13","新北市永和區豫溪街169巷2-1號","121.521943333333","25.010505","6500400","永和區"
"234067","AAC-212","2018/05/12 20:09:04","新北市永和區永貞路376號","121.509758333333","25.0070366666667","6500400","永和區"
"234003","AAC-295","2018/05/12 20:08:58","新北市永和區中正路650號","121.516988333333","25.008485","6500400","永和區"
"243011","267-VK","2018/05/12 20:09:05","新北市泰山區工專路64號","121.42285","25.0403333333333","6501600","泰山區"
"243013","AAD-798","2018/05/12 20:09:16","新北市泰山區明志路三段74巷28弄4號","121.423236666667","25.042365","6501600","泰山區"
"243009","297-R6","2018/05/12 20:09:11","新北市泰山區泰林路二段142巷7弄2號","121.434685","25.0602933333333","6501600","泰山區"
"243016","380-SR","2018/05/12 20:09:09","新北市泰山區新北大道六段235號","121.425173333333","25.0350866666667","6501600","泰山區"
"243015","421-VK","2018/05/12 20:09:00","新北市泰山區明志路一段286號","121.431938333333","25.05989","6501600","泰山區"
"243010","KEA-2216","2018/05/12 20:08:57","新北市泰山區明志路二段136巷48號","121.426128333333","25.052055","6501600","泰山區"
"243012","646-TV","2018/05/12 20:08:58","新北市泰山區楓江路148號","121.440518333333","25.0655083333333","6501600","泰山區"
"243014","680-BX","2018/05/12 20:09:12","新北市泰山區明志路一段37號","121.433771666667","25.065365","6501600","泰山區"
"222003","436-BY","2018/05/12 20:09:12","新北市深坑區埔新街67號","121.620121666667","25.0023066666667","6501800","深坑區"
"222002","659-BX","2018/05/12 20:09:11","新北市深坑區北深路三段160號","121.602673333333","25.003435","6501800","深坑區"
"231041","002-UM","2018/05/12 20:09:05","新北市新店區中正路460號","121.534035","24.9794066666667","6500600","新店區"
"231059","046-UY","2018/05/12 20:08:59","新北市新店區安成街26-1號","121.510373333333","24.9610933333333","6500600","新店區"
"231040","047-UY","2018/05/12 20:09:13","新北市新店區中正路108號","121.543073333333","24.9705833333333","6500600","新店區"
"231044","106-UY","2018/05/12 20:09:12","新北市新店區寶慶街58巷21-1號","121.542005","24.9872366666667","6500600","新店區"
"231052","108-UY","2018/05/12 20:09:10","新北市新店區新烏路三段寶島巷2弄2號","121.551968333333","24.898515","6500600","新店區"
"231048","187-VK","2018/05/12 20:09:17","新北市新店區寶橋路59-1號","121.545141666667","24.9750466666667","6500600","新店區"
"231054","KEA-2219","2018/05/12 20:09:13","新北市新店區檳榔路9號","121.54109","24.96481","6500600","新店區"
"231042","268-BY","2018/05/12 20:08:57","新北市新店區中興路二段89號","121.54706","24.9713816666667","6500600","新店區"
"231051","278-BY","2018/05/12 20:09:13","新北市新店區中央六街7號","121.530278333333","24.9745666666667","6500600","新店區"
"231050","AAD-862","2018/05/12 20:09:09","新北市新店區北新路一段333號","121.541785","24.96861","6500600","新店區"
"231066","4716-K9","2018/05/12 20:09:03","新北市新店區安德街60巷21號","121.51037","24.963375","6500600","新店區"
"231056","4715-K9","2018/05/12 20:09:10","新北市新店區中正路275巷25號","121.537061666667","24.9732133333333","6500600","新店區"
"231067","4772-VM","2018/05/12 20:08:53","新北市新店區溪洲路6巷2-2號","121.53388","24.960995","6500600","新店區"
"231065","512-UM","2018/05/12 20:08:52","新北市新店區安祥路106巷335號","121.472633333333","24.9589733333333","6500600","新店區"
"231049","513-UM","2018/05/12 20:09:11","新北市新店區北新路二段121巷7號","121.542121666667","24.9748883333333","6500600","新店區"
"231057","515-UM","2018/05/12 20:09:04","新北市新店區花園一路一段2號","121.5531","24.9324516666667","6500600","新店區"
"231063","616-UM","2018/05/12 20:09:11","新北市新店區黎明路53巷1號","121.502345","24.9487433333333","6500600","新店區"
"231045","617-UM","2018/05/12 20:09:07","新北市新店區北宜路一段121-3號","121.540381666667","24.9538433333333","6500600","新店區"
"231061","619-UM","2018/05/12 20:09:09","新北市新店區安民街341-1號","121.516835","24.9749716666667","6500600","新店區"
"231068","718-UY","2018/05/12 20:08:55","新北市新店區中興路三段88號","121.545553333333","24.978545","6500600","新店區"
"231064","719-UM","2018/05/12 20:09:00","新北市新店區安民街3巷6弄2號","121.514793333333","24.9643866666667","6500600","新店區"
"231062","720-UM","2018/05/12 20:09:14","新北市新店區安康路二段308-1號","121.507165","24.9582633333333","6500600","新店區"
"231060","897-TW","2018/05/12 20:09:08","新北市新店區安康路三段351號","121.485095","24.951335","6500600","新店區"
"231043","899-TW","2018/05/12 20:09:01","新北市新店區中正路348號","121.53631","24.97547","6500600","新店區"
"231055","AKT-0513","2018/05/12 20:09:13","新北市新店區北新路一段297巷34號","121.54043","24.9683533333333","6500600","新店區"
"241011","013-R5","2018/05/12 20:09:11","新北市三重區三和路三段35巷19號","121.49649","25.0712966666667","6500200","三重區"
"241008","059-VK","2018/05/12 20:09:01","新北市三重區永福街197巷6-1號","121.478398333333","25.0744766666667","6500200","三重區"
"241009","060-VK","2018/05/12 20:09:14","新北市三重區永福街123號","121.479036666667","25.077045","6500200","三重區"
"241015","062-VK","2018/05/12 20:09:06","新北市三重區福德北路47號","121.502281666667","25.0650266666667","6500200","三重區"
"241017","063-VK","2018/05/12 20:09:10","新北市三重區自強路一段236號","121.49318","25.0669833333333","6500200","三重區"
"241024","065-VK","2018/05/12 20:09:09","新北市三重區中正北路328號","121.478815","25.0693166666667","6500200","三重區"
"241026","066-VK","2018/05/12 20:09:09","新北市三重區福德南路63-2號","121.502431666667","25.060575","6500200","三重區"
"241002","090-VK","2018/05/12 20:09:13","新北市三重區五華街35巷72號","121.495958333333","25.082035","6500200","三重區"
"241003","091-VK","2018/05/12 20:09:06","新北市三重區富華街22號","121.489653333333","25.0824916666667","6500200","三重區"
"241005","262-UM","2018/05/12 20:09:01","新北市三重區溪尾街327號","121.488428333333","25.084805","6500200","三重區"
"241028","265-UM","2018/05/12 20:09:02","新北市三重區仁化街146號","121.494668333333","25.05761","6500200","三重區"
"241016","266-UM","2018/05/12 20:08:51","新北市三重區中正北路25巷2號","121.493311666667","25.06275","6500200","三重區"
"241022","267-UM","2018/05/12 20:09:11","新北市三重區新北大道一段42號","121.487933333333","25.0614983333333","6500200","三重區"
"241018","268-UM","2018/05/12 20:09:06","新北市三重區正義北路256巷110號","121.493705","25.06785","6500200","三重區"
"241032","269-UM","2018/05/12 20:08:59","新北市三重區捷運路65號","121.483473333333","25.0555266666667","6500200","三重區"
"241013","270-UM","2018/05/12 20:09:03","新北市三重區三和路三段139巷40號","121.494293333333","25.0742216666667","6500200","三重區"
"241025","271-UM","2018/05/12 20:09:13","新北市三重區中正北路295號","121.47456","25.0711733333333","6500200","三重區"
"241007","398-BY","2018/05/12 20:09:05","新北市三重區三和路四段111-33號","121.486315","25.0774216666667","6500200","三重區"
"241020","413-TH","2018/05/12 20:08:55","新北市三重區三和路三段155號","121.49197","25.0738133333333","6500200","三重區"
"241035","462-BY","2018/05/12 20:09:11","新北市三重區文化北路22-2號","121.499208333333","25.064365","6500200","三重區"
"241004","475-VK","2018/05/12 20:09:02","新北市三重區自強路四段82號","121.490775","25.07905","6500200","三重區"
"241014","543-UM","2018/05/12 20:09:01","新北市三重區長樂街114號","121.50169","25.0695533333333","6500200","三重區"
"241023","545-UM","2018/05/12 20:09:14","新北市三重區頂崁街218號","121.477015","25.0680683333333","6500200","三重區"
"241001","547-UM","2018/05/12 20:08:59","新北市三重區溪尾街51號","121.491166666667","25.0768266666667","6500200","三重區"
"241006","AAD-863","2018/05/12 20:09:00","新北市三重區力行路二段138-1號","121.48246","25.0757666666667","6500200","三重區"
"241030","743-BX","2018/05/12 20:09:15","新北市三重區成功路145巷35號","121.487751666667","25.05324","6500200","三重區"
"241019","887-TS","2018/05/12 20:09:08","新北市三重區自強路二段33巷42號","121.490475","25.0698433333333","6500200","三重區"
"241012","941-UM","2018/05/12 20:09:05","新北市三重區仁愛街125巷30號","121.497735","25.0758883333333","6500200","三重區"
"241029","942-UM","2018/05/12 20:09:08","新北市三重區光明路32巷21號","121.491983333333","25.0586416666667","6500200","三重區"
"241033","AAC-255","2018/05/12 20:09:05","新北市三重區光復路一段70號","121.471983333333","25.0492766666667","6500200","三重區"
"235047","031-BX","2018/05/12 20:09:06","新北市中和區景平路183號","121.511773333333","24.9925733333333","6500300","中和區"
"235056","096-UM","2018/05/12 20:09:16","新北市中和區民安街148號","121.477348333333","24.9998933333333","6500300","中和區"
"235039","097-UM","2018/05/12 20:09:12","新北市中和區大勇街29巷21號","121.515596666667","24.994675","6500300","中和區"
"235040","150-BY","2018/05/12 20:09:11","新北市中和區保健路33巷15號","121.509363333333","24.9977966666667","6500300","中和區"
"235058","151-BY","2018/05/12 20:09:09","新北市中和區員山路150巷2弄57號","121.481828333333","24.99736","6500300","中和區"
"235068","377-QA","2018/05/12 20:08:53","新北市中和區福祥路85巷2弄8號","121.49878","25.00606","6500300","中和區"
"235050","4979-A6","2018/05/12 20:09:04","新北市中和區安樂路37號","121.51185","24.992985","6500300","中和區"
"235069","4980-A6","2018/05/12 20:09:11","新北市中和區景新街64巷11弄1號","121.50405","24.9985616666667","6500300","中和區"
"235066","911-UM","2018/05/12 20:09:00","新北市中和區中山路二段3巷28號","121.506721666667","25.0051816666667","6500300","中和區"
"235051","157-BY","2018/05/12 20:09:14","新北市中和區復興路251號","121.503311666667","24.990275","6500300","中和區"
"235037","AAC-213","2018/05/12 20:09:08","新北市中和區自立路183號","121.523588333333","24.9918483333333","6500300","中和區"
"235059","AAC-215","2018/05/12 20:08:59","新北市中和區圓通路335巷33弄35號","121.493753333333","24.9887583333333","6500300","中和區"
"220080","015-TV","2018/05/12 20:08:59","新北市板橋區大觀路二段169巷5號","121.445606666667","25.0001183333333","6500100","板橋區"
"247024","893-R6","2018/05/12 20:09:15","新北市蘆洲區光明路139號","121.464291666667","25.0885866666667","6501400","蘆洲區"
"247014","546-UM","2018/05/12 20:09:03","新北市蘆洲區中山二路269號","121.469931666667","25.0794416666667","6501400","蘆洲區"
"247022","500-BY","2018/05/12 20:09:10","新北市蘆洲區三民路120號","121.471173333333","25.0872933333333","6501400","蘆洲區"
"247010","341-TH","2018/05/12 20:09:06","新北市蘆洲區集賢路401號","121.480321666667","25.0818366666667","6501400","蘆洲區"
"247012","339-TH","2018/05/12 20:09:00","新北市蘆洲區民族路191-1號","121.478613333333","25.0889733333333","6501400","蘆洲區"
"247004","337-TH","2018/05/12 20:09:17","新北市蘆洲區永安南路二段328巷15弄7號","121.456428333333","25.0835266666667","6501400","蘆洲區"
"247006","336-TH","2018/05/12 20:08:58","新北市蘆洲區中山二路286號","121.468963333333","25.0778383333333","6501400","蘆洲區"
"247018","057-VK","2018/05/12 20:09:03","新北市蘆洲區民族路314巷10號","121.477661666667","25.090225","6501400","蘆洲區"
"247016","007-UY","2018/05/12 20:08:56","新北市蘆洲區光華路123號","121.466585","25.08234","6501400","蘆洲區"
"247002","002-UY","2018/05/12 20:09:05","新北市蘆洲區永康街2巷10號","121.459316666667","25.0862016666667","6501400","蘆洲區"
"247020","001-UY","2018/05/12 20:08:58","新北市蘆洲區民權路106巷5弄2-1號","121.474318333333","25.0890583333333","6501400","蘆洲區"
"235065","251-BX","2018/05/12 20:08:58","新北市中和區永和路90巷4弄10號","121.497888333333","25.0059066666667","6500300","中和區"
"224010","AGQ-8101","2018/05/12 20:09:10","新北市瑞芳區市下巷10號","121.843808333333","25.1089416666667","6501200","瑞芳區"
"222001","KEA-2212","2018/05/12 20:09:11","新北市深坑區北深路三段187號","121.601246666667","25.0036","6501800","深坑區"
"208002","KEA-2872","2018/05/12 20:09:05","新北市金山區忠孝一路19巷26號","121.636783333333","25.21746","6502700","金山區"
"208003","665-BX","2018/05/12 20:09:13","新北市金山區海興路35-2號","121.629511666667","25.2366916666667","6502700","金山區"
"251009","008-UM","2018/05/12 20:09:00","新北市淡水區英專路38號","121.44567","25.1701883333333","6501000","淡水區"
"251004","009-UM","2018/05/12 20:09:00","新北市淡水區民族路31巷39號","121.46207","25.1366416666667","6501000","淡水區"
"251001","011-UM","2018/05/12 20:08:57","新北市淡水區新市二路四段265號","121.445915","25.1924733333333","6501000","淡水區"
"251002","012-UM","2018/05/12 20:08:58","新北市淡水區中正路272號","121.43827","25.1715166666667","6501000","淡水區"
"251013","KEA-2871","2018/05/12 20:09:12","新北市淡水區奎柔山路576號","121.468358333333","25.2050666666667","6501000","淡水區"
"251014","180-VK","2018/05/12 20:09:00","新北市淡水區石頭厝3號","121.458708333333","25.2355583333333","6501000","淡水區"
"251008","181-VK","2018/05/12 20:09:00","新北市淡水區沙崙路131巷11號","121.421931666667","25.1829816666667","6501000","淡水區"
"251015","182-VK","2018/05/12 20:09:08","新北市淡水區埤島77-5號","121.450668333333","25.1920733333333","6501000","淡水區"
"251010","413-VK","2018/05/12 20:09:00","新北市淡水區崁頂五路303號","121.424236666667","25.197765","6501000","淡水區"
"251012","441-VK","2018/05/12 20:09:10","新北市淡水區淡金路三段260號","121.448926666667","25.2065616666667","6501000","淡水區"
"251006","561-UM","2018/05/12 20:09:09","新北市淡水區北新路141巷60弄11號","121.448283333333","25.179725","6501000","淡水區"
"251016","575-R6","2018/05/12 20:09:03","新北市淡水區番子田18-4號","121.456536666667","25.2295316666667","6501000","淡水區"
"251011","650-BX","2018/05/12 20:09:08","新北市淡水區崁頂78-5號","121.429318333333","25.207375","6501000","淡水區"
"251003","766-UM","2018/05/12 20:09:13","新北市淡水區中山北路二段157號","121.443723333333","25.1838233333333","6501000","淡水區"
"207003","550-UM","2018/05/12 20:09:13","新北市萬里區大鵬里萬里加投186號","121.642828333333","25.21565","6502800","萬里區"
"207004","225-TW","2018/05/12 20:09:05","新北市萬里區北基里大勇路16號","121.68208","25.17667","6502800","萬里區"
"252002","178-VK","2018/05/12 20:09:04","新北市三芝區三民街7號","121.504106666667","25.25801","6502100","三芝區"
"252001","292-VK","2018/05/12 20:09:03","新北市三芝區公正街66號","121.499811666667","25.25749","6502100","三芝區"
"237012","275-BY","2018/05/12 20:09:01","新北市三峽區中華路33號","121.372768333333","24.9312483333333","6500900","三峽區"
"237006","5529-G3","2018/05/12 20:09:02","新北市三峽區中正路二段271號","121.365991666667","24.91151","6500900","三峽區"
"236070","105-UM","2018/05/12 20:09:00","新北市土城區大安路22號","121.432846666667","24.96629","6501300","土城區"
"236042","107-UM","2018/05/12 20:09:16","新北市土城區學成路18號","121.45318","24.9869416666667","6501300","土城區"
"236079","166-UM","2018/05/12 20:09:15","新北市土城區三民路6號","121.420365","24.963625","6501300","土城區"
"236030","253-BX","2018/05/12 20:09:12","新北市土城區中央路一段122號","121.446381666667","24.9879683333333","6501300","土城區"
"236026","269-VK","2018/05/12 20:08:48","新北市土城區裕生路83巷22號","121.447636666667","24.98403","6501300","土城區"
"236014","270-VK","2018/05/12 20:08:59","新北市土城區廣明街2號","121.45607","24.9917366666667","6501300","土城區"
"236038","271-VK","2018/05/12 20:09:07","新北市土城區延吉街351號","121.464586666667","24.9838716666667","6501300","土城區"
"236021","401-BY","2018/05/12 20:09:02","新北市土城區延吉街23巷37號","121.474263333333","24.98751","6501300","土城區"
"236059","912-UM","2018/05/12 20:09:01","新北市土城區中正路1號","121.442386666667","24.97514","6501300","土城區"
"236049","913-UM","2018/05/12 20:09:01","新北市土城區金城路三段6號","121.464278333333","24.985885","6501300","土城區"
"236063","915-UM","2018/05/12 20:09:11","新北市土城區立德路135巷5弄2號","121.465056666667","24.9870583333333","6501300","土城區"
"236055","AAC-216","2018/05/12 20:08:54","新北市土城區中央路一段43號","121.448296666667","24.9903866666667","6501300","土城區"
"242034","AAC-296","2018/05/12 20:09:00","新北市新莊區建中街105號","121.446558333333","25.0361066666667","6500500","新莊區"
"242058","986-R7","2018/05/12 20:09:04","新北市新莊區八德街143號","121.423648333333","25.0198783333333","6500500","新莊區"
"242053","751-BX","2018/05/12 20:08:55","新北市新莊區西盛街387巷13號","121.42854","25.0130483333333","6500500","新莊區"
"242027","615-BX","2018/05/12 20:09:12","新北市新莊區中平路278號","121.444823333333","25.0506283333333","6500500","新莊區"
"242025","613-BX","2018/05/12 20:09:04","新北市新莊區五權一路12巷25弄19號","121.458488333333","25.0647216666667","6500500","新莊區"
"242029","612-BX","2018/05/12 20:09:12","新北市新莊區中原路259號","121.44858","25.054515","6500500","新莊區"
"242042","566-BX","2018/05/12 20:08:59","新北市新莊區青山路一段226-1號","121.398933333333","25.03097","6500500","新莊區"
"242046","497-BY","2018/05/12 20:09:05","新北市新莊區裕民街103巷11號","121.419066666667","25.022915","6500500","新莊區"
"242051","441-UM","2018/05/12 20:09:08","新北市新莊區民安西路172巷2弄2號","121.425783333333","25.0159916666667","6500500","新莊區"
"242056","440-UM","2018/05/12 20:08:57","新北市新莊區新莊路649巷15弄1號","121.445043333333","25.0314766666667","6500500","新莊區"
"242007","413-TV","2018/05/12 20:09:11","新北市新莊區福壽街164巷20號","121.459206666667","25.0527183333333","6500500","新莊區"
"242023","362-BY","2018/05/12 20:08:57","新北市新莊區化成路652號","121.465986666667","25.05574","6500500","新莊區"
"242061","353-BY","2018/05/12 20:09:07","新北市新莊區瓊林路100巷1號","121.44351","25.0264433333333","6500500","新莊區"
"242039","133-UY","2018/05/12 20:09:10","新北市新莊區民安西路90-2號","121.426951666667","25.0190616666667","6500500","新莊區"
"242031","135-UY","2018/05/12 20:09:09","新北市新莊區中正路455-2號","121.442521666667","25.03398","6500500","新莊區"
"242048","172-VK","2018/05/12 20:09:01","新北市新莊區四維路152巷34號","121.421925","25.0223866666667","6500500","新莊區"
"242011","173-VK","2018/05/12 20:09:10","新北市新莊區中信街67巷3號","121.448833333333","25.05073","6500500","新莊區"
"242017","175-VK","2018/05/12 20:09:15","新北市新莊區中港一街4號","121.451858333333","25.0457716666667","6500500","新莊區"
"242004","176-VK","2018/05/12 20:09:05","新北市新莊區頭前路2巷10號","121.468503333333","25.0529783333333","6500500","新莊區"
"242015","346-TH","2018/05/12 20:09:01","新北市新莊區中平路26巷36號","121.446333333333","25.0431216666667","6500500","新莊區"
"242021","347-TH","2018/05/12 20:09:01","新北市新莊區建中街28號","121.449033333333","25.03748","6500500","新莊區"
"242044","348-TH","2018/05/12 20:09:13","新北市新莊區中正路897-6號","121.41201","25.0212983333333","6500500","新莊區"
"242019","350-TH","2018/05/12 20:08:59","新北市新莊區博愛路6巷2號","121.45636","25.0433516666667","6500500","新莊區"
"242013","351-TH","2018/05/12 20:09:08","新北市新莊區幸福路710巷1弄10號","121.449263333333","25.0496583333333","6500500","新莊區"
"221008","489-VK","2018/05/12 20:09:14","新北市汐止區忠三街9巷30號","121.624561666667","25.080255","6501100","汐止區"
"221036","130-UY","2018/05/12 20:09:01","新北市汐止區新台五路二段41巷4號","121.663283333333","25.0666716666667","6501100","汐止區"
"221015","131-UY","2018/05/12 20:09:12","新北市汐止區建成路30號","121.664296666667","25.072855","6501100","汐止區"
"221010","269-BY","2018/05/12 20:09:04","新北市汐止區八連路一段317號","121.639698333333","25.086035","6501100","汐止區"
"221012","278-VK","2018/05/12 20:08:57","新北市汐止區汐平路二段49-2號","121.696703333333","25.0627766666667","6501100","汐止區"
"221023","279-VK","2018/05/12 20:09:05","新北市汐止區明峰街298巷10弄1號","121.624983333333","25.0689666666667","6501100","汐止區"
"221032","280-BY","2018/05/12 20:09:07","新北市汐止區弘道街9巷2弄2號","121.617021666667","25.0488283333333","6501100","汐止區"
"221027","281-BY","2018/05/12 20:09:14","新北市汐止區中正路131號","121.660153333333","25.0692066666667","6501100","汐止區"
"221029","298-VK","2018/05/12 20:09:10","新北市汐止區樟樹一路123巷19號","121.641316666667","25.0645","6501100","汐止區"
"221021","299-VK","2018/05/12 20:09:10","新北市汐止區連興街123號","121.653848333333","25.06202","6501100","汐止區"
"221031","353-TW","2018/05/12 20:08:59","新北市汐止區原興路76巷2號","121.631906666667","25.066445","6501100","汐止區"
"221035","622-UM","2018/05/12 20:09:10","新北市汐止區長江街79巷14號","121.657821666667","25.0728283333333","6501100","汐止區"
"221025","623-UM","2018/05/12 20:09:06","新北市汐止區福安街20巷21號","121.66175","25.0643066666667","6501100","汐止區"
"221038","646-BX","2018/05/12 20:09:04","新北市汐止區大同路三段66-3號","121.668063333333","25.0771533333333","6501100","汐止區"
"221033","647-BX","2018/05/12 20:08:59","新北市汐止區東勢街201巷82號","121.634086666667","25.0435016666667","6501100","汐止區"
"221018","753-BX","2018/05/12 20:09:09","新北市汐止區招商街156-1號","121.67164","25.066845","6501100","汐止區"
"220079","145-BY","2018/05/12 20:08:58","新北市新莊區立信一街41號","121.442361666667","25.0494166666667","6500100","板橋區"
"242002","KEA-2550","2018/05/12 20:08:58","新北市新莊區中正路145號","121.459495","25.038275","6500500","新莊區"
"220101","245-BX","2018/05/12 20:08:57","新北市板橋區雙十路二段47巷6弄5號","121.474845","25.025825","6500100","板橋區"
"220103","257-TC","2018/05/12 20:09:05","新北市板橋區陽明街48號","121.46543","25.02222","6500100","板橋區"
"220071","283-VK","2018/05/12 20:09:15","新北市板橋區和平路13號","121.45971","24.9944833333333","6500100","板橋區"
"220053","285-VK","2018/05/12 20:09:10","新北市板橋區懷仁街69號","121.477095","25.01873","6500100","板橋區"
"220083","286-VK","2018/05/12 20:09:09","新北市板橋區僑中二街90巷11號","121.445771666667","25.0091833333333","6500100","板橋區"
"220081","287-VK","2018/05/12 20:08:59","新北市板橋區僑中一街124巷20弄37號","121.44764","25.013895","6500100","板橋區"
"220061","293-UM","2018/05/12 20:09:15","新北市板橋區觀光街4巷2弄2-3號","121.472296666667","25.0157883333333","6500100","板橋區"
"242009","281-VK","2018/05/12 20:09:02","新北市新莊區昌盛街35巷4弄2號","121.45416","25.050465","6500500","新莊區"
"220092","307-R5","2018/05/12 20:08:55","新北市板橋區文化路一段35號","121.460378333333","25.01295","6500100","板橋區"
"220098","317-R6","2018/05/12 20:09:10","新北市板橋區新海路72巷5弄15號","121.461741666667","25.0226016666667","6500100","板橋區"
"220088","491-VK","2018/05/12 20:09:14","新北市板橋區民治街73-1號","121.479613333333","25.0325666666667","6500100","板橋區"
"220055","630-UY","2018/05/12 20:09:06","新北市板橋區仁愛路86巷7號","121.46103","24.9993233333333","6500100","板橋區"
"220093","689-BX","2018/05/12 20:09:10","新北市板橋區長江路一段158號","121.461221666667","25.0303066666667","6500100","板橋區"
"220102","KEA-2699","2018/05/12 20:09:08","新北市板橋區懷德街78巷21號","121.477816666667","25.031235","6500100","板橋區"
"220067","829-TW","2018/05/12 20:09:10","新北市板橋區中山路一段206巷66弄2號","121.471948333333","25.01314","6500100","板橋區"
"220068","830-TW","2018/05/12 20:09:09","新北市板橋區中山路二段443號","121.481453333333","25.0201266666667","6500100","板橋區"
"220089","833-TW","2018/05/12 20:09:13","新北市板橋區互助街83號","121.459885","25.0259183333333","6500100","板橋區"
"220074","895-R6","2018/05/12 20:09:01","新北市板橋區南雅南路一段1巷1弄19號","121.457123333333","25.0060116666667","6500100","板橋區"
"220073","985-R7","2018/05/12 20:09:13","新北市五股區新五路三段2號","121.44456","25.0879883333333","6500100","板橋區"
"220097","AAC-210","2018/05/12 20:09:09","新北市板橋區光正街9巷1號","121.462915","25.0170333333333","6500100","板橋區"
"220070","AAC-253","2018/05/12 20:09:03","新北市板橋區四川路二段245巷75-121號","121.452551666667","24.9926466666667","6500100","板橋區"
