"lineid","car","time","location","longitude","latitude","cityid","cityname"
"234074","AAC-211","2018/05/12 20:48:53","新北市永和區竹林路75巷4弄34號","121.521576666667","25.014225","6500400","永和區"
"222003","436-BY","2018/05/12 20:49:12","新北市深坑區阿柔洋40號","121.610291666667","24.9984833333333","6501800","深坑區"
"222002","659-BX","2018/05/12 20:49:04","新北市深坑區北深路三段93巷73號","121.603405","25.00115","6501800","深坑區"
"231041","002-UM","2018/05/12 20:49:05","台北市文山區景文街146巷26號","121.533431666667","24.99176","6500600","新店區"
"231059","046-UY","2018/05/12 20:48:59","新北市新店區僑愛二路1號","121.499856666667","24.945095","6500600","新店區"
"231040","047-UY","2018/05/12 20:49:13","新北市新店區中正路266號","121.539016666667","24.9734983333333","6500600","新店區"
"231044","106-UY","2018/05/12 20:49:12","新北市新店區民族路207號","121.536988333333","24.9760083333333","6500600","新店區"
"231052","108-UY","2018/05/12 20:49:10","新北市新店區新烏路一段245-3號","121.5483","24.9304966666667","6500600","新店區"
"231048","187-VK","2018/05/12 20:49:17","新北市新店區寶元路二段1巷2號","121.550741666667","24.9840666666667","6500600","新店區"
"231054","KEA-2219","2018/05/12 20:49:13","新北市新店區北新路一段126巷27號","121.54323","24.9694583333333","6500600","新店區"
"231042","268-BY","2018/05/12 20:48:57","新北市新店區寶高路120巷1號","121.554605","24.9761083333333","6500600","新店區"
"231051","278-BY","2018/05/12 20:49:13","新北市新店區溪園路247號","121.5258","24.9834866666667","6500600","新店區"
"231050","AAD-862","2018/05/12 20:49:09","新北市新店區三民路20巷18號","121.53786","24.971045","6500600","新店區"
"231058","3713-VJ","2018/05/12 20:49:06","新北市新店區平等街64號","121.535793333333","24.9723716666667","6500600","新店區"
"231066","4716-K9","2018/05/12 20:49:03","新北市新店區安民街341-1號","121.51687","24.9749433333333","6500600","新店區"
"231056","4715-K9","2018/05/12 20:49:10","新北市新店區薏仁坑路6-3號","121.499595","24.9587866666667","6500600","新店區"
"231067","4772-VM","2018/05/12 20:49:13","新北市新店區安華路28-1號","121.519906666667","24.9606166666667","6500600","新店區"
"231065","512-UM","2018/05/12 20:49:12","新北市新店區安祥路104巷11弄9號","121.480871666667","24.9635033333333","6500600","新店區"
"231049","513-UM","2018/05/12 20:49:11","新北市新店區華潭街52號","121.528943333333","24.955125","6500600","新店區"
"231057","515-UM","2018/05/12 20:49:04","新北市新店區新烏路一段123-1號","121.545928333333","24.9372466666667","6500600","新店區"
"231063","616-UM","2018/05/12 20:49:11","新北市新店區如意街7-1號","121.495218333333","24.9486516666667","6500600","新店區"
"231045","617-UM","2018/05/12 20:49:07","新北市新店區光明街139號","121.539301666667","24.9621283333333","6500600","新店區"
"231061","619-UM","2018/05/12 20:49:09","新北市新店區新和街77號","121.52065","24.9861133333333","6500600","新店區"
"231068","718-UY","2018/05/12 20:49:15","新北市新店區寶元路二段14巷1號","121.545911666667","24.982545","6500600","新店區"
"231064","719-UM","2018/05/12 20:49:00","新北市新店區安和路二段232-1號","121.516736666667","24.977105","6500600","新店區"
"231062","720-UM","2018/05/12 20:49:14","新北市新店區和成街18巷41號","121.488641666667","24.9462816666667","6500600","新店區"
"231060","897-TW","2018/05/12 20:49:08","新北市新店區安康路三段561巷2弄14號","121.475721666667","24.9438416666667","6500600","新店區"
"231043","899-TW","2018/05/12 20:49:04","新北市新店區建國路62號","121.540556666667","24.975805","6500600","新店區"
"241011","013-R5","2018/05/12 20:49:11","新北市三重區龍濱路205巷13號","121.502771666667","25.0718133333333","6500200","三重區"
"241008","059-VK","2018/05/12 20:49:01","新北市三重區永福街72巷11號","121.4794","25.076765","6500200","三重區"
"241009","060-VK","2018/05/12 20:49:14","新北市三重區三和路四段388-2號","121.482066666667","25.0790833333333","6500200","三重區"
"241015","062-VK","2018/05/12 20:49:06","新北市三重區自強路一段8號","121.498948333333","25.068245","6500200","三重區"
"241017","063-VK","2018/05/12 20:49:10","新北市三重區民生街1號","121.491955","25.06751","6500200","三重區"
"241024","065-VK","2018/05/12 20:49:09","新北市三重區大勇街82巷15弄30號","121.481268333333","25.07196","6500200","三重區"
"241026","066-VK","2018/05/12 20:49:09","新北市三重區文化南路8號","121.5002","25.062485","6500200","三重區"
"241002","090-VK","2018/05/12 20:49:13","新北市三重區仁義街167巷38弄2號","121.49872","25.0826916666667","6500200","三重區"
"241003","091-VK","2018/05/12 20:49:06","新北市三重區五華街141巷58號","121.493395","25.086575","6500200","三重區"
"241005","262-UM","2018/05/12 20:49:01","新北市三重區五華街141巷27號","121.492113333333","25.0854583333333","6500200","三重區"
"241028","265-UM","2018/05/12 20:48:42","新北市三重區中正南路44號","121.493861666667","25.0600066666667","6500200","三重區"
"241016","266-UM","2018/05/12 20:49:11","新北市三重區正義北路204號","121.49621","25.067245","6500200","三重區"
"241022","267-UM","2018/05/12 20:49:11","新北市三重區中正北路20巷12號","121.488068333333","25.06251","6500200","三重區"
"241018","268-UM","2018/05/12 20:49:17","新北市三重區正義北路195號","121.496198333333","25.068265","6500200","三重區"
"241032","269-UM","2018/05/12 20:48:58","新北市三重區重陽路一段120巷35號","121.48509","25.0601633333333","6500200","三重區"
"241013","270-UM","2018/05/12 20:49:02","新北市三重區仁賢街6號","121.495655","25.074815","6500200","三重區"
"241025","271-UM","2018/05/12 20:49:13","新北市三重區貴陽街25號","121.484335","25.06198","6500200","三重區"
"241007","398-BY","2018/05/12 20:49:05","新北市三重區三和路四段145巷7號","121.484535","25.0783633333333","6500200","三重區"
"241020","413-TH","2018/05/12 20:49:14","新北市三重區忠孝路一段101號","121.489376666667","25.0720033333333","6500200","三重區"
"241035","462-BY","2018/05/12 20:49:11","新北市三重區文化北路93號","121.498048333333","25.067915","6500200","三重區"
"241004","475-VK","2018/05/12 20:49:08","新北市三重區分子尾街15-1號","121.48948","25.0808983333333","6500200","三重區"
"241014","543-UM","2018/05/12 20:49:01","新北市三重區長壽街120巷79號","121.501891666667","25.0703516666667","6500200","三重區"
"241023","545-UM","2018/05/12 20:49:14","新北市三重區忠孝路三段84巷5號","121.480216666667","25.0643833333333","6500200","三重區"
"241001","547-UM","2018/05/12 20:49:14","新北市三重區自強路三段76巷18號","121.48588","25.0739416666667","6500200","三重區"
"241006","AAD-863","2018/05/12 20:49:00","新北市三重區車路頭街135-1號","121.484271666667","25.0761766666667","6500200","三重區"
"241030","743-BX","2018/05/12 20:49:15","新北市三重區環河南路221巷8號","121.491996666667","25.052195","6500200","三重區"
"241019","887-TS","2018/05/12 20:49:08","新北市三重區忠孝路一段2-1號","121.492483333333","25.0717133333333","6500200","三重區"
"241012","941-UM","2018/05/12 20:49:05","新北市三重區仁信街27號","121.501268333333","25.07554","6500200","三重區"
"241029","942-UM","2018/05/12 20:49:08","新北市三重區重安街18號","121.490308333333","25.058125","6500200","三重區"
"241033","AAC-255","2018/05/12 20:49:05","新北市三重區光復路二段1號","121.472333333333","25.053305","6500200","三重區"
"235047","031-BX","2018/05/12 20:49:06","新北市中和區中正路637巷52弄1號","121.485511666667","24.9935483333333","6500300","中和區"
"235069","4980-A6","2018/05/12 20:49:11","新北市中和區新生街191號","121.483873333333","25.0002316666667","6500300","中和區"
"247024","893-R6","2018/05/12 20:48:55","新北市蘆洲區長樂路136號","121.462106666667","25.0901316666667","6501400","蘆洲區"
"247014","546-UM","2018/05/12 20:49:03","新北市蘆洲區三民路91號","121.474191666667","25.084645","6501400","蘆洲區"
"247022","500-BY","2018/05/12 20:49:10","新北市蘆洲區中正路168號","121.468628333333","25.0858933333333","6501400","蘆洲區"
"247010","341-TH","2018/05/12 20:49:06","新北市蘆洲區鷺江街76號","121.476951666667","25.0837916666667","6501400","蘆洲區"
"247012","339-TH","2018/05/12 20:49:00","新北市蘆洲區集賢路213號","121.48322","25.0871866666667","6501400","蘆洲區"
"247004","337-TH","2018/05/12 20:48:57","新北市蘆洲區長安街101號","121.461596666667","25.0808083333333","6501400","蘆洲區"
"247006","336-TH","2018/05/12 20:48:58","新北市蘆洲區和平路121巷4號","121.467031666667","25.0798116666667","6501400","蘆洲區"
"247008","056-VK","2018/05/12 20:49:10","新北市蘆洲區集賢路269巷17號","121.482101666667","25.0833816666667","6501400","蘆洲區"
"247016","007-UY","2018/05/12 20:49:16","新北市蘆洲區中山二路239號","121.47015","25.0800116666667","6501400","蘆洲區"
"247002","002-UY","2018/05/12 20:49:05","新北市蘆洲區長榮路396號","121.459573333333","25.08756","6501400","蘆洲區"
"247020","001-UY","2018/05/12 20:48:58","新北市蘆洲區仁愛街66號","121.4715","25.0938616666667","6501400","蘆洲區"
"222001","KEA-2212","2018/05/12 20:49:11","新北市深坑區北深路三段133號","121.603931666667","25.0024616666667","6501800","深坑區"
"251009","008-UM","2018/05/12 20:49:12","新北市淡水區民族路112巷70號","121.461771666667","25.133875","6501000","淡水區"
"251001","011-UM","2018/05/12 20:48:57","新北市淡水區淡金路一段69號","121.4588","25.17315","6501000","淡水區"
"251002","012-UM","2018/05/12 20:48:58","新北市淡水區英專路42號","121.445636666667","25.170225","6501000","淡水區"
"251013","KEA-2871","2018/05/12 20:49:04","新北市淡水區行忠路136號","121.455226666667","25.1990816666667","6501000","淡水區"
"251014","180-VK","2018/05/12 20:49:00","新北市淡水區公埔子32-8號","121.461636666667","25.23237","6501000","淡水區"
"251015","182-VK","2018/05/12 20:49:07","新北市淡水區淡金路四段493號","121.452065","25.22475","6501000","淡水區"
"251010","413-VK","2018/05/12 20:49:00","新北市淡水區沙崙路145號","121.4234","25.182975","6501000","淡水區"
"251012","441-VK","2018/05/12 20:49:10","新北市淡水區興仁路162號","121.451585","25.220685","6501000","淡水區"
"251007","442-VK","2018/05/12 20:49:06","新北市淡水區鄧公路35巷2號","121.451591666667","25.1713316666667","6501000","淡水區"
"251016","575-R6","2018/05/12 20:49:03","新北市淡水區淡金路四段469號","121.45173","25.22387","6501000","淡水區"
"251011","650-BX","2018/05/12 20:49:08","新北市淡水區新民街一段13-1號","121.433031666667","25.1844866666667","6501000","淡水區"
"251003","766-UM","2018/05/12 20:49:13","新北市淡水區中山北路一段247巷94號","121.44223","25.179325","6501000","淡水區"
"252002","178-VK","2018/05/12 20:49:04","新北市三芝區淡金路二段91號","121.50409","25.260845","6502100","三芝區"
"242034","AAC-296","2018/05/12 20:49:14","新北市新莊區中正路299號","121.448441666667","25.0352766666667","6500500","新莊區"
"242058","986-R7","2018/05/12 20:49:04","新北市新莊區民安路104號","121.42414","25.025825","6500500","新莊區"
"242053","751-BX","2018/05/12 20:49:15","新北市新莊區民安西路189巷10弄24號","121.426513333333","25.0150383333333","6500500","新莊區"
"242029","612-BX","2018/05/12 20:49:12","新北市新莊區化成路360號","121.465768333333","25.0493316666667","6500500","新莊區"
"242042","566-BX","2018/05/12 20:48:59","新北市新莊區天祥街47巷4弄4號","121.416338333333","25.02856","6500500","新莊區"
"242051","441-UM","2018/05/12 20:49:00","新北市新莊區民安西路50號","121.427451666667","25.0207516666667","6500500","新莊區"
"242023","362-BY","2018/05/12 20:48:57","新北市新莊區化成路585-13號","121.463148333333","25.0670016666667","6500500","新莊區"
"242039","133-UY","2018/05/12 20:49:04","新北市新莊區瓊林路59-38號","121.441188333333","25.02351","6500500","新莊區"
"242031","135-UY","2018/05/12 20:49:09","新北市新莊區中正路535-12號","121.437065","25.0329083333333","6500500","新莊區"
"242048","172-VK","2018/05/12 20:49:01","新北市新莊區中平路377巷17弄62號","121.442441666667","25.051385","6500500","新莊區"
"242021","347-TH","2018/05/12 20:49:01","新北市新莊區新北大道四段2號","121.451306666667","25.0600233333333","6500500","新莊區"
"242013","351-TH","2018/05/12 20:49:07","新北市五股區新五路二段259號","121.442341666667","25.084795","6500500","新莊區"
"221036","130-UY","2018/05/12 20:49:16","新北市汐止區仁愛路320號","121.6647","25.0675716666667","6501100","汐止區"
"221027","281-BY","2018/05/12 20:49:14","新北市汐止區大同路二段364號","121.65749","25.067135","6501100","汐止區"
"221029","298-VK","2018/05/12 20:36:10","新北市汐止區大同路一段515巷6號","121.645403333333","25.06254","6501100","汐止區"
"221021","299-VK","2018/05/12 20:49:10","新北市汐止區新台五路一段183號","121.655546666667","25.0631433333333","6501100","汐止區"
"221035","622-UM","2018/05/12 20:49:10","新北市汐止區康寧街901號","121.650825","25.0752433333333","6501100","汐止區"
"221025","623-UM","2018/05/12 20:49:06","新北市汐止區水源路二段120號","121.65717","25.055255","6501100","汐止區"
"221038","646-BX","2018/05/12 20:49:04","新北市汐止區汐萬路一段256巷3號","121.652061666667","25.0747316666667","6501100","汐止區"
"221033","647-BX","2018/05/12 20:48:59","新北市汐止區合順街18巷8弄5號","121.620335","25.0419","6501100","汐止區"
"221018","753-BX","2018/05/12 20:49:09","新北市汐止區大同路二段553號","121.662436666667","25.0696633333333","6501100","汐止區"
"242002","KEA-2550","2018/05/12 20:48:58","新北市新莊區中港路五守新村23巷2號","121.454953333333","25.038455","6500500","新莊區"
"242009","281-VK","2018/05/12 20:49:02","新北市新莊區福壽街69號","121.458108333333","25.049475","6500500","新莊區"
"242036","280-VK","2018/05/12 20:49:12","新北市新莊區建國一路29號","121.434141666667","25.0312783333333","6500500","新莊區"
"220088","491-VK","2018/05/12 20:48:59","新北市八里區中山路三段409號","121.368615","25.134675","6500100","板橋區"
"220070","AAC-253","2018/05/12 20:49:03","新北市林口區汕頭32號","121.366743333333","25.13508","6500100","板橋區"
