"lineid","car","time","location","longitude","latitude","cityid","cityname"
"231059","046-UY","2018/05/12 21:08:59","新北市新店區僑義路19號","121.500378333333","24.951315","6500600","新店區"
"231040","047-UY","2018/05/12 21:09:13","新北市新店區北新路一段100號","121.542038333333","24.96945","6500600","新店區"
"231048","187-VK","2018/05/12 21:09:17","新北市新店區中興路三段156號","121.544621666667","24.980775","6500600","新店區"
"231054","KEA-2219","2018/05/12 21:09:13","新北市新店區大新街7巷25弄2號","121.544428333333","24.9677266666667","6500600","新店區"
"231042","268-BY","2018/05/12 21:09:17","新北市新店區寶興路60巷3號","121.549903333333","24.971765","6500600","新店區"
"231051","278-BY","2018/05/12 21:09:13","新北市新店區中正路700巷48號","121.53561","24.9919283333333","6500600","新店區"
"231050","AAD-862","2018/05/12 21:09:09","新北市新店區中華路83號","121.539473333333","24.9687433333333","6500600","新店區"
"231066","4716-K9","2018/05/12 21:09:03","新北市新店區薏仁坑路自強巷1號","121.496915","24.9579333333333","6500600","新店區"
"231065","512-UM","2018/05/12 21:09:12","新北市新店區安祥路69巷41弄18號","121.482141666667","24.9605116666667","6500600","新店區"
"231063","616-UM","2018/05/12 21:09:11","新北市新店區玫瑰路61巷2號","121.496","24.9452083333333","6500600","新店區"
"231061","619-UM","2018/05/12 21:09:09","新北市新店區永安街32號","121.517758333333","24.9866033333333","6500600","新店區"
"231064","719-UM","2018/05/12 21:09:00","新北市新店區薏仁坑路自強巷6號","121.496601666667","24.958365","6500600","新店區"
"231060","897-TW","2018/05/12 21:09:08","新北市新店區薏仁坑路自強巷6號","121.497096666667","24.958685","6500600","新店區"
"241011","013-R5","2018/05/12 21:09:11","新北市三重區龍濱路170號","121.501196666667","25.0726483333333","6500200","三重區"
"241008","059-VK","2018/05/12 21:09:01","新北市三重區自強路一段30號","121.498521666667","25.0679633333333","6500200","三重區"
"241009","060-VK","2018/05/12 21:09:14","新北市三重區忠孝路二段122號","121.483023333333","25.0687833333333","6500200","三重區"
"241015","062-VK","2018/05/12 21:09:10","新北市三重區福德北路89號","121.501891666667","25.0660583333333","6500200","三重區"
"241017","063-VK","2018/05/12 21:09:10","新北市三重區大同北路128-1號","121.4925","25.0644183333333","6500200","三重區"
"241024","065-VK","2018/05/12 21:09:09","新北市三重區大勇街82巷15弄30號","121.481253333333","25.0719766666667","6500200","三重區"
"241026","066-VK","2018/05/12 21:09:09","新北市三重區文化南路42號","121.50042","25.06028","6500200","三重區"
"241002","090-VK","2018/05/12 21:09:12","新北市三重區五華街11號","121.49501","25.0803483333333","6500200","三重區"
"241003","091-VK","2018/05/12 21:09:06","新北市三重區仁義街333號","121.495116666667","25.0846616666667","6500200","三重區"
"241005","262-UM","2018/05/12 21:09:01","新北市三重區三信路180號","121.488153333333","25.086195","6500200","三重區"
"241028","265-UM","2018/05/12 21:09:02","新北市三重區正義南路53號","121.498228333333","25.060645","6500200","三重區"
"241016","266-UM","2018/05/12 21:09:11","新北市三重區信義西街138號","121.495518333333","25.0643683333333","6500200","三重區"
"241022","267-UM","2018/05/12 21:09:11","新北市三重區中正北路64巷21號","121.486036666667","25.06378","6500200","三重區"
"241018","268-UM","2018/05/12 21:09:06","新北市三重區六張街39號","121.494261666667","25.070575","6500200","三重區"
"241032","269-UM","2018/05/12 21:08:59","新北市三重區頂崁街99號","121.476361666667","25.0616","6500200","三重區"
"241013","270-UM","2018/05/12 21:09:02","新北市三重區仁賢街12-1號","121.49576","25.074935","6500200","三重區"
"241025","271-UM","2018/05/12 21:09:13","新北市三重區中正北路208巷10弄4號","121.482455","25.0669716666667","6500200","三重區"
"241007","398-BY","2018/05/12 21:09:05","新北市三重區三和路四段145巷82號","121.486341666667","25.0789166666667","6500200","三重區"
"241020","413-TH","2018/05/12 21:09:14","新北市三重區忠孝路二段35號","121.485953333333","25.071105","6500200","三重區"
"241004","475-VK","2018/05/12 21:09:02","新北市三重區仁愛街420號","121.490393333333","25.08143","6500200","三重區"
"241014","543-UM","2018/05/12 21:09:01","新北市三重區三和路二段37-7號","121.501323333333","25.0674383333333","6500200","三重區"
"241023","545-UM","2018/05/12 21:09:14","新北市三重區忠孝路三段84巷63號","121.482328333333","25.06373","6500200","三重區"
"241001","547-UM","2018/05/12 21:08:59","新北市三重區溪尾街54號","121.490518333333","25.0774666666667","6500200","三重區"
"241006","AAD-863","2018/05/12 21:09:00","新北市三重區明志街135號","121.489286666667","25.0632366666667","6500200","三重區"
"241030","743-BX","2018/05/12 21:09:15","新北市三重區五谷王北街20巷15弄1號","121.475048333333","25.0484866666667","6500200","三重區"
"241019","887-TS","2018/05/12 21:09:08","新北市三重區自強路二段74巷19號","121.488001666667","25.0699216666667","6500200","三重區"
"241012","941-UM","2018/05/12 21:09:05","新北市三重區仁信街4號","121.501555","25.0756266666667","6500200","三重區"
"241029","942-UM","2018/05/12 21:09:08","新北市三重區正義南路111號","121.498226666667","25.0585616666667","6500200","三重區"
"241033","AAC-255","2018/05/12 21:09:05","新北市三重區疏洪西路400號","121.46842","25.0637533333333","6500200","三重區"
"235047","031-BX","2018/05/12 20:53:57","新北市中和區員山路36巷13號","121.484096666667","24.9910633333333","6500300","中和區"
"247024","893-R6","2018/05/12 21:09:15","新北市蘆洲區長興路50巷1號","121.463831666667","25.083765","6501400","蘆洲區"
"247014","546-UM","2018/05/12 21:09:03","新北市蘆洲區中央路155號","121.472643333333","25.0846966666667","6501400","蘆洲區"
"247022","500-BY","2018/05/12 21:09:10","新北市蘆洲區中正路261號","121.467433333333","25.0873316666667","6501400","蘆洲區"
"247010","341-TH","2018/05/12 21:09:06","新北市蘆洲區三民路26巷39號","121.477438333333","25.083175","6501400","蘆洲區"
"247012","339-TH","2018/05/12 21:09:00","新北市蘆洲區民權路6-1號","121.476823333333","25.0855916666667","6501400","蘆洲區"
"247004","337-TH","2018/05/12 21:09:10","新北市蘆洲區永安南路二段268號","121.458493333333","25.080805","6501400","蘆洲區"
"247006","336-TH","2018/05/12 21:08:57","新北市蘆洲區九芎街15巷12號","121.467946666667","25.0779283333333","6501400","蘆洲區"
"247018","057-VK","2018/05/12 21:09:03","新北市蘆洲區民族路408巷4號","121.474741666667","25.0917683333333","6501400","蘆洲區"
"247008","056-VK","2018/05/12 21:09:10","新北市蘆洲區民生街30號","121.474746666667","25.07882","6501400","蘆洲區"
"247016","007-UY","2018/05/12 21:08:56","新北市蘆洲區光華路164號","121.4654","25.082385","6501400","蘆洲區"
"247002","002-UY","2018/05/12 21:09:05","新北市蘆洲區永平街20號","121.45908","25.0905783333333","6501400","蘆洲區"
"247020","001-UY","2018/05/12 21:08:58","新北市蘆洲區民族路375號","121.470713333333","25.0910266666667","6501400","蘆洲區"
"251009","008-UM","2018/05/12 21:09:12","新北市淡水區民權路187巷74弄9號","121.462041666667","25.1343883333333","6501000","淡水區"
"251001","011-UM","2018/05/12 21:08:57","新北市淡水區新市一路三段101巷16弄3號","121.446636666667","25.1837883333333","6501000","淡水區"
"251002","012-UM","2018/05/12 21:09:18","新北市淡水區學府路172巷21號","121.448358333333","25.1749","6501000","淡水區"
"251013","KEA-2871","2018/05/12 21:09:04","新北市淡水區行忠路328號","121.4605","25.1996583333333","6501000","淡水區"
"251014","180-VK","2018/05/12 21:09:08","新北市淡水區六塊厝3-1號","121.450631666667","25.240585","6501000","淡水區"
"251015","182-VK","2018/05/12 21:09:07","新北市淡水區淡金路四段542巷50號","121.454545","25.22688","6501000","淡水區"
"251010","413-VK","2018/05/12 21:09:00","新北市淡水區中正路一段49號","121.424486666667","25.1774933333333","6501000","淡水區"
"251012","441-VK","2018/05/12 21:09:10","新北市淡水區淡金路五段172號","121.457033333333","25.2400633333333","6501000","淡水區"
"251005","443-VK","2018/05/12 21:09:11","新北市淡水區博愛街45號","121.44652","25.1692816666667","6501000","淡水區"
"251016","575-R6","2018/05/12 21:09:03","新北市淡水區前洲子1號","121.446161666667","25.2179366666667","6501000","淡水區"
"251011","650-BX","2018/05/12 21:09:08","新北市淡水區新民街120巷45弄10號","121.438083333333","25.1797316666667","6501000","淡水區"
"251003","766-UM","2018/05/12 21:09:13","新北市淡水區新春街97-3號","121.439901666667","25.1823333333333","6501000","淡水區"
"242048","172-VK","2018/05/12 21:09:01","新北市八里區中山路三段390號","121.368081666667","25.1351466666667","6500500","新莊區"
"220088","491-VK","2018/05/12 21:08:59","新北市五股區新城三路45號","121.448871666667","25.0932733333333","6500100","板橋區"
"220070","AAC-253","2018/05/12 21:09:03","新北市林口區太平里180號","121.366865","25.13376","6500100","板橋區"
