"lineid","car","time","location","longitude","latitude","cityid","cityname"
"231063","616-UM","2018/05/12 21:39:11","新北市新店區玫瑰路16號","121.494873333333","24.95031","6500600","新店區"
"241005","262-UM","2018/05/12 21:39:01","新北市三重區仁華街2號","121.483428333333","25.0812016666667","6500200","三重區"
"241018","268-UM","2018/05/12 21:39:06","新北市八里區中山路三段363號","121.374858333333","25.138815","6500200","三重區"
"251009","008-UM","2018/05/12 21:39:12","新北市淡水區民族路29巷1弄12號","121.463291666667","25.1373116666667","6501000","淡水區"
"251004","009-UM","2018/05/12 21:38:59","新北市淡水區民生路42號","121.461626666667","25.13781","6501000","淡水區"
"251001","011-UM","2018/05/12 21:38:57","新北市淡水區新市二路三段152號","121.43539","25.1942183333333","6501000","淡水區"
"251002","012-UM","2018/05/12 21:38:58","新北市淡水區學府路152號","121.446396666667","25.1743366666667","6501000","淡水區"
"251014","180-VK","2018/05/12 21:39:00","新北市淡水區淡金路四段221號","121.4517","25.222415","6501000","淡水區"
"251008","181-VK","2018/05/12 21:39:00","新北市淡水區水源街二段56-3號","121.450703333333","25.174035","6501000","淡水區"
"251010","413-VK","2018/05/12 21:39:00","新北市淡水區沙崙路236號","121.42563","25.1846416666667","6501000","淡水區"
"251012","441-VK","2018/05/12 21:39:10","新北市淡水區淡金路四段215號","121.45165","25.2222433333333","6501000","淡水區"
"251005","443-VK","2018/05/12 21:39:11","新北市淡水區學府路88號","121.449088333333","25.1710033333333","6501000","淡水區"
"251006","561-UM","2018/05/12 21:39:09","新北市淡水區中正路11巷4號","121.438851666667","25.1701716666667","6501000","淡水區"
"251016","575-R6","2018/05/12 21:39:03","新北市淡水區淡金路三段170號","121.448688333333","25.2028433333333","6501000","淡水區"
"251011","650-BX","2018/05/12 21:39:08","新北市淡水區新民街103號","121.436131666667","25.18089","6501000","淡水區"
"251003","766-UM","2018/05/12 21:39:13","新北市淡水區新春街46-1號","121.437701666667","25.1818066666667","6501000","淡水區"
"220070","AAC-253","2018/05/12 21:39:03","新北市板橋區大觀路一段28巷1弄98號","121.451523333333","25.0065316666667","6500100","板橋區"
