"lineid","car","time","location","longitude","latitude","cityid","cityname"
"248005","653-BX","2018/07/10 07:59:32","新北市五股區明德路12巷16號","121.433275","25.0718983333333","6501500","五股區"
"244002","248-BX","2018/07/10 07:59:29","新北市林口區下福里66號","121.309223333333","25.1147416666667","6501700","林口區"
"222004","289-BY","2018/07/10 07:59:29","新北市深坑區昇高坑路16號","121.625046666667","25.00014","6501800","深坑區"
"231007","189-VK","2018/07/10 07:59:26","新北市新店區華城路18-1號","121.528991666667","24.9571083333333","6500600","新店區"
"231009","192-VK","2018/07/10 07:59:15","新北市新店區安一路一段1-1號","121.51924","24.961155","6500600","新店區"
"235042","KEA-2878","2018/07/10 07:59:22","新北市中和區和平街90號","121.507335","24.9911066666667","6500300","中和區"
"235001","611-BX","2018/07/10 07:59:20","新北市中和區圓通路367巷8號","121.491641666667","24.9891266666667","6500300","中和區"
"226002","7418-A5","2018/07/10 07:59:13","新北市平溪區南山里乾坑11號","121.782701666667","25.0471933333333","6502400","平溪區"
"226006","AGD-0702","2018/07/10 07:59:18","新北市平溪區十分里十分街45號","121.774503333333","25.0408116666667","6502400","平溪區"
"223006","022-BY","2018/07/10 07:59:20","新北市坪林區坪林街16-1號","121.712631666667","24.936285","6501900","石碇區"
"223002","KEA-2673","2018/07/10 07:58:39","新北市石碇區大格門5號","121.667576666667","24.9562083333333","6501900","石碇區"
"223003","205-TH","2018/07/10 07:49:10","新北市石碇區樟空子10-2號","121.666935","24.9621516666667","6501900","石碇區"
"223008","406-TH","2018/07/10 07:59:25","新北市石碇區靜安路一段312號","121.692871666667","25.00656","6501900","石碇區"
"223001","592-UM","2018/07/10 07:59:24","新北市石碇區橫坪4號","121.668256666667","24.970875","6501900","石碇區"
"223004","660-BX","2018/07/10 07:59:28","新北市石碇區外按11-1號","121.650803333333","24.9985316666667","6501900","石碇區"
"223005","677-TV","2018/07/10 07:59:13","新北市石碇區外按16-3號","121.650543333333","24.9982516666667","6501900","石碇區"
"227006","282-VK","2018/07/10 07:59:26","新北市雙溪區雙溪里太平路33號","121.864573333333","25.0353866666667","6502500","雙溪區"
"252004","249-BX","2018/07/10 07:59:19","新北市三芝區興華里車埕36-21號","121.50583","25.1930716666667","6502100","三芝區"
"252007","AAC-283","2018/07/10 07:59:24","新北市三芝區後厝里土地公坑61-1號","121.463961666667","25.2469716666667","6502100","三芝區"
"237001","159-UY","2018/07/10 07:59:19","新北市三峽區學成路278-3號","121.37627","24.9432366666667","6500900","三峽區"
"236008","165-UM","2018/07/10 07:59:30","新北市土城區明德路一段69巷7號","121.465545","24.9836983333333","6501300","土城區"
"236002","339-SR","2018/07/10 07:59:14","新北市土城區龍泉路74-1號","121.427983333333","24.942045","6501300","土城區"
