"lineid","car","time","location","longitude","latitude","cityid","cityname"
"248005","653-BX","2018/07/10 08:49:32","新北市五股區明德路12巷3號","121.433241666667","25.0718516666667","6501500","五股區"
"222004","289-BY","2018/07/10 08:42:02","新北市深坑區大崙尾1-1號","121.615698333333","24.9752883333333","6501800","深坑區"
"231007","189-VK","2018/07/10 08:49:26","新北市新店區小坑二路2巷7號","121.53316","24.9180483333333","6500600","新店區"
"231009","192-VK","2018/07/10 08:49:15","新北市新店區新烏路三段寶島巷2弄2號","121.551996666667","24.8985083333333","6500600","新店區"
"235001","611-BX","2018/07/10 08:49:19","新北市中和區國光街60號","121.470508333333","25.0002833333333","6500300","中和區"
"226005","5620-A6","2018/07/10 08:49:25","新北市平溪區南山里南山坪1號","121.777313333333","25.0425816666667","6502400","平溪區"
"226002","7418-A5","2018/07/10 08:41:13","新北市平溪區東勢里東勢格11號","121.735226666667","25.0029633333333","6502400","平溪區"
"226006","AGD-0702","2018/07/10 08:49:18","新北市平溪區望古里望古坑26號","121.763286666667","25.0344283333333","6502400","平溪區"
"223003","205-TH","2018/07/10 08:49:16","新北市石碇區北宜路六段水底寮巷1號","121.658665","24.9447366666667","6501900","石碇區"
"223008","406-TH","2018/07/10 08:49:23","新北市石碇區光明路28號","121.695293333333","25.0238533333333","6501900","石碇區"
"223001","592-UM","2018/07/10 08:49:24","新北市石碇區北宜路六段水底寮巷1號","121.657611666667","24.945085","6501900","石碇區"
"223004","660-BX","2018/07/10 08:49:28","新北市石碇區碇坪路二段55號","121.684171666667","24.9716683333333","6501900","石碇區"
"223005","677-TV","2018/07/10 08:47:15","新北市石碇區崩山53號","121.682386666667","24.9688583333333","6501900","石碇區"
"227006","282-VK","2018/07/10 08:49:26","新北市雙溪區上林里內平林100-1號","121.825753333333","25.0252333333333","6502500","雙溪區"
"227012","030-BX","2018/07/10 08:49:20","新北市雙溪區泰平里料角坑32號","121.794426666667","24.9788316666667","6502500","雙溪區"
"252004","249-BX","2018/07/10 08:49:30","新北市三芝區興華里田心子20-7號","121.493586666667","25.2007883333333","6502100","三芝區"
"252007","AAC-283","2018/07/10 08:49:23","新北市三芝區錫板里番婆林44號","121.49293","25.2367433333333","6502100","三芝區"
"237001","159-UY","2018/07/10 08:49:18","新北市三峽區大觀路315號","121.373153333333","24.9475916666667","6500900","三峽區"
"236008","165-UM","2018/07/10 08:49:30","新北市土城區金城路二段46巷5-2號","121.453585","24.9750133333333","6501300","土城區"
"236002","339-SR","2018/07/10 08:49:14","新北市土城區中央路三段42號","121.437565","24.9680166666667","6501300","土城區"
"236006","498-BY","2018/07/10 08:49:26","新北市土城區永和街120-16號","121.43594","24.9568933333333","6501300","土城區"
