"lineid","car","time","location","longitude","latitude","cityid","cityname"
"248005","653-BX","2018/07/10 10:29:31","新北市五股區中興路二段83巷26-6號","121.45967","25.0751983333333","6501500","五股區"
"231007","189-VK","2018/07/10 10:29:26","新北市新店區新潭路三段131號","121.511923333333","24.9121666666667","6500600","新店區"
"231009","192-VK","2018/07/10 10:29:15","新北市新店區小坑一路35巷1號","121.530315","24.9102216666667","6500600","新店區"
"224008","702-BZ","2018/07/10 10:28:04","新北市平溪區新寮里五分寮10-3號","121.796945","25.0777366666667","6501200","瑞芳區"
"227006","282-VK","2018/07/10 10:29:26","新北市雙溪區平林里外平林80號","121.840086666667","25.0340066666667","6502500","雙溪區"
"237001","159-UY","2018/07/10 10:29:18","新北市三峽區中山路459巷163-3號","121.348641666667","24.9328516666667","6500900","三峽區"
