"lineid","car","time","location","longitude","latitude","cityid","cityname"
"231007","189-VK","2018/07/10 10:49:26","新北市新店區新潭路二段62巷22號","121.520098333333","24.927645","6500600","新店區"
"231009","192-VK","2018/07/10 10:49:15","新北市新店區成功路50巷1號","121.544851666667","24.9039466666667","6500600","新店區"
"224008","702-BZ","2018/07/10 10:28:04","新北市平溪區新寮里五分寮10-3號","121.796945","25.0777366666667","6501200","瑞芳區"
"227006","282-VK","2018/07/10 10:49:26","新北市雙溪區魚行里坤溪18號","121.87346","25.0252016666667","6502500","雙溪區"
"237001","159-UY","2018/07/10 10:49:18","新北市三峽區中山路459巷163-1號","121.34931","24.9335883333333","6500900","三峽區"
"235025","KEA-2875","2018/07/10 10:40:37","新北市中和區員山路36巷13號","121.484276666667","24.9911483333333","6500300","中和區"
