"lineid","car","time","location","longitude","latitude","cityid","cityname"
"234010","9373-KE","2018/07/10 11:39:19","新北市永和區福和路1號","121.525901666667","25.0092616666667","6500400","永和區"
"231009","192-VK","2018/07/10 11:39:35","新北市新店區新烏路二段304號","121.548981666667","24.912375","6500600","新店區"
"235028","005-UY","2018/07/10 11:39:35","新北市中和區員山路36巷16-3號","121.484945","24.99168","6500300","中和區"
"224008","702-BZ","2018/07/10 11:38:03","新北市瑞芳區傑魚坑路183號","121.788563333333","25.1081066666667","6501200","瑞芳區"
"227006","282-VK","2018/07/10 11:39:26","新北市雙溪區魚行里內厝15號","121.887196666667","25.0262183333333","6502500","雙溪區"
