"lineid","car","time","location","longitude","latitude","cityid","cityname"
"234066","AAC-212","2018/07/10 11:48:18","新北市永和區福和路1號","121.52641","25.009715","6500400","永和區"
"231009","192-VK","2018/07/10 11:49:35","新北市新店區頂石厝路8號","121.540318333333","24.9195483333333","6500600","新店區"
"235028","005-UY","2018/07/10 11:49:35","新北市中和區員山路36巷16-3號","121.485105","24.99137","6500300","中和區"
"228005","828-UM","2018/07/10 11:49:36","新北市貢寮區貢寮里朝陽街1-2號","121.912325","25.021225","6502600","貢寮區"
"224008","702-BZ","2018/07/10 11:38:03","新北市瑞芳區傑魚坑路183號","121.788563333333","25.1081066666667","6501200","瑞芳區"
"227006","282-VK","2018/07/10 11:49:26","新北市雙溪區魚行里魚杭1號","121.883823333333","25.026585","6502500","雙溪區"
