"lineid","car","time","location","longitude","latitude","cityid","cityname"
"234066","AAC-212","2018/07/10 11:48:18","新北市永和區福和路1號","121.52641","25.009715","6500400","永和區"
"231009","192-VK","2018/07/10 11:59:35","新北市新店區頂石厝路8號","121.53975","24.9194416666667","6500600","新店區"
"235028","005-UY","2018/07/10 11:59:35","新北市中和區員山路36巷16-3號","121.48511","24.9913233333333","6500300","中和區"
"228004","212-TW","2018/07/10 11:59:35","新北市貢寮區貢寮里朝陽街1-2號","121.912206666667","25.021245","6502600","貢寮區"
"228005","828-UM","2018/07/10 11:59:36","新北市貢寮區貢寮里朝陽街1-2號","121.912333333333","25.0212216666667","6502600","貢寮區"
"224008","702-BZ","2018/07/10 11:59:33","新北市瑞芳區傑魚坑路183號","121.78845","25.1080833333333","6501200","瑞芳區"
