"lineid","car","time","location","longitude","latitude","cityid","cityname"
"234044","148-BY","2018/07/10 12:59:36","新北市永和區得和路373巷14號","121.52511","25.0002516666667","6500400","永和區"
"234005","207-UY","2018/07/10 12:59:21","新北市永和區永和路二段48號","121.514756666667","25.0107133333333","6500400","永和區"
"234078","298-R6","2018/07/10 12:59:35","新北市永和區國中路200號","121.522331666667","25.0061366666667","6500400","永和區"
"234036","336-UY","2018/07/10 12:59:37","新北市中和區秀朗路三段38號","121.526478333333","24.9958616666667","6500400","永和區"
"234062","337-UY","2018/07/10 12:59:33","新北市永和區秀朗路一段150巷2號","121.518061666667","25.0031766666667","6500400","永和區"
"234068","552-UM","2018/07/10 12:59:35","新北市永和區竹林路124巷24號","121.518633333333","25.0114116666667","6500400","永和區"
"234084","553-UM","2018/07/10 12:59:34","新北市永和區中正路330號","121.517618333333","24.99978","6500400","永和區"
"234015","745-BX","2018/07/10 12:59:24","新北市永和區永和路二段299號","121.516106666667","25.0160983333333","6500400","永和區"
"234028","746-BX","2018/07/10 12:59:34","新北市永和區秀朗路二段291號","121.526173333333","24.998015","6500400","永和區"
"234052","KEA-2590","2018/07/10 12:59:28","新北市永和區竹林路66巷2號","121.51823","25.01338","6500400","永和區"
"234012","KEA-2591","2018/07/10 12:59:23","新北市永和區仁愛路152號","121.510668333333","25.01293","6500400","永和區"
"234060","AAD-866","2018/07/10 12:59:22","新北市永和區福和路309巷1號","121.516343333333","25.0070816666667","6500400","永和區"
"234040","862-TW","2018/07/10 12:59:20","新北市永和區永貞路308號","121.511838333333","25.0048533333333","6500400","永和區"
"234048","863-TW","2018/07/10 12:59:37","新北市永和區保福路二段150巷18號","121.510573333333","25.0150016666667","6500400","永和區"
"234025","9371-KE","2018/07/10 12:59:35","新北市永和區永和路一段5號","121.51278","25.0052266666667","6500400","永和區"
"234010","9373-KE","2018/07/10 12:59:39","新北市永和區仁愛路40巷9弄3號","121.513818333333","25.0139933333333","6500400","永和區"
"248017","225-UY","2018/07/10 12:59:24","新北市五股區中興路二段83巷26-6號","121.460066666667","25.0751233333333","6501500","五股區"
"234022","9380-KE","2018/07/10 12:59:27","新北市永和區竹林路75巷33弄1號","121.520581666667","25.0142366666667","6500400","永和區"
"234076","969-R7","2018/07/10 12:59:23","新北市永和區民享街3號","121.515108333333","24.9955916666667","6500400","永和區"
"234072","AAC-211","2018/07/10 12:59:21","新北市永和區環河東路二段98號","121.524123333333","25.0103683333333","6500400","永和區"
"234066","AAC-212","2018/07/10 12:59:28","新北市永和區中和路625號","121.512971666667","25.0048816666667","6500400","永和區"
"234001","AAC-295","2018/07/10 12:59:28","新北市永和區永平路28號","121.513226666667","25.0087833333333","6500400","永和區"
"244002","248-BX","2018/07/10 12:59:30","新北市林口區粉寮路17-3號","121.39886","25.0810283333333","6501700","林口區"
"231028","046-UY","2018/07/10 12:59:35","新北市新店區安華路28-1號","121.519566666667","24.960895","6500600","新店區"
"231001","047-UY","2018/07/10 12:59:23","新北市新店區安華路28-1號","121.5193","24.960885","6500600","新店區"
"231005","106-UY","2018/07/10 12:59:32","新北市新店區安華路28-1號","121.519645","24.9607916666667","6500600","新店區"
"231036","110-UY","2018/07/10 12:59:18","新北市新店區安一路一段1-1號","121.519291666667","24.9612083333333","6500600","新店區"
"231012","187-VK","2018/07/10 12:59:23","新北市新店區安一路一段1-1號","121.519568333333","24.9612566666667","6500600","新店區"
"231010","188-VK","2018/07/10 12:59:27","新北市新店區安一路一段1-1號","121.519415","24.9613316666667","6500600","新店區"
"231003","268-BY","2018/07/10 12:59:25","新北市新店區安華路28-1號","121.519405","24.9606416666667","6500600","新店區"
"231018","278-BY","2018/07/10 12:59:25","新北市新店區安一路一段1-1號","121.519596666667","24.9611333333333","6500600","新店區"
"231015","AAD-862","2018/07/10 12:59:31","新北市新店區安一路一段1-1號","121.51962","24.9612916666667","6500600","新店區"
"231013","513-UM","2018/07/10 12:59:25","新北市新店區安一路一段1-1號","121.51956","24.9610733333333","6500600","新店區"
"231020","719-UY","2018/07/10 12:59:32","新北市新店區安一路一段1-1號","121.519685","24.9614616666667","6500600","新店區"
"231032","720-UM","2018/07/10 12:59:19","新北市新店區安一路一段1-1號","121.519311666667","24.9612716666667","6500600","新店區"
"231029","897-TW","2018/07/10 12:59:18","新北市新店區安華路28-1號","121.519631666667","24.960545","6500600","新店區"
"235028","005-UY","2018/07/10 12:59:19","新北市中和區員山路36巷16-3號","121.485168333333","24.9911916666667","6500300","中和區"
"235027","006-UY","2018/07/10 12:59:31","新北市中和區員山路36巷16-3號","121.484995","24.9914283333333","6500300","中和區"
"235029","098-UM","2018/07/10 12:59:36","新北市中和區福祥路135號","121.498323333333","25.0075183333333","6500300","中和區"
"235004","150-BY","2018/07/10 12:40:28","新北市中和區和城路一段271巷1號","121.485448333333","24.99181","6500300","中和區"
"235022","151-BY","2018/07/10 12:59:25","新北市中和區圓通路367巷20弄7號","121.491976666667","24.98843","6500300","中和區"
"235002","185-VK","2018/07/10 12:59:29","新北市中和區成功路84號","121.525976666667","24.99165","6500300","中和區"
"235031","255-BX","2018/07/10 12:59:18","新北市中和區中正路885號","121.48442","25.0042883333333","6500300","中和區"
"235001","611-BX","2018/07/10 12:59:33","新北市中和區中山路三段89號","121.475481666667","25.005945","6500300","中和區"
"235018","640-BX","2018/07/10 12:59:28","新北市中和區連城路599號","121.478675","24.99308","6500300","中和區"
"235026","800-TS","2018/07/10 12:59:34","新北市中和區連城路186號","121.492673333333","24.99678","6500300","中和區"
"235021","801-TS","2018/07/10 12:59:27","新北市中和區員山路36巷16-3號","121.484998333333","24.9917333333333","6500300","中和區"
"235005","802-TS","2018/07/10 12:59:25","新北市中和區員山路36巷16-2號","121.485298333333","24.9917016666667","6500300","中和區"
"235016","805-TS","2018/07/10 12:59:26","新北市中和區員山路36巷13號","121.484276666667","24.991505","6500300","中和區"
"235012","896-TW","2018/07/10 12:59:35","新北市中和區員山路36巷16-2號","121.484993333333","24.9919166666667","6500300","中和區"
"235017","900-TW","2018/07/10 12:59:23","新北市中和區員山路36巷16-3號","121.48493","24.9918416666667","6500300","中和區"
"235015","157-BY","2018/07/10 12:59:30","新北市中和區中正路637巷52弄1號","121.485458333333","24.9934616666667","6500300","中和區"
"235001","AAC-213","2018/07/10 12:59:37","新北市中和區中正路273-2號","121.495673333333","24.9935383333333","6500300","中和區"
"228004","212-TW","2018/07/10 12:59:35","新北市貢寮區吉林里內寮街57號","121.886748333333","24.98707","6502600","貢寮區"
"228005","828-UM","2018/07/10 12:59:16","新北市貢寮區福隆里東興街32號","121.94943","25.0180833333333","6502600","貢寮區"
"207002","749-BX","2018/07/10 12:59:27","新北市萬里區雙興里大坪路39-6號","121.631213333333","25.1687","6502800","萬里區"
"207001","662-BX","2018/07/10 12:59:29","新北市萬里區萬里里獅頭路23號","121.693323333333","25.17819","6502800","萬里區"
"252005","AAC-283","2018/07/10 12:59:28","新北市三芝區埔坪里埔頭坑41號","121.504575","25.26327","6502100","三芝區"
"236006","498-BY","2018/07/10 12:59:26","新北市土城區亞洲路14號","121.436613333333","24.9747733333333","6501300","土城區"
"221023","279-VK","2018/07/10 12:59:26","新北市汐止區福德一路2巷7號","121.638968333333","25.0701733333333","6501100","汐止區"
"221032","280-BY","2018/07/10 12:59:29","新北市汐止區大同路二段585號","121.663795","25.0703816666667","6501100","汐止區"
"235025","KEA-2875","2018/07/10 12:43:22","新北市中和區員山路36巷16-2號","121.485326666667","24.991685","6500300","中和區"
