"lineid","car","time","location","longitude","latitude","cityid","cityname"
"234044","148-BY","2018/07/10 13:19:36","新北市永和區得和路375號","121.52474","24.9995383333333","6500400","永和區"
"234005","207-UY","2018/07/10 13:19:21","新北市中和區中山路二段65號","121.504123333333","25.004585","6500400","永和區"
"234078","298-R6","2018/07/10 13:19:35","新北市永和區福和路7巷7號","121.525286666667","25.0078833333333","6500400","永和區"
"234036","336-UY","2018/07/10 13:19:18","新北市永和區民樂街59巷18號","121.528061666667","24.998265","6500400","永和區"
"234062","337-UY","2018/07/10 13:19:32","新北市永和區永元路17巷6弄1號","121.52136","25.0008516666667","6500400","永和區"
"234068","552-UM","2018/07/10 13:19:35","新北市永和區中正路700號","121.516351666667","25.00979","6500400","永和區"
"234084","553-UM","2018/07/10 13:19:38","新北市永和區永利路13號","121.517756666667","25.006095","6500400","永和區"
"234015","745-BX","2018/07/10 13:19:26","新北市永和區文化路144巷31弄12號","121.51223","25.0168683333333","6500400","永和區"
"234028","746-BX","2018/07/10 13:19:37","新北市永和區厚德街83號","121.52427","24.998775","6500400","永和區"
"234052","KEA-2590","2018/07/10 13:19:28","新北市永和區中興街1號","121.515546666667","25.0122883333333","6500400","永和區"
"234012","KEA-2591","2018/07/10 13:19:23","新北市永和區仁愛路137號","121.511565","25.01304","6500400","永和區"
"234060","AAD-866","2018/07/10 13:19:22","新北市永和區秀朗路一段175號","121.517073333333","25.0036066666667","6500400","永和區"
"234040","862-TW","2018/07/10 13:19:20","新北市永和區保平路151巷2弄6-3號","121.509601666667","25.0052966666667","6500400","永和區"
"234048","863-TW","2018/07/10 13:19:17","新北市永和區信義路114號","121.512335","25.0142733333333","6500400","永和區"
"234025","9371-KE","2018/07/10 13:19:35","新北市永和區豫溪街42巷5號","121.515575","25.0094883333333","6500400","永和區"
"234010","9373-KE","2018/07/10 13:19:39","新北市永和區永和路二段425巷35-1號","121.51441","25.0173716666667","6500400","永和區"
"248017","225-UY","2018/07/10 13:19:24","新北市五股區御史路164號","121.428926666667","25.1036866666667","6501500","五股區"
"234022","9380-KE","2018/07/10 13:19:27","新北市永和區竹林路111號","121.519841666667","25.0118016666667","6500400","永和區"
"234076","969-R7","2018/07/10 13:19:23","新北市永和區民有街69號","121.517838333333","24.9956533333333","6500400","永和區"
"234072","AAC-211","2018/07/10 13:19:21","新北市永和區竹林路30號","121.517038333333","25.0148033333333","6500400","永和區"
"234066","AAC-212","2018/07/10 13:19:28","新北市永和區保平路50巷2號","121.511308333333","25.0071983333333","6500400","永和區"
"234001","AAC-295","2018/07/10 13:19:28","新北市永和區和平街98號","121.510888333333","25.0099383333333","6500400","永和區"
"244002","248-BX","2018/07/10 13:19:30","新北市林口區頂福20-18號","121.355105","25.0930033333333","6501700","林口區"
"231002","002-UM","2018/07/10 13:19:35","新北市新店區安華路28-1號","121.519673333333","24.960735","6500600","新店區"
"231027","0291-UT","2018/07/10 13:19:27","新北市新店區安康路一段61號","121.530538333333","24.961005","6500600","新店區"
"231028","046-UY","2018/07/10 13:19:35","新北市新店區安華路28-1號","121.519613333333","24.9609366666667","6500600","新店區"
"231001","047-UY","2018/07/10 13:19:23","新北市新店區安一路一段1-1號","121.519686666667","24.961115","6500600","新店區"
"231005","106-UY","2018/07/10 13:19:32","新北市新店區安華路28-1號","121.51957","24.9607616666667","6500600","新店區"
"231036","110-UY","2018/07/10 13:19:18","新北市新店區安一路一段1-1號","121.519391666667","24.961235","6500600","新店區"
"231012","187-VK","2018/07/10 13:19:23","新北市新店區安一路一段1-1號","121.519621666667","24.9611716666667","6500600","新店區"
"231010","188-VK","2018/07/10 13:19:27","新北市新店區安康路一段255號","121.524576666667","24.9633366666667","6500600","新店區"
"231020","189-VK","2018/07/10 13:19:24","新北市新店區安一路一段1-1號","121.519678333333","24.96107","6500600","新店區"
"231023","KEA-2219","2018/07/10 13:19:36","新北市新店區秀山路68號","121.530918333333","24.9609333333333","6500600","新店區"
"231026","256-BX","2018/07/10 13:19:30","新北市新店區安一路一段1-1號","121.519803333333","24.9612816666667","6500600","新店區"
"231003","268-BY","2018/07/10 13:19:25","新北市新店區安華路28-1號","121.51938","24.96056","6500600","新店區"
"231018","278-BY","2018/07/10 13:19:25","新北市新店區中央路183-3號","121.536213333333","24.968735","6500600","新店區"
"231015","AAD-862","2018/07/10 13:19:31","新北市新店區安康路一段65號","121.53032","24.9610666666667","6500600","新店區"
"231038","3712-VJ","2018/07/10 13:19:38","新北市新店區安華路28-1號","121.519316666667","24.96066","6500600","新店區"
"231037","4716-K9","2018/07/10 13:19:25","新北市新店區安華路28-1號","121.51982","24.9610183333333","6500600","新店區"
"231025","4715-K9","2018/07/10 13:19:19","新北市新店區中央五街7號","121.530023333333","24.974135","6500600","新店區"
"231013","513-UM","2018/07/10 13:19:25","新北市新店區安一路一段1-1號","121.519673333333","24.9611733333333","6500600","新店區"
"231034","616-UM","2018/07/10 13:19:23","新北市新店區安華路28-1號","121.519408333333","24.9608483333333","6500600","新店區"
"231006","617-UM","2018/07/10 13:19:25","新北市新店區安一路一段1-1號","121.5194","24.9610333333333","6500600","新店區"
"231030","619-UM","2018/07/10 13:19:29","新北市新店區安華路28-1號","121.519508333333","24.960925","6500600","新店區"
"231035","719-UM","2018/07/10 13:19:24","新北市新店區安一路一段1-1號","121.519511666667","24.96117","6500600","新店區"
"231032","720-UM","2018/07/10 13:19:38","新北市新店區安一路一段1-1號","121.519386666667","24.961145","6500600","新店區"
"231029","897-TW","2018/07/10 13:19:18","新北市新店區安華路28-1號","121.519561666667","24.9607333333333","6500600","新店區"
"231004","899-TW","2018/07/10 13:19:32","新北市新店區安華路28-1號","121.519406666667","24.9608","6500600","新店區"
"231024","AKT-0513","2018/07/10 13:19:31","新北市新店區安康路一段17號","121.533056666667","24.96037","6500600","新店區"
"235030","003-UY","2018/07/10 13:19:29","新北市中和區中山路二段119號","121.502801666667","25.0036166666667","6500300","中和區"
"235028","005-UY","2018/07/10 13:19:39","新北市中和區圓通路165-1號","121.497835","24.995355","6500300","中和區"
"235027","006-UY","2018/07/10 13:19:31","新北市中和區中正路589巷15號","121.48595","24.9937016666667","6500300","中和區"
"235020","096-UM","2018/07/10 13:19:33","新北市中和區新生街165號","121.483673333333","25.00099","6500300","中和區"
"235003","097-UM","2018/07/10 13:19:17","新北市中和區安平路59號","121.509753333333","24.9950916666667","6500300","中和區"
"235029","098-UM","2018/07/10 13:19:36","新北市中和區中山路二段64巷28號","121.502736666667","25.005985","6500300","中和區"
"235004","150-BY","2018/07/10 13:19:35","新北市中和區安平路59號","121.509621666667","24.9950383333333","6500300","中和區"
"235022","151-BY","2018/07/10 13:19:25","新北市中和區圓通路367巷17號","121.49258","24.986505","6500300","中和區"
"235019","183-VK","2018/07/10 13:19:34","新北市中和區中正路637巷52弄1號","121.48544","24.9933816666667","6500300","中和區"
"235002","185-VK","2018/07/10 13:19:29","新北市中和區大智街42巷1-6號","121.52193","24.9922266666667","6500300","中和區"
"235013","186-VK","2018/07/10 13:19:29","新北市中和區中正路395號","121.489768333333","24.9935633333333","6500300","中和區"
"235031","255-BX","2018/07/10 13:19:38","新北市中和區員山路148巷42-4號","121.482501666667","24.9969633333333","6500300","中和區"
"235036","301-VK","2018/07/10 13:19:19","新北市中和區錦和路166號","121.489893333333","24.9958633333333","6500300","中和區"
"235007","352-BY","2018/07/10 13:19:39","新北市中和區景平路377號","121.504106666667","24.9933816666667","6500300","中和區"
"235006","KEA-2878","2018/07/10 13:19:39","新北市中和區景平路155巷2弄10號","121.512936666667","24.9919783333333","6500300","中和區"
"235014","4979-A6","2018/07/10 13:19:31","新北市中和區捷運路61巷9號","121.509088333333","24.9894866666667","6500300","中和區"
"235033","4980-A6","2018/07/10 13:19:19","新北市中和區圓通路295-3號","121.494508333333","24.991735","6500300","中和區"
"235034","558-UM","2018/07/10 13:19:20","新北市中和區圓通路119號","121.499326666667","24.9963466666667","6500300","中和區"
"235009","565-BX","2018/07/10 13:19:34","新北市中和區復興路81號","121.503545","24.98989","6500300","中和區"
"235018","640-BX","2018/07/10 13:19:28","新北市中和區民享街105號","121.47488","24.9996716666667","6500300","中和區"
"235024","647-TV","2018/07/10 13:19:21","新北市中和區員山路287號","121.481231666667","24.99983","6500300","中和區"
"235011","732-UM","2018/07/10 13:19:25","新北市中和區南山路523-1號","121.507916666667","24.98719","6500300","中和區"
"235035","783-BX","2018/07/10 13:19:34","新北市中和區立德街199號","121.484295","25.0094","6500300","中和區"
"235026","800-TS","2018/07/10 13:19:34","新北市中和區景平路999巷1號","121.495446666667","25.0058816666667","6500300","中和區"
"235021","801-TS","2018/07/10 13:19:27","新北市中和區民安街111巷24弄7號","121.47633","24.998895","6500300","中和區"
"235005","802-TS","2018/07/10 13:19:25","新北市中和區景安路52號","121.506901666667","24.9980116666667","6500300","中和區"
"235016","805-TS","2018/07/10 13:19:26","新北市中和區興南路二段45號","121.507446666667","24.98568","6500300","中和區"
"235012","896-TW","2018/07/10 13:19:35","新北市中和區員山路36巷16-2號","121.484973333333","24.99191","6500300","中和區"
"235017","900-TW","2018/07/10 13:19:23","新北市中和區員山路36巷16-3號","121.484943333333","24.9918633333333","6500300","中和區"
"235015","157-BY","2018/07/10 13:19:30","新北市中和區華新街145號","121.506411666667","24.981625","6500300","中和區"
"235001","AAC-213","2018/07/10 13:19:37","新北市中和區景平路151巷37號","121.514646666667","24.9907833333333","6500300","中和區"
"235023","AAC-215","2018/07/10 13:19:23","新北市中和區員山路36巷16-3號","121.484945","24.99141","6500300","中和區"
"220013","072-UY","2018/07/10 13:19:33","新北市板橋區華東街1-9號","121.448173333333","24.9949266666667","6500100","板橋區"
"247019","001-UY","2018/07/10 13:19:26","新北市五股區中興路三段2巷10號","121.449318333333","25.0808283333333","6501400","蘆洲區"
"228004","212-TW","2018/07/10 13:19:35","新北市貢寮區吉林里內寮街23號","121.901815","24.98552","6502600","貢寮區"
"228005","828-UM","2018/07/10 13:19:35","新北市貢寮區美豐里丹裡街18-2號","121.9124","25.057335","6502600","貢寮區"
"224008","702-BZ","2018/07/10 13:08:55","新北市瑞芳區傑魚坑路183號","121.788603333333","25.1082","6501200","瑞芳區"
"207002","749-BX","2018/07/10 13:19:27","新北市萬里區崁腳里崁腳路166號","121.645035","25.1558183333333","6502800","萬里區"
"207001","662-BX","2018/07/10 13:19:29","新北市萬里區龜吼里新墾丁路22號","121.680056666667","25.193945","6502800","萬里區"
"252005","AAC-283","2018/07/10 13:19:28","新北市三芝區福德里土地公埔70-1號","121.524521666667","25.22736","6502100","三芝區"
"236006","498-BY","2018/07/10 13:19:26","新北市土城區亞洲路108巷6號","121.433941666667","24.9725983333333","6501300","土城區"
"221010","269-BY","2018/07/10 13:19:35","新北市汐止區忠三街8號","121.624785","25.0785166666667","6501100","汐止區"
"221023","279-VK","2018/07/10 13:19:26","新北市汐止區福德一路248號","121.633648333333","25.0651066666667","6501100","汐止區"
"221032","280-BY","2018/07/10 13:19:29","新北市汐止區龍安路44號","121.654113333333","25.0635283333333","6501100","汐止區"
"220030","610-BX","2018/07/10 13:19:25","新北市板橋區華東街1-10號","121.448271666667","24.994905","6500100","板橋區"
"220010","305-R5","2018/07/10 13:19:22","新北市板橋區民生路二段120號","121.470328333333","25.019705","6500100","板橋區"
"220012","486-VK","2018/07/10 13:19:32","新北市板橋區華東街1-10號","121.44837","24.994995","6500100","板橋區"
"220025","806-UM","2018/07/10 13:19:30","新北市板橋區華東街1-10號","121.448323333333","24.9949633333333","6500100","板橋區"
"220021","985-R7","2018/07/10 13:19:23","新北市板橋區華東街1-10號","121.448366666667","24.99499","6500100","板橋區"
"235032","KEA-2873","2018/07/10 13:19:23","新北市中和區員山路36巷16-3號","121.485026666667","24.991265","6500300","中和區"
"235025","KEA-2875","2018/07/10 13:19:10","新北市中和區國光街215巷24弄21號","121.466886666667","24.9999833333333","6500300","中和區"
