"lineid","car","time","location","longitude","latitude","cityid","cityname"
"234044","148-BY","2018/07/10 13:49:36","新北市永和區永亨路207號","121.526146666667","25.0025316666667","6500400","永和區"
"234005","207-UY","2018/07/10 13:49:21","新北市永和區永和路一段22號","121.513046666667","25.00488","6500400","永和區"
"234078","298-R6","2018/07/10 13:49:35","新北市永和區永亨路98號","121.52299","25.0047716666667","6500400","永和區"
"234036","336-UY","2018/07/10 13:49:37","新北市永和區民樂街57巷6號","121.528006666667","24.9985333333333","6500400","永和區"
"234062","337-UY","2018/07/10 13:49:36","新北市永和區中正路362號","121.517893333333","25.000835","6500400","永和區"
"234068","552-UM","2018/07/10 13:49:35","新北市永和區竹林路77號","121.519393333333","25.0128283333333","6500400","永和區"
"234084","553-UM","2018/07/10 13:49:34","新北市永和區中正路562號","121.517261666667","25.0059516666667","6500400","永和區"
"234015","745-BX","2018/07/10 13:49:24","新北市永和區永和路二段299號","121.51597","25.0161983333333","6500400","永和區"
"234028","746-BX","2018/07/10 13:49:34","新北市永和區民生路47巷8號","121.523461666667","24.99775","6500400","永和區"
"234052","KEA-2590","2018/07/10 13:49:34","新北市永和區竹林路39巷28弄13號","121.519718333333","25.0144716666667","6500400","永和區"
"234012","KEA-2591","2018/07/10 13:49:23","新北市永和區仁愛路241號","121.508938333333","25.0118766666667","6500400","永和區"
"234060","AAD-866","2018/07/10 13:49:34","新北市永和區中正路281號","121.517578333333","25.0011033333333","6500400","永和區"
"234040","862-TW","2018/07/10 13:49:40","新北市永和區中和路389巷13號","121.508081666667","25.0010033333333","6500400","永和區"
"234048","863-TW","2018/07/10 13:49:37","新北市永和區保安路144號","121.508605","25.01492","6500400","永和區"
"234010","9373-KE","2018/07/10 13:49:39","新北市永和區保安路292號","121.504995","25.01178","6500400","永和區"
"248017","225-UY","2018/07/10 13:49:24","新北市五股區民義路二段22巷21號","121.421285","25.0978416666667","6501500","五股區"
"234022","9380-KE","2018/07/10 13:49:27","新北市永和區中正路662巷48號","121.518368333333","25.0088383333333","6500400","永和區"
"234076","969-R7","2018/07/10 13:49:23","新北市永和區民權路12號","121.520238333333","24.9995216666667","6500400","永和區"
"234072","AAC-211","2018/07/10 13:49:22","新北市永和區豫溪街211號","121.52409","25.0094766666667","6500400","永和區"
"234066","AAC-212","2018/07/10 13:49:28","新北市永和區永貞路347巷13號","121.508663333333","25.00722","6500400","永和區"
"234001","AAC-295","2018/07/10 13:49:28","新北市永和區永和路一段107號","121.513885","25.0079333333333","6500400","永和區"
"244002","248-BX","2018/07/10 13:49:30","新北市林口區文化北路一段436號","121.365373333333","25.07692","6501700","林口區"
"231002","002-UM","2018/07/10 13:49:36","新北市新店區溪園路255巷9弄9號","121.523425","24.98166","6500600","新店區"
"231027","0291-UT","2018/07/10 13:49:27","新北市新店區北宜路一段48號","121.538413333333","24.9564933333333","6500600","新店區"
"231028","046-UY","2018/07/10 13:49:35","新北市新店區安和路二段179號","121.518505","24.9747416666667","6500600","新店區"
"231001","047-UY","2018/07/10 13:49:29","新北市新店區三民路121號","121.53468","24.97217","6500600","新店區"
"231005","106-UY","2018/07/10 13:49:32","新北市新店區寶中路121-1號","121.549606666667","24.9794066666667","6500600","新店區"
"231036","110-UY","2018/07/10 13:49:18","新北市新店區安祥路147巷55號","121.47608","24.9559516666667","6500600","新店區"
"231012","187-VK","2018/07/10 13:49:23","新北市新店區德正街27巷29弄88號","121.545726666667","24.9735766666667","6500600","新店區"
"231010","188-VK","2018/07/10 13:49:32","新北市新店區三民路60巷6號","121.535528333333","24.9726166666667","6500600","新店區"
"231020","189-VK","2018/07/10 13:49:24","新北市新店區永興路132-3號","121.544798333333","24.93164","6500600","新店區"
"231023","KEA-2219","2018/07/10 13:49:36","新北市新店區國校路45-1號","121.537953333333","24.9550216666667","6500600","新店區"
"231026","256-BX","2018/07/10 13:49:30","新北市新店區三民路159巷19弄31號","121.53223","24.9731666666667","6500600","新店區"
"231003","268-BY","2018/07/10 13:49:25","新北市新店區中興路一段160號","121.54271","24.9639533333333","6500600","新店區"
"231018","278-BY","2018/07/10 13:49:34","新北市新店區中正路402號","121.534715","24.9775733333333","6500600","新店區"
"231015","AAD-862","2018/07/10 13:49:31","新北市新店區竹林路72巷15號","121.554136666667","24.95062","6500600","新店區"
"231038","3712-VJ","2018/07/10 13:49:38","新北市新店區安華路28-1號","121.519296666667","24.960635","6500600","新店區"
"231037","4716-K9","2018/07/10 13:49:25","新北市新店區安康路三段269號","121.48638","24.9516783333333","6500600","新店區"
"231025","4715-K9","2018/07/10 13:49:39","新北市新店區中央路15號","121.533291666667","24.978345","6500600","新店區"
"231013","513-UM","2018/07/10 13:49:23","新北市新店區二十張路61號","121.537358333333","24.980745","6500600","新店區"
"231034","616-UM","2018/07/10 13:49:23","新北市新店區達觀路14巷3號","121.503266666667","24.9416883333333","6500600","新店區"
"231006","617-UM","2018/07/10 13:49:25","新北市新店區北宜路一段260號","121.54566","24.9527383333333","6500600","新店區"
"231030","619-UM","2018/07/10 13:49:29","新北市新店區安康路一段52巷2號","121.530056666667","24.961165","6500600","新店區"
"231035","719-UM","2018/07/10 13:49:24","新北市新店區安忠路57巷18號","121.513101666667","24.9588383333333","6500600","新店區"
"231032","720-UM","2018/07/10 13:49:19","新北市新店區莒光路44巷21弄11-3號","121.518493333333","24.9521466666667","6500600","新店區"
"231029","897-TW","2018/07/10 13:49:38","新北市新店區安康路二段125-1號","121.512408333333","24.9609366666667","6500600","新店區"
"231004","899-TW","2018/07/10 13:49:32","新北市新店區寶橋路132號","121.547466666667","24.9760183333333","6500600","新店區"
"231024","AKT-0513","2018/07/10 13:49:31","新北市新店區北新路一段271巷16號","121.540321666667","24.9670283333333","6500600","新店區"
"235030","003-UY","2018/07/10 13:49:29","新北市中和區水源路18巷3號","121.504045","25.0031733333333","6500300","中和區"
"235028","005-UY","2018/07/10 13:49:39","新北市中和區景平路511號","121.499343333333","24.9987233333333","6500300","中和區"
"235027","006-UY","2018/07/10 13:49:31","新北市中和區連城路319巷3弄7號","121.489486666667","24.995725","6500300","中和區"
"235020","096-UM","2018/07/10 13:49:33","新北市中和區中正路1206巷3號","121.480163333333","25.0109583333333","6500300","中和區"
"235003","097-UM","2018/07/10 13:49:37","新北市中和區大勇街25巷11弄2號","121.516398333333","24.9933866666667","6500300","中和區"
"235029","098-UM","2018/07/10 13:49:36","新北市中和區勝利路35巷11弄1號","121.499628333333","25.0067816666667","6500300","中和區"
"235004","150-BY","2018/07/10 13:49:35","新北市中和區宜安路120號","121.51017","24.9979883333333","6500300","中和區"
"235022","151-BY","2018/07/10 13:49:05","新北市中和區連城路526-1號","121.476155","24.991735","6500300","中和區"
"235019","183-VK","2018/07/10 13:49:34","新北市中和區德光路77巷1號","121.469541666667","25.0034833333333","6500300","中和區"
"235002","185-VK","2018/07/10 13:49:29","新北市中和區立人街40號","121.518056666667","24.9940666666667","6500300","中和區"
"235013","186-VK","2018/07/10 13:49:29","新北市中和區景安路177巷23號","121.50648","24.9944416666667","6500300","中和區"
"235031","255-BX","2018/07/10 13:49:18","新北市中和區新生街268號","121.483486666667","24.9971733333333","6500300","中和區"
"235008","293-VK","2018/07/10 13:49:36","新北市中和區中興街129號","121.499958333333","24.9915933333333","6500300","中和區"
"235036","301-VK","2018/07/10 13:49:39","新北市中和區連城路2號","121.499236666667","25.0023516666667","6500300","中和區"
"235007","352-BY","2018/07/10 13:49:19","新北市中和區成功路139號","121.525908333333","24.9902916666667","6500300","中和區"
"235006","KEA-2878","2018/07/10 13:49:39","新北市中和區秀朗路三段100巷2弄10號","121.525045","24.993625","6500300","中和區"
"235014","4979-A6","2018/07/10 13:49:31","新北市中和區忠孝街62巷38號","121.513028333333","24.98359","6500300","中和區"
"235033","4980-A6","2018/07/10 13:49:19","新北市中和區泰和街2號","121.500025","25.0011416666667","6500300","中和區"
"235034","558-UM","2018/07/10 13:49:19","新北市中和區南山路7號","121.501996666667","24.9995083333333","6500300","中和區"
"235009","565-BX","2018/07/10 13:49:34","新北市中和區捷運路56號","121.507625","24.99057","6500300","中和區"
"235018","640-BX","2018/07/10 13:49:28","新北市中和區民享街29號","121.474015","25.004365","6500300","中和區"
"235024","647-TV","2018/07/10 13:49:41","新北市中和區中山路三段177號","121.472835","25.0061233333333","6500300","中和區"
"235011","732-UM","2018/07/10 13:49:25","新北市中和區興南路二段34巷57弄1號","121.504876666667","24.98588","6500300","中和區"
"235010","733-UM","2018/07/10 13:49:32","新北市中和區仁愛街36巷43號","121.511298333333","24.986775","6500300","中和區"
"235035","783-BX","2018/07/10 13:49:30","新北市中和區立德街53號","121.487985","25.0074166666667","6500300","中和區"
"235026","800-TS","2018/07/10 13:49:14","新北市中和區中山路二段344號","121.493466666667","25.0025933333333","6500300","中和區"
"235021","801-TS","2018/07/10 13:49:27","新北市中和區民利街16-1號","121.48053","24.9991566666667","6500300","中和區"
"235005","802-TS","2018/07/10 13:49:25","新北市中和區中和路464號","121.512308333333","25.00398","6500300","中和區"
"235016","805-TS","2018/07/10 13:49:26","新北市中和區興南路二段399巷57-1號","121.501306666667","24.9761783333333","6500300","中和區"
"235012","896-TW","2018/07/10 13:49:35","新北市中和區南山路401號","121.506788333333","24.9900633333333","6500300","中和區"
"235017","900-TW","2018/07/10 13:49:23","新北市中和區華福街47號","121.466465","24.9966966666667","6500300","中和區"
"235015","157-BY","2018/07/10 13:49:30","新北市中和區忠孝街106巷43號","121.513705","24.9842766666667","6500300","中和區"
"235001","AAC-213","2018/07/10 13:49:37","新北市中和區自立路99巷36弄18號","121.523986666667","24.9940766666667","6500300","中和區"
"235023","AAC-215","2018/07/10 13:49:23","新北市中和區圓通路393巷9號","121.489835","24.98867","6500300","中和區"
"220016","013-TV","2018/07/10 13:49:27","新北市板橋區三民路一段31巷28號","121.480528333333","25.0231383333333","6500100","板橋區"
"220034","015-TV","2018/07/10 13:49:21","新北市板橋區南雅西路二段180巷15號","121.452726666667","25.0139333333333","6500100","板橋區"
"220013","072-UY","2018/07/10 13:49:33","新北市板橋區民族路247巷5弄42號","121.470178333333","25.0085416666667","6500100","板橋區"
"220105","075-UY","2018/07/10 13:49:35","新北市板橋區民生路二段161巷3號","121.470191666667","25.019765","6500100","板橋區"
"220017","AAD-861","2018/07/10 13:49:22","新北市板橋區四川路一段10巷23號","121.458885","25.006315","6500100","板橋區"
"247003","337-TH","2018/07/10 13:49:26","新北市蘆洲區中原路31號","121.46012","25.0826966666667","6501400","蘆洲區"
"247005","336-TH","2018/07/10 13:49:27","新北市蘆洲區九芎街2號","121.468908333333","25.0785733333333","6501400","蘆洲區"
"247007","056-VK","2018/07/10 13:49:23","新北市蘆洲區國道路二段57號","121.473485","25.07428","6501400","蘆洲區"
"247019","001-UY","2018/07/10 13:49:26","新北市蘆洲區民族路422巷48弄24號","121.47471","25.09321","6501400","蘆洲區"
"228004","212-TW","2018/07/10 13:49:35","新北市貢寮區龍崗里嵩陽街40號","121.905466666667","25.0149633333333","6502600","貢寮區"
"228005","828-UM","2018/07/10 13:49:36","新北市貢寮區美豐里土地公嶺10號","121.889496666667","25.056785","6502600","貢寮區"
"207002","749-BX","2018/07/10 13:41:47","新北市萬里區崁腳里崁腳路166號","121.645085","25.15589","6502800","萬里區"
"207001","662-BX","2018/07/10 13:49:29","新北市金山區月眉21-2號","121.6372","25.2153183333333","6502800","萬里區"
"252005","AAC-283","2018/07/10 13:49:28","新北市三芝區橫山里橫山56-6號","121.536298333333","25.2518133333333","6502100","三芝區"
"236065","105-UM","2018/07/10 13:49:28","新北市土城區員福街36號","121.441083333333","24.97883","6501300","土城區"
"236040","107-UM","2018/07/10 13:49:25","新北市土城區城林路6巷80號","121.43849","24.9797733333333","6501300","土城區"
"236074","166-UM","2018/07/10 13:49:28","新北市土城區中央路二段237號","121.440226666667","24.9720966666667","6501300","土城區"
"236029","253-BX","2018/07/10 13:49:29","新北市土城區員福街50號","121.440593333333","24.979045","6501300","土城區"
"236032","271-VK","2018/07/10 13:49:34","新北市土城區城林路6巷80號","121.43851","24.9798283333333","6501300","土城區"
"236017","401-BY","2018/07/10 13:49:23","新北市土城區城林路6巷80號","121.438518333333","24.9798","6501300","土城區"
"236006","498-BY","2018/07/10 13:49:26","新北市土城區員福街6號","121.441881666667","24.9783733333333","6501300","土城區"
"236013","752-BX","2018/07/10 13:49:20","新北市土城區城林路6巷80號","121.438578333333","24.9798283333333","6501300","土城區"
"236057","912-UM","2018/07/10 13:49:34","新北市土城區中華路二段257號","121.437443333333","24.971035","6501300","土城區"
"236045","913-UM","2018/07/10 13:49:23","新北市土城區城林路6巷80號","121.438526666667","24.9797683333333","6501300","土城區"
"236060","915-UM","2018/07/10 13:49:29","新北市土城區城林路6巷80號","121.438688333333","24.97972","6501300","土城區"
"236054","AAC-216","2018/07/10 13:49:18","新北市土城區城林路6巷80號","121.438813333333","24.9796666666667","6501300","土城區"
"221010","269-BY","2018/07/10 13:49:35","新北市汐止區長青路210巷82號","121.617186666667","25.1145683333333","6501100","汐止區"
"220027","145-BY","2018/07/10 13:49:37","新北市板橋區民權路202巷6弄1號","121.459883333333","25.0143733333333","6500100","板橋區"
"220028","200-UY","2018/07/10 13:49:36","新北市板橋區大觀路二段265巷60弄26號","121.441493333333","24.9978966666667","6500100","板橋區"
"220030","610-BX","2018/07/10 13:49:25","新北市板橋區篤行路三段49號","121.428128333333","24.98613","6500100","板橋區"
"220050","245-BX","2018/07/10 13:49:22","新北市板橋區民生路二段188號","121.470276666667","25.0202383333333","6500100","板橋區"
"220040","267-BY","2018/07/10 13:49:21","新北市板橋區民生路二段120號","121.470746666667","25.0200883333333","6500100","板橋區"
"220004","276-BY","2018/07/10 13:49:23","新北市板橋區四川路二段35號","121.454268333333","24.9954333333333","6500100","板橋區"
"220019","283-VK","2018/07/10 13:49:20","新北市板橋區重慶路245巷59號","121.465446666667","25.0010216666667","6500100","板橋區"
"220043","285-UM","2018/07/10 13:49:22","新北市板橋區民生路二段161巷1號","121.47009","25.0198","6500100","板橋區"
"220001","285-VK","2018/07/10 13:49:41","新北市板橋區民生路二段76號","121.471795","25.0181966666667","6500100","板橋區"
"220031","286-VK","2018/07/10 13:49:23","新北市板橋區僑中二街10巷36號","121.445548333333","25.01122","6500100","板橋區"
"220029","287-VK","2018/07/10 13:49:27","新北市板橋區光華街15巷2號","121.453953333333","25.0118483333333","6500100","板橋區"
"220039","288-VK","2018/07/10 13:49:38","新北市板橋區民生路二段120號","121.470518333333","25.0195833333333","6500100","板橋區"
"220009","293-UM","2018/07/10 13:49:37","新北市板橋區民生路二段89-4號","121.47101","25.0183883333333","6500100","板橋區"
"220032","296-UM","2018/07/10 13:49:37","新北市板橋區大觀路二段156巷46號","121.44126","25.000285","6500100","板橋區"
"220023","303-R5","2018/07/10 13:49:37","新北市板橋區南雅西路一段110號","121.452523333333","25.0057466666667","6500100","板橋區"
"220010","305-R5","2018/07/10 13:49:34","新北市板橋區觀光街2號","121.4724","25.0153383333333","6500100","板橋區"
"220041","307-R5","2018/07/10 13:49:37","新北市板橋區民生路二段120號","121.47058","25.019535","6500100","板橋區"
"220047","317-R6","2018/07/10 13:49:38","新北市板橋區民生路二段120號","121.47037","25.0197016666667","6500100","板橋區"
"220012","486-VK","2018/07/10 13:49:32","新北市板橋區縣民大道二段200巷35號","121.470706666667","25.0181083333333","6500100","板橋區"
"220037","491-VK","2018/07/10 13:49:41","新北市板橋區民生路二段161巷1號","121.46998","25.0201183333333","6500100","板橋區"
"220104","560-BX","2018/07/10 13:49:35","新北市板橋區中正路275巷57號","121.45308","25.01798","6500100","板橋區"
"220052","561-BX","2018/07/10 13:49:29","新北市板橋區民生路二段161巷1號","121.470193333333","25.019935","6500100","板橋區"
"220020","568-UM","2018/07/10 13:49:39","新北市板橋區大觀路三段36巷84號","121.434523333333","24.9974216666667","6500100","板橋區"
"220011","609-BX","2018/07/10 13:49:32","新北市板橋區民生路一段133號","121.47369","25.0150666666667","6500100","板橋區"
"220005","686-BX","2018/07/10 13:49:35","新北市板橋區館前西路19號","121.458681666667","25.0069433333333","6500100","板橋區"
"220042","689-BX","2018/07/10 13:49:24","新北市板橋區民生路二段161巷1號","121.470246666667","25.0200933333333","6500100","板橋區"
"220002","741-BX","2018/07/10 13:49:27","新北市板橋區後埔街10號","121.460333333333","25.00682","6500100","板橋區"
"220051","KEA-2699","2018/07/10 13:49:17","新北市板橋區民生路二段161巷1號","121.470233333333","25.0199","6500100","板橋區"
"220025","806-UM","2018/07/10 13:49:30","新北市板橋區大觀路三段50巷49號","121.432198333333","24.9956933333333","6500100","板橋區"
"220003","827-TW","2018/07/10 13:49:37","新北市板橋區中山路一段160-6號","121.466428333333","25.0121233333333","6500100","板橋區"
"220014","829-TW","2018/07/10 13:49:28","新北市板橋區民生路一段121號","121.473941666667","25.01469","6500100","板橋區"
"220038","833-TW","2018/07/10 13:49:29","新北市板橋區三民路二段202-10號","121.479053333333","25.0140916666667","6500100","板橋區"
"220022","895-R6","2018/07/10 13:49:33","新北市板橋區南雅南路一段27號","121.456398333333","25.006535","6500100","板橋區"
"220021","985-R7","2018/07/10 13:49:22","新北市板橋區府中路67號","121.458055","25.0094716666667","6500100","板橋區"
"220018","AAC-253","2018/07/10 13:49:37","新北市板橋區四川路一段55號","121.459601666667","25.0062833333333","6500100","板橋區"
"235032","KEA-2873","2018/07/10 13:49:23","新北市中和區圓通路162巷1號","121.497283333333","24.99533","6500300","中和區"
"235025","KEA-2875","2018/07/10 13:49:27","新北市中和區民治街21巷1號","121.475386666667","25.00243","6500300","中和區"
