"lineid","car","time","location","longitude","latitude","cityid","cityname"
"234044","148-BY","2018/07/10 14:19:36","新北市永和區永元路120號","121.522741666667","25.0026916666667","6500400","永和區"
"234005","207-UY","2018/07/10 14:19:21","新北市永和區永貞路422號","121.50852","25.0084166666667","6500400","永和區"
"234078","298-R6","2018/07/10 14:19:35","新北市永和區國中路132巷18號","121.524145","25.0077083333333","6500400","永和區"
"234036","336-UY","2018/07/10 14:19:37","新北市永和區成功路一段93巷21弄2號","121.528351666667","25.0026616666667","6500400","永和區"
"234062","337-UY","2018/07/10 14:19:32","新北市永和區得和路120號","121.518558333333","25.0000983333333","6500400","永和區"
"234068","552-UM","2018/07/10 14:19:15","新北市永和區福和路258號","121.518313333333","25.0075566666667","6500400","永和區"
"234084","553-UM","2018/07/10 14:19:35","新北市永和區永和路二段207號","121.515408333333","25.0137016666667","6500400","永和區"
"234015","745-BX","2018/07/10 14:19:24","新北市永和區仁愛路99號","121.512708333333","25.013085","6500400","永和區"
"234028","746-BX","2018/07/10 14:19:34","新北市永和區民權路49巷37號","121.522015","24.9976583333333","6500400","永和區"
"234052","KEA-2590","2018/07/10 14:19:28","新北市永和區光復街2巷16弄1號","121.517145","25.0163533333333","6500400","永和區"
"234060","AAD-866","2018/07/10 14:19:22","新北市永和區安樂路164號","121.51468","25.0007416666667","6500400","永和區"
"234040","862-TW","2018/07/10 14:19:32","新北市永和區中和路453號","121.510006666667","25.00153","6500400","永和區"
"234048","863-TW","2018/07/10 14:19:37","新北市永和區保安路8號","121.510553333333","25.0174533333333","6500400","永和區"
"248017","225-UY","2018/07/10 14:16:24","新北市五股區壟路19-2號","121.412841666667","25.0850716666667","6501500","五股區"
"234022","9380-KE","2018/07/10 14:19:27","新北市永和區竹林路25巷21號","121.518166666667","25.0150366666667","6500400","永和區"
"234076","969-R7","2018/07/10 14:19:23","新北市永和區民族街81巷26號","121.51897","24.996545","6500400","永和區"
"234072","AAC-211","2018/07/10 14:19:21","新北市永和區豫溪街191巷7弄13號","121.523436666667","25.0107816666667","6500400","永和區"
"234066","AAC-212","2018/07/10 14:19:28","新北市永和區保平路268巷14號","121.507911666667","25.0060333333333","6500400","永和區"
"234001","AAC-295","2018/07/10 14:19:28","新北市永和區中正路618-1號","121.516978333333","25.0077816666667","6500400","永和區"
"231002","002-UM","2018/07/10 14:19:36","新北市新店區中央路151號","121.529613333333","24.97241","6500600","新店區"
"231027","0291-UT","2018/07/10 14:19:27","新北市新店區光明街286巷13號","121.54061","24.9640816666667","6500600","新店區"
"231028","046-UY","2018/07/10 14:19:35","新北市新店區安和路二段221號","121.517396666667","24.9757733333333","6500600","新店區"
"231001","047-UY","2018/07/10 14:19:23","新北市新店區中正路75巷71號","121.543143333333","24.9687983333333","6500600","新店區"
"231005","106-UY","2018/07/10 14:19:32","新北市新店區中興路三段221-3號","121.543428333333","24.9824383333333","6500600","新店區"
"231036","110-UY","2018/07/10 14:19:38","新北市新店區安祥路109巷3弄10號","121.475678333333","24.959555","6500600","新店區"
"231012","187-VK","2018/07/10 14:19:23","新北市新店區五峰路61巷1號","121.548653333333","24.9696766666667","6500600","新店區"
"231020","189-VK","2018/07/10 14:19:24","新北市新店區新烏路二段126號","121.549456666667","24.9204216666667","6500600","新店區"
"231023","KEA-2219","2018/07/10 14:19:36","新北市新店區光明街138巷8號","121.5397","24.9610833333333","6500600","新店區"
"231003","268-BY","2018/07/10 14:19:25","新北市新店區中興路一段216號","121.54384","24.96582","6500600","新店區"
"231018","278-BY","2018/07/10 14:19:25","新北市新店區中央四街25號","121.528938333333","24.9742816666667","6500600","新店區"
"231015","AAD-862","2018/07/10 14:19:31","新北市新店區北宜路二段470號","121.570061666667","24.9556133333333","6500600","新店區"
"231038","3712-VJ","2018/07/10 14:19:18","新北市新店區溪洲路6巷10號","121.533958333333","24.9615933333333","6500600","新店區"
"231037","4716-K9","2018/07/10 14:19:25","新北市新店區安康路二段341巷4號","121.496831666667","24.95511","6500600","新店區"
"231025","4715-K9","2018/07/10 14:19:19","新北市新店區自立街42號","121.538335","24.9787283333333","6500600","新店區"
"231013","513-UM","2018/07/10 14:19:23","新北市新店區大豐路22號","121.540715","24.9801183333333","6500600","新店區"
"231034","616-UM","2018/07/10 14:19:23","新北市新店區車子路11號","121.503025","24.9520183333333","6500600","新店區"
"231006","617-UM","2018/07/10 14:19:25","新北市新店區北宜路二段599號","121.568318333333","24.95561","6500600","新店區"
"231030","619-UM","2018/07/10 14:19:29","新北市新店區安光路46號","121.514523333333","24.9644333333333","6500600","新店區"
"231035","719-UM","2018/07/10 14:19:24","新北市新店區安和路二段113巷1弄2號","121.518255","24.9702116666667","6500600","新店區"
"231032","720-UM","2018/07/10 14:19:38","新北市新店區秀山路4號","121.532878333333","24.9600766666667","6500600","新店區"
"231029","897-TW","2018/07/10 14:19:38","新北市新店區安康路二段268號","121.508443333333","24.9587633333333","6500600","新店區"
"231004","899-TW","2018/07/10 14:19:33","新北市新店區中正路135號","121.541785","24.97137","6500600","新店區"
"231024","AKT-0513","2018/07/10 14:19:31","新北市新店區安康路二段320巷15弄2號","121.503878333333","24.9595583333333","6500600","新店區"
"235030","003-UY","2018/07/10 14:19:29","新北市中和區枋寮街51巷5號","121.501388333333","25.00056","6500300","中和區"
"235028","005-UY","2018/07/10 14:19:39","新北市中和區泰和街1號","121.499863333333","25.0008466666667","6500300","中和區"
"235027","006-UY","2018/07/10 14:19:31","新北市中和區連城路249巷30弄2號","121.494773333333","24.994755","6500300","中和區"
"235020","096-UM","2018/07/10 14:19:33","新北市中和區民富街36號","121.476735","25.0066666666667","6500300","中和區"
"235003","097-UM","2018/07/10 14:19:37","新北市中和區秀峰街103巷8弄2號","121.520216666667","24.9895966666667","6500300","中和區"
"235029","098-UM","2018/07/10 14:19:36","新北市中和區中山路二段2巷5弄7號","121.504398333333","25.006165","6500300","中和區"
"235004","150-BY","2018/07/10 14:19:35","新北市中和區保健路76巷10號","121.511228333333","24.9960016666667","6500300","中和區"
"235022","151-BY","2018/07/10 14:19:25","新北市中和區員山路36巷16-2號","121.485236666667","24.9914233333333","6500300","中和區"
"235019","183-VK","2018/07/10 14:19:34","新北市中和區莒光路5號","121.471978333333","25.0060366666667","6500300","中和區"
"235002","185-VK","2018/07/10 14:19:29","新北市中和區大仁街10巷50號","121.520366666667","24.992665","6500300","中和區"
"235013","186-VK","2018/07/10 14:19:29","新北市中和區景新街230巷1號","121.508228333333","24.99411","6500300","中和區"
"235031","255-BX","2018/07/10 14:19:38","新北市中和區新生街202號","121.483805","24.99913","6500300","中和區"
"235008","293-VK","2018/07/10 14:19:36","新北市中和區復興路317號","121.50102","24.990215","6500300","中和區"
"235036","301-VK","2018/07/10 14:19:39","新北市中和區中山路二段259號","121.497026666667","25.00225","6500300","中和區"
"235007","352-BY","2018/07/10 14:19:39","新北市中和區安樂路60巷11號","121.512901666667","24.9929833333333","6500300","中和區"
"235006","KEA-2878","2018/07/10 14:19:23","新北市中和區安樂路191巷20號","121.514351666667","24.9979516666667","6500300","中和區"
"235014","4979-A6","2018/07/10 14:19:31","新北市中和區景安路208巷12號","121.503381666667","24.9912983333333","6500300","中和區"
"235033","4980-A6","2018/07/10 14:19:40","新北市中和區中山路二段178巷1號","121.500695","25.0029066666667","6500300","中和區"
"235034","558-UM","2018/07/10 14:19:19","新北市中和區中山路二段269號","121.496881666667","25.0020466666667","6500300","中和區"
"235009","565-BX","2018/07/10 14:19:34","新北市中和區景新街383巷49號","121.513478333333","24.990675","6500300","中和區"
"235018","640-BX","2018/07/10 14:19:28","新北市中和區國光街112巷2弄1號","121.469921666667","25.00089","6500300","中和區"
"235024","647-TV","2018/07/10 14:19:22","新北市中和區中山路三段49號","121.476888333333","25.005695","6500300","中和區"
"235011","732-UM","2018/07/10 14:19:25","新北市中和區和平街54巷9號","121.508985","24.9916166666667","6500300","中和區"
"235010","733-UM","2018/07/10 14:19:32","新北市中和區忠孝街2巷13弄2號","121.510396666667","24.981895","6500300","中和區"
"235035","783-BX","2018/07/10 14:19:30","新北市中和區橋和路81號","121.489401666667","25.005645","6500300","中和區"
"235026","800-TS","2018/07/10 14:19:34","新北市中和區橋安街19號","121.492646666667","25.0041666666667","6500300","中和區"
"235021","801-TS","2018/07/10 14:19:27","新北市中和區員山路423巷16號","121.48038","25.0027516666667","6500300","中和區"
"235005","802-TS","2018/07/10 14:19:25","新北市中和區中安街226號","121.512333333333","24.9986916666667","6500300","中和區"
"235016","805-TS","2018/07/10 14:19:26","新北市中和區華新街145號","121.506326666667","24.9816766666667","6500300","中和區"
"235012","896-TW","2018/07/10 14:19:34","新北市中和區華新街109巷2號","121.508756666667","24.9824716666667","6500300","中和區"
"235017","900-TW","2018/07/10 14:19:23","新北市中和區民德路218號","121.468153333333","24.9979333333333","6500300","中和區"
"235015","157-BY","2018/07/10 14:19:30","新北市中和區景平路239巷33弄1號","121.50948","24.9919066666667","6500300","中和區"
"235001","AAC-213","2018/07/10 14:19:37","新北市中和區秀朗路三段10巷14弄43號","121.524051666667","24.9964333333333","6500300","中和區"
"235023","AAC-215","2018/07/10 14:19:23","新北市中和區圓通路286巷20號","121.491826666667","24.9914566666667","6500300","中和區"
"220016","013-TV","2018/07/10 14:19:27","新北市板橋區林森街1巷31號","121.482793333333","25.0243583333333","6500100","板橋區"
"220034","015-TV","2018/07/10 14:19:23","新北市板橋區中正路216巷82號","121.458185","25.0189983333333","6500100","板橋區"
"220013","072-UY","2018/07/10 14:19:33","新北市板橋區民族路129巷14號","121.46764","25.0085583333333","6500100","板橋區"
"220105","075-UY","2018/07/10 14:19:35","新北市板橋區雙十路三段15號","121.471013333333","25.0311666666667","6500100","板橋區"
"220017","AAD-861","2018/07/10 14:19:21","新北市板橋區華興街21巷18號","121.458598333333","25.003675","6500100","板橋區"
"247023","893-R6","2018/07/10 14:19:21","新北市蘆洲區永平街32巷12弄18號","121.460026666667","25.0910516666667","6501400","蘆洲區"
"247013","546-UM","2018/07/10 14:19:28","新北市蘆洲區中山一路211號","121.473916666667","25.0808583333333","6501400","蘆洲區"
"247021","500-BY","2018/07/10 14:19:27","新北市蘆洲區三民路277號","121.467873333333","25.0898733333333","6501400","蘆洲區"
"247009","341-TH","2018/07/10 14:19:21","新北市蘆洲區鷺江街69號","121.47718","25.0829083333333","6501400","蘆洲區"
"247011","339-TH","2018/07/10 14:19:19","新北市蘆洲區民權路3巷26號","121.475208333333","25.0854916666667","6501400","蘆洲區"
"247003","337-TH","2018/07/10 14:19:26","新北市蘆洲區長安街172巷11號","121.459543333333","25.0835616666667","6501400","蘆洲區"
"247005","336-TH","2018/07/10 14:19:26","新北市蘆洲區九芎街90巷16-1號","121.465315","25.0806033333333","6501400","蘆洲區"
"247017","057-VK","2018/07/10 14:19:26","新北市蘆洲區民權路108號","121.47384","25.0881983333333","6501400","蘆洲區"
"247007","056-VK","2018/07/10 14:19:23","新北市蘆洲區中山二路300巷5號","121.468261666667","25.076985","6501400","蘆洲區"
"247015","007-UY","2018/07/10 14:19:23","新北市蘆洲區中正路185巷31弄18號","121.46662","25.0837816666667","6501400","蘆洲區"
"247001","002-UY","2018/07/10 14:18:18","新北市蘆洲區永樂街26巷1號","121.458535","25.0885083333333","6501400","蘆洲區"
"247019","001-UY","2018/07/10 14:19:26","新北市蘆洲區仁愛街25號","121.472333333333","25.0926416666667","6501400","蘆洲區"
"228004","212-TW","2018/07/10 14:19:35","新北市貢寮區雙玉里田寮洋街39-3號","121.924885","25.0137933333333","6502600","貢寮區"
"228005","828-UM","2018/07/10 14:19:35","新北市貢寮區美豐里土地公嶺54號","121.89452","25.0650983333333","6502600","貢寮區"
"207002","749-BX","2018/07/10 14:17:47","新北市萬里區溪底里溪底路13號","121.614278333333","25.1491916666667","6502800","萬里區"
"207001","662-BX","2018/07/10 14:19:29","新北市萬里區磺潭里清水18號","121.637805","25.1976633333333","6502800","萬里區"
"252005","AAC-283","2018/07/10 14:19:28","新北市三芝區茂長里陳厝坑16號","121.518196666667","25.2555183333333","6502100","三芝區"
"236065","105-UM","2018/07/10 14:19:28","新北市土城區明德路一段137號","121.465256666667","24.9804483333333","6501300","土城區"
"236040","107-UM","2018/07/10 14:19:25","新北市土城區樂利街3巷12號","121.448505","24.9862816666667","6501300","土城區"
"236074","166-UM","2018/07/10 14:19:29","新北市土城區中央路三段281巷23弄19號","121.426388333333","24.9615333333333","6501300","土城區"
"236029","253-BX","2018/07/10 14:19:27","新北市土城區順風路30號","121.440085","24.9770816666667","6501300","土城區"
"236024","269-VK","2018/07/10 14:19:23","新北市土城區承天路67號","121.439516666667","24.9635016666667","6501300","土城區"
"236032","271-VK","2018/07/10 14:19:34","新北市土城區青雲路451巷8弄15號","121.459555","24.9742066666667","6501300","土城區"
"236045","KEA-2877","2018/07/10 14:19:24","新北市土城區金城路一段112號","121.446561666667","24.9758916666667","6501300","土城區"
"236017","401-BY","2018/07/10 14:19:23","新北市土城區明德路一段365-1號","121.45361","24.9790283333333","6501300","土城區"
"236006","498-BY","2018/07/10 14:19:26","新北市土城區中華路一段70巷23號","121.443718333333","24.9893833333333","6501300","土城區"
"236013","752-BX","2018/07/10 14:19:20","新北市土城區青雲路39巷7號","121.46031","24.9875433333333","6501300","土城區"
"236057","912-UM","2018/07/10 14:19:34","新北市土城區中央路四段225號","121.413668333333","24.9554366666667","6501300","土城區"
"236045","913-UM","2018/07/10 14:08:01","新北市土城區城林路6巷80號","121.438355","24.979785","6501300","土城區"
"236060","915-UM","2018/07/10 14:19:29","新北市土城區延壽路44巷15號","121.471458333333","24.9930183333333","6501300","土城區"
"236054","AAC-216","2018/07/10 14:19:38","新北市土城區中華路二段98號","121.438116666667","24.9744183333333","6501300","土城區"
"221010","269-BY","2018/07/10 14:19:35","新北市汐止區八連路一段86巷2號","121.645128333333","25.080665","6501100","汐止區"
"220027","145-BY","2018/07/10 14:19:37","新北市板橋區民權路202巷13弄36號","121.458573333333","25.0163866666667","6500100","板橋區"
"220028","200-UY","2018/07/10 14:19:36","新北市板橋區大觀路二段19巷122號","121.450221666667","25.0026366666667","6500100","板橋區"
"220030","610-BX","2018/07/10 14:19:25","新北市板橋區篤行路三段77號","121.427115","24.9852233333333","6500100","板橋區"
"220050","245-BX","2018/07/10 14:19:22","新北市板橋區莒光路171巷3弄7-4號","121.47496","25.02416","6500100","板橋區"
"220040","267-BY","2018/07/10 14:19:21","新北市板橋區文聖街75號","121.477325","25.0304533333333","6500100","板橋區"
"220004","276-BY","2018/07/10 14:19:20","新北市板橋區信義路201號","121.45931","24.991605","6500100","板橋區"
"220019","283-VK","2018/07/10 14:19:20","新北市板橋區忠孝路48巷2弄10號","121.460233333333","25.00104","6500100","板橋區"
"220043","285-UM","2018/07/10 14:19:22","新北市板橋區吳鳳路82號","121.466956666667","25.0312816666667","6500100","板橋區"
"220001","285-VK","2018/07/10 14:19:27","新北市板橋區富山街53巷29號","121.477583333333","25.021065","6500100","板橋區"
"220031","286-VK","2018/07/10 14:19:23","新北市板橋區龍興街73巷28號","121.442876666667","25.0025916666667","6500100","板橋區"
"220029","287-VK","2018/07/10 14:19:35","新北市板橋區南雅西路一段10巷7弄11號","121.454295","25.0043666666667","6500100","板橋區"
"220039","288-VK","2018/07/10 14:19:38","新北市板橋區長江路一段106巷13弄35號","121.461345","25.0298666666667","6500100","板橋區"
"220009","293-UM","2018/07/10 14:19:37","新北市板橋區中山路二段318巷20弄15號","121.480833333333","25.018865","6500100","板橋區"
"220032","296-UM","2018/07/10 14:19:37","新北市板橋區滿平街136巷8弄11號","121.427403333333","24.9876233333333","6500100","板橋區"
"220023","303-R5","2018/07/10 14:19:37","新北市板橋區府中路126-2號","121.455133333333","25.0094983333333","6500100","板橋區"
"220010","305-R5","2018/07/10 14:19:23","新北市板橋區三民路二段居仁巷2弄23號","121.479923333333","25.0130483333333","6500100","板橋區"
"220041","307-R5","2018/07/10 14:19:37","新北市板橋區光武街48巷25號","121.46772","25.0269016666667","6500100","板橋區"
"220047","317-R6","2018/07/10 14:19:39","新北市板橋區民有街89巷8弄1-1號","121.464301666667","25.02742","6500100","板橋區"
"220012","486-VK","2018/07/10 14:19:32","新北市板橋區縣民大道二段3號","121.462581666667","25.0120566666667","6500100","板橋區"
"220037","491-VK","2018/07/10 14:19:41","新北市板橋區文化路二段182巷3弄13號","121.471483333333","25.027775","6500100","板橋區"
"220104","560-BX","2018/07/10 14:19:35","新北市板橋區中正路362號","121.454311666667","25.023925","6500100","板橋區"
"220052","561-BX","2018/07/10 14:19:29","新北市板橋區介壽街20號","121.46763","25.02013","6500100","板橋區"
"220020","568-UM","2018/07/10 14:19:39","新北市板橋區篤行路二段161巷23號","121.430273333333","24.9873516666667","6500100","板橋區"
"220011","609-BX","2018/07/10 14:19:24","新北市板橋區三民路二段204-2號","121.478856666667","25.012285","6500100","板橋區"
"220005","686-BX","2018/07/10 14:19:34","新北市板橋區廣權路127號","121.465508333333","24.993235","6500100","板橋區"
"220042","689-BX","2018/07/10 14:19:27","新北市板橋區國光路237號","121.462931666667","25.0185366666667","6500100","板橋區"
"220002","741-BX","2018/07/10 14:19:27","新北市板橋區校前街72號","121.461921666667","25.0033783333333","6500100","板橋區"
"220051","KEA-2699","2018/07/10 14:19:34","新北市板橋區松柏街1巷22弄1號","121.473403333333","25.03022","6500100","板橋區"
"220025","806-UM","2018/07/10 14:19:30","新北市板橋區大觀路二段121號","121.44593","25.0014116666667","6500100","板橋區"
"220003","827-TW","2018/07/10 14:19:37","新北市板橋區館前東路156巷44號","121.464571666667","25.00673","6500100","板橋區"
"220014","829-TW","2018/07/10 14:19:38","新北市板橋區長安街138巷7弄63號","121.474201666667","25.0094066666667","6500100","板橋區"
"220045","830-TW","2018/07/10 14:19:25","新北市板橋區文聖街156-1號","121.478741666667","25.0273916666667","6500100","板橋區"
"220038","833-TW","2018/07/10 14:19:29","新北市板橋區文化路一段369-1號","121.46693","25.0211183333333","6500100","板橋區"
"220022","895-R6","2018/07/10 14:19:33","新北市板橋區中正路39巷11號","121.455115","25.01304","6500100","板橋區"
"220021","985-R7","2018/07/10 14:19:39","新北市板橋區中正路372巷8號","121.454941666667","25.024155","6500100","板橋區"
"220046","AAC-210","2018/07/10 14:19:27","新北市板橋區幸福路54號","121.4612","25.0202266666667","6500100","板橋區"
"220018","AAC-253","2018/07/10 14:19:37","新北市板橋區忠孝路147號","121.463405","25.0023866666667","6500100","板橋區"
"235032","KEA-2873","2018/07/10 14:19:23","新北市中和區圓通路40號","121.501003333333","24.9978266666667","6500300","中和區"
"235025","KEA-2875","2018/07/10 14:19:10","新北市中和區員山路143巷48號","121.478611666667","24.9953","6500300","中和區"
