"lineid","car","time","location","longitude","latitude","cityid","cityname"
"234022","9380-KE","2018/07/10 15:39:27","新北市永和區環河西路一段79號","121.513125","25.0181566666667","6500400","永和區"
"231028","046-UY","2018/07/10 15:39:35","新北市新店區僑義路11巷2號","121.500311666667","24.9515083333333","6500600","新店區"
"231005","106-UY","2018/07/10 15:39:32","新北市新店區建國路118號","121.539276666667","24.97859","6500600","新店區"
"231036","110-UY","2018/07/10 15:39:38","新北市新店區安康路二段458號","121.4941","24.954135","6500600","新店區"
"231012","187-VK","2018/07/10 15:39:23","新北市新店區文化路79號","121.54491","24.982605","6500600","新店區"
"231020","189-VK","2018/07/10 15:39:24","新北市新店區湖興路128-7號","121.560508333333","24.9306966666667","6500600","新店區"
"231023","KEA-2219","2018/07/10 15:39:36","新北市新店區中興路一段280號","121.54557","24.9684066666667","6500600","新店區"
"231026","256-BX","2018/07/10 15:39:25","新北市新店區三民路75巷2弄1號","121.535711666667","24.971145","6500600","新店區"
"231003","268-BY","2018/07/10 15:39:24","新北市新店區寶橋路97號","121.547466666667","24.976325","6500600","新店區"
"231018","278-BY","2018/07/10 15:39:25","新北市新店區民生路156巷14號","121.528516666667","24.9811433333333","6500600","新店區"
"231015","AAD-862","2018/07/10 15:39:31","新北市新店區北宜路一段201號","121.547423333333","24.9522083333333","6500600","新店區"
"231038","3712-VJ","2018/07/10 15:39:38","新北市新店區吉安街9號","121.516671666667","24.965615","6500600","新店區"
"231037","4716-K9","2018/07/10 15:39:25","新北市新店區安民街365巷1弄8號","121.516368333333","24.9750683333333","6500600","新店區"
"231025","4715-K9","2018/07/10 15:39:39","新北市新店區薏仁坑路6號","121.500383333333","24.95793","6500600","新店區"
"231013","513-UM","2018/07/10 15:39:23","新北市新店區永業路81巷3弄34號","121.53087","24.950095","6500600","新店區"
"231034","616-UM","2018/07/10 15:39:23","新北市新店區玫瑰路58巷26號","121.494098333333","24.9468083333333","6500600","新店區"
"231030","619-UM","2018/07/10 15:39:29","新北市新店區新和街116巷13號","121.521535","24.986075","6500600","新店區"
"231039","718-UY","2018/07/10 15:39:34","新北市新店區寶元路二段31巷2號","121.546781666667","24.9817133333333","6500600","新店區"
"231035","719-UM","2018/07/10 15:39:24","新北市新店區安興路85-1號","121.51507","24.9752233333333","6500600","新店區"
"231032","720-UM","2018/07/10 15:39:08","新北市新店區雙城路137號","121.494378333333","24.94518","6500600","新店區"
"231029","897-TW","2018/07/10 15:39:38","新北市新店區薏仁坑路自強巷6號","121.496705","24.9585033333333","6500600","新店區"
"235036","301-VK","2018/07/10 15:39:19","新北市中和區橋和路128號","121.493508333333","25.0061016666667","6500300","中和區"
"235033","4980-A6","2018/07/10 15:39:39","新北市中和區中正路592號","121.485696666667","24.995065","6500300","中和區"
"235005","802-TS","2018/07/10 15:39:25","新北市林口區太平里180號","121.368325","25.1344433333333","6500300","中和區"
"235023","AAC-215","2018/07/10 15:39:23","新北市中和區員山路26號","121.4818","24.9858966666667","6500300","中和區"
"227003","400-TW","2018/07/10 15:39:35","新北市雙溪區牡丹里頂坪5-1號","121.86283","25.03872","6502500","雙溪區"
"236065","105-UM","2018/07/10 15:39:28","新北市土城區中央路三段130-4號","121.43444","24.9658083333333","6501300","土城區"
"236040","107-UM","2018/07/10 15:39:25","新北市土城區裕民路70號","121.449176666667","24.9877283333333","6501300","土城區"
"236074","166-UM","2018/07/10 15:39:29","新北市土城區中央路四段321巷32-2號","121.412015","24.9510583333333","6501300","土城區"
"236029","253-BX","2018/07/10 15:39:27","新北市土城區裕民路32巷6號","121.44761","24.9880483333333","6501300","土城區"
"236024","269-VK","2018/07/10 15:39:33","新北市土城區中央路一段269-3號","121.444895","24.9852266666667","6501300","土城區"
"236045","KEA-2877","2018/07/10 15:39:24","新北市土城區金城路三段99-1號","121.467348333333","24.9876533333333","6501300","土城區"
"236017","401-BY","2018/07/10 15:39:23","新北市土城區延吉街111巷2號","121.4715","24.9863616666667","6501300","土城區"
"236013","752-BX","2018/07/10 15:39:20","新北市土城區廣明街90巷27號","121.45563","24.994645","6501300","土城區"
"236057","912-UM","2018/07/10 15:39:34","新北市土城區中央路一段172號","121.4457","24.9867433333333","6501300","土城區"
"236045","913-UM","2018/07/10 15:39:25","新北市土城區城林路6巷80號","121.438371666667","24.9798283333333","6501300","土城區"
"236060","915-UM","2018/07/10 15:39:29","新北市土城區延和路9號","121.463883333333","24.9878816666667","6501300","土城區"
"236054","AAC-216","2018/07/10 15:39:38","新北市土城區學成路10號","121.453328333333","24.9866","6501300","土城區"
"220050","245-BX","2018/07/10 15:39:23","新北市板橋區漢生東路83巷2號","121.46672","25.0157816666667","6500100","板橋區"
"220052","561-BX","2018/07/10 15:39:29","新北市板橋區漢生東路83巷28號","121.467455","25.0167683333333","6500100","板橋區"
"220038","833-TW","2018/07/10 15:39:29","新北市板橋區四維路288號","121.463011666667","25.0291166666667","6500100","板橋區"
"220018","AAC-253","2018/07/10 15:39:37","新北市五股區新五路二段99-1號","121.437215","25.0754666666667","6500100","板橋區"
