"lineid","car","time","location","longitude","latitude","cityid","cityname"
"231028","046-UY","2018/07/10 16:09:35","新北市新店區薏仁坑路自強巷6號","121.49633","24.9583016666667","6500600","新店區"
"231018","278-BY","2018/07/10 16:09:25","新北市新店區中正路694巷15號","121.535343333333","24.9908916666667","6500600","新店區"
"231037","4716-K9","2018/07/10 16:09:25","新北市新店區薏仁坑路自強巷6號","121.496711666667","24.9584583333333","6500600","新店區"
"235005","802-TS","2018/07/10 16:09:25","新北市中和區中山路二段550號","121.48391","25.0053166666667","6500300","中和區"
"227009","642-TC","2018/07/10 16:09:23","新北市雙溪區三港里雙澳路72號","121.881878333333","25.054535","6502500","雙溪區"
"227003","400-TW","2018/07/10 16:09:35","新北市雙溪區上林里內平林47號","121.83332","25.0304583333333","6502500","雙溪區"
"236045","913-UM","2018/07/10 16:05:36","新北市土城區城林路6巷80號","121.438368333333","24.97984","6501300","土城區"
"220018","AAC-253","2018/07/10 16:09:37","新北市八里區中山路三段409號","121.368681666667","25.13482","6500100","板橋區"
