"lineid","car","time","location","longitude","latitude","cityid","cityname"
"232001","290-BY","2018/10/01 06:59:03","新北市坪林區桶盤嶼6號","121.711773333333","24.9542316666667","6502000","坪林區"
"232012","291-BY","2018/10/01 06:59:06","新北市坪林區黃舉皮寮2-1號","121.688818333333","24.9425033333333","6502000","坪林區"
"232010","375-UM","2018/10/01 06:59:17","新北市坪林區水聳淒坑18號","121.713555","24.9327","6502000","坪林區"
"232017","705-BZ","2018/10/01 06:59:13","新北市坪林區九芎坑13號","121.737231666667","24.9523533333333","6502000","坪林區"
"232005","758-BX","2018/10/01 06:59:15","新北市坪林區魚堀17號","121.703683333333","24.917615","6502000","坪林區"
"244001","248-BX","2018/10/01 06:59:13","新北市林口區文化一路二段202號","121.383245","25.080795","6501700","林口區"
"235001","611-BX","2018/10/01 06:59:07","新北市中和區圓通路367巷4號","121.491361666667","24.9892316666667","6500300","中和區"
"226003","AGD-0702","2018/10/01 06:59:01","新北市平溪區石底里公園街18-3號","121.734255","25.0254766666667","6502400","平溪區"
"223006","022-BY","2018/10/01 06:59:03","新北市石碇區八分寮35-1號","121.64493","25.0153333333333","6501900","石碇區"
"223002","KEA-2673","2018/10/01 06:59:07","新北市石碇區烏塗窟36號","121.655073333333","24.9738116666667","6501900","石碇區"
"223008","406-TH","2018/10/01 06:59:20","新北市石碇區十八重溪60-1號","121.674945","25.0137133333333","6501900","石碇區"
"223004","437-BY","2018/10/01 06:59:02","新北市石碇區碇坪路一段60號","121.657118333333","24.99152","6501900","石碇區"
"223001","592-UM","2018/10/01 06:59:10","新北市石碇區石崁35-2號","121.657658333333","24.9928466666667","6501900","石碇區"
"223007","661-BX","2018/10/01 06:59:15","新北市石碇區十八重溪45號","121.675578333333","25.01248","6501900","石碇區"
"223005","677-TV","2018/10/01 06:59:06","新北市石碇區碇坪路一段62號","121.657203333333","24.99154","6501900","石碇區"
"227005","282-VK","2018/10/01 06:59:05","新北市雙溪區新基里自強路5號","121.866326666667","25.0390483333333","6502500","雙溪區"
"252006","073-UM","2018/10/01 06:59:19","新北市三芝區埔頭里埔頭37號","121.498515","25.260245","6502100","三芝區"
"252004","249-BX","2018/10/01 06:59:03","新北市三芝區埔坪里埔頭坑41號","121.504531666667","25.2644983333333","6502100","三芝區"
