"lineid","car","time","location","longitude","latitude","cityid","cityname"
"232001","290-BY","2018/10/01 07:39:23","新北市坪林區上坑子口4號","121.697491666667","24.958225","6502000","坪林區"
"232012","291-BY","2018/10/01 07:39:06","新北市坪林區金瓜寮16-1號","121.682593333333","24.9169016666667","6502000","坪林區"
"232010","375-UM","2018/10/01 07:39:17","新北市坪林區苦苓腳2號","121.71418","24.9361116666667","6502000","坪林區"
"232017","705-BZ","2018/10/01 07:39:24","新北市平溪區東勢里芊蓁坑29號","121.732378333333","24.975735","6502000","坪林區"
"232005","758-BX","2018/10/01 07:39:15","新北市坪林區魚堀49號","121.70144","24.929875","6502000","坪林區"
"244001","248-BX","2018/10/01 07:39:13","新北市林口區頂福里73-6號","121.340603333333","25.0911416666667","6501700","林口區"
"222005","289-BY","2018/10/01 07:39:10","新北市深坑區文化街39巷13號","121.619028333333","25.0010916666667","6501800","深坑區"
"231008","192-VK","2018/10/01 07:39:06","新北市新店區安一路一段1-1號","121.51944","24.96144","6500600","新店區"
"241015","743-BX","2018/10/01 07:39:07","新北市三重區中興南街20號","121.470073333333","25.0452316666667","6500200","三重區"
"235001","611-BX","2018/10/01 07:39:07","新北市中和區圓通路367巷6號","121.49145","24.9892416666667","6500300","中和區"
"226005","5620-A6","2018/10/01 07:39:15","新北市平溪區靜安路二段292號","121.730708333333","25.0224033333333","6502400","平溪區"
"226001","7418-A5","2018/10/01 07:39:11","新北市平溪區平湖里大厝6號","121.778628333333","25.031725","6502400","平溪區"
"226003","AGD-0702","2018/10/01 07:37:01","新北市平溪區嶺腳里嶺腳寮83-2號","121.75092","25.0352533333333","6502400","平溪區"
"223006","022-BY","2018/10/01 07:39:15","新北市石碇區靜安路一段14號","121.642096666667","25.0113016666667","6501900","石碇區"
"223002","KEA-2673","2018/10/01 07:39:07","新北市石碇區北宜路五段濕水子巷18-2號","121.637205","24.9395516666667","6501900","石碇區"
"223004","437-BY","2018/10/01 07:39:22","新北市石碇區八分寮47號","121.642586666667","25.01412","6501900","石碇區"
"223001","592-UM","2018/10/01 07:39:10","新北市石碇區中楒子腳2-15號","121.638391666667","24.973195","6501900","石碇區"
"223007","661-BX","2018/10/01 07:39:15","新北市石碇區大湖格21號","121.697876666667","25.018475","6501900","石碇區"
"223005","677-TV","2018/10/01 07:39:06","新北市石碇區八分寮47-1號","121.642481666667","25.0138633333333","6501900","石碇區"
"227005","282-VK","2018/10/01 07:39:05","新北市雙溪區雙溪里太平路54號","121.864778333333","25.0354366666667","6502500","雙溪區"
"252006","073-UM","2018/10/01 07:39:19","新北市三芝區古庄里茂興店78號","121.490491666667","25.2663416666667","6502100","三芝區"
"252004","249-BX","2018/10/01 07:39:22","新北市三芝區店子里龜子山36號","121.506038333333","25.2060516666667","6502100","三芝區"
"237001","159-UY","2018/10/01 07:39:14","新北市三峽區學府路126號","121.37506","24.9492116666667","6500900","三峽區"
"242057","986-R7","2018/10/01 07:39:05","新北市新莊區新泰路357巷3弄57號","121.442263333333","25.03943","6500500","新莊區"
"242055","751-BX","2018/10/01 07:39:16","新北市新莊區三和路12-17號","121.442001666667","25.0375016666667","6500500","新莊區"
"242028","705-TV","2018/10/01 07:39:04","新北市新莊區新泰路357巷3弄57號","121.442186666667","25.0393066666667","6500500","新莊區"
"242026","615-BX","2018/10/01 07:39:06","新北市新莊區新泰路357巷3弄57號","121.441951666667","25.0391733333333","6500500","新莊區"
"242043","566-BX","2018/10/01 07:39:12","新北市新莊區三和路12-21號","121.442185","25.0384266666667","6500500","新莊區"
"242047","497-BY","2018/10/01 07:39:07","新北市新莊區中正路535-12號","121.437351666667","25.0330916666667","6500500","新莊區"
"242052","441-UM","2018/10/01 07:39:08","新北市新莊區三和路12-21號","121.44196","25.0382466666667","6500500","新莊區"
"242001","440-UM","2018/10/01 07:39:11","新北市新莊區三和路12-21號","121.442166666667","25.0387133333333","6500500","新莊區"
"242038","415-TV","2018/10/01 07:36:45","新北市新莊區三和路12-21號","121.442036666667","25.0388366666667","6500500","新莊區"
"242008","413-TV","2018/10/01 07:39:18","新北市新莊區新泰路357巷3弄57號","121.442175","25.0393066666667","6500500","新莊區"
"242045","400-BY","2018/10/01 07:39:09","新北市新莊區新泰路357巷3弄57號","121.442236666667","25.0395816666667","6500500","新莊區"
"242022","362-BY","2018/10/01 07:39:14","新北市新莊區三和路12-21號","121.44191","25.0389066666667","6500500","新莊區"
"242059","353-BY","2018/10/01 07:39:11","新北市新莊區新泰路357巷3弄57號","121.442043333333","25.0390966666667","6500500","新莊區"
"242040","133-UY","2018/10/01 07:39:10","新北市新莊區三和路12-21號","121.441945","25.0388033333333","6500500","新莊區"
"242018","175-VK","2018/10/01 07:39:18","新北市新莊區三和路12-21號","121.442065","25.0385466666667","6500500","新莊區"
"242030","348-TH","2018/10/01 07:39:07","新北市新莊區新泰路357巷3弄57號","121.44212","25.0394883333333","6500500","新莊區"
"242003","349-TH","2018/10/01 07:39:07","新北市新莊區三和路12-21號","121.44216","25.0384833333333","6500500","新莊區"
"242020","350-TH","2018/10/01 07:39:15","新北市新莊區新泰路255巷83號","121.442281666667","25.0389083333333","6500500","新莊區"
"242014","351-TH","2018/10/01 07:39:17","新北市新莊區新泰路357巷3弄57號","121.442085","25.0394233333333","6500500","新莊區"
"242033","281-VK","2018/10/01 07:39:15","新北市新莊區三和路12-21號","121.442166666667","25.038295","6500500","新莊區"
"242006","280-VK","2018/10/01 07:39:18","新北市新莊區三和路12-21號","121.4419","25.0382633333333","6500500","新莊區"
