"lineid","car","time","location","longitude","latitude","cityid","cityname"
"248005","653-BX","2018/05/17 07:59:23","新北市五股區明德路12巷6號","121.43343","25.07182","6501500","五股區"
"232001","290-BY","2018/05/17 07:59:25","新北市坪林區下坑子口12號","121.721516666667","24.9412316666667","6502000","坪林區"
"232014","291-BY","2018/05/17 07:59:27","新北市坪林區金瓜寮24-3號","121.678906666667","24.9093466666667","6502000","坪林區"
"232010","375-UM","2018/05/17 07:38:28","新北市坪林區厚德岡坑3號","121.731098333333","24.9403866666667","6502000","坪林區"
"232007","758-BX","2018/05/17 07:59:30","新北市坪林區九芎林30號","121.70257","24.9217566666667","6502000","坪林區"
"244012","069-UM","2018/05/17 07:59:24","新北市林口區粉寮69號","121.405075","25.0908383333333","6501700","林口區"
"244003","248-BX","2018/05/17 07:59:33","新北市林口區嘉寶里1鄰18號","121.33985","25.1073833333333","6501700","林口區"
"244018","403-UM","2018/05/17 07:59:28","新北市林口區竹林路4號","121.386603333333","25.0771366666667","6501700","林口區"
"244008","410-SL","2018/05/17 07:59:34","新北市林口區粉寮路二段128號","121.404623333333","25.0906733333333","6501700","林口區"
"244022","483-VK","2018/05/17 07:59:31","新北市林口區粉寮69號","121.404946666667","25.0907816666667","6501700","林口區"
"244016","485-VK","2018/05/17 07:59:26","新北市林口區粉寮69號","121.405028333333","25.09088","6501700","林口區"
"244010","657-BX","2018/05/17 07:59:40","新北市林口區粉寮路二段160巷28號","121.405198333333","25.090755","6501700","林口區"
"222006","289-BY","2018/05/17 07:59:28","新北市深坑區文化街98號","121.617068333333","25.0018916666667","6501800","深坑區"
"231007","188-VK","2018/05/17 07:59:36","新北市新店區安一路一段1-1號","121.519288333333","24.961385","6500600","新店區"
"231069","189-VK","2018/05/17 07:59:38","新北市新店區安一路一段1-1號","121.519665","24.9615716666667","6500600","新店區"
"235001","611-BX","2018/05/17 07:59:25","新北市中和區圓通路367巷4號","121.491501666667","24.9893483333333","6500300","中和區"
"226005","5620-A6","2018/05/17 07:59:41","新北市平溪區石底里公園街18-3號","121.733478333333","25.0256066666667","6502400","平溪區"
"226007","7418-A5","2018/05/17 07:59:37","新北市平溪區南山里南山坪136號","121.782988333333","25.0464766666667","6502400","平溪區"
"226003","AGD-0702","2018/05/17 07:59:35","新北市平溪區新寮里頂寮子3-10號","121.771983333333","25.0514283333333","6502400","平溪區"
"223006","022-BY","2018/05/17 07:59:26","新北市石碇區八分寮31-3號","121.643538333333","25.0121083333333","6501900","石碇區"
"223002","KEA-2673","2018/05/17 07:59:25","新北市石碇區北宜路五段80號","121.646561666667","24.9517533333333","6501900","石碇區"
"223001","205-TH","2018/05/17 07:58:22","新北市石碇區月扇湖1號","121.657625","24.9554616666667","6501900","石碇區"
"223008","406-TH","2018/05/17 07:59:41","新北市石碇區大溪墘9-5號","121.697911666667","25.0082016666667","6501900","石碇區"
"223001","592-UM","2018/05/17 07:58:28","新北市石碇區月扇湖1號","121.657303333333","24.95459","6501900","石碇區"
"223004","660-BX","2018/05/17 07:59:34","新北市石碇區楓子林61號","121.644845","25.0109416666667","6501900","石碇區"
"223005","677-TV","2018/05/17 07:57:10","新北市石碇區靜安路一段5號","121.641616666667","25.011565","6501900","石碇區"
"227007","282-VK","2018/05/17 07:59:35","新北市雙溪區平林里梅竹蹊16號","121.86199","25.0359266666667","6502500","雙溪區"
"252004","249-BX","2018/05/17 07:59:34","新北市三芝區興華里車埕15-4號","121.503961666667","25.1952316666667","6502100","三芝區"
"252007","AAC-283","2018/05/17 07:59:30","新北市三芝區後厝里北勢子45-33號","121.47032","25.25112","6502100","三芝區"
"237001","159-UY","2018/05/17 07:59:37","新北市三峽區大學路45-1號","121.377028333333","24.9406366666667","6500900","三峽區"
"236009","165-UM","2018/05/17 07:59:28","新北市土城區永豐路270巷19弄3號","121.469875","24.9770266666667","6501300","土城區"
"236003","339-SR","2018/05/17 07:58:46","新北市土城區龍泉路89-3號","121.447196666667","24.94375","6501300","土城區"
"242033","AAC-296","2018/05/17 07:59:22","新北市新莊區瓊林路13-4號","121.448681666667","25.0307733333333","6500500","新莊區"
"242057","986-R7","2018/05/17 07:59:33","新北市新莊區中正路481號","121.441381666667","25.03383","6500500","新莊區"
"242052","751-BX","2018/05/17 07:59:27","新北市新莊區新樹路605號","121.433395","25.0055866666667","6500500","新莊區"
"242026","615-BX","2018/05/17 07:59:27","新北市新莊區思源路32號","121.460213333333","25.041015","6500500","新莊區"
"242024","613-BX","2018/05/17 07:59:13","新北市新莊區復興路二段20號","121.454141666667","25.0439216666667","6500500","新莊區"
"242028","612-BX","2018/05/17 07:59:32","新北市新莊區幸福路21號","121.459045","25.04944","6500500","新莊區"
"242040","566-BX","2018/05/17 07:59:42","新北市新莊區新樹路113巷17號","121.438985","25.0264316666667","6500500","新莊區"
"242045","497-BY","2018/05/17 07:59:27","新北市新莊區新樹路21號","121.440443333333","25.0325016666667","6500500","新莊區"
"242049","441-UM","2018/05/17 07:59:36","新北市新莊區新樹路447號","121.432696666667","25.01355","6500500","新莊區"
"242055","440-UM","2018/05/17 07:59:40","新北市新莊區新泰路16號","121.449661666667","25.0330583333333","6500500","新莊區"
"242035","415-TV","2018/05/17 07:59:36","新北市新莊區建國二路1號","121.435071666667","25.0237433333333","6500500","新莊區"
"242006","413-TV","2018/05/17 07:59:39","新北市新莊區福樂街118巷17號","121.457435","25.0483866666667","6500500","新莊區"
"242022","362-BY","2018/05/17 07:59:38","新北市新莊區公園路154號","121.453235","25.040075","6500500","新莊區"
"242059","353-BY","2018/05/17 07:59:34","新北市新莊區瓊林北路55號","121.438736666667","25.0207583333333","6500500","新莊區"
"242008","132-UY","2018/05/17 07:59:31","新北市新莊區中華路二段258巷25號","121.453133333333","25.0543116666667","6500500","新莊區"
"242038","133-UY","2018/05/17 07:59:29","新北市新莊區民安路270號","121.42757","25.0213366666667","6500500","新莊區"
"242030","135-UY","2018/05/17 07:59:41","新北市新莊區新泰路401巷29號","121.442533333333","25.0439433333333","6500500","新莊區"
"242047","172-VK","2018/05/17 07:59:27","新北市新莊區四維路227號","121.421526666667","25.0195916666667","6500500","新莊區"
"242010","173-VK","2018/05/17 07:59:25","新北市新莊區中港路435號","121.452356666667","25.0479566666667","6500500","新莊區"
"242016","175-VK","2018/05/17 07:59:31","新北市新莊區德豐街4號","121.45165","25.0439366666667","6500500","新莊區"
"242003","176-VK","2018/05/17 07:59:29","新北市新莊區中港路288巷12號","121.453453333333","25.0444866666667","6500500","新莊區"
"242014","346-TH","2018/05/17 07:59:36","新北市新莊區新泰路154號","121.44773","25.0373716666667","6500500","新莊區"
"242020","347-TH","2018/05/17 07:59:40","新北市新莊區景德路249號","121.448478333333","25.0336283333333","6500500","新莊區"
"242043","349-TH","2018/05/17 07:59:31","新北市新莊區富國路62號","121.419618333333","25.0260316666667","6500500","新莊區"
"242018","350-TH","2018/05/17 07:59:32","新北市新莊區中港路72號","121.455463333333","25.03894","6500500","新莊區"
"242001","KEA-2550","2018/05/17 07:59:28","新北市新莊區新莊路154號","121.455248333333","25.0354316666667","6500500","新莊區"
"220018","282-UM","2018/05/17 07:59:24","新北市板橋區南雅東路1-5號","121.455121666667","25.0058016666667","6500100","板橋區"
"242012","281-VK","2018/05/17 07:59:31","新北市新莊區中誠街16巷28號","121.451853333333","25.048775","6500500","新莊區"
