"lineid","car","time","location","longitude","latitude","cityid","cityname"
"248005","653-BX","2018/05/17 08:29:23","新北市五股區明德路10號","121.433473333333","25.0717683333333","6501500","五股區"
"232001","290-BY","2018/05/17 08:29:25","新北市坪林區坪雙路一段100號","121.729468333333","24.9478833333333","6502000","坪林區"
"232014","291-BY","2018/05/17 08:29:27","新北市坪林區北宜路七段338號","121.697483333333","24.935245","6502000","坪林區"
"244012","069-UM","2018/05/17 08:29:24","新北市林口區中正路446號","121.383683333333","25.07772","6501700","林口區"
"244006","080-UY","2018/05/17 08:29:25","新北市林口區湖子10-2號","121.387938333333","25.0902283333333","6501700","林口區"
"244003","248-BX","2018/05/17 08:29:33","新北市林口區下福里161號","121.30361","25.1135016666667","6501700","林口區"
"244018","403-UM","2018/05/17 08:29:27","新北市林口區公園路120-1號","121.370605","25.0712766666667","6501700","林口區"
"244008","410-SL","2018/05/17 08:29:34","新北市林口區文化一路二段226號","121.384073333333","25.08254","6501700","林口區"
"244022","483-VK","2018/05/17 08:29:31","新北市林口區東明三街368號","121.39186","25.0706233333333","6501700","林口區"
"244016","485-VK","2018/05/17 08:29:26","新北市林口區文化二路一段260巷1-1號","121.371245","25.073305","6501700","林口區"
"244010","657-BX","2018/05/17 08:29:40","新北市林口區中正路266號","121.389383333333","25.0777033333333","6501700","林口區"
"244024","837-TS","2018/05/17 08:29:23","新北市林口區文化三路一段171號","121.361815","25.0692983333333","6501700","林口區"
"244020","838-TS","2018/05/17 08:29:27","新北市林口區自強七街28號","121.399743333333","25.0759666666667","6501700","林口區"
"222006","289-BY","2018/05/17 08:29:28","新北市深坑區萬福路181號","121.615941666667","25.0152616666667","6501800","深坑區"
"231007","188-VK","2018/05/17 08:29:36","新北市新店區新烏路一段245-3號","121.548033333333","24.9304833333333","6500600","新店區"
"231069","189-VK","2018/05/17 08:29:38","新北市新店區新潭路一段158-1號","121.529421666667","24.933555","6500600","新店區"
"235001","611-BX","2018/05/17 08:29:25","新北市中和區中山路二段523巷41號","121.482183333333","25.0032183333333","6500300","中和區"
"226005","5620-A6","2018/05/17 08:29:21","新北市平溪區南山里六分8號","121.795625","25.04954","6502400","平溪區"
"226007","7418-A5","2018/05/17 08:29:37","新北市平溪區東勢里芊蓁林59-1號","121.752051666667","25.0067666666667","6502400","平溪區"
"226003","AGD-0702","2018/05/17 08:29:35","新北市平溪區新寮里月桃寮路3-7號","121.785588333333","25.0526183333333","6502400","平溪區"
"223006","022-BY","2018/05/17 08:29:26","新北市石碇區碇坪路一段48號","121.655355","24.992095","6501900","石碇區"
"223001","205-TH","2018/05/17 08:29:42","新北市石碇區北宜路六段柑腳巷2號","121.659625","24.9380233333333","6501900","石碇區"
"223008","406-TH","2018/05/17 08:29:41","新北市石碇區靜安路一段184號","121.669021666667","25.0052666666667","6501900","石碇區"
"223001","592-UM","2018/05/17 08:29:28","新北市石碇區北宜路六段柑腳巷2號","121.659615","24.93812","6501900","石碇區"
"223004","660-BX","2018/05/17 08:29:34","新北市石碇區小粗坑(潭邊里)2號","121.670736666667","24.9828633333333","6501900","石碇區"
"223005","677-TV","2018/05/17 08:29:25","新北市石碇區小粗坑(潭邊里)2號","121.669598333333","24.9825583333333","6501900","石碇區"
"224010","AGQ-8101","2018/05/17 08:29:33","新北市瑞芳區柴寮路36號","121.827211666667","25.0866133333333","6501200","瑞芳區"
"252004","249-BX","2018/05/17 08:29:34","新北市三芝區興華里田心子5號","121.502065","25.203785","6502100","三芝區"
"252007","AAC-283","2018/05/17 08:29:30","新北市三芝區蘭陽街13-1號","121.473548333333","25.2424666666667","6502100","三芝區"
"237001","159-UY","2018/05/17 08:29:37","新北市三峽區三樹路199號","121.37808","24.94217","6500900","三峽區"
"236009","165-UM","2018/05/17 08:29:28","新北市土城區石門路95號","121.469223333333","24.9590316666667","6501300","土城區"
"236003","339-SR","2018/05/17 08:29:29","新北市土城區龍泉路22-4號","121.410703333333","24.948085","6501300","土城區"
"236005","498-BY","2018/05/17 08:29:30","新北市土城區中央路四段47號","121.422371666667","24.961615","6501300","土城區"
"242033","AAC-296","2018/05/17 08:29:42","新北市新莊區景德路407號","121.445306666667","25.0332916666667","6500500","新莊區"
"242057","986-R7","2018/05/17 08:29:32","新北市新莊區雙鳳路134巷34號","121.412486666667","25.0289233333333","6500500","新莊區"
"242052","751-BX","2018/05/17 08:29:27","新北市新莊區民安西路468-1號","121.43167","25.0078133333333","6500500","新莊區"
"242026","615-BX","2018/05/17 08:29:42","新北市新莊區思源路345號","121.459941666667","25.05007","6500500","新莊區"
"242024","613-BX","2018/05/17 08:29:33","新北市新莊區五工路96號","121.45677","25.0643983333333","6500500","新莊區"
"242028","612-BX","2018/05/17 08:29:32","新北市新莊區中平路110巷10號","121.445085","25.0455933333333","6500500","新莊區"
"242040","566-BX","2018/05/17 08:27:49","新北市新莊區中正路692-8號","121.419816666667","25.02841","6500500","新莊區"
"242045","497-BY","2018/05/17 08:29:34","新北市新莊區福營路195巷24號","121.431938333333","25.0297916666667","6500500","新莊區"
"242049","441-UM","2018/05/17 08:29:36","新北市新莊區民本街33巷21號","121.429148333333","25.0187016666667","6500500","新莊區"
"242055","440-UM","2018/05/17 08:29:40","新北市新莊區瓊林路46-11號","121.446828333333","25.0290683333333","6500500","新莊區"
"242035","415-TV","2018/05/17 08:29:36","新北市新莊區後港一路65號","121.426498333333","25.0265983333333","6500500","新莊區"
"242006","413-TV","2018/05/17 08:29:39","新北市新莊區新北大道三段5號","121.458353333333","25.06001","6500500","新莊區"
"242022","362-BY","2018/05/17 08:29:38","新北市新莊區思源路313號","121.459975","25.0491466666667","6500500","新莊區"
"242059","353-BY","2018/05/17 08:29:34","新北市新莊區新樹路287號","121.433975","25.0203116666667","6500500","新莊區"
"242008","132-UY","2018/05/17 08:29:36","新北市新莊區中華路二段290號","121.45238","25.0537233333333","6500500","新莊區"
"242038","133-UY","2018/05/17 08:29:29","新北市新莊區民安西路24巷16號","121.426206666667","25.0208233333333","6500500","新莊區"
"242030","135-UY","2018/05/17 08:29:41","新北市新莊區新泰路289巷33號","121.44402","25.0404583333333","6500500","新莊區"
"242047","172-VK","2018/05/17 08:29:42","新北市新莊區萬安街67巷8號","121.42163","25.023875","6500500","新莊區"
"242010","173-VK","2018/05/17 08:28:05","新北市新莊區中港路中慶巷37號","121.449256666667","25.0537533333333","6500500","新莊區"
"242016","175-VK","2018/05/17 08:29:36","新北市新莊區永樂街41號","121.451485","25.045015","6500500","新莊區"
"242003","176-VK","2018/05/17 08:29:43","新北市新莊區自由街22號","121.455828333333","25.04706","6500500","新莊區"
"242014","346-TH","2018/05/17 08:29:36","新北市新莊區中平路129巷13號","121.444115","25.0470383333333","6500500","新莊區"
"242020","347-TH","2018/05/17 08:29:40","新北市新莊區中正路217號","121.451175","25.0358516666667","6500500","新莊區"
"242043","349-TH","2018/05/17 08:29:31","新北市新莊區雙鳳路73巷1號","121.415066666667","25.02758","6500500","新莊區"
"242018","350-TH","2018/05/17 08:29:31","新北市新莊區民樂街20巷1號","121.457698333333","25.04046","6500500","新莊區"
"242001","KEA-2550","2018/05/17 08:29:28","新北市新莊區新莊路1號","121.459435","25.0379616666667","6500500","新莊區"
"220018","282-UM","2018/05/17 08:29:24","新北市八里區下罟子8-10號","121.382705","25.1443783333333","6500100","板橋區"
"242012","281-VK","2018/05/17 08:29:31","新北市新莊區中泰街102號","121.448968333333","25.0467016666667","6500500","新莊區"
