"lineid","car","time","location","longitude","latitude","cityid","cityname"
"248005","653-BX","2018/05/17 09:19:23","新北市五股區水碓三路117號","121.431481666667","25.0728666666667","6501500","五股區"
"244012","069-UM","2018/05/17 09:19:24","新北市林口區文化一路二段192號","121.382855","25.0802983333333","6501700","林口區"
"244006","080-UY","2018/05/17 09:19:34","新北市林口區後湖18-3號","121.387373333333","25.09776","6501700","林口區"
"244018","403-UM","2018/05/17 09:19:28","新北市林口區忠孝路568巷5號","121.374601666667","25.0678433333333","6501700","林口區"
"244008","410-SL","2018/05/17 09:19:34","新北市林口區竹林路330巷1號","121.391513333333","25.0831616666667","6501700","林口區"
"244022","483-VK","2018/05/17 09:19:31","新北市林口區仁愛路二段62巷43號","121.383665","25.0761166666667","6501700","林口區"
"244016","485-VK","2018/05/17 09:19:26","新北市林口區文化二路一段68巷11號","121.366425","25.068855","6501700","林口區"
"244010","657-BX","2018/05/17 09:19:40","新北市林口區仁愛路一段285巷60號","121.395451666667","25.0743633333333","6501700","林口區"
"222006","289-BY","2018/05/17 09:19:37","新北市深坑區北深路一段266號","121.629201666667","25.008705","6501800","深坑區"
"231007","188-VK","2018/05/17 09:19:36","新北市新店區平廣路一段92巷7號","121.52996","24.8983133333333","6500600","新店區"
"231069","189-VK","2018/05/17 09:19:38","新北市新店區新潭路三段215巷25號","121.508113333333","24.9040833333333","6500600","新店區"
"235001","611-BX","2018/05/17 09:19:25","新北市中和區中山路三段72號","121.478085","25.0057866666667","6500300","中和區"
"226003","AGD-0702","2018/05/17 09:19:35","新北市平溪區嶺腳里嶺腳寮89號","121.747521666667","25.03497","6502400","平溪區"
"223001","205-TH","2018/05/17 09:19:42","新北市石碇區北宜路四段26號","121.623186666667","24.9579466666667","6501900","石碇區"
"223008","406-TH","2018/05/17 09:19:20","新北市石碇區光明路22號","121.6945","25.0261116666667","6501900","石碇區"
"223001","592-UM","2018/05/17 09:19:28","新北市石碇區北宜路四段26號","121.623291666667","24.957785","6501900","石碇區"
"223004","660-BX","2018/05/17 09:19:34","新北市石碇區碇坪路二段41號","121.686393333333","24.9752516666667","6501900","石碇區"
"223005","677-TV","2018/05/17 09:18:28","新北市石碇區大崙8號","121.683708333333","24.97958","6501900","石碇區"
"224010","AGQ-8101","2018/05/17 08:58:13","新北市瑞芳區魚寮路129-1號","121.822775","25.0602783333333","6501200","瑞芳區"
"252004","249-BX","2018/05/17 09:19:34","新北市三芝區店子里店子49號","121.503025","25.2062483333333","6502100","三芝區"
"252007","AAC-283","2018/05/17 09:19:30","新北市三芝區古庄里山豬堀14-2號","121.492225","25.26002","6502100","三芝區"
"236009","165-UM","2018/05/17 09:19:28","新北市土城區中央路三段92-1號","121.43593","24.96671","6501300","土城區"
"236003","339-SR","2018/05/17 09:19:29","新北市土城區和平路28號","121.443388333333","24.972735","6501300","土城區"
"236005","498-BY","2018/05/17 09:19:30","新北市土城區中央路三段116巷3號","121.434861666667","24.9664516666667","6501300","土城區"
"242033","AAC-296","2018/05/17 09:19:22","新北市新莊區建中街90巷3弄12號","121.446245","25.037135","6500500","新莊區"
"242057","986-R7","2018/05/17 09:19:37","新北市新莊區八德街21號","121.425161666667","25.022565","6500500","新莊區"
"242052","751-BX","2018/05/17 09:19:33","新北市新莊區西盛街344巷2號","121.427868333333","25.0141783333333","6500500","新莊區"
"242026","615-BX","2018/05/17 09:19:27","新北市新莊區思源路37號","121.460068333333","25.0397066666667","6500500","新莊區"
"242024","613-BX","2018/05/17 09:19:33","新北市新莊區五工二路50巷23號","121.461671666667","25.065995","6500500","新莊區"
"242028","612-BX","2018/05/17 09:19:32","新北市新莊區中榮街99號","121.444948333333","25.0527416666667","6500500","新莊區"
"242040","566-BX","2018/05/17 09:19:39","新北市新莊區中正路694巷3弄24號","121.417898333333","25.0281183333333","6500500","新莊區"
"242045","497-BY","2018/05/17 09:19:27","新北市新莊區裕民街70號","121.418413333333","25.0241883333333","6500500","新莊區"
"242049","441-UM","2018/05/17 09:19:36","新北市新莊區民安西路148號","121.426178333333","25.0165616666667","6500500","新莊區"
"242055","440-UM","2018/05/17 09:19:40","新北市新莊區豐年街28巷1弄12號","121.445981666667","25.0318916666667","6500500","新莊區"
"242035","415-TV","2018/05/17 09:19:36","新北市新莊區建安街40巷22號","121.427463333333","25.0253166666667","6500500","新莊區"
"242022","362-BY","2018/05/17 09:19:40","新北市新莊區化成路694號","121.465885","25.0563083333333","6500500","新莊區"
"242059","353-BY","2018/05/17 09:19:34","新北市新莊區瓊林路瓊英巷4弄2號","121.443628333333","25.0274116666667","6500500","新莊區"
"242008","132-UY","2018/05/17 09:19:31","新北市新莊區思源路63號","121.459901666667","25.0403916666667","6500500","新莊區"
"242038","133-UY","2018/05/17 09:19:29","新北市新莊區成功街61號","121.42494","25.0203633333333","6500500","新莊區"
"242030","135-UY","2018/05/17 09:19:41","新北市新莊區忠孝街29巷24號","121.44361","25.0365566666667","6500500","新莊區"
"242047","172-VK","2018/05/17 09:19:27","新北市新莊區成功街206號","121.421243333333","25.0179333333333","6500500","新莊區"
"242010","173-VK","2018/05/17 09:19:25","新北市新莊區中義街5號","121.451395","25.05109","6500500","新莊區"
"242003","176-VK","2018/05/17 09:19:30","新北市新莊區頭前路15巷2號","121.467866666667","25.052195","6500500","新莊區"
"242014","346-TH","2018/05/17 09:19:36","新北市新莊區復興路一段89號","121.448563333333","25.0428366666667","6500500","新莊區"
"242020","347-TH","2018/05/17 09:19:44","新北市新莊區和興街39號","121.44682","25.0402583333333","6500500","新莊區"
"242043","349-TH","2018/05/17 09:19:31","新北市新莊區中正路893巷40號","121.413763333333","25.0208266666667","6500500","新莊區"
"242001","KEA-2550","2018/05/17 09:19:28","新北市新莊區中正路78-1號","121.45854","25.0378166666667","6500500","新莊區"
"242012","281-VK","2018/05/17 09:19:31","新北市新莊區中信街74號","121.448113333333","25.0524916666667","6500500","新莊區"
