"lineid","car","time","location","longitude","latitude","cityid","cityname"
"248005","653-BX","2018/05/17 09:49:43","新北市五股區明德路1號","121.435175","25.071255","6501500","五股區"
"244012","069-UM","2018/05/17 09:49:44","新北市林口區麗園一街6巷1-2號","121.376883333333","25.0701966666667","6501700","林口區"
"244018","403-UM","2018/05/17 09:49:28","新北市林口區麗園二街51號","121.381178333333","25.068645","6501700","林口區"
"244022","483-VK","2018/05/17 09:49:31","新北市林口區文林六街62巷28號","121.37176","25.0818516666667","6501700","林口區"
"222006","289-BY","2018/05/17 09:49:38","新北市深坑區大崙腳2-1號","121.614498333333","24.9942533333333","6501800","深坑區"
"231007","188-VK","2018/05/17 09:49:36","新北市新店區小坑一路5號","121.535668333333","24.911695","6500600","新店區"
"231069","189-VK","2018/05/17 09:49:38","新北市新店區新潭路三段215巷25號","121.508131666667","24.9040716666667","6500600","新店區"
"223001","205-TH","2018/05/17 09:49:42","新北市石碇區蓬菜寮7-2號","121.6534","24.9748666666667","6501900","石碇區"
"223008","406-TH","2018/05/17 09:46:01","新北市石碇區西勢坑5-3號","121.691266666667","24.9895583333333","6501900","石碇區"
"224010","AGQ-8101","2018/05/17 09:49:33","新北市瑞芳區明燈路二段44-1號","121.80951","25.1082833333333","6501200","瑞芳區"
"252004","249-BX","2018/05/17 09:49:34","新北市三芝區福德里大水堀21號","121.512231666667","25.2199633333333","6502100","三芝區"
"252007","AAC-283","2018/05/17 09:49:30","新北市三芝區新庄里新庄子95-8號","121.513918333333","25.2744283333333","6502100","三芝區"
"237001","159-UY","2018/05/17 09:49:37","新北市三峽區國際一街19號","121.373725","24.9427333333333","6500900","三峽區"
"236003","339-SR","2018/05/17 09:49:29","新北市土城區裕民路70號","121.449158333333","24.9877333333333","6501300","土城區"
"236005","498-BY","2018/05/17 09:49:30","新北市土城區中央路二段396巷24號","121.438653333333","24.9709866666667","6501300","土城區"
"242057","986-R7","2018/05/17 09:49:32","新北市新莊區四維路183號","121.422148333333","25.0210533333333","6500500","新莊區"
"242028","612-BX","2018/05/17 09:49:32","新北市新莊區中華路二段26-1號","121.453498333333","25.0451083333333","6500500","新莊區"
"242045","497-BY","2018/05/17 09:49:27","新北市五股區芳洲路49號","121.44171","25.0839","6500500","新莊區"
"242059","353-BY","2018/05/17 09:49:34","新北市新莊區新樹路443號","121.432603333333","25.0135783333333","6500500","新莊區"
"242030","135-UY","2018/05/17 09:49:41","新北市新莊區中正路508巷7號","121.436941666667","25.0338966666667","6500500","新莊區"
"242001","KEA-2550","2018/05/17 09:49:28","新北市五股區成泰路一段98巷2-1號","121.437146666667","25.0711033333333","6500500","新莊區"
