"lineid","car","time","location","longitude","latitude","cityid","cityname"
"234044","148-BY","2018/05/17 13:29:28","新北市永和區秀朗路二段84號","121.523326666667","25.0016566666667","6500400","永和區"
"234005","207-UY","2018/05/17 13:29:20","新北市永和區中山路一段224號","121.508141666667","25.0081783333333","6500400","永和區"
"234078","298-R6","2018/05/17 13:29:30","新北市永和區福和路1號","121.525365","25.0086683333333","6500400","永和區"
"234036","336-UY","2018/05/17 13:29:10","新北市永和區民樂街37巷1號","121.527555","25.0007833333333","6500400","永和區"
"234062","337-UY","2018/05/17 13:29:29","新北市永和區中正路368巷1弄69號","121.520125","25.00087","6500400","永和區"
"234084","338-UY","2018/05/17 13:29:23","新北市永和區永元路138號","121.52291","25.0031","6500400","永和區"
"234068","552-UM","2018/05/17 13:29:20","新北市永和區警光街5-1號","121.519748333333","25.00951","6500400","永和區"
"234015","745-BX","2018/05/17 13:29:27","新北市永和區環河西路一段9號","121.51477","25.0181016666667","6500400","永和區"
"234028","746-BX","2018/05/17 13:29:28","新北市永和區民權路33號","121.52004","24.997735","6500400","永和區"
"234052","KEA-2590","2018/05/17 13:29:15","新北市永和區復興街23號","121.516196666667","25.0130933333333","6500400","永和區"
"234012","KEA-2591","2018/05/17 13:29:27","新北市永和區永和路二段119號","121.514673333333","25.0120066666667","6500400","永和區"
"234060","AAD-866","2018/05/17 13:29:27","新北市永和區中正路532號","121.517353333333","25.0052266666667","6500400","永和區"
"234040","862-TW","2018/05/17 13:29:20","新北市永和區中和路591號","121.512188333333","25.0040116666667","6500400","永和區"
"234048","863-TW","2018/05/17 13:29:08","新北市永和區信義路84號","121.512473333333","25.0134533333333","6500400","永和區"
"234025","9371-KE","2018/05/17 13:29:21","新北市永和區中山路一段17巷4弄16號","121.513118333333","25.010225","6500400","永和區"
"234010","9373-KE","2018/05/17 13:29:28","新北市永和區中山路一段60巷5號","121.512996666667","25.0109866666667","6500400","永和區"
"248015","026-BX","2018/05/17 13:29:19","新北市五股區凌雲路一段83巷12號","121.450383333333","25.1008066666667","6501500","五股區"
"248005","077-UY","2018/05/17 13:29:17","新北市五股區中興路一段75號","121.467461666667","25.0727683333333","6501500","五股區"
"248007","095-VK","2018/05/17 13:29:09","新北市五股區四維路185巷46號","121.463405","25.077515","6501500","五股區"
"248017","225-UY","2018/05/17 13:29:17","新北市五股區御史路277-1號","121.420701666667","25.10609","6501500","五股區"
"248013","261-SL","2018/05/17 13:29:16","新北市五股區成泰路一段197號","121.435146666667","25.0766316666667","6501500","五股區"
"248009","272-BY","2018/05/17 13:29:23","新北市五股區明德路12巷1號","121.43332","25.071665","6501500","五股區"
"248003","677-BX","2018/05/17 13:29:09","新北市五股區民義路一段198號","121.432435","25.08818","6501500","五股區"
"248001","678-BX","2018/05/17 13:29:29","新北市五股區西雲路170號","121.446946666667","25.0948066666667","6501500","五股區"
"248011","682-TV","2018/05/17 13:29:10","新北市五股區御成路143號","121.441003333333","25.094215","6501500","五股區"
"234022","9380-KE","2018/05/17 13:29:22","新北市永和區竹林路91巷47弄5號","121.521155","25.0129583333333","6500400","永和區"
"234076","969-R7","2018/05/17 13:29:27","新北市永和區智光街30號","121.51787","24.9988733333333","6500400","永和區"
"234072","AAC-211","2018/05/17 13:29:14","新北市永和區永和路二段100號","121.51508","25.01183","6500400","永和區"
"234066","AAC-212","2018/05/17 13:29:10","新北市永和區保平路174巷19號","121.510085","25.0075966666667","6500400","永和區"
"234001","AAC-295","2018/05/17 13:29:28","新北市永和區永平路150號","121.511305","25.0085616666667","6500400","永和區"
"244003","248-BX","2018/05/17 13:29:24","新北市林口區瑞平里49-2號","121.354258333333","25.1168716666667","6501700","林口區"
"243005","AAD-798","2018/05/17 13:25:18","新北市泰山區明志路三段206巷3號","121.42327","25.0378866666667","6501600","泰山區"
"243008","380-SR","2018/05/17 13:29:12","新北市泰山區犁頭窠3-1號","121.422135","25.0604466666667","6501600","泰山區"
"243004","646-TV","2018/05/17 13:29:17","新北市泰山區黎明路25號","121.422038333333","25.0606933333333","6501600","泰山區"
"231005","001-UM","2018/05/17 13:29:19","新北市新店區北新路一段100號","121.542178333333","24.9695116666667","6500600","新店區"
"231002","002-UM","2018/05/17 13:29:12","新北市新店區安康路一段11號","121.533448333333","24.9604716666667","6500600","新店區"
"231027","0293-UT","2018/05/17 13:29:20","新北市新店區環河路1-3號","121.538081666667","24.9614866666667","6500600","新店區"
"231028","046-UY","2018/05/17 13:29:21","新北市新店區安華路28-1號","121.519618333333","24.9609433333333","6500600","新店區"
"231001","047-UY","2018/05/17 13:29:09","新北市新店區中央路137號","121.530256666667","24.9736866666667","6500600","新店區"
"231010","107-UY","2018/05/17 13:29:15","新北市新店區中央路25號","121.533173333333","24.977965","6500600","新店區"
"231021","108-UY","2018/05/17 13:29:22","新北市新店區新烏路一段171號","121.544671666667","24.9345683333333","6500600","新店區"
"231011","187-VK","2018/05/17 13:29:28","新北市新店區北新路一段130號","121.542508333333","24.9703833333333","6500600","新店區"
"231026","188-VK","2018/05/17 13:29:20","新北市新店區光明街1-1號","121.53809","24.9592616666667","6500600","新店區"
"231023","KEA-2219","2018/05/17 13:29:10","新北市新店區新店路13號","121.540293333333","24.9528683333333","6500600","新店區"
"231003","268-BY","2018/05/17 13:29:14","新北市新店區北新路一段91號","121.53886","24.9618216666667","6500600","新店區"
"231018","278-BY","2018/05/17 13:29:24","新北市新店區中央路47號","121.532905","24.9773966666667","6500600","新店區"
"231017","AAD-862","2018/05/17 13:29:16","新北市新店區新烏路一段11巷19號","121.54786","24.9509066666667","6500600","新店區"
"231030","355-BY","2018/05/17 13:29:05","新北市新店區安華路28-1號","121.519331666667","24.9608916666667","6500600","新店區"
"231038","3712-VJ","2018/05/17 13:29:28","新北市新店區安華路30巷1號","121.519596666667","24.95926","6500600","新店區"
"231037","4716-K9","2018/05/17 13:29:15","新北市新店區安豐路30-1號","121.5007","24.9569066666667","6500600","新店區"
"231025","4715-K9","2018/05/17 13:29:14","新北市新店區中央六街56號","121.527886666667","24.9757516666667","6500600","新店區"
"231036","512-UM","2018/05/17 13:29:19","新北市新店區安祥路168號","121.477368333333","24.95576","6500600","新店區"
"231013","513-UM","2018/05/17 13:29:11","新北市新店區環河路116號","121.537116666667","24.9666033333333","6500600","新店區"
"231034","616-UM","2018/05/17 13:29:16","新北市新店區車子路10-4號","121.504833333333","24.9545316666667","6500600","新店區"
"231035","719-UM","2018/05/17 13:29:24","新北市新店區安康路一段230-3號","121.522271666667","24.963805","6500600","新店區"
"231031","720-UM","2018/05/17 13:29:15","新北市新店區安豐路60-1號","121.497981666667","24.9537266666667","6500600","新店區"
"231029","897-TW","2018/05/17 13:29:23","新北市新店區安華路30巷12-1號","121.518478333333","24.9580083333333","6500600","新店區"
"231006","898-TW","2018/05/17 13:29:27","新北市新店區安康路一段35號","121.531721666667","24.960755","6500600","新店區"
"231004","899-TW","2018/05/17 13:29:13","新北市新店區安華路8號","121.519843333333","24.9625083333333","6500600","新店區"
"231024","AKT-0513","2018/05/17 13:29:29","新北市新店區北新路二段29巷3弄1號","121.542215","24.9730366666667","6500600","新店區"
"235028","005-UY","2018/05/17 13:29:14","新北市中和區圓通路141巷37弄1號","121.498961666667","24.9950616666667","6500300","中和區"
"235027","006-UY","2018/05/17 13:29:08","新北市中和區連城路347巷2弄1號","121.488158333333","24.995835","6500300","中和區"
"235011","031-BX","2018/05/17 13:29:19","新北市中和區南山路300號","121.50792","24.98713","6500300","中和區"
"235020","096-UM","2018/05/17 13:29:27","新北市中和區中山路二段594號","121.482323333333","25.0054616666667","6500300","中和區"
"235003","097-UM","2018/05/17 13:29:28","新北市中和區景新街293號","121.510025","24.9931766666667","6500300","中和區"
"235004","150-BY","2018/05/17 13:29:09","新北市中和區安平路59號","121.509601666667","24.9952283333333","6500300","中和區"
"235022","151-BY","2018/05/17 13:29:12","新北市中和區圓通路369巷165號","121.490068333333","24.9821016666667","6500300","中和區"
"235019","183-VK","2018/05/17 13:29:11","新北市中和區民享街283號","121.47143","24.9961266666667","6500300","中和區"
"235002","185-VK","2018/05/17 13:29:18","新北市中和區自立路141巷18號","121.52303","24.993455","6500300","中和區"
"235013","186-VK","2018/05/17 13:29:12","新北市中和區景安路173號","121.50524","24.9944466666667","6500300","中和區"
"235031","255-BX","2018/05/17 13:29:12","新北市中和區新生街220巷4號","121.48289","24.998635","6500300","中和區"
"235036","301-VK","2018/05/17 13:29:16","新北市中和區連城路261號","121.492636666667","24.9966766666667","6500300","中和區"
"235007","352-BY","2018/05/17 13:29:11","新北市中和區景平路275號","121.507856666667","24.99311","6500300","中和區"
"235025","378-QA","2018/05/17 13:29:27","新北市中和區民享街86巷31號","121.472675","25.0002733333333","6500300","中和區"
"235014","4979-A6","2018/05/17 13:29:19","新北市中和區景新街362巷10號","121.511913333333","24.9902633333333","6500300","中和區"
"235033","4980-A6","2018/05/17 13:29:27","新北市中和區連城路127巷23號","121.49703","24.99787","6500300","中和區"
"235006","551-UM","2018/05/17 13:29:25","新北市中和區自立路56巷17號","121.522765","24.99168","6500300","中和區"
"235034","558-UM","2018/05/17 13:29:15","新北市中和區景平路580號","121.501403333333","24.9956716666667","6500300","中和區"
"235009","565-BX","2018/05/17 13:29:27","新北市中和區南山路236巷22弄21號","121.50503","24.9892616666667","6500300","中和區"
"235018","640-BX","2018/05/17 13:29:19","新北市中和區民享街86巷1號","121.474486666667","25.0008883333333","6500300","中和區"
"235024","647-TV","2018/05/17 13:29:13","新北市中和區員山路146-3號","121.481211666667","24.996965","6500300","中和區"
"235035","783-BX","2018/05/17 13:29:19","新北市板橋區光環路二段22-3號","121.482513333333","25.014315","6500300","中和區"
"235026","800-TS","2018/05/17 13:29:21","新北市中和區景平路754號","121.496368333333","25.0045816666667","6500300","中和區"
"235021","801-TS","2018/05/17 13:29:19","新北市中和區民享街97巷14號","121.4753","24.9996583333333","6500300","中和區"
"235005","802-TS","2018/05/17 13:29:21","新北市中和區中和路318號","121.509623333333","25.0005216666667","6500300","中和區"
"235016","805-TS","2018/05/17 13:29:21","新北市中和區興南路二段133號","121.505273333333","24.9842183333333","6500300","中和區"
"235012","896-TW","2018/05/17 13:29:18","新北市中和區和城路一段271巷1號","121.485423333333","24.992075","6500300","中和區"
"235017","900-TW","2018/05/17 13:29:09","新北市土城區金城路三段269號","121.472515","24.99033","6500300","中和區"
"235030","911-UM","2018/05/17 13:29:25","新北市中和區中山路二段120號","121.502823333333","25.0037616666667","6500300","中和區"
"235015","157-BY","2018/05/17 13:29:12","新北市中和區興南路二段142巷19弄4號","121.502946666667","24.9834233333333","6500300","中和區"
"235001","AAC-213","2018/05/17 13:29:16","新北市中和區景德街95-2號","121.515451666667","24.9911266666667","6500300","中和區"
"235023","AAC-215","2018/05/17 13:29:26","新北市中和區員山路36巷16-3號","121.48492","24.9913466666667","6500300","中和區"
"220022","015-TV","2018/05/17 13:29:10","新北市板橋區華東街1-10號","121.448251666667","24.9949983333333","6500100","板橋區"
"220013","072-UY","2018/05/17 13:29:20","新北市板橋區華東街1-9號","121.448178333333","24.9949466666667","6500100","板橋區"
"220034","073-UY","2018/05/17 13:29:23","新北市板橋區華東街1-10號","121.44826","24.99507","6500100","板橋區"
"247009","341-TH","2018/05/17 13:29:08","新北市五股區中興路三段163號","121.449235","25.0807283333333","6501400","蘆洲區"
"247007","056-VK","2018/05/17 13:29:21","新北市五股區工商路8號","121.44058","25.0826966666667","6501400","蘆洲區"
"235029","251-BX","2018/05/17 13:29:21","新北市中和區莊敬路49巷10弄15號","121.502466666667","25.00558","6500300","中和區"
"228005","097-TW","2018/05/17 13:29:07","新北市貢寮區美豐里文秀坑8號","121.902456666667","25.0503166666667","6502600","貢寮區"
"253003","6232-TK","2018/05/17 13:29:23","新北市石門區內石門85號","121.568678333333","25.2648566666667","6502200","石門區"
"253001","6251-TK","2018/05/17 13:29:14","新北市三芝區新庄里新庄子96號","121.515678333333","25.275665","6502200","石門區"
"253002","637-UY","2018/05/17 13:29:14","新北市石門區九芎林5-3號","121.559998333333","25.26963","6502200","石門區"
"253004","8270-PC","2018/05/17 13:28:21","新北市石門區竹子湖9號","121.617633333333","25.259485","6502200","石門區"
"207002","749-BX","2018/05/17 13:29:25","新北市萬里區崁腳里崁腳路166號","121.645055","25.15589","6502800","萬里區"
"207001","662-BX","2018/05/17 13:29:18","新北市萬里區大鵬里萬里加投14號","121.65094","25.2089883333333","6502800","萬里區"
"252005","AAC-283","2018/05/17 13:29:20","新北市三芝區圓山里八連溪頭6-2號","121.52668","25.22178","6502100","三芝區"
"236005","498-BY","2018/05/17 13:29:28","新北市土城區亞洲路11巷1弄18號","121.435703333333","24.9718366666667","6501300","土城區"
"221032","280-BY","2018/05/17 13:29:12","新北市汐止區水源路一段56-1號","121.657181666667","25.0654783333333","6501100","汐止區"
"221021","299-VK","2018/05/17 13:29:19","新北市汐止區福德一路298號","121.631265","25.0631816666667","6501100","汐止區"
"220030","610-BX","2018/05/17 13:29:24","新北市板橋區華東街1-10號","121.448256666667","24.9949466666667","6500100","板橋區"
"220020","277-BY","2018/05/17 13:29:12","新北市板橋區華東街1-10號","121.448565","24.9949266666667","6500100","板橋區"
"220019","283-VK","2018/05/17 13:29:24","新北市板橋區華東街1-9號","121.44813","24.99486","6500100","板橋區"
"220029","287-VK","2018/05/17 13:29:09","新北市板橋區華東街1-10號","121.448281666667","24.99502","6500100","板橋區"
"220032","296-UM","2018/05/17 13:29:23","新北市板橋區華東街1-9號","121.448151666667","24.99497","6500100","板橋區"
"220010","305-R5","2018/05/17 13:29:17","新北市板橋區民生路二段120號","121.470358333333","25.01969","6500100","板橋區"
"220012","486-VK","2018/05/17 13:29:24","新北市板橋區華東街11號","121.451103333333","24.99806","6500100","板橋區"
"220104","560-BX","2018/05/17 13:29:21","新北市板橋區南雅南路一段131號","121.455085","25.0044816666667","6500100","板橋區"
"220028","568-UM","2018/05/17 13:29:22","新北市板橋區華東街1-9號","121.44814","24.9949266666667","6500100","板橋區"
"220005","686-BX","2018/05/17 13:29:23","新北市板橋區華東街1-9號","121.448221666667","24.9949016666667","6500100","板橋區"
"220025","687-BX","2018/05/17 13:29:27","新北市板橋區篤行路一段29號","121.431996666667","24.994585","6500100","板橋區"
"220002","741-BX","2018/05/17 13:28:58","新北市板橋區華東街1-9號","121.448113333333","24.99493","6500100","板橋區"
"220014","829-TW","2018/05/17 13:29:10","新北市板橋區民生路二段161巷1號","121.470003333333","25.0201066666667","6500100","板橋區"
"235032","KEA-2873","2018/05/17 13:29:07","新北市中和區圓通路283號","121.495338333333","24.99299","6500300","中和區"
