"lineid","car","time","location","longitude","latitude","cityid","cityname"
"234044","148-BY","2018/05/17 13:48:48","新北市永和區永利路167號","121.525261666667","25.0035816666667","6500400","永和區"
"234005","207-UY","2018/05/17 13:48:59","新北市永和區永和路一段84號","121.51303","25.00665","6500400","永和區"
"234078","298-R6","2018/05/17 13:48:50","新北市永和區國中路1號","121.523825","25.0044733333333","6500400","永和區"
"234036","336-UY","2018/05/17 13:48:50","新北市永和區民樂街57巷6號","121.527975","24.9985133333333","6500400","永和區"
"234062","337-UY","2018/05/17 13:48:57","新北市永和區中正路368巷12號","121.518255","25.00082","6500400","永和區"
"234084","338-UY","2018/05/17 13:48:55","新北市永和區永亨路2號","121.51915","25.0054633333333","6500400","永和區"
"234068","552-UM","2018/05/17 13:49:00","新北市永和區竹林路88號","121.519483333333","25.0126033333333","6500400","永和區"
"234015","745-BX","2018/05/17 13:48:47","新北市永和區文化路47號","121.514423333333","25.0150766666667","6500400","永和區"
"234028","746-BX","2018/05/17 13:48:52","新北市永和區民生路20號","121.522598333333","24.9974333333333","6500400","永和區"
"234052","KEA-2590","2018/05/17 13:48:55","新北市永和區竹林路39巷28弄29號","121.519678333333","25.0143833333333","6500400","永和區"
"234012","KEA-2591","2018/05/17 13:48:43","新北市永和區仁愛路206號","121.50924","25.0122216666667","6500400","永和區"
"234060","AAD-866","2018/05/17 13:48:56","新北市永和區中正路100號","121.514313333333","24.9957666666667","6500400","永和區"
"234040","862-TW","2018/05/17 13:49:00","新北市永和區中和路389巷11弄1號","121.508073333333","25.00096","6500400","永和區"
"234048","863-TW","2018/05/17 13:48:48","新北市永和區保安路79號","121.508568333333","25.0148216666667","6500400","永和區"
"234010","9373-KE","2018/05/17 13:48:48","新北市永和區保安路137號","121.507225","25.013385","6500400","永和區"
"248015","026-BX","2018/05/17 13:48:58","新北市五股區凌雲路一段149巷42號","121.448613333333","25.1008966666667","6501500","五股區"
"248007","095-VK","2018/05/17 13:48:49","新北市五股區中興路一段151巷61號","121.46513","25.07163","6501500","五股區"
"248017","225-UY","2018/05/17 13:48:57","新北市五股區民義路二段48巷1-8號","121.4142","25.102915","6501500","五股區"
"248013","261-SL","2018/05/17 13:48:56","新北市五股區民義路一段107巷32號","121.432145","25.0845333333333","6501500","五股區"
"248009","272-BY","2018/05/17 13:48:43","新北市五股區水碓九路20號","121.427941666667","25.0717383333333","6501500","五股區"
"248003","677-BX","2018/05/17 13:48:49","新北市五股區民義路二段41號","121.413941666667","25.1014433333333","6501500","五股區"
"248001","678-BX","2018/05/17 13:48:49","新北市五股區成泰路三段454號","121.451413333333","25.10038","6501500","五股區"
"248011","682-TV","2018/05/17 13:48:50","新北市五股區成泰路二段195巷1號","121.440411666667","25.0874383333333","6501500","五股區"
"234022","9380-KE","2018/05/17 13:49:02","新北市永和區中正路730號","121.515616666667","25.0101016666667","6500400","永和區"
"234076","969-R7","2018/05/17 13:48:53","新北市永和區民族街27巷17號","121.519886666667","24.9995666666667","6500400","永和區"
"234072","AAC-211","2018/05/17 13:48:54","新北市永和區豫溪街189巷1號","121.522573333333","25.010285","6500400","永和區"
"234066","AAC-212","2018/05/17 13:48:49","新北市永和區永貞路418-3號","121.50867","25.0081066666667","6500400","永和區"
"234001","AAC-295","2018/05/17 13:48:48","新北市永和區自由街71號","121.51342","25.0052216666667","6500400","永和區"
"243005","AAD-798","2018/05/17 13:25:18","新北市泰山區明志路三段206巷3號","121.42327","25.0378866666667","6501600","泰山區"
"243008","380-SR","2018/05/17 13:48:53","新北市泰山區明志路一段427號","121.430873333333","25.0566983333333","6501600","泰山區"
"243007","421-VK","2018/05/17 13:48:48","新北市泰山區美寧街57巷36號","121.429181666667","25.065195","6501600","泰山區"
"243003","KEA-2215","2018/05/17 13:48:44","新北市泰山區明志路二段230號","121.426806666667","25.0486633333333","6501600","泰山區"
"243002","KEA-2216","2018/05/17 13:48:41","新北市泰山區公園路54號","121.427933333333","25.0550166666667","6501600","泰山區"
"243004","646-TV","2018/05/17 13:48:57","新北市泰山區福興三街13號","121.43439","25.0577916666667","6501600","泰山區"
"231005","001-UM","2018/05/17 13:48:58","新北市新店區寶中路92-1號","121.548886666667","24.980185","6500600","新店區"
"231002","002-UM","2018/05/17 13:48:53","新北市新店區溪園路393號","121.524298333333","24.979075","6500600","新店區"
"231027","0293-UT","2018/05/17 13:49:00","新北市新店區北宜路一段105巷4弄3-1號","121.540008333333","24.95573","6500600","新店區"
"231028","046-UY","2018/05/17 13:49:02","新北市新店區安和路二段155號","121.518966666667","24.9742733333333","6500600","新店區"
"231001","047-UY","2018/05/17 13:48:49","新北市新店區三民路139號","121.534318333333","24.9726583333333","6500600","新店區"
"231010","107-UY","2018/05/17 13:48:56","新北市新店區平等街71號","121.53586","24.9722883333333","6500600","新店區"
"231021","108-UY","2018/05/17 13:48:42","新北市新店區新烏路二段7號","121.544118333333","24.9293516666667","6500600","新店區"
"231011","187-VK","2018/05/17 13:48:51","新北市新店區德正街27巷29弄68號","121.545813333333","24.9731183333333","6500600","新店區"
"231026","188-VK","2018/05/17 13:49:00","新北市新店區三民路84號","121.53446","24.9726733333333","6500600","新店區"
"231023","KEA-2219","2018/05/17 13:48:50","新北市新店區國校路47號","121.537985","24.95493","6500600","新店區"
"231003","268-BY","2018/05/17 13:48:54","新北市新店區中興路一段162號","121.542581666667","24.96414","6500600","新店區"
"231018","278-BY","2018/05/17 13:48:53","新北市新店區中正路399巷14號","121.534128333333","24.9770666666667","6500600","新店區"
"231017","AAD-862","2018/05/17 13:48:56","新北市新店區竹林路30巷1號","121.552291666667","24.951325","6500600","新店區"
"231030","355-BY","2018/05/17 13:48:46","新北市新店區安康路一段75-1號","121.530073333333","24.9611466666667","6500600","新店區"
"231038","3712-VJ","2018/05/17 13:48:48","新北市新店區安康路一段32號","121.531581666667","24.961955","6500600","新店區"
"231037","4716-K9","2018/05/17 13:48:55","新北市新店區安康路二段426號","121.495948333333","24.9549866666667","6500600","新店區"
"231025","4715-K9","2018/05/17 13:45:34","新北市新店區中央五街53號","121.527826666667","24.9754083333333","6500600","新店區"
"231036","512-UM","2018/05/17 13:48:59","新北市新店區安祥路113號","121.47522","24.95689","6500600","新店區"
"231013","513-UM","2018/05/17 13:48:51","新北市新店區二十張路25巷20號","121.539323333333","24.9819466666667","6500600","新店區"
"231034","616-UM","2018/05/17 13:48:56","新北市新店區達觀路14巷3號","121.503195","24.9417416666667","6500600","新店區"
"231035","719-UM","2018/05/17 13:48:56","新北市新店區安忠路86-7號","121.511695","24.9582733333333","6500600","新店區"
"231031","720-UM","2018/05/17 13:48:55","新北市新店區莒光路44巷21弄11-3號","121.518526666667","24.95214","6500600","新店區"
"231029","897-TW","2018/05/17 13:49:03","新北市新店區安康路二段125-1號","121.512415","24.9608866666667","6500600","新店區"
"231006","898-TW","2018/05/17 13:48:47","新北市新店區北宜路一段264號","121.545928333333","24.952755","6500600","新店區"
"231004","899-TW","2018/05/17 13:48:53","新北市新店區寶橋路132號","121.547376666667","24.976055","6500600","新店區"
"231024","AKT-0513","2018/05/17 13:48:49","新北市新店區新生街22號","121.539848333333","24.9665616666667","6500600","新店區"
"235028","005-UY","2018/05/17 13:48:53","新北市中和區連城路109巷29號","121.496911666667","24.9986183333333","6500300","中和區"
"235027","006-UY","2018/05/17 13:48:48","新北市中和區連城路319巷3弄7號","121.489415","24.995665","6500300","中和區"
"235011","031-BX","2018/05/17 13:49:00","新北市中和區興南路二段34巷57弄3號","121.504981666667","24.98589","6500300","中和區"
"235020","096-UM","2018/05/17 13:48:46","新北市中和區中正路1180號","121.48123","25.0099633333333","6500300","中和區"
"235003","097-UM","2018/05/17 13:48:49","新北市中和區大勇街25巷54號","121.515221666667","24.9945266666667","6500300","中和區"
"235004","150-BY","2018/05/17 13:48:49","新北市中和區保健路48巷37號","121.509635","24.9964116666667","6500300","中和區"
"235022","151-BY","2018/05/17 13:48:52","新北市中和區連城路508號","121.476845","24.9921216666667","6500300","中和區"
"235019","183-VK","2018/05/17 13:48:51","新北市中和區德光路77巷6弄2號","121.469763333333","25.0034683333333","6500300","中和區"
"235002","185-VK","2018/05/17 13:48:57","新北市中和區大勇街43巷12號","121.517331666667","24.9947616666667","6500300","中和區"
"235013","186-VK","2018/05/17 13:48:52","新北市中和區景安路177巷15號","121.505995","24.994325","6500300","中和區"
"235031","255-BX","2018/05/17 13:48:52","新北市中和區新生街264號","121.483561666667","24.997205","6500300","中和區"
"235008","293-VK","2018/05/17 13:49:04","新北市中和區中興街154號","121.499833333333","24.99186","6500300","中和區"
"235036","301-VK","2018/05/17 13:48:56","新北市中和區中山路二段89號","121.503503333333","25.0042183333333","6500300","中和區"
"235007","352-BY","2018/05/17 13:48:51","新北市中和區成功路47號","121.526186666667","24.9930483333333","6500300","中和區"
"235025","378-QA","2018/05/17 13:48:58","新北市中和區民享街57號","121.474095","25.0025016666667","6500300","中和區"
"235014","4979-A6","2018/05/17 13:48:47","新北市中和區忠孝街62巷9弄14號","121.513041666667","24.98402","6500300","中和區"
"235033","4980-A6","2018/05/17 13:48:47","新北市中和區南山路81巷8弄12號","121.502578333333","24.997735","6500300","中和區"
"235006","551-UM","2018/05/17 13:48:45","新北市永和區成功路二段217巷3號","121.526555","24.9955016666667","6500300","中和區"
"235034","558-UM","2018/05/17 13:48:55","新北市中和區南山路33號","121.502105","24.9988583333333","6500300","中和區"
"235009","565-BX","2018/05/17 13:48:47","新北市中和區南山路309號","121.50485","24.9915683333333","6500300","中和區"
"235018","640-BX","2018/05/17 13:48:52","新北市中和區民享街81號","121.474281666667","25.0018466666667","6500300","中和區"
"235024","647-TV","2018/05/17 13:48:53","新北市中和區中山路二段586-2號","121.482296666667","25.0052166666667","6500300","中和區"
"235010","733-UM","2018/05/17 13:49:00","新北市中和區仁愛街36巷37號","121.511135","24.986915","6500300","中和區"
"235035","783-BX","2018/05/17 13:48:59","新北市中和區中山路二段482巷11弄1號","121.48852","25.0062266666667","6500300","中和區"
"235026","800-TS","2018/05/17 13:48:54","新北市中和區景平路705號","121.496321666667","25.003575","6500300","中和區"
"235021","801-TS","2018/05/17 13:49:00","新北市中和區民安街38號","121.480031666667","25.0004633333333","6500300","中和區"
"235005","802-TS","2018/05/17 13:49:01","新北市中和區永貞路280號","121.513148333333","25.0040483333333","6500300","中和區"
"235016","805-TS","2018/05/17 13:49:01","新北市中和區興南路二段399巷86號","121.500056666667","24.9783866666667","6500300","中和區"
"235012","896-TW","2018/05/17 13:48:58","新北市中和區南山路355號","121.505888333333","24.990695","6500300","中和區"
"235017","900-TW","2018/05/17 13:48:57","新北市中和區華福街42巷1弄1號","121.466475","24.99638","6500300","中和區"
"235030","911-UM","2018/05/17 13:48:45","新北市中和區水源路18巷3號","121.504078333333","25.0032083333333","6500300","中和區"
"235015","157-BY","2018/05/17 13:48:52","新北市中和區華新街109巷11弄3號","121.508721666667","24.9792433333333","6500300","中和區"
"235001","AAC-213","2018/05/17 13:48:55","新北市中和區秀朗路三段175巷4號","121.524651666667","24.991265","6500300","中和區"
"235023","AAC-215","2018/05/17 13:48:46","新北市中和區錦和路408號","121.491178333333","24.9897983333333","6500300","中和區"
"220022","015-TV","2018/05/17 13:48:51","新北市板橋區府中路75號","121.457571666667","25.0093416666667","6500100","板橋區"
"220013","072-UY","2018/05/17 13:49:00","新北市板橋區縣民大道二段62號","121.463013333333","25.0123633333333","6500100","板橋區"
"220034","073-UY","2018/05/17 13:49:03","新北市板橋區大智街64號","121.454121666667","25.0154483333333","6500100","板橋區"
"220105","075-UY","2018/05/17 13:48:58","新北市板橋區民生路二段148號","121.471386666667","25.02004","6500100","板橋區"
"220017","AAD-861","2018/05/17 13:48:46","新北市板橋區縣民大道一段94巷2號","121.456266666667","25.00486","6500100","板橋區"
"247009","341-TH","2018/05/17 13:48:48","新北市三重區如意街1號","121.4881","25.089905","6501400","蘆洲區"
"247005","336-TH","2018/05/17 13:48:55","新北市蘆洲區中山二路275號","121.469373333333","25.0790516666667","6501400","蘆洲區"
"247007","056-VK","2018/05/17 13:49:01","新北市蘆洲區永安北路二段76巷16號","121.483088333333","25.0853166666667","6501400","蘆洲區"
"247019","001-UY","2018/05/17 13:48:50","新北市蘆洲區民族路422巷48弄28號","121.474788333333","25.0931016666667","6501400","蘆洲區"
"235029","251-BX","2018/05/17 13:48:41","新北市中和區中山路二段2巷45弄12號","121.501923333333","25.00678","6500300","中和區"
"228005","097-TW","2018/05/17 13:48:47","新北市雙溪區三港里雙澳路100號","121.888683333333","25.0560933333333","6502600","貢寮區"
"253003","6232-TK","2018/05/17 13:49:03","新北市石門區尖子鹿8-1號","121.575236666667","25.2799716666667","6502200","石門區"
"253001","6251-TK","2018/05/17 13:48:53","新北市石門區八甲53-2號","121.522038333333","25.2750783333333","6502200","石門區"
"253002","637-UY","2018/05/17 13:48:54","新北市石門區九芎林54號","121.565371666667","25.24913","6502200","石門區"
"253004","8270-PC","2018/05/17 13:49:02","新北市石門區草埔尾34-1號","121.603171666667","25.2650766666667","6502200","石門區"
"207002","749-BX","2018/05/17 13:48:45","新北市萬里區崁腳里崁腳路166號","121.645041666667","25.1558016666667","6502800","萬里區"
"207001","662-BX","2018/05/17 13:48:58","新北市萬里區磺潭里清水18號","121.637746666667","25.19769","6502800","萬里區"
"252005","AAC-283","2018/05/17 13:49:00","新北市三芝區圓山里二坪頂46號","121.53997","25.229965","6502100","三芝區"
"236040","107-UM","2018/05/17 13:48:59","新北市土城區城林路6巷80號","121.438483333333","24.9797666666667","6501300","土城區"
"236074","166-UM","2018/05/17 13:48:53","新北市土城區中央路二段392-1號","121.439648333333","24.970805","6501300","土城區"
"236012","270-VK","2018/05/17 13:49:01","新北市土城區城林路6巷80號","121.438481666667","24.9797566666667","6501300","土城區"
"236032","271-VK","2018/05/17 13:48:41","新北市土城區城林路6巷80號","121.438558333333","24.98027","6501300","土城區"
"236068","KEA-2877","2018/05/17 13:49:00","新北市土城區城林路6巷80號","121.438663333333","24.97972","6501300","土城區"
"236017","401-BY","2018/05/17 13:48:47","新北市土城區城林路6巷80號","121.43853","24.9797883333333","6501300","土城區"
"236005","498-BY","2018/05/17 13:48:48","新北市土城區員福街34號","121.44115","24.9788233333333","6501300","土城區"
"236057","912-UM","2018/05/17 13:48:53","新北市土城區中華路二段2號","121.439121666667","24.9797166666667","6501300","土城區"
"236045","913-UM","2018/05/17 13:48:59","新北市土城區城林路6巷80號","121.438455","24.979705","6501300","土城區"
"236060","915-UM","2018/05/17 13:48:54","新北市土城區城林路6巷80號","121.438445","24.979765","6501300","土城區"
"236054","AAC-216","2018/05/17 13:48:51","新北市土城區城林路6巷80號","121.438648333333","24.9797433333333","6501300","土城區"
"220027","145-BY","2018/05/17 13:48:49","新北市板橋區大智街71巷8弄20號","121.452681666667","25.01569","6500100","板橋區"
"220030","610-BX","2018/05/17 13:48:44","新北市板橋區篤行路三段45號","121.428126666667","24.9863916666667","6500100","板橋區"
"220004","276-BY","2018/05/17 13:48:45","新北市板橋區南雅南路二段49號","121.451526666667","24.99458","6500100","板橋區"
"220020","277-BY","2018/05/17 13:49:03","新北市板橋區大觀路三段36巷59號","121.434463333333","24.996985","6500100","板橋區"
"220038","280-UM","2018/05/17 13:48:44","新北市板橋區民生路二段198號","121.469765","25.0208916666667","6500100","板橋區"
"220019","283-VK","2018/05/17 13:49:00","新北市板橋區重慶路245巷67弄1號","121.465573333333","25.00121","6500100","板橋區"
"220043","285-UM","2018/05/17 13:48:48","新北市板橋區民生路二段120號","121.470426666667","25.019775","6500100","板橋區"
"220001","285-VK","2018/05/17 13:49:00","新北市板橋區永豐街55巷48號","121.47212","25.0185333333333","6500100","板橋區"
"220031","286-VK","2018/05/17 13:48:59","新北市板橋區龍興街101巷1號","121.444358333333","25.0030433333333","6500100","板橋區"
"220029","287-VK","2018/05/17 13:48:49","新北市板橋區光華街13巷11號","121.45366","25.01144","6500100","板橋區"
"220039","288-VK","2018/05/17 13:48:50","新北市板橋區民生路二段120號","121.47041","25.0197183333333","6500100","板橋區"
"220009","293-UM","2018/05/17 13:49:01","新北市板橋區民生路二段56-6號","121.470836666667","25.018715","6500100","板橋區"
"220032","296-UM","2018/05/17 13:48:52","新北市板橋區大觀路二段156巷2-3號","121.44144","24.9993033333333","6500100","板橋區"
"220023","303-R5","2018/05/17 13:48:46","新北市板橋區南雅西路一段174巷1弄16-1號","121.452935","25.0073616666667","6500100","板橋區"
"220010","305-R5","2018/05/17 13:48:57","新北市板橋區中山路二段28號","121.472661666667","25.0151633333333","6500100","板橋區"
"220041","307-R5","2018/05/17 13:48:57","新北市板橋區民生路二段148號","121.471536666667","25.0199416666667","6500100","板橋區"
"220012","486-VK","2018/05/17 13:48:44","新北市板橋區民生路二段36-1號","121.472098333333","25.0167666666667","6500100","板橋區"
"220037","491-VK","2018/05/17 13:49:01","新北市板橋區民生路二段161巷1號","121.469976666667","25.0200916666667","6500100","板橋區"
"220104","560-BX","2018/05/17 13:49:01","新北市板橋區中正路275巷68號","121.452725","25.017945","6500100","板橋區"
"220052","561-BX","2018/05/17 13:48:49","新北市板橋區民生路二段120號","121.470463333333","25.01978","6500100","板橋區"
"220028","568-UM","2018/05/17 13:49:02","新北市板橋區大觀路二段265巷60弄33號","121.441826666667","24.99789","6500100","板橋區"
"220011","609-BX","2018/05/17 13:48:45","新北市板橋區民生路二段17號","121.472531666667","25.01638","6500100","板橋區"
"220003","630-UY","2018/05/17 13:49:04","新北市板橋區館前西路47號","121.457983333333","25.0068066666667","6500100","板橋區"
"220040","637-BX","2018/05/17 13:48:55","新北市板橋區民生路二段161巷1號","121.470155","25.0200866666667","6500100","板橋區"
"220005","686-BX","2018/05/17 13:49:03","新北市板橋區縣民大道一段110號","121.457051666667","25.00579","6500100","板橋區"
"220025","687-BX","2018/05/17 13:49:02","新北市板橋區金門街81號","121.433245","24.9926316666667","6500100","板橋區"
"220042","689-BX","2018/05/17 13:48:49","新北市板橋區民生路二段161巷1號","121.469936666667","25.0199883333333","6500100","板橋區"
"220002","741-BX","2018/05/17 13:48:57","新北市板橋區縣民大道一段108號","121.456991666667","25.0056883333333","6500100","板橋區"
"220051","KEA-2699","2018/05/17 13:49:00","新北市板橋區民生路二段120號","121.470386666667","25.0195866666667","6500100","板橋區"
"220014","829-TW","2018/05/17 13:48:49","新北市板橋區民生路一段53號","121.47552","25.012755","6500100","板橋區"
"220016","830-TW","2018/05/17 13:48:45","新北市板橋區民生路二段56-6號","121.471126666667","25.0191033333333","6500100","板橋區"
"220045","831-TW","2018/05/17 13:48:56","新北市板橋區民生路二段120號","121.470601666667","25.019705","6500100","板橋區"
"220021","985-R7","2018/05/17 13:48:58","新北市板橋區府中路67號","121.458025","25.0094033333333","6500100","板橋區"
"220046","AAC-210","2018/05/17 13:35:46","新北市板橋區文化路一段435巷31弄6號","121.466731666667","25.023195","6500100","板橋區"
"220018","AAC-253","2018/05/17 13:49:01","新北市板橋區館前西路4-1號","121.459138333333","25.0070783333333","6500100","板橋區"
"235032","KEA-2873","2018/05/17 13:48:34","新北市中和區圓通路265巷29號","121.496176666667","24.99254","6500300","中和區"
