"lineid","car","time","location","longitude","latitude","cityid","cityname"
"234044","148-BY","2018/05/17 14:09:10","新北市永和區成功路一段108號","121.526813333333","25.0028183333333","6500400","永和區"
"234005","207-UY","2018/05/17 14:09:20","新北市中和區中和路306-1號","121.508981666667","25.0000816666667","6500400","永和區"
"234078","298-R6","2018/05/17 14:09:10","新北市永和區永亨路98號","121.52305","25.0048666666667","6500400","永和區"
"234036","336-UY","2018/05/17 14:09:12","新北市永和區成功路一段77號","121.52698","25.0031733333333","6500400","永和區"
"234062","337-UY","2018/05/17 14:09:09","新北市永和區永利路152號","121.522488333333","25.0027266666667","6500400","永和區"
"234084","338-UY","2018/05/17 14:09:23","新北市永和區福和路273號","121.517591666667","25.0074066666667","6500400","永和區"
"234068","552-UM","2018/05/17 14:09:20","新北市永和區福和路265號","121.517806666667","25.007395","6500400","永和區"
"234015","745-BX","2018/05/17 14:09:27","新北市永和區仁愛路30號","121.51468","25.0134983333333","6500400","永和區"
"234028","746-BX","2018/05/17 14:09:15","新北市永和區民生路22巷30號","121.521081666667","24.997055","6500400","永和區"
"234052","KEA-2590","2018/05/17 14:09:15","新北市永和區博愛街53號","121.519745","25.0159966666667","6500400","永和區"
"234012","KEA-2591","2018/05/17 14:09:23","新北市永和區永貞路387號","121.508118333333","25.0086066666667","6500400","永和區"
"234060","AAD-866","2018/05/17 14:09:07","新北市永和區安樂路96號","121.514395","24.9991933333333","6500400","永和區"
"234040","862-TW","2018/05/17 14:09:20","新北市永和區雙和街64巷22弄5-1號","121.50976","25.0029416666667","6500400","永和區"
"234048","863-TW","2018/05/17 14:09:08","新北市永和區新生路28巷16號","121.508265","25.0162933333333","6500400","永和區"
"234025","9371-KE","2018/05/17 14:09:21","新北市永和區安樂路272巷9弄7號","121.515116666667","25.0046183333333","6500400","永和區"
"234010","9373-KE","2018/05/17 14:09:08","新北市永和區仁愛路352巷122弄33號","121.500765","25.009205","6500400","永和區"
"248015","026-BX","2018/05/17 14:09:18","新北市五股區成泰路三段543巷56號","121.449558333333","25.1031333333333","6501500","五股區"
"248007","095-VK","2018/05/17 14:09:09","新北市五股區中興路一段118巷8號","121.466045","25.07389","6501500","五股區"
"248017","225-UY","2018/05/17 14:09:17","新北市五股區民義路一段224號","121.429421666667","25.0908233333333","6501500","五股區"
"248013","261-SL","2018/05/17 14:09:16","新北市五股區民義路一段107巷32號","121.432456666667","25.08464","6501500","五股區"
"248009","272-BY","2018/05/17 14:09:23","新北市五股區水碓二路1號","121.430596666667","25.0712566666667","6501500","五股區"
"248003","677-BX","2018/05/17 14:09:09","新北市五股區六合街3號","121.432121666667","25.088375","6501500","五股區"
"248001","678-BX","2018/05/17 14:09:20","新北市五股區成泰路三段577巷60號","121.450476666667","25.1033333333333","6501500","五股區"
"248011","682-TV","2018/05/17 14:09:10","新北市五股區工商路38號","121.439395","25.083795","6501500","五股區"
"234022","9380-KE","2018/05/17 14:09:21","新北市永和區博愛街30號","121.51869","25.015785","6500400","永和區"
"234076","969-R7","2018/05/17 14:09:12","新北市永和區民族街67巷18號","121.519526666667","24.997125","6500400","永和區"
"234072","AAC-211","2018/05/17 14:09:14","新北市永和區豫溪街160巷1號","121.523278333333","25.0095866666667","6500400","永和區"
"234066","AAC-212","2018/05/17 14:09:20","新北市永和區保平路236巷12弄7號","121.50869","25.0065683333333","6500400","永和區"
"234001","AAC-295","2018/05/17 14:09:08","新北市永和區中正路664號","121.516886666667","25.008885","6500400","永和區"
"243005","AAD-798","2018/05/17 14:09:10","新北市泰山區台麗街6巷11號","121.424138333333","25.03771","6501600","泰山區"
"243001","297-R6","2018/05/17 14:09:09","新北市泰山區文化街18號","121.43453","25.0633216666667","6501600","泰山區"
"243008","380-SR","2018/05/17 14:09:12","新北市泰山區明志路二段325號","121.425988333333","25.04506","6501600","泰山區"
"243007","421-VK","2018/05/17 14:09:08","新北市泰山區明志路一段453號","121.430763333333","25.0561566666667","6501600","泰山區"
"243003","KEA-2215","2018/05/17 14:09:23","新北市泰山區明志路二段322號","121.42607","25.0460166666667","6501600","泰山區"
"243002","KEA-2216","2018/05/17 14:09:21","新北市泰山區明志路一段483巷1弄6號","121.431228333333","25.0554783333333","6501600","泰山區"
"243004","646-TV","2018/05/17 14:09:17","新北市泰山區辭修路36巷8弄5號","121.427876666667","25.0586283333333","6501600","泰山區"
"243006","680-BX","2018/05/17 14:09:21","新北市泰山區泰林路二段454號","121.426085","25.0641583333333","6501600","泰山區"
"231005","001-UM","2018/05/17 14:09:24","新北市新店區中興路三段298號","121.54247","24.9850316666667","6500600","新店區"
"231002","002-UM","2018/05/17 14:09:15","新北市新店區中正路542-10號","121.533663333333","24.9848583333333","6500600","新店區"
"231027","0293-UT","2018/05/17 14:09:20","新北市新店區光明街138巷13弄5號","121.540183333333","24.9614733333333","6500600","新店區"
"231028","046-UY","2018/05/17 14:09:25","新北市新店區安和路三段59號","121.517901666667","24.9829716666667","6500600","新店區"
"231001","047-UY","2018/05/17 14:09:09","新北市新店區中華路70巷2號","121.539045","24.96918","6500600","新店區"
"231010","107-UY","2018/05/17 14:09:15","新北市新店區安華路3號","121.519143333333","24.9594366666667","6500600","新店區"
"231021","108-UY","2018/05/17 14:09:22","新北市新店區新烏路二段212-1號","121.547653333333","24.9150583333333","6500600","新店區"
"231011","187-VK","2018/05/17 14:09:08","新北市新店區中興路一段222號","121.54425","24.9662566666667","6500600","新店區"
"231023","KEA-2219","2018/05/17 14:09:10","新北市新店區文中路39巷2號","121.539393333333","24.9567833333333","6500600","新店區"
"231003","268-BY","2018/05/17 14:09:14","新北市新店區北宜路一段3號","121.538478333333","24.9583766666667","6500600","新店區"
"231018","278-BY","2018/05/17 14:09:24","新北市新店區中央五街46號","121.5281","24.975105","6500600","新店區"
"231017","AAD-862","2018/05/17 14:09:16","新北市新店區郵政路5巷6號","121.557218333333","24.951585","6500600","新店區"
"231030","355-BY","2018/05/17 14:09:25","新北市新店區安興路7-1號","121.51498","24.968555","6500600","新店區"
"231038","3712-VJ","2018/05/17 14:09:07","新北市新店區溪洲路8巷66號","121.533151666667","24.9624633333333","6500600","新店區"
"231037","4716-K9","2018/05/17 14:09:15","新北市新店區安康路三段165巷5號","121.48966","24.95136","6500600","新店區"
"231025","4715-K9","2018/05/17 13:45:34","新北市新店區中央五街53號","121.527826666667","24.9754083333333","6500600","新店區"
"231036","512-UM","2018/05/17 14:09:19","新北市新店區安祥路109巷1弄55號","121.477523333333","24.960725","6500600","新店區"
"231013","513-UM","2018/05/17 14:09:11","新北市新店區二十張路1巷2弄3號","121.54009","24.982035","6500600","新店區"
"231034","616-UM","2018/05/17 14:09:16","新北市新店區車子路11號","121.503096666667","24.9520566666667","6500600","新店區"
"231035","719-UM","2018/05/17 14:09:16","新北市新店區安和路一段52巷2-1號","121.517721666667","24.96647","6500600","新店區"
"231031","720-UM","2018/05/17 14:09:15","新北市新店區碧潭路63號","121.534258333333","24.9566216666667","6500600","新店區"
"231029","897-TW","2018/05/17 14:09:23","新北市新店區安康路二段115號","121.512533333333","24.9616766666667","6500600","新店區"
"231006","898-TW","2018/05/17 14:09:07","新北市新店區北宜路二段210號","121.559406666667","24.95436","6500600","新店區"
"231004","899-TW","2018/05/17 14:09:13","新北市新店區北新路三段2號","121.542516666667","24.9787983333333","6500600","新店區"
"235028","005-UY","2018/05/17 14:09:14","新北市中和區泰和街30巷10號","121.499178333333","25.0008666666667","6500300","中和區"
"235027","006-UY","2018/05/17 14:09:08","新北市中和區連城路249巷24號","121.494","24.9960516666667","6500300","中和區"
"235011","031-BX","2018/05/17 14:09:19","新北市中和區興南路一段58號","121.510925","24.9904566666667","6500300","中和區"
"235020","096-UM","2018/05/17 14:09:27","新北市中和區員山路516號","121.479151666667","25.0095416666667","6500300","中和區"
"235003","097-UM","2018/05/17 14:09:09","新北市中和區景平路4號","121.524318333333","24.9902283333333","6500300","中和區"
"235004","150-BY","2018/05/17 14:09:09","新北市中和區宜安路47巷2號","121.511725","24.9964616666667","6500300","中和區"
"235022","151-BY","2018/05/17 14:09:12","新北市中和區員山路102號","121.481033333333","24.9953983333333","6500300","中和區"
"235019","183-VK","2018/05/17 14:09:11","新北市中和區德光路132號","121.468013333333","25.0032216666667","6500300","中和區"
"235002","185-VK","2018/05/17 14:09:21","新北市中和區大仁街10巷27弄4號","121.519196666667","24.9927116666667","6500300","中和區"
"235013","186-VK","2018/05/17 14:09:12","新北市中和區景新街141號","121.506176666667","24.9966066666667","6500300","中和區"
"235031","255-BX","2018/05/17 14:09:12","新北市中和區中正路711號","121.484513333333","24.9984983333333","6500300","中和區"
"235008","293-VK","2018/05/17 14:09:24","新北市中和區復興路327巷1號","121.500703333333","24.9899966666667","6500300","中和區"
"235036","301-VK","2018/05/17 14:09:16","新北市中和區景平路727號","121.49645","25.004165","6500300","中和區"
"235007","352-BY","2018/05/17 14:09:11","新北市中和區景平路296號","121.513023333333","24.9928033333333","6500300","中和區"
"235025","378-QA","2018/05/17 14:09:27","新北市中和區中山路三段61號","121.476653333333","25.0055733333333","6500300","中和區"
"235014","4979-A6","2018/05/17 14:09:07","新北市中和區復興路249巷11弄3號","121.50363","24.98978","6500300","中和區"
"235033","4980-A6","2018/05/17 14:09:27","新北市中和區中和路165巷15號","121.502613333333","25.000505","6500300","中和區"
"235006","551-UM","2018/05/17 14:09:25","新北市中和區自立路117巷3號","121.52234","24.9945666666667","6500300","中和區"
"235034","558-UM","2018/05/17 14:09:15","新北市中和區中和路92號","121.501351666667","25.0004733333333","6500300","中和區"
"235009","565-BX","2018/05/17 14:09:07","新北市中和區景新街467巷15弄11號","121.513758333333","24.9887716666667","6500300","中和區"
"235018","640-BX","2018/05/17 14:09:12","新北市中和區國光街107巷2弄32號","121.469286666667","24.9990066666667","6500300","中和區"
"235024","647-TV","2018/05/17 14:09:13","新北市中和區民治街5巷2號","121.475026666667","25.00498","6500300","中和區"
"235010","733-UM","2018/05/17 14:09:20","新北市中和區忠孝街1巷5號","121.508745","24.983445","6500300","中和區"
"235035","783-BX","2018/05/17 14:09:19","新北市中和區立德街98巷86號","121.488781666667","25.0080783333333","6500300","中和區"
"235026","800-TS","2018/05/17 14:09:14","新北市中和區中山路二段366巷10號","121.491893333333","25.0041066666667","6500300","中和區"
"235021","801-TS","2018/05/17 14:09:19","新北市中和區民利街56號","121.479128333333","24.9987316666667","6500300","中和區"
"235005","802-TS","2018/05/17 14:09:21","新北市中和區中安街178巷3弄5-1號","121.510745","24.999115","6500300","中和區"
"235016","805-TS","2018/05/17 14:09:21","新北市中和區興南路二段114巷21弄2號","121.503641666667","24.98445","6500300","中和區"
"235012","896-TW","2018/05/17 14:09:18","新北市中和區工專路147號","121.508418333333","24.9787966666667","6500300","中和區"
"235017","900-TW","2018/05/17 14:09:09","新北市中和區華福街71巷24號","121.467465","24.997055","6500300","中和區"
"235030","911-UM","2018/05/17 14:09:05","新北市中和區廣福路32號","121.504681666667","25.0023516666667","6500300","中和區"
"235015","157-BY","2018/05/17 14:09:11","新北市中和區仁愛街36巷44號","121.511315","24.9863233333333","6500300","中和區"
"235001","AAC-213","2018/05/17 14:09:16","新北市中和區秀朗路三段128巷29號","121.524705","24.9941583333333","6500300","中和區"
"235023","AAC-215","2018/05/17 14:09:26","新北市中和區圓通路296巷31弄1號","121.488601666667","24.990465","6500300","中和區"
"220022","015-TV","2018/05/17 14:09:10","新北市板橋區西門街59號","121.454435","25.0091566666667","6500100","板橋區"
"220013","072-UY","2018/05/17 14:09:21","新北市板橋區民族路219巷8號","121.46954","25.0076016666667","6500100","板橋區"
"220034","073-UY","2018/05/17 14:09:23","新北市板橋區中正路236巷53號","121.458121666667","25.019465","6500100","板橋區"
"220105","075-UY","2018/05/17 14:09:18","新北市板橋區文化路二段263巷20號","121.471241666667","25.0298016666667","6500100","板橋區"
"220017","AAD-861","2018/05/17 14:09:06","新北市板橋區貴興路25號","121.457773333333","25.004235","6500100","板橋區"
"247023","893-R6","2018/05/17 14:09:07","新北市蘆洲區光榮路112號","121.464413333333","25.0893533333333","6501400","蘆洲區"
"247013","546-UM","2018/05/17 14:09:20","新北市蘆洲區忠孝路39-1號","121.471293333333","25.0859716666667","6501400","蘆洲區"
"247021","500-BY","2018/05/17 14:09:25","新北市蘆洲區三民路229號","121.469578333333","25.0884566666667","6501400","蘆洲區"
"247009","341-TH","2018/05/17 14:09:08","新北市蘆洲區信義路253號","121.479078333333","25.0844433333333","6501400","蘆洲區"
"247011","339-TH","2018/05/17 14:09:19","新北市蘆洲區信義路345號","121.477753333333","25.0871566666667","6501400","蘆洲區"
"247003","337-TH","2018/05/17 14:09:13","新北市蘆洲區長安街102巷10號","121.46221","25.081645","6501400","蘆洲區"
"247005","336-TH","2018/05/17 14:09:15","新北市蘆洲區九芎街62號","121.466868333333","25.079025","6501400","蘆洲區"
"247017","057-VK","2018/05/17 14:09:16","新北市蘆洲區復興路111-5號","121.476575","25.0884966666667","6501400","蘆洲區"
"247007","056-VK","2018/05/17 14:09:21","新北市蘆洲區中山一路293-1號","121.47161","25.0792316666667","6501400","蘆洲區"
"247015","007-UY","2018/05/17 14:09:10","新北市蘆洲區中正路185巷19號","121.467405","25.0847516666667","6501400","蘆洲區"
"247001","002-UY","2018/05/17 14:09:12","新北市蘆洲區永平街33號","121.458445","25.09098","6501400","蘆洲區"
"247019","001-UY","2018/05/17 14:09:10","新北市蘆洲區民族路426巷52號","121.47283","25.0936183333333","6501400","蘆洲區"
"223003","205-TH","2018/05/17 14:01:31","新北市石碇區小粗坑(潭邊里)9-2號","121.6785","24.9859566666667","6501900","石碇區"
"235029","251-BX","2018/05/17 14:09:21","新北市中和區中山路二段136巷18號","121.501565","25.0040833333333","6500300","中和區"
"228005","097-TW","2018/05/17 13:51:47","新北市貢寮區美豐里土地公嶺24號","121.89083","25.0645933333333","6502600","貢寮區"
"253003","6232-TK","2018/05/17 14:09:23","新北市石門區阿里磅80號","121.584275","25.2672966666667","6502200","石門區"
"253001","6251-TK","2018/05/17 14:09:14","新北市石門區八甲74號","121.529696666667","25.26373","6502200","石門區"
"253002","637-UY","2018/05/17 14:09:14","新北市石門區七股20-1號","121.551373333333","25.26736","6502200","石門區"
"253004","8270-PC","2018/05/17 14:08:21","新北市石門區草埔尾20-4號","121.603005","25.2628066666667","6502200","石門區"
"207002","749-BX","2018/05/17 14:09:05","新北市萬里區溪底里瑞泉路1號","121.610961666667","25.1458683333333","6502800","萬里區"
"207001","662-BX","2018/05/17 14:09:18","新北市萬里區磺潭里清水18號","121.637843333333","25.19769","6502800","萬里區"
"252005","AAC-283","2018/05/17 14:09:20","新北市三芝區橫山里橫山33號","121.540053333333","25.258655","6502100","三芝區"
"236040","107-UM","2018/05/17 14:09:20","新北市土城區中華路二段2號","121.439008333333","24.979845","6501300","土城區"
"236074","166-UM","2018/05/17 14:09:13","新北市土城區永安街6號","121.43429","24.96528","6501300","土城區"
"236029","253-BX","2018/05/17 14:09:08","新北市土城區城林路6巷80號","121.438538333333","24.97978","6501300","土城區"
"236024","269-VK","2018/05/17 14:09:13","新北市土城區承天路18號","121.439366666667","24.963415","6501300","土城區"
"236012","270-VK","2018/05/17 14:09:21","新北市土城區中央路二段61巷42號","121.443991666667","24.9784333333333","6501300","土城區"
"236032","271-VK","2018/05/17 14:09:21","新北市土城區清水路66巷12號","121.456705","24.978015","6501300","土城區"
"236068","KEA-2877","2018/05/17 14:09:20","新北市土城區仁愛路25-1號","121.46268","24.9782916666667","6501300","土城區"
"236017","401-BY","2018/05/17 14:09:07","新北市土城區城林路6巷80號","121.438318333333","24.97992","6501300","土城區"
"236005","498-BY","2018/05/17 14:09:08","新北市土城區裕民路6-3號","121.446871666667","24.98909","6501300","土城區"
"236057","912-UM","2018/05/17 14:09:14","新北市土城區中央路四段132-2號","121.417605","24.9586883333333","6501300","土城區"
"236045","913-UM","2018/05/17 14:09:19","新北市土城區明德路一段365-1號","121.453555","24.9790516666667","6501300","土城區"
"236060","915-UM","2018/05/17 14:09:14","新北市土城區金城路二段206號","121.455155","24.981995","6501300","土城區"
"236054","AAC-216","2018/05/17 14:09:11","新北市土城區城林路6巷80號","121.438553333333","24.9797466666667","6501300","土城區"
"238010","601-UM","2018/05/17 13:53:56","新北市樹林區中山路三段204號","121.386873333333","24.9682616666667","6500700","樹林區"
"220027","145-BY","2018/05/17 14:09:09","新北市板橋區民權路202巷7弄42號","121.458455","25.015105","6500100","板橋區"
"220030","610-BX","2018/05/17 14:09:24","新北市板橋區溪崑二街62號","121.427965","24.9903966666667","6500100","板橋區"
"220050","245-BX","2018/05/17 14:09:18","新北市板橋區萬板路15號","121.470568333333","25.0209583333333","6500100","板橋區"
"220004","276-BY","2018/05/17 14:09:26","新北市板橋區信義路148號","121.45889","24.991885","6500100","板橋區"
"220020","277-BY","2018/05/17 14:09:12","新北市板橋區金門街369巷58號","121.428341666667","24.9817666666667","6500100","板橋區"
"220038","280-UM","2018/05/17 14:09:24","新北市板橋區文化路二段426號","121.473991666667","25.0318533333333","6500100","板橋區"
"220019","283-VK","2018/05/17 14:09:24","新北市板橋區重慶路269巷29號","121.464215","24.99928","6500100","板橋區"
"220043","285-UM","2018/05/17 14:09:21","新北市板橋區光武街133號","121.465728333333","25.0291116666667","6500100","板橋區"
"220001","285-VK","2018/05/17 14:09:20","新北市板橋區懷仁街35巷13號","121.47718","25.019885","6500100","板橋區"
"220031","286-VK","2018/05/17 14:09:19","新北市板橋區龍興街97巷15號","121.44341","25.002935","6500100","板橋區"
"220029","287-VK","2018/05/17 14:09:09","新北市板橋區南雅西路二段160號","121.451733333333","25.0134866666667","6500100","板橋區"
"220039","288-VK","2018/05/17 14:09:10","新北市板橋區四維路291巷1號","121.462038333333","25.0282683333333","6500100","板橋區"
"220009","293-UM","2018/05/17 14:09:21","新北市板橋區中山路二段287號","121.478126666667","25.0179483333333","6500100","板橋區"
"220032","296-UM","2018/05/17 14:09:23","新北市板橋區溪崑二街22巷24號","121.428338333333","24.991915","6500100","板橋區"
"220023","303-R5","2018/05/17 14:09:27","新北市板橋區大智街23號","121.455151666667","25.0149016666667","6500100","板橋區"
"220010","305-R5","2018/05/17 14:09:17","新北市板橋區三民路二段居仁巷1弄48號","121.481116666667","25.013495","6500100","板橋區"
"220041","307-R5","2018/05/17 14:09:17","新北市板橋區文化路二段225巷62號","121.469228333333","25.0284","6500100","板橋區"
"220047","317-R6","2018/05/17 14:09:08","新北市板橋區自由路51巷12號","121.464816666667","25.023525","6500100","板橋區"
"220012","486-VK","2018/05/17 14:09:24","新北市板橋區板新路11號","121.475185","25.0127183333333","6500100","板橋區"
"220037","491-VK","2018/05/17 14:09:21","新北市板橋區莊敬路38號","121.472798333333","25.0270716666667","6500100","板橋區"
"220104","560-BX","2018/05/17 14:09:21","新北市板橋區中正路413巷13號","121.45397","25.0223083333333","6500100","板橋區"
"220052","561-BX","2018/05/17 14:09:09","新北市板橋區文化路一段188巷7弄40號","121.468121666667","25.0192066666667","6500100","板橋區"
"220028","568-UM","2018/05/17 14:09:22","新北市板橋區大觀路二段5-1號","121.447163333333","25.0039366666667","6500100","板橋區"
"220011","609-BX","2018/05/17 14:09:26","新北市板橋區三民路二段67號","121.479336666667","25.0170933333333","6500100","板橋區"
"220003","630-UY","2018/05/17 14:09:24","新北市板橋區中山路一段132號","121.46344","25.0109116666667","6500100","板橋區"
"220040","637-BX","2018/05/17 14:09:15","新北市板橋區萬板路558號","121.480936666667","25.02661","6500100","板橋區"
"220005","686-BX","2018/05/17 14:09:23","新北市板橋區重慶路342號","121.464133333333","24.9973816666667","6500100","板橋區"
"220025","687-BX","2018/05/17 14:09:27","新北市板橋區龍興街73巷2號","121.443928333333","25.0020833333333","6500100","板橋區"
"220042","689-BX","2018/05/17 14:09:12","新北市板橋區民生路三段211號","121.465005","25.0281283333333","6500100","板橋區"
"220002","741-BX","2018/05/17 14:09:17","新北市板橋區實踐路32巷17號","121.462901666667","25.0070783333333","6500100","板橋區"
"220051","KEA-2699","2018/05/17 14:09:20","新北市板橋區田單街51號","121.48266","25.02791","6500100","板橋區"
"220014","829-TW","2018/05/17 14:09:10","新北市板橋區中山路二段90巷43弄17號","121.476943333333","25.0152583333333","6500100","板橋區"
"220016","830-TW","2018/05/17 14:09:26","新北市板橋區翠華街6巷46號","121.481573333333","25.0247083333333","6500100","板橋區"
"220045","831-TW","2018/05/17 14:09:16","新北市板橋區雙十路二段47巷4號","121.476223333333","25.026125","6500100","板橋區"
"220021","985-R7","2018/05/17 14:09:22","新北市板橋區民權路215號","121.457746666667","25.0151916666667","6500100","板橋區"
"220046","AAC-210","2018/05/17 14:09:25","新北市板橋區新海路135巷29號","121.460095","25.0228883333333","6500100","板橋區"
"220018","AAC-253","2018/05/17 14:09:21","新北市板橋區四川路一段285號","121.459178333333","25.001455","6500100","板橋區"
"235032","KEA-2873","2018/05/17 14:09:04","新北市中和區連勝街26巷6號","121.49824","24.998165","6500300","中和區"
