"lineid","car","time","location","longitude","latitude","cityid","cityname"
"234005","207-UY","2018/05/17 14:39:20","新北市永和區中正路520號","121.517251666667","25.0048483333333","6500400","永和區"
"234062","337-UY","2018/05/17 14:38:09","新北市永和區環河西路一段95巷2號","121.512213333333","25.0180983333333","6500400","永和區"
"234084","338-UY","2018/05/17 14:39:23","新北市中和區橋和路281巷1號","121.495558333333","25.0078483333333","6500400","永和區"
"234060","AAD-866","2018/05/17 14:39:27","新北市中和區安和路39號","121.509653333333","24.9948283333333","6500400","永和區"
"234040","862-TW","2018/05/17 14:39:19","新北市永和區安樂路348號","121.514506666667","25.006445","6500400","永和區"
"234025","9371-KE","2018/05/17 14:39:21","新北市永和區中和路503號","121.510686666667","25.0023466666667","6500400","永和區"
"248015","026-BX","2018/05/17 14:39:18","新北市五股區成泰路四段24-5號","121.453556666667","25.1067816666667","6501500","五股區"
"248007","095-VK","2018/05/17 14:39:08","新北市五股區四維路155巷2號","121.467671666667","25.0746116666667","6501500","五股區"
"248017","225-UY","2018/05/17 14:27:37","新北市五股區壟路16號","121.415488333333","25.085525","6501500","五股區"
"248013","261-SL","2018/05/17 14:39:17","新北市五股區五福路32巷7號","121.43439","25.0893616666667","6501500","五股區"
"248009","272-BY","2018/05/17 14:39:23","新北市五股區自強路164號","121.431991666667","25.069815","6501500","五股區"
"248003","677-BX","2018/05/17 14:39:29","新北市五股區成泰路二段38號","121.437093333333","25.0813666666667","6501500","五股區"
"248001","678-BX","2018/05/17 14:39:09","新北市五股區成泰路三段277號","121.447151666667","25.094135","6501500","五股區"
"248011","682-TV","2018/05/17 14:39:16","新北市五股區民義路一段84號","121.435953333333","25.0849866666667","6501500","五股區"
"234072","AAC-211","2018/05/17 14:39:27","新北市永和區環河東路二段54號","121.52326","25.0116383333333","6500400","永和區"
"234001","AAC-295","2018/05/17 14:39:08","新北市永和區中正路620號","121.516941666667","25.0078283333333","6500400","永和區"
"243005","AAD-798","2018/05/17 14:34:57","新北市泰山區應化街7號","121.423868333333","25.0437466666667","6501600","泰山區"
"243001","297-R6","2018/05/17 14:39:11","新北市泰山區泰林路二段164巷31號","121.434426666667","25.0611516666667","6501600","泰山區"
"243008","380-SR","2018/05/17 14:39:12","新北市泰山區德安街4號","121.419105","25.0320483333333","6501600","泰山區"
"243007","421-VK","2018/05/17 14:39:08","新北市泰山區明志路二段214巷16弄2號","121.426876666667","25.0490666666667","6501600","泰山區"
"243003","KEA-2215","2018/05/17 14:39:23","新北市泰山區明志路三段204巷10弄15號","121.422916666667","25.0387683333333","6501600","泰山區"
"243002","KEA-2216","2018/05/17 14:39:21","新北市泰山區明志路二段136巷15號","121.426331666667","25.0517266666667","6501600","泰山區"
"243004","646-TV","2018/05/17 14:39:17","新北市泰山區明志路一段289號","121.431973333333","25.0595933333333","6501600","泰山區"
"243006","680-BX","2018/05/17 14:39:21","新北市泰山區泰林路二段33-8號","121.435183333333","25.056505","6501600","泰山區"
"231005","001-UM","2018/05/17 14:39:19","新北市新店區北新路三段119號","121.541391666667","24.9824716666667","6500600","新店區"
"231002","002-UM","2018/05/17 14:39:13","新北市新店區中正路420號","121.534331666667","24.9779116666667","6500600","新店區"
"231027","0293-UT","2018/05/17 14:39:20","新北市新店區中正路102巷8弄2號","121.543341666667","24.9710466666667","6500600","新店區"
"231028","046-UY","2018/05/17 14:39:28","新北市新店區安德街80號","121.51009","24.9615133333333","6500600","新店區"
"231001","047-UY","2018/05/17 14:39:09","新北市新店區中正路30號","121.545075","24.9697733333333","6500600","新店區"
"231021","108-UY","2018/05/17 14:39:22","新北市新店區新烏路二段9號","121.544488333333","24.9292766666667","6500600","新店區"
"231011","187-VK","2018/05/17 14:39:28","新北市新店區中興路二段236巷7號","121.547861666667","24.9760616666667","6500600","新店區"
"231023","KEA-2219","2018/05/17 14:39:10","新北市新店區檳榔路21號","121.541606666667","24.9637883333333","6500600","新店區"
"231003","268-BY","2018/05/17 14:39:14","新北市新店區中正路2號","121.545901666667","24.9693916666667","6500600","新店區"
"231018","278-BY","2018/05/17 14:39:24","新北市新店區中央二街1號","121.529313333333","24.973055","6500600","新店區"
"231017","AAD-862","2018/05/17 14:39:16","新北市新店區北宜路三段221號","121.592406666667","24.9532566666667","6500600","新店區"
"231030","355-BY","2018/05/17 14:39:25","新北市新店區安民街120號","121.516396666667","24.96883","6500600","新店區"
"231038","3712-VJ","2018/05/17 14:39:28","新北市新店區安康路一段323-3號","121.521396666667","24.9638516666667","6500600","新店區"
"231037","4716-K9","2018/05/17 14:39:15","新北市新店區柴埕路2-1號","121.515003333333","24.965975","6500600","新店區"
"231036","512-UM","2018/05/17 14:39:19","新北市新店區安祥路106巷128號","121.47356","24.9584866666667","6500600","新店區"
"231013","513-UM","2018/05/17 14:39:11","新北市新店區明德路38號","121.541446666667","24.977895","6500600","新店區"
"231034","616-UM","2018/05/17 14:39:16","新北市新店區黎明路51巷2號","121.50207","24.9488516666667","6500600","新店區"
"231035","719-UM","2018/05/17 14:39:16","新北市新店區安康路二段58巷9號","121.513398333333","24.964035","6500600","新店區"
"231029","897-TW","2018/05/17 14:39:23","新北市新店區安康路三段423號","121.483231666667","24.9499","6500600","新店區"
"231006","898-TW","2018/05/17 14:39:27","新北市新店區北宜路二段133號","121.551103333333","24.9530033333333","6500600","新店區"
"231004","899-TW","2018/05/17 14:39:13","新北市新店區中正路263-3號","121.538373333333","24.9737666666667","6500600","新店區"
"231024","AKT-0513","2018/05/17 14:39:22","新北市新店區新生街5巷14號","121.539765","24.9656966666667","6500600","新店區"
"235028","005-UY","2018/05/17 14:39:14","新北市中和區南山路81巷21號","121.502555","24.9981966666667","6500300","中和區"
"235027","006-UY","2018/05/17 14:39:28","新北市中和區連城路174巷40號","121.494406666667","25.0004833333333","6500300","中和區"
"235011","031-BX","2018/05/17 14:39:19","新北市中和區興南路一段86號","121.509933333333","24.9892916666667","6500300","中和區"
"235020","096-UM","2018/05/17 14:39:26","新北市中和區員山路581巷31弄1-13號","121.477855","25.0097516666667","6500300","中和區"
"235003","097-UM","2018/05/17 14:39:28","新北市中和區安樂路101-3號","121.513513333333","24.99512","6500300","中和區"
"235004","150-BY","2018/05/17 14:39:29","新北市中和區安平路38號","121.51","24.9949933333333","6500300","中和區"
"235022","151-BY","2018/05/17 14:39:30","新北市中和區員山路132巷1號","121.481456666667","24.9962983333333","6500300","中和區"
"235019","183-VK","2018/05/17 14:39:20","新北市中和區民生街12巷1號","121.470523333333","25.0055816666667","6500300","中和區"
"235002","185-VK","2018/05/17 14:39:17","新北市中和區自強路27巷7號","121.521053333333","24.993105","6500300","中和區"
"235013","186-VK","2018/05/17 14:39:12","新北市中和區安平路10號","121.509181666667","24.9940633333333","6500300","中和區"
"235031","255-BX","2018/05/17 14:39:12","新北市中和區新生街186巷1弄27號","121.483431666667","24.9987216666667","6500300","中和區"
"235008","293-VK","2018/05/17 14:39:20","新北市中和區興南路一段103號","121.509465","24.9883266666667","6500300","中和區"
"235036","301-VK","2018/05/17 14:39:16","新北市中和區保平路300號","121.507818333333","25.004555","6500300","中和區"
"235007","352-BY","2018/05/17 14:39:11","新北市中和區景平路526號","121.502923333333","24.9944766666667","6500300","中和區"
"235025","378-QA","2018/05/17 14:39:29","新北市中和區民安街9號","121.48077","25.0008183333333","6500300","中和區"
"235014","4979-A6","2018/05/17 14:39:27","新北市中和區員山路36巷13號","121.48446","24.99124","6500300","中和區"
"235006","551-UM","2018/05/17 14:39:25","新北市中和區中和路260-1號","121.508083333333","24.9994516666667","6500300","中和區"
"235034","558-UM","2018/05/17 14:39:15","新北市中和區景平路541號","121.498668333333","24.9993866666667","6500300","中和區"
"235009","565-BX","2018/05/17 14:39:26","新北市中和區景平路320號","121.512255","24.9927566666667","6500300","中和區"
"235018","640-BX","2018/05/17 14:39:12","新北市中和區莒光路2號","121.47171","25.0046483333333","6500300","中和區"
"235024","647-TV","2018/05/17 14:39:28","新北市中和區新生街112巷18號","121.482538333333","25.00293","6500300","中和區"
"235010","733-UM","2018/05/17 14:39:20","新北市中和區景新街487號","121.513646666667","24.9874483333333","6500300","中和區"
"235035","783-BX","2018/05/17 14:39:23","新北市中和區建一路245號","121.488145","24.99704","6500300","中和區"
"235026","800-TS","2018/05/17 14:39:14","新北市中和區中山路二段526巷25弄1號","121.48569","25.0057083333333","6500300","中和區"
"235021","801-TS","2018/05/17 14:39:19","新北市中和區員山路296號","121.481356666667","25.0026116666667","6500300","中和區"
"235005","802-TS","2018/05/17 14:39:21","新北市中和區宜安路142號","121.509586666667","24.99847","6500300","中和區"
"235016","805-TS","2018/05/17 14:39:21","新北市中和區華新街204號","121.506586666667","24.9819766666667","6500300","中和區"
"235012","896-TW","2018/05/17 14:39:18","新北市中和區四維街36號","121.51254","24.9870383333333","6500300","中和區"
"235017","900-TW","2018/05/17 14:39:29","新北市中和區國光街142巷8號","121.468276666667","25.0017133333333","6500300","中和區"
"235030","911-UM","2018/05/17 14:39:25","新北市中和區景新街135號","121.505828333333","24.9971283333333","6500300","中和區"
"235015","157-BY","2018/05/17 14:39:11","新北市中和區中興街180巷50弄1號","121.498971666667","24.9888916666667","6500300","中和區"
"235001","AAC-213","2018/05/17 14:39:15","新北市中和區秀朗路三段50巷2-1號","121.525823333333","24.9954616666667","6500300","中和區"
"235023","AAC-215","2018/05/17 14:39:26","新北市中和區圓通路262號","121.493151666667","24.99091","6500300","中和區"
"220022","015-TV","2018/05/17 14:39:10","新北市板橋區府中路29-2號","121.45858","25.0080216666667","6500100","板橋區"
"220013","072-UY","2018/05/17 14:39:20","新北市板橋區國泰街111巷4-2號","121.465718333333","25.0062116666667","6500100","板橋區"
"220034","073-UY","2018/05/17 14:39:23","新北市板橋區中正路216巷150弄11號","121.46083","25.0189333333333","6500100","板橋區"
"220105","075-UY","2018/05/17 14:39:18","新北市板橋區文化路二段382號","121.473435","25.0311233333333","6500100","板橋區"
"220017","AAD-861","2018/05/17 14:39:26","新北市板橋區稚暉街1號","121.455936666667","25.004595","6500100","板橋區"
"247023","893-R6","2018/05/17 14:39:26","新北市蘆洲區中山二路222巷11號","121.46946","25.08021","6501400","蘆洲區"
"247013","546-UM","2018/05/17 14:39:20","新北市蘆洲區中正路16號","121.471478333333","25.0819416666667","6501400","蘆洲區"
"247021","500-BY","2018/05/17 14:39:25","新北市蘆洲區三民路128巷16號","121.470945","25.087835","6501400","蘆洲區"
"247009","341-TH","2018/05/17 14:39:28","新北市蘆洲區信義路222巷33號","121.47999","25.0854283333333","6501400","蘆洲區"
"247011","339-TH","2018/05/17 14:39:19","新北市蘆洲區集賢路224巷28號","121.481483333333","25.087405","6501400","蘆洲區"
"247003","337-TH","2018/05/17 14:39:13","新北市蘆洲區長安街267巷8弄1號","121.45815","25.0836133333333","6501400","蘆洲區"
"247005","336-TH","2018/05/17 14:39:15","新北市蘆洲區長安街22巷31弄18號","121.464155","25.0804816666667","6501400","蘆洲區"
"247017","057-VK","2018/05/17 14:39:16","新北市蘆洲區民族路408巷4號","121.474766666667","25.0916316666667","6501400","蘆洲區"
"247007","056-VK","2018/05/17 14:39:21","新北市蘆洲區信義路5號","121.473721666667","25.0791916666667","6501400","蘆洲區"
"247015","007-UY","2018/05/17 14:39:10","新北市蘆洲區光華路73巷26號","121.468465","25.0819983333333","6501400","蘆洲區"
"247001","002-UY","2018/05/17 14:39:12","新北市蘆洲區永樂街38巷45弄20號","121.457358333333","25.09016","6501400","蘆洲區"
"247019","001-UY","2018/05/17 14:39:10","新北市蘆洲區民權路176號","121.471986666667","25.0902","6501400","蘆洲區"
"235029","251-BX","2018/05/17 14:39:21","新北市中和區永和路56號","121.49937","25.0043","6500300","中和區"
"228005","097-TW","2018/05/17 14:39:27","新北市貢寮區美豐里雞母嶺街6-6號","121.902061666667","25.0642416666667","6502600","貢寮區"
"253003","6232-TK","2018/05/17 14:39:23","新北市石門區尖子鹿86-1號","121.57751","25.2940316666667","6502200","石門區"
"253001","6251-TK","2018/05/17 14:39:14","新北市石門區崁子腳66-1號","121.53053","25.2828166666667","6502200","石門區"
"253002","637-UY","2018/05/17 14:39:14","新北市石門區七股14號","121.54736","25.2671083333333","6502200","石門區"
"253004","8270-PC","2018/05/17 14:39:21","新北市石門區內阿里磅14號","121.593285","25.2493616666667","6502200","石門區"
"207002","749-BX","2018/05/17 14:39:04","新北市萬里區溪底里香員林路17-1號","121.635295","25.1600066666667","6502800","萬里區"
"207001","662-BX","2018/05/17 14:39:18","新北市萬里區雙興里達天路20號","121.639713333333","25.1809166666667","6502800","萬里區"
"252005","AAC-283","2018/05/17 14:39:19","新北市三芝區埔坪里埔頭坑80號","121.51033","25.2543616666667","6502100","三芝區"
"236040","107-UM","2018/05/17 14:39:19","新北市土城區裕民路55巷1號","121.449041666667","24.988065","6501300","土城區"
"236074","166-UM","2018/05/17 14:39:13","新北市土城區頂埔街67號","121.417515","24.9594533333333","6501300","土城區"
"236029","253-BX","2018/05/17 14:39:28","新北市土城區中華路二段90號","121.43842","24.9749533333333","6501300","土城區"
"236024","269-VK","2018/05/17 14:39:19","新北市土城區忠義路47號","121.440501666667","24.9693166666667","6501300","土城區"
"236012","270-VK","2018/05/17 14:39:21","新北市土城區清水路217號","121.46064","24.9820183333333","6501300","土城區"
"236032","271-VK","2018/05/17 14:39:21","新北市土城區明德路一段291巷11弄3號","121.460575","24.9765683333333","6501300","土城區"
"236068","KEA-2877","2018/05/17 14:39:28","新北市土城區永豐路358-2號","121.47422","24.9750066666667","6501300","土城區"
"236017","401-BY","2018/05/17 14:39:07","新北市土城區明德路一段97號","121.465645","24.9829666666667","6501300","土城區"
"236057","912-UM","2018/05/17 14:39:14","新北市土城區中央路四段29號","121.423993333333","24.962245","6501300","土城區"
"236045","913-UM","2018/05/17 14:39:20","新北市土城區明德路一段97號","121.465601666667","24.982885","6501300","土城區"
"236060","915-UM","2018/05/17 14:39:14","新北市土城區延和路177巷23號","121.470278333333","24.9911","6501300","土城區"
"236054","AAC-216","2018/05/17 14:39:11","新北市土城區中華路一段36號","121.446405","24.9891783333333","6501300","土城區"
"238012","303-VK","2018/05/17 14:39:30","新北市樹林區育德街78號","121.387436666667","24.96849","6500700","樹林區"
"220027","145-BY","2018/05/17 14:39:19","新北市板橋區民權路202巷16弄1號","121.46073","25.0162316666667","6500100","板橋區"
"220030","610-BX","2018/05/17 14:39:24","新北市板橋區金門街96-2號","121.433113333333","24.99234","6500100","板橋區"
"220050","245-BX","2018/05/17 14:39:09","新北市板橋區莊敬路231號","121.472606666667","25.0214933333333","6500100","板橋區"
"220004","276-BY","2018/05/17 14:39:26","新北市板橋區國慶路49巷17號","121.459363333333","24.9962266666667","6500100","板橋區"
"220020","277-BY","2018/05/17 14:39:12","新北市板橋區金門街253巷15號","121.432911666667","24.988505","6500100","板橋區"
"220038","280-UM","2018/05/17 14:39:23","新北市板橋區幸福路70巷23號","121.460076666667","25.0208133333333","6500100","板橋區"
"220019","283-VK","2018/05/17 14:39:24","新北市板橋區信義路279巷21號","121.464361666667","24.9902516666667","6500100","板橋區"
"220043","285-UM","2018/05/17 14:39:28","新北市板橋區銘傳街47號","121.469613333333","25.03169","6500100","板橋區"
"220001","285-VK","2018/05/17 14:39:20","新北市板橋區懷仁街77巷10號","121.477523333333","25.018745","6500100","板橋區"
"220031","286-VK","2018/05/17 14:39:19","新北市板橋區龍興街65巷23號","121.44294","25.0016516666667","6500100","板橋區"
"220029","287-VK","2018/05/17 14:39:09","新北市板橋區大觀路一段29巷131弄33-16號","121.450366666667","25.0041816666667","6500100","板橋區"
"220039","288-VK","2018/05/17 14:39:10","新北市板橋區長江路一段48巷9號","121.459176666667","25.028525","6500100","板橋區"
"220009","293-UM","2018/05/17 14:39:25","新北市板橋區漢生東路113巷21號","121.468116666667","25.0155216666667","6500100","板橋區"
"220032","296-UM","2018/05/17 14:39:23","新北市板橋區溪崑二街114號","121.426366666667","24.9884416666667","6500100","板橋區"
"220023","303-R5","2018/05/17 14:39:27","新北市板橋區南雅西路二段301巷50弄10-2號","121.452321666667","25.0171016666667","6500100","板橋區"
"220010","305-R5","2018/05/17 14:39:17","新北市板橋區三民路二段123巷31號","121.480583333333","25.0157116666667","6500100","板橋區"
"220041","307-R5","2018/05/17 14:39:17","新北市板橋區陽明街90號","121.464383333333","25.0231116666667","6500100","板橋區"
"220047","317-R6","2018/05/17 14:39:08","新北市板橋區四維路269巷62號","121.460791666667","25.02729","6500100","板橋區"
"220012","486-VK","2018/05/17 14:39:24","新北市板橋區民權路2號","121.463411666667","25.0095633333333","6500100","板橋區"
"220037","491-VK","2018/05/17 14:39:21","新北市板橋區雙十路二段72號","121.475238333333","25.0279683333333","6500100","板橋區"
"220104","560-BX","2018/05/17 14:39:21","新北市板橋區金華街85巷42號","121.45916","25.0213233333333","6500100","板橋區"
"220052","561-BX","2018/05/17 14:39:09","新北市板橋區文化路一段339號","121.466465","25.0205883333333","6500100","板橋區"
"220028","568-UM","2018/05/17 14:39:29","新北市板橋區大觀路二段37巷39號","121.448691666667","25.0026883333333","6500100","板橋區"
"220011","609-BX","2018/05/17 14:39:26","新北市板橋區三民路二段113號","121.479263333333","25.0158433333333","6500100","板橋區"
"220003","630-UY","2018/05/17 14:39:24","新北市板橋區國慶路167巷6號","121.462098333333","24.9966066666667","6500100","板橋區"
"220040","637-BX","2018/05/17 14:39:15","新北市板橋區文聖街149巷42號","121.480101666667","25.028975","6500100","板橋區"
"220005","686-BX","2018/05/17 14:39:24","新北市板橋區和平路安樂巷1弄3號","121.461693333333","24.9939333333333","6500100","板橋區"
"220025","687-BX","2018/05/17 14:39:27","新北市板橋區僑中二街88巷1號","121.446428333333","25.0092683333333","6500100","板橋區"
"220042","689-BX","2018/05/17 14:39:09","新北市板橋區新海路360號","121.459735","25.0250183333333","6500100","板橋區"
"220002","741-BX","2018/05/17 14:39:17","新北市板橋區忠孝路241號","121.466231666667","25.0029916666667","6500100","板橋區"
"220051","KEA-2699","2018/05/17 14:39:25","新北市板橋區松柏街36巷19號","121.475418333333","25.02958","6500100","板橋區"
"220014","829-TW","2018/05/17 14:39:29","新北市板橋區長安街255巷2號","121.47294","25.0103483333333","6500100","板橋區"
"220016","830-TW","2018/05/17 14:39:26","新北市板橋區中山路二段416巷1弄4-1號","121.483388333333","25.020795","6500100","板橋區"
"220045","831-TW","2018/05/17 14:39:16","新北市板橋區民生路二段234巷41號","121.469376666667","25.0226383333333","6500100","板橋區"
"220021","985-R7","2018/05/17 14:39:17","新北市板橋區瑞安街19號","121.455193333333","25.0231033333333","6500100","板橋區"
"220046","AAC-210","2018/05/17 14:39:26","新北市板橋區漢生西路89巷2弄2號","121.46192","25.0193533333333","6500100","板橋區"
"220018","AAC-253","2018/05/17 14:39:21","新北市板橋區館前東路65號","121.464106666667","25.0078383333333","6500100","板橋區"
"235032","KEA-2873","2018/05/17 14:39:04","新北市中和區中山路二段136巷3弄8號","121.501158333333","25.003845","6500300","中和區"
