"lineid","car","time","location","longitude","latitude","cityid","cityname"
"243014","680-BX","2018/05/17 15:31:10","新北市泰山區黎明路25號","121.422053333333","25.0606966666667","6501600","泰山區"
"231046","107-UY","2018/05/17 15:49:28","新北市新店區安華路28-1號","121.519756666667","24.9610266666667","6500600","新店區"
"231021","108-UY","2018/05/17 15:49:22","新北市新店區永興路102-4號","121.545831666667","24.93026","6500600","新店區"
"231011","187-VK","2018/05/17 15:49:28","新北市新店區中興路三段160號","121.544446666667","24.9805966666667","6500600","新店區"
"231026","188-VK","2018/05/17 15:49:24","新北市新店區民生路45號","121.532233333333","24.9859133333333","6500600","新店區"
"231003","268-BY","2018/05/17 15:49:34","新北市新店區寶興路60巷3號","121.549885","24.9718416666667","6500600","新店區"
"231018","278-BY","2018/05/17 15:49:24","新北市新店區中正路663巷1弄2號","121.532981666667","24.9900416666667","6500600","新店區"
"231017","AAD-862","2018/05/17 15:49:16","新北市新店區中華路83巷4弄20號","121.538273333333","24.9689266666667","6500600","新店區"
"231030","355-BY","2018/05/17 15:49:25","新北市新店區永安街60號","121.518915","24.98694","6500600","新店區"
"231038","3712-VJ","2018/05/17 15:49:27","新北市新店區安德街167號","121.508498333333","24.95924","6500600","新店區"
"231037","4716-K9","2018/05/17 15:49:15","新北市新店區安興路69號","121.516161666667","24.975015","6500600","新店區"
"231036","512-UM","2018/05/17 15:49:19","新北市新店區薏仁坑路自強巷1號","121.497051666667","24.9580083333333","6500600","新店區"
"231013","513-UM","2018/05/17 15:49:29","新北市新店區永業路81巷1弄1號","121.529708333333","24.9493566666667","6500600","新店區"
"231034","616-UM","2018/05/17 15:49:16","新北市新店區玫瑰路57巷15號","121.496275","24.9462883333333","6500600","新店區"
"231035","719-UM","2018/05/17 15:49:16","新北市新店區安民街379巷26號","121.515301666667","24.9763283333333","6500600","新店區"
"231031","720-UM","2018/05/17 15:49:15","新北市新店區雙城路155號","121.495268333333","24.944435","6500600","新店區"
"231029","897-TW","2018/05/17 15:49:23","新北市新店區薏仁坑路自強巷1號","121.497756666667","24.9576683333333","6500600","新店區"
"241011","013-R5","2018/05/17 15:49:20","新北市三重區文化北路246號","121.4976","25.0699183333333","6500200","三重區"
"241028","022-UY","2018/05/17 15:49:28","新北市三重區中正南路58號","121.494093333333","25.059675","6500200","三重區"
"241015","062-VK","2018/05/17 15:49:16","新北市三重區重新路四段121號","121.48515","25.052065","6500200","三重區"
"241017","063-VK","2018/05/17 15:49:25","新北市三重區大仁街38號","121.491648333333","25.0643116666667","6500200","三重區"
"241024","065-VK","2018/05/17 15:49:24","新北市三重區名源街29巷2號","121.48013","25.0606016666667","6500200","三重區"
"241026","066-VK","2018/05/17 15:49:25","新北市三重區光興街107號","121.497035","25.0599183333333","6500200","三重區"
"241013","265-UM","2018/05/17 15:49:25","新北市三重區六張街30號","121.495226666667","25.0705733333333","6500200","三重區"
"241016","266-UM","2018/05/17 15:49:25","新北市三重區重新路四段121號","121.485173333333","25.0521183333333","6500200","三重區"
"241022","267-UM","2018/05/17 15:49:30","新北市三重區重新路四段121號","121.484786666667","25.051285","6500200","三重區"
"241025","271-UM","2018/05/17 15:49:21","新北市三重區捷運路36號","121.482836666667","25.0552233333333","6500200","三重區"
"241007","398-BY","2018/05/17 15:49:30","新北市三重區重新路四段121號","121.484375","25.0521066666667","6500200","三重區"
"241014","543-UM","2018/05/17 15:49:28","新北市三重區重新路四段121號","121.485161666667","25.0518583333333","6500200","三重區"
"241023","545-UM","2018/05/17 15:49:32","新北市三重區重新路四段121號","121.484478333333","25.0521483333333","6500200","三重區"
"241001","547-UM","2018/05/17 15:49:15","新北市三重區重新路四段121號","121.484621666667","25.0522716666667","6500200","三重區"
"241006","AAD-863","2018/05/17 15:49:24","新北市三重區重新路三段147號","121.490118333333","25.05896","6500200","三重區"
"241005","887-TS","2018/05/17 15:49:22","新北市三重區仁義街91號","121.500545","25.0799266666667","6500200","三重區"
"241012","941-UM","2018/05/17 15:49:26","新北市三重區文化北路132巷1號","121.498438333333","25.06688","6500200","三重區"
"241029","942-UM","2018/05/17 15:49:30","新北市三重區大同南路242號","121.496911666667","25.0559433333333","6500200","三重區"
"241033","AAC-255","2018/05/17 15:49:23","新北市三重區光復路一段70號","121.472006666667","25.0492783333333","6500200","三重區"
"235026","800-TS","2018/05/17 15:49:34","新北市中和區橋和路97號","121.490593333333","25.005555","6500300","中和區"
"235023","AAC-215","2018/05/17 15:49:25","新北市中和區員山路36巷1號","121.482596666667","24.990445","6500300","中和區"
"224007","275-VK","2018/05/17 15:49:19","新北市瑞芳區大寮路356-1號","121.784641666667","25.1032983333333","6501200","瑞芳區"
"227010","642-TC","2018/05/17 15:49:18","新北市雙溪區雙溪里中正路50號","121.865258333333","25.0396016666667","6502500","雙溪區"
"227004","400-TW","2018/05/17 15:49:24","新北市雙溪區平林里外平林44號","121.852923333333","25.0363416666667","6502500","雙溪區"
"236074","166-UM","2018/05/17 15:49:33","新北市土城區中州路30巷35號","121.413123333333","24.9592316666667","6501300","土城區"
"236024","269-VK","2018/05/17 15:49:32","新北市土城區中央路一段211巷6弄13號","121.446681666667","24.9859683333333","6501300","土城區"
"236012","270-VK","2018/05/17 15:49:21","新北市土城區廣明街88號","121.454783333333","24.994215","6501300","土城區"
"236068","KEA-2877","2018/05/17 15:49:20","新北市土城區金安街5號","121.421436666667","24.9640333333333","6501300","土城區"
"236017","401-BY","2018/05/17 15:49:34","新北市土城區延吉街23巷17號","121.47396","24.9874016666667","6501300","土城區"
"236057","912-UM","2018/05/17 15:49:34","新北市土城區中央路一段269-3號","121.444905","24.98516","6501300","土城區"
"236045","913-UM","2018/05/17 15:49:19","新北市土城區金城路三段13號","121.464815","24.9863033333333","6501300","土城區"
"236054","AAC-216","2018/05/17 15:49:31","新北市土城區中華路一段228號","121.439986666667","24.980195","6501300","土城區"
"238002","755-BX","2018/05/17 15:49:29","新北市樹林區樹德街121號","121.419661666667","24.9926016666667","6500700","樹林區"
"238010","601-UM","2018/05/17 15:49:24","新北市樹林區龍興街30號","121.40296","25.015905","6500700","樹林區"
"238006","599-UM","2018/05/17 15:49:25","新北市樹林區忠孝街101巷2弄2號","121.424715","24.9809983333333","6500700","樹林區"
"238005","571-TV","2018/05/17 15:49:17","新北市樹林區博愛街196號","121.424833333333","24.989645","6500700","樹林區"
"238011","5061-A6","2018/05/17 15:49:16","新北市樹林區山佳街57-1號","121.392943333333","24.97248","6500700","樹林區"
"238008","KEA-2217","2018/05/17 15:49:25","新北市樹林區柑園街二段143號","121.382555","24.9545933333333","6500700","樹林區"
"238009","KEA-2213","2018/05/17 15:49:20","新北市樹林區太順街86巷26號","121.416583333333","24.9788616666667","6500700","樹林區"
"238012","303-VK","2018/05/17 15:49:30","新北市樹林區保安二街163號","121.422121666667","24.9956283333333","6500700","樹林區"
"238001","283-BY","2018/05/17 15:49:25","新北市樹林區保安街二段167巷15號","121.41435","25.0028","6500700","樹林區"
"238001","282-BY","2018/05/17 15:49:14","新北市樹林區千歲街6巷19號","121.425705","24.9951683333333","6500700","樹林區"
"238007","268-VK","2018/05/17 15:49:21","新北市樹林區三俊街213-1號","121.420896666667","25.0151983333333","6500700","樹林區"
"238013","172-UY","2018/05/17 15:49:22","新北市樹林區佳園路一段27號","121.392886666667","24.9710683333333","6500700","樹林區"
"238003","169-UY","2018/05/17 15:49:34","新北市樹林區啟智街173巷10號","121.416058333333","24.987215","6500700","樹林區"
"220047","317-R6","2018/05/17 15:48:48","新北市林口區太平里180號","121.368003333333","25.134625","6500100","板橋區"
