"lineid","car","time","location","longitude","latitude","cityid","cityname"
"249005","172-UM","2018/05/17 17:19:06","新北市五股區凌雲路三段130號","121.417851666667","25.1287366666667","6502300","八里區"
"249001","173-UM","2018/05/17 17:19:09","新北市八里區中華路二段165巷3號","121.40767","25.1508733333333","6502300","八里區"
"249004","303-UY","2018/05/17 17:19:02","新北市八里區文化街39號","121.423453333333","25.1598383333333","6502300","八里區"
"249002","305-UY","2018/05/17 17:19:11","新北市八里區烏山頭20-1號","121.444516666667","25.14248","6502300","八里區"
"249003","593-UM","2018/05/17 17:19:09","新北市八里區中山路二段453號","121.396551666667","25.1457083333333","6502300","八里區"
"244013","069-UM","2018/05/17 17:19:15","新北市林口區粉寮69號","121.40511","25.0907966666667","6501700","林口區"
"244007","080-UY","2018/05/17 17:19:06","新北市林口區中華路96號","121.384796666667","25.0905166666667","6501700","林口區"
"244019","403-UM","2018/05/17 17:18:55","新北市林口區公園路223巷11號","121.373365","25.07456","6501700","林口區"
"244009","410-SL","2018/05/17 17:19:00","新北市林口區文化北路二段550巷20弄37號","121.378003333333","25.0911266666667","6501700","林口區"
"244023","483-VK","2018/05/17 17:18:56","新北市林口區隆林街34號","121.388083333333","25.0754483333333","6501700","林口區"
"244017","485-VK","2018/05/17 17:19:10","新北市林口區粉寮69號","121.40499","25.0908916666667","6501700","林口區"
"244011","657-BX","2018/05/17 17:18:58","新北市林口區粉寮路二段30號","121.403065","25.086495","6501700","林口區"
"244025","837-TS","2018/05/17 17:19:02","新北市林口區文化三路一段469號","121.36898","25.0751","6501700","林口區"
"244021","838-TS","2018/05/17 17:18:59","新北市林口區粉寮路56-6號","121.40683","25.0884766666667","6501700","林口區"
"222002","659-BX","2018/05/17 17:19:12","新北市深坑區深南路88巷1號","121.621198333333","25.011335","6501800","深坑區"
"231046","107-UY","2018/05/17 17:19:08","新北市新店區直潭路92號","121.53088","24.9376133333333","6500600","新店區"
"241011","013-R5","2018/05/17 17:19:01","新北市三重區河邊北街100巷29號","121.502713333333","25.0702233333333","6500200","三重區"
"241028","022-UY","2018/05/17 17:19:08","新北市三重區中正南路57巷3號","121.493855","25.059285","6500200","三重區"
"241009","060-VK","2018/05/17 17:19:05","新北市三重區仁愛街602號","121.484048333333","25.0809633333333","6500200","三重區"
"241015","062-VK","2018/05/17 17:18:56","新北市三重區三和路二段1號","121.501805","25.0665116666667","6500200","三重區"
"241017","063-VK","2018/05/17 17:19:05","新北市三重區大同北路83號","121.494933333333","25.063525","6500200","三重區"
"241024","065-VK","2018/05/17 17:19:04","新北市三重區中正北路193巷21弄35號","121.478318333333","25.0707783333333","6500200","三重區"
"241026","066-VK","2018/05/17 17:19:05","新北市三重區福裕街18號","121.499628333333","25.06156","6500200","三重區"
"241002","090-VK","2018/05/17 17:19:03","新北市三重區自強路四段107-1號","121.491733333333","25.080025","6500200","三重區"
"241003","091-VK","2018/05/17 17:19:00","新北市三重區富福街55號","121.491885","25.084385","6500200","三重區"
"241013","265-UM","2018/05/17 17:19:05","新北市三重區仁昌街30號","121.496563333333","25.0740783333333","6500200","三重區"
"241016","266-UM","2018/05/17 17:18:44","新北市三重區中正北路25巷25弄3號","121.493331666667","25.0626183333333","6500200","三重區"
"241022","267-UM","2018/05/17 17:19:09","新北市三重區重陽路二段34巷37號","121.485631666667","25.063985","6500200","三重區"
"241018","268-UM","2018/05/17 17:19:03","新北市三重區安慶街132號","121.494811666667","25.0688066666667","6500200","三重區"
"241032","269-UM","2018/05/17 17:19:18","新北市三重區興華街141號","121.48286","25.06008","6500200","三重區"
"241025","271-UM","2018/05/17 17:19:01","新北市三重區中正北路311號","121.47406","25.0714933333333","6500200","三重區"
"241007","398-BY","2018/05/17 17:19:10","新北市三重區中央南路四段145巷27號","121.484973333333","25.0782933333333","6500200","三重區"
"241008","413-TH","2018/05/17 17:19:11","新北市三重區永福街72巷25號","121.479821666667","25.076555","6500200","三重區"
"241004","475-VK","2018/05/17 17:18:56","新北市三重區五華街110巷17弄1號","121.49097","25.0822933333333","6500200","三重區"
"241020","478-VK","2018/05/17 17:19:13","新北市三重區自強路三段56號","121.4868","25.0730116666667","6500200","三重區"
"241014","543-UM","2018/05/17 17:19:08","新北市三重區長榮路3號","121.500175","25.0683783333333","6500200","三重區"
"241023","545-UM","2018/05/17 17:19:11","新北市三重區三民街195號","121.482048333333","25.0656966666667","6500200","三重區"
"241001","547-UM","2018/05/17 17:19:14","新北市三重區仁愛街367號","121.491721666667","25.0801166666667","6500200","三重區"
"241019","KEA-2593","2018/05/17 17:19:11","新北市三重區自強路二段74巷1號","121.488315","25.070165","6500200","三重區"
"241030","743-BX","2018/05/17 17:19:13","新北市三重區環河南路254巷88號","121.488818333333","25.0517616666667","6500200","三重區"
"241005","887-TS","2018/05/17 17:19:02","新北市三重區仁愛街715號","121.482041666667","25.0806266666667","6500200","三重區"
"241012","941-UM","2018/05/17 17:19:06","新北市三重區龍門路274巷45號","121.501246666667","25.0754866666667","6500200","三重區"
"241029","942-UM","2018/05/17 17:19:10","新北市三重區重新路四段65號","121.487351666667","25.05707","6500200","三重區"
"241033","AAC-255","2018/05/17 17:19:02","新北市三重區中興北街195號","121.469023333333","25.0572483333333","6500200","三重區"
"247024","893-R6","2018/05/17 17:19:08","新北市蘆洲區長榮路329號","121.459693333333","25.0871416666667","6501400","蘆洲區"
"247014","546-UM","2018/05/17 17:19:06","新北市蘆洲區中正路74號","121.470346666667","25.0833216666667","6501400","蘆洲區"
"247022","500-BY","2018/05/17 17:19:09","新北市蘆洲區三民路128巷66號","121.470335","25.0889916666667","6501400","蘆洲區"
"247010","341-TH","2018/05/17 17:19:12","新北市蘆洲區中山一路120巷7弄24號","121.47733","25.0820716666667","6501400","蘆洲區"
"247012","339-TH","2018/05/17 17:19:01","新北市蘆洲區信義路319巷10弄4號","121.477773333333","25.0864233333333","6501400","蘆洲區"
"247004","337-TH","2018/05/17 17:19:07","新北市蘆洲區中原路79號","121.458273333333","25.0818283333333","6501400","蘆洲區"
"247006","336-TH","2018/05/17 17:19:01","新北市蘆洲區長安街73巷23號","121.462155","25.07928","6501400","蘆洲區"
"247018","057-VK","2018/05/17 17:19:12","新北市蘆洲區民權路82巷1弄10號","121.474578333333","25.0882033333333","6501400","蘆洲區"
"247008","056-VK","2018/05/17 17:18:59","新北市蘆洲區永安北路一段72巷31號","121.476226666667","25.0769366666667","6501400","蘆洲區"
"247016","007-UY","2018/05/17 17:19:08","新北市蘆洲區正和街96巷28號","121.46773","25.0814016666667","6501400","蘆洲區"
"247002","002-UY","2018/05/17 17:19:15","新北市蘆洲區永樂街38巷33弄54號","121.456601666667","25.0899666666667","6501400","蘆洲區"
"247020","001-UY","2018/05/17 17:19:08","新北市蘆洲區仁愛街23號","121.472341666667","25.0925066666667","6501400","蘆洲區"
"228003","097-TW","2018/05/17 17:19:06","新北市貢寮區福隆里興隆街21-1號","121.94358","25.0165966666667","6502600","貢寮區"
"228001","212-TW","2018/05/17 17:19:00","新北市貢寮區仁理村尖山腳街18-3號","121.925521666667","25.04831","6502600","貢寮區"
"228002","585-TW","2018/05/17 17:19:07","新北市貢寮區雙玉里下雙溪街24號","121.922023333333","25.0098316666667","6502600","貢寮區"
"224006","676-BX","2018/05/17 17:19:02","新北市瑞芳區傑魚坑路314號","121.786831666667","25.105355","6501200","瑞芳區"
"224008","285-BY","2018/05/17 17:18:58","新北市瑞芳區侯硐路154號","121.826893333333","25.0845216666667","6501200","瑞芳區"
"224007","273-VK","2018/05/17 17:19:09","新北市瑞芳區汽車路45號","121.844371666667","25.1096516666667","6501200","瑞芳區"
"224005","271-BY","2018/05/17 17:19:02","新北市瑞芳區鼻頭路247號","121.91266","25.1240166666667","6501200","瑞芳區"
"227010","642-TC","2018/05/17 17:19:18","新北市雙溪區三貂里定福路1-6號","121.84932","25.063805","6502500","雙溪區"
"227004","400-TW","2018/05/17 17:19:04","新北市雙溪區上林里內平林90號","121.827536666667","25.0274783333333","6502500","雙溪區"
"251014","008-UM","2018/05/17 17:19:03","新北市淡水區番子田120號","121.464186666667","25.22883","6501000","淡水區"
"251004","009-UM","2018/05/17 17:19:15","新北市淡水區中正東路一段123-1號","121.454375","25.159645","6501000","淡水區"
"251005","010-UM","2018/05/17 17:19:09","新北市淡水區鄧公路19-1號","121.450283333333","25.169945","6501000","淡水區"
"251013","KEA-2871","2018/05/17 17:18:54","新北市淡水區破瓦厝子3-3號","121.472316666667","25.19749","6501000","淡水區"
"251016","179-VK","2018/05/17 17:18:58","新北市淡水區埤島63號","121.461576666667","25.1904683333333","6501000","淡水區"
"251008","181-VK","2018/05/17 17:19:14","新北市淡水區大同路287號","121.46809","25.1424766666667","6501000","淡水區"
"251015","182-VK","2018/05/17 17:19:09","新北市淡水區中山路18-1號","121.444501666667","25.16929","6501000","淡水區"
"251010","413-VK","2018/05/17 17:19:00","新北市淡水區中正路二段206號","121.426235","25.1891066666667","6501000","淡水區"
"251012","441-VK","2018/05/17 17:18:55","新北市淡水區中山北路一段158號","121.44417","25.1778666666667","6501000","淡水區"
"251007","442-VK","2018/05/17 17:19:09","新北市淡水區民生路58號","121.462103333333","25.137875","6501000","淡水區"
"251006","561-UM","2018/05/17 17:19:12","新北市淡水區中山路192號","121.441801666667","25.174615","6501000","淡水區"
"251009","575-R6","2018/05/17 17:19:03","新北市淡水區三民街17號","121.438943333333","25.1717933333333","6501000","淡水區"
"251011","650-BX","2018/05/17 17:18:59","新北市淡水區坪頂路128號","121.465096666667","25.1611466666667","6501000","淡水區"
"251003","766-UM","2018/05/17 17:19:02","新北市淡水區中正路二段31號","121.419395","25.181535","6501000","淡水區"
"207003","550-UM","2018/05/17 17:18:45","新北市萬里區萬里里瑪鋉路302號","121.688406666667","25.1815983333333","6502800","萬里區"
"252002","178-VK","2018/05/17 17:18:55","新北市三芝區忠孝街1-14號","121.50559","25.2539783333333","6502100","三芝區"
"252001","292-VK","2018/05/17 17:19:15","新北市三芝區長安街119號","121.498045","25.2596566666667","6502100","三芝區"
"242058","986-R7","2018/05/17 17:19:01","新北市新莊區中正路400號","121.442005","25.034215","6500500","新莊區"
"242053","751-BX","2018/05/17 17:19:06","新北市新莊區環河路636-1號","121.4367","25.0107716666667","6500500","新莊區"
"242027","615-BX","2018/05/17 17:19:06","新北市新莊區中平路82巷36-2號","121.446416666667","25.04492","6500500","新莊區"
"242025","613-BX","2018/05/17 17:19:10","新北市新莊區中平路90巷4號","121.445151666667","25.0451383333333","6500500","新莊區"
"242029","612-BX","2018/05/17 17:19:03","新北市新莊區幸福路775號","121.446845","25.0490916666667","6500500","新莊區"
"242042","566-BX","2018/05/17 17:19:12","新北市新莊區中正路471號","121.441793333333","25.0338533333333","6500500","新莊區"
"242051","441-UM","2018/05/17 17:19:08","新北市新莊區瓊林南路42巷1-1號","121.435936666667","25.0177983333333","6500500","新莊區"
"242056","440-UM","2018/05/17 17:19:14","新北市新莊區中正路473-1號","121.442036666667","25.0330566666667","6500500","新莊區"
"242036","415-TV","2018/05/17 17:19:17","新北市新莊區中正路481號","121.441398333333","25.0338066666667","6500500","新莊區"
"242007","413-TV","2018/05/17 17:19:02","新北市新莊區新泰路488號","121.442556666667","25.0458","6500500","新莊區"
"242023","362-BY","2018/05/17 17:19:15","新北市新莊區新泰路421-7號","121.442583333333","25.045315","6500500","新莊區"
"242061","353-BY","2018/05/17 17:19:02","新北市新莊區新泰路357巷2號","121.442006666667","25.0414383333333","6500500","新莊區"
"242009","132-UY","2018/05/17 17:19:12","新北市新莊區中平路111號","121.44474","25.0464183333333","6500500","新莊區"
"242031","135-UY","2018/05/17 17:19:06","新北市新莊區三和路12-21號","121.442331666667","25.0379583333333","6500500","新莊區"
"242048","172-VK","2018/05/17 17:19:12","新北市新莊區龍安路249巷1號","121.419153333333","25.0212716666667","6500500","新莊區"
"242017","175-VK","2018/05/17 17:19:14","新北市新莊區中平路82巷7號","121.44523","25.04494","6500500","新莊區"
"242004","176-VK","2018/05/17 17:19:11","新北市新莊區新泰路421-7號","121.442581666667","25.04498","6500500","新莊區"
"242015","346-TH","2018/05/17 17:19:13","新北市新莊區新泰路421-7號","121.442475","25.0449383333333","6500500","新莊區"
"242021","347-TH","2018/05/17 17:19:11","新北市新莊區三和路12-8號","121.44199","25.036485","6500500","新莊區"
"242044","349-TH","2018/05/17 17:19:16","新北市新莊區中正路488號","121.43663","25.03309","6500500","新莊區"
"242019","350-TH","2018/05/17 17:19:14","新北市新莊區中環路二段392-1號","121.44248","25.045515","6500500","新莊區"
"242013","351-TH","2018/05/17 17:19:08","新北市新莊區新泰路421-7號","121.442558333333","25.0449583333333","6500500","新莊區"
"238023","601-UM","2018/05/17 17:19:04","新北市樹林區中正路433-2號","121.414888333333","25.008475","6500700","樹林區"
"238019","599-UM","2018/05/17 17:19:07","新北市樹林區八德街102號","121.420966666667","24.9801333333333","6500700","樹林區"
"238018","571-TV","2018/05/17 17:19:06","新北市樹林區樹中街3號","121.420695","24.986135","6500700","樹林區"
"238024","5061-A6","2018/05/17 17:19:16","新北市樹林區保安街一段48巷27號","121.426521666667","24.9952433333333","6500700","樹林區"
"238021","KEA-2217","2018/05/17 17:19:13","新北市樹林區西圳街一段165巷3號","121.395246666667","24.96234","6500700","樹林區"
"238022","KEA-2213","2018/05/17 17:19:00","新北市樹林區忠孝街19號","121.42342","24.9825616666667","6500700","樹林區"
"238025","303-VK","2018/05/17 17:19:11","新北市樹林區保安二街69號","121.424483333333","24.995005","6500700","樹林區"
"238017","283-BY","2018/05/17 17:19:05","新北市樹林區光武街35號","121.41661","25.0066416666667","6500700","樹林區"
"238014","282-BY","2018/05/17 17:19:14","新北市樹林區長壽街70巷10弄1號","121.421926666667","24.9947183333333","6500700","樹林區"
"238020","268-VK","2018/05/17 17:19:01","新北市樹林區大安路305號","121.417793333333","24.992265","6500700","樹林區"
"238026","172-UY","2018/05/17 17:19:13","新北市樹林區味王街40號","121.404615","24.9739133333333","6500700","樹林區"
"238016","169-UY","2018/05/17 17:19:14","新北市樹林區中山路二段10號","121.417506666667","24.9851166666667","6500700","樹林區"
"239006","891-R6","2018/05/17 17:19:15","新北市鶯歌區福昌街12號","121.333158333333","24.9608583333333","6500800","鶯歌區"
"239008","527-UM","2018/05/17 17:19:12","新北市鶯歌區西湖街279巷1號","121.339626666667","24.967955","6500800","鶯歌區"
"239005","526-UM","2018/05/17 17:19:17","新北市鶯歌區福德三街3號","121.330063333333","24.9677366666667","6500800","鶯歌區"
"239001","417-VK","2018/05/17 17:19:10","新北市鶯歌區尖山路207號","121.343623333333","24.9469516666667","6500800","鶯歌區"
"239003","360-BY","2018/05/17 17:19:15","新北市鶯歌區德昌街94號","121.33246","24.9601983333333","6500800","鶯歌區"
"239002","359-BY","2018/05/17 17:19:05","新北市鶯歌區國慶街110號","121.35052","24.95428","6500800","鶯歌區"
"239004","193-VK","2018/05/17 17:19:10","新北市鶯歌區文化路280號","121.352743333333","24.9470966666667","6500800","鶯歌區"
"242002","KEA-2550","2018/05/17 17:19:12","新北市新莊區新泰路72號","121.449191666667","25.0348333333333","6500500","新莊區"
"242046","280-VK","2018/05/17 17:19:06","新北市新莊區中正路481號","121.441276666667","25.0338366666667","6500500","新莊區"
