"lineid","car","time","location","longitude","latitude","cityid","cityname"
"249005","172-UM","2018/05/17 17:29:06","新北市八里區荖阡坑路69號","121.406953333333","25.126245","6502300","八里區"
"249001","173-UM","2018/05/17 17:29:09","新北市八里區中華路一段5號","121.422675","25.15836","6502300","八里區"
"249004","303-UY","2018/05/17 17:29:02","新北市八里區民有街79號","121.414173333333","25.1556716666667","6502300","八里區"
"249002","305-UY","2018/05/17 17:29:11","新北市八里區龍形五街33號","121.449618333333","25.1333533333333","6502300","八里區"
"249003","593-UM","2018/05/17 17:29:09","新北市八里區中山路二段315號","121.40064","25.1477016666667","6502300","八里區"
"244013","069-UM","2018/05/17 17:29:18","新北市林口區中山路202-1號","121.387856666667","25.0790716666667","6501700","林口區"
"244007","080-UY","2018/05/17 17:29:06","新北市林口區湖子7-8號","121.388215","25.09261","6501700","林口區"
"244019","403-UM","2018/05/17 17:29:15","新北市林口區公園路128號","121.371155","25.0712033333333","6501700","林口區"
"244009","410-SL","2018/05/17 17:29:20","新北市林口區中北一街17巷25號","121.385525","25.0871166666667","6501700","林口區"
"244023","483-VK","2018/05/17 17:29:16","新北市林口區東明三街368號","121.391941666667","25.0705566666667","6501700","林口區"
"244017","485-VK","2018/05/17 17:29:10","新北市林口區中山路154號","121.390946666667","25.0787383333333","6501700","林口區"
"244011","657-BX","2018/05/17 17:29:19","新北市林口區仁愛路一段378號","121.388838333333","25.0767316666667","6501700","林口區"
"244025","837-TS","2018/05/17 17:29:02","新北市林口區民族路61巷10號","121.364483333333","25.0747566666667","6501700","林口區"
"244021","838-TS","2018/05/17 17:28:59","新北市林口區粉寮路68-2號","121.40415","25.0918616666667","6501700","林口區"
"222002","659-BX","2018/05/17 17:29:12","新北市深坑區深南路88巷1號","121.621173333333","25.0113266666667","6501800","深坑區"
"231046","107-UY","2018/05/17 17:29:08","新北市新店區直潭路92號","121.530911666667","24.9375783333333","6500600","新店區"
"241011","013-R5","2018/05/17 17:29:01","新北市三重區龍濱路120號","121.501988333333","25.0709083333333","6500200","三重區"
"241009","060-VK","2018/05/17 17:29:05","新北市三重區力行路二段136巷23弄35號","121.481301666667","25.0764133333333","6500200","三重區"
"241015","062-VK","2018/05/17 17:29:16","新北市三重區開元街1號","121.503566666667","25.0662733333333","6500200","三重區"
"241017","063-VK","2018/05/17 17:29:14","新北市三重區重新路三段47巷3弄4號","121.49305","25.0617733333333","6500200","三重區"
"241024","065-VK","2018/05/17 17:29:04","新北市三重區後竹圍街295號","121.478868333333","25.0697933333333","6500200","三重區"
"241003","091-VK","2018/05/17 17:29:00","新北市三重區富福街2號","121.489826666667","25.08322","6500200","三重區"
"241013","265-UM","2018/05/17 17:29:05","新北市三重區三和路三段105號","121.494206666667","25.072775","6500200","三重區"
"241016","266-UM","2018/05/17 17:29:14","新北市三重區信義西街41號","121.495228333333","25.0641016666667","6500200","三重區"
"241022","267-UM","2018/05/17 17:29:09","新北市三重區重陽路二段34巷7號","121.48658","25.0632566666667","6500200","三重區"
"241018","268-UM","2018/05/17 17:29:03","新北市三重區大同北路120巷1-3號","121.493088333333","25.06402","6500200","三重區"
"241032","269-UM","2018/05/17 17:29:18","新北市三重區名源街30號","121.48218","25.0598466666667","6500200","三重區"
"241025","271-UM","2018/05/17 17:29:01","新北市三重區三民街324號","121.476631666667","25.0693416666667","6500200","三重區"
"241007","398-BY","2018/05/17 17:29:10","新北市三重區三和路四段145巷153號","121.487568333333","25.0790316666667","6500200","三重區"
"241008","413-TH","2018/05/17 17:29:11","新北市三重區聯華街143號","121.484318333333","25.075025","6500200","三重區"
"241020","478-VK","2018/05/17 17:29:13","新北市三重區忠孝路一段135號","121.488411666667","25.072215","6500200","三重區"
"241014","543-UM","2018/05/17 17:29:08","新北市三重區長壽街55號","121.501116666667","25.068305","6500200","三重區"
"241023","545-UM","2018/05/17 17:29:11","新北市三重區三民街146巷3弄16號","121.481258333333","25.0649483333333","6500200","三重區"
"241019","KEA-2593","2018/05/17 17:29:08","新北市三重區自強路二段24號","121.489506666667","25.0691516666667","6500200","三重區"
"241030","743-BX","2018/05/17 17:29:13","新北市三重區新興路55號","121.491266666667","25.0538883333333","6500200","三重區"
"241005","887-TS","2018/05/17 17:29:22","新北市三重區永安北路二段43巷27號","121.483176666667","25.08263","6500200","三重區"
"241012","941-UM","2018/05/17 17:29:06","新北市三重區仁興街28巷46號","121.498298333333","25.074905","6500200","三重區"
"241033","AAC-255","2018/05/17 17:29:02","新北市三重區中興北街153-9號","121.469003333333","25.0537583333333","6500200","三重區"
"247024","893-R6","2018/05/17 17:29:08","新北市蘆洲區長興路333號","121.460728333333","25.09062","6501400","蘆洲區"
"247014","546-UM","2018/05/17 17:29:06","新北市蘆洲區三民路33號","121.475401666667","25.08304","6501400","蘆洲區"
"247022","500-BY","2018/05/17 17:29:09","新北市蘆洲區三民路277號","121.467691666667","25.0899616666667","6501400","蘆洲區"
"247010","341-TH","2018/05/17 17:29:00","新北市蘆洲區中山一路120巷42號","121.478425","25.08208","6501400","蘆洲區"
"247012","339-TH","2018/05/17 17:29:01","新北市蘆洲區民族路31號","121.477368333333","25.0847983333333","6501400","蘆洲區"
"247004","337-TH","2018/05/17 17:29:07","新北市蘆洲區長安街233巷9號","121.458976666667","25.082565","6501400","蘆洲區"
"247006","336-TH","2018/05/17 17:29:01","新北市蘆洲區長安街68巷33號","121.46391","25.0810733333333","6501400","蘆洲區"
"247018","057-VK","2018/05/17 17:29:16","新北市蘆洲區水湳街30號","121.471998333333","25.0880616666667","6501400","蘆洲區"
"247008","056-VK","2018/05/17 17:28:59","新北市蘆洲區信義路34巷34號","121.474873333333","25.0783766666667","6501400","蘆洲區"
"247016","007-UY","2018/05/17 17:29:08","新北市蘆洲區光華路22巷42號","121.468228333333","25.0848683333333","6501400","蘆洲區"
"247002","002-UY","2018/05/17 17:29:15","新北市蘆洲區永樂街38巷57弄37號","121.457226666667","25.0905733333333","6501400","蘆洲區"
"247020","001-UY","2018/05/17 17:29:08","新北市蘆洲區水湳街172號","121.470226666667","25.0937933333333","6501400","蘆洲區"
"228003","097-TW","2018/05/17 17:29:06","新北市貢寮區仁理村尖山腳街20號","121.925","25.0467233333333","6502600","貢寮區"
"228001","212-TW","2018/05/17 17:29:00","新北市貢寮區仁理村仁愛路34號","121.924971666667","25.0532366666667","6502600","貢寮區"
"228002","585-TW","2018/05/17 17:29:07","新北市貢寮區福隆里興隆街21-1號","121.943373333333","25.016475","6502600","貢寮區"
"224010","AGQ-8101","2018/05/17 17:28:54","新北市瑞芳區逢甲路17號","121.809573333333","25.1086516666667","6501200","瑞芳區"
"224006","676-BX","2018/05/17 17:29:02","新北市瑞芳區靜安路四段63-1號","121.793258333333","25.1086966666667","6501200","瑞芳區"
"224008","285-BY","2018/05/17 17:29:18","新北市瑞芳區九芎橋路8號","121.833221666667","25.0897616666667","6501200","瑞芳區"
"224007","273-VK","2018/05/17 17:29:09","新北市瑞芳區汽車路10號","121.846395","25.1105616666667","6501200","瑞芳區"
"224005","271-BY","2018/05/17 17:29:02","新北市瑞芳區洞頂路212-2號","121.861695","25.12483","6501200","瑞芳區"
"227010","642-TC","2018/05/17 17:29:18","新北市雙溪區三貂里政光路13-8號","121.850465","25.0697666666667","6502500","雙溪區"
"227004","400-TW","2018/05/17 17:29:04","新北市雙溪區平林里外平林72號","121.84429","25.031955","6502500","雙溪區"
"251014","008-UM","2018/05/17 17:29:03","新北市淡水區公埔子20-2號","121.469883333333","25.2290033333333","6501000","淡水區"
"251004","009-UM","2018/05/17 17:23:37","新北市淡水區中正東路二段88巷15號","121.459206666667","25.1503366666667","6501000","淡水區"
"251005","010-UM","2018/05/17 17:29:09","新北市淡水區鄧公路31巷11號","121.451743333333","25.170725","6501000","淡水區"
"251013","KEA-2871","2018/05/17 17:29:14","新北市淡水區大竹圍5號","121.46658","25.1952083333333","6501000","淡水區"
"251016","179-VK","2018/05/17 17:29:18","新北市淡水區埤島63-3號","121.461273333333","25.191585","6501000","淡水區"
"251008","181-VK","2018/05/17 17:29:14","新北市淡水區大同路122巷18號","121.46345","25.1398233333333","6501000","淡水區"
"251015","182-VK","2018/05/17 17:27:49","新北市淡水區樹林口20-1號","121.478848333333","25.1698233333333","6501000","淡水區"
"251010","413-VK","2018/05/17 17:29:00","新北市淡水區中正路二段206號","121.4264","25.1889683333333","6501000","淡水區"
"251012","441-VK","2018/05/17 17:29:15","新北市淡水區北新路100號","121.447526666667","25.17846","6501000","淡水區"
"251007","442-VK","2018/05/17 17:29:09","新北市淡水區民生路60號","121.462165","25.13791","6501000","淡水區"
"251006","561-UM","2018/05/17 17:29:12","新北市淡水區大仁街32-3號","121.442583333333","25.17532","6501000","淡水區"
"251009","575-R6","2018/05/17 17:29:03","新北市淡水區重建街1巷10號","121.439713333333","25.1737966666667","6501000","淡水區"
"251011","650-BX","2018/05/17 17:28:59","新北市淡水區坪頂路718號","121.48253","25.1584783333333","6501000","淡水區"
"251002","672-BX","2018/05/17 17:29:14","新北市淡水區中正路32巷5號","121.430588333333","25.1752533333333","6501000","淡水區"
"251003","766-UM","2018/05/17 17:29:02","新北市淡水區文化路61號","121.43839","25.1728066666667","6501000","淡水區"
"207003","550-UM","2018/05/17 17:29:05","新北市萬里區龜吼里美崙路96號","121.683656666667","25.18602","6502800","萬里區"
"207004","225-TW","2018/05/17 17:29:16","新北市萬里區萬里里景美路16號","121.686651666667","25.17329","6502800","萬里區"
"252002","178-VK","2018/05/17 17:29:15","新北市三芝區忠孝街1-14號","121.505506666667","25.25395","6502100","三芝區"
"252001","292-VK","2018/05/17 17:29:15","新北市三芝區淡金路一段3號","121.498105","25.2596733333333","6502100","三芝區"
"237011","572-TV","2018/05/17 17:29:03","新北市三峽區中山路459巷163-3號","121.348731666667","24.9330516666667","6500900","三峽區"
"237016","649-BX","2018/05/17 17:29:02","新北市三峽區中山路459巷92號","121.353831666667","24.93573","6500900","三峽區"
"242034","AAC-296","2018/05/17 17:29:10","新北市新莊區新莊路469號","121.449208333333","25.0333283333333","6500500","新莊區"
"242058","986-R7","2018/05/17 17:29:01","新北市新莊區中正路498號","121.436023333333","25.0329283333333","6500500","新莊區"
"242053","751-BX","2018/05/17 17:29:06","新北市新莊區瓊林南路305巷35號","121.4359","25.0051866666667","6500500","新莊區"
"242027","615-BX","2018/05/17 17:29:06","新北市新莊區思源路63號","121.460203333333","25.0403233333333","6500500","新莊區"
"242025","613-BX","2018/05/17 17:29:10","新北市新莊區復興路二段20-2號","121.454303333333","25.04395","6500500","新莊區"
"242029","612-BX","2018/05/17 17:29:03","新北市新莊區復興路二段172號","121.45845","25.0443016666667","6500500","新莊區"
"242042","566-BX","2018/05/17 17:29:18","新北市新莊區新樹路113巷17號","121.438988333333","25.0264283333333","6500500","新莊區"
"242051","441-UM","2018/05/17 17:29:08","新北市新莊區新樹路447號","121.432735","25.0134733333333","6500500","新莊區"
"242056","440-UM","2018/05/17 17:29:14","新北市新莊區新泰路47號","121.449526666667","25.0336083333333","6500500","新莊區"
"242036","415-TV","2018/05/17 17:29:17","新北市新莊區建國二路1號","121.434863333333","25.0236716666667","6500500","新莊區"
"242007","413-TV","2018/05/17 17:29:14","新北市新莊區自立街81號","121.45452","25.045385","6500500","新莊區"
"242023","362-BY","2018/05/17 17:29:16","新北市新莊區公園路148號","121.453113333333","25.0400583333333","6500500","新莊區"
"242061","353-BY","2018/05/17 17:29:21","新北市新莊區瓊林南路7號","121.438368333333","25.020615","6500500","新莊區"
"242009","132-UY","2018/05/17 17:29:12","新北市新莊區中原路191號","121.452306666667","25.0543733333333","6500500","新莊區"
"242039","133-UY","2018/05/17 17:29:17","新北市新莊區民安路280號","121.42781","25.021525","6500500","新莊區"
"242031","135-UY","2018/05/17 17:29:06","新北市新莊區新泰路401巷29-1號","121.442456666667","25.04395","6500500","新莊區"
"242048","172-VK","2018/05/17 17:29:12","新北市新莊區四維路227號","121.421598333333","25.01955","6500500","新莊區"
"242017","175-VK","2018/05/17 17:29:14","新北市新莊區復興路一段199號","121.452025","25.0436516666667","6500500","新莊區"
"242004","176-VK","2018/05/17 17:29:11","新北市新莊區中港路280號","121.45309","25.0441416666667","6500500","新莊區"
"242015","346-TH","2018/05/17 17:29:13","新北市新莊區新泰路157號","121.447755","25.0368766666667","6500500","新莊區"
"242021","347-TH","2018/05/17 17:29:11","新北市新莊區中正路130號","121.452763333333","25.0363216666667","6500500","新莊區"
"242044","349-TH","2018/05/17 17:29:16","新北市新莊區富國路101-1號","121.421331666667","25.02553","6500500","新莊區"
"242019","350-TH","2018/05/17 17:29:14","新北市新莊區中港路63號","121.455378333333","25.03853","6500500","新莊區"
"242013","351-TH","2018/05/17 17:29:08","新北市新莊區中誠街14號","121.451963333333","25.0481816666667","6500500","新莊區"
"238015","755-BX","2018/05/17 17:29:15","新北市樹林區大安路269號","121.418968333333","24.993655","6500700","樹林區"
"238023","601-UM","2018/05/17 17:29:04","新北市樹林區中正路439號","121.415283333333","25.0090466666667","6500700","樹林區"
"238019","599-UM","2018/05/17 17:29:05","新北市樹林區太平路52巷1號","121.41904","24.9822466666667","6500700","樹林區"
"238018","571-TV","2018/05/17 17:29:06","新北市樹林區鎮前街165號","121.422368333333","24.987295","6500700","樹林區"
"238024","5061-A6","2018/05/17 17:29:16","新北市樹林區博愛街194號","121.42491","24.9894833333333","6500700","樹林區"
"238021","KEA-2217","2018/05/17 17:29:13","新北市樹林區民權街1號","121.395273333333","24.9571916666667","6500700","樹林區"
"238022","KEA-2213","2018/05/17 17:29:00","新北市樹林區仁愛街12巷2號","121.421906666667","24.9817916666667","6500700","樹林區"
"238025","303-VK","2018/05/17 17:29:00","新北市樹林區保安街二段35號","121.416275","24.9999183333333","6500700","樹林區"
"238017","283-BY","2018/05/17 17:29:05","新北市樹林區三德街12號","121.413331666667","25.01284","6500700","樹林區"
"238014","282-BY","2018/05/17 17:29:14","新北市樹林區保安街一段245號","121.419746666667","24.99636","6500700","樹林區"
"238020","268-VK","2018/05/17 17:29:21","新北市樹林區千歲街101-2號","121.428476666667","25.000935","6500700","樹林區"
"238026","172-UY","2018/05/17 17:29:13","新北市樹林區中山路三段27巷3弄12-1號","121.401701666667","24.9739866666667","6500700","樹林區"
"238016","169-UY","2018/05/17 17:29:14","新北市樹林區長壽街2巷5-4號","121.42407","24.99353","6500700","樹林區"
"239006","891-R6","2018/05/17 17:29:16","新北市鶯歌區鶯桃路472巷16號","121.333208333333","24.9656283333333","6500800","鶯歌區"
"239008","527-UM","2018/05/17 17:29:01","新北市鶯歌區大湖路624號","121.334678333333","24.9748033333333","6500800","鶯歌區"
"239005","526-UM","2018/05/17 17:29:12","新北市鶯歌區鶯桃路二段15號","121.325908333333","24.97213","6500800","鶯歌區"
"239001","417-VK","2018/05/17 17:29:10","新北市鶯歌區中正三路83號","121.33849","24.94107","6500800","鶯歌區"
"239003","360-BY","2018/05/17 17:29:15","新北市鶯歌區鶯桃路234巷1號","121.336428333333","24.9593083333333","6500800","鶯歌區"
"239002","359-BY","2018/05/17 17:29:05","新北市鶯歌區建國路216號","121.348975","24.9534616666667","6500800","鶯歌區"
"239004","193-VK","2018/05/17 17:29:10","新北市三峽區復興路557號","121.356456666667","24.9405533333333","6500800","鶯歌區"
"221008","489-VK","2018/05/17 17:29:09","新北市汐止區康寧街901號","121.651425","25.0749566666667","6501100","汐止區"
"221033","647-BX","2018/05/17 17:29:04","新北市汐止區汐萬路一段115巷50號","121.652953333333","25.0702233333333","6501100","汐止區"
"242002","KEA-2550","2018/05/17 17:29:12","新北市新莊區新莊路154號","121.455245","25.03546","6500500","新莊區"
"242046","280-VK","2018/05/17 17:29:06","新北市新莊區新樹路49號","121.440218333333","25.032015","6500500","新莊區"
