"lineid","car","time","location","longitude","latitude","cityid","cityname"
"234050","863-TW","2018/05/17 18:09:06","新北市永和區福和路1號","121.526493333333","25.0097833333333","6500400","永和區"
"234026","9371-KE","2018/05/17 18:08:55","新北市永和區秀朗路一段10巷22-1號","121.513318333333","25.0063866666667","6500400","永和區"
"234011","9373-KE","2018/05/17 17:48:16","新北市永和區福和路1號","121.525598333333","25.0093216666667","6500400","永和區"
"249005","172-UM","2018/05/17 18:09:06","新北市八里區荖阡坑路15-40號","121.401626666667","25.1398683333333","6502300","八里區"
"249001","173-UM","2018/05/17 18:09:09","新北市八里區龍米路二段35號","121.448453333333","25.14006","6502300","八里區"
"249004","303-UY","2018/05/17 18:08:42","新北市八里區龍米路二段159-2號","121.43892","25.15428","6502300","八里區"
"249002","305-UY","2018/05/17 18:08:51","新北市八里區龍米路一段356巷46號","121.45212","25.1303516666667","6502300","八里區"
"249003","593-UM","2018/05/17 18:09:09","新北市八里區中華路二段165巷19弄8號","121.40915","25.150865","6502300","八里區"
"248016","026-BX","2018/05/17 18:08:57","新北市五股區成泰路三段221巷18號","121.445696666667","25.0934483333333","6501500","五股區"
"248006","077-UY","2018/05/17 18:09:09","新北市五股區中興路二段61號","121.461546666667","25.0768133333333","6501500","五股區"
"248008","095-VK","2018/05/17 18:09:06","新北市五股區中興路二段182巷15弄13-3號","121.457406666667","25.0809983333333","6501500","五股區"
"248020","225-UY","2018/05/17 18:09:08","新北市五股區成泰路三段544-1號","121.454438333333","25.1024233333333","6501500","五股區"
"248014","261-SL","2018/05/17 18:08:49","新北市五股區成泰路一段205號","121.435208333333","25.0770283333333","6501500","五股區"
"248010","272-BY","2018/05/17 18:09:05","新北市五股區成泰路一段194-2號","121.435688333333","25.0782333333333","6501500","五股區"
"248004","677-BX","2018/05/17 18:09:08","新北市五股區成泰路二段156號","121.438413333333","25.084235","6501500","五股區"
"248002","678-BX","2018/05/17 18:09:01","新北市五股區成泰路三段74號","121.444306666667","25.08971","6501500","五股區"
"248012","682-TV","2018/05/17 18:09:03","新北市五股區新五路二段550號","121.442766666667","25.085325","6501500","五股區"
"232011","375-UM","2018/05/17 18:08:59","新北市坪林區坪林街16-1號","121.712541666667","24.9362983333333","6502000","坪林區"
"244013","069-UM","2018/05/17 18:08:55","新北市林口區中山路27號","121.39547","25.07825","6501700","林口區"
"244007","080-UY","2018/05/17 18:09:06","新北市林口區佳林路101巷50號","121.38752","25.0793283333333","6501700","林口區"
"244019","403-UM","2018/05/17 18:08:55","新北市林口區文化一路一段126號","121.375413333333","25.072845","6501700","林口區"
"244009","410-SL","2018/05/17 18:09:00","新北市林口區佳林路86-2號","121.38558","25.0801333333333","6501700","林口區"
"244023","483-VK","2018/05/17 18:08:56","新北市林口區仁愛路二段73號","121.384748333333","25.0756033333333","6501700","林口區"
"244017","485-VK","2018/05/17 18:08:50","新北市林口區忠孝路504巷21號","121.36967","25.0696483333333","6501700","林口區"
"244011","657-BX","2018/05/17 18:09:05","新北市林口區中正路91號","121.394451666667","25.07726","6501700","林口區"
"244025","837-TS","2018/05/17 18:09:02","新北市林口區文化北路一段301-1號","121.360498333333","25.0726033333333","6501700","林口區"
"244021","838-TS","2018/05/17 18:08:59","新北市林口區仁愛路一段2-1號","121.397385","25.068145","6501700","林口區"
"243013","AAD-798","2018/05/17 18:08:02","新北市泰山區犁頭窠18號","121.419906666667","25.0497266666667","6501600","泰山區"
"222003","436-BY","2018/05/17 18:08:49","新北市深坑區腳坑6號","121.610376666667","24.994835","6501800","深坑區"
"222002","659-BX","2018/05/17 18:08:53","新北市深坑區文化街52號","121.618933333333","25.0015366666667","6501800","深坑區"
"231044","001-UM","2018/05/17 18:08:52","新北市新店區安華路28-1號","121.519486666667","24.9608766666667","6500600","新店區"
"231041","002-UM","2018/05/17 18:08:52","新北市新店區安華路28-1號","121.519553333333","24.9609216666667","6500600","新店區"
"231059","046-UY","2018/05/17 18:09:02","新北市新店區安華路28-1號","121.519466666667","24.9608716666667","6500600","新店區"
"231040","047-UY","2018/05/17 18:08:57","新北市新店區安華路28-1號","121.519355","24.9608966666667","6500600","新店區"
"231046","107-UY","2018/05/17 18:09:08","新北市新店區直潭七街60號","121.532255","24.9398133333333","6500600","新店區"
"231052","108-UY","2018/05/17 18:09:09","新北市新店區安一路一段1-1號","121.519468333333","24.9610783333333","6500600","新店區"
"231047","187-VK","2018/05/17 18:09:00","新北市新店區安一路一段1-1號","121.51954","24.9611133333333","6500600","新店區"
"231054","KEA-2219","2018/05/17 18:09:00","新北市新店區安一路一段1-1號","121.519685","24.96128","6500600","新店區"
"231042","268-BY","2018/05/17 18:09:03","新北市新店區安華路1-1號","121.519403333333","24.960485","6500600","新店區"
"231051","278-BY","2018/05/17 18:09:01","新北市新店區安一路一段1-1號","121.519611666667","24.9611333333333","6500600","新店區"
"231050","AAD-862","2018/05/17 18:08:59","新北市新店區安一路一段1-1號","121.519836666667","24.9611516666667","6500600","新店區"
"231056","4715-K9","2018/05/17 18:09:04","新北市新店區安華路1-1號","121.519421666667","24.9603233333333","6500600","新店區"
"231065","512-UM","2018/05/17 18:08:56","新北市新店區安一路一段1-1號","121.519363333333","24.96111","6500600","新店區"
"231049","513-UM","2018/05/17 18:09:03","新北市新店區安一路一段1-1號","121.51962","24.961105","6500600","新店區"
"231063","616-UM","2018/05/17 18:08:54","新北市新店區安華路28-1號","121.519435","24.9605833333333","6500600","新店區"
"231064","719-UM","2018/05/17 18:09:08","新北市新店區安一路一段1-1號","121.519436666667","24.96117","6500600","新店區"
"231062","720-UM","2018/05/17 18:09:00","新北市新店區安一路一段1-1號","121.519268333333","24.9611183333333","6500600","新店區"
"231060","897-TW","2018/05/17 18:08:58","新北市新店區安華路28-1號","121.51961","24.9608816666667","6500600","新店區"
"231045","898-TW","2018/05/17 18:08:51","新北市新店區安華路28-1號","121.519411666667","24.9608216666667","6500600","新店區"
"231043","899-TW","2018/05/17 18:09:07","新北市新店區安華路28-1號","121.519576666667","24.96084","6500600","新店區"
"231055","AKT-0513","2018/05/17 18:09:05","新北市新店區安華路28-1號","121.519573333333","24.960605","6500600","新店區"
"241033","AAC-255","2018/05/17 18:09:02","新北市三重區中興北街133-1號","121.469373333333","25.05061","6500200","三重區"
"235064","005-UY","2018/05/17 18:09:02","新北市中和區中正路273號","121.495645","24.9937","6500300","中和區"
"235063","006-UY","2018/05/17 18:09:08","新北市中和區員山路36巷16-3號","121.485031666667","24.991315","6500300","中和區"
"235047","031-BX","2018/05/17 18:09:00","新北市中和區復興路315號","121.50103","24.9902133333333","6500300","中和區"
"235056","096-UM","2018/05/17 18:09:00","新北市中和區連城路469巷68號","121.483448333333","24.99405","6500300","中和區"
"235058","151-BY","2018/05/17 18:08:59","新北市中和區圓通路367巷33弄41號","121.49548","24.9855783333333","6500300","中和區"
"235038","185-VK","2018/05/17 18:08:54","新北市中和區景平路73號","121.519055","24.9916333333333","6500300","中和區"
"235049","186-VK","2018/05/17 18:09:11","新北市中和區員山路36巷13號","121.484118333333","24.9908833333333","6500300","中和區"
"235067","255-BX","2018/05/17 18:09:05","新北市中和區員山路36巷16-2號","121.485248333333","24.9917816666667","6500300","中和區"
"235072","301-VK","2018/05/17 18:08:51","新北市中和區員山路36巷13號","121.484091666667","24.9908533333333","6500300","中和區"
"235043","352-BY","2018/05/17 18:08:56","新北市中和區中正路637巷60弄61號","121.48548","24.9924916666667","6500300","中和區"
"235061","378-QA","2018/05/17 18:09:12","新北市中和區連城路569巷9弄24號","121.479436666667","24.9934466666667","6500300","中和區"
"235050","4979-A6","2018/05/17 18:09:04","新北市中和區中正路637巷52弄1號","121.485448333333","24.993395","6500300","中和區"
"235042","551-UM","2018/05/17 18:09:02","新北市中和區復興路277-1號","121.502375","24.99027","6500300","中和區"
"235070","558-UM","2018/05/17 18:09:07","新北市中和區中正路406號","121.492381666667","24.993965","6500300","中和區"
"235045","565-BX","2018/05/17 18:09:05","新北市中和區錦和路350-1號","121.490575","24.99359","6500300","中和區"
"235054","640-BX","2018/05/17 18:09:06","新北市土城區延壽路77巷2號","121.469171666667","24.992635","6500300","中和區"
"235071","783-BX","2018/05/17 18:09:07","新北市中和區員山路36巷16-2號","121.48557","24.9910666666667","6500300","中和區"
"235062","800-TS","2018/05/17 18:08:53","新北市中和區中山路二段546號","121.485165","25.0049833333333","6500300","中和區"
"235057","801-TS","2018/05/17 18:08:55","新北市中和區員山路36巷16-2號","121.485261666667","24.99142","6500300","中和區"
"235048","896-TW","2018/05/17 18:08:54","新北市中和區員山路36巷13號","121.484285","24.9906733333333","6500300","中和區"
"235053","900-TW","2018/05/17 18:09:06","新北市中和區員山路36巷16-5號","121.484886666667","24.9919816666667","6500300","中和區"
"235051","157-BY","2018/05/17 18:09:07","新北市中和區板南路100號","121.503695","24.9923966666667","6500300","中和區"
"235037","AAC-213","2018/05/17 18:09:00","新北市中和區景平路151號","121.513818333333","24.99202","6500300","中和區"
"247002","002-UY","2018/05/17 18:08:55","新北市蘆洲區永平街32巷66號","121.460386666667","25.0933266666667","6501400","蘆洲區"
"226004","312-R5","2018/05/17 18:09:02","新北市平溪區白石里白石腳43號","121.718358333333","25.0211483333333","6502400","平溪區"
"228003","097-TW","2018/05/17 18:09:06","新北市貢寮區真理里美艷山街6-2號","121.928841666667","25.06078","6502600","貢寮區"
"228001","212-TW","2018/05/17 18:08:59","新北市貢寮區真理里新港街26巷55弄2-1號","121.927413333333","25.052865","6502600","貢寮區"
"228002","585-TW","2018/05/17 18:09:07","新北市貢寮區福連里福連街18號","121.988076666667","25.0125583333333","6502600","貢寮區"
"224010","AGQ-8101","2018/05/17 17:59:34","新北市瑞芳區山尖路174號","121.847813333333","25.1117983333333","6501200","瑞芳區"
"224006","676-BX","2018/05/17 18:09:02","新北市瑞芳區三爪子坑路32巷126號","121.809185","25.10632","6501200","瑞芳區"
"224002","639-TC","2018/05/17 18:09:04","新北市瑞芳區三爪子坑路64-35號","121.808908333333","25.1058233333333","6501200","瑞芳區"
"224008","285-BY","2018/05/17 18:08:58","新北市瑞芳區員山子路23號","121.821373333333","25.1029866666667","6501200","瑞芳區"
"224007","273-VK","2018/05/17 18:09:09","新北市瑞芳區金光路117號","121.853588333333","25.106155","6501200","瑞芳區"
"224005","271-BY","2018/05/17 18:09:10","新北市瑞芳區深澳路67-1號","121.818165","25.1300083333333","6501200","瑞芳區"
"227010","642-TC","2018/05/17 18:08:58","新北市雙溪區三貂里定福路1-2號","121.850716666667","25.0633916666667","6502500","雙溪區"
"253005","032-BX","2018/05/17 18:08:53","新北市石門區福安街19號","121.56867","25.2926183333333","6502200","石門區"
"253006","295-VK","2018/05/17 18:08:59","新北市石門區老梅路52巷25弄2-1號","121.546676666667","25.2874816666667","6502200","石門區"
"222001","KEA-2212","2018/05/17 18:08:54","新北市深坑區北深路二段151號","121.614151666667","25.0021816666667","6501800","深坑區"
"208002","KEA-2872","2018/05/17 18:09:07","新北市金山區三界壇路105號","121.619831666667","25.230985","6502700","金山區"
"208003","665-BX","2018/05/17 18:08:58","新北市金山區磺港里磺港路193號","121.64545","25.227585","6502700","金山區"
"208001","761-BX","2018/05/17 18:09:07","新北市金山區磺港里磺港路61號","121.647585","25.2272733333333","6502700","金山區"
"251014","008-UM","2018/05/17 18:09:03","新北市淡水區南平14號","121.485398333333","25.2210166666667","6501000","淡水區"
"251004","009-UM","2018/05/17 18:09:07","新北市淡水區民族路110巷43弄2號","121.461405","25.13522","6501000","淡水區"
"251005","010-UM","2018/05/17 18:09:09","新北市淡水區水源街一段160號","121.44873","25.17124","6501000","淡水區"
"251001","011-UM","2018/05/17 18:08:59","新北市淡水區自立路15巷1號","121.463101666667","25.1298816666667","6501000","淡水區"
"251013","KEA-2871","2018/05/17 18:08:54","新北市淡水區竹圍子9-1號","121.476921666667","25.1921866666667","6501000","淡水區"
"251016","179-VK","2018/05/17 18:08:58","新北市淡水區下圭柔山15-1號","121.452451666667","25.20171","6501000","淡水區"
"251008","181-VK","2018/05/17 18:08:54","新北市淡水區坪頂路70巷41號","121.460683333333","25.160375","6501000","淡水區"
"251015","182-VK","2018/05/17 18:09:09","新北市淡水區興福寮66巷539號","121.484585","25.165135","6501000","淡水區"
"251010","413-VK","2018/05/17 18:08:59","新北市淡水區中正路二段22巷47號","121.421553333333","25.182815","6501000","淡水區"
"251012","441-VK","2018/05/17 18:08:55","新北市淡水區北新路三段174號","121.49286","25.192835","6501000","淡水區"
"251006","561-UM","2018/05/17 18:09:00","新北市淡水區新民街79號","121.438071666667","25.17669","6501000","淡水區"
"251009","575-R6","2018/05/17 18:09:03","新北市淡水區大忠街34巷15號","121.443961666667","25.17562","6501000","淡水區"
"251011","650-BX","2018/05/17 18:08:59","新北市淡水區三空泉9-2號","121.47419","25.1635366666667","6501000","淡水區"
"251002","672-BX","2018/05/17 18:08:54","新北市淡水區中正東路一段127巷2號","121.455351666667","25.1591916666667","6501000","淡水區"
"251003","766-UM","2018/05/17 18:09:02","新北市淡水區大忠街113巷20號","121.44732","25.1775366666667","6501000","淡水區"
"207003","550-UM","2018/05/17 18:09:05","新北市萬里區野柳里港西路701-2號","121.685291666667","25.2046233333333","6502800","萬里區"
"207004","225-TW","2018/05/17 18:09:07","新北市萬里區中幅里中福路93號","121.675436666667","25.1698233333333","6502800","萬里區"
"252002","178-VK","2018/05/17 18:08:55","新北市三芝區中山路二段41號","121.502911666667","25.2550683333333","6502100","三芝區"
"252003","249-BX","2018/05/17 18:09:05","新北市三芝區埔頭里埔頭39-1號","121.499126666667","25.260795","6502100","三芝區"
"252001","292-VK","2018/05/17 18:08:55","新北市三芝區中興街二段2號","121.49829","25.256665","6502100","三芝區"
"237004","KEA-2597","2018/05/17 18:09:03","新北市三峽區大埔路150-2號","121.364795","24.8982966666667","6500900","三峽區"
"237007","153-BY","2018/05/17 18:09:00","新北市三峽區中正路二段370巷83號","121.364371666667","24.9115216666667","6500900","三峽區"
"237011","572-TV","2018/05/17 18:09:03","新北市三峽區介壽路二段112號","121.393258333333","24.9356933333333","6500900","三峽區"
"237009","210-TH","2018/05/17 18:09:11","新北市三峽區復興路303巷1弄2號","121.365551666667","24.9382666666667","6500900","三峽區"
"237013","252-BX","2018/05/17 18:09:08","新北市三峽區長泰街12號","121.378911666667","24.9313216666667","6500900","三峽區"
"237008","302-VK","2018/05/17 18:08:51","新北市三峽區白雞44-26號","121.377831666667","24.9097833333333","6500900","三峽區"
"237014","433-BY","2018/05/17 18:08:58","新北市三峽區和平街111號","121.370416666667","24.9382983333333","6500900","三峽區"
"237006","5529-G3","2018/05/17 18:08:50","新北市三峽區溪東路235號","121.406531666667","24.9326283333333","6500900","三峽區"
"237016","649-BX","2018/05/17 18:09:02","新北市三峽區紫新路36巷1號","121.42208","24.9222833333333","6500900","三峽區"
"237010","706-TV","2018/05/17 18:09:06","新北市三峽區民權街193號","121.36765","24.9290583333333","6500900","三峽區"
"237005","AKY-6261","2018/05/17 18:09:09","新北市三峽區民生街152-1號","121.371958333333","24.9350416666667","6500900","三峽區"
"236070","105-UM","2018/05/17 18:09:01","新北市土城區青雲路480號","121.45872","24.9732483333333","6501300","土城區"
"236042","107-UM","2018/05/17 18:09:00","新北市土城區城林路6巷80號","121.438163333333","24.9795816666667","6501300","土城區"
"236078","166-UM","2018/05/17 18:09:06","新北市土城區永寧路25號","121.430526666667","24.9634033333333","6501300","土城區"
"236030","253-BX","2018/05/17 18:08:52","新北市土城區城林路6巷80號","121.438586666667","24.97966","6501300","土城區"
"236026","269-VK","2018/05/17 18:09:04","新北市土城區承天路18號","121.439463333333","24.9634633333333","6501300","土城區"
"236014","270-VK","2018/05/17 18:08:59","新北市土城區學府路一段227號","121.451196666667","24.9841216666667","6501300","土城區"
"236038","271-VK","2018/05/17 18:09:10","新北市土城區青雲路449號","121.458776666667","24.9751083333333","6501300","土城區"
"236021","401-BY","2018/05/17 18:08:54","新北市土城區城林路6巷80號","121.438756666667","24.979765","6501300","土城區"
"236059","912-UM","2018/05/17 18:08:54","新北市土城區中央路四段166號","121.416931666667","24.9581333333333","6501300","土城區"
"236049","913-UM","2018/05/17 18:08:54","新北市土城區金城路二段2巷5號","121.447403333333","24.975935","6501300","土城區"
"236063","915-UM","2018/05/17 18:08:54","新北市土城區金城路二段8-1號","121.44861","24.9768266666667","6501300","土城區"
"236055","AAC-216","2018/05/17 18:09:08","新北市土城區城林路6巷80號","121.43847","24.97961","6501300","土城區"
"242034","AAC-296","2018/05/17 18:08:50","新北市新莊區景德路384號","121.44609","25.0336066666667","6500500","新莊區"
"242058","986-R7","2018/05/17 18:09:04","新北市新莊區壽山路160巷21號","121.417385","25.0319533333333","6500500","新莊區"
"242053","751-BX","2018/05/17 18:09:06","新北市新莊區民安西路311號","121.427201666667","25.011325","6500500","新莊區"
"242027","615-BX","2018/05/17 18:09:06","新北市新莊區幸福路554號","121.454876666667","25.0493033333333","6500500","新莊區"
"242025","613-BX","2018/05/17 18:09:09","新北市新莊區五權一路100號","121.45967","25.0675466666667","6500500","新莊區"
"242029","612-BX","2018/05/17 18:09:03","新北市新莊區中平路154號","121.4447","25.0471583333333","6500500","新莊區"
"242042","566-BX","2018/05/17 18:09:12","新北市新莊區天祥街53號","121.414898333333","25.0303616666667","6500500","新莊區"
"242051","441-UM","2018/05/17 18:09:08","新北市新莊區民本街23巷17號","121.429105","25.019825","6500500","新莊區"
"242056","440-UM","2018/05/17 18:08:55","新北市新莊區豐年街豐1巷23號","121.447378333333","25.0313133333333","6500500","新莊區"
"242036","415-TV","2018/05/17 18:08:56","新北市新莊區建福路48巷8號","121.426053333333","25.0275533333333","6500500","新莊區"
"242007","413-TV","2018/05/17 18:09:02","新北市新莊區自立街75號","121.454198333333","25.0454333333333","6500500","新莊區"
"242061","353-BY","2018/05/17 18:09:02","新北市新莊區新樹路327號","121.43316","25.018915","6500500","新莊區"
"242009","132-UY","2018/05/17 18:08:52","新北市新莊區昌平街30號","121.454815","25.0530866666667","6500500","新莊區"
"242039","133-UY","2018/05/17 18:08:57","新北市新莊區民安西路38巷23號","121.426663333333","25.0205166666667","6500500","新莊區"
"242031","135-UY","2018/05/17 18:09:06","新北市新莊區新泰路277巷21號","121.444965","25.0402516666667","6500500","新莊區"
"242048","172-VK","2018/05/17 18:08:52","新北市新莊區民安路98巷29號","121.423391666667","25.025075","6500500","新莊區"
"242011","173-VK","2018/05/17 18:08:48","新北市新莊區中原路253巷2弄1號","121.448851666667","25.0539733333333","6500500","新莊區"
"242017","175-VK","2018/05/17 18:08:54","新北市新莊區中港路303號","121.452751666667","25.0445833333333","6500500","新莊區"
"242015","346-TH","2018/05/17 18:08:53","新北市新莊區中平路134號","121.444831666667","25.046745","6500500","新莊區"
"242021","347-TH","2018/05/17 18:08:51","新北市新莊區建興街69號","121.449855","25.03803","6500500","新莊區"
"242044","349-TH","2018/05/17 18:08:56","新北市新莊區鳳山街1號","121.41572","25.0270333333333","6500500","新莊區"
"242019","350-TH","2018/05/17 18:08:54","新北市新莊區民樂街32號","121.457715","25.04094","6500500","新莊區"
"238015","755-BX","2018/05/17 18:08:55","新北市樹林區大安路349號","121.416488333333","24.9905066666667","6500700","樹林區"
"238023","601-UM","2018/05/17 18:09:03","新北市樹林區三福街67巷9號","121.407763333333","25.015835","6500700","樹林區"
"238019","599-UM","2018/05/17 18:09:05","新北市樹林區國凱街142號","121.423863333333","24.9805083333333","6500700","樹林區"
"238018","571-TV","2018/05/17 18:09:06","新北市板橋區溪崑二街22巷30號","121.428105","24.9919216666667","6500700","樹林區"
"238024","5061-A6","2018/05/17 18:08:56","新北市樹林區豐林街60號","121.421966666667","24.9981533333333","6500700","樹林區"
"238021","KEA-2217","2018/05/17 18:09:02","新北市樹林區柑園街一段315號","121.392121666667","24.9563283333333","6500700","樹林區"
"238025","303-VK","2018/05/17 18:09:00","新北市樹林區保安街二段179-5號","121.415166666667","25.003445","6500700","樹林區"
"238017","283-BY","2018/05/17 18:09:05","新北市樹林區中正路791號","121.409665","25.0163333333333","6500700","樹林區"
"238014","282-BY","2018/05/17 18:08:54","新北市樹林區中正路55巷11號","121.426298333333","24.99934","6500700","樹林區"
"238020","268-VK","2018/05/17 18:09:01","新北市樹林區俊興街278號","121.418283333333","25.0169066666667","6500700","樹林區"
"238026","172-UY","2018/05/17 18:08:53","新北市樹林區佳園路一段80巷10號","121.39267","24.9696283333333","6500700","樹林區"
"238016","169-UY","2018/05/17 18:08:54","新北市樹林區文化街31號","121.418723333333","24.9877933333333","6500700","樹林區"
"239007","AAC-297","2018/05/17 18:09:01","新北市鶯歌區尖山埔路165巷3弄1號","121.34634","24.9503566666667","6500800","鶯歌區"
"239006","891-R6","2018/05/17 18:08:55","新北市鶯歌區鶯桃路381巷2弄13號","121.3329","24.9637566666667","6500800","鶯歌區"
"239008","527-UM","2018/05/17 18:09:01","新北市鶯歌區國際一路179號","121.336176666667","24.976495","6500800","鶯歌區"
"239005","526-UM","2018/05/17 18:08:52","新北市鶯歌區鶯桃路668巷73號","121.329856666667","24.9717483333333","6500800","鶯歌區"
"239001","417-VK","2018/05/17 18:08:50","新北市鶯歌區尖山路319號","121.342011666667","24.9442833333333","6500800","鶯歌區"
"239003","360-BY","2018/05/17 18:08:55","新北市鶯歌區福安街32巷32號","121.335246666667","24.963565","6500800","鶯歌區"
"239002","359-BY","2018/05/17 18:09:05","新北市鶯歌區中山路249巷4弄73號","121.347971666667","24.95666","6500800","鶯歌區"
"221008","489-VK","2018/05/17 18:09:10","新北市汐止區康寧街315號","121.627015","25.0678466666667","6501100","汐止區"
"221036","130-UY","2018/05/17 18:08:58","新北市汐止區大同路三段109號","121.668521666667","25.0775333333333","6501100","汐止區"
"221015","131-UY","2018/05/17 18:09:02","新北市汐止區鄉長路二段90-1號","121.66585","25.0856566666667","6501100","汐止區"
"221010","269-BY","2018/05/17 18:09:07","新北市汐止區汐萬路二段275巷3弄1號","121.645286666667","25.0887416666667","6501100","汐止區"
"221012","278-VK","2018/05/17 18:09:05","新北市汐止區保一街39號","121.674281666667","25.07998","6501100","汐止區"
"221023","279-VK","2018/05/17 18:08:59","新北市汐止區明峰街180號","121.628511666667","25.0699933333333","6501100","汐止區"
"221032","280-BY","2018/05/17 18:08:58","新北市汐止區橫科路63號","121.618696666667","25.0507383333333","6501100","汐止區"
"221027","281-BY","2018/05/17 18:09:02","新北市汐止區大同路二段522號","121.661118333333","25.0683983333333","6501100","汐止區"
"221029","298-VK","2018/05/17 18:08:59","新北市汐止區樟樹二路130號","121.639888333333","25.0655333333333","6501100","汐止區"
"221021","299-VK","2018/05/17 18:09:05","新北市汐止區大同路二段184巷3號","121.654021666667","25.0639366666667","6501100","汐止區"
"221031","353-TW","2018/05/17 18:09:10","新北市汐止區中興路181號","121.630235","25.0667733333333","6501100","汐止區"
"221035","622-UM","2018/05/17 18:09:04","新北市汐止區大同路二段230號","121.653823333333","25.065495","6501100","汐止區"
"221025","623-UM","2018/05/17 18:08:51","新北市汐止區勤進路1號","121.660395","25.0620183333333","6501100","汐止區"
"221038","646-BX","2018/05/17 18:09:01","新北市汐止區水源路一段238巷1號","121.65416","25.0603183333333","6501100","汐止區"
"221033","647-BX","2018/05/17 18:09:04","新北市汐止區宜興街40巷22弄2號","121.62262","25.0411083333333","6501100","汐止區"
"221002","707-TV","2018/05/17 18:09:06","新北市汐止區福德一路213巷1號","121.634891666667","25.0651933333333","6501100","汐止區"
"221018","753-BX","2018/05/17 18:09:05","新北市汐止區忠孝東路400號","121.665843333333","25.07061","6501100","汐止區"
"242002","KEA-2550","2018/05/17 18:09:12","新北市新莊區新莊路5號","121.459296666667","25.0377883333333","6500500","新莊區"
"242046","280-VK","2018/05/17 18:09:06","新北市新莊區福營路334號","121.42174","25.02684","6500500","新莊區"
"235068","KEA-2873","2018/05/17 18:08:44","新北市中和區員山路36巷20號","121.485201666667","24.9906966666667","6500300","中和區"
