"lineid","car","time","location","longitude","latitude","cityid","cityname"
"234046","148-BY","2018/05/17 19:19:31","新北市永和區秀朗路二段148巷8號","121.525393333333","25.0011283333333","6500400","永和區"
"234007","207-UY","2018/05/17 19:19:24","新北市永和區保生路2號","121.506896666667","25.0071516666667","6500400","永和區"
"234081","298-R6","2018/05/17 19:19:31","新北市永和區福和路7巷12弄1-1號","121.525466666667","25.0074966666667","6500400","永和區"
"234038","336-UY","2018/05/17 19:19:31","新北市永和區民樂街55巷2號","121.527463333333","24.9984133333333","6500400","永和區"
"234064","337-UY","2018/05/17 19:19:28","新北市永和區永元路17巷6弄1號","121.52134","25.0007516666667","6500400","永和區"
"234086","338-UY","2018/05/17 19:19:23","新北市永和區林森路136號","121.522011666667","25.002975","6500400","永和區"
"234070","552-UM","2018/05/17 19:19:33","新北市永和區中正路613號","121.516206666667","25.0096966666667","6500400","永和區"
"234017","745-BX","2018/05/17 19:19:21","新北市永和區文化路144巷31弄1號","121.512401666667","25.0166866666667","6500400","永和區"
"234030","746-BX","2018/05/17 19:19:36","新北市永和區厚德街84號","121.523701666667","24.9989116666667","6500400","永和區"
"234054","KEA-2590","2018/05/17 19:19:31","新北市永和區中興街31號","121.516151666667","25.0119066666667","6500400","永和區"
"234013","KEA-2591","2018/05/17 19:19:17","新北市永和區仁愛路88號","121.512535","25.013415","6500400","永和區"
"234061","AAD-866","2018/05/17 19:19:27","新北市永和區秀朗路一段175號","121.5171","25.0037016666667","6500400","永和區"
"234042","862-TW","2018/05/17 19:19:26","新北市永和區保平路151巷3號","121.510156666667","25.0055916666667","6500400","永和區"
"234050","863-TW","2018/05/17 19:19:25","新北市永和區仁愛路104巷10號","121.51207","25.0136466666667","6500400","永和區"
"234026","9371-KE","2018/05/17 19:19:35","新北市永和區安樂路144巷31號","121.5152","24.9997883333333","6500400","永和區"
"234011","9373-KE","2018/05/17 19:19:23","新北市永和區保福路二段23巷8號","121.510336666667","25.0112616666667","6500400","永和區"
"249001","173-UM","2018/05/17 19:19:29","新北市八里區中山路一段418-3號","121.411086666667","25.157875","6502300","八里區"
"249003","593-UM","2018/05/17 19:19:29","新北市八里區中山路二段500巷10-1號","121.398446666667","25.147515","6502300","八里區"
"248020","225-UY","2018/05/17 19:04:12","新北市五股區凌雲路三段57號","121.425305","25.125015","6501500","五股區"
"248010","272-BY","2018/05/17 19:19:25","新北市五股區水碓二路1號","121.430615","25.07127","6501500","五股區"
"248004","677-BX","2018/05/17 19:19:26","新北市五股區六合街42號","121.432776666667","25.0893433333333","6501500","五股區"
"248002","678-BX","2018/05/17 19:19:21","新北市五股區凌雲路一段158巷14號","121.44786","25.1033883333333","6501500","五股區"
"248012","682-TV","2018/05/17 19:19:24","新北市五股區中興路四段38巷11號","121.438756666667","25.0834683333333","6501500","五股區"
"234023","9380-KE","2018/05/17 19:19:20","新北市永和區豫溪街57巷22號","121.517123333333","25.010905","6500400","永和區"
"234077","969-R7","2018/05/17 19:19:28","新北市永和區民治街72巷4號","121.517925","24.9983483333333","6500400","永和區"
"234074","AAC-211","2018/05/17 19:19:33","新北市永和區竹林路104號","121.519593333333","25.0118583333333","6500400","永和區"
"234067","AAC-212","2018/05/17 19:19:31","新北市永和區保平路50巷8弄1號","121.511033333333","25.0076","6500400","永和區"
"234003","AAC-295","2018/05/17 19:19:22","新北市永和區永平路160號","121.510968333333","25.00877","6500400","永和區"
"244013","069-UM","2018/05/17 19:19:35","新北市林口區麗園一街9巷2號","121.376713333333","25.0708","6501700","林口區"
"244019","403-UM","2018/05/17 19:19:28","新北市林口區文化二路一段565號","121.374998333333","25.07729","6501700","林口區"
"244023","483-VK","2018/05/17 19:19:16","新北市林口區仁愛路二段526號","121.372991666667","25.0781733333333","6501700","林口區"
"244017","485-VK","2018/05/17 19:19:29","新北市林口區嘉寶里69號","121.335138333333","25.1145","6501700","林口區"
"244011","657-BX","2018/05/17 19:19:19","新北市林口區竹林路65號","121.387723333333","25.0785766666667","6501700","林口區"
"243011","267-VK","2018/05/17 19:19:26","新北市泰山區中央路36巷5號","121.426168333333","25.04283","6501600","泰山區"
"243013","AAD-798","2018/05/17 19:19:34","新北市泰山區明志路三段145巷2弄15號","121.42505","25.0393866666667","6501600","泰山區"
"243009","297-R6","2018/05/17 19:19:24","新北市泰山區和平街2號","121.434058333333","25.0645166666667","6501600","泰山區"
"243016","380-SR","2018/05/17 19:19:32","新北市泰山區明志路三段148號","121.424515","25.0396716666667","6501600","泰山區"
"243015","421-VK","2018/05/17 19:19:28","新北市泰山區公園路9號","121.429491666667","25.0539616666667","6501600","泰山區"
"243010","KEA-2216","2018/05/17 19:19:37","新北市泰山區明志路二段32巷2-1號","121.429385","25.0534833333333","6501600","泰山區"
"243012","646-TV","2018/05/17 19:19:25","新北市泰山區仁愛路100巷26號","121.433396666667","25.0548416666667","6501600","泰山區"
"243014","680-BX","2018/05/17 19:19:35","新北市泰山區泰林路二段92號","121.434995","25.058655","6501600","泰山區"
"222003","436-BY","2018/05/17 19:19:28","新北市深坑區深南路204號","121.626663333333","25.0160533333333","6501800","深坑區"
"222002","659-BX","2018/05/17 19:19:33","新北市深坑區北深路一段177號","121.632563333333","25.0108716666667","6501800","深坑區"
"231044","001-UM","2018/05/17 19:19:32","新北市新店區中興路三段328號","121.542023333333","24.986355","6500600","新店區"
"231041","002-UM","2018/05/17 19:19:32","新北市新店區環河路550號","121.527125","24.9846883333333","6500600","新店區"
"231059","046-UY","2018/05/17 19:19:22","新北市新店區安和路二段190號","121.518845","24.9744483333333","6500600","新店區"
"231040","047-UY","2018/05/17 19:19:37","新北市新店區中華路68號","121.539123333333","24.9690733333333","6500600","新店區"
"231046","107-UY","2018/05/17 19:19:28","新北市新店區華城路36巷1-1號","121.528486666667","24.9552783333333","6500600","新店區"
"231052","108-UY","2018/05/17 19:19:29","新北市新店區櫻花街190號","121.54801","24.919885","6500600","新店區"
"231047","187-VK","2018/05/17 19:19:20","新北市新店區中興路二段57巷16號","121.545826666667","24.970855","6500600","新店區"
"231054","KEA-2219","2018/05/17 19:19:20","新北市新店區國校路51巷1號","121.538121666667","24.9546583333333","6500600","新店區"
"231042","268-BY","2018/05/17 19:19:24","新北市新店區中興路一段57號","121.539816666667","24.9604833333333","6500600","新店區"
"231051","278-BY","2018/05/17 19:19:21","新北市新店區中央路133巷3號","121.530711666667","24.97372","6500600","新店區"
"231050","AAD-862","2018/05/17 19:19:19","新北市新店區竹林路25巷10號","121.55229","24.9513366666667","6500600","新店區"
"231061","355-BY","2018/05/17 19:19:32","新北市新店區安康路一段69號","121.530226666667","24.9610566666667","6500600","新店區"
"231058","3713-VJ","2018/05/17 19:19:31","新北市新店區中正路111號","121.54246","24.9706016666667","6500600","新店區"
"231066","4716-K9","2018/05/17 19:19:29","新北市新店區安康路三段355巷36號","121.484913333333","24.9492583333333","6500600","新店區"
"231056","4715-K9","2018/05/17 19:19:25","新北市新店區安業街2號","121.515155","24.9783533333333","6500600","新店區"
"231065","512-UM","2018/05/17 19:19:16","新北市新店區安祥路142號","121.47392","24.9556983333333","6500600","新店區"
"231049","513-UM","2018/05/17 19:19:32","新北市新店區明德路64號","121.54163","24.9794383333333","6500600","新店區"
"231063","616-UM","2018/05/17 19:19:34","新北市新店區達觀路14巷1號","121.504533333333","24.94172","6500600","新店區"
"231064","719-UM","2018/05/17 19:19:28","新北市新店區安忠路57巷26弄22號","121.512628333333","24.95845","6500600","新店區"
"231062","720-UM","2018/05/17 19:19:20","新北市新店區莒光路38巷6號","121.522945","24.9588716666667","6500600","新店區"
"231060","897-TW","2018/05/17 19:19:18","新北市新店區安康路二段138號","121.512543333333","24.961855","6500600","新店區"
"231045","898-TW","2018/05/17 19:19:31","新北市新店區北宜路一段308號","121.547266666667","24.95217","6500600","新店區"
"231043","899-TW","2018/05/17 19:19:27","新北市新店區北新路二段108號","121.543018333333","24.9743783333333","6500600","新店區"
"241009","060-VK","2018/05/17 19:19:25","新北市三重區溪尾街230巷63號","121.486281666667","25.0812516666667","6500200","三重區"
"241031","061-VK","2018/05/17 19:19:16","新北市三重區重新路四段101-1號","121.485755","25.054385","6500200","三重區"
"241017","063-VK","2018/05/17 19:19:24","新北市三重區大同北路217號","121.491523333333","25.065975","6500200","三重區"
"241026","066-VK","2018/05/17 19:19:25","新北市三重區中正南路201號","121.493403333333","25.0542383333333","6500200","三重區"
"241022","267-UM","2018/05/17 19:19:29","新北市三重區中正北路60-2號","121.486791666667","25.0644616666667","6500200","三重區"
"241032","269-UM","2018/05/17 19:19:27","新北市三重區新生街89號","121.483963333333","25.0593616666667","6500200","三重區"
"241007","398-BY","2018/05/17 19:19:30","新北市三重區三和路四段163巷79號","121.486068333333","25.0791833333333","6500200","三重區"
"241035","KEA-2210","2018/05/17 19:19:36","新北市三重區信義西街138號","121.495481666667","25.06432","6500200","三重區"
"241020","478-VK","2018/05/17 19:19:33","新北市三重區大智街163號","121.48983","25.07236","6500200","三重區"
"241006","AAD-863","2018/05/17 19:19:34","新北市三重區力行路二段145號","121.483573333333","25.0772233333333","6500200","三重區"
"241030","743-BX","2018/05/17 19:19:33","新北市三重區成功路41巷72號","121.491303333333","25.0531833333333","6500200","三重區"
"241029","942-UM","2018/05/17 19:19:30","新北市三重區重安街66號","121.491175","25.0572683333333","6500200","三重區"
"235064","005-UY","2018/05/17 19:19:22","新北市中和區中和路30號","121.49982","25.0017733333333","6500300","中和區"
"235063","006-UY","2018/05/17 19:19:28","新北市中和區連城路249巷26弄1號","121.49458","24.9952283333333","6500300","中和區"
"235047","031-BX","2018/05/17 19:19:20","新北市中和區景平路239巷59弄19號","121.508878333333","24.9917066666667","6500300","中和區"
"235056","096-UM","2018/05/17 19:19:30","新北市中和區員山路521號","121.479681666667","25.0066983333333","6500300","中和區"
"235039","097-UM","2018/05/17 19:19:25","新北市中和區景平路64巷13弄22號","121.521541666667","24.99147","6500300","中和區"
"235040","150-BY","2018/05/17 19:19:18","新北市中和區保健路56號","121.510648333333","24.99675","6500300","中和區"
"235058","151-BY","2018/05/17 19:19:19","新北市中和區連城路469巷44弄19號","121.48231","24.9947116666667","6500300","中和區"
"235055","183-VK","2018/05/17 19:19:33","新北市中和區德光路26號","121.470785","25.004395","6500300","中和區"
"235038","185-VK","2018/05/17 19:19:34","新北市中和區大仁街108號","121.520645","24.9928116666667","6500300","中和區"
"235049","186-VK","2018/05/17 19:19:31","新北市中和區景新街245號","121.508433333333","24.9944216666667","6500300","中和區"
"235067","255-BX","2018/05/17 19:19:25","新北市中和區中正路803號","121.484738333333","25.00103","6500300","中和區"
"235044","293-VK","2018/05/17 19:19:26","新北市中和區復興路331號","121.500601666667","24.9901833333333","6500300","中和區"
"235072","301-VK","2018/05/17 19:19:31","新北市中和區連城路265巷6弄2號","121.491445","24.9960166666667","6500300","中和區"
"235043","352-BY","2018/05/17 19:19:16","新北市中和區景平路424號","121.507623333333","24.9933516666667","6500300","中和區"
"235061","378-QA","2018/05/17 19:19:32","新北市中和區員山路382號","121.480753333333","25.0043333333333","6500300","中和區"
"235050","4979-A6","2018/05/17 19:19:24","新北市中和區景安路208巷19號","121.50303","24.9914216666667","6500300","中和區"
"235069","4980-A6","2018/05/17 19:19:30","新北市中和區中山路二段181巷22號","121.501041666667","25.0019566666667","6500300","中和區"
"235042","551-UM","2018/05/17 19:19:22","新北市永和區民有街98巷4號","121.517521666667","24.9958016666667","6500300","中和區"
"235070","558-UM","2018/05/17 19:19:26","新北市中和區連城路47-2號","121.497966666667","25.001655","6500300","中和區"
"235045","565-BX","2018/05/17 19:19:25","新北市中和區景新街423巷35弄15號","121.513905","24.9902666666667","6500300","中和區"
"235054","640-BX","2018/05/17 19:19:26","新北市中和區國光街107巷2弄28號","121.469581666667","24.9993183333333","6500300","中和區"
"235060","647-TV","2018/05/17 19:19:37","新北市中和區民有街22-3號","121.47567","25.005305","6500300","中和區"
"235046","733-UM","2018/05/17 19:19:22","新北市中和區華新街164號","121.507403333333","24.9822633333333","6500300","中和區"
"235071","783-BX","2018/05/17 19:19:27","新北市中和區中正路637巷52弄1號","121.485388333333","24.9936266666667","6500300","中和區"
"235057","801-TS","2018/05/17 19:19:15","新北市中和區員山路319號","121.4812","25.00053","6500300","中和區"
"235041","802-TS","2018/05/17 19:19:16","新北市中和區中和路260號","121.507935","24.9992666666667","6500300","中和區"
"235052","805-TS","2018/05/17 19:19:25","新北市中和區興南路二段142巷17弄10號","121.50322","24.9830966666667","6500300","中和區"
"235048","896-TW","2018/05/17 19:19:14","新北市中和區忠孝街73號","121.512066666667","24.9850083333333","6500300","中和區"
"235053","900-TW","2018/05/17 19:19:26","新北市中和區民德路218號","121.468128333333","24.9978533333333","6500300","中和區"
"235066","911-UM","2018/05/17 19:19:31","新北市中和區枋寮街2號","121.502461666667","24.99981","6500300","中和區"
"235051","157-BY","2018/05/17 19:19:27","新北市中和區興南路一段56巷5號","121.510356666667","24.99112","6500300","中和區"
"235037","AAC-213","2018/05/17 19:19:20","新北市中和區秀朗路三段10巷37弄14號","121.523491666667","24.9958516666667","6500300","中和區"
"235059","AAC-215","2018/05/17 19:19:24","新北市中和區錦和路195巷1弄6號","121.491191666667","24.9910333333333","6500300","中和區"
"220065","072-UY","2018/05/17 19:19:21","新北市板橋區民族路129巷14號","121.467635","25.0085133333333","6500100","板橋區"
"220086","073-UY","2018/05/17 19:19:27","新北市板橋區中正路216巷99號","121.458945","25.0192783333333","6500100","板橋區"
"220106","075-UY","2018/05/17 19:19:32","新北市板橋區雙十路三段15號","121.470981666667","25.0310833333333","6500100","板橋區"
"220069","AAD-861","2018/05/17 19:19:25","新北市板橋區華興街33-2號","121.458313333333","25.0045816666667","6500100","板橋區"
"226004","312-R5","2018/05/17 19:19:22","新北市平溪區靜安路三段331號","121.779323333333","25.0445316666667","6502400","平溪區"
"235065","251-BX","2018/05/17 19:19:26","新北市中和區中山路二段64巷8號","121.503713333333","25.0050133333333","6500300","中和區"
"228003","097-TW","2018/05/17 19:19:26","新北市貢寮區和美里和美街19-2號","121.912766666667","25.0826216666667","6502600","貢寮區"
"228001","212-TW","2018/05/17 19:19:19","新北市貢寮區真理里新港街10號","121.92549","25.0543716666667","6502600","貢寮區"
"228002","585-TW","2018/05/17 19:19:26","新北市貢寮區雙玉里田寮洋街21號","121.92709","25.0240233333333","6502600","貢寮區"
"224010","AGQ-8101","2018/05/17 19:19:33","新北市瑞芳區基山街154號","121.843218333333","25.1079416666667","6501200","瑞芳區"
"224006","676-BX","2018/05/17 19:19:22","新北市瑞芳區中山路266號","121.79932","25.1076233333333","6501200","瑞芳區"
"224008","285-BY","2018/05/17 19:19:20","新北市瑞芳區一坑路71號","121.802703333333","25.108345","6501200","瑞芳區"
"224007","273-VK","2018/05/17 19:19:28","新北市瑞芳區瑞濱路3-2號","121.827611666667","25.1216716666667","6501200","瑞芳區"
"224005","271-BY","2018/05/17 19:19:21","新北市瑞芳區三爪子坑路3號","121.814358333333","25.1076766666667","6501200","瑞芳區"
"227010","642-TC","2018/05/17 19:19:18","新北市雙溪區新基里新基北街40號","121.868558333333","25.0380833333333","6502500","雙溪區"
"227004","400-TW","2018/05/17 19:19:24","新北市雙溪區平林里梅竹蹊66-1號","121.86025","25.03585","6502500","雙溪區"
"253005","032-BX","2018/05/17 19:19:33","新北市石門區阿里荖5-4號","121.609661666667","25.2798583333333","6502200","石門區"
"253006","295-VK","2018/05/17 19:19:19","新北市石門區楓林17-6號","121.536953333333","25.2924566666667","6502200","石門區"
"222001","KEA-2212","2018/05/17 19:19:34","新北市深坑區北深路二段82號","121.617575","25.00359","6501800","深坑區"
"208002","KEA-2872","2018/05/17 19:19:27","新北市金山區中正路73號","121.633786666667","25.2217533333333","6502700","金山區"
"208003","665-BX","2018/05/17 19:19:23","新北市金山區中山路190巷1號","121.637903333333","25.221605","6502700","金山區"
"208001","761-BX","2018/05/17 19:19:27","新北市金山區溫泉路2巷9號","121.641045","25.221535","6502700","金山區"
"251014","008-UM","2018/05/17 19:19:22","新北市淡水區小中寮19-7號","121.484783333333","25.2296566666667","6501000","淡水區"
"251005","010-UM","2018/05/17 19:19:29","新北市淡水區水源街一段34巷1號","121.443256666667","25.17228","6501000","淡水區"
"251001","011-UM","2018/05/17 19:19:19","新北市淡水區自強路201巷49號","121.462031666667","25.1269283333333","6501000","淡水區"
"251013","KEA-2871","2018/05/17 19:19:14","新北市淡水區安子內12-1號","121.48156","25.21914","6501000","淡水區"
"251016","179-VK","2018/05/17 19:19:17","新北市淡水區下圭柔山119-51號","121.45072","25.2084883333333","6501000","淡水區"
"251015","182-VK","2018/05/17 19:19:29","新北市淡水區山子邊5-2號","121.483435","25.18432","6501000","淡水區"
"251010","413-VK","2018/05/17 19:19:19","新北市淡水區沙崙路27號","121.421506666667","25.18158","6501000","淡水區"
"251007","442-VK","2018/05/17 19:19:28","新北市淡水區民生路117巷12號","121.464995","25.1391683333333","6501000","淡水區"
"251006","561-UM","2018/05/17 19:19:32","新北市淡水區大信街38號","121.442106666667","25.177385","6501000","淡水區"
"251009","575-R6","2018/05/17 19:19:23","新北市淡水區中山路127號","121.441256666667","25.17113","6501000","淡水區"
"251011","650-BX","2018/05/17 19:06:15","新北市淡水區中正東路二段143巷2弄1號","121.460688333333","25.1473416666667","6501000","淡水區"
"251003","766-UM","2018/05/17 19:19:22","新北市淡水區中山北路一段168號","121.44441","25.178605","6501000","淡水區"
"207003","550-UM","2018/05/17 19:19:25","新北市萬里區大鵬里萬里加投79-3號","121.64734","25.2123716666667","6502800","萬里區"
"207004","225-TW","2018/05/17 19:19:27","新北市萬里區萬里里成功新村65號","121.688311666667","25.1745616666667","6502800","萬里區"
"252002","178-VK","2018/05/17 19:19:34","新北市三芝區淡金路二段18-1號","121.502696666667","25.25951","6502100","三芝區"
"252001","292-VK","2018/05/17 19:19:35","新北市三芝區長勤街9巷14號","121.501606666667","25.2550216666667","6502100","三芝區"
"237004","KEA-2597","2018/05/17 19:19:23","新北市三峽區有木205-1號","121.439018333333","24.8514616666667","6500900","三峽區"
"237007","153-BY","2018/05/17 19:19:20","新北市三峽區二鬮路146號","121.359751666667","24.907605","6500900","三峽區"
"237011","572-TV","2018/05/17 19:19:23","新北市三峽區介壽路一段586號","121.388903333333","24.9344483333333","6500900","三峽區"
"237009","210-TH","2018/05/17 19:19:31","新北市三峽區民生街186號","121.370845","24.9349783333333","6500900","三峽區"
"237013","252-BX","2018/05/17 19:19:27","新北市三峽區光明路75巷20號","121.377523333333","24.9282066666667","6500900","三峽區"
"237012","275-BY","2018/05/17 19:19:31","新北市三峽區三樹路222巷236弄2號","121.390598333333","24.9431333333333","6500900","三峽區"
"237008","302-VK","2018/05/17 19:19:31","新北市三峽區大同路40-6號","121.376283333333","24.9278566666667","6500900","三峽區"
"237014","433-BY","2018/05/17 19:19:18","新北市三峽區中山路184巷6號","121.364126666667","24.9367783333333","6500900","三峽區"
"237006","5529-G3","2018/05/17 19:19:30","新北市三峽區介壽路一段345號","121.382166666667","24.9305216666667","6500900","三峽區"
"237016","649-BX","2018/05/17 19:19:22","新北市三峽區安坑46-2號","121.456703333333","24.93222","6500900","三峽區"
"237010","706-TV","2018/05/17 19:19:30","新北市三峽區復興路168號","121.370923333333","24.9383683333333","6500900","三峽區"
"237005","AKY-6261","2018/05/17 19:19:29","新北市三峽區中山路459巷42號","121.356908333333","24.9371583333333","6500900","三峽區"
"236070","105-UM","2018/05/17 19:19:21","新北市土城區學成路74-1號","121.45143","24.9882683333333","6501300","土城區"
"236078","166-UM","2018/05/17 19:19:26","新北市土城區中央路四段321巷38號","121.411838333333","24.951305","6501300","土城區"
"236026","269-VK","2018/05/17 19:19:24","新北市土城區中正路67巷26號","121.44437","24.9766266666667","6501300","土城區"
"236014","270-VK","2018/05/17 19:19:19","新北市土城區廣福街32號","121.457373333333","24.9901066666667","6501300","土城區"
"236021","401-BY","2018/05/17 19:19:35","新北市土城區明峰街83號","121.468933333333","24.9873583333333","6501300","土城區"
"236059","912-UM","2018/05/17 19:19:17","新北市土城區中央路二段231號","121.440308333333","24.9724583333333","6501300","土城區"
"236049","913-UM","2018/05/17 19:19:34","新北市土城區明德路一段365-1號","121.453646666667","24.9791233333333","6501300","土城區"
"242011","173-VK","2018/05/17 19:19:32","新北市新莊區瓊林路61巷1號","121.440173333333","25.020385","6500500","新莊區"
"238015","755-BX","2018/05/17 19:19:16","新北市樹林區備內街1巷39號","121.412265","24.9860233333333","6500700","樹林區"
"238023","601-UM","2018/05/17 19:19:23","新北市樹林區三興路2-3號","121.397516666667","25.0154066666667","6500700","樹林區"
"238019","599-UM","2018/05/17 19:19:34","新北市樹林區鎮前街347巷1弄2號","121.416733333333","24.9836883333333","6500700","樹林區"
"238018","571-TV","2018/05/17 19:19:30","新北市樹林區中華路108號","121.418478333333","24.9807766666667","6500700","樹林區"
"238024","5061-A6","2018/05/17 19:19:16","新北市樹林區福德街48-2號","121.399291666667","24.9746716666667","6500700","樹林區"
"238021","KEA-2217","2018/05/17 19:19:30","新北市樹林區柑園街二段247巷17號","121.375536666667","24.9505883333333","6500700","樹林區"
"238022","KEA-2213","2018/05/17 19:19:20","新北市樹林區中華路124號","121.41764","24.9805016666667","6500700","樹林區"
"238025","303-VK","2018/05/17 19:19:26","新北市樹林區中山路二段219號","121.402511666667","24.976075","6500700","樹林區"
"238017","283-BY","2018/05/17 19:19:24","新北市樹林區光興街376巷2號","121.406326666667","25.005725","6500700","樹林區"
"238014","282-BY","2018/05/17 19:19:34","新北市樹林區千歲街35號","121.425101666667","24.99583","6500700","樹林區"
"238020","268-VK","2018/05/17 19:19:21","新北市樹林區俊英街244號","121.424588333333","25.0106616666667","6500700","樹林區"
"238026","172-UY","2018/05/17 19:19:33","新北市樹林區佳園路三段31-2號","121.388145","24.9540616666667","6500700","樹林區"
"238016","169-UY","2018/05/17 19:19:33","新北市樹林區中山路二段130號","121.413201666667","24.983275","6500700","樹林區"
"239007","AAC-297","2018/05/17 19:17:01","新北市鶯歌區中山路138巷40號","121.351373333333","24.9599233333333","6500800","鶯歌區"
"239006","891-R6","2018/05/17 19:19:35","新北市鶯歌區鶯桃路91巷20弄1號","121.33854","24.9529783333333","6500800","鶯歌區"
"239008","527-UM","2018/05/17 19:19:21","新北市鶯歌區大湖路468巷9號","121.339558333333","24.9724733333333","6500800","鶯歌區"
"239005","526-UM","2018/05/17 19:19:32","新北市鶯歌區中湖街25號","121.34749","24.9728916666667","6500800","鶯歌區"
"239001","417-VK","2018/05/17 19:19:30","新北市鶯歌區鶯桃路95巷23號","121.338313333333","24.95334","6500800","鶯歌區"
"239003","360-BY","2018/05/17 19:19:15","新北市鶯歌區中正二路93號","121.348461666667","24.9500766666667","6500800","鶯歌區"
"239004","193-VK","2018/05/17 19:19:30","新北市鶯歌區中正三路406巷12號","121.325256666667","24.9352033333333","6500800","鶯歌區"
"221008","489-VK","2018/05/17 19:19:29","新北市汐止區康寧街302-1號","121.626223333333","25.0671033333333","6501100","汐止區"
"221036","130-UY","2018/05/17 19:19:31","新北市汐止區康寧街901號","121.650975","25.0751416666667","6501100","汐止區"
"221015","131-UY","2018/05/17 19:19:22","新北市汐止區康寧街901號","121.651623333333","25.0749783333333","6501100","汐止區"
"221010","269-BY","2018/05/17 19:19:26","新北市汐止區康寧街901號","121.651378333333","25.075025","6501100","汐止區"
"221012","278-VK","2018/05/17 19:19:26","新北市汐止區汐萬路一段310號","121.650333333333","25.0748166666667","6501100","汐止區"
"221023","279-VK","2018/05/17 19:19:18","新北市汐止區康寧街901號","121.650953333333","25.0751616666667","6501100","汐止區"
"221027","281-BY","2018/05/17 19:19:22","新北市汐止區汐萬路一段312號","121.65057","25.07539","6501100","汐止區"
"221029","298-VK","2018/05/17 19:19:19","新北市汐止區康寧街901號","121.651521666667","25.0749833333333","6501100","汐止區"
"221031","353-TW","2018/05/17 19:19:30","新北市汐止區汐萬路一段256巷3號","121.652581666667","25.0745633333333","6501100","汐止區"
"221025","623-UM","2018/05/17 19:19:31","新北市汐止區康寧街901號","121.651623333333","25.0749833333333","6501100","汐止區"
"221038","646-BX","2018/05/17 19:19:21","新北市汐止區汐萬路一段312號","121.65066","25.0753033333333","6501100","汐止區"
"221033","647-BX","2018/05/17 19:19:24","新北市汐止區南勢街1巷1號","121.626966666667","25.03741","6501100","汐止區"
"221002","707-TV","2018/05/17 19:19:26","新北市汐止區大同路一段358號","121.638886666667","25.0593233333333","6501100","汐止區"
"220079","145-BY","2018/05/17 19:19:29","新北市板橋區民權路202巷13弄25號","121.458455","25.01629","6500100","板橋區"
"220082","610-BX","2018/05/17 19:19:32","新北市板橋區滿平街84巷102號","121.426633333333","24.9866683333333","6500100","板橋區"
"220101","245-BX","2018/05/17 19:19:25","新北市板橋區雙十路二段76巷2號","121.475041666667","25.027925","6500100","板橋區"
"220094","267-BY","2018/05/17 19:19:35","新北市板橋區吳鳳路82號","121.467033333333","25.0313616666667","6500100","板橋區"
"220056","276-BY","2018/05/17 19:19:30","新北市板橋區信義路62號","121.457243333333","24.9937616666667","6500100","板橋區"
"220072","277-BY","2018/05/17 19:19:28","新北市板橋區金門街337巷10弄2號","121.429901666667","24.9850166666667","6500100","板橋區"
"220089","280-UM","2018/05/17 19:19:37","新北市板橋區文化路一段379號","121.467133333333","25.0215383333333","6500100","板橋區"
"220071","283-VK","2018/05/17 19:19:33","新北市板橋區大豐街116號","121.461298333333","25.001235","6500100","板橋區"
"220053","285-VK","2018/05/17 19:19:30","新北市板橋區懷仁街35巷4弄2號","121.477016666667","25.019685","6500100","板橋區"
"220083","286-VK","2018/05/17 19:19:33","新北市板橋區大觀路二段174巷196弄16號","121.443068333333","25.0035883333333","6500100","板橋區"
"220081","287-VK","2018/05/17 19:19:15","新北市板橋區南雅西路二段158號","121.451888333333","25.0134233333333","6500100","板橋區"
"220090","288-VK","2018/05/17 19:19:24","新北市板橋區四維路349巷16號","121.46158","25.0297033333333","6500100","板橋區"
"220061","293-UM","2018/05/17 19:19:22","新北市板橋區中山路二段318巷20弄37號","121.481168333333","25.01892","6500100","板橋區"
"220084","296-UM","2018/05/17 19:19:35","新北市板橋區溪崑二街64號","121.427773333333","24.9904983333333","6500100","板橋區"
"220075","303-R5","2018/05/17 19:19:27","新北市板橋區南雅西路一段59號","121.453638333333","25.0051633333333","6500100","板橋區"
"220062","305-R5","2018/05/17 19:19:29","新北市板橋區三民路二段153巷34弄1號","121.481055","25.0142616666667","6500100","板橋區"
"220092","307-R5","2018/05/17 19:19:18","新北市板橋區光武街61號","121.467365","25.0256933333333","6500100","板橋區"
"220098","317-R6","2018/05/17 19:19:23","新北市板橋區民有街82號","121.465148333333","25.02718","6500100","板橋區"
"220064","486-VK","2018/05/17 19:19:26","新北市板橋區板新路234號","121.468336666667","25.016105","6500100","板橋區"
"220088","491-VK","2018/05/17 19:19:31","新北市板橋區雙十路二段4-4號","121.477026666667","25.025705","6500100","板橋區"
"220035","560-BX","2018/05/17 19:19:33","新北市板橋區中正路346號","121.454266666667","25.0235083333333","6500100","板橋區"
"220103","561-BX","2018/05/17 19:19:19","新北市板橋區介壽街19號","121.467893333333","25.0201966666667","6500100","板橋區"
"220080","568-UM","2018/05/17 19:19:27","新北市板橋區大觀路二段19巷100號","121.449538333333","25.0027516666667","6500100","板橋區"
"220063","609-BX","2018/05/17 19:19:34","新北市板橋區三民路二段60號","121.479176666667","25.0174283333333","6500100","板橋區"
"220074","630-UY","2018/05/17 19:19:30","新北市板橋區中正路自強新村68-1號","121.454826666667","25.0131016666667","6500100","板橋區"
"220091","637-BX","2018/05/17 19:19:28","新北市板橋區萬板路404號","121.478835","25.0255266666667","6500100","板橋區"
"220057","686-BX","2018/05/17 19:19:36","新北市中和區和平路200巷1-8號","121.46443","24.99537","6500100","板橋區"
"220077","687-BX","2018/05/17 19:19:15","新北市板橋區大觀路一段28巷71號","121.449698333333","25.0110966666667","6500100","板橋區"
"220093","689-BX","2018/05/17 19:19:26","新北市板橋區文化路一段162號","121.465443333333","25.0194183333333","6500100","板橋區"
"220054","741-BX","2018/05/17 19:19:31","新北市板橋區校前街19號","121.460678333333","25.003185","6500100","板橋區"
"220102","KEA-2699","2018/05/17 19:19:34","新北市板橋區文聖街205巷2號","121.47992","25.0265316666667","6500100","板橋區"
"220055","827-TW","2018/05/17 19:19:31","新北市板橋區館前東路156巷10號","121.464328333333","25.007235","6500100","板橋區"
"220067","829-TW","2018/05/17 19:19:22","新北市板橋區長安街138巷1弄56號","121.474035","25.0101566666667","6500100","板橋區"
"220068","830-TW","2018/05/17 19:18:56","新北市板橋區翠華街6巷67號","121.481081666667","25.024885","6500100","板橋區"
"220096","831-TW","2018/05/17 19:19:31","新北市板橋區大同街26巷23號","121.478373333333","25.02663","6500100","板橋區"
"220073","985-R7","2018/05/17 19:19:32","新北市板橋區新生街20巷3號","121.455966666667","25.02092","6500100","板橋區"
"220097","AAC-210","2018/05/17 19:19:34","新北市板橋區幸福路60巷15號","121.460765","25.0206533333333","6500100","板橋區"
"220070","AAC-253","2018/05/17 19:19:27","新北市板橋區忠孝路173號","121.4641","25.0025133333333","6500100","板橋區"
"235068","KEA-2873","2018/05/17 19:19:14","新北市中和區連勝街38巷26號","121.4977","24.9982","6500300","中和區"
