"lineid","car","time","location","longitude","latitude","cityid","cityname"
"231059","046-UY","2018/05/17 20:59:02","新北市新店區僑信路134號","121.50073","24.9457733333333","6500600","新店區"
"231040","047-UY","2018/05/17 20:58:57","新北市新店區北新路一段353號","121.541936666667","24.969605","6500600","新店區"
"231052","108-UY","2018/05/17 20:59:09","新北市新店區北宜路一段187號","121.546928333333","24.9526183333333","6500600","新店區"
"231047","187-VK","2018/05/17 20:59:00","新北市新店區寶元路二段1巷2號","121.55073","24.98406","6500600","新店區"
"231054","KEA-2219","2018/05/17 20:59:00","新北市新店區中正路75巷71號","121.543045","24.9690316666667","6500600","新店區"
"231042","268-BY","2018/05/17 20:59:03","新北市新店區寶橋路219號","121.549008333333","24.9773316666667","6500600","新店區"
"231050","AAD-862","2018/05/17 20:58:55","新北市新店區三民路75巷3弄2號","121.535743333333","24.97095","6500600","新店區"
"231061","355-BY","2018/05/17 20:59:12","新北市新店區永安街91號","121.520253333333","24.9863266666667","6500600","新店區"
"231066","4716-K9","2018/05/17 20:59:08","新北市新店區吉安街14號","121.516746666667","24.9657533333333","6500600","新店區"
"231067","4772-VM","2018/05/17 20:59:03","新北市新店區安德街148巷12弄4號","121.507998333333","24.9602216666667","6500600","新店區"
"231065","512-UM","2018/05/17 20:58:56","新北市新店區安祥路69巷92號","121.482803333333","24.9591266666667","6500600","新店區"
"231049","513-UM","2018/05/17 20:59:12","新北市新店區安康路一段266巷4號","121.520156666667","24.9639883333333","6500600","新店區"
"231063","616-UM","2018/05/17 20:59:14","新北市新店區富貴街10巷1號","121.49419","24.9495233333333","6500600","新店區"
"231068","718-UY","2018/05/17 20:59:07","新北市新店區寶元路二段64巷1號","121.547231666667","24.9810283333333","6500600","新店區"
"231064","719-UM","2018/05/17 20:59:08","新北市新店區安民街251巷10弄2號","121.516731666667","24.972695","6500600","新店區"
"231051","719-UY","2018/05/17 20:58:56","新北市新店區中央六街45號","121.528476666667","24.97555","6500600","新店區"
"231062","720-UM","2018/05/17 20:59:00","新北市新店區裕合街57號","121.489876666667","24.9496116666667","6500600","新店區"
"231060","897-TW","2018/05/17 20:58:58","新北市新店區安康路三段489號","121.482703333333","24.9491933333333","6500600","新店區"
"231043","899-TW","2018/05/17 20:59:07","新北市新店區中正路347號","121.535446666667","24.9757416666667","6500600","新店區"
"241011","013-R5","2018/05/17 20:59:00","新北市三重區秀江街119號","121.49969","25.072165","6500200","三重區"
"241028","022-UY","2018/05/17 20:59:08","新北市三重區新北大道一段3-1號","121.490753333333","25.06134","6500200","三重區"
"241009","060-VK","2018/05/17 20:59:05","新北市三重區三和路四段360號","121.483326666667","25.0784783333333","6500200","三重區"
"241031","061-VK","2018/05/17 20:58:56","新北市三重區重陽路一段113巷2弄2號","121.487501666667","25.0599633333333","6500200","三重區"
"241015","062-VK","2018/05/17 20:59:13","新北市三重區福德北路61號","121.502115","25.06547","6500200","三重區"
"241017","063-VK","2018/05/17 20:59:04","新北市三重區國隆路30-1號","121.492158333333","25.064385","6500200","三重區"
"241024","065-VK","2018/05/17 20:59:01","新北市三重區大勇街49號","121.481308333333","25.0720133333333","6500200","三重區"
"241026","066-VK","2018/05/17 20:59:04","新北市三重區文化南路45號","121.500205","25.06143","6500200","三重區"
"241002","090-VK","2018/05/17 20:59:03","新北市三重區五華街7巷7號","121.495535","25.080155","6500200","三重區"
"241003","091-VK","2018/05/17 20:58:56","新北市三重區進安街198號","121.493938333333","25.0859483333333","6500200","三重區"
"241013","265-UM","2018/05/17 20:59:05","新北市三重區仁愛街129巷1號","121.495605","25.0749466666667","6500200","三重區"
"241016","266-UM","2018/05/17 20:59:04","新北市三重區正義北路99號","121.497041666667","25.0653883333333","6500200","三重區"
"241022","267-UM","2018/05/17 20:59:09","新北市三重區中正北路20巷12號","121.487953333333","25.06249","6500200","三重區"
"241018","268-UM","2018/05/17 20:58:55","新北市三重區雙園街103號","121.493705","25.0672783333333","6500200","三重區"
"241032","269-UM","2018/05/17 20:59:07","新北市三重區三陽路118號","121.483031666667","25.058735","6500200","三重區"
"241025","271-UM","2018/05/17 20:59:08","新北市三重區貴陽街14號","121.484206666667","25.0618716666667","6500200","三重區"
"241007","398-BY","2018/05/17 20:59:10","新北市三重區慈愛街8號","121.484516666667","25.0784116666667","6500200","三重區"
"241008","413-TH","2018/05/17 20:59:10","新北市三重區下竹圍街1號","121.481043333333","25.076335","6500200","三重區"
"241004","475-VK","2018/05/17 20:59:11","新北市三重區仁愛街422巷1號","121.49018","25.0815333333333","6500200","三重區"
"241020","478-VK","2018/05/17 20:59:13","新北市三重區忠孝路二段35號","121.485943333333","25.0711066666667","6500200","三重區"
"241014","543-UM","2018/05/17 20:59:08","新北市三重區長榮路75號","121.502578333333","25.0690866666667","6500200","三重區"
"241023","545-UM","2018/05/17 20:59:11","新北市三重區洛陽街45巷15號","121.482343333333","25.0637533333333","6500200","三重區"
"241001","547-UM","2018/05/17 20:59:01","新北市三重區自強路三段95號","121.487583333333","25.0751033333333","6500200","三重區"
"241019","KEA-2593","2018/05/17 20:59:08","新北市三重區自強路二段81號","121.488661666667","25.070215","6500200","三重區"
"241006","AAD-863","2018/05/17 20:58:53","新北市三重區永福街50號","121.48173","25.078085","6500200","三重區"
"241030","743-BX","2018/05/17 20:59:12","新北市三重區環河南路220-8號","121.493376666667","25.0527383333333","6500200","三重區"
"241005","887-TS","2018/05/17 20:59:01","新北市三重區五華街141巷42號","121.492686666667","25.0859633333333","6500200","三重區"
"241012","941-UM","2018/05/17 20:59:03","新北市三重區仁信街6號","121.501346666667","25.0755233333333","6500200","三重區"
"241029","942-UM","2018/05/17 20:59:10","新北市三重區正義南路111號","121.498215","25.0585466666667","6500200","三重區"
"241033","AAC-255","2018/05/17 20:59:08","新北市三重區光復路二段23號","121.472128333333","25.0546266666667","6500200","三重區"
"235069","4980-A6","2018/05/17 20:59:10","新北市中和區新生街278號","121.483858333333","24.9968366666667","6500300","中和區"
"247024","893-R6","2018/05/17 20:59:03","新北市蘆洲區長興路213號","121.461198333333","25.0863483333333","6501400","蘆洲區"
"247014","546-UM","2018/05/17 20:59:06","新北市蘆洲區中山二路36巷15號","121.474236666667","25.08289","6501400","蘆洲區"
"247022","500-BY","2018/05/17 20:58:56","新北市蘆洲區水湳街74號","121.470373333333","25.090205","6501400","蘆洲區"
"247010","341-TH","2018/05/17 20:59:10","新北市蘆洲區鷺江街76號","121.47697","25.0838","6501400","蘆洲區"
"247012","339-TH","2018/05/17 20:59:01","新北市蘆洲區民權路8-1號","121.476648333333","25.0858716666667","6501400","蘆洲區"
"247004","337-TH","2018/05/17 20:59:02","新北市蘆洲區永安南路二段268號","121.458641666667","25.0807433333333","6501400","蘆洲區"
"247006","336-TH","2018/05/17 20:59:06","新北市蘆洲區永安南路二段16巷8號","121.467758333333","25.077205","6501400","蘆洲區"
"247018","057-VK","2018/05/17 20:59:09","新北市蘆洲區民權路132-2號","121.473276666667","25.0887483333333","6501400","蘆洲區"
"247008","056-VK","2018/05/17 20:59:07","新北市蘆洲區民生街76號","121.472846666667","25.0791133333333","6501400","蘆洲區"
"247016","007-UY","2018/05/17 20:59:08","新北市蘆洲區正和街81號","121.468248333333","25.0807533333333","6501400","蘆洲區"
"247020","001-UY","2018/05/17 20:59:13","新北市蘆洲區民族路375號","121.470348333333","25.0908233333333","6501400","蘆洲區"
"222001","KEA-2212","2018/05/17 20:59:14","新北市深坑區北深路三段25巷15-2號","121.608678333333","24.999985","6501800","深坑區"
"251014","008-UM","2018/05/17 20:59:02","新北市淡水區溪口12號","121.455905","25.2364666666667","6501000","淡水區"
"251005","010-UM","2018/05/17 20:59:09","新北市淡水區學府路71號","121.44841","25.1698533333333","6501000","淡水區"
"251001","011-UM","2018/05/17 20:58:59","新北市淡水區淡金路二段66-1號","121.45055","25.1823183333333","6501000","淡水區"
"251013","KEA-2871","2018/05/17 20:59:14","新北市淡水區行忠路330號","121.460568333333","25.2004333333333","6501000","淡水區"
"251016","179-VK","2018/05/17 20:58:57","新北市淡水區牛埔子11-1號","121.45055","25.218575","6501000","淡水區"
"251015","182-VK","2018/05/17 20:59:09","新北市淡水區淡金路四段542巷17號","121.452763333333","25.2270733333333","6501000","淡水區"
"251010","413-VK","2018/05/17 20:59:00","新北市淡水區淡海路27號","121.423628333333","25.1792283333333","6501000","淡水區"
"251012","441-VK","2018/05/17 20:59:15","新北市淡水區淡金路五段87號","121.45534","25.2343","6501000","淡水區"
"251007","442-VK","2018/05/17 20:59:08","新北市淡水區鄧公路29巷26號","121.452785","25.1702366666667","6501000","淡水區"
"251011","650-BX","2018/05/17 20:58:58","新北市淡水區新民街103號","121.43611","25.1809933333333","6501000","淡水區"
"251002","672-BX","2018/05/17 20:59:14","新北市淡水區水源街一段115號","121.446483333333","25.1720333333333","6501000","淡水區"
"251003","766-UM","2018/05/17 20:59:02","新北市淡水區新春街123號","121.441485","25.1822633333333","6501000","淡水區"
"242009","132-UY","2018/05/17 20:59:12","新北市新莊區思源路59號","121.459885","25.0403183333333","6500500","新莊區"
"221036","130-UY","2018/05/17 20:59:11","新北市汐止區康寧街901號","121.650741666667","25.0753316666667","6501100","汐止區"
"221029","298-VK","2018/05/17 20:58:59","新北市汐止區康寧街901號","121.651601666667","25.0748133333333","6501100","汐止區"
"242002","KEA-2550","2018/05/17 20:59:12","新北市新莊區中港路12號","121.455005","25.0370383333333","6500500","新莊區"
"220081","287-VK","2018/05/17 20:58:54","新北市樹林區中山路三段210-2號","121.380975","24.9659983333333","6500100","板橋區"
"220070","AAC-253","2018/05/17 20:59:07","新北市八里區中山路三段409號","121.368675","25.1348433333333","6500100","板橋區"
