"lineid","car","time","location","longitude","latitude","cityid","cityname"
"241017","063-VK","2018/05/17 21:59:24","新北市林口區太平里180號","121.366511666667","25.1342166666667","6500200","三重區"
"241014","543-UM","2018/05/17 21:59:27","新北市林口區太平里180號","121.367703333333","25.133855","6500200","三重區"
"235010","733-UM","2018/05/17 21:42:09","新北市中和區員山路36巷13號","121.484175","24.9908083333333","6500300","中和區"
"247010","341-TH","2018/05/17 21:59:30","新北市林口區太平里180號","121.366618333333","25.1340833333333","6501400","蘆洲區"
"251004","009-UM","2018/05/17 21:59:32","新北市淡水區自強路201巷61號","121.461778333333","25.12744","6501000","淡水區"
"251005","010-UM","2018/05/17 21:59:29","新北市淡水區鄧公路30巷1弄67號","121.45446","25.16957","6501000","淡水區"
"251008","181-VK","2018/05/17 21:59:18","新北市淡水區學府路104號","121.44985","25.1717933333333","6501000","淡水區"
"251010","413-VK","2018/05/17 21:59:19","新北市淡水區中正路二段211號","121.426218333333","25.1891083333333","6501000","淡水區"
"251007","442-VK","2018/05/17 21:59:28","新北市淡水區北新路184巷162號","121.451538333333","25.1772666666667","6501000","淡水區"
"251006","561-UM","2018/05/17 21:59:31","新北市淡水區中正路11巷3號","121.437795","25.17076","6501000","淡水區"
"251011","650-BX","2018/05/17 21:59:38","新北市淡水區水碓街7號","121.443158333333","25.1771533333333","6501000","淡水區"
"251003","766-UM","2018/05/17 21:59:22","新北市淡水區新春街83號","121.438875","25.18252","6501000","淡水區"
"220070","AAC-253","2018/05/17 21:59:26","新北市板橋區華東街1-10號","121.448296666667","24.99489","6500100","板橋區"
