"lineid","car","time","location","longitude","latitude","cityid","cityname"
"234048","863-TW","2018/05/17 22:08:17","新北市永和區福和路1號","121.52651","25.00983","6500400","永和區"
"241017","063-VK","2018/05/17 22:09:24","新北市林口區太平里180號","121.368596666667","25.1338866666667","6500200","三重區"
"241014","543-UM","2018/05/17 22:09:08","新北市八里區中山路三段409號","121.368751666667","25.134285","6500200","三重區"
"235010","733-UM","2018/05/17 21:42:09","新北市中和區員山路36巷13號","121.484175","24.9908083333333","6500300","中和區"
"247010","341-TH","2018/05/17 22:09:10","新北市八里區中山路三段409號","121.368741666667","25.1339866666667","6501400","蘆洲區"
"251004","009-UM","2018/05/17 22:09:12","新北市淡水區民族路72號","121.462258333333","25.1357016666667","6501000","淡水區"
"251008","181-VK","2018/05/17 22:09:18","新北市淡水區學府路104號","121.449858333333","25.1718116666667","6501000","淡水區"
"251010","413-VK","2018/05/17 22:09:19","新北市淡水區沙崙路200號","121.424691666667","25.18392","6501000","淡水區"
"251007","442-VK","2018/05/17 22:09:08","新北市淡水區北新路180號","121.449458333333","25.1786816666667","6501000","淡水區"
"251011","650-BX","2018/05/17 22:09:18","新北市淡水區水碓街7號","121.443206666667","25.1771666666667","6501000","淡水區"
