"lineid","car","time","location","longitude","latitude","cityid","cityname"
"244002","248-BX","2018/11/13 08:59:45","新北市林口區後坑38號","121.354781666667","25.1310416666667","6501700","林口區"
"222004","289-BY","2018/11/13 08:59:38","新北市深坑區大崙尾11號","121.614353333333","24.97941","6501800","深坑區"
"231007","189-VK","2018/11/13 08:59:55","新北市新店區頂石厝路68-1號","121.532675","24.9199016666667","6500600","新店區"
"231009","192-VK","2018/11/13 08:59:37","新北市新店區廣興路60巷35號","121.542516666667","24.9164566666667","6500600","新店區"
"235001","611-BX","2018/11/13 08:59:37","新北市中和區莒光路207-1號","121.47104","24.9970383333333","6500300","中和區"
"226002","7418-A5","2018/11/13 08:59:52","新北市平溪區東勢里東勢格5號","121.738658333333","25.0047416666667","6502400","平溪區"
"226006","AGD-0702","2018/11/13 08:59:18","新北市平溪區嶺腳里嶺腳寮114號","121.745713333333","25.0333233333333","6502400","平溪區"
"223003","205-TH","2018/11/13 08:59:40","新北市石碇區北宜路六段小金瓜寮巷1號","121.650075","24.9438383333333","6501900","石碇區"
"223008","406-TH","2018/11/13 08:59:13","新北市石碇區光明路18-6號","121.686696666667","25.03712","6501900","石碇區"
"223001","592-UM","2018/11/13 08:59:48","新北市石碇區北宜路六段十三股巷1號","121.649228333333","24.9474383333333","6501900","石碇區"
"223004","660-BX","2018/11/13 08:59:49","新北市石碇區磨石坑7-2號","121.689803333333","24.975285","6501900","石碇區"
"223007","661-BX","2018/11/13 08:57:55","新北市石碇區光明路16-1號","121.686123333333","25.0340766666667","6501900","石碇區"
"223005","677-TV","2018/11/13 08:59:48","新北市石碇區磨石坑24號","121.689983333333","24.9730816666667","6501900","石碇區"
"227006","400-TW","2018/11/13 08:59:49","新北市雙溪區上林里大瀨1號","121.830015","25.0252033333333","6502500","雙溪區"
"227012","030-BX","2018/11/13 08:52:44","新北市雙溪區泰平里料角坑32號","121.797616666667","24.973615","6502500","雙溪區"
"252004","249-BX","2018/11/13 08:59:36","新北市三芝區興華里田心子31號","121.488813333333","25.2004183333333","6502100","三芝區"
"252007","AAC-283","2018/11/13 08:59:40","新北市三芝區後厝里北勢子21-3號","121.473445","25.2536783333333","6502100","三芝區"
"237001","159-UY","2018/11/13 08:59:33","新北市三峽區學勤路119號","121.375543333333","24.9466","6500900","三峽區"
