"lineid","car","time","location","longitude","latitude","cityid","cityname"
"244002","248-BX","2018/11/13 09:09:45","新北市林口區太平里18-3號","121.362701666667","25.1347366666667","6501700","林口區"
"222004","289-BY","2018/11/13 09:09:38","新北市深坑區大崙尾11號","121.614303333333","24.9794933333333","6501800","深坑區"
"231007","189-VK","2018/11/13 09:09:35","新北市新店區新潭路二段140巷1號","121.512343333333","24.9211733333333","6500600","新店區"
"231009","192-VK","2018/11/13 09:09:37","新北市新店區平廣路一段35巷7號","121.53375","24.9025233333333","6500600","新店區"
"235001","611-BX","2018/11/13 09:09:37","新北市土城區金城路三段253號","121.471753333333","24.9899716666667","6500300","中和區"
"226006","AGD-0702","2018/11/13 09:09:38","新北市平溪區靜安路二段295號","121.73261","25.0245566666667","6502400","平溪區"
"223003","205-TH","2018/11/13 09:09:40","新北市石碇區北宜路四段26號","121.623133333333","24.9579366666667","6501900","石碇區"
"223008","406-TH","2018/11/13 09:09:53","新北市石碇區光明路28號","121.69523","25.0237833333333","6501900","石碇區"
"223001","592-UM","2018/11/13 09:09:48","新北市石碇區北宜路四段25號","121.622945","24.9579466666667","6501900","石碇區"
"223004","660-BX","2018/11/13 09:09:49","新北市石碇區碇坪路二段22號","121.686981666667","24.9741333333333","6501900","石碇區"
"223007","661-BX","2018/11/13 09:09:55","新北市石碇區光明路32號","121.695033333333","25.022995","6501900","石碇區"
"223005","677-TV","2018/11/13 09:09:48","新北市石碇區大崙17號","121.685466666667","24.9779466666667","6501900","石碇區"
"227006","400-TW","2018/11/13 09:09:49","新北市雙溪區上林里內平林120-2號","121.824663333333","25.0263816666667","6502500","雙溪區"
"227012","030-BX","2018/11/13 09:09:44","新北市坪林區豹子廚9-2號","121.783505","24.969695","6502500","雙溪區"
"252004","249-BX","2018/11/13 09:09:56","新北市三芝區興華里車埕70-9號","121.49321","25.19413","6502100","三芝區"
"252007","AAC-283","2018/11/13 09:09:40","新北市三芝區錫板里海尾15-10號","121.476231666667","25.256935","6502100","三芝區"
"237001","159-UY","2018/11/13 09:09:53","新北市三峽區學勤路108號","121.374983333333","24.9462183333333","6500900","三峽區"
