"lineid","car","time","location","longitude","latitude","cityid","cityname"
"244002","248-BX","2018/11/13 09:59:53","新北市林口區後坑38號","121.354976666667","25.1311316666667","6501700","林口區"
"231007","189-VK","2018/11/13 09:59:55","新北市新店區新潭路三段215巷25號","121.508135","24.90409","6500600","新店區"
"231009","192-VK","2018/11/13 09:59:37","新北市新店區小坑一路41號","121.52764","24.9100783333333","6500600","新店區"
"227006","400-TW","2018/11/13 09:59:49","新北市雙溪區長源里盤山坑16號","121.777308333333","24.998905","6502500","雙溪區"
"227012","030-BX","2018/11/13 09:59:44","新北市雙溪區泰平里料角坑43-1號","121.792476666667","24.95433","6502500","雙溪區"
"252004","249-BX","2018/11/13 09:59:56","新北市三芝區福德里土地公埔47號","121.515773333333","25.22573","6502100","三芝區"
"252007","AAC-283","2018/11/13 09:59:40","新北市三芝區新庄里新庄子131號","121.503776666667","25.27016","6502100","三芝區"
"237001","159-UY","2018/11/13 09:59:53","新北市鶯歌區中正一路465號","121.371606666667","24.958865","6500900","三峽區"
