"lineid","car","time","location","longitude","latitude","cityid","cityname"
"244002","248-BX","2018/11/13 10:19:13","新北市八里區中華路三段161號","121.392121666667","25.1311033333333","6501700","林口區"
"231007","189-VK","2018/11/13 10:19:15","新北市新店區新潭路三段215巷25號","121.508121666667","24.90408","6500600","新店區"
"231009","192-VK","2018/11/13 10:19:16","新北市新店區松林路16巷41號","121.545993333333","24.9067816666667","6500600","新店區"
"227006","400-TW","2018/11/13 10:19:09","新北市雙溪區長源里柑腳18號","121.804698333333","25.014235","6502500","雙溪區"
"252007","AAC-283","2018/11/13 10:19:20","新北市三芝區新庄里番社后2-4號","121.501615","25.2656416666667","6502100","三芝區"
