"lineid","car","time","location","longitude","latitude","cityid","cityname"
"234044","148-BY","2018/11/13 12:37:47","新北市永和區永利路156號","121.52268","25.0028133333333","6500400","永和區"
"234005","207-UY","2018/11/13 12:37:54","新北市永和區福和路1號","121.526698333333","25.0100666666667","6500400","永和區"
"234078","298-R6","2018/11/13 12:37:49","新北市永和區林森路77號","121.523973333333","25.0039433333333","6500400","永和區"
"234036","336-UY","2018/11/13 12:37:42","新北市永和區福和路1號","121.526745","25.0101516666667","6500400","永和區"
"234062","337-UY","2018/11/13 12:37:47","新北市永和區福和路1號","121.526625","25.01004","6500400","永和區"
"234084","338-UY","2018/11/13 12:37:44","新北市中和區安樂路71號","121.512503333333","24.9939616666667","6500400","永和區"
"234068","552-UM","2018/11/13 12:37:39","新北市永和區福和路1號","121.52549","25.009525","6500400","永和區"
"234015","745-BX","2018/11/13 12:37:54","新北市永和區福和路1號","121.526373333333","25.00958","6500400","永和區"
"234028","746-BX","2018/11/13 12:38:00","新北市永和區永元路103號","121.522598333333","25.00225","6500400","永和區"
"234012","KEA-2591","2018/11/13 12:37:40","新北市永和區竹林路75巷33弄47號","121.521345","25.014815","6500400","永和區"
"234060","AAD-866","2018/11/13 12:37:42","新北市永和區福和路1號","121.526001666667","25.00949","6500400","永和區"
"234048","863-TW","2018/11/13 12:35:21","新北市永和區福和路1號","121.526505","25.01019","6500400","永和區"
"234010","9373-KE","2018/11/13 12:37:57","新北市永和區福和路1號","121.525643333333","25.00927","6500400","永和區"
"234076","969-R7","2018/11/13 12:37:52","新北市永和區中正路75號","121.51509","24.99679","6500400","永和區"
"234066","AAC-212","2018/11/13 12:38:01","新北市永和區永利路69號","121.519885","25.0047416666667","6500400","永和區"
"234001","AAC-295","2018/11/13 12:37:56","新北市永和區福和路1號","121.526693333333","25.0100316666667","6500400","永和區"
"231001","047-UY","2018/11/13 12:37:46","新北市新店區安一路一段1-1號","121.518758333333","24.9609866666667","6500600","新店區"
"231005","106-UY","2018/11/13 12:37:51","新北市新店區安華路28-1號","121.519726666667","24.96081","6500600","新店區"
"231052","260-TV","2018/11/13 12:37:54","桃園市桃園區春日路1725號","121.305165","25.0277483333333","6500600","新店區"
"231003","268-BY","2018/11/13 12:37:55","新北市新店區安一路一段1-1號","121.519685","24.96111","6500600","新店區"
"231015","AAD-862","2018/11/13 12:37:45","新北市新店區安一路一段1-1號","121.519603333333","24.9611833333333","6500600","新店區"
"231030","619-UM","2018/11/13 12:37:43","新北市新店區安華路28-1號","121.51953","24.9608733333333","6500600","新店區"
"231035","719-UM","2018/11/13 12:37:40","新北市新店區安一路一段1-1號","121.51952","24.9613633333333","6500600","新店區"
"235029","098-UM","2018/11/13 12:37:40","新北市中和區員山路36巷16-3號","121.485076666667","24.99131","6500300","中和區"
"235031","255-BX","2018/11/13 12:37:49","新北市中和區中正路637巷60弄61號","121.485466666667","24.99329","6500300","中和區"
"228004","212-TW","2018/11/13 12:37:40","新北市貢寮區吉林里枋腳街7-1號","121.887975","25.0089766666667","6502600","貢寮區"
"228005","828-UM","2018/11/13 12:37:47","新北市貢寮區福連里蓬萊街16號","121.98374","24.9939","6502600","貢寮區"
"207002","749-BX","2018/11/13 12:37:45","新北市萬里區雙興里太和路7-2號","121.658633333333","25.1741116666667","6502800","萬里區"
"235025","KEA-2875","2018/11/13 12:36:35","新北市中和區員山路36巷16-3號","121.484875","24.9912916666667","6500300","中和區"
