"lineid","car","time","location","longitude","latitude","cityid","cityname"
"234044","148-BY","2018/11/13 13:07:47","新北市永和區永元路18巷38弄2號","121.52385","25.0001816666667","6500400","永和區"
"234005","207-UY","2018/11/13 13:07:54","新北市永和區中山路一段193號","121.509121666667","25.008885","6500400","永和區"
"234078","298-R6","2018/11/13 13:07:49","新北市永和區福和路57巷14弄1號","121.522806666667","25.0069183333333","6500400","永和區"
"234036","336-UY","2018/11/13 13:08:02","新北市永和區民樂街71巷2號","121.527388333333","24.9973816666667","6500400","永和區"
"234062","337-UY","2018/11/13 13:07:47","新北市永和區秀朗路二段33號","121.521231666667","25.0023683333333","6500400","永和區"
"234084","338-UY","2018/11/13 13:07:44","新北市永和區永貞路112號","121.51884","25.00448","6500400","永和區"
"234068","552-UM","2018/11/13 13:07:58","新北市永和區豫溪街95巷8號","121.518168333333","25.0107416666667","6500400","永和區"
"234015","745-BX","2018/11/13 13:07:34","新北市永和區文化路90巷3弄2號","121.513846666667","25.0155933333333","6500400","永和區"
"234028","746-BX","2018/11/13 13:07:40","新北市永和區民生路23號","121.522838333333","24.9988433333333","6500400","永和區"
"234052","KEA-2590","2018/11/13 13:07:54","新北市永和區中興街133巷8號","121.518591666667","25.012585","6500400","永和區"
"234012","KEA-2591","2018/11/13 13:07:59","新北市永和區保福路二段48號","121.511046666667","25.0121283333333","6500400","永和區"
"234060","AAD-866","2018/11/13 13:07:42","新北市永和區安樂路451號","121.514318333333","25.0049283333333","6500400","永和區"
"234040","862-TW","2018/11/13 13:07:52","新北市永和區保平路93巷1號","121.511703333333","25.0067583333333","6500400","永和區"
"234048","863-TW","2018/11/13 13:07:43","新北市永和區文化路139號","121.510971666667","25.015955","6500400","永和區"
"234025","9371-KE","2018/11/13 13:07:44","新北市永和區永和路一段72巷6號","121.513465","25.0060983333333","6500400","永和區"
"234010","9373-KE","2018/11/13 13:07:57","新北市永和區仁愛路31巷3弄2號","121.514336666667","25.01297","6500400","永和區"
"248017","225-UY","2018/11/13 13:07:57","新北市五股區新五路二段259號","121.442425","25.0848666666667","6501500","五股區"
"234022","9380-KE","2018/11/13 13:07:44","新北市永和區竹林路124巷41號","121.518188333333","25.01119","6500400","永和區"
"234076","969-R7","2018/11/13 13:07:53","新北市永和區民光街8號","121.515435","24.9962016666667","6500400","永和區"
"234072","AAC-211","2018/11/13 13:07:50","新北市永和區福和路14號","121.524286666667","25.008625","6500400","永和區"
"234066","AAC-212","2018/11/13 13:07:40","新北市永和區保平路22號","121.512378333333","25.00746","6500400","永和區"
"234001","AAC-295","2018/11/13 13:07:56","新北市永和區永和路二段35號","121.514365","25.01041","6500400","永和區"
"244002","248-BX","2018/11/13 13:07:52","新北市林口區頭湖74-35號","121.368928333333","25.0895083333333","6501700","林口區"
"231002","002-UM","2018/11/13 13:07:56","新北市新店區安華路28-1號","121.519753333333","24.960995","6500600","新店區"
"231027","0293-UT","2018/11/13 13:07:56","新北市新店區安華路28-1號","121.519486666667","24.9607183333333","6500600","新店區"
"231028","046-UY","2018/11/13 13:07:54","新北市新店區安華路28-1號","121.519706666667","24.9609166666667","6500600","新店區"
"231001","047-UY","2018/11/13 13:07:46","新北市新店區安華路28-1號","121.51906","24.9608783333333","6500600","新店區"
"231005","106-UY","2018/11/13 13:07:51","新北市新店區安華路28-1號","121.519705","24.9609033333333","6500600","新店區"
"231010","107-UY","2018/11/13 13:07:44","新北市新店區安一路一段1-1號","121.51928","24.9614716666667","6500600","新店區"
"231020","108-UY","2018/11/13 13:07:47","新北市新店區安一路一段1-1號","121.5197","24.9612683333333","6500600","新店區"
"231032","110-UY","2018/11/13 13:07:50","新北市新店區安一路一段1-1號","121.519363333333","24.9612133333333","6500600","新店區"
"231023","KEA-2219","2018/11/13 13:07:45","新北市新店區安一路一段1-1號","121.519905","24.9610916666667","6500600","新店區"
"231026","256-BX","2018/11/13 13:07:43","新北市新店區安一路一段1-1號","121.51973","24.9613216666667","6500600","新店區"
"231052","260-TV","2018/11/13 13:07:54","桃園市龜山區東萬壽路656號","121.377693333333","25.0093566666667","6500600","新店區"
"231003","268-BY","2018/11/13 13:07:55","新北市新店區安一路一段1-1號","121.519696666667","24.9611216666667","6500600","新店區"
"231015","AAD-862","2018/11/13 13:07:45","新北市新店區安一路一段1-1號","121.519693333333","24.9612166666667","6500600","新店區"
"231038","3712-VJ","2018/11/13 13:07:55","新北市新店區安華路28-1號","121.51922","24.960625","6500600","新店區"
"231025","4715-K9","2018/11/13 13:07:57","新北市新店區安華路1-1號","121.519268333333","24.9603916666667","6500600","新店區"
"231036","512-UM","2018/11/13 13:07:54","新北市新店區安一路一段1-1號","121.51918","24.9612916666667","6500600","新店區"
"231013","513-UM","2018/11/13 13:08:00","新北市新店區安一路一段1-1號","121.519763333333","24.9612116666667","6500600","新店區"
"231030","619-UM","2018/11/13 13:07:43","新北市新店區安華路28-1號","121.519461666667","24.960915","6500600","新店區"
"231034","641-BX","2018/11/13 13:07:44","新北市新店區安華路28-1號","121.519596666667","24.960555","6500600","新店區"
"231035","719-UM","2018/11/13 13:08:00","新北市新店區安一路一段1-1號","121.519608333333","24.96146","6500600","新店區"
"231029","897-TW","2018/11/13 13:07:49","新北市新店區安華路28-1號","121.519453333333","24.9608033333333","6500600","新店區"
"231004","899-TW","2018/11/13 13:07:51","新北市新店區安華路28-1號","121.5192","24.960885","6500600","新店區"
"231024","AKT-0513","2018/11/13 13:07:42","新北市新店區安華路28-1號","121.519381666667","24.9605766666667","6500600","新店區"
"235028","005-UY","2018/11/13 13:07:49","新北市中和區錦和路350-1號","121.490918333333","24.9936316666667","6500300","中和區"
"235003","097-UM","2018/11/13 13:07:47","新北市中和區和城路一段271巷1號","121.485426666667","24.9917816666667","6500300","中和區"
"235029","098-UM","2018/11/13 13:07:40","新北市中和區莊敬路49巷20弄22號","121.50277","25.00586","6500300","中和區"
"235022","151-BY","2018/11/13 13:07:46","新北市中和區圓通路367巷33弄6-1號","121.492856666667","24.9857016666667","6500300","中和區"
"235019","183-VK","2018/11/13 13:07:47","新北市中和區員山路36巷16-3號","121.48503","24.9914016666667","6500300","中和區"
"235002","185-VK","2018/11/13 13:07:55","新北市中和區自立路23號","121.52227","24.9957716666667","6500300","中和區"
"235031","255-BX","2018/11/13 13:07:29","新北市中和區中山路二段449巷1弄9-2號","121.483898333333","25.0040016666667","6500300","中和區"
"235006","KEA-2878","2018/11/13 13:07:55","新北市中和區中正路218號","121.496595","24.9939166666667","6500300","中和區"
"235034","558-UM","2018/11/13 13:07:41","新北市中和區圓通路176-1號","121.497186666667","24.99449","6500300","中和區"
"235009","565-BX","2018/11/13 13:07:59","新北市中和區員山路36巷13號","121.484168333333","24.991125","6500300","中和區"
"235001","611-BX","2018/11/13 13:07:50","新北市中和區中山路三段136巷29號","121.473553333333","25.00766","6500300","中和區"
"235018","640-BX","2018/11/13 13:07:54","新北市中和區莒光路207-8號","121.470603333333","24.9965933333333","6500300","中和區"
"235011","732-UM","2018/11/13 13:07:56","新北市中和區中正路426號","121.491768333333","24.9936533333333","6500300","中和區"
"235035","783-BX","2018/11/13 13:07:41","新北市中和區板南路488號","121.4875","25.0067316666667","6500300","中和區"
"235026","800-TS","2018/11/13 13:07:49","新北市中和區建一路157號","121.488523333333","24.99929","6500300","中和區"
"235005","802-TS","2018/11/13 13:07:46","新北市中和區中正路637巷52弄1號","121.485458333333","24.9934133333333","6500300","中和區"
"235016","805-TS","2018/11/13 13:07:47","新北市中和區中正路637巷52弄1號","121.485461666667","24.99352","6500300","中和區"
"235015","157-BY","2018/11/13 13:07:54","新北市中和區中正路209號","121.497141666667","24.9935316666667","6500300","中和區"
"235001","AAC-213","2018/11/13 13:07:58","新北市中和區景平路149號","121.513896666667","24.9922983333333","6500300","中和區"
"235023","AAC-215","2018/11/13 13:07:52","新北市中和區員山路36巷16-3號","121.484945","24.9913466666667","6500300","中和區"
"228004","212-TW","2018/11/13 13:08:00","新北市貢寮區吉林里內寮街75號","121.891261666667","24.9723883333333","6502600","貢寮區"
"228005","828-UM","2018/11/13 13:07:47","新北市貢寮區仁理村研海街29號","121.929578333333","25.0327983333333","6502600","貢寮區"
"207002","749-BX","2018/11/13 13:07:54","新北市萬里區溪底里香員林路17號","121.636455","25.1608533333333","6502800","萬里區"
"207001","662-BX","2018/11/13 13:07:39","新北市萬里區萬里里獅頭路22-1號","121.692963333333","25.1781866666667","6502800","萬里區"
"252005","AAC-283","2018/11/13 13:07:59","新北市三芝區八賢里八連溪13號","121.51045","25.243485","6502100","三芝區"
"221010","269-BY","2018/11/13 13:08:00","新北市汐止區忠三街8號","121.624765","25.0784466666667","6501100","汐止區"
"221032","280-BY","2018/11/13 13:07:47","新北市汐止區建成路57巷22號","121.662168333333","25.0726533333333","6501100","汐止區"
"221033","647-BX","2018/11/13 13:07:51","新北市汐止區秀峰路137巷6號","121.660816666667","25.0624633333333","6501100","汐止區"
"235025","KEA-2875","2018/11/13 12:39:37","新北市中和區和城路一段271巷1號","121.485715","24.9915383333333","6500300","中和區"
