"lineid","car","time","location","longitude","latitude","cityid","cityname"
"234044","148-BY","2018/11/13 13:28:02","新北市永和區得和路423號","121.526173333333","24.9992866666667","6500400","永和區"
"234005","207-UY","2018/11/13 13:27:54","新北市永和區中山路一段172號","121.509183333333","25.0090983333333","6500400","永和區"
"234078","298-R6","2018/11/13 13:27:49","新北市永和區環河東路三段58號","121.526945","25.006085","6500400","永和區"
"234036","336-UY","2018/11/13 13:27:42","新北市永和區民樂街28號","121.527515","25.0015183333333","6500400","永和區"
"234062","337-UY","2018/11/13 13:27:47","新北市永和區得和路243巷26號","121.520835","25.0011816666667","6500400","永和區"
"234084","338-UY","2018/11/13 13:27:43","新北市永和區國中路2號","121.524151666667","25.0042916666667","6500400","永和區"
"234068","552-UM","2018/11/13 13:27:39","新北市永和區警光街12號","121.519775","25.00955","6500400","永和區"
"234015","745-BX","2018/11/13 13:27:54","新北市永和區環河西路一段51巷1號","121.514341666667","25.0181133333333","6500400","永和區"
"234028","746-BX","2018/11/13 13:28:00","新北市永和區民生路38號","121.522536666667","24.9968133333333","6500400","永和區"
"234052","KEA-2590","2018/11/13 13:27:54","新北市永和區復興街17號","121.516046666667","25.0130316666667","6500400","永和區"
"234012","KEA-2591","2018/11/13 13:27:40","新北市永和區永貞路422號","121.508625","25.0084133333333","6500400","永和區"
"234060","AAD-866","2018/11/13 13:27:42","新北市永和區中正路471號","121.51705","25.0061866666667","6500400","永和區"
"234040","862-TW","2018/11/13 13:27:52","新北市永和區中和路573號","121.511715","25.0034616666667","6500400","永和區"
"234048","863-TW","2018/11/13 13:28:01","新北市永和區信義路120號","121.512481666667","25.0146616666667","6500400","永和區"
"234025","9371-KE","2018/11/13 13:27:44","新北市永和區中山路一段17巷4弄12號","121.513211666667","25.010265","6500400","永和區"
"234010","9373-KE","2018/11/13 13:27:58","新北市永和區保福路二段44巷2弄10號","121.511593333333","25.0118433333333","6500400","永和區"
"248017","225-UY","2018/11/13 13:27:57","新北市五股區御史路300號","121.417051666667","25.109615","6501500","五股區"
"234022","9380-KE","2018/11/13 13:27:43","新北市永和區豫溪街185號","121.522506666667","25.0103766666667","6500400","永和區"
"234076","969-R7","2018/11/13 13:27:52","新北市永和區智光街37號","121.517848333333","24.9987416666667","6500400","永和區"
"234072","AAC-211","2018/11/13 13:27:50","新北市永和區永和路二段105號","121.514923333333","25.01188","6500400","永和區"
"234066","AAC-212","2018/11/13 13:27:41","新北市永和區永貞路339號","121.50956","25.0071716666667","6500400","永和區"
"234001","AAC-295","2018/11/13 13:27:56","新北市永和區永和路一段118號","121.513926666667","25.00781","6500400","永和區"
"244002","248-BX","2018/11/13 13:27:52","新北市林口區頂福里5號","121.36181","25.0820633333333","6501700","林口區"
"231002","002-UM","2018/11/13 13:27:56","新北市新店區環河路29巷1號","121.536998333333","24.9612966666667","6500600","新店區"
"231037","0291-UT","2018/11/13 13:27:48","新北市新店區安豐路49號","121.500153333333","24.9540983333333","6500600","新店區"
"231027","0293-UT","2018/11/13 13:27:57","新北市新店區環河路19巷15號","121.537618333333","24.9602433333333","6500600","新店區"
"231028","046-UY","2018/11/13 13:27:54","新北市新店區安華路28-1號","121.519685","24.9609566666667","6500600","新店區"
"231001","047-UY","2018/11/13 13:27:46","新北市新店區安康路一段98號","121.52752","24.9623366666667","6500600","新店區"
"231005","106-UY","2018/11/13 13:27:51","新北市新店區環河路15-1號","121.537765","24.9614566666667","6500600","新店區"
"231010","107-UY","2018/11/13 13:27:44","新北市新店區中正路347號","121.535388333333","24.9758416666667","6500600","新店區"
"231020","108-UY","2018/11/13 13:27:47","新北市新店區永興路21號","121.544408333333","24.9378533333333","6500600","新店區"
"231032","110-UY","2018/11/13 13:27:50","新北市新店區安豐路49號","121.500071666667","24.9540616666667","6500600","新店區"
"231012","187-VK","2018/11/13 13:27:43","新北市新店區光明街185號","121.539795","24.9632033333333","6500600","新店區"
"231023","KEA-2219","2018/11/13 13:27:45","新北市新店區北新路一段89號","121.538601666667","24.96161","6500600","新店區"
"231026","256-BX","2018/11/13 13:27:43","新北市新店區秀山路72號","121.531378333333","24.9608866666667","6500600","新店區"
"231052","260-TV","2018/11/13 13:23:32","桃園市龜山區東萬壽路652號","121.377431666667","25.0094266666667","6500600","新店區"
"231003","268-BY","2018/11/13 13:27:55","新北市新店區安康路一段3-1號","121.535475","24.9609516666667","6500600","新店區"
"231018","278-BY","2018/11/13 13:27:51","新北市新店區環河路113-1號","121.531456666667","24.9711783333333","6500600","新店區"
"231015","AAD-862","2018/11/13 13:27:45","新北市新店區北宜路二段30巷5弄12號","121.548475","24.9506766666667","6500600","新店區"
"231038","3712-VJ","2018/11/13 13:27:55","新北市新店區安華路28-1號","121.519316666667","24.9606616666667","6500600","新店區"
"231025","4715-K9","2018/11/13 13:27:57","新北市新店區中央五街39號","121.528508333333","24.975105","6500600","新店區"
"231036","512-UM","2018/11/13 13:27:54","新北市新店區建業路47-1號","121.478751666667","24.9550216666667","6500600","新店區"
"231013","513-UM","2018/11/13 13:28:00","新北市新店區環河路29巷1號","121.536921666667","24.96139","6500600","新店區"
"231006","618-UM","2018/11/13 13:28:01","新北市新店區安康路一段355號","121.519831666667","24.9627216666667","6500600","新店區"
"231030","619-UM","2018/11/13 13:27:43","新北市新店區安華路28-1號","121.51957","24.9608683333333","6500600","新店區"
"231034","641-BX","2018/11/13 13:27:44","新北市新店區安華路16號","121.517451666667","24.9581333333333","6500600","新店區"
"231035","719-UM","2018/11/13 13:27:40","新北市新店區安一路一段1-1號","121.519598333333","24.9615283333333","6500600","新店區"
"231029","897-TW","2018/11/13 13:27:49","新北市新店區安華路30巷3號","121.518801666667","24.9586316666667","6500600","新店區"
"231004","899-TW","2018/11/13 13:27:50","新北市新店區安一路一段1-1號","121.518955","24.96098","6500600","新店區"
"231024","AKT-0513","2018/11/13 13:27:42","新北市新店區北新路二段59巷5號","121.542293333333","24.9730716666667","6500600","新店區"
"235030","003-UY","2018/11/13 13:27:49","新北市中和區中山路二段119號","121.502896666667","25.0037483333333","6500300","中和區"
"235028","005-UY","2018/11/13 13:27:49","新北市中和區圓通路158巷1弄9號","121.497216666667","24.9960783333333","6500300","中和區"
"235027","006-UY","2018/11/13 13:27:56","新北市中和區連城路347巷1弄1號","121.488278333333","24.9957483333333","6500300","中和區"
"235020","096-UM","2018/11/13 13:27:48","新北市中和區中正路748號","121.485626666667","24.99845","6500300","中和區"
"235003","097-UM","2018/11/13 13:27:46","新北市中和區景平路390號","121.51049","24.99288","6500300","中和區"
"235029","098-UM","2018/11/13 13:27:40","新北市中和區莊敬路49巷10弄34號","121.502926666667","25.005565","6500300","中和區"
"235004","150-BY","2018/11/13 13:27:47","新北市永和區四維街81號","121.524916666667","24.9980233333333","6500300","中和區"
"235022","151-BY","2018/11/13 13:27:46","新北市中和區圓通路369巷156弄2號","121.48811","24.9819333333333","6500300","中和區"
"235019","183-VK","2018/11/13 13:27:47","新北市中和區莒光路200號","121.472221666667","24.9985516666667","6500300","中和區"
"235002","185-VK","2018/11/13 13:27:55","新北市中和區秀朗路三段128巷17弄21號","121.523338333333","24.99335","6500300","中和區"
"235013","186-VK","2018/11/13 13:28:00","新北市中和區景平路349號","121.50497","24.9934933333333","6500300","中和區"
"235031","255-BX","2018/11/13 13:27:49","新北市中和區連城路340巷14弄18號","121.482978333333","24.997175","6500300","中和區"
"235036","301-VK","2018/11/13 13:27:38","新北市中和區連城路263巷1號","121.492108333333","24.99652","6500300","中和區"
"235007","352-BY","2018/11/13 13:27:52","新北市中和區景平路349號","121.50511","24.9934216666667","6500300","中和區"
"235006","KEA-2878","2018/11/13 13:27:55","新北市中和區自立路70號","121.52378","24.9911633333333","6500300","中和區"
"235014","4979-A6","2018/11/13 13:27:56","新北市中和區景新街320號","121.511678333333","24.991315","6500300","中和區"
"235033","4980-A6","2018/11/13 13:27:51","新北市中和區板南路260號","121.495885","24.99579","6500300","中和區"
"235034","558-UM","2018/11/13 13:27:41","新北市中和區南華路55號","121.504103333333","24.9968566666667","6500300","中和區"
"235009","565-BX","2018/11/13 13:27:59","新北市中和區南山路236巷24弄23號","121.504856666667","24.9888433333333","6500300","中和區"
"235018","640-BX","2018/11/13 13:27:54","新北市中和區民享街93號","121.474655","25.0006","6500300","中和區"
"235024","647-TV","2018/11/13 13:27:55","新北市中和區連城路356號","121.482163333333","24.99545","6500300","中和區"
"235011","732-UM","2018/11/13 13:27:56","新北市中和區南山路487號","121.508","24.987935","6500300","中和區"
"235035","783-BX","2018/11/13 13:28:01","新北市中和區中板路50號","121.482536666667","25.01218","6500300","中和區"
"235026","800-TS","2018/11/13 13:27:50","新北市中和區景平路738號","121.496648333333","25.0040983333333","6500300","中和區"
"235021","801-TS","2018/11/13 13:27:56","新北市中和區民享街97巷19號","121.47531","24.9995833333333","6500300","中和區"
"235005","802-TS","2018/11/13 13:27:46","新北市中和區中和路324巷6弄5號","121.509633333333","25.0004216666667","6500300","中和區"
"235016","805-TS","2018/11/13 13:27:47","新北市中和區興南路二段133號","121.50524","24.9842216666667","6500300","中和區"
"235012","896-TW","2018/11/13 13:27:45","新北市中和區建八路1號","121.485596666667","24.9985766666667","6500300","中和區"
"235017","900-TW","2018/11/13 13:27:56","新北市中和區民享街457號","121.470463333333","24.9931666666667","6500300","中和區"
"235015","157-BY","2018/11/13 13:27:54","新北市中和區興南路二段142巷24弄2號","121.502233333333","24.9847216666667","6500300","中和區"
"235001","AAC-213","2018/11/13 13:27:58","新北市中和區景德街95-8號","121.51527","24.9910733333333","6500300","中和區"
"235023","AAC-215","2018/11/13 13:27:52","新北市中和區員山路36巷16-3號","121.484928333333","24.9916","6500300","中和區"
"220034","073-UY","2018/11/13 13:27:45","新北市板橋區華東街1-10號","121.448263333333","24.9950383333333","6500100","板橋區"
"220017","AAD-861","2018/11/13 13:27:43","新北市板橋區華東街1-10號","121.448376666667","24.9951316666667","6500100","板橋區"
"247009","056-VK","2018/11/13 13:27:54","新北市五股區中興路三段2巷10號","121.44935","25.0809166666667","6501400","蘆洲區"
"228004","212-TW","2018/11/13 13:27:40","新北市貢寮區龍崗里石壁坑街17號","121.910436666667","24.9894583333333","6502600","貢寮區"
"228005","828-UM","2018/11/13 13:27:47","新北市貢寮區美豐里文秀坑8號","121.902368333333","25.0502483333333","6502600","貢寮區"
"207002","749-BX","2018/11/13 13:27:45","新北市萬里區崁腳里崁腳路166號","121.645053333333","25.1558433333333","6502800","萬里區"
"207001","662-BX","2018/11/13 13:27:59","新北市萬里區龜吼里海景路1號","121.683588333333","25.1911033333333","6502800","萬里區"
"252005","AAC-283","2018/11/13 13:27:58","新北市三芝區圓山里內柑宅25-2號","121.536911666667","25.22722","6502100","三芝區"
"221010","269-BY","2018/11/13 13:27:41","台北市內湖區大湖街143號","121.6082","25.1040533333333","6501100","汐止區"
"221032","280-BY","2018/11/13 13:27:47","新北市汐止區龍安路12巷4號","121.655178333333","25.06419","6501100","汐止區"
"221033","647-BX","2018/11/13 13:27:51","台北市文山區木柵路五段110號","121.594028333333","24.9985233333333","6501100","汐止區"
"220030","610-BX","2018/11/13 13:27:42","新北市板橋區華東街1-10號","121.448293333333","24.99495","6500100","板橋區"
"220012","282-UM","2018/11/13 13:27:47","新北市板橋區南雅南路二段120-16號","121.451933333333","24.9991433333333","6500100","板橋區"
"220031","286-VK","2018/11/13 13:27:40","新北市板橋區華東街1-10號","121.448385","24.99508","6500100","板橋區"
"220029","287-VK","2018/11/13 13:28:01","新北市板橋區華東街1-10號","121.448255","24.9950233333333","6500100","板橋區"
"220104","560-BX","2018/11/13 13:27:44","新北市板橋區南雅東路4號","121.455508333333","25.0057966666667","6500100","板橋區"
"220005","686-BX","2018/11/13 13:27:49","新北市板橋區華東街1-9號","121.448253333333","24.9948883333333","6500100","板橋區"
"220025","687-BX","2018/11/13 13:27:59","新北市板橋區大觀路三段36巷5號","121.433535","24.9958066666667","6500100","板橋區"
"220022","895-R6","2018/11/13 13:27:56","新北市板橋區華東街1-10號","121.448238333333","24.9950066666667","6500100","板橋區"
"235032","KEA-2873","2018/11/13 13:27:31","新北市中和區錦和路350-1號","121.490718333333","24.99346","6500300","中和區"
"235025","KEA-2875","2018/11/13 13:27:37","新北市中和區民享街116巷6-1號","121.474285","24.998775","6500300","中和區"
