"lineid","car","time","location","longitude","latitude","cityid","cityname"
"234044","148-BY","2018/11/13 14:19:47","新北市永和區成功路一段2號","121.526985","25.0057366666667","6500400","永和區"
"234005","207-UY","2018/11/13 14:19:54","新北市永和區中正路652號","121.516925","25.0085616666667","6500400","永和區"
"234078","298-R6","2018/11/13 14:19:53","新北市永和區國中路132巷13號","121.523881666667","25.0075216666667","6500400","永和區"
"234036","336-UY","2018/11/13 14:20:02","新北市永和區成功路一段17巷6弄2號","121.527675","25.0049533333333","6500400","永和區"
"234062","337-UY","2018/11/13 14:19:47","新北市永和區得和路131號","121.519095","25.000175","6500400","永和區"
"234084","338-UY","2018/11/13 14:19:43","新北市永和區永和路二段155號","121.515213333333","25.0127266666667","6500400","永和區"
"234068","552-UM","2018/11/13 14:19:58","新北市永和區福和路239號","121.518378333333","25.0073733333333","6500400","永和區"
"234028","746-BX","2018/11/13 14:19:40","新北市永和區民族街67巷20號","121.519671666667","24.99708","6500400","永和區"
"234052","KEA-2590","2018/11/13 14:19:54","新北市永和區光復街2巷26弄2號","121.517648333333","25.0165116666667","6500400","永和區"
"234012","KEA-2591","2018/11/13 14:19:59","新北市永和區仁愛路295號","121.505071666667","25.0091716666667","6500400","永和區"
"234060","AAD-866","2018/11/13 14:19:42","新北市永和區安樂路194巷17弄13號","121.516181666667","25.0014416666667","6500400","永和區"
"234040","862-TW","2018/11/13 14:19:52","新北市永和區安樂路218號","121.514963333333","25.0022616666667","6500400","永和區"
"234048","863-TW","2018/11/13 14:20:01","新北市永和區新生路2-3號","121.509273333333","25.0167916666667","6500400","永和區"
"234025","9371-KE","2018/11/13 14:19:50","新北市永和區安樂路144巷21-3號","121.514901666667","24.999915","6500400","永和區"
"248017","225-UY","2018/11/13 14:18:37","新北市五股區壟路16-1號","121.414358333333","25.0852516666667","6501500","五股區"
"234076","969-R7","2018/11/13 14:19:52","新北市永和區民族街81巷58號","121.520011666667","24.9964583333333","6500400","永和區"
"234072","AAC-211","2018/11/13 14:19:50","新北市永和區竹林路119巷30弄2號","121.522093333333","25.0115833333333","6500400","永和區"
"234066","AAC-212","2018/11/13 14:20:00","新北市永和區保平路292巷40弄2號","121.507723333333","25.0051116666667","6500400","永和區"
"234001","AAC-295","2018/11/13 14:19:56","新北市永和區自強街39號","121.516013333333","25.0081516666667","6500400","永和區"
"244002","248-BX","2018/11/13 14:00:08","新北市林口區林口路76號","121.389688333333","25.0807216666667","6501700","林口區"
"231002","002-UM","2018/11/13 14:19:56","新北市新店區中央路135號","121.530388333333","24.9737683333333","6500600","新店區"
"231037","0291-UT","2018/11/13 14:19:48","新北市新店區安康路三段131號","121.49017","24.9518016666667","6500600","新店區"
"231027","0293-UT","2018/11/13 14:19:57","新北市新店區光明街286巷2號","121.54052","24.9638633333333","6500600","新店區"
"231028","046-UY","2018/11/13 14:19:54","新北市新店區安和路二段215號","121.517615","24.9755366666667","6500600","新店區"
"231001","047-UY","2018/11/13 14:19:46","新北市新店區中正路75巷71號","121.543256666667","24.9689266666667","6500600","新店區"
"231005","106-UY","2018/11/13 14:19:51","新北市新店區中興路三段175號","121.544123333333","24.9807316666667","6500600","新店區"
"231020","108-UY","2018/11/13 14:19:47","新北市新店區新烏路二段198巷2弄2號","121.547766666667","24.9170516666667","6500600","新店區"
"231032","110-UY","2018/11/13 14:19:50","新北市新店區溪洲路85號","121.533183333333","24.961015","6500600","新店區"
"231012","187-VK","2018/11/13 14:19:52","新北市新店區五峰路63巷8弄23號","121.547421666667","24.9693333333333","6500600","新店區"
"231023","KEA-2219","2018/11/13 14:19:45","新北市新店區光明街105號","121.539143333333","24.9612583333333","6500600","新店區"
"231052","260-TV","2018/11/13 14:19:43","桃園市蘆竹區錦秀街1號","121.285703333333","25.0488266666667","6500600","新店區"
"231003","268-BY","2018/11/13 14:19:55","新北市新店區中興路一段190號","121.54345","24.964985","6500600","新店區"
"231018","278-BY","2018/11/13 14:19:51","新北市新店區中央五街6號","121.529935","24.9738866666667","6500600","新店區"
"231015","AAD-862","2018/11/13 14:19:45","新北市新店區北宜路三段66號","121.575735","24.95063","6500600","新店區"
"231038","3712-VJ","2018/11/13 14:19:55","新北市新店區溪洲路6巷6-2號","121.53388","24.9611683333333","6500600","新店區"
"231036","512-UM","2018/11/13 14:19:54","新北市新店區安祥路109巷112號","121.477071666667","24.9587333333333","6500600","新店區"
"231013","513-UM","2018/11/13 14:20:00","新北市新店區大豐路42號","121.540146666667","24.9799183333333","6500600","新店區"
"231006","618-UM","2018/11/13 14:20:01","新北市新店區北宜路二段599號","121.568096666667","24.9557916666667","6500600","新店區"
"231030","619-UM","2018/11/13 14:19:43","新北市新店區安民街3巷5號","121.514525","24.964325","6500600","新店區"
"231034","641-BX","2018/11/13 14:19:44","新北市新店區車子路11號","121.503091666667","24.9520433333333","6500600","新店區"
"231035","719-UM","2018/11/13 14:19:00","新北市新店區安和路二段113巷3弄5號","121.518025","24.9699233333333","6500600","新店區"
"231029","897-TW","2018/11/13 14:19:48","新北市新店區安康路二段222號","121.509616666667","24.9594233333333","6500600","新店區"
"231004","899-TW","2018/11/13 14:19:50","新北市新店區中正路215號","121.539723333333","24.9727583333333","6500600","新店區"
"231024","AKT-0513","2018/11/13 14:19:42","新北市新店區安德街60巷35號","121.511008333333","24.9638033333333","6500600","新店區"
"235030","003-UY","2018/11/13 14:19:49","新北市中和區中和路102號","121.502636666667","24.9997316666667","6500300","中和區"
"235028","005-UY","2018/11/13 14:19:49","新北市中和區南山路81巷19號","121.502485","24.9981183333333","6500300","中和區"
"235027","006-UY","2018/11/13 14:19:56","新北市中和區連城路203巷7號","121.494936666667","24.9975116666667","6500300","中和區"
"235020","096-UM","2018/11/13 14:19:48","新北市中和區員山路504號","121.479398333333","25.008195","6500300","中和區"
"235003","097-UM","2018/11/13 14:19:46","新北市中和區秀峰街103巷3弄2號","121.520431666667","24.9899","6500300","中和區"
"235029","098-UM","2018/11/13 14:20:00","新北市中和區中山路二段2巷45弄42號","121.501966666667","25.0064","6500300","中和區"
"235004","150-BY","2018/11/13 14:19:28","新北市中和區安平路36巷59號","121.510646666667","24.99452","6500300","中和區"
"235022","151-BY","2018/11/13 14:19:46","新北市中和區員山路36巷16-2號","121.485256666667","24.99168","6500300","中和區"
"235019","183-VK","2018/11/13 14:19:47","新北市中和區中山路三段181巷30號","121.473115","25.00502","6500300","中和區"
"235002","185-VK","2018/11/13 14:19:55","新北市中和區大仁街10巷48-1號","121.519533333333","24.9924233333333","6500300","中和區"
"235013","186-VK","2018/11/13 14:20:00","新北市中和區景新街230巷2號","121.508125","24.9941333333333","6500300","中和區"
"235031","255-BX","2018/11/13 14:19:49","新北市中和區連城路280號","121.48437","24.9962866666667","6500300","中和區"
"235008","293-VK","2018/11/13 14:19:41","新北市中和區復興路313號","121.50113","24.9902366666667","6500300","中和區"
"235036","301-VK","2018/11/13 14:19:58","新北市中和區莊敬路33巷24號","121.500035","25.0055516666667","6500300","中和區"
"235007","352-BY","2018/11/13 14:19:52","新北市中和區景平路296號","121.512781666667","24.9925366666667","6500300","中和區"
"235006","KEA-2878","2018/11/13 14:19:55","新北市中和區安樂路217巷35弄12號","121.514028333333","24.99773","6500300","中和區"
"247011","KEA-2869","2018/11/13 14:19:51","新北市蘆洲區民權路3巷6號","121.476281666667","25.0855383333333","6501400","蘆洲區"
"235014","4979-A6","2018/11/13 14:19:56","新北市中和區復興路261號","121.502905","24.990265","6500300","中和區"
"235033","4980-A6","2018/11/13 14:19:50","新北市中和區景平路736巷1弄2號","121.497056666667","25.0039183333333","6500300","中和區"
"235034","558-UM","2018/11/13 14:20:01","新北市中和區中山路二段240號","121.497885","25.002585","6500300","中和區"
"235009","565-BX","2018/11/13 14:19:59","新北市中和區景新街423巷33弄4號","121.513855","24.9898816666667","6500300","中和區"
"235018","640-BX","2018/11/13 14:19:54","新北市中和區國光街109巷24號","121.469546666667","24.99979","6500300","中和區"
"235024","647-TV","2018/11/13 14:19:55","新北市中和區員山路268巷9弄8號","121.482075","25.002345","6500300","中和區"
"235011","732-UM","2018/11/13 14:19:56","新北市中和區景平路241巷64弄8號","121.507783333333","24.9926083333333","6500300","中和區"
"235010","733-UM","2018/11/13 14:19:50","新北市中和區忠孝街2巷12-1號","121.51058","24.9816733333333","6500300","中和區"
"235035","783-BX","2018/11/13 14:20:01","新北市中和區連城路342號","121.48277","24.99583","6500300","中和區"
"235026","800-TS","2018/11/13 14:19:49","新北市中和區中山路二段359巷2號","121.488333333333","25.0043066666667","6500300","中和區"
"235021","801-TS","2018/11/13 14:19:55","新北市中和區員山路423巷14弄2號","121.48046","25.00305","6500300","中和區"
"235005","802-TS","2018/11/13 14:19:46","新北市中和區宜安路102號","121.5104","24.9977516666667","6500300","中和區"
"235016","805-TS","2018/11/13 14:19:47","新北市中和區興南路二段128巷1弄3號","121.503888333333","24.983605","6500300","中和區"
"235012","896-TW","2018/11/13 14:19:45","新北市中和區華新街109巷1弄1號","121.508756666667","24.982535","6500300","中和區"
"235017","900-TW","2018/11/13 14:19:56","新北市中和區華安街17巷16號","121.467296666667","24.9982516666667","6500300","中和區"
"235015","157-BY","2018/11/13 14:19:54","新北市中和區南山路146巷7號","121.503433333333","24.9922816666667","6500300","中和區"
"235001","AAC-213","2018/11/13 14:19:58","新北市中和區自立路15巷8號","121.523016666667","24.99581","6500300","中和區"
"235023","AAC-215","2018/11/13 14:19:51","新北市中和區圓通路252巷5弄42號","121.492291666667","24.9916233333333","6500300","中和區"
"220013","072-UY","2018/11/13 14:20:02","新北市板橋區國泰街76巷15號","121.467143333333","25.006875","6500100","板橋區"
"220034","073-UY","2018/11/13 14:19:54","新北市板橋區中正路250巷17號","121.4564","25.0194216666667","6500100","板橋區"
"220105","075-UY","2018/11/13 14:19:59","新北市板橋區文化路二段417巷40號","121.473703333333","25.03373","6500100","板橋區"
"220017","AAD-861","2018/11/13 14:19:43","新北市板橋區貴興路43號","121.457401666667","25.0035866666667","6500100","板橋區"
"247001","893-R6","2018/11/13 14:20:01","新北市蘆洲區永樂街77號","121.456091666667","25.0886933333333","6501400","蘆洲區"
"247023","500-BY","2018/11/13 14:19:57","新北市蘆洲區長興路415號","121.461726666667","25.0930133333333","6501400","蘆洲區"
"247013","339-TH","2018/11/13 14:19:47","新北市蘆洲區成功路92號","121.472818333333","25.0816083333333","6501400","蘆洲區"
"247005","337-TH","2018/11/13 14:19:58","新北市蘆洲區長安街22巷2號","121.464318333333","25.0792833333333","6501400","蘆洲區"
"247019","057-VK","2018/11/13 14:19:53","新北市蘆洲區仁愛街35巷15弄1號","121.471733333333","25.0925566666667","6501400","蘆洲區"
"247009","056-VK","2018/11/13 14:19:54","新北市蘆洲區鷺江街69號","121.477178333333","25.0829166666667","6501400","蘆洲區"
"247007","053-VK","2018/11/13 14:19:52","新北市蘆洲區中山一路161號","121.475573333333","25.0815583333333","6501400","蘆洲區"
"247017","007-UY","2018/11/13 14:19:50","新北市蘆洲區民權路120號","121.473468333333","25.0885383333333","6501400","蘆洲區"
"247003","002-UY","2018/11/13 14:19:40","新北市蘆洲區長安街194巷14號","121.459456666667","25.0843266666667","6501400","蘆洲區"
"247021","001-UY","2018/11/13 14:19:49","新北市蘆洲區中正路434巷5號","121.46354","25.09467","6501400","蘆洲區"
"228004","212-TW","2018/11/13 14:20:00","新北市貢寮區雙玉里田寮洋街39號","121.924881666667","25.013865","6502600","貢寮區"
"228005","828-UM","2018/11/13 14:19:47","新北市貢寮區美豐里土地公嶺54號","121.89455","25.0650833333333","6502600","貢寮區"
"207002","749-BX","2018/11/13 14:19:45","新北市萬里區溪底里溪底路14號","121.615006666667","25.150715","6502800","萬里區"
"207001","662-BX","2018/11/13 14:19:59","新北市萬里區磺潭里清水18號","121.637721666667","25.19764","6502800","萬里區"
"252005","AAC-283","2018/11/13 14:19:58","新北市三芝區橫山里大坑98-1號","121.52619","25.2615316666667","6502100","三芝區"
"236065","105-UM","2018/11/13 14:19:56","新北市土城區明德路一段109號","121.465535","24.9817433333333","6501300","土城區"
"236040","KED-0685","2018/11/13 14:20:00","新北市土城區樂利街3巷1號","121.448181666667","24.98602","6501300","土城區"
"236074","166-UM","2018/11/13 14:20:00","新北市土城區中央路三段279號","121.42673","24.963465","6501300","土城區"
"236029","253-BX","2018/11/13 14:19:56","新北市土城區順風路66號","121.440356666667","24.9776116666667","6501300","土城區"
"236024","269-VK","2018/11/13 14:19:43","新北市土城區承天路67號","121.439568333333","24.9635966666667","6501300","土城區"
"236013","270-VK","2018/11/13 14:19:47","新北市土城區青雲路39巷7號","121.460391666667","24.9875716666667","6501300","土城區"
"236032","271-VK","2018/11/13 14:20:02","新北市土城區青雲路483巷1號","121.459375","24.9737216666667","6501300","土城區"
"236017","401-BY","2018/11/13 14:19:58","新北市土城區金城路二段219號","121.454961666667","24.9820083333333","6501300","土城區"
"236057","912-UM","2018/11/13 14:19:32","新北市土城區中央路四段424-1號","121.41096","24.951895","6501300","土城區"
"236045","913-UM","2018/11/13 14:19:51","新北市土城區明德路一段355-5號","121.456925","24.977565","6501300","土城區"
"236060","915-UM","2018/11/13 14:20:01","新北市土城區延壽路44巷15號","121.471365","24.9929483333333","6501300","土城區"
"236054","AAC-216","2018/11/13 14:19:56","新北市土城區中華路二段168-1號","121.437375","24.9724833333333","6501300","土城區"
"221010","269-BY","2018/11/13 14:20:00","新北市汐止區長青路210巷188號","121.616275","25.1132966666667","6501100","汐止區"
"221033","647-BX","2018/11/13 14:19:51","新北市汐止區大同路一段150號","121.631751666667","25.055595","6501100","汐止區"
"220027","145-BY","2018/11/13 14:19:49","新北市板橋區民權路202巷21弄2號","121.460565","25.0174033333333","6500100","板橋區"
"220028","200-UY","2018/11/13 14:19:51","新北市板橋區大觀路二段19巷100號","121.44962","25.0026766666667","6500100","板橋區"
"220030","610-BX","2018/11/13 14:19:42","新北市板橋區金門街378號","121.426973333333","24.9836783333333","6500100","板橋區"
"220040","267-BY","2018/11/13 14:19:53","新北市板橋區文聖街72-6號","121.477101666667","25.0305283333333","6500100","板橋區"
"220004","276-BY","2018/11/13 14:20:01","新北市板橋區干城路148-1號","121.459951666667","24.9928216666667","6500100","板橋區"
"220020","277-BY","2018/11/13 14:20:01","新北市板橋區金門街248號","121.430461666667","24.9871216666667","6500100","板橋區"
"220050","280-UM","2018/11/13 14:19:45","新北市板橋區雙十路二段110號","121.474206666667","25.0285916666667","6500100","板橋區"
"220012","282-UM","2018/11/13 14:19:47","新北市板橋區中山路一段36號","121.46056","25.0087166666667","6500100","板橋區"
"220043","283-UM","2018/11/13 14:20:00","新北市板橋區吳鳳路23號","121.466946666667","25.030975","6500100","板橋區"
"220019","283-VK","2018/11/13 14:19:46","新北市板橋區忠孝路2號","121.459486666667","25.0016333333333","6500100","板橋區"
"220037","285-UM","2018/11/13 14:19:48","新北市板橋區雙十路二段65號","121.476298333333","25.0265866666667","6500100","板橋區"
"220001","285-VK","2018/11/13 14:19:48","新北市板橋區縣民大道三段270巷19號","121.478598333333","25.0227766666667","6500100","板橋區"
"220031","286-VK","2018/11/13 14:20:00","新北市板橋區龍興街73巷35-4號","121.442398333333","25.0027066666667","6500100","板橋區"
"220029","287-VK","2018/11/13 14:20:01","新北市板橋區華東街330號","121.45307","25.0038266666667","6500100","板橋區"
"220039","288-VK","2018/11/13 14:19:51","新北市板橋區長江路一段106巷13弄3號","121.460183333333","25.0291783333333","6500100","板橋區"
"220009","295-UM","2018/11/13 14:19:57","新北市板橋區成功路6巷12號","121.475981666667","25.0170133333333","6500100","板橋區"
"220032","296-UM","2018/11/13 14:19:55","新北市板橋區篤行路三段20-2號","121.428593333333","24.98712","6500100","板橋區"
"220023","303-R5","2018/11/13 14:19:56","新北市板橋區南雅西路一段39巷30號","121.452746666667","25.0045833333333","6500100","板橋區"
"220010","305-R5","2018/11/13 14:19:58","新北市板橋區三民路二段153巷14號","121.480088333333","25.01495","6500100","板橋區"
"220041","307-R5","2018/11/13 14:20:02","新北市板橋區松江街74號","121.468841666667","25.0278466666667","6500100","板橋區"
"220047","317-R6","2018/11/13 14:19:58","新北市板橋區四維路266巷2弄25-1號","121.464133333333","25.0281383333333","6500100","板橋區"
"220038","487-VK","2018/11/13 14:19:51","新北市板橋區文化路一段339號","121.466635","25.0206916666667","6500100","板橋區"
"220104","560-BX","2018/11/13 14:19:52","新北市板橋區中正路399巷10號","121.45358","25.0224533333333","6500100","板橋區"
"220052","561-BX","2018/11/13 14:20:02","新北市板橋區文化路一段188巷7弄40號","121.468073333333","25.019265","6500100","板橋區"
"220011","609-BX","2018/11/13 14:19:42","新北市板橋區三民路二段212號","121.478928333333","25.0118483333333","6500100","板橋區"
"220005","686-BX","2018/11/13 14:19:49","新北市板橋區和平路153號","121.463328333333","24.9955933333333","6500100","板橋區"
"220025","687-BX","2018/11/13 14:19:58","新北市板橋區大觀路一段61號","121.447485","25.00605","6500100","板橋區"
"220042","689-BX","2018/11/13 14:20:03","新北市板橋區新海路120號","121.46119","25.0227533333333","6500100","板橋區"
"220002","741-BX","2018/11/13 14:19:59","新北市板橋區重慶路155巷35號","121.463496666667","25.00402","6500100","板橋區"
"220051","KEA-2699","2018/11/13 14:19:58","新北市板橋區文聖街84號","121.477466666667","25.02997","6500100","板橋區"
"220003","827-TW","2018/11/13 14:19:56","新北市板橋區館前東路156巷10號","121.464333333333","25.0072533333333","6500100","板橋區"
"220014","829-TW","2018/11/13 14:19:45","新北市板橋區長安街138巷5弄62號","121.474103333333","25.0096083333333","6500100","板橋區"
"220045","831-TW","2018/11/13 14:19:55","新北市板橋區大同街2號","121.476846666667","25.0267433333333","6500100","板橋區"
"220022","895-R6","2018/11/13 14:19:56","新北市板橋區北門街25號","121.456645","25.0111716666667","6500100","板橋區"
"220021","985-R7","2018/11/13 14:20:00","新北市板橋區中正路332-11號","121.454318333333","25.0232266666667","6500100","板橋區"
"220046","AAC-210","2018/11/13 14:20:03","新北市板橋區幸福路60巷67號","121.460111666667","25.0217816666667","6500100","板橋區"
"220018","AAC-253","2018/11/13 14:20:00","新北市板橋區四川路一段106號","121.45978","25.0045816666667","6500100","板橋區"
"235032","KEA-2873","2018/11/13 14:20:01","新北市中和區廟美街62號","121.500191666667","25.0024633333333","6500300","中和區"
"235025","KEA-2875","2018/11/13 14:19:37","新北市中和區民利街9巷2弄16號","121.480158333333","24.9987116666667","6500300","中和區"
