"lineid","car","time","location","longitude","latitude","cityid","cityname"
"234062","337-UY","2018/11/13 14:39:27","新北市永和區環河西路二段205號","121.501686666667","25.0108933333333","6500400","永和區"
"234028","746-BX","2018/11/13 14:39:20","新北市板橋區文化路二段656號","121.480676666667","25.0385133333333","6500400","永和區"
"234025","9371-KE","2018/11/13 14:39:24","新北市永和區中和路513號","121.51076","25.00258","6500400","永和區"
"248017","225-UY","2018/11/13 14:31:44","新北市五股區外寮路13-1號","121.424821666667","25.0812716666667","6501500","五股區"
"234072","AAC-211","2018/11/13 14:39:29","新北市永和區環河東路二段54-1號","121.52335","25.0115316666667","6500400","永和區"
"231002","002-UM","2018/11/13 14:39:16","新北市新店區中正路468號","121.534","24.9794366666667","6500600","新店區"
"231037","0291-UT","2018/11/13 14:39:27","新北市新店區車子路14號","121.504815","24.9538466666667","6500600","新店區"
"231027","0293-UT","2018/11/13 14:39:17","新北市新店區寶橋路7號","121.543508333333","24.97394","6500600","新店區"
"231028","046-UY","2018/11/13 14:39:14","新北市新店區安成街26-1號","121.510191666667","24.9609183333333","6500600","新店區"
"231001","047-UY","2018/11/13 14:39:26","新北市新店區中正路9號","121.54558","24.96939","6500600","新店區"
"231005","106-UY","2018/11/13 14:39:31","新北市新店區復興路2號","121.532533333333","24.988275","6500600","新店區"
"231020","108-UY","2018/11/13 14:39:27","新北市新店區桂山路79號","121.566983333333","24.8999216666667","6500600","新店區"
"231012","187-VK","2018/11/13 14:39:23","新北市新店區寶橋路160號","121.54895","24.9772416666667","6500600","新店區"
"231023","KEA-2219","2018/11/13 14:39:25","新北市新店區檳榔路40號","121.541558333333","24.9637466666667","6500600","新店區"
"231052","260-TV","2018/11/13 14:37:29","桃園市蘆竹區南青路847-1號","121.25578","25.0507316666667","6500600","新店區"
"231003","268-BY","2018/11/13 14:39:14","新北市新店區中興路一段285-1號","121.545466666667","24.9685883333333","6500600","新店區"
"231018","278-BY","2018/11/13 14:39:31","新北市新店區中央一街21號","121.528395","24.9731516666667","6500600","新店區"
"231015","AAD-862","2018/11/13 14:39:25","新北市新店區北宜路三段221號","121.592351666667","24.9532516666667","6500600","新店區"
"231038","3712-VJ","2018/11/13 14:39:15","新北市新店區安康路一段32號","121.53172","24.9612133333333","6500600","新店區"
"231036","512-UM","2018/11/13 14:39:14","新北市新店區安祥路106巷66號","121.475055","24.9604233333333","6500600","新店區"
"231013","513-UM","2018/11/13 14:39:20","新北市新店區明德路17號","121.542133333333","24.976955","6500600","新店區"
"231006","618-UM","2018/11/13 14:39:20","新北市新店區北宜路二段103號","121.55041","24.95234","6500600","新店區"
"231030","619-UM","2018/11/13 14:39:23","新北市新店區安民街202號","121.51727","24.97185","6500600","新店區"
"231034","641-BX","2018/11/13 14:39:24","新北市新店區黎明路9號","121.50248","24.950185","6500600","新店區"
"231035","719-UM","2018/11/13 14:28:00","新北市新店區安民街33號","121.515763333333","24.9652533333333","6500600","新店區"
"231029","897-TW","2018/11/13 14:39:29","新北市新店區安康路三段454號","121.484338333333","24.9512066666667","6500600","新店區"
"231004","899-TW","2018/11/13 14:39:11","新北市新店區中正路289號","121.537331666667","24.974475","6500600","新店區"
"231024","AKT-0513","2018/11/13 14:39:21","新北市新店區力行路48號","121.538766666667","24.965445","6500600","新店區"
"235030","003-UY","2018/11/13 14:39:28","新北市中和區景新街69號","121.5049","24.9987216666667","6500300","中和區"
"235020","096-UM","2018/11/13 14:39:28","新北市中和區員山路581巷2弄26號","121.477368333333","25.0099616666667","6500300","中和區"
"235003","097-UM","2018/11/13 14:39:26","新北市中和區安平路107號","121.511571666667","24.9974116666667","6500300","中和區"
"235029","098-UM","2018/11/13 14:39:20","新北市中和區福祥路108號","121.49903","25.0062133333333","6500300","中和區"
"235004","150-BY","2018/11/13 14:39:28","新北市中和區安平路38號","121.509876666667","24.9948266666667","6500300","中和區"
"235022","151-BY","2018/11/13 14:39:26","新北市中和區員山路161號","121.481161666667","24.996595","6500300","中和區"
"235019","183-VK","2018/11/13 14:39:27","新北市中和區民生街22號","121.47008","25.0054","6500300","中和區"
"235002","185-VK","2018/11/13 14:39:15","新北市中和區自強路27巷20號","121.521561666667","24.9931983333333","6500300","中和區"
"235013","186-VK","2018/11/13 14:39:20","新北市中和區安平路15號","121.5091","24.994135","6500300","中和區"
"235031","255-BX","2018/11/13 14:39:29","新北市中和區員山路148巷23弄28號","121.482233333333","24.997785","6500300","中和區"
"235008","293-VK","2018/11/13 14:39:21","新北市中和區興南路一段164號","121.508163333333","24.9866033333333","6500300","中和區"
"235036","301-VK","2018/11/13 14:39:18","新北市中和區泰和街25號","121.499403333333","25.00013","6500300","中和區"
"235007","352-BY","2018/11/13 14:39:32","新北市中和區南山路193號","121.502863333333","24.9947966666667","6500300","中和區"
"235006","KEA-2878","2018/11/13 14:39:15","新北市中和區保健路2巷4號","121.507688333333","24.9982383333333","6500300","中和區"
"247011","KEA-2869","2018/11/13 14:39:33","新北市蘆洲區集賢路224巷66號","121.480798333333","25.0881483333333","6501400","蘆洲區"
"235014","4979-A6","2018/11/13 14:39:15","新北市中和區員山路36巷16-2號","121.48507","24.9916566666667","6500300","中和區"
"235034","558-UM","2018/11/13 14:39:21","新北市中和區連勝街39號","121.498178333333","24.9977033333333","6500300","中和區"
"235018","640-BX","2018/11/13 14:39:16","新北市中和區民享街86巷31號","121.472701666667","25.0002916666667","6500300","中和區"
"235024","647-TV","2018/11/13 14:39:15","新北市中和區新生街16巷23號","121.48218","25.0043116666667","6500300","中和區"
"235011","732-UM","2018/11/13 14:39:16","新北市中和區和平街83號","121.505348333333","24.9921466666667","6500300","中和區"
"235010","733-UM","2018/11/13 14:39:21","新北市中和區四維街32號","121.51266","24.9870866666667","6500300","中和區"
"235035","783-BX","2018/11/13 14:39:21","新北市中和區建一路128號","121.487965","24.9998916666667","6500300","中和區"
"235026","800-TS","2018/11/13 14:39:29","新北市中和區中山路二段526巷31號","121.485733333333","25.0059233333333","6500300","中和區"
"235021","801-TS","2018/11/13 14:39:27","新北市中和區員山路220號","121.48138","25.00106","6500300","中和區"
"235005","802-TS","2018/11/13 14:39:26","新北市中和區中安街26號","121.513428333333","25.0028633333333","6500300","中和區"
"235016","805-TS","2018/11/13 14:39:26","新北市中和區華新街192巷4號","121.506751666667","24.9824366666667","6500300","中和區"
"235012","896-TW","2018/11/13 14:39:25","新北市中和區景新街522號","121.514326666667","24.986725","6500300","中和區"
"235017","900-TW","2018/11/13 14:39:21","新北市中和區民德路146巷14號","121.467785","25.0004833333333","6500300","中和區"
"235015","157-BY","2018/11/13 14:39:13","新北市中和區復興路301巷16號","121.501386666667","24.9896533333333","6500300","中和區"
"235001","AAC-213","2018/11/13 14:39:18","新北市中和區秀朗路三段50巷2號","121.525891666667","24.9954983333333","6500300","中和區"
"235023","AAC-215","2018/11/13 14:39:32","新北市中和區圓通路305巷7弄1號","121.493655","24.98995","6500300","中和區"
"220013","072-UY","2018/11/13 14:39:31","新北市板橋區國泰街52號","121.467863333333","25.0066033333333","6500100","板橋區"
"220034","073-UY","2018/11/13 14:39:25","新北市板橋區中正路9號","121.456088333333","25.0120916666667","6500100","板橋區"
"220105","075-UY","2018/11/13 14:39:19","新北市板橋區民治街26巷2號","121.477685","25.0339966666667","6500100","板橋區"
"220017","AAD-861","2018/11/13 14:39:03","新北市板橋區南雅南路二段18號","121.454461666667","25.0035316666667","6500100","板橋區"
"247001","893-R6","2018/11/13 14:39:21","新北市蘆洲區長安街274巷6弄1號","121.457765","25.0869316666667","6501400","蘆洲區"
"247015","546-UM","2018/11/13 14:39:19","新北市蘆洲區正和街32號","121.46964","25.0820333333333","6501400","蘆洲區"
"247023","500-BY","2018/11/13 14:39:17","新北市蘆洲區正和街63巷12號","121.468985","25.080815","6501400","蘆洲區"
"247013","339-TH","2018/11/13 14:39:27","新北市蘆洲區成功路151號","121.472196666667","25.0825083333333","6501400","蘆洲區"
"247005","337-TH","2018/11/13 14:39:18","新北市蘆洲區長安街68巷9號","121.4631","25.0805116666667","6501400","蘆洲區"
"247019","057-VK","2018/11/13 14:39:13","新北市蘆洲區民義街70號","121.473068333333","25.0899383333333","6501400","蘆洲區"
"247007","053-VK","2018/11/13 14:39:12","新北市蘆洲區信義路35號","121.47441","25.0795533333333","6501400","蘆洲區"
"228004","212-TW","2018/11/13 14:39:20","新北市貢寮區福隆里龜壽谷街28-2號","121.946133333333","25.0147866666667","6502600","貢寮區"
"228005","828-UM","2018/11/13 14:39:27","新北市貢寮區美豐里雞母嶺街6-6號","121.90215","25.0642016666667","6502600","貢寮區"
"207002","749-BX","2018/11/13 14:39:24","新北市萬里區崁腳里崁腳路73號","121.647601666667","25.1595816666667","6502800","萬里區"
"207001","662-BX","2018/11/13 14:39:19","新北市萬里區雙興里豐稟路27-2號","121.641101666667","25.1883683333333","6502800","萬里區"
"252005","AAC-283","2018/11/13 14:39:18","新北市三芝區埔坪里埔頭坑147號","121.510338333333","25.2499233333333","6502100","三芝區"
"236065","105-UM","2018/11/13 14:39:16","新北市土城區永豐路177號","121.469968333333","24.97856","6501300","土城區"
"236040","KED-0685","2018/11/13 14:39:15","新北市土城區裕民路92巷21弄2號","121.449946666667","24.9864266666667","6501300","土城區"
"236074","166-UM","2018/11/13 14:39:20","新北市土城區中央路四段166號","121.416925","24.9581783333333","6501300","土城區"
"236029","253-BX","2018/11/13 14:39:29","新北市土城區中央路三段59號","121.439021666667","24.9695066666667","6501300","土城區"
"236024","269-VK","2018/11/13 14:39:23","新北市土城區忠義路46號","121.440421666667","24.9693616666667","6501300","土城區"
"236013","270-VK","2018/11/13 14:39:27","新北市土城區清水路209號","121.460423333333","24.981935","6501300","土城區"
"236032","271-VK","2018/11/13 14:39:22","新北市土城區明德路一段238號","121.460221666667","24.9773966666667","6501300","土城區"
"236017","401-BY","2018/11/13 14:39:18","新北市土城區延吉街214號","121.467481666667","24.9849333333333","6501300","土城區"
"236057","912-UM","2018/11/13 14:39:32","新北市土城區中央路三段171號","121.431713333333","24.9651583333333","6501300","土城區"
"236045","913-UM","2018/11/13 14:39:31","新北市土城區明德路一段137-4號","121.465391666667","24.980915","6501300","土城區"
"236060","915-UM","2018/11/13 14:39:21","新北市土城區延和路177巷11弄4號","121.46974","24.9908866666667","6501300","土城區"
"236054","AAC-216","2018/11/13 14:39:19","新北市土城區裕民路10號","121.447486666667","24.988775","6501300","土城區"
"221010","269-BY","2018/11/13 14:39:20","新北市汐止區八連路二段625-3號","121.620568333333","25.1144916666667","6501100","汐止區"
"221033","647-BX","2018/11/13 14:39:31","新北市汐止區明峰街216號","121.627143333333","25.0688583333333","6501100","汐止區"
"220027","145-BY","2018/11/13 14:39:35","新北市板橋區建國街54巷24號","121.459718333333","25.0167783333333","6500100","板橋區"
"220028","200-UY","2018/11/13 14:39:20","新北市板橋區大觀路二段153巷46弄62號","121.449478333333","25.0004533333333","6500100","板橋區"
"220030","610-BX","2018/11/13 14:39:22","新北市板橋區大觀路三段160巷34弄2號","121.430028333333","24.9939833333333","6500100","板橋區"
"220040","267-BY","2018/11/13 14:39:20","新北市板橋區懷德街139巷27號","121.479956666667","25.030905","6500100","板橋區"
"220004","276-BY","2018/11/13 14:39:20","新北市板橋區信義路1巷24號","121.458021666667","24.9971033333333","6500100","板橋區"
"220020","277-BY","2018/11/13 14:39:20","新北市板橋區金門街151巷25號","121.434203333333","24.9902","6500100","板橋區"
"220050","280-UM","2018/11/13 14:39:25","新北市板橋區莒光路180巷23號","121.473075","25.0225933333333","6500100","板橋區"
"220012","282-UM","2018/11/13 14:39:27","新北市板橋區中山路一段72號","121.461616666667","25.0099933333333","6500100","板橋區"
"220043","283-UM","2018/11/13 14:39:21","新北市板橋區長江路二段252號","121.469161666667","25.0325466666667","6500100","板橋區"
"220019","283-VK","2018/11/13 14:39:26","新北市板橋區五權街30巷22號","121.46403","24.9932266666667","6500100","板橋區"
"220037","285-UM","2018/11/13 14:39:28","新北市板橋區文化路二段586號","121.476985","25.0347433333333","6500100","板橋區"
"220001","285-VK","2018/11/13 14:39:28","新北市板橋區民享街91號","121.477016666667","25.01594","6500100","板橋區"
"220031","286-VK","2018/11/13 14:39:20","新北市板橋區龍興街65巷1號","121.443393333333","25.0013816666667","6500100","板橋區"
"220029","287-VK","2018/11/13 14:39:20","新北市板橋區大觀路一段28巷71號","121.449886666667","25.0111183333333","6500100","板橋區"
"220039","288-VK","2018/11/13 14:39:12","新北市板橋區龍泉街54巷7弄1號","121.456801666667","25.0265333333333","6500100","板橋區"
"220009","295-UM","2018/11/13 14:39:29","新北市板橋區觀光街33巷2-1號","121.471146666667","25.0160116666667","6500100","板橋區"
"220032","296-UM","2018/11/13 14:39:29","新北市板橋區溪崑二街124巷18號","121.425446666667","24.98839","6500100","板橋區"
"220023","303-R5","2018/11/13 14:39:30","新北市板橋區大勇街4號","121.455623333333","25.0177033333333","6500100","板橋區"
"220010","305-R5","2018/11/13 14:39:18","新北市板橋區三民路二段35巷17-2號","121.480521666667","25.01788","6500100","板橋區"
"220041","307-R5","2018/11/13 14:39:13","新北市板橋區自由路51巷24弄2號","121.464505","25.02343","6500100","板橋區"
"220047","317-R6","2018/11/13 14:39:24","新北市板橋區四維路279巷79弄3號","121.459871666667","25.0271483333333","6500100","板橋區"
"220038","487-VK","2018/11/13 14:39:21","新北市板橋區英士路6號","121.462203333333","25.0254366666667","6500100","板橋區"
"220104","560-BX","2018/11/13 14:39:24","新北市板橋區新生街29巷4弄4號","121.456656666667","25.02163","6500100","板橋區"
"220052","561-BX","2018/11/13 14:39:26","新北市板橋區文化路一段369號","121.466885","25.02143","6500100","板橋區"
"220011","609-BX","2018/11/13 14:39:22","新北市板橋區三民路一段1巷31號","121.480161666667","25.0245533333333","6500100","板橋區"
"220005","686-BX","2018/11/13 14:39:29","新北市板橋區和平路101巷11號","121.462036666667","24.9951883333333","6500100","板橋區"
"220025","687-BX","2018/11/13 14:39:18","新北市板橋區僑中二街126巷2號","121.445216666667","25.0052016666667","6500100","板橋區"
"220042","689-BX","2018/11/13 14:39:17","新北市板橋區長江路一段143號","121.46078","25.0303633333333","6500100","板橋區"
"220002","741-BX","2018/11/13 14:39:22","新北市板橋區實踐路203號","121.464465","25.00298","6500100","板橋區"
"220051","KEA-2699","2018/11/13 14:39:18","新北市板橋區雙十路二段72號","121.475326666667","25.0279016666667","6500100","板橋區"
"220003","827-TW","2018/11/13 14:39:17","新北市板橋區國慶路149巷13弄4號","121.4608","24.99718","6500100","板橋區"
"220014","829-TW","2018/11/13 14:39:24","新北市板橋區長安街259巷27號","121.472853333333","25.0111066666667","6500100","板橋區"
"220016","830-TW","2018/11/13 14:38:38","新北市板橋區中山路二段412巷16-1號","121.48339","25.0202066666667","6500100","板橋區"
"220045","831-TW","2018/11/13 14:39:14","新北市板橋區民生路二段240巷76號","121.470303333333","25.0227183333333","6500100","板橋區"
"220022","895-R6","2018/11/13 14:39:16","新北市板橋區府中路27號","121.458995","25.00894","6500100","板橋區"
"220021","985-R7","2018/11/13 14:39:28","新北市板橋區中正路265號","121.455706666667","25.01866","6500100","板橋區"
"220046","AAC-210","2018/11/13 14:39:16","新北市板橋區漢生西路89巷2弄12-2號","121.461811666667","25.019615","6500100","板橋區"
"220018","AAC-253","2018/11/13 14:39:20","新北市板橋區民族路215號","121.469405","25.0072033333333","6500100","板橋區"
"235032","KEA-2873","2018/11/13 14:39:31","新北市中和區中山路二段259號","121.496973333333","25.0023816666667","6500300","中和區"
