"lineid","car","time","location","longitude","latitude","cityid","cityname"
"234028","746-BX","2018/11/13 15:09:20","新北市林口區汕頭32號","121.36665","25.13494","6500400","永和區"
"244002","248-BX","2018/11/13 15:07:17","新北市林口區林口路76號","121.389793333333","25.0805716666667","6501700","林口區"
"231002","002-UM","2018/11/13 15:09:22","新北市新店區中正路543-2號","121.533575","24.987205","6500600","新店區"
"231028","046-UY","2018/11/13 15:09:14","新北市新店區僑信路106號","121.500148333333","24.94704","6500600","新店區"
"231001","047-UY","2018/11/13 15:09:26","新北市新店區中正路272號","121.538928333333","24.9735983333333","6500600","新店區"
"231005","106-UY","2018/11/13 15:09:31","新北市新店區北新路三段23號","121.542135","24.9798683333333","6500600","新店區"
"231020","108-UY","2018/11/13 15:09:27","新北市新店區永福路54-2號","121.558126666667","24.9287366666667","6500600","新店區"
"231032","110-UY","2018/11/13 15:09:30","新北市新店區安泰路70號","121.485463333333","24.9474683333333","6500600","新店區"
"231012","187-VK","2018/11/13 15:09:23","新北市新店區寶元路一段65號","121.542241666667","24.98585","6500600","新店區"
"231039","189-VK","2018/11/13 15:09:13","新北市新店區寶安街4巷1號","121.542336666667","24.9810833333333","6500600","新店區"
"231023","KEA-2219","2018/11/13 15:09:25","新北市新店區檳榔路105號","121.54461","24.961735","6500600","新店區"
"231026","256-BX","2018/11/13 15:09:26","新北市新店區建安街18號","121.539916666667","24.9754983333333","6500600","新店區"
"231052","260-TV","2018/11/13 14:49:24","桃園市蘆竹區宏竹里大竹圍316-1號","121.253625","25.0530583333333","6500600","新店區"
"231003","268-BY","2018/11/13 15:09:15","新北市新店區寶橋路132號","121.547301666667","24.97608","6500600","新店區"
"231018","278-BY","2018/11/13 15:09:31","新北市新店區中央七街119號","121.525295","24.9779416666667","6500600","新店區"
"231015","AAD-862","2018/11/13 15:09:25","新北市新店區明山路25號","121.564041666667","24.9558916666667","6500600","新店區"
"231038","3712-VJ","2018/11/13 15:09:15","新北市新店區安華路28-1號","121.519578333333","24.9609333333333","6500600","新店區"
"231025","4715-K9","2018/11/13 15:09:17","新北市新店區民權路159號","121.534086666667","24.9827216666667","6500600","新店區"
"231036","512-UM","2018/11/13 15:09:14","新北市新店區安祥路104巷11弄9號","121.48085","24.9634666666667","6500600","新店區"
"231006","618-UM","2018/11/13 15:09:20","新北市新店區新坡一街18巷5弄23號","121.550828333333","24.96193","6500600","新店區"
"231030","619-UM","2018/11/13 15:09:23","新北市新店區安民街341-1號","121.516826666667","24.9749783333333","6500600","新店區"
"231034","641-BX","2018/11/13 15:09:24","新北市新店區玫瑰路4-1號","121.493455","24.951415","6500600","新店區"
"231035","719-UM","2018/11/13 15:09:30","新北市新店區永安街34巷12號","121.517915","24.98594","6500600","新店區"
"231029","897-TW","2018/11/13 15:09:29","新北市新店區安康路三段738號","121.473926666667","24.9420333333333","6500600","新店區"
"231004","899-TW","2018/11/13 15:09:31","新北市新店區建國路2號","121.539738333333","24.9732533333333","6500600","新店區"
"231024","AKT-0513","2018/11/13 15:09:21","新北市新店區北新路一段303號","121.541233333333","24.9676516666667","6500600","新店區"
"241011","013-R5","2018/11/13 15:09:29","新北市三重區重新路四段121號","121.484751666667","25.0522866666667","6500200","三重區"
"235030","003-UY","2018/11/13 15:09:28","新北市中和區水源路128號","121.507746666667","25.00313","6500300","中和區"
"235004","150-BY","2018/11/13 15:09:28","新北市中和區保健路26巷1號","121.508671666667","24.9976933333333","6500300","中和區"
"235013","186-VK","2018/11/13 15:09:20","新北市中和區中正路748號","121.486063333333","24.998575","6500300","中和區"
"235036","301-VK","2018/11/13 15:09:18","新北市中和區板南路399巷2號","121.493603333333","24.99892","6500300","中和區"
"235007","352-BY","2018/11/13 15:09:32","新北市中和區興南路二段159巷10號","121.504935","24.98327","6500300","中和區"
"235006","KEA-2878","2018/11/13 15:09:15","新北市新店區安民街133巷26號","121.515525","24.9693433333333","6500300","中和區"
"235014","4979-A6","2018/11/13 15:09:15","新北市中和區景新街323號","121.511288333333","24.9922266666667","6500300","中和區"
"235033","4980-A6","2018/11/13 15:09:30","新北市中和區景新街132巷8-4號","121.504638333333","24.9981833333333","6500300","中和區"
"235034","558-UM","2018/11/13 15:09:21","新北市中和區中正路368號","121.493111666667","24.9941583333333","6500300","中和區"
"235035","783-BX","2018/11/13 15:09:21","新北市板橋區三民路二段62-1號","121.482118333333","25.0115966666667","6500300","中和區"
"235012","896-TW","2018/11/13 15:09:25","新北市中和區興南路一段142-6號","121.508496666667","24.9871133333333","6500300","中和區"
"235001","AAC-213","2018/11/13 15:09:17","新北市中和區立人街41號","121.520741666667","24.99421","6500300","中和區"
"235023","AAC-215","2018/11/13 15:09:12","新北市中和區圓通路367巷13弄39號","121.493615","24.9877816666667","6500300","中和區"
"220017","AAD-861","2018/11/13 15:09:23","新北市板橋區南雅南路二段1-1號","121.454841666667","25.00397","6500100","板橋區"
"247008","053-VK","2018/11/13 15:00:49","新北市五股區中興路三段2巷10號","121.449223333333","25.0811083333333","6501400","蘆洲區"
"228004","212-TW","2018/11/13 15:09:20","新北市貢寮區雙玉里田寮洋街16-2號","121.921821666667","25.0250983333333","6502600","貢寮區"
"207002","749-BX","2018/11/13 15:09:24","新北市萬里區崁腳里內中福路66號","121.65522","25.166875","6502800","萬里區"
"207001","662-BX","2018/11/13 15:09:19","新北市萬里區雙興里麗水路8-1號","121.649903333333","25.1872","6502800","萬里區"
"236065","105-UM","2018/11/13 15:09:16","新北市土城區學成路147號","121.448626666667","24.9895","6501300","土城區"
"236040","KED-0685","2018/11/13 15:09:15","新北市土城區金城路二段245巷54號","121.455068333333","24.9836216666667","6501300","土城區"
"236074","166-UM","2018/11/13 15:09:22","新北市土城區中州路27巷75號","121.412788333333","24.9565566666667","6501300","土城區"
"236029","253-BX","2018/11/13 15:09:29","新北市土城區福祥街56號","121.441466666667","24.98133","6501300","土城區"
"236024","269-VK","2018/11/13 15:09:23","新北市土城區中央路二段177巷9號","121.443331666667","24.9762","6501300","土城區"
"236013","270-VK","2018/11/13 15:09:27","新北市土城區學府路一段73號","121.45696","24.9881433333333","6501300","土城區"
"236032","271-VK","2018/11/13 15:09:22","新北市土城區國際路158巷53號","121.468138333333","24.9752216666667","6501300","土城區"
"236017","401-BY","2018/11/13 15:09:26","新北市土城區明峰街81號","121.468741666667","24.9871533333333","6501300","土城區"
"236057","912-UM","2018/11/13 15:09:32","新北市土城區金城路一段141號","121.445233333333","24.9741633333333","6501300","土城區"
"236045","913-UM","2018/11/13 15:09:31","新北市土城區清水路262號","121.46156","24.9832616666667","6501300","土城區"
"236060","915-UM","2018/11/13 15:09:21","新北市土城區延平街69巷4號","121.467368333333","24.9928916666667","6501300","土城區"
"236054","AAC-216","2018/11/13 15:09:23","新北市土城區學府路一段276號","121.450236666667","24.9833266666667","6501300","土城區"
"221010","269-BY","2018/11/13 15:09:20","新北市汐止區汐萬路一段256巷3號","121.652191666667","25.07479","6501100","汐止區"
"220028","200-UY","2018/11/13 15:09:31","新北市板橋區大觀路二段205號","121.444438333333","24.9995566666667","6500100","板橋區"
"220050","280-UM","2018/11/13 15:09:25","新北市板橋區莊敬路75巷35號","121.473893333333","25.0260916666667","6500100","板橋區"
"220031","286-VK","2018/11/13 15:09:20","新北市板橋區僑中二街102巷38號","121.44468","25.008665","6500100","板橋區"
"220009","295-UM","2018/11/13 15:09:22","新北市板橋區四川路一段284號","121.458598333333","25.0008666666667","6500100","板橋區"
"220041","307-R5","2018/11/13 15:09:13","新北市板橋區文化路一段141號","121.46201","25.0155933333333","6500100","板橋區"
"220038","487-VK","2018/11/13 15:09:12","新北市板橋區互助街9號","121.463151666667","25.027565","6500100","板橋區"
"220052","561-BX","2018/11/13 15:09:22","新北市板橋區英士路58巷11號","121.460636666667","25.0252366666667","6500100","板橋區"
"220011","609-BX","2018/11/13 15:09:22","新北市板橋區中山路二段323號","121.479175","25.0187516666667","6500100","板橋區"
"220025","687-BX","2018/11/13 15:09:18","新北市板橋區大觀路一段28巷1弄102號","121.451371666667","25.0063466666667","6500100","板橋區"
"220042","689-BX","2018/11/13 15:09:17","新北市板橋區長江路二段41號","121.464098333333","25.0311433333333","6500100","板橋區"
"220002","741-BX","2018/11/13 15:09:22","新北市板橋區中正路600號","121.44527","25.0210483333333","6500100","板橋區"
"220051","KEA-2699","2018/11/13 15:09:18","新北市板橋區文化路二段464號","121.474931666667","25.0327333333333","6500100","板橋區"
"220003","827-TW","2018/11/13 15:09:16","新北市板橋區仁愛路23號","121.458913333333","24.99944","6500100","板橋區"
"220014","829-TW","2018/11/13 15:09:24","新北市板橋區中山路一段206巷4弄2號","121.470228333333","25.0131766666667","6500100","板橋區"
"220016","830-TW","2018/11/13 15:09:18","新北市板橋區光復街230號","121.484833333333","25.0212533333333","6500100","板橋區"
"220046","AAC-210","2018/11/13 15:09:28","新北市板橋區光正街45巷6弄7號","121.461406666667","25.01694","6500100","板橋區"
"220018","AAC-253","2018/11/13 15:09:23","新北市板橋區四川路二段245巷43號","121.45184","24.9925866666667","6500100","板橋區"
