"lineid","car","time","location","longitude","latitude","cityid","cityname"
"234028","746-BX","2018/11/13 15:29:20","新北市五股區凌雲路一段22巷11號","121.453158333333","25.1010266666667","6500400","永和區"
"244002","248-BX","2018/11/13 15:29:17","新北市林口區粉寮路二段14號","121.401735","25.0854283333333","6501700","林口區"
"231002","002-UM","2018/11/13 15:29:16","新北市新店區環河路116號","121.536811666667","24.9671466666667","6500600","新店區"
"231037","0291-UT","2018/11/13 15:29:27","新北市新店區安興路91巷41-1號","121.513825","24.9744716666667","6500600","新店區"
"231028","046-UY","2018/11/13 15:29:14","新北市新店區僑信路100號","121.500031666667","24.947385","6500600","新店區"
"231005","106-UY","2018/11/13 15:29:31","新北市新店區建國路257號","121.537408333333","24.9834066666667","6500600","新店區"
"231020","108-UY","2018/11/13 15:29:27","新北市新店區湖興路109號","121.560208333333","24.9355883333333","6500600","新店區"
"231032","110-UY","2018/11/13 15:29:30","新北市新店區和成街12巷10號","121.48851","24.9477916666667","6500600","新店區"
"231012","187-VK","2018/11/13 15:29:23","新北市新店區寶慶街58巷3弄2號","121.542311666667","24.9875366666667","6500600","新店區"
"231039","189-VK","2018/11/13 15:29:34","新北市新店區寶元路一段85巷2號","121.543105","24.9855433333333","6500600","新店區"
"231023","KEA-2219","2018/11/13 15:29:25","新北市新店區北新路一段96巷23號","121.542781666667","24.9686816666667","6500600","新店區"
"231026","256-BX","2018/11/13 15:29:26","新北市新店區三民路117巷5弄2號","121.534133333333","24.9711516666667","6500600","新店區"
"231003","268-BY","2018/11/13 15:29:34","新北市新店區寶高路120巷1號","121.554585","24.9760916666667","6500600","新店區"
"231018","278-BY","2018/11/13 15:29:31","新北市新店區民生路134號","121.529318333333","24.9817966666667","6500600","新店區"
"231015","AAD-862","2018/11/13 15:29:25","新北市新店區明山路45號","121.563856666667","24.9558283333333","6500600","新店區"
"231038","3712-VJ","2018/11/13 15:28:55","新北市新店區安華路28-1號","121.519673333333","24.9609566666667","6500600","新店區"
"231025","4715-K9","2018/11/13 15:29:17","新北市新店區薏仁坑路6號","121.500271666667","24.9580433333333","6500600","新店區"
"231036","512-UM","2018/11/13 15:29:14","新北市新店區安祥路69巷89弄17號","121.482983333333","24.9600183333333","6500600","新店區"
"231030","619-UM","2018/11/13 15:29:23","新北市新店區安和路三段61號","121.517945","24.9831016666667","6500600","新店區"
"231034","641-BX","2018/11/13 15:29:24","新北市新店區玫瑰路34號","121.495636666667","24.950025","6500600","新店區"
"231035","719-UM","2018/11/13 15:29:20","新北市新店區安興路83號","121.515303333333","24.9754","6500600","新店區"
"231029","897-TW","2018/11/13 15:29:29","新北市新店區安康路三段546號","121.482081666667","24.9489416666667","6500600","新店區"
"231004","899-TW","2018/11/13 15:29:31","新北市新店區民族路105號","121.538106666667","24.9773233333333","6500600","新店區"
"241011","013-R5","2018/11/13 15:29:29","新北市三重區中正南路252巷5號","121.493748333333","25.0518333333333","6500200","三重區"
"241028","022-UY","2018/11/13 15:29:27","新北市三重區重新路四段121號","121.484983333333","25.0525166666667","6500200","三重區"
"241015","062-VK","2018/11/13 15:29:34","新北市三重區重新路四段121號","121.485026666667","25.0524116666667","6500200","三重區"
"241017","063-VK","2018/11/13 15:29:20","新北市三重區捷運路36號","121.482906666667","25.0550433333333","6500200","三重區"
"241013","270-UM","2018/11/13 15:29:30","新北市三重區忠孝路三段52號","121.480665","25.065685","6500200","三重區"
"241019","KEA-2593","2018/11/13 15:29:22","新北市三重區重新路四段121號","121.484561666667","25.0524566666667","6500200","三重區"
"241012","941-UM","2018/11/13 15:29:19","新北市三重區成功路6號","121.490106666667","25.050105","6500200","三重區"
"241033","AAC-255","2018/11/13 15:29:21","新北市三重區成功路112-5號","121.486656666667","25.05199","6500200","三重區"
"235006","KEA-2878","2018/11/13 15:29:15","新北市中和區中正路448號","121.490918333333","24.9941583333333","6500300","中和區"
"235014","4979-A6","2018/11/13 15:29:15","新北市中和區景平路385巷9弄3號","121.502395","24.9941383333333","6500300","中和區"
"235033","4980-A6","2018/11/13 15:29:30","新北市中和區連城路246-4號","121.488041666667","24.9963783333333","6500300","中和區"
"235023","AAC-215","2018/11/13 15:29:32","新北市中和區員山路22號","121.483288333333","24.984245","6500300","中和區"
"247008","053-VK","2018/11/13 15:00:49","新北市五股區中興路三段2巷10號","121.449223333333","25.0811083333333","6501400","蘆洲區"
"236065","105-UM","2018/11/13 15:29:16","新北市土城區中央路二段232號","121.442006666667","24.9751516666667","6501300","土城區"
"236040","KED-0685","2018/11/13 15:29:15","新北市土城區學成路14號","121.453328333333","24.98673","6501300","土城區"
"236074","166-UM","2018/11/13 15:29:20","新北市土城區中央路四段321巷32-2號","121.411898333333","24.9511716666667","6501300","土城區"
"236029","253-BX","2018/11/13 15:29:16","新北市土城區中央路一段195-1號","121.44592","24.986935","6501300","土城區"
"236024","269-VK","2018/11/13 15:29:23","新北市土城區中央路一段258號","121.444263333333","24.9843666666667","6501300","土城區"
"236013","270-VK","2018/11/13 15:29:27","新北市土城區廣明街4號","121.456035","24.9918033333333","6501300","土城區"
"236032","271-VK","2018/11/13 15:29:31","新北市土城區延吉街377號","121.463651666667","24.9839733333333","6501300","土城區"
"236017","401-BY","2018/11/13 15:29:18","新北市土城區延吉街96號","121.470551666667","24.9863266666667","6501300","土城區"
"236057","912-UM","2018/11/13 15:29:12","新北市土城區中央路一段286號","121.443513333333","24.9824183333333","6501300","土城區"
"236045","913-UM","2018/11/13 15:29:31","新北市土城區金城路二段396號","121.463996666667","24.9857766666667","6501300","土城區"
"236060","915-UM","2018/11/13 15:29:21","新北市土城區延和路12巷13號","121.464485","24.9874183333333","6501300","土城區"
"236054","AAC-216","2018/11/13 15:29:23","新北市土城區延和路18巷10號","121.464425","24.988","6501300","土城區"
"220028","200-UY","2018/11/13 15:28:31","新北市樹林區中山路三段214號","121.379798333333","24.9678983333333","6500100","板橋區"
"220050","280-UM","2018/11/13 15:29:25","新北市板橋區民生路二段56-6號","121.471021666667","25.019075","6500100","板橋區"
"220031","286-VK","2018/11/13 15:29:20","新北市板橋區僑中二街108巷3號","121.445595","25.0072283333333","6500100","板橋區"
"220052","561-BX","2018/11/13 15:29:22","新北市板橋區漢生東路35號","121.465396666667","25.01694","6500100","板橋區"
"220002","741-BX","2018/11/13 15:29:22","新北市八里區商港路88-4號","121.393508333333","25.1491766666667","6500100","板橋區"
"220018","AAC-253","2018/11/13 15:29:20","新北市板橋區華東街1-9號","121.448261666667","24.994885","6500100","板橋區"
