"lineid","car","time","location","longitude","latitude","cityid","cityname"
"234028","746-BX","2018/11/13 15:39:20","新北市中和區永和路220巷34號","121.491365","25.00856","6500400","永和區"
"231037","0291-UT","2018/11/13 15:39:27","新北市新店區安興路105號","121.514783333333","24.97799","6500600","新店區"
"231028","046-UY","2018/11/13 15:39:13","新北市新店區僑義路21號","121.50039","24.9510883333333","6500600","新店區"
"231005","106-UY","2018/11/13 15:39:31","新北市新店區中正路373號","121.534821666667","24.9765883333333","6500600","新店區"
"231020","108-UY","2018/11/13 15:39:27","新北市新店區花園六路三段8號","121.55701","24.932415","6500600","新店區"
"231032","110-UY","2018/11/13 15:39:30","新北市新店區雙城路212號","121.497011666667","24.9415466666667","6500600","新店區"
"231012","187-VK","2018/11/13 15:39:23","新北市新店區寶元路一段109號","121.545696666667","24.983135","6500600","新店區"
"231039","189-VK","2018/11/13 15:39:34","新北市新店區寶元路二段31巷2號","121.546726666667","24.9816833333333","6500600","新店區"
"231023","KEA-2219","2018/11/13 15:39:25","新北市新店區中興路一段283號","121.545393333333","24.9685083333333","6500600","新店區"
"231026","256-BX","2018/11/13 15:39:26","新北市新店區三民路75巷2弄2號","121.535833333333","24.9712616666667","6500600","新店區"
"231052","260-TV","2018/11/13 15:39:16","桃園市蘆竹區宏竹里大竹圍316-1號","121.253691666667","25.0530283333333","6500600","新店區"
"231003","268-BY","2018/11/13 15:39:14","新北市新店區寶高路102巷20號","121.552503333333","24.9740133333333","6500600","新店區"
"231018","278-BY","2018/11/13 15:39:31","新北市新店區中正路663巷7弄15號","121.532933333333","24.9901","6500600","新店區"
"231015","AAD-862","2018/11/13 15:39:25","新北市新店區北宜路一段268號","121.546005","24.952815","6500600","新店區"
"231038","3712-VJ","2018/11/13 15:39:15","新北市新店區安康路二段16巷22號","121.516433333333","24.96465","6500600","新店區"
"231036","512-UM","2018/11/13 15:39:14","新北市新店區薏仁坑路自強巷6號","121.496703333333","24.958405","6500600","新店區"
"231013","513-UM","2018/11/13 15:39:20","新北市新店區永業路81巷5弄1號","121.530158333333","24.9489966666667","6500600","新店區"
"231030","619-UM","2018/11/13 15:39:23","新北市新店區新和街112號","121.520993333333","24.98637","6500600","新店區"
"231034","641-BX","2018/11/13 15:39:24","新北市新店區玫瑰路64巷2號","121.495858333333","24.9458016666667","6500600","新店區"
"231035","719-UM","2018/11/13 15:39:20","新北市新店區安興路83-3號","121.515285","24.9754183333333","6500600","新店區"
"231029","897-TW","2018/11/13 15:39:29","新北市新店區安康路二段317-1號","121.499273333333","24.9565633333333","6500600","新店區"
"231004","899-TW","2018/11/13 15:39:31","新北市新店區民族路105號","121.538113333333","24.9772516666667","6500600","新店區"
"241011","013-R5","2018/11/13 15:39:30","新北市三重區三和路三段5號","121.497085","25.0705716666667","6500200","三重區"
"241028","022-UY","2018/11/13 15:39:27","新北市三重區成功路6號","121.490295","25.0500916666667","6500200","三重區"
"241022","060-VK","2018/11/13 15:39:14","新北市三重區重新路四段121號","121.484945","25.0524933333333","6500200","三重區"
"241015","062-VK","2018/11/13 15:39:14","新北市三重區重新路四段121號","121.485075","25.05243","6500200","三重區"
"241017","063-VK","2018/11/13 15:39:20","新北市三重區明志街28號","121.491725","25.06402","6500200","三重區"
"241026","066-VK","2018/11/13 15:39:20","新北市三重區重新路四段121號","121.48506","25.0525016666667","6500200","三重區"
"241003","091-VK","2018/11/13 15:39:21","新北市三重區重新路四段121號","121.485098333333","25.0524133333333","6500200","三重區"
"241007","265-UM","2018/11/13 15:39:21","新北市三重區重新路四段121號","121.485136666667","25.0522633333333","6500200","三重區"
"241016","266-UM","2018/11/13 15:39:22","新北市三重區重新路四段121號","121.484933333333","25.0526983333333","6500200","三重區"
"241013","270-UM","2018/11/13 15:39:30","新北市三重區正義北路295號","121.494971666667","25.0707116666667","6500200","三重區"
"241004","475-VK","2018/11/13 15:39:17","新北市三重區重新路四段121號","121.485128333333","25.0523366666667","6500200","三重區"
"241020","478-VK","2018/11/13 15:39:30","新北市三重區忠孝路三段48號","121.480748333333","25.06588","6500200","三重區"
"241014","543-UM","2018/11/13 15:39:17","新北市三重區重新路四段121號","121.484855","25.052555","6500200","三重區"
"241023","545-UM","2018/11/13 15:39:26","新北市三重區重新路四段121號","121.484783333333","25.052555","6500200","三重區"
"241001","547-UM","2018/11/13 15:39:23","新北市三重區重新路四段121號","121.484795","25.0522783333333","6500200","三重區"
"241019","KEA-2593","2018/11/13 15:39:22","新北市三重區新北大道一段252號","121.479725","25.0613983333333","6500200","三重區"
"241006","AAD-863","2018/11/13 15:39:17","新北市三重區重陽路一段43巷8號","121.487255","25.05808","6500200","三重區"
"241012","941-UM","2018/11/13 15:39:19","新北市三重區自強路一段66號","121.497113333333","25.06664","6500200","三重區"
"241029","942-UM","2018/11/13 15:39:20","新北市三重區環河南路220-8號","121.49335","25.05271","6500200","三重區"
"241033","AAC-255","2018/11/13 15:39:21","新北市三重區重新路五段446號","121.474618333333","25.047475","6500200","三重區"
"235033","4980-A6","2018/11/13 15:39:16","新北市中和區員山路359巷1弄8號","121.481011666667","25.0016283333333","6500300","中和區"
"235046","733-UM","2018/11/13 15:32:46","新北市中和區員山路36巷13號","121.484175","24.9908416666667","6500300","中和區"
"235023","AAC-215","2018/11/13 15:39:32","新北市中和區員山路31-6號","121.480023333333","24.9878016666667","6500300","中和區"
"227003","400-TW","2018/11/13 15:39:26","新北市雙溪區牡丹里中正路60號","121.866145","25.0423883333333","6502500","雙溪區"
"236065","105-UM","2018/11/13 15:39:16","新北市土城區中央路三段134號","121.433888333333","24.9656983333333","6501300","土城區"
"236074","166-UM","2018/11/13 15:39:20","新北市土城區福安街64號","121.418446666667","24.9645166666667","6501300","土城區"
"236029","253-BX","2018/11/13 15:39:20","新北市土城區學成路128巷9號","121.44946","24.9899166666667","6501300","土城區"
"236024","269-VK","2018/11/13 15:39:23","新北市土城區裕生路79號","121.446928333333","24.9844033333333","6501300","土城區"
"236013","270-VK","2018/11/13 15:39:27","新北市土城區廣明街90巷28號","121.455958333333","24.9947983333333","6501300","土城區"
"236017","401-BY","2018/11/13 15:39:29","新北市土城區延吉街45號","121.472335","24.987855","6501300","土城區"
"236057","912-UM","2018/11/13 15:39:32","新北市土城區中央路一段212號","121.445066666667","24.9856666666667","6501300","土城區"
"236045","913-UM","2018/11/13 15:39:31","新北市土城區金城路三段153號","121.468663333333","24.9883166666667","6501300","土城區"
"236054","AAC-216","2018/11/13 15:39:23","新北市土城區學成路128巷9號","121.449375","24.9898666666667","6501300","土城區"
"220028","200-UY","2018/11/13 15:39:31","新北市樹林區田尾街60號","121.408768333333","24.9600583333333","6500100","板橋區"
"220002","741-BX","2018/11/13 15:39:02","新北市林口區太平里180號","121.368393333333","25.134445","6500100","板橋區"
