"lineid","car","time","location","longitude","latitude","cityid","cityname"
"234050","863-TW","2018/11/13 15:57:47","新北市永和區福和路1號","121.526326666667","25.010005","6500400","永和區"
"231046","107-UY","2018/11/13 16:09:21","新北市新店區灣潭路2-14號","121.536693333333","24.94932","6500600","新店區"
"231012","187-VK","2018/11/13 16:09:23","新北市新店區安興路35號","121.516215","24.9707","6500600","新店區"
"231052","260-TV","2018/11/13 15:52:57","桃園市蘆竹區宏竹里大竹圍316-1號","121.253678333333","25.05305","6500600","新店區"
"231018","278-BY","2018/11/13 16:09:31","新北市新店區中正路694巷15號","121.535403333333","24.9909066666667","6500600","新店區"
"231034","641-BX","2018/11/13 16:09:24","新北市新店區安康路二段458號","121.494103333333","24.9539616666667","6500600","新店區"
"231035","719-UM","2018/11/13 16:09:00","新北市新店區薏仁坑路6號","121.500421666667","24.95806","6500600","新店區"
"241011","013-R5","2018/11/13 16:09:29","新北市三重區三和路三段102號","121.494128333333","25.072135","6500200","三重區"
"241028","022-UY","2018/11/13 16:09:27","新北市三重區正義南路111號","121.498263333333","25.0586066666667","6500200","三重區"
"241008","059-VK","2018/11/13 16:09:22","新北市三重區國道路一段139號","121.475473333333","25.07359","6500200","三重區"
"241022","060-VK","2018/11/13 16:09:34","新北市三重區中正北路66號","121.486653333333","25.0645566666667","6500200","三重區"
"241031","061-VK","2018/11/13 16:09:28","新北市三重區重新路四段121號","121.48454","25.052085","6500200","三重區"
"241015","062-VK","2018/11/13 16:09:34","新北市三重區環河南路21號","121.503776666667","25.0624316666667","6500200","三重區"
"241017","063-VK","2018/11/13 16:09:20","新北市三重區民生街76號","121.490313333333","25.064805","6500200","三重區"
"241026","066-VK","2018/11/13 16:09:20","新北市三重區正義南路10號","121.498161666667","25.0614916666667","6500200","三重區"
"241002","090-VK","2018/11/13 16:09:28","新北市三重區仁義街101巷42號","121.499596666667","25.079975","6500200","三重區"
"241003","091-VK","2018/11/13 16:09:21","新北市三重區仁義街220巷13號","121.494875","25.0838883333333","6500200","三重區"
"241005","262-UM","2018/11/13 16:09:31","新北市三重區溪尾街300-2號","121.487475","25.0836516666667","6500200","三重區"
"241007","265-UM","2018/11/13 16:09:21","新北市三重區慈愛街10號","121.484628333333","25.0785233333333","6500200","三重區"
"241016","266-UM","2018/11/13 16:09:22","新北市三重區重新路三段130號","121.49166","25.059955","6500200","三重區"
"241009","267-UM","2018/11/13 16:09:19","新北市三重區三和路四段153號","121.484043333333","25.0782066666667","6500200","三重區"
"241018","268-UM","2018/11/13 16:09:16","新北市三重區明志街63號","121.491213333333","25.063865","6500200","三重區"
"241032","269-UM","2018/11/13 16:09:20","新北市三重區三陽路100巷3弄13號","121.482996666667","25.058205","6500200","三重區"
"241013","270-UM","2018/11/13 16:09:30","新北市三重區文化北路248號","121.49736","25.069995","6500200","三重區"
"241025","271-UM","2018/11/13 16:09:30","新北市三重區中正北路210號","121.482491666667","25.0674083333333","6500200","三重區"
"241024","462-BY","2018/11/13 16:09:21","新北市三重區中正北路145巷7弄4號","121.484908333333","25.0678783333333","6500200","三重區"
"241004","475-VK","2018/11/13 16:09:17","新北市三重區環河北路二段330號","121.498081666667","25.0841133333333","6500200","三重區"
"241020","478-VK","2018/11/13 16:09:30","新北市三重區力行路一段257號","121.482461666667","25.0709716666667","6500200","三重區"
"241014","543-UM","2018/11/13 16:09:17","新北市三重區環河南路118號","121.498226666667","25.0556816666667","6500200","三重區"
"241023","545-UM","2018/11/13 16:09:25","新北市三重區力行路一段58巷1號","121.484381666667","25.0689683333333","6500200","三重區"
"241001","547-UM","2018/11/13 16:09:23","新北市三重區自強路四段77號","121.490678333333","25.07888","6500200","三重區"
"241019","KEA-2593","2018/11/13 16:09:28","新北市三重區大智街137-1號","121.490846666667","25.0706766666667","6500200","三重區"
"241006","AAD-863","2018/11/13 16:09:18","新北市三重區車路頭街139巷14號","121.484276666667","25.0762016666667","6500200","三重區"
"241030","743-BX","2018/11/13 16:09:15","新北市三重區重新路四段121號","121.485158333333","25.0525833333333","6500200","三重區"
"241012","941-UM","2018/11/13 16:09:19","新北市三重區文化北路75號","121.49858","25.066815","6500200","三重區"
"241029","942-UM","2018/11/13 16:09:20","新北市三重區同安街64號","121.495533333333","25.0566766666667","6500200","三重區"
"241033","AAC-255","2018/11/13 16:09:21","新北市三重區五谷王南街50-1號","121.473873333333","25.0446316666667","6500200","三重區"
"235026","800-TS","2018/11/13 16:09:29","新北市中和區永和路171巷3弄9號","121.49275","25.006635","6500300","中和區"
"224007","275-VK","2018/11/13 16:09:26","新北市瑞芳區粗坑口路66號","121.761313333333","25.0989933333333","6501200","瑞芳區"
"227009","642-TC","2018/11/13 16:09:20","新北市雙溪區三港里雙澳路70-1號","121.881441666667","25.054385","6502500","雙溪區"
"227003","400-TW","2018/11/13 16:09:26","新北市雙溪區上林里內平林47號","121.833311666667","25.0304516666667","6502500","雙溪區"
"251008","180-VK","2018/11/13 16:09:29","新北市淡水區文化路63號","121.438186666667","25.17289","6501000","淡水區"
