"lineid","car","time","location","longitude","latitude","cityid","cityname"
"234050","863-TW","2018/11/13 16:26:15","新北市永和區福和路1號","121.526478333333","25.0103166666667","6500400","永和區"
"249004","303-UY","2018/11/13 16:49:23","新北市八里區博物館路202巷92號","121.408565","25.1626533333333","6502300","八里區"
"249002","305-UY","2018/11/13 16:49:25","新北市八里區牛寮埔31號","121.429836666667","25.14573","6502300","八里區"
"249003","593-UM","2018/11/13 16:49:09","新北市八里區中山路二段283號","121.40159","25.148685","6502300","八里區"
"231046","107-UY","2018/11/13 16:49:20","新北市新店區華潭街1巷47號","121.528238333333","24.9477883333333","6500600","新店區"
"241011","013-R5","2018/11/13 16:49:09","新北市三重區龍濱路277號","121.501311666667","25.0732583333333","6500200","三重區"
"241028","022-UY","2018/11/13 16:49:07","新北市三重區正義南路60-5號","121.498338333333","25.0602616666667","6500200","三重區"
"241008","059-VK","2018/11/13 16:49:22","新北市三重區永福街179巷23號","121.478106666667","25.0749216666667","6500200","三重區"
"241022","060-VK","2018/11/13 16:49:19","新北市三重區貴陽街47巷2號","121.484831666667","25.0630266666667","6500200","三重區"
"241031","061-VK","2018/11/13 16:49:08","新北市三重區過圳街16號","121.48883","25.0588066666667","6500200","三重區"
"241015","062-VK","2018/11/13 16:49:14","新北市三重區文化北路47號","121.498863333333","25.0655233333333","6500200","三重區"
"241017","063-VK","2018/11/13 16:49:21","新北市三重區國隆路12巷18號","121.492483333333","25.06354","6500200","三重區"
"241026","066-VK","2018/11/13 16:49:20","新北市三重區文化南路10巷20號","121.500791666667","25.0621983333333","6500200","三重區"
"241002","090-VK","2018/11/13 16:49:08","新北市三重區仁義街143巷20號","121.497706666667","25.08083","6500200","三重區"
"241003","091-VK","2018/11/13 16:49:21","新北市三重區碧華街434號","121.492738333333","25.0855916666667","6500200","三重區"
"251014","742-BX","2018/11/13 16:49:17","新北市淡水區淡金路三段288號","121.448878333333","25.2074216666667","6501000","淡水區"
"241005","262-UM","2018/11/13 16:49:11","新北市三重區碧華街216巷14弄12號","121.48551","25.08259","6500200","三重區"
"241007","265-UM","2018/11/13 16:49:21","新北市三重區三和路四段181巷68號","121.484103333333","25.0794983333333","6500200","三重區"
"241016","266-UM","2018/11/13 16:49:22","新北市三重區大同北路135巷27號","121.49377","25.064725","6500200","三重區"
"241009","267-UM","2018/11/13 16:49:19","新北市三重區三和路四段203巷282號","121.48783","25.081235","6500200","三重區"
"241018","268-UM","2018/11/13 16:49:16","新北市三重區安樂街96號","121.494615","25.0692516666667","6500200","三重區"
"241032","269-UM","2018/11/13 16:49:20","新北市三重區重陽路一段120巷23號","121.485806666667","25.060195","6500200","三重區"
"241013","270-UM","2018/11/13 16:49:10","新北市三重區仁壽街34號","121.497235","25.0735583333333","6500200","三重區"
"241025","271-UM","2018/11/13 16:49:10","新北市三重區中正北路365號","121.472268333333","25.07189","6500200","三重區"
"241024","462-BY","2018/11/13 16:49:21","新北市三重區中正北路315巷6弄84號","121.477355","25.0725666666667","6500200","三重區"
"241004","475-VK","2018/11/13 16:49:16","新北市三重區仁愛街423-1號","121.490448333333","25.0815433333333","6500200","三重區"
"241020","478-VK","2018/11/13 16:49:10","新北市三重區忠孝路二段34號","121.48576","25.07102","6500200","三重區"
"241014","543-UM","2018/11/13 16:49:17","新北市三重區長榮路75號","121.502563333333","25.06915","6500200","三重區"
"241023","545-UM","2018/11/13 16:49:26","新北市三重區新北大道一段206巷42號","121.482571666667","25.0625633333333","6500200","三重區"
"241001","547-UM","2018/11/13 16:49:23","新北市三重區仁政街54巷19號","121.492445","25.0768033333333","6500200","三重區"
"241019","KEA-2593","2018/11/13 16:49:22","新北市三重區力行路一段179巷17弄2號","121.485358333333","25.0700316666667","6500200","三重區"
"241006","AAD-863","2018/11/13 16:49:18","新北市三重區力行路二段182-3號","121.483435","25.0775966666667","6500200","三重區"
"241030","743-BX","2018/11/13 16:49:15","新北市三重區中正南路235-3號","121.49239","25.0532316666667","6500200","三重區"
"241012","941-UM","2018/11/13 16:49:19","新北市三重區河邊北街214號","121.502066666667","25.0749266666667","6500200","三重區"
"241029","942-UM","2018/11/13 16:49:20","新北市三重區集美街257號","121.492388333333","25.0555833333333","6500200","三重區"
"241033","AAC-255","2018/11/13 16:49:21","新北市三重區新北大道二段139巷9號","121.466458333333","25.06076","6500200","三重區"
"247024","500-BY","2018/11/13 16:49:11","新北市蘆洲區長興路255號","121.460565","25.0875683333333","6501400","蘆洲區"
"247006","337-TH","2018/11/13 16:49:25","新北市蘆洲區永安南路二段132-1號","121.462448333333","25.0785666666667","6501400","蘆洲區"
"247020","057-VK","2018/11/13 16:49:15","新北市蘆洲區民族路422巷14號","121.474218333333","25.0921966666667","6501400","蘆洲區"
"247010","056-VK","2018/11/13 16:49:21","新北市蘆洲區復興路355巷39號","121.477303333333","25.0966933333333","6501400","蘆洲區"
"247008","053-VK","2018/11/13 16:49:11","新北市蘆洲區中山二路45巷30號","121.474318333333","25.0811966666667","6501400","蘆洲區"
"247004","002-UY","2018/11/13 16:49:19","新北市蘆洲區長榮路155號","121.461766666667","25.08403","6501400","蘆洲區"
"247022","001-UY","2018/11/13 16:49:23","新北市蘆洲區中正路362-1號","121.464203333333","25.0923733333333","6501400","蘆洲區"
"228002","663-BX","2018/11/13 16:49:16","新北市貢寮區貢寮里朝陽街122號","121.908036666667","25.022715","6502600","貢寮區"
"228003","828-UM","2018/11/13 16:49:27","新北市貢寮區貢寮里朝陽街1-2號","121.912366666667","25.0212783333333","6502600","貢寮區"
"224006","676-BX","2018/11/13 16:49:17","新北市瑞芳區大寮路356-1號","121.784891666667","25.10321","6501200","瑞芳區"
"224008","285-BY","2018/11/13 16:49:12","新北市瑞芳區中山路344號","121.79604","25.1101816666667","6501200","瑞芳區"
"224007","275-VK","2018/11/13 16:49:26","新北市瑞芳區中央路48巷56號","121.760748333333","25.1034316666667","6501200","瑞芳區"
"224009","273-VK","2018/11/13 16:49:10","新北市瑞芳區中山路245號","121.799831666667","25.10727","6501200","瑞芳區"
"224005","271-BY","2018/11/13 16:49:15","新北市瑞芳區洞頂路158-1號","121.861205","25.11868","6501200","瑞芳區"
"227009","642-TC","2018/11/13 16:49:21","新北市雙溪區牡丹里五分11號","121.866075","25.0471383333333","6502500","雙溪區"
"227003","400-TW","2018/11/13 16:49:26","新北市雙溪區外柑里外柑腳71號","121.80715","25.0176333333333","6502500","雙溪區"
"251013","KEA-2871","2018/11/13 16:49:18","新北市淡水區泉洲厝32號","121.489315","25.1925233333333","6501000","淡水區"
"251016","179-VK","2018/11/13 16:49:11","新北市淡水區水頭41號","121.478023333333","25.1850566666667","6501000","淡水區"
"251008","180-VK","2018/11/13 16:49:09","新北市淡水區樹梅坑31號","121.474531666667","25.1435233333333","6501000","淡水區"
"251015","182-VK","2018/11/13 16:49:14","新北市淡水區水源街一段110號","121.44658","25.1720433333333","6501000","淡水區"
"251012","441-VK","2018/11/13 16:49:19","新北市淡水區中正路二段31號","121.419626666667","25.181525","6501000","淡水區"
"251007","442-VK","2018/11/13 16:49:23","新北市淡水區中正路二段31號","121.419746666667","25.181515","6501000","淡水區"
"251004","443-VK","2018/11/13 16:49:16","新北市淡水區中正路二段28號","121.419763333333","25.1814933333333","6501000","淡水區"
"252002","178-VK","2018/11/13 16:49:25","新北市三芝區埔坪里埔頭坑77號","121.509428333333","25.2544433333333","6502100","三芝區"
"252001","292-VK","2018/11/13 16:49:22","新北市三芝區淡金路二段76-1號","121.50385","25.260795","6502100","三芝區"
"242022","362-BY","2018/11/13 16:49:11","新北市新莊區新泰路255巷83號","121.442035","25.0390033333333","6500500","新莊區"
"242019","175-VK","2018/11/13 16:49:13","新北市新莊區三和路12-21號","121.442091666667","25.038685","6500500","新莊區"
"242017","346-TH","2018/11/13 16:49:15","新北市新莊區三和路12-21號","121.442228333333","25.0382233333333","6500500","新莊區"
"238017","283-BY","2018/11/13 16:49:10","新北市樹林區育德街78號","121.387491666667","24.96838","6500700","樹林區"
"238014","282-BY","2018/11/13 16:49:22","新北市樹林區中山路三段204號","121.386906666667","24.968275","6500700","樹林區"
"239007","AAC-297","2018/11/13 16:49:18","新北市鶯歌區二甲路13-16號","121.345006666667","24.93499","6500800","鶯歌區"
"239006","891-R6","2018/11/13 16:49:11","新北市鶯歌區二甲路171-1號","121.344163333333","24.9354716666667","6500800","鶯歌區"
"239004","193-VK","2018/11/13 16:46:00","新北市鶯歌區二甲路12-2號","121.345981666667","24.934785","6500800","鶯歌區"
