"lineid","car","time","location","longitude","latitude","cityid","cityname"
"234050","863-TW","2018/11/13 17:39:00","新北市永和區福和路1號","121.526435","25.0098633333333","6500400","永和區"
"234026","9371-KE","2018/11/13 17:47:40","新北市永和區永平路164號","121.510873333333","25.00884","6500400","永和區"
"249005","172-UM","2018/11/13 17:47:52","新北市八里區荖阡坑路34-1號","121.402775","25.1297366666667","6502300","八里區"
"249001","173-UM","2018/11/13 17:47:59","新北市八里區龍米路二段133號","121.445258333333","25.1475866666667","6502300","八里區"
"249004","303-UY","2018/11/13 17:47:43","新北市八里區中華路一段126號","121.419833333333","25.15714","6502300","八里區"
"249002","305-UY","2018/11/13 17:47:45","新北市八里區龍形五街37巷2號","121.448608333333","25.13266","6502300","八里區"
"249003","593-UM","2018/11/13 17:47:49","新北市八里區中山路二段77號","121.406173333333","25.1529716666667","6502300","八里區"
"248008","095-VK","2018/11/13 17:47:55","新北市五股區中興路二段83巷26-6號","121.460078333333","25.075205","6501500","五股區"
"248012","247-BX","2018/11/13 17:47:38","新北市五股區中興路二段37巷28號","121.460101666667","25.0749616666667","6501500","五股區"
"248010","272-BY","2018/11/13 17:47:46","新北市五股區中興路二段83巷26-6號","121.460048333333","25.0750983333333","6501500","五股區"
"248004","677-BX","2018/11/13 17:47:56","新北市五股區中興路二段37巷28號","121.460126666667","25.074875","6501500","五股區"
"232011","375-UM","2018/11/13 17:47:39","新北市坪林區北宜路八段192號","121.708228333333","24.9346983333333","6502000","坪林區"
"244023","069-UM","2018/11/13 17:47:19","新北市林口區興林路152巷19號","121.387338333333","25.0716233333333","6501700","林口區"
"244007","080-UY","2018/11/13 17:47:38","新北市林口區林口路199號","121.387483333333","25.0827716666667","6501700","林口區"
"244019","403-UM","2018/11/13 17:47:41","新北市林口區忠孝路512-1號","121.371696666667","25.0691583333333","6501700","林口區"
"244013","KEA-2802","2018/11/13 17:47:50","新北市林口區中正路525巷17號","121.383373333333","25.076855","6501700","林口區"
"244017","485-VK","2018/11/13 17:47:43","新北市林口區文化二路一段260巷4號","121.371166666667","25.0733283333333","6501700","林口區"
"244009","656-BX","2018/11/13 17:47:52","新北市林口區佳林路56巷43號","121.385171666667","25.0807216666667","6501700","林口區"
"244011","701-TV","2018/11/13 17:47:48","新北市林口區中正路354號","121.386435","25.0777033333333","6501700","林口區"
"244025","837-TS","2018/11/13 17:47:50","新北市林口區文化三路一段181號","121.36202","25.069565","6501700","林口區"
"244021","838-TS","2018/11/13 17:47:47","新北市林口區仁愛路一段2-1號","121.397561666667","25.0676133333333","6501700","林口區"
"222002","659-BX","2018/11/13 17:47:40","新北市深坑區平埔街22巷17弄1號","121.61487","25.0008866666667","6501800","深坑區"
"231046","107-UY","2018/11/13 17:47:41","新北市新店區下石厝路23-1號","121.532328333333","24.927365","6500600","新店區"
"231055","AKT-0513","2018/11/13 17:47:41","新北市新店區安華路1-1號","121.5193","24.96038","6500600","新店區"
"251014","742-BX","2018/11/13 17:47:57","新北市淡水區公埔子16-6號","121.481006666667","25.2246166666667","6501000","淡水區"
"241005","262-UM","2018/11/13 17:47:31","新北市三重區仁愛街519號","121.487225","25.0821866666667","6500200","三重區"
"241016","266-UM","2018/11/13 17:47:42","新北市三重區重新路二段146號","121.49575","25.0615333333333","6500200","三重區"
"241024","462-BY","2018/11/13 17:47:41","新北市三重區力行路二段9巷4號","121.482486666667","25.072165","6500200","三重區"
"241033","AAC-255","2018/11/13 17:47:41","新北市三重區光復路一段11號","121.47208","25.0471733333333","6500200","三重區"
"235064","005-UY","2018/11/13 17:47:48","新北市中和區員山路36巷16-3號","121.48499","24.991295","6500300","中和區"
"235065","098-UM","2018/11/13 17:47:40","新北市中和區中正路637巷52弄1號","121.485425","24.9934616666667","6500300","中和區"
"235058","151-BY","2018/11/13 17:47:41","新北市中和區員山路36巷16-2號","121.485158333333","24.9915583333333","6500300","中和區"
"235067","255-BX","2018/11/13 17:47:40","新北市中和區和城路一段271巷1號","121.485756666667","24.9917166666667","6500300","中和區"
"247012","KEA-2869","2018/11/13 17:47:43","新北市蘆洲區復興路76號","121.475023333333","25.0866016666667","6501400","蘆洲區"
"247002","893-R6","2018/11/13 17:47:42","新北市蘆洲區永平街32巷21弄31號","121.458125","25.0921983333333","6501400","蘆洲區"
"247016","546-UM","2018/11/13 17:47:55","新北市蘆洲區中正路185巷25弄10號","121.46699","25.0840483333333","6501400","蘆洲區"
"247024","500-BY","2018/11/13 17:47:53","新北市蘆洲區長樂路120巷18號","121.462713333333","25.089385","6501400","蘆洲區"
"247014","339-TH","2018/11/13 17:47:44","新北市蘆洲區保和街69巷18號","121.469598333333","25.08536","6501400","蘆洲區"
"247006","337-TH","2018/11/13 17:47:45","新北市蘆洲區九芎街90巷8號","121.465725","25.0802866666667","6501400","蘆洲區"
"247020","057-VK","2018/11/13 17:47:55","新北市蘆洲區民義街71巷31號","121.472045","25.0911466666667","6501400","蘆洲區"
"247010","056-VK","2018/11/13 17:47:41","新北市蘆洲區民族路110號","121.478425","25.08528","6501400","蘆洲區"
"247008","053-VK","2018/11/13 17:47:51","新北市蘆洲區和平路29巷8號","121.471896666667","25.0787566666667","6501400","蘆洲區"
"247018","007-UY","2018/11/13 17:47:49","新北市蘆洲區民權路54-1號","121.47555","25.08692","6501400","蘆洲區"
"247004","002-UY","2018/11/13 17:47:39","新北市蘆洲區長榮路211巷6號","121.460383333333","25.0847483333333","6501400","蘆洲區"
"247022","001-UY","2018/11/13 17:47:42","新北市蘆洲區中正路457號","121.462178333333","25.0955983333333","6501400","蘆洲區"
"228001","212-TW","2018/11/13 17:47:39","新北市貢寮區仁理村仁愛路95-1號","121.927661666667","25.055455","6502600","貢寮區"
"228002","663-BX","2018/11/13 17:47:56","新北市貢寮區福隆里外隆林街15號","121.958771666667","25.0035933333333","6502600","貢寮區"
"228003","828-UM","2018/11/13 17:47:47","新北市貢寮區真理里延平街72-5號","121.925256666667","25.058455","6502600","貢寮區"
"224006","676-BX","2018/11/13 17:47:37","新北市瑞芳區瑞興新村12巷1號","121.78843","25.1083366666667","6501200","瑞芳區"
"224008","285-BY","2018/11/13 17:47:52","新北市瑞芳區明燈路一段41號","121.821856666667","25.10708","6501200","瑞芳區"
"224009","273-VK","2018/11/13 17:47:50","新北市瑞芳區山尖路49號","121.852281666667","25.1147316666667","6501200","瑞芳區"
"224005","271-BY","2018/11/13 17:47:55","新北市瑞芳區海濱路37-1號","121.830965","25.1236483333333","6501200","瑞芳區"
"227009","642-TC","2018/11/13 17:47:41","新北市雙溪區三貂里定福路1-2號","121.850613333333","25.0635283333333","6502500","雙溪區"
"253006","032-BX","2018/11/13 17:47:59","新北市石門區中央路6號","121.566573333333","25.29141","6502200","石門區"
"208001","761-BX","2018/11/13 17:47:53","新北市金山區磺清路135號","121.639291666667","25.2276216666667","6502700","金山區"
"251005","010-UM","2018/11/13 17:47:58","新北市淡水區學府路102巷16號","121.45101","25.1718566666667","6501000","淡水區"
"251013","KEA-2871","2018/11/13 17:47:58","新北市淡水區竹圍子7號","121.477581666667","25.1910266666667","6501000","淡水區"
"251016","179-VK","2018/11/13 17:47:51","新北市淡水區埤島39-15號","121.452761666667","25.1958416666667","6501000","淡水區"
"251008","180-VK","2018/11/13 17:47:49","新北市淡水區八勢路一段156號","121.468091666667","25.1564266666667","6501000","淡水區"
"251015","182-VK","2018/11/13 17:47:54","新北市淡水區糞箕湖17-3號","121.48814","25.16867","6501000","淡水區"
"251010","413-VK","2018/11/13 17:47:47","新北市淡水區淡海路280巷33弄34-2號","121.418756666667","25.18861","6501000","淡水區"
"251012","441-VK","2018/11/13 17:47:38","新北市淡水區北新路一段403號","121.467258333333","25.1824583333333","6501000","淡水區"
"251007","442-VK","2018/11/13 17:47:43","新北市淡水區民生路16巷14號","121.461328333333","25.1374483333333","6501000","淡水區"
"251004","443-VK","2018/11/13 17:47:56","新北市淡水區民權一街33號","121.459271666667","25.1363233333333","6501000","淡水區"
"251001","559-UM","2018/11/13 17:47:55","新北市淡水區自強路201巷39號","121.462178333333","25.12675","6501000","淡水區"
"251006","561-UM","2018/11/13 17:47:48","新北市淡水區大信街1巷25號","121.440178333333","25.1767333333333","6501000","淡水區"
"251009","575-R6","2018/11/13 17:47:44","新北市淡水區長興街42號","121.444158333333","25.1714883333333","6501000","淡水區"
"251011","650-BX","2018/11/13 17:47:03","新北市淡水區吳(仔)厝10-3號","121.482038333333","25.149605","6501000","淡水區"
"251002","672-BX","2018/11/13 17:47:44","新北市淡水區中山路100號","121.442448333333","25.1707533333333","6501000","淡水區"
"251003","673-BX","2018/11/13 17:47:47","新北市淡水區大忠街5巷1號","121.443078333333","25.17636","6501000","淡水區"
"207003","550-UM","2018/11/13 17:47:58","新北市萬里區野柳里東澳路66號","121.692785","25.20097","6502800","萬里區"
"207004","225-TW","2018/11/13 17:47:48","新北市萬里區萬里里瑪鋉路71號","121.68823","25.1763516666667","6502800","萬里區"
"252002","178-VK","2018/11/13 17:47:45","新北市三芝區智成街47號","121.504201666667","25.2563","6502100","三芝區"
"252001","292-VK","2018/11/13 17:47:41","新北市三芝區中興街一段7號","121.497373333333","25.2586816666667","6502100","三芝區"
"237004","KEA-2597","2018/11/13 17:47:40","新北市三峽區中山路175號","121.363705","24.9368166666667","6500900","三峽區"
"237009","210-TH","2018/11/13 17:47:38","新北市三峽區大勇路25號","121.367186666667","24.9363966666667","6500900","三峽區"
"237013","252-BX","2018/11/13 17:47:44","新北市三峽區愛國路32-25號","121.374406666667","24.933225","6500900","三峽區"
"237012","275-BY","2018/11/13 17:47:58","新北市三峽區文化路131號","121.369678333333","24.9360433333333","6500900","三峽區"
"237014","433-BY","2018/11/13 17:47:44","新北市三峽區文化路127號","121.369815","24.9360616666667","6500900","三峽區"
"237006","5529-G3","2018/11/13 17:47:38","新北市三峽區介壽路一段556號","121.387895","24.93391","6500900","三峽區"
"237011","KEA-2596","2018/11/13 17:47:41","新北市三峽區仁愛街18號","121.368295","24.93241","6500900","三峽區"
"237016","649-BX","2018/11/13 17:47:48","新北市三峽區白雞127號","121.395415","24.90864","6500900","三峽區"
"237010","706-TV","2018/11/13 17:47:57","新北市三峽區文化路232號","121.36787","24.9358883333333","6500900","三峽區"
"237005","AKY-6261","2018/11/13 17:47:40","新北市三峽區中山路459巷52-1號","121.356671666667","24.9360566666667","6500900","三峽區"
"236070","105-UM","2018/11/13 17:47:43","新北市土城區青雲路581-1號","121.459388333333","24.971515","6501300","土城區"
"236042","KED-0685","2018/11/13 17:47:57","新北市土城區城林路6巷80號","121.438475","24.979785","6501300","土城區"
"236079","166-UM","2018/11/13 17:47:49","新北市土城區中央路三段92號","121.436036666667","24.966815","6501300","土城區"
"236030","253-BX","2018/11/13 17:47:45","新北市土城區城林路6巷80號","121.438655","24.97967","6501300","土城區"
"236026","269-VK","2018/11/13 17:47:56","新北市土城區中央路二段280號","121.440668333333","24.974025","6501300","土城區"
"236014","270-VK","2018/11/13 17:47:49","新北市土城區城林路6巷80號","121.438541666667","24.9795816666667","6501300","土城區"
"236038","271-VK","2018/11/13 17:47:43","新北市土城區城林路6巷80號","121.438466666667","24.9797566666667","6501300","土城區"
"236021","401-BY","2018/11/13 17:47:55","新北市土城區城林路6巷80號","121.438773333333","24.979745","6501300","土城區"
"236059","912-UM","2018/11/13 17:47:56","新北市土城區中華路二段26號","121.439268333333","24.978535","6501300","土城區"
"236063","915-UM","2018/11/13 17:47:41","新北市土城區城林路6巷80號","121.438501666667","24.97962","6501300","土城區"
"236055","AAC-216","2018/11/13 17:47:42","新北市土城區城林路6巷80號","121.438638333333","24.9797016666667","6501300","土城區"
"242037","AAC-296","2018/11/13 17:47:41","新北市新莊區後港一路91號","121.427781666667","25.026835","6500500","新莊區"
"242058","986-R7","2018/11/13 17:47:46","新北市新莊區中正路867-7號","121.418235","25.0273766666667","6500500","新莊區"
"242027","615-BX","2018/11/13 17:47:51","新北市新莊區福壽街173號","121.457978333333","25.05387","6500500","新莊區"
"242025","613-BX","2018/11/13 17:47:54","新北市新莊區新北大道二段167號","121.465073333333","25.0610416666667","6500500","新莊區"
"242029","612-BX","2018/11/13 17:47:42","新北市新莊區復興路一段107號","121.449228333333","25.0429583333333","6500500","新莊區"
"242044","566-BX","2018/11/13 17:47:43","新北市新莊區中正路829巷22弄47號","121.420491666667","25.02656","6500500","新莊區"
"242048","497-BY","2018/11/13 17:47:45","新北市新莊區萬安街102巷12號","121.420336666667","25.02282","6500500","新莊區"
"242056","442-UM","2018/11/13 17:47:56","新北市新莊區瓊林路40巷34號","121.446523333333","25.030235","6500500","新莊區"
"242054","441-UM","2018/11/13 17:47:38","新北市新莊區民安西路470-1號","121.431723333333","25.0078266666667","6500500","新莊區"
"242039","415-TV","2018/11/13 17:47:58","新北市新莊區民安路196號","121.425543333333","25.0233933333333","6500500","新莊區"
"242009","413-TV","2018/11/13 17:47:43","新北市新莊區昌明街30巷5弄1號","121.456733333333","25.0528516666667","6500500","新莊區"
"242023","362-BY","2018/11/13 17:47:50","新北市新莊區福樂街26號","121.457846666667","25.04525","6500500","新莊區"
"242061","353-BY","2018/11/13 17:47:42","新北市新莊區瓊林南路220號","121.43346","25.005675","6500500","新莊區"
"242011","132-UY","2018/11/13 17:47:58","新北市新莊區中港路679號","121.450726666667","25.056175","6500500","新莊區"
"242042","133-UY","2018/11/13 17:47:55","新北市泰山區貴陽街29號","121.422403333333","25.03318","6500500","新莊區"
"242034","135-UY","2018/11/13 17:47:54","新北市新莊區新莊路682-6號","121.441041666667","25.032775","6500500","新莊區"
"242051","172-VK","2018/11/13 17:47:43","新北市新莊區西盛街257巷21號","121.428898333333","25.0159233333333","6500500","新莊區"
"242013","173-VK","2018/11/13 17:47:50","新北市新莊區中誠街142巷12號","121.448685","25.0480983333333","6500500","新莊區"
"242019","175-VK","2018/11/13 17:47:53","新北市新莊區民樂街53號","121.457931666667","25.0414","6500500","新莊區"
"242007","176-VK","2018/11/13 17:47:53","新北市新莊區福樂街132巷1號","121.456701666667","25.0482333333333","6500500","新莊區"
"242017","346-TH","2018/11/13 17:47:55","新北市新莊區永安街106號","121.450176666667","25.0445716666667","6500500","新莊區"
"242032","348-TH","2018/11/13 17:47:54","新北市新莊區新泰路357巷1弄1號","121.44287","25.04118","6500500","新莊區"
"242005","349-TH","2018/11/13 17:47:55","新北市新莊區自立街254號","121.459045","25.045535","6500500","新莊區"
"242021","350-TH","2018/11/13 17:48:00","新北市新莊區永寧街37巷1號","121.452853333333","25.039495","6500500","新莊區"
"242015","351-TH","2018/11/13 17:47:55","新北市新莊區新泰路442號","121.443376666667","25.0448","6500500","新莊區"
"238015","755-BX","2018/11/13 17:47:49","新北市樹林區復興路65號","121.421638333333","24.9930183333333","6500700","樹林區"
"238023","601-UM","2018/11/13 17:47:48","新北市樹林區龍興街32巷30號","121.401773333333","25.01548","6500700","樹林區"
"238019","599-UM","2018/11/13 17:47:53","新北市樹林區太順街25號","121.419236666667","24.9798766666667","6500700","樹林區"
"238018","571-TV","2018/11/13 17:47:58","新北市樹林區博愛街69號","121.427183333333","24.992205","6500700","樹林區"
"238022","KEA-2213","2018/11/13 17:47:50","新北市樹林區太順街60號","121.417996666667","24.979305","6500700","樹林區"
"238021","KEA-2539","2018/11/13 17:47:44","新北市樹林區柑園街一段43號","121.403458333333","24.9601833333333","6500700","樹林區"
"238025","303-VK","2018/11/13 17:47:54","新北市樹林區俊興街230號","121.417848333333","25.0152433333333","6500700","樹林區"
"238017","283-BY","2018/11/13 17:47:50","新北市樹林區俊德街51號","121.41544","25.0132483333333","6500700","樹林區"
"238014","282-BY","2018/11/13 17:47:42","新北市樹林區大安路125巷15號","121.422971666667","24.9970083333333","6500700","樹林區"
"238026","172-UY","2018/11/13 17:47:53","新北市樹林區新興街19巷34弄3號","121.402098333333","24.9733533333333","6500700","樹林區"
"238016","169-UY","2018/11/13 17:47:46","新北市樹林區復興路315號","121.41842","24.9887083333333","6500700","樹林區"
"239007","AAC-297","2018/11/13 17:47:38","新北市鶯歌區鶯桃路86-2號","121.339893333333","24.953855","6500800","鶯歌區"
"239006","891-R6","2018/11/13 17:47:51","新北市鶯歌區鶯桃路505號","121.331506666667","24.966665","6500800","鶯歌區"
"239008","527-UM","2018/11/13 17:47:40","新北市鶯歌區大湖路700巷26號","121.333563333333","24.9770366666667","6500800","鶯歌區"
"239005","526-UM","2018/11/13 17:47:42","新北市鶯歌區鳳吉四街34號","121.327263333333","24.9729366666667","6500800","鶯歌區"
"239001","417-VK","2018/11/13 17:47:41","新北市鶯歌區中正三路412號","121.32482","24.93469","6500800","鶯歌區"
"239003","360-BY","2018/11/13 17:47:43","新北市鶯歌區鶯桃路234巷1號","121.336558333333","24.9593983333333","6500800","鶯歌區"
"239002","359-BY","2018/11/13 17:48:00","新北市鶯歌區國華路99號","121.343075","24.95398","6500800","鶯歌區"
"239004","193-VK","2018/11/13 17:48:00","新北市鶯歌區尖山路56號","121.349701666667","24.949625","6500800","鶯歌區"
"221008","489-VK","2018/11/13 17:47:47","新北市汐止區康寧街901號","121.651293333333","25.0750366666667","6501100","汐止區"
"221036","130-UY","2018/11/13 17:47:41","新北市汐止區汐萬路一段227號","121.651816666667","25.072635","6501100","汐止區"
"221015","131-UY","2018/11/13 17:47:40","新北市汐止區長江街249-1號","121.662848333333","25.0793583333333","6501100","汐止區"
"221010","269-BY","2018/11/13 17:47:56","新北市汐止區汐萬路二段110號","121.64814","25.0846166666667","6501100","汐止區"
"221012","278-VK","2018/11/13 17:47:52","新北市汐止區長江街97號","121.657986666667","25.0726783333333","6501100","汐止區"
"221032","280-BY","2018/11/13 17:47:54","新北市汐止區中興路62號","121.635498333333","25.0614283333333","6501100","汐止區"
"221027","281-BY","2018/11/13 17:47:54","新北市汐止區汐萬路一段306號","121.650375","25.074595","6501100","汐止區"
"221029","298-VK","2018/11/13 17:47:47","新北市汐止區康寧街901號","121.651466666667","25.0749233333333","6501100","汐止區"
"221021","299-VK","2018/11/13 17:47:46","新北市汐止區水源路一段2號","121.6569","25.06713","6501100","汐止區"
"221031","353-TW","2018/11/13 17:47:49","新北市汐止區中興路62號","121.635436666667","25.0614083333333","6501100","汐止區"
"221035","622-UM","2018/11/13 17:47:41","新北市汐止區汐萬路一段213號","121.652016666667","25.0720316666667","6501100","汐止區"
"221025","623-UM","2018/11/13 17:47:45","新北市汐止區大同路二段173號","121.651611666667","25.0644683333333","6501100","汐止區"
"221038","646-BX","2018/11/13 17:47:39","新北市汐止區汐萬路一段222號","121.651623333333","25.072965","6501100","汐止區"
"221033","647-BX","2018/11/13 17:47:58","新北市汐止區林森街78號","121.624075","25.0407983333333","6501100","汐止區"
"221018","753-BX","2018/11/13 17:47:47","新北市汐止區忠孝東路348號","121.665546666667","25.0697933333333","6501100","汐止區"
"242002","281-VK","2018/11/13 17:47:46","新北市新莊區景德路174號","121.450196666667","25.0341766666667","6500500","新莊區"
"242046","280-VK","2018/11/13 17:47:43","新北市新莊區建國一路46號","121.434021666667","25.031205","6500500","新莊區"
