"lineid","car","time","location","longitude","latitude","cityid","cityname"
"234046","148-BY","2018/11/13 18:37:40","新北市永和區永元路95巷1號","121.522483333333","25.0018583333333","6500400","永和區"
"234007","207-UY","2018/11/13 18:37:58","新北市永和區文化路212號","121.51015","25.016745","6500400","永和區"
"234081","298-R6","2018/11/13 18:37:51","新北市永和區林森路83號","121.523838333333","25.0038216666667","6500400","永和區"
"234038","336-UY","2018/11/13 18:37:58","新北市永和區福和路1號","121.526601666667","25.0100983333333","6500400","永和區"
"234064","337-UY","2018/11/13 18:37:50","新北市永和區福和路1號","121.526403333333","25.0100133333333","6500400","永和區"
"234086","338-UY","2018/11/13 18:37:49","新北市永和區中正路98號","121.51414","24.9955816666667","6500400","永和區"
"234070","552-UM","2018/11/13 18:37:54","新北市永和區福和路1號","121.525551666667","25.0094566666667","6500400","永和區"
"234013","KEA-2591","2018/11/13 18:37:52","新北市永和區環河東路一段122號","121.520751666667","25.015585","6500400","永和區"
"234042","862-TW","2018/11/13 18:38:00","新北市永和區永貞路267號","121.511783333333","25.0048316666667","6500400","永和區"
"234050","863-TW","2018/11/13 18:37:40","新北市永和區福和路1號","121.526156666667","25.0097566666667","6500400","永和區"
"234026","9371-KE","2018/11/13 18:37:40","新北市永和區永貞路379號","121.50812","25.00852","6500400","永和區"
"234011","9373-KE","2018/11/13 18:37:44","新北市永和區文化路9巷22弄73號","121.513883333333","25.0144266666667","6500400","永和區"
"249005","172-UM","2018/11/13 18:37:52","新北市八里區中華路三段34-2號","121.388675","25.1255683333333","6502300","八里區"
"249001","173-UM","2018/11/13 18:37:39","新北市八里區龍米路一段388號","121.451438333333","25.1327266666667","6502300","八里區"
"249004","303-UY","2018/11/13 18:37:43","新北市八里區忠四街3號","121.424801666667","25.159505","6502300","八里區"
"249002","305-UY","2018/11/13 18:37:57","新北市八里區龍形一街33巷1-1號","121.449401666667","25.130275","6502300","八里區"
"248016","026-BX","2018/11/13 18:37:50","新北市五股區凌雲路一段149巷13-1號","121.44861","25.10087","6501500","五股區"
"248008","095-VK","2018/11/13 18:37:54","新北市五股區中興路一段150巷18號","121.464855","25.0746533333333","6501500","五股區"
"248020","225-UY","2018/11/13 18:36:52","新北市五股區孝義路87號","121.444108333333","25.11975","6501500","五股區"
"248012","247-BX","2018/11/13 18:37:58","新北市五股區御史路1巷1-5號","121.442398333333","25.0899066666667","6501500","五股區"
"248014","261-SL","2018/11/13 18:37:51","新北市五股區成泰路一段149-2號","121.435401666667","25.0733616666667","6501500","五股區"
"248010","272-BY","2018/11/13 18:37:46","新北市五股區自強路76號","121.432993333333","25.07284","6501500","五股區"
"248004","677-BX","2018/11/13 18:37:56","新北市五股區六合街19號","121.431151666667","25.088645","6501500","五股區"
"248002","678-BX","2018/11/13 18:37:46","新北市五股區成泰路三段319-1號","121.44764","25.09548","6501500","五股區"
"234023","9380-KE","2018/11/13 18:37:57","新北市永和區福和路76巷3號","121.522921666667","25.008375","6500400","永和區"
"234077","969-R7","2018/11/13 18:37:46","新北市永和區中正路560號","121.517128333333","25.0059116666667","6500400","永和區"
"234003","AAC-295","2018/11/13 18:37:54","新北市永和區福和路1號","121.526406666667","25.00983","6500400","永和區"
"244023","069-UM","2018/11/13 18:37:58","新北市林口區四維路245巷20號","121.38205","25.07503","6501700","林口區"
"244007","080-UY","2018/11/13 18:37:58","新北市林口區後湖23-1號","121.38766","25.0990666666667","6501700","林口區"
"244019","403-UM","2018/11/13 18:37:41","新北市林口區忠孝路642號","121.378966666667","25.06834","6501700","林口區"
"244013","KEA-2802","2018/11/13 18:37:50","新北市林口區佳林路138號","121.38467","25.077815","6501700","林口區"
"244017","485-VK","2018/11/13 18:37:49","新北市林口區八德路120號","121.364318333333","25.0662066666667","6501700","林口區"
"244009","656-BX","2018/11/13 18:37:52","新北市林口區竹林路462號","121.387755","25.0850933333333","6501700","林口區"
"244011","701-TV","2018/11/13 18:37:48","新北市林口區興林路17巷5弄1號","121.390523333333","25.0770433333333","6501700","林口區"
"244025","837-TS","2018/11/13 18:37:50","新北市林口區南勢街250巷9號","121.357695","25.07659","6501700","林口區"
"244021","838-TS","2018/11/13 18:37:41","新北市林口區工六路98號","121.40113","25.0766183333333","6501700","林口區"
"243013","AAD-798","2018/11/13 18:28:44","新北市泰山區明志路三段206巷3號","121.423291666667","25.03791","6501600","泰山區"
"243016","KEA-2801","2018/11/13 18:37:53","新北市泰山區黎明路1號","121.421253333333","25.063345","6501600","泰山區"
"243012","646-TV","2018/11/13 18:37:48","新北市泰山區泰林路二段222號","121.43253","25.06195","6501600","泰山區"
"222003","436-BY","2018/11/13 18:37:59","新北市深坑區翠谷街22號","121.626958333333","25.0088633333333","6501800","深坑區"
"222002","659-BX","2018/11/13 18:37:54","新北市深坑區文山路一段62巷8弄1號","121.622366666667","25.0009783333333","6501800","深坑區"
"231041","002-UM","2018/11/13 18:37:47","新北市新店區安華路28-1號","121.51975","24.960775","6500600","新店區"
"231066","0291-UT","2018/11/13 18:37:45","新北市新店區安一路一段1-1號","121.519366666667","24.9612283333333","6500600","新店區"
"231059","046-UY","2018/11/13 18:37:51","新北市新店區安華路28-1號","121.519518333333","24.9607216666667","6500600","新店區"
"231040","047-UY","2018/11/13 18:37:58","新北市新店區安華路28-1號","121.519265","24.9609116666667","6500600","新店區"
"231044","106-UY","2018/11/13 18:37:46","新北市新店區安康路一段33-1號","121.532283333333","24.96048","6500600","新店區"
"231046","107-UY","2018/11/13 18:37:40","新北市新店區直潭二街1號","121.535546666667","24.943185","6500600","新店區"
"231053","108-UY","2018/11/13 18:37:45","新北市新店區永興路12號","121.545043333333","24.9398866666667","6500600","新店區"
"231062","110-UY","2018/11/13 18:37:59","新北市新店區安一路一段1-1號","121.519198333333","24.9611433333333","6500600","新店區"
"231048","187-VK","2018/11/13 18:37:46","新北市新店區安一路一段1-1號","121.519601666667","24.9612333333333","6500600","新店區"
"231054","KEA-2219","2018/11/13 18:37:52","新北市新店區安一路一段1-1號","121.519833333333","24.9612416666667","6500600","新店區"
"231057","256-BX","2018/11/13 18:37:54","新北市新店區新烏路一段215號","121.549105","24.9314466666667","6500600","新店區"
"231042","268-BY","2018/11/13 18:37:48","新北市新店區安華路1-1號","121.519401666667","24.960495","6500600","新店區"
"231051","278-BY","2018/11/13 18:37:46","新北市新店區中央路137號","121.530371666667","24.97362","6500600","新店區"
"231050","AAD-862","2018/11/13 18:37:41","新北市新店區安華路28-1號","121.519878333333","24.9610083333333","6500600","新店區"
"231058","3713-VJ","2018/11/13 18:37:45","新北市新店區國校路76-1號","121.53856","24.9530566666667","6500600","新店區"
"231056","4715-K9","2018/11/13 18:37:46","新北市新店區民族路75-2號","121.539175","24.9780266666667","6500600","新店區"
"231067","4772-VM","2018/11/13 18:37:52","新北市新店區安華路28-1號","121.519308333333","24.9606283333333","6500600","新店區"
"231065","512-UM","2018/11/13 18:37:56","新北市新店區安一路一段1-1號","121.519371666667","24.9612083333333","6500600","新店區"
"231049","513-UM","2018/11/13 18:37:58","新北市新店區安一路一段1-1號","121.519683333333","24.961145","6500600","新店區"
"231063","616-UM","2018/11/13 18:37:54","新北市新店區安華路1-1號","121.519411666667","24.9603683333333","6500600","新店區"
"231061","619-UM","2018/11/13 18:37:58","新北市新店區安華路28-1號","121.519638333333","24.9607483333333","6500600","新店區"
"231064","719-UM","2018/11/13 18:37:47","新北市新店區安一路一段1-1號","121.519415","24.9613183333333","6500600","新店區"
"231060","897-TW","2018/11/13 18:37:52","新北市新店區安華路28-1號","121.519671666667","24.960755","6500600","新店區"
"231043","899-TW","2018/11/13 18:37:58","新北市新店區安華路28-1號","121.519168333333","24.96079","6500600","新店區"
"231055","AKT-0513","2018/11/13 18:37:41","新北市新店區華興街40號","121.536951666667","24.96909","6500600","新店區"
"251014","742-BX","2018/11/13 18:37:57","新北市淡水區崙頂12-8號","121.495571666667","25.2172233333333","6501000","淡水區"
"235066","003-UY","2018/11/13 18:37:53","新北市中和區水源路31號","121.504158333333","25.0035566666667","6500300","中和區"
"235064","005-UY","2018/11/13 18:37:48","新北市中和區連城路109巷30號","121.496983333333","24.99827","6500300","中和區"
"235063","006-UY","2018/11/13 18:37:41","新北市中和區中正路700號","121.486226666667","24.9963066666667","6500300","中和區"
"235056","096-UM","2018/11/13 18:38:00","新北市中和區員山路611巷1號","121.477896666667","25.0112116666667","6500300","中和區"
"235039","097-UM","2018/11/13 18:37:49","新北市永和區中正路43號","121.514233333333","24.9962716666667","6500300","中和區"
"235065","098-UM","2018/11/13 18:37:40","新北市中和區莊敬路33巷36弄14號","121.500636666667","25.0064366666667","6500300","中和區"
"235040","150-BY","2018/11/13 18:37:39","新北市中和區安平路59號","121.509551666667","24.995145","6500300","中和區"
"235058","151-BY","2018/11/13 18:37:41","新北市中和區員山路24-1號","121.483573333333","24.985445","6500300","中和區"
"235055","183-VK","2018/11/13 18:37:43","新北市中和區民生街28巷11號","121.469636666667","25.00575","6500300","中和區"
"235038","185-VK","2018/11/13 18:37:49","新北市中和區大勇街60巷30號","121.519335","24.994615","6500300","中和區"
"235049","186-VK","2018/11/13 18:37:48","新北市中和區景平路480號","121.505118333333","24.9938316666667","6500300","中和區"
"235067","255-BX","2018/11/13 18:37:40","新北市中和區新生街42號","121.483216666667","25.0034033333333","6500300","中和區"
"235044","293-VK","2018/11/13 18:37:58","新北市中和區復興路277-1號","121.502363333333","24.9902833333333","6500300","中和區"
"235072","301-VK","2018/11/13 18:37:48","新北市中和區中山路二段205號","121.499653333333","25.002505","6500300","中和區"
"235043","352-BY","2018/11/13 18:37:42","新北市中和區景平路187號","121.511576666667","24.99267","6500300","中和區"
"235050","4979-A6","2018/11/13 18:37:54","新北市中和區信義街113號","121.512258333333","24.9869583333333","6500300","中和區"
"235069","4980-A6","2018/11/13 18:37:48","新北市中和區連城路127巷33號","121.497351666667","24.99737","6500300","中和區"
"235070","558-UM","2018/11/13 18:37:48","新北市中和區安和路159號","121.505995","24.9972833333333","6500300","中和區"
"235045","565-BX","2018/11/13 18:37:39","新北市中和區南山路236巷63弄1號","121.503866666667","24.9876283333333","6500300","中和區"
"235060","647-TV","2018/11/13 18:37:42","新北市中和區中山路二段652號","121.480648333333","25.0057866666667","6500300","中和區"
"235047","732-UM","2018/11/13 18:37:42","新北市中和區南山路493號","121.507961666667","24.987895","6500300","中和區"
"235046","733-UM","2018/11/13 18:37:42","新北市中和區忠孝街99-3號","121.511915","24.9861366666667","6500300","中和區"
"235071","783-BX","2018/11/13 18:37:46","新北市中和區員山路36巷16-3號","121.48521","24.9911833333333","6500300","中和區"
"235062","800-TS","2018/11/13 18:37:59","新北市中和區景平路754號","121.496518333333","25.0046716666667","6500300","中和區"
"235057","801-TS","2018/11/13 18:37:57","新北市中和區員山路327巷46-1號","121.480366666667","25.0017","6500300","中和區"
"235041","802-TS","2018/11/13 18:38:01","新北市中和區宜安路138號","121.50968","24.998345","6500300","中和區"
"235052","805-TS","2018/11/13 18:37:47","新北市中和區興南路三段1號","121.498211666667","24.9796783333333","6500300","中和區"
"235048","896-TW","2018/11/13 18:37:57","新北市中和區南山路291號","121.504405","24.9920083333333","6500300","中和區"
"235053","900-TW","2018/11/13 18:37:55","新北市中和區民享街492號","121.469608333333","24.992235","6500300","中和區"
"235051","157-BY","2018/11/13 18:37:42","新北市中和區興南路二段159巷31號","121.505451666667","24.9827533333333","6500300","中和區"
"235037","AAC-213","2018/11/13 18:37:53","新北市中和區景平路151巷47號","121.51477","24.9903133333333","6500300","中和區"
"235059","AAC-215","2018/11/13 18:38:00","新北市中和區錦和路350-1號","121.490561666667","24.99351","6500300","中和區"
"220065","072-UY","2018/11/13 18:37:48","新北市板橋區民族路151巷52號","121.470086666667","25.008405","6500100","板橋區"
"220086","073-UY","2018/11/13 18:37:51","新北市板橋區大智街71巷42弄16號","121.452231666667","25.0146983333333","6500100","板橋區"
"220069","AAD-861","2018/11/13 18:37:55","新北市板橋區華東街1-10號","121.448398333333","24.9950783333333","6500100","板橋區"
"226004","205-ST","2018/11/13 18:37:41","新北市平溪區石底里公園街18-3號","121.733826666667","25.0252583333333","6502400","平溪區"
"228001","212-TW","2018/11/13 18:37:59","新北市貢寮區仁理村研海街12-1號","121.923763333333","25.05164","6502600","貢寮區"
"228002","663-BX","2018/11/13 18:37:56","新北市貢寮區福隆里桂安街17號","121.96678","25.0229883333333","6502600","貢寮區"
"228003","828-UM","2018/11/13 18:37:47","新北市貢寮區和美里龍洞街40號","121.914046666667","25.11219","6502600","貢寮區"
"224010","AGQ-8101","2018/11/13 18:37:48","新北市瑞芳區烏勢巷111號","121.846285","25.108655","6501200","瑞芳區"
"224006","676-BX","2018/11/13 18:37:57","新北市瑞芳區明燈路三段88號","121.805568333333","25.1082666666667","6501200","瑞芳區"
"224002","639-TC","2018/11/13 18:37:54","新北市瑞芳區三爪子坑路118-3號","121.806545","25.1052466666667","6501200","瑞芳區"
"224008","285-BY","2018/11/13 18:37:52","新北市瑞芳區逢甲路204號","121.8069","25.1100916666667","6501200","瑞芳區"
"224007","275-VK","2018/11/13 18:37:45","新北市瑞芳區大埔路161號","121.763716666667","25.101615","6501200","瑞芳區"
"224009","273-VK","2018/11/13 18:37:50","新北市瑞芳區祈堂路2號","121.859755","25.1117133333333","6501200","瑞芳區"
"224005","271-BY","2018/11/13 18:37:55","新北市瑞芳區建基路一段4-2號","121.820646666667","25.1210133333333","6501200","瑞芳區"
"227009","642-TC","2018/11/13 18:37:41","新北市雙溪區牡丹里下坑10號","121.850831666667","25.0562533333333","6502500","雙溪區"
"227003","400-TW","2018/11/13 18:37:46","新北市雙溪區魚行里坤溪3-4號","121.876211666667","25.0207","6502500","雙溪區"
"253006","032-BX","2018/11/13 18:37:59","新北市石門區崁子腳28-1號","121.539808333333","25.2898716666667","6502200","石門區"
"253005","295-VK","2018/11/13 18:37:48","新北市石門區石門街47號","121.566546666667","25.29038","6502200","石門區"
"222001","KEA-2212","2018/11/13 18:37:55","新北市深坑區北深路一段82號","121.636318333333","25.0106916666667","6501800","深坑區"
"208002","KEA-2872","2018/11/13 18:37:45","新北市金山區環金路59號","121.638611666667","25.21742","6502700","金山區"
"208003","665-BX","2018/11/13 18:38:00","新北市金山區中山路338號","121.633556666667","25.2252083333333","6502700","金山區"
"208001","761-BX","2018/11/13 18:37:53","新北市金山區文化一路3巷4號","121.636095","25.2242366666667","6502700","金山區"
"251005","010-UM","2018/11/13 18:37:58","新北市淡水區中正路18巷6號","121.43761","25.1727916666667","6501000","淡水區"
"251013","KEA-2871","2018/11/13 18:37:38","新北市淡水區椿子林8號","121.486703333333","25.20357","6501000","淡水區"
"251016","179-VK","2018/11/13 18:37:51","新北市淡水區下圭柔山76-12號","121.44337","25.2056416666667","6501000","淡水區"
"251008","180-VK","2018/11/13 18:37:49","新北市淡水區北投子69-1號","121.454133333333","25.18168","6501000","淡水區"
"251015","182-VK","2018/11/13 18:37:54","新北市淡水區樹林口62號","121.484586666667","25.1631533333333","6501000","淡水區"
"251010","413-VK","2018/11/13 18:37:47","新北市淡水區沙崙路124號","121.423358333333","25.18289","6501000","淡水區"
"251012","441-VK","2018/11/13 18:37:58","新北市淡水區北新路121號","121.448965","25.1786383333333","6501000","淡水區"
"251007","442-VK","2018/11/13 18:37:43","新北市淡水區中正東路二段143巷2弄1號","121.460573333333","25.1472633333333","6501000","淡水區"
"251001","559-UM","2018/11/13 18:37:55","新北市淡水區自強路415巷2號","121.465515","25.134245","6501000","淡水區"
"251006","561-UM","2018/11/13 18:37:48","新北市淡水區新市二路四段80號","121.442406666667","25.1926416666667","6501000","淡水區"
"251011","650-BX","2018/11/13 18:37:43","新北市淡水區鄧公路12-2號","121.449733333333","25.1700733333333","6501000","淡水區"
"251002","672-BX","2018/11/13 18:37:44","新北市淡水區中正東路一段3巷14弄3號","121.450985","25.164135","6501000","淡水區"
"251003","673-BX","2018/11/13 18:37:47","新北市淡水區北新路69巷30號","121.446883333333","25.1799883333333","6501000","淡水區"
"207003","550-UM","2018/11/13 18:37:58","新北市萬里區野柳里八斗60號","121.661536666667","25.20659","6502800","萬里區"
"207004","225-TW","2018/11/13 18:37:47","新北市萬里區萬里里獅頭路12-4號","121.693413333333","25.1795266666667","6502800","萬里區"
"252002","178-VK","2018/11/13 18:37:49","新北市三芝區民生街64巷15號","121.503715","25.255005","6502100","三芝區"
"252003","249-BX","2018/11/13 18:37:46","新北市三芝區後厝里土地公坑999號","121.464708333333","25.2491333333333","6502100","三芝區"
"252001","292-VK","2018/11/13 18:37:41","新北市三芝區埔頭里埔頭14號","121.50031","25.2543316666667","6502100","三芝區"
"237004","KEA-2597","2018/11/13 18:37:40","新北市三峽區插角221號","121.415001666667","24.867755","6500900","三峽區"
"237007","153-BY","2018/11/13 18:37:48","新北市三峽區中正路三段112號","121.355845","24.9034166666667","6500900","三峽區"
"237009","210-TH","2018/11/13 18:37:58","新北市三峽區弘園街73號","121.366051666667","24.926885","6500900","三峽區"
"237013","252-BX","2018/11/13 18:37:44","新北市三峽區大同路48巷17弄8-1號","121.376763333333","24.9290866666667","6500900","三峽區"
"237012","275-BY","2018/11/13 18:37:58","新北市三峽區三樹路340號","121.383953333333","24.9433083333333","6500900","三峽區"
"237008","302-VK","2018/11/13 18:37:50","新北市三峽區白雞77號","121.402818333333","24.909925","6500900","三峽區"
"237014","433-BY","2018/11/13 18:37:44","新北市三峽區和平街40-1號","121.370216666667","24.9373833333333","6500900","三峽區"
"237006","5529-G3","2018/11/13 18:37:38","新北市三峽區溪東路371巷2弄2號","121.411988333333","24.929605","6500900","三峽區"
"237011","KEA-2596","2018/11/13 18:37:41","新北市三峽區溪東路248號","121.40859","24.9315883333333","6500900","三峽區"
"237016","649-BX","2018/11/13 18:37:48","新北市三峽區竹崙路111號","121.433298333333","24.91257","6500900","三峽區"
"237010","706-TV","2018/11/13 18:37:57","新北市三峽區復興路465-1號","121.361643333333","24.9384883333333","6500900","三峽區"
"237005","AKY-6261","2018/11/13 18:37:59","新北市三峽區民生街111-2號","121.373788333333","24.9353933333333","6500900","三峽區"
"236070","105-UM","2018/11/13 18:37:54","新北市土城區永豐路157巷29弄4號","121.46883","24.9818516666667","6501300","土城區"
"236042","KED-0685","2018/11/13 18:37:56","新北市土城區學成路124號","121.449286666667","24.989415","6501300","土城區"
"236079","166-UM","2018/11/13 18:37:53","新北市土城區中央路四段80號","121.418176666667","24.9599466666667","6501300","土城區"
"236030","253-BX","2018/11/13 18:37:45","新北市土城區福仁街56號","121.439551666667","24.9747833333333","6501300","土城區"
"236026","269-VK","2018/11/13 18:37:56","新北市土城區忠義路51號","121.440495","24.96898","6501300","土城區"
"236014","270-VK","2018/11/13 18:37:49","新北市土城區青雲路183巷11弄1號","121.459803333333","24.98291","6501300","土城區"
"236038","271-VK","2018/11/13 18:37:43","新北市土城區明德路一段291巷11弄20號","121.460903333333","24.9760283333333","6501300","土城區"
"236021","401-BY","2018/11/13 18:37:55","新北市土城區延吉街262號","121.466043333333","24.984535","6501300","土城區"
"236059","912-UM","2018/11/13 18:37:56","新北市土城區中央路三段249巷1號","121.427911666667","24.964065","6501300","土城區"
"236049","913-UM","2018/11/13 18:37:54","新北市土城區明德路一段69巷5號","121.465466666667","24.9837933333333","6501300","土城區"
"236063","915-UM","2018/11/13 18:38:01","新北市土城區延壽路13巷19號","121.469906666667","24.99129","6501300","土城區"
"236055","AAC-216","2018/11/13 18:37:42","新北市土城區中華路一段23號","121.446865","24.9891066666667","6501300","土城區"
"242058","986-R7","2018/11/13 18:37:46","新北市新莊區中正路889-8號","121.415133333333","25.023655","6500500","新莊區"
"242025","613-BX","2018/11/13 18:37:50","新北市新莊區中原路662號","121.442258333333","25.0543616666667","6500500","新莊區"
"242054","441-UM","2018/11/13 18:37:58","新北市樹林區八德街395號","121.415436666667","24.9713716666667","6500500","新莊區"
"242061","353-BY","2018/11/13 18:37:42","新北市新莊區四維路97巷22號","121.424218333333","25.023295","6500500","新莊區"
"242011","132-UY","2018/11/13 18:37:58","新北市泰山區磚雅厝3號","121.442165","25.04172","6500500","新莊區"
"242013","173-VK","2018/11/13 18:37:50","新北市樹林區中山路三段210-2號","121.380585","24.9676483333333","6500500","新莊區"
"238023","601-UM","2018/11/13 18:37:48","新北市樹林區三福街114號","121.406558333333","25.016295","6500700","樹林區"
"238019","599-UM","2018/11/13 18:37:53","新北市樹林區中華路190-16號","121.411778333333","24.980615","6500700","樹林區"
"238018","571-TV","2018/11/13 18:37:38","新北市樹林區樹新路90號","121.429421666667","24.9975316666667","6500700","樹林區"
"238024","5061-A6","2018/11/13 18:37:58","新北市樹林區中山路二段162號","121.412","24.98288","6500700","樹林區"
"238025","303-VK","2018/11/13 18:37:51","新北市樹林區中山路三段22號","121.395581666667","24.9729233333333","6500700","樹林區"
"238017","283-BY","2018/11/13 18:37:50","新北市樹林區光興街83-3號","121.409881666667","25.0026666666667","6500700","樹林區"
"238014","282-BY","2018/11/13 18:37:42","新北市樹林區大安路111巷25號","121.423213333333","24.9976516666667","6500700","樹林區"
"238026","172-UY","2018/11/13 18:37:53","新北市樹林區八德街1132號","121.39129","24.9694233333333","6500700","樹林區"
"238016","169-UY","2018/11/13 18:37:46","新北市樹林區中山路二段10號","121.417618333333","24.9850833333333","6500700","樹林區"
"239007","AAC-297","2018/11/13 18:37:38","新北市鶯歌區中正一路建德巷26號","121.364801666667","24.957455","6500800","鶯歌區"
"239006","891-R6","2018/11/13 18:37:51","新北市鶯歌區鶯桃路296巷53號","121.335875","24.9613","6500800","鶯歌區"
"239008","527-UM","2018/11/13 18:38:00","新北市鶯歌區國際一路179號","121.336236666667","24.976525","6500800","鶯歌區"
"239005","526-UM","2018/11/13 18:37:42","新北市鶯歌區鳳吉一街78號","121.326721666667","24.9745116666667","6500800","鶯歌區"
"239001","417-VK","2018/11/13 18:37:41","新北市鶯歌區中正三路193巷31號","121.336325","24.9386116666667","6500800","鶯歌區"
"239003","360-BY","2018/11/13 18:37:43","新北市鶯歌區鶯桃路548號","121.331043333333","24.9673666666667","6500800","鶯歌區"
"239002","359-BY","2018/11/13 18:37:56","新北市鶯歌區中山路227號","121.346296666667","24.95698","6500800","鶯歌區"
"239004","193-VK","2018/11/13 18:38:00","新北市鶯歌區中正三路247巷67弄6號","121.334096666667","24.9362516666667","6500800","鶯歌區"
"221008","489-VK","2018/11/13 18:37:47","新北市汐止區康寧街901號","121.651418333333","25.0750666666667","6501100","汐止區"
"221036","130-UY","2018/11/13 18:37:41","新北市汐止區忠孝東路327號","121.66496","25.0695516666667","6501100","汐止區"
"221015","131-UY","2018/11/13 18:37:56","新北市汐止區鄉長路一段55巷2號","121.665826666667","25.0762283333333","6501100","汐止區"
"221010","269-BY","2018/11/13 18:37:54","新北市汐止區汐萬路三段197號","121.642398333333","25.0967916666667","6501100","汐止區"
"221012","278-VK","2018/11/13 18:37:52","新北市汐止區鄉長路二段18巷1號","121.668431666667","25.08192","6501100","汐止區"
"221032","280-BY","2018/11/13 18:37:54","新北市汐止區民權街二段93號","121.619015","25.0474866666667","6501100","汐止區"
"221027","281-BY","2018/11/13 18:37:53","新北市汐止區汐萬路一段124號","121.65369","25.0712183333333","6501100","汐止區"
"221029","298-VK","2018/11/13 18:37:47","新北市汐止區樟樹一路150號","121.6423","25.0651166666667","6501100","汐止區"
"221021","299-VK","2018/11/13 18:37:42","新北市汐止區新興路48號","121.657126666667","25.0631033333333","6501100","汐止區"
"221031","353-TW","2018/11/13 18:37:48","新北市汐止區福德一路274號","121.632156666667","25.0639033333333","6501100","汐止區"
"221035","622-UM","2018/11/13 18:38:01","新北市汐止區大同路二段240號","121.653951666667","25.0655666666667","6501100","汐止區"
"221025","623-UM","2018/11/13 18:37:44","新北市汐止區仁愛路119巷15號","121.6623","25.064105","6501100","汐止區"
"221038","646-BX","2018/11/13 18:37:39","新北市汐止區汐萬路一段312號","121.650625","25.075355","6501100","汐止區"
"221002","707-TV","2018/11/13 18:37:59","新北市汐止區中興路6號","121.637375","25.0590466666667","6501100","汐止區"
"221018","753-BX","2018/11/13 18:37:47","新北市汐止區茄苳路255號","121.671888333333","25.06822","6501100","汐止區"
"220079","145-BY","2018/11/13 18:37:45","新北市板橋區大觀路二段117號","121.446203333333","25.001295","6500100","板橋區"
"220080","200-UY","2018/11/13 18:37:46","新北市板橋區大觀路2段435-7號","121.447313333333","24.995925","6500100","板橋區"
"220082","610-BX","2018/11/13 18:37:48","新北市板橋區大觀路二段443-2號","121.44021","24.9950383333333","6500100","板橋區"
"220056","276-BY","2018/11/13 18:37:55","新北市板橋區華東街1-10號","121.448681666667","24.994775","6500100","板橋區"
"220072","277-BY","2018/11/13 18:37:49","新北市板橋區大觀路二段435-5號","121.446611666667","24.9953433333333","6500100","板橋區"
"220064","282-UM","2018/11/13 18:37:53","新北市板橋區縣民大道二段1號","121.462281666667","25.0116316666667","6500100","板橋區"
"220094","283-UM","2018/11/13 18:37:51","新北市板橋區民生路二段161巷5號","121.470195","25.0197233333333","6500100","板橋區"
"220071","283-VK","2018/11/13 18:37:57","新北市板橋區四川路二段14號","121.456076666667","24.996145","6500100","板橋區"
"220083","286-VK","2018/11/13 18:37:49","新北市板橋區大觀路二段153巷46弄1號","121.448695","24.9985933333333","6500100","板橋區"
"220081","287-VK","2018/11/13 18:37:58","新北市板橋區合安一路81號","121.448073333333","24.9988333333333","6500100","板橋區"
"220084","296-UM","2018/11/13 18:37:40","新北市板橋區板城路421號","121.448076666667","24.9956183333333","6500100","板橋區"
"220075","303-R5","2018/11/13 18:37:46","新北市板橋區南雅南路二段120-16號","121.451966666667","24.9991866666667","6500100","板橋區"
"220062","305-R5","2018/11/13 18:37:42","新北市板橋區民生路二段120號","121.470451666667","25.01963","6500100","板橋區"
"242046","280-VK","2018/11/13 18:37:43","新北市新莊區富國路77巷17號","121.420336666667","25.0264483333333","6500500","新莊區"
"220035","560-BX","2018/11/13 18:37:45","新北市板橋區南雅西路二段145巷10號","121.451565","25.0120683333333","6500100","板橋區"
"220103","561-BX","2018/11/13 18:37:54","新北市板橋區民生路二段161巷9號","121.470285","25.0196116666667","6500100","板橋區"
"220063","609-BX","2018/11/13 18:37:39","新北市板橋區民生路二段171號","121.469886666667","25.0201866666667","6500100","板橋區"
"220057","686-BX","2018/11/13 18:37:55","新北市板橋區華東街1-9號","121.448221666667","24.99486","6500100","板橋區"
"220077","687-BX","2018/11/13 18:37:51","新北市板橋區大觀路二段443-2號","121.441016666667","24.995365","6500100","板橋區"
"220054","741-BX","2018/11/13 18:37:45","新北市板橋區華東街1-9號","121.448125","24.9949016666667","6500100","板橋區"
"220074","895-R6","2018/11/13 18:37:41","新北市板橋區南雅南路二段140號","121.451848333333","24.9962116666667","6500100","板橋區"
"220073","985-R7","2018/11/13 18:37:43","新北市板橋區南雅南路二段114號","121.453326666667","25.000525","6500100","板橋區"
"220070","AAC-253","2018/11/13 18:37:46","新北市板橋區華東街1-9號","121.44828","24.9948666666667","6500100","板橋區"
"235068","KEA-2873","2018/11/13 18:37:49","新北市中和區板南路202號","121.49922","24.9931","6500300","中和區"
"235061","KEA-2875","2018/11/13 18:37:43","新北市中和區民享街95-2號","121.474856666667","25.0002183333333","6500300","中和區"
