"lineid","car","time","location","longitude","latitude","cityid","cityname"
"234081","298-R6","2018/11/13 20:19:29","新北市永和區國中路104巷13弄2號","121.52474","25.0071883333333","6500400","永和區"
"234038","336-UY","2018/11/13 20:19:18","新北市永和區成功路一段81號","121.526885","25.003065","6500400","永和區"
"234064","337-UY","2018/11/13 20:19:32","新北市永和區中正路338號","121.517793333333","25.0000816666667","6500400","永和區"
"234086","338-UY","2018/11/13 20:19:29","新北市永和區永和路二段170號","121.51541","25.0132666666667","6500400","永和區"
"234070","552-UM","2018/11/13 20:19:16","新北市永和區福和路263巷11號","121.51799","25.0067983333333","6500400","永和區"
"234017","745-BX","2018/11/13 20:19:18","新北市永和區仁愛路46號","121.514135","25.01338","6500400","永和區"
"234030","746-BX","2018/11/13 20:19:22","新北市永和區民有街69號","121.517916666667","24.99573","6500400","永和區"
"234054","KEA-2590","2018/11/13 20:19:17","新北市永和區光復街2巷24號","121.517566666667","25.0164933333333","6500400","永和區"
"234013","KEA-2591","2018/11/13 20:19:33","新北市永和區仁愛路295號","121.505095","25.0091466666667","6500400","永和區"
"234061","AAD-866","2018/11/13 20:19:14","新北市永和區得和路45巷2號","121.516578333333","25.00015","6500400","永和區"
"234042","862-TW","2018/11/13 20:19:28","新北市永和區雙和街22號","121.508985","25.002275","6500400","永和區"
"234050","863-TW","2018/11/13 20:19:19","新北市永和區環河西路二段63號","121.507008333333","25.0152816666667","6500400","永和區"
"234011","9372-KE","2018/11/13 20:19:23","新北市永和區中正路662巷12號","121.517653333333","25.0088066666667","6500400","永和區"
"249001","173-UM","2018/11/13 20:19:23","新北市八里區中華路二段341-10號","121.399113333333","25.1450083333333","6502300","八里區"
"249004","303-UY","2018/11/13 20:19:28","新北市八里區中山路一段129巷27號","121.413983333333","25.1585916666667","6502300","八里區"
"249002","305-UY","2018/11/13 20:19:25","新北市八里區龍米路一段470號","121.450035","25.1357333333333","6502300","八里區"
"249003","593-UM","2018/11/13 20:19:28","新北市八里區訊塘路35號","121.397651666667","25.1458033333333","6502300","八里區"
"248014","261-SL","2018/11/13 20:19:28","新北市八里區荖阡坑路22-5號","121.398811666667","25.13489","6501500","五股區"
"248002","678-BX","2018/11/13 20:19:26","新北市五股區成泰路三段165號","121.445193333333","25.0918883333333","6501500","五股區"
"234077","969-R7","2018/11/13 20:19:26","新北市永和區中正路39-1號","121.51435","24.9959016666667","6500400","永和區"
"234074","AAC-211","2018/11/13 20:19:24","新北市永和區豫溪街160巷2號","121.52323","25.0095283333333","6500400","永和區"
"234067","AAC-212","2018/11/13 20:19:20","新北市永和區保平路268巷14號","121.50795","25.006005","6500400","永和區"
"234003","AAC-295","2018/11/13 20:19:14","新北市永和區自強街4號","121.514283333333","25.007975","6500400","永和區"
"244018","403-UM","2018/11/13 20:19:21","新北市林口區粉寮69號","121.405","25.0908266666667","6501700","林口區"
"243013","AAD-798","2018/11/13 20:19:17","新北市泰山區新民路36號","121.427088333333","25.044405","6501600","泰山區"
"243009","297-R6","2018/11/13 20:19:13","新北市泰山區福泰街45號","121.433373333333","25.0599616666667","6501600","泰山區"
"243016","KEA-2801","2018/11/13 20:19:13","新北市泰山區明志路二段383號","121.424988333333","25.04373","6501600","泰山區"
"243015","421-VK","2018/11/13 20:19:27","新北市泰山區同義街55號","121.43195","25.0558916666667","6501600","泰山區"
"243011","KEA-2215","2018/11/13 20:19:17","新北市泰山區壽山路134巷18號","121.418266666667","25.031135","6501600","泰山區"
"243010","KEA-2216","2018/11/13 20:19:26","新北市泰山區明志路二段273巷12號","121.427326666667","25.0471816666667","6501600","泰山區"
"243012","646-TV","2018/11/13 20:19:28","新北市泰山區楓江路119號","121.439041666667","25.0644983333333","6501600","泰山區"
"243014","680-BX","2018/11/13 20:19:23","新北市泰山區泰林路二段455號","121.42567","25.0640916666667","6501600","泰山區"
"222003","436-BY","2018/11/13 20:19:30","新北市深坑區文化街86號","121.617626666667","25.00194","6501800","深坑區"
"222002","659-BX","2018/11/13 20:19:20","新北市深坑區萬福路57號","121.60045","25.0074683333333","6501800","深坑區"
"231041","002-UM","2018/11/13 20:19:27","新北市新店區民權路83號","121.538246666667","24.982885","6500600","新店區"
"231066","0291-UT","2018/11/13 20:19:25","新北市新店區薏仁坑路2-1號","121.50086","24.9580416666667","6500600","新店區"
"231059","046-UY","2018/11/13 20:19:11","新北市新店區安德街62號","121.510601666667","24.9621633333333","6500600","新店區"
"231040","047-UY","2018/11/13 20:19:18","新北市新店區中正路191號","121.540575","24.9723766666667","6500600","新店區"
"231044","106-UY","2018/11/13 20:19:26","新北市新店區北新路三段126號","121.541603333333","24.981735","6500600","新店區"
"231053","108-UY","2018/11/13 20:19:26","新北市新店區松林路6-6號","121.546721666667","24.9111183333333","6500600","新店區"
"231062","110-UY","2018/11/13 20:19:19","新北市新店區安康路二段318-1號","121.505076666667","24.9580616666667","6500600","新店區"
"231048","187-VK","2018/11/13 20:19:26","新北市新店區寶橋路80號","121.546145","24.9755266666667","6500600","新店區"
"231068","189-VK","2018/11/13 20:19:21","新北市新店區寶安街30號","121.541995","24.9823433333333","6500600","新店區"
"231054","KEA-2219","2018/11/13 20:19:32","新北市新店區檳榔路105號","121.544626666667","24.9615933333333","6500600","新店區"
"231057","256-BX","2018/11/13 20:19:23","新北市新店區花園七路一段16巷1號","121.553806666667","24.9348683333333","6500600","新店區"
"231042","268-BY","2018/11/13 20:19:27","新北市新店區中興路二段190號","121.548365","24.97319","6500600","新店區"
"231051","278-BY","2018/11/13 20:19:25","新北市新店區中央六街84號","121.52667","24.976575","6500600","新店區"
"231050","AAD-862","2018/11/13 20:19:21","新北市新店區博愛街8巷2號","121.541173333333","24.9734183333333","6500600","新店區"
"231056","4715-K9","2018/11/13 20:19:26","新北市新店區建安街33巷8號","121.538471666667","24.9756516666667","6500600","新店區"
"231065","512-UM","2018/11/13 20:19:16","新北市新店區安祥路104巷6弄36號","121.48308","24.9629733333333","6500600","新店區"
"231049","513-UM","2018/11/13 20:19:19","新北市新店區北新路二段59巷11號","121.542505","24.9734883333333","6500600","新店區"
"231063","616-UM","2018/11/13 20:19:14","新北市新店區柴埕路116號","121.504541666667","24.9596066666667","6500600","新店區"
"231045","618-UM","2018/11/13 20:19:28","新北市新店區新坡一街72號","121.548916666667","24.964555","6500600","新店區"
"231061","619-UM","2018/11/13 20:19:18","新北市新店區安興路33-1號","121.515836666667","24.9704233333333","6500600","新店區"
"231064","719-UM","2018/11/13 20:19:27","新北市新店區安業街33號","121.517703333333","24.977045","6500600","新店區"
"231060","897-TW","2018/11/13 20:19:12","新北市新店區錦秀路11巷66號","121.480668333333","24.94354","6500600","新店區"
"231043","899-TW","2018/11/13 20:19:17","新北市新店區建國路131號","121.539371666667","24.97817","6500600","新店區"
"231055","AKT-0513","2018/11/13 20:19:21","新北市新店區北新路一段309號","121.541448333333","24.9678816666667","6500600","新店區"
"241011","013-R5","2018/11/13 20:19:31","新北市三重區龍門路194號","121.499576666667","25.07337","6500200","三重區"
"241028","022-UY","2018/11/13 20:19:27","新北市三重區大同南路143-2號","121.496671666667","25.05737","6500200","三重區"
"241008","059-VK","2018/11/13 20:19:14","新北市三重區永福街144號","121.480168333333","25.0745883333333","6500200","三重區"
"241031","061-VK","2018/11/13 20:19:27","新北市三重區三寧街15號","121.48942","25.059755","6500200","三重區"
"241015","062-VK","2018/11/13 20:19:32","新北市三重區重新路一段128號","121.500205","25.0629583333333","6500200","三重區"
"241017","063-VK","2018/11/13 20:19:20","新北市三重區自強路一段157號","121.493381666667","25.0671433333333","6500200","三重區"
"241026","066-VK","2018/11/13 20:19:12","新北市三重區福德南路7號","121.50267","25.0633783333333","6500200","三重區"
"241002","090-VK","2018/11/13 20:19:27","新北市三重區仁義街101巷2號","121.497885","25.0800366666667","6500200","三重區"
"241003","091-VK","2018/11/13 20:19:27","新北市三重區五華街136-1號","121.491443333333","25.083715","6500200","三重區"
"251014","742-BX","2018/11/13 20:19:17","新北市淡水區石頭厝1號","121.458733333333","25.2354966666667","6501000","淡水區"
"241005","262-UM","2018/11/13 20:19:11","新北市三重區仁愛街508號","121.488043333333","25.0820283333333","6500200","三重區"
"241007","265-UM","2018/11/13 20:19:20","新北市三重區溪尾街108巷61號","121.487398333333","25.07824","6500200","三重區"
"241016","266-UM","2018/11/13 20:19:22","新北市三重區大同北路97-2號","121.49448","25.06355","6500200","三重區"
"241009","267-UM","2018/11/13 20:19:18","新北市三重區三和路四段382巷35號","121.481488333333","25.0786183333333","6500200","三重區"
"241018","268-UM","2018/11/13 20:19:15","新北市三重區自強路一段155-1號","121.493768333333","25.06726","6500200","三重區"
"241032","269-UM","2018/11/13 20:19:20","新北市三重區捷運路19巷6弄21號","121.484288333333","25.056895","6500200","三重區"
"241013","270-UM","2018/11/13 20:19:13","新北市三重區三和路三段167巷46號","121.493463333333","25.0745816666667","6500200","三重區"
"241025","271-UM","2018/11/13 20:19:09","新北市三重區三民街272巷6-1號","121.478838333333","25.06784","6500200","三重區"
"241035","KEA-2210","2018/11/13 20:19:20","新北市三重區正義北路33巷15號","121.498123333333","25.0637466666667","6500200","三重區"
"241024","462-BY","2018/11/13 20:19:21","新北市三重區中正北路262號","121.481271666667","25.06829","6500200","三重區"
"241004","475-VK","2018/11/13 20:19:30","新北市三重區自強路四段112號","121.491648333333","25.0799866666667","6500200","三重區"
"241020","478-VK","2018/11/13 20:19:14","新北市三重區三和路三段170巷13號","121.492138333333","25.07296","6500200","三重區"
"241014","543-UM","2018/11/13 20:19:16","新北市三重區龍門路248號","121.500928333333","25.0737833333333","6500200","三重區"
"241023","545-UM","2018/11/13 20:19:25","新北市三重區忠孝路三段84巷5號","121.480185","25.06436","6500200","三重區"
"241001","547-UM","2018/11/13 20:19:27","新北市三重區自強路四段31巷11號","121.489803333333","25.0767716666667","6500200","三重區"
"241019","KEA-2593","2018/11/13 20:19:30","新北市三重區忠孝路一段62號","121.490433333333","25.0720066666667","6500200","三重區"
"241006","AAD-863","2018/11/13 20:19:18","新北市三重區車路頭街135-1號","121.484248333333","25.0761816666667","6500200","三重區"
"241030","743-BX","2018/11/13 20:19:15","新北市三重區環河南路254巷53號","121.487966666667","25.052245","6500200","三重區"
"241012","941-UM","2018/11/13 20:19:31","新北市三重區河邊北街266號","121.501648333333","25.07647","6500200","三重區"
"241029","942-UM","2018/11/13 20:19:11","新北市三重區中正南路129巷22號","121.493216666667","25.0567533333333","6500200","三重區"
"241033","AAC-255","2018/11/13 20:19:11","新北市三重區五谷王北街77號","121.47575","25.05001","6500200","三重區"
"235066","003-UY","2018/11/13 20:19:33","新北市中和區保平路326巷1號","121.507078333333","25.0042933333333","6500300","中和區"
"235039","097-UM","2018/11/13 20:19:29","新北市中和區大勇街29巷12-1號","121.515913333333","24.9945333333333","6500300","中和區"
"235065","098-UM","2018/11/13 20:19:20","新北市中和區永和路69-6號","121.49649","25.0060716666667","6500300","中和區"
"235040","150-BY","2018/11/13 20:19:19","新北市中和區保健路27-2號","121.508483333333","24.9978633333333","6500300","中和區"
"247012","KEA-2869","2018/11/13 20:19:27","新北市蘆洲區中興街27號","121.480986666667","25.0870633333333","6501400","蘆洲區"
"235050","4979-A6","2018/11/13 20:19:14","新北市中和區景平路239巷33弄5號","121.50958","24.9919116666667","6500300","中和區"
"235059","AAC-215","2018/11/13 20:19:20","新北市中和區圓通路435-6號","121.485766666667","24.987145","6500300","中和區"
"247002","893-R6","2018/11/13 20:19:22","新北市蘆洲區長安街313巷6弄11號","121.456765","25.08655","6501400","蘆洲區"
"247016","546-UM","2018/11/13 20:19:30","新北市蘆洲區中正路185巷45弄1號","121.465898333333","25.08379","6501400","蘆洲區"
"247024","500-BY","2018/11/13 20:19:19","新北市蘆洲區光明路112巷29弄13號","121.464168333333","25.087695","6501400","蘆洲區"
"247006","337-TH","2018/11/13 20:19:23","新北市蘆洲區九芎街153巷4號","121.4652","25.0789616666667","6501400","蘆洲區"
"247020","057-VK","2018/11/13 20:19:29","新北市蘆洲區仁愛街57號","121.471951666667","25.093255","6501400","蘆洲區"
"247010","056-VK","2018/11/13 20:19:23","新北市蘆洲區信義路204號","121.47899","25.0848066666667","6501400","蘆洲區"
"247008","053-VK","2018/11/13 20:19:14","新北市蘆洲區集賢路240號","121.481828333333","25.0855883333333","6501400","蘆洲區"
"247004","002-UY","2018/11/13 20:19:19","新北市蘆洲區長安街297號","121.458033333333","25.084895","6501400","蘆洲區"
"247022","001-UY","2018/11/13 20:19:20","新北市蘆洲區民族路451號","121.467413333333","25.088735","6501400","蘆洲區"
"222001","KEA-2212","2018/11/13 20:19:15","新北市深坑區北深路三段223號","121.600166666667","25.00403","6501800","深坑區"
"251013","KEA-2871","2018/11/13 20:19:18","新北市淡水區相公山1-3號","121.474188333333","25.2066516666667","6501000","淡水區"
"251016","179-VK","2018/11/13 20:19:31","新北市淡水區淡金路五段20號","121.453446666667","25.23245","6501000","淡水區"
"251008","180-VK","2018/11/13 20:19:29","新北市淡水區淡海路180巷13號","121.421115","25.1846466666667","6501000","淡水區"
"251015","182-VK","2018/11/13 20:19:13","新北市淡水區淡金路三段70巷1號","121.448333333333","25.2008116666667","6501000","淡水區"
"251010","413-VK","2018/11/13 20:19:27","新北市淡水區新民街一段132號","121.427933333333","25.1887916666667","6501000","淡水區"
"251012","441-VK","2018/11/13 20:19:18","新北市淡水區下圭柔山431-1號","121.450053333333","25.2105483333333","6501000","淡水區"
"251004","443-VK","2018/11/13 20:19:15","新北市淡水區民族路150號","121.462765","25.1340666666667","6501000","淡水區"
"251001","559-UM","2018/11/13 20:19:15","新北市淡水區淡金路二段15號","121.446136666667","25.189175","6501000","淡水區"
"251006","561-UM","2018/11/13 20:19:28","新北市淡水區北新路222號","121.452121666667","25.18023","6501000","淡水區"
"251009","575-R6","2018/11/13 20:19:18","新北市淡水區中正路38-1號","121.443723333333","25.16927","6501000","淡水區"
"251002","672-BX","2018/11/13 20:19:24","新北市淡水區中正路129號","121.439386666667","25.1703716666667","6501000","淡水區"
"251003","673-BX","2018/11/13 20:19:27","新北市淡水區中山北路一段229號","121.444446666667","25.179445","6501000","淡水區"
"207004","225-TW","2018/11/13 20:19:27","新北市萬里區北基里大仁路1號","121.68175","25.1751666666667","6502800","萬里區"
"252002","178-VK","2018/11/13 20:19:25","新北市三芝區中正路一段47號","121.503325","25.2581783333333","6502100","三芝區"
"252001","292-VK","2018/11/13 20:19:21","新北市三芝區中山路一段14號","121.500698333333","25.2580433333333","6502100","三芝區"
"237016","649-BX","2018/11/13 20:19:28","新北市三峽區介壽路二段138巷45號","121.395376666667","24.93336","6500900","三峽區"
"236070","105-UM","2018/11/13 20:19:23","新北市土城區三民路3號","121.420605","24.963095","6501300","土城區"
"236030","253-BX","2018/11/13 20:19:25","新北市土城區學成路128巷11號","121.449536666667","24.99008","6501300","土城區"
"236026","269-VK","2018/11/13 20:19:24","新北市土城區中央路一段249巷12號","121.445891666667","24.985545","6501300","土城區"
"236014","270-VK","2018/11/13 20:19:28","新北市土城區廣明街90巷23號","121.455438333333","24.9945883333333","6501300","土城區"
"236059","912-UM","2018/11/13 20:19:16","新北市土城區大安路101-5號","121.433466666667","24.9687016666667","6501300","土城區"
"242037","AAC-296","2018/11/13 20:19:30","新北市新莊區後港一路56巷24弄7號","121.42636","25.02509","6500500","新莊區"
"242058","986-R7","2018/11/13 20:19:26","新北市新莊區四維路205-2號","121.421775","25.0202966666667","6500500","新莊區"
"242027","615-BX","2018/11/13 20:19:25","新北市新莊區幸福路556號","121.454741666667","25.049355","6500500","新莊區"
"242025","613-BX","2018/11/13 20:19:27","新北市新莊區五工一路80巷1號","121.461951666667","25.06724","6500500","新莊區"
"242029","612-BX","2018/11/13 20:19:22","新北市新莊區中華路二段151號","121.452896666667","25.0514666666667","6500500","新莊區"
"242044","566-BX","2018/11/13 20:19:23","新北市新莊區中正路新建巷28弄20號","121.413591666667","25.0213966666667","6500500","新莊區"
"242048","497-BY","2018/11/13 20:19:26","新北市新莊區龍安路252號","121.421088333333","25.0196183333333","6500500","新莊區"
"242056","442-UM","2018/11/13 20:19:26","新北市新莊區新莊路713巷5弄15號","121.444265","25.0320666666667","6500500","新莊區"
"242054","441-UM","2018/11/13 20:19:18","新北市新莊區民安西路261巷18號","121.426766666667","25.01304","6500500","新莊區"
"242039","415-TV","2018/11/13 20:19:29","新北市新莊區成功街83巷8號","121.42454","25.019185","6500500","新莊區"
"242009","413-TV","2018/11/13 20:19:26","新北市新莊區昌平街1號","121.45481","25.051375","6500500","新莊區"
"242023","362-BY","2018/11/13 20:19:30","新北市新莊區化成路830號","121.46495","25.06014","6500500","新莊區"
"242061","353-BY","2018/11/13 20:19:25","新北市新莊區新樹路172號","121.43464","25.0217483333333","6500500","新莊區"
"242011","132-UY","2018/11/13 20:19:32","新北市新莊區幸福路670巷14弄1號","121.451023333333","25.050425","6500500","新莊區"
"242042","133-UY","2018/11/13 20:19:14","新北市新莊區天祥街88號","121.415358333333","25.0294766666667","6500500","新莊區"
"242034","135-UY","2018/11/13 20:19:13","新北市新莊區建中街90巷16號","121.446836666667","25.037805","6500500","新莊區"
"242051","172-VK","2018/11/13 20:19:25","新北市新莊區民安西路252巷31號","121.42508","25.013845","6500500","新莊區"
"242013","173-VK","2018/11/13 20:19:30","新北市新莊區中平路270巷7弄33號","121.446155","25.05095","6500500","新莊區"
"242019","175-VK","2018/11/13 20:19:22","新北市新莊區復興路二段196巷2弄1號","121.459351666667","25.0440233333333","6500500","新莊區"
"242007","176-VK","2018/11/13 20:19:13","新北市新莊區福壽街124巷34弄1號","121.459313333333","25.0512183333333","6500500","新莊區"
"242017","346-TH","2018/11/13 20:19:17","新北市新莊區中港一街139號","121.448066666667","25.04507","6500500","新莊區"
"242032","348-TH","2018/11/13 20:19:29","新北市新莊區義豐街11號","121.441025","25.0347716666667","6500500","新莊區"
"242005","349-TH","2018/11/13 20:19:17","新北市新莊區頭前路15巷9號","121.467886666667","25.0516716666667","6500500","新莊區"
"242021","350-TH","2018/11/13 20:19:15","新北市新莊區和興街19號","121.447361666667","25.0394066666667","6500500","新莊區"
"242015","351-TH","2018/11/13 20:19:32","新北市新莊區中和街42號","121.448168333333","25.0441233333333","6500500","新莊區"
"238024","5061-A6","2018/11/13 20:01:39","新北市樹林區育德街78-1號","121.387873333333","24.9681733333333","6500700","樹林區"
"238016","169-UY","2018/11/13 20:01:19","新北市樹林區中山路三段204號","121.386811666667","24.968305","6500700","樹林區"
"221008","489-VK","2018/11/13 20:19:27","新北市汐止區康寧街301號","121.627073333333","25.067405","6501100","汐止區"
"221036","130-UY","2018/11/13 20:19:21","新北市汐止區福安街57巷1號","121.663896666667","25.06386","6501100","汐止區"
"221015","131-UY","2018/11/13 20:19:19","新北市汐止區建成路160巷16號","121.661915","25.074015","6501100","汐止區"
"221010","269-BY","2018/11/13 20:19:14","新北市汐止區八連路二段337巷3號","121.629788333333","25.10093","6501100","汐止區"
"221012","278-VK","2018/11/13 20:19:12","新北市汐止區保新街283號","121.692773333333","25.0682983333333","6501100","汐止區"
"221032","280-BY","2018/11/13 20:19:14","新北市汐止區民權街二段47號","121.619515","25.0491366666667","6501100","汐止區"
"221027","281-BY","2018/11/13 20:19:13","新北市汐止區大同路二段403號","121.658085","25.0672416666667","6501100","汐止區"
"221029","298-VK","2018/11/13 20:19:27","新北市汐止區樟樹一路99巷14號","121.641085","25.0637166666667","6501100","汐止區"
"221021","299-VK","2018/11/13 20:19:22","新北市汐止區水源路一段286號","121.654296666667","25.058185","6501100","汐止區"
"221031","353-TW","2018/11/13 20:19:28","新北市汐止區中興路150巷8號","121.63302","25.064935","6501100","汐止區"
"221035","622-UM","2018/11/13 20:19:21","新北市汐止區長江街101-5號","121.658706666667","25.0731633333333","6501100","汐止區"
"221025","623-UM","2018/11/13 20:19:24","新北市汐止區水源路二段34號","121.654958333333","25.0572333333333","6501100","汐止區"
"221038","646-BX","2018/11/13 20:19:19","新北市汐止區忠孝東路438號","121.66615","25.0724033333333","6501100","汐止區"
"221033","647-BX","2018/11/13 20:19:18","新北市汐止區東勢街215巷3弄3號","121.634185","25.0429016666667","6501100","汐止區"
"221002","707-TV","2018/11/13 20:19:19","新北市汐止區福德三路26號","121.636858333333","25.0694183333333","6501100","汐止區"
"221018","753-BX","2018/11/13 20:19:27","新北市汐止區茄安路35號","121.67335","25.0681","6501100","汐止區"
"220080","200-UY","2018/11/13 20:19:26","新北市板橋區大觀路一段31號","121.449923333333","25.00845","6500100","板橋區"
"220091","267-BY","2018/11/13 20:18:10","新北市五股區中直路13-7號","121.424383333333","25.1106333333333","6500100","板橋區"
"220101","280-UM","2018/11/13 20:19:26","新北市板橋區萬板路478號","121.480031666667","25.0259783333333","6500100","板橋區"
"220083","286-VK","2018/11/13 20:19:29","新北市板橋區僑中二街92巷2號","121.446193333333","25.00895","6500100","板橋區"
"220081","287-VK","2018/11/13 20:19:18","新北市板橋區僑中一街80巷1弄6號","121.447291666667","25.01197","6500100","板橋區"
"220061","295-UM","2018/11/13 20:19:13","新北市板橋區中山路一段7號","121.460001666667","25.0080916666667","6500100","板橋區"
"242002","281-VK","2018/11/13 20:19:32","新北市新莊區化成路13號","121.46501","25.0433533333333","6500500","新莊區"
"220092","307-R5","2018/11/13 20:19:16","新北市板橋區大觀路二段91號","121.446303333333","25.0019516666667","6500100","板橋區"
"220089","487-VK","2018/11/13 20:19:32","新北市板橋區四維路137巷23號","121.464001666667","25.0247833333333","6500100","板橋區"
"242046","280-VK","2018/11/13 20:19:30","新北市新莊區中正路新生巷17號","121.416811666667","25.02388","6500500","新莊區"
"220103","561-BX","2018/11/13 20:19:14","新北市板橋區陽明街243號","121.462991666667","25.0246983333333","6500100","板橋區"
"220054","741-BX","2018/11/13 20:19:25","新北市板橋區四川路一段102號","121.459716666667","25.0047766666667","6500100","板橋區"
"220102","KEA-2699","2018/11/13 20:19:22","新北市板橋區文化路一段241號","121.464203333333","25.0178066666667","6500100","板橋區"
"220055","827-TW","2018/11/13 20:19:14","新北市板橋區仁愛路35號","121.459108333333","24.9994533333333","6500100","板橋區"
"220097","AAC-210","2018/11/13 20:19:18","新北市板橋區公館街25號","121.461006666667","25.0150766666667","6500100","板橋區"
"220070","AAC-253","2018/11/13 20:19:26","新北市板橋區四川路二段245巷38弄2號","121.451436666667","24.9925716666667","6500100","板橋區"
"235068","KEA-2873","2018/11/13 20:19:18","新北市中和區勝利路35巷1弄36號","121.500358333333","25.0078583333333","6500300","中和區"
