"lineid","car","time","location","longitude","latitude","cityid","cityname"
"234081","298-R6","2018/11/13 20:39:30","新北市永和區永貞路78號","121.520223333333","25.005065","6500400","永和區"
"234042","862-TW","2018/11/13 20:39:20","新北市永和區安樂路348號","121.514471666667","25.0064316666667","6500400","永和區"
"234050","863-TW","2018/11/13 20:39:19","新北市永和區環河西路二段91號","121.506595","25.0148533333333","6500400","永和區"
"234011","9372-KE","2018/11/13 20:39:23","新北市永和區博愛街31巷6號","121.518355","25.016065","6500400","永和區"
"249001","173-UM","2018/11/13 20:39:23","新北市八里區中山路三段382號","121.368648333333","25.1358816666667","6502300","八里區"
"249004","303-UY","2018/11/13 20:39:28","新北市八里區中山路一段190號","121.41605","25.1592516666667","6502300","八里區"
"249002","305-UY","2018/11/13 20:39:25","新北市八里區中山路一段1號","121.423138333333","25.1587566666667","6502300","八里區"
"249003","593-UM","2018/11/13 20:39:28","新北市八里區中山路三段409號","121.368705","25.1356516666667","6502300","八里區"
"248014","261-SL","2018/11/13 20:39:27","新北市八里區下罟子8-28號","121.384065","25.1410183333333","6501500","五股區"
"234074","AAC-211","2018/11/13 20:39:24","新北市永和區竹林路121號","121.52004","25.0114283333333","6500400","永和區"
"244018","403-UM","2018/11/13 20:39:21","新北市林口區粉寮69號","121.405025","25.0908516666667","6501700","林口區"
"243011","KEA-2215","2018/11/13 20:39:17","新北市泰山區公園路4號","121.429923333333","25.0539983333333","6501600","泰山區"
"222003","436-BY","2018/11/13 20:39:30","新北市深坑區文山路二段30巷31號","121.615545","24.9986883333333","6501800","深坑區"
"222002","659-BX","2018/11/13 20:39:20","新北市深坑區萬福路43號","121.599403333333","25.0068466666667","6501800","深坑區"
"231041","002-UM","2018/11/13 20:39:27","新北市新店區中正路696號","121.534015","24.9905033333333","6500600","新店區"
"231066","0291-UT","2018/11/13 20:39:25","新北市新店區安興路81號","121.515473333333","24.9754683333333","6500600","新店區"
"231059","046-UY","2018/11/13 20:39:11","新北市新店區僑信路104號","121.500036666667","24.9472566666667","6500600","新店區"
"231040","047-UY","2018/11/13 20:39:18","新北市新店區中正路263號","121.538641666667","24.9735583333333","6500600","新店區"
"231044","106-UY","2018/11/13 20:39:26","新北市新店區建國路257號","121.53743","24.9832916666667","6500600","新店區"
"231053","108-UY","2018/11/13 20:39:26","新北市新店區新烏路二段300號","121.547806666667","24.9125783333333","6500600","新店區"
"231062","110-UY","2018/11/13 20:39:19","新北市新店區安泰路60巷87號","121.484165","24.9443516666667","6500600","新店區"
"231048","187-VK","2018/11/13 20:39:25","新北市新店區寶慶街2號","121.544135","24.9868016666667","6500600","新店區"
"231068","189-VK","2018/11/13 20:39:22","新北市新店區寶元路一段85巷10號","121.543145","24.9860383333333","6500600","新店區"
"231054","KEA-2219","2018/11/13 20:39:12","新北市新店區北新路一段64巷43號","121.542295","24.9656683333333","6500600","新店區"
"231057","256-BX","2018/11/13 20:39:23","新北市新店區花園六路二段9-2號","121.555873333333","24.9328466666667","6500600","新店區"
"231042","268-BY","2018/11/13 20:39:27","新北市新店區寶橋路238號","121.551676666667","24.9788533333333","6500600","新店區"
"231051","278-BY","2018/11/13 20:39:26","新北市新店區中央八街128號","121.525156666667","24.9784","6500600","新店區"
"231050","AAD-862","2018/11/13 20:39:21","新北市新店區中正路247巷4弄10號","121.53842","24.97338","6500600","新店區"
"231058","3713-VJ","2018/11/13 20:39:25","新北市新店區中正路307巷22號","121.53609","24.9740783333333","6500600","新店區"
"231056","4715-K9","2018/11/13 20:39:26","新北市新店區環河路182號","121.525168333333","24.9760116666667","6500600","新店區"
"231067","4772-VM","2018/11/13 20:39:32","新北市新店區安華路28-1號","121.519856666667","24.9607833333333","6500600","新店區"
"231065","512-UM","2018/11/13 20:39:16","新北市新店區安祥路102巷74號","121.485701666667","24.9640116666667","6500600","新店區"
"231049","513-UM","2018/11/13 20:39:18","新北市新店區永業路81巷5弄11號","121.530505","24.9493033333333","6500600","新店區"
"231063","616-UM","2018/11/13 20:39:14","新北市新店區玫瑰路4-1號","121.493576666667","24.9513966666667","6500600","新店區"
"231045","618-UM","2018/11/13 20:39:28","新北市新店區長春路41號","121.549926666667","24.9575083333333","6500600","新店區"
"231061","619-UM","2018/11/13 20:39:18","新北市新店區新和街35號","121.519233333333","24.9849466666667","6500600","新店區"
"231064","719-UM","2018/11/13 20:39:27","新北市新店區安和路三段167號","121.516156666667","24.98598","6500600","新店區"
"231060","897-TW","2018/11/13 20:39:12","新北市新店區安康路三段738號","121.473938333333","24.9418983333333","6500600","新店區"
"231043","899-TW","2018/11/13 20:39:17","新北市新店區博愛街13巷24號","121.54027","24.97401","6500600","新店區"
"241011","013-R5","2018/11/13 20:39:11","新北市三重區龍濱路190號","121.501096666667","25.0733016666667","6500200","三重區"
"241028","022-UY","2018/11/13 20:39:27","新北市三重區光興街93號","121.497323333333","25.059865","6500200","三重區"
"241008","059-VK","2018/11/13 20:39:33","新北市三重區下竹圍街42-1號","121.481071666667","25.0748733333333","6500200","三重區"
"241031","061-VK","2018/11/13 20:39:27","新北市三重區重陽路一段43巷28號","121.488241666667","25.0584783333333","6500200","三重區"
"241015","062-VK","2018/11/13 20:39:32","新北市三重區文化北路103號","121.49787","25.068375","6500200","三重區"
"241017","063-VK","2018/11/13 20:39:20","新北市三重區大同北路271巷1號","121.490883333333","25.0673666666667","6500200","三重區"
"241026","066-VK","2018/11/13 20:39:32","新北市三重區和平街1號","121.500081666667","25.0623383333333","6500200","三重區"
"241002","090-VK","2018/11/13 20:39:27","新北市三重區仁義街167巷22號","121.497771666667","25.0820633333333","6500200","三重區"
"241003","091-VK","2018/11/13 20:39:28","新北市三重區五華街141巷60號","121.49359","25.0867783333333","6500200","三重區"
"251014","742-BX","2018/11/13 20:39:17","新北市淡水區公埔子26號","121.466426666667","25.2331216666667","6501000","淡水區"
"241005","262-UM","2018/11/13 20:39:31","新北市三重區集賢路87-1號","121.493881666667","25.0869466666667","6500200","三重區"
"241007","265-UM","2018/11/13 20:39:20","新北市三重區三和路四段101巷20號","121.488808333333","25.0770566666667","6500200","三重區"
"241016","266-UM","2018/11/13 20:39:22","新北市三重區長壽西街143-3號","121.49445","25.0667466666667","6500200","三重區"
"241009","267-UM","2018/11/13 20:39:18","新北市三重區碧華街55號","121.484706666667","25.0813133333333","6500200","三重區"
"241018","268-UM","2018/11/13 20:39:15","新北市三重區重陽路四段1號","121.491025","25.0687383333333","6500200","三重區"
"241032","269-UM","2018/11/13 20:39:20","新北市三重區重陽路一段120巷48號","121.484993333333","25.0601583333333","6500200","三重區"
"241013","270-UM","2018/11/13 20:39:29","新北市三重區仁愛街118號","121.49521","25.0745433333333","6500200","三重區"
"241025","271-UM","2018/11/13 20:39:29","新北市三重區頂崁街142號","121.477425","25.0650433333333","6500200","三重區"
"241035","KEA-2210","2018/11/13 20:39:20","新北市三重區正義北路322號","121.494895","25.0704116666667","6500200","三重區"
"241024","462-BY","2018/11/13 20:39:21","新北市三重區忠孝路三段28號","121.481408333333","25.0668866666667","6500200","三重區"
"241004","475-VK","2018/11/13 20:39:30","新北市三重區仁愛街400號","121.490746666667","25.081125","6500200","三重區"
"241020","478-VK","2018/11/13 20:39:14","新北市三重區忠孝路一段87號","121.489993333333","25.0720883333333","6500200","三重區"
"241014","543-UM","2018/11/13 20:39:16","新北市三重區萬壽街8號","121.499171666667","25.0693566666667","6500200","三重區"
"241023","545-UM","2018/11/13 20:39:25","新北市三重區頂崁街203巷27號","121.478178333333","25.0668933333333","6500200","三重區"
"241001","547-UM","2018/11/13 20:39:27","新北市三重區自強路三段76巷27弄8號","121.485185","25.0742966666667","6500200","三重區"
"241019","KEA-2593","2018/11/13 20:39:26","新北市三重區忠孝路一段10巷22號","121.491543333333","25.0714216666667","6500200","三重區"
"241006","AAD-863","2018/11/13 20:39:18","新北市三重區車路頭街135-1號","121.484308333333","25.0761533333333","6500200","三重區"
"241030","743-BX","2018/11/13 20:39:15","新北市三重區成功路73巷18號","121.48944","25.0519533333333","6500200","三重區"
"241012","941-UM","2018/11/13 20:39:31","新北市三重區秀江街2號","121.502718333333","25.0730816666667","6500200","三重區"
"241029","942-UM","2018/11/13 20:39:11","新北市三重區集美街126巷22號","121.489905","25.0538416666667","6500200","三重區"
"241033","AAC-255","2018/11/13 20:39:31","新北市三重區神農街469號","121.474403333333","25.0579633333333","6500200","三重區"
"247012","KEA-2869","2018/11/13 20:39:26","新北市蘆洲區集賢路224巷35號","121.480951666667","25.0877716666667","6501400","蘆洲區"
"247002","893-R6","2018/11/13 20:39:27","新北市蘆洲區長榮路357號","121.459148333333","25.0881933333333","6501400","蘆洲區"
"247016","546-UM","2018/11/13 20:39:30","新北市蘆洲區中山二路288號","121.46875","25.077535","6501400","蘆洲區"
"247024","500-BY","2018/11/13 20:39:19","新北市蘆洲區長樂路91號","121.462383333333","25.0872666666667","6501400","蘆洲區"
"247014","339-TH","2018/11/13 20:39:29","新北市蘆洲區中山一路228號","121.472978333333","25.0804216666667","6501400","蘆洲區"
"247006","337-TH","2018/11/13 20:39:19","新北市蘆洲區和平路126號","121.467345","25.0802483333333","6501400","蘆洲區"
"247020","057-VK","2018/11/13 20:39:29","新北市蘆洲區民族路331號","121.473698333333","25.0917516666667","6501400","蘆洲區"
"247008","053-VK","2018/11/13 20:39:14","新北市蘆洲區重陽一街23號","121.48076","25.08178","6501400","蘆洲區"
"247004","002-UY","2018/11/13 20:39:19","新北市蘆洲區長安街297號","121.458075","25.0848633333333","6501400","蘆洲區"
"247022","001-UY","2018/11/13 20:39:12","新北市蘆洲區中正路243巷18弄5號","121.46703","25.0865616666667","6501400","蘆洲區"
"222001","KEA-2212","2018/11/13 20:39:15","新北市深坑區北深路三段234號","121.600628333333","25.004135","6501800","深坑區"
"251013","KEA-2871","2018/11/13 20:39:18","新北市淡水區下圭柔山28巷29號","121.458643333333","25.2040016666667","6501000","淡水區"
"251016","179-VK","2018/11/13 20:39:31","新北市淡水區後洲子16-1號","121.449396666667","25.2240266666667","6501000","淡水區"
"251015","182-VK","2018/11/13 20:39:13","新北市淡水區淡金路四段542巷17號","121.45274","25.227085","6501000","淡水區"
"251010","413-VK","2018/11/13 20:39:27","新北市淡水區沙崙路181巷1號","121.42401","25.1842983333333","6501000","淡水區"
"251012","441-VK","2018/11/13 20:39:18","新北市淡水區興仁路108號","121.45165","25.2181283333333","6501000","淡水區"
"251007","442-VK","2018/11/13 20:39:21","新北市淡水區忠愛街4號","121.459516666667","25.1713133333333","6501000","淡水區"
"251001","559-UM","2018/11/13 20:39:15","新北市淡水區坪頂路27號","121.456333333333","25.1626116666667","6501000","淡水區"
"251006","561-UM","2018/11/13 20:39:28","新北市淡水區商工路143號","121.447266666667","25.1883133333333","6501000","淡水區"
"251009","575-R6","2018/11/13 20:39:18","新北市淡水區民權路187巷15號","121.460241666667","25.1333766666667","6501000","淡水區"
"251011","650-BX","2018/11/13 20:39:22","新北市淡水區新市一路一段361號","121.436383333333","25.1862066666667","6501000","淡水區"
"251002","672-BX","2018/11/13 20:39:24","新北市淡水區中正路36號","121.443795","25.1692266666667","6501000","淡水區"
"251003","673-BX","2018/11/13 20:39:27","新北市淡水區新民街152巷6弄22號","121.438788333333","25.1785016666667","6501000","淡水區"
"252002","178-VK","2018/11/13 20:39:25","新北市三芝區淡金路二段47-2號","121.50361","25.2605883333333","6502100","三芝區"
"252001","292-VK","2018/11/13 20:39:21","新北市三芝區育英街29-1號","121.50128","25.2573866666667","6502100","三芝區"
"242037","AAC-296","2018/11/13 20:39:30","新北市新莊區後港一路114號","121.42871","25.027065","6500500","新莊區"
"242058","986-R7","2018/11/13 20:39:26","新北市新莊區民安路138號","121.42418","25.025415","6500500","新莊區"
"242027","615-BX","2018/11/13 20:39:25","新北市新莊區中正路61巷10號","121.462248333333","25.0387766666667","6500500","新莊區"
"242025","613-BX","2018/11/13 20:39:19","新北市三重區光復路二段192號","121.470476666667","25.0631133333333","6500500","新莊區"
"242029","612-BX","2018/11/13 20:39:29","新北市新莊區中華路二段3巷1號","121.45337","25.045235","6500500","新莊區"
"242044","566-BX","2018/11/13 20:39:23","新北市新莊區龍安路100號","121.418131666667","25.020625","6500500","新莊區"
"242048","497-BY","2018/11/13 20:39:26","新北市新莊區中正路516-4號","121.433295","25.03227","6500500","新莊區"
"242056","442-UM","2018/11/13 20:39:26","新北市新莊區瓊泰路94巷39號","121.44427","25.02944","6500500","新莊區"
"242054","441-UM","2018/11/13 20:39:27","新北市新莊區民安西路221號","121.426","25.0144133333333","6500500","新莊區"
"242039","415-TV","2018/11/13 20:39:18","新北市新莊區民安路461號","121.434641666667","25.0224766666667","6500500","新莊區"
"242009","413-TV","2018/11/13 20:39:31","新北市新莊區福壽街99巷11弄7號","121.457435","25.050185","6500500","新莊區"
"242023","362-BY","2018/11/13 20:39:30","新北市新莊區復興路三段71號","121.462521666667","25.0445483333333","6500500","新莊區"
"242061","353-BY","2018/11/13 20:39:25","新北市新莊區新樹路262號","121.432686666667","25.0148116666667","6500500","新莊區"
"242011","132-UY","2018/11/13 20:39:14","新北市新莊區中榮街122巷25號","121.44649","25.0536783333333","6500500","新莊區"
"242042","133-UY","2018/11/13 20:39:19","新北市新莊區天祥街35號","121.41694","25.0284466666667","6500500","新莊區"
"242034","135-UY","2018/11/13 20:39:32","新北市新莊區中正路342號","121.444366666667","25.0344233333333","6500500","新莊區"
"242051","172-VK","2018/11/13 20:39:31","新北市新莊區民安西路124號","121.42672","25.0183333333333","6500500","新莊區"
"242013","173-VK","2018/11/13 20:39:30","新北市新莊區中和街175巷11號","121.447193333333","25.0505283333333","6500500","新莊區"
"242019","175-VK","2018/11/13 20:39:13","新北市新莊區中港路五守新村1巷5號","121.455328333333","25.03819","6500500","新莊區"
"242032","348-TH","2018/11/13 20:39:09","新北市新莊區中正路508巷5弄2號","121.435013333333","25.0338566666667","6500500","新莊區"
"242005","349-TH","2018/11/13 20:39:15","新北市新莊區化成路371巷30弄2號","121.463345","25.0569516666667","6500500","新莊區"
"242015","351-TH","2018/11/13 20:39:20","新北市新莊區中和街6號","121.44846","25.0429316666667","6500500","新莊區"
"221036","130-UY","2018/11/13 20:39:21","新北市汐止區新昌路88號","121.663916666667","25.0690283333333","6501100","汐止區"
"221015","131-UY","2018/11/13 20:39:19","新北市汐止區建成路21號","121.664318333333","25.0726066666667","6501100","汐止區"
"221032","280-BY","2018/11/13 20:39:14","新北市汐止區橫科路221巷19-1號","121.621506666667","25.0495233333333","6501100","汐止區"
"221027","281-BY","2018/11/13 20:39:33","新北市汐止區大同路二段563-1號","121.662795","25.0699533333333","6501100","汐止區"
"221029","298-VK","2018/11/13 20:39:27","新北市汐止區新台五路一段79-13號","121.64531","25.0621016666667","6501100","汐止區"
"221021","299-VK","2018/11/13 20:39:22","新北市汐止區水源路一段290號","121.65414","25.05809","6501100","汐止區"
"221035","622-UM","2018/11/13 20:39:21","新北市汐止區長江街101-5號","121.65872","25.0731816666667","6501100","汐止區"
"221025","623-UM","2018/11/13 20:39:24","新北市汐止區水源路二段189號","121.657781666667","25.0533533333333","6501100","汐止區"
"221038","646-BX","2018/11/13 20:39:19","新北市汐止區汐萬路一段167-1號","121.652753333333","25.0711116666667","6501100","汐止區"
"221033","647-BX","2018/11/13 20:39:18","新北市汐止區合順街18巷8弄5號","121.620333333333","25.0419266666667","6501100","汐止區"
"221002","707-TV","2018/11/13 20:39:19","新北市汐止區福德二路169號","121.630836666667","25.0650616666667","6501100","汐止區"
"221018","753-BX","2018/11/13 20:39:27","新北市汐止區茄苳路107號","121.66773","25.0713366666667","6501100","汐止區"
"220091","267-BY","2018/11/13 20:39:30","新北市八里區中山路三段382號","121.368705","25.1359183333333","6500100","板橋區"
"220083","286-VK","2018/11/13 20:39:29","新北市板橋區大觀路一段38巷156弄110-7號","121.444551666667","25.0074916666667","6500100","板橋區"
"242002","281-VK","2018/11/13 20:39:29","新北市新莊區中正路96號","121.455123333333","25.0366816666667","6500500","新莊區"
"220092","307-R5","2018/11/13 20:37:56","新北市樹林區中山路三段214號","121.380078333333","24.9678633333333","6500100","板橋區"
"242046","280-VK","2018/11/13 20:39:30","新北市新莊區裕民街59號","121.418736666667","25.0244816666667","6500500","新莊區"
"220103","561-BX","2018/11/13 20:39:21","新北市板橋區漢生東路83巷27號","121.46746","25.016835","6500100","板橋區"
"220070","AAC-253","2018/11/13 20:39:26","新北市樹林區八德街828-2號","121.394145","24.9687266666667","6500100","板橋區"
