"lineid","car","time","location","longitude","latitude","cityid","cityname"
"248014","261-SL","2018/11/13 20:59:27","新北市五股區中興路二段83巷26-6號","121.45999","25.07529","6501500","五股區"
"244018","403-UM","2018/11/13 20:59:21","新北市林口區粉寮69號","121.405031666667","25.0908566666667","6501700","林口區"
"231066","0291-UT","2018/11/13 20:59:25","新北市新店區吉安街34號","121.515918333333","24.96604","6500600","新店區"
"231059","046-UY","2018/11/13 20:59:32","新北市新店區僑信路101號","121.50032","24.9467466666667","6500600","新店區"
"231040","047-UY","2018/11/13 20:59:18","新北市新店區中正路139號","121.54169","24.9715233333333","6500600","新店區"
"231053","108-UY","2018/11/13 20:59:26","新北市新店區環河路18號","121.53721","24.9614216666667","6500600","新店區"
"231062","110-UY","2018/11/13 20:59:19","新北市新店區裕合街179號","121.490286666667","24.9490216666667","6500600","新店區"
"231048","187-VK","2018/11/13 20:59:26","新北市新店區寶元路一段109號","121.54568","24.983135","6500600","新店區"
"231068","189-VK","2018/11/13 20:59:21","新北市新店區寶中路77號","121.547678333333","24.9807016666667","6500600","新店區"
"231054","KEA-2219","2018/11/13 20:59:32","新北市新店區中正路75巷71號","121.543225","24.9687116666667","6500600","新店區"
"231042","268-BY","2018/11/13 20:59:27","新北市新店區寶高路102巷20號","121.552776666667","24.9741083333333","6500600","新店區"
"231051","278-BY","2018/11/13 20:59:26","新北市新店區中正路663巷1弄2號","121.532851666667","24.9899483333333","6500600","新店區"
"231050","AAD-862","2018/11/13 20:59:21","新北市新店區三民路29巷1-1號","121.537873333333","24.970015","6500600","新店區"
"231058","3713-VJ","2018/11/13 20:59:25","新北市新店區安和路三段1-1號","121.517118333333","24.979515","6500600","新店區"
"231067","4772-VM","2018/11/13 20:59:32","新北市新店區安德街130巷10號","121.508211666667","24.9607766666667","6500600","新店區"
"231065","512-UM","2018/11/13 20:59:16","新北市新店區安祥路67巷50弄36號","121.48416","24.95888","6500600","新店區"
"231063","616-UM","2018/11/13 20:59:14","新北市新店區如意街97號","121.49547","24.94689","6500600","新店區"
"231061","619-UM","2018/11/13 20:59:18","新北市新店區永安街95號","121.520371666667","24.9861666666667","6500600","新店區"
"231064","719-UM","2018/11/13 20:59:27","新北市新店區安民街65巷17-1號","121.515263333333","24.9668766666667","6500600","新店區"
"231060","897-TW","2018/11/13 20:59:12","新北市新店區安康路三段244號","121.48774","24.9518","6500600","新店區"
"231043","899-TW","2018/11/13 20:59:17","新北市新店區溪園路367號","121.522988333333","24.9801916666667","6500600","新店區"
"241011","013-R5","2018/11/13 20:59:31","新北市三重區秀江街119-1號","121.499655","25.0721883333333","6500200","三重區"
"241028","022-UY","2018/11/13 20:59:27","新北市三重區重新路三段90號","121.49294","25.0608516666667","6500200","三重區"
"241008","059-VK","2018/11/13 20:59:33","新北市三重區力行路二段162巷11號","121.482506666667","25.07659","6500200","三重區"
"241031","061-VK","2018/11/13 20:59:07","新北市三重區重陽路一段113巷2弄2號","121.487466666667","25.059865","6500200","三重區"
"241015","062-VK","2018/11/13 20:59:32","新北市三重區福德北路46號","121.502058333333","25.06552","6500200","三重區"
"241017","063-VK","2018/11/13 20:59:20","新北市三重區大仁街23號","121.49212","25.0645633333333","6500200","三重區"
"241026","066-VK","2018/11/13 20:59:32","新北市三重區文化南路45號","121.500238333333","25.0614283333333","6500200","三重區"
"241002","090-VK","2018/11/13 20:59:27","新北市三重區五華街1巷2號","121.49554","25.079705","6500200","三重區"
"241003","091-VK","2018/11/13 20:59:27","新北市三重區進安街198號","121.493908333333","25.0859766666667","6500200","三重區"
"251014","742-BX","2018/11/13 20:59:17","新北市淡水區溪口7-3號","121.455636666667","25.2365683333333","6501000","淡水區"
"241005","262-UM","2018/11/13 20:59:31","新北市三重區三信路5號","121.488583333333","25.0864816666667","6500200","三重區"
"241007","265-UM","2018/11/13 20:59:20","新北市三重區三和路四段145巷85號","121.486463333333","25.07871","6500200","三重區"
"241016","266-UM","2018/11/13 20:59:22","新北市三重區正義北路154號","121.496333333333","25.0663416666667","6500200","三重區"
"241009","267-UM","2018/11/13 20:59:18","新北市三重區三和路四段165-4號","121.483153333333","25.078645","6500200","三重區"
"241018","268-UM","2018/11/13 20:59:15","新北市三重區雙園街103號","121.493738333333","25.0673533333333","6500200","三重區"
"241032","269-UM","2018/11/13 20:59:20","新北市三重區三陽路139號","121.482945","25.0588233333333","6500200","三重區"
"241013","270-UM","2018/11/13 20:59:33","新北市三重區仁愛街129巷2號","121.49562","25.0749616666667","6500200","三重區"
"241025","271-UM","2018/11/13 20:59:29","新北市三重區貴陽街14號","121.484218333333","25.0618833333333","6500200","三重區"
"241024","462-BY","2018/11/13 20:59:21","新北市三重區國道路一段58巷20號","121.481286666667","25.0720066666667","6500200","三重區"
"241004","475-VK","2018/11/13 20:59:30","新北市三重區仁愛街420號","121.490413333333","25.08142","6500200","三重區"
"241020","478-VK","2018/11/13 20:59:14","新北市三重區忠孝路二段34號","121.485765","25.0709683333333","6500200","三重區"
"241014","543-UM","2018/11/13 20:59:16","新北市三重區長榮路75號","121.502601666667","25.0690583333333","6500200","三重區"
"241023","545-UM","2018/11/13 20:59:25","新北市三重區忠孝路三段84巷63號","121.482325","25.0637233333333","6500200","三重區"
"241001","547-UM","2018/11/13 20:59:27","新北市三重區自強路三段87巷20號","121.488388333333","25.0751033333333","6500200","三重區"
"241019","KEA-2593","2018/11/13 20:59:26","新北市三重區自強路二段74巷19號","121.488018333333","25.0698716666667","6500200","三重區"
"241006","AAD-863","2018/11/13 20:59:18","新北市三重區力行路二段162巷55號","121.480813333333","25.0766516666667","6500200","三重區"
"241030","743-BX","2018/11/13 20:59:15","新北市三重區環河南路220-8號","121.493378333333","25.05277","6500200","三重區"
"241012","941-UM","2018/11/13 20:59:31","新北市三重區仁信街27號","121.501295","25.0755583333333","6500200","三重區"
"241029","942-UM","2018/11/13 20:59:31","新北市三重區正義南路111號","121.498213333333","25.058555","6500200","三重區"
"241033","AAC-255","2018/11/13 20:59:31","新北市三重區光復路二段28號","121.472088333333","25.0542","6500200","三重區"
"247012","KEA-2869","2018/11/13 20:59:26","新北市蘆洲區民權路26號","121.47675","25.08573","6501400","蘆洲區"
"247002","893-R6","2018/11/13 20:59:30","新北市蘆洲區永樂街38巷8號","121.458155","25.0887933333333","6501400","蘆洲區"
"247016","546-UM","2018/11/13 20:59:30","新北市蘆洲區正和街92號","121.468141666667","25.080865","6501400","蘆洲區"
"247024","500-BY","2018/11/13 20:59:19","新北市蘆洲區長興路211號","121.461206666667","25.0862933333333","6501400","蘆洲區"
"247014","339-TH","2018/11/13 20:59:15","新北市蘆洲區得勝街71號","121.473673333333","25.0838066666667","6501400","蘆洲區"
"247006","337-TH","2018/11/13 20:59:19","新北市蘆洲區永安南路二段16巷8號","121.467785","25.07724","6501400","蘆洲區"
"247020","057-VK","2018/11/13 20:59:29","新北市蘆洲區民族路488號","121.471075","25.0913516666667","6501400","蘆洲區"
"247010","056-VK","2018/11/13 20:59:23","新北市蘆洲區鷺江街76號","121.476968333333","25.0837916666667","6501400","蘆洲區"
"247008","053-VK","2018/11/13 20:59:14","新北市蘆洲區民生街123號","121.47283","25.0789983333333","6501400","蘆洲區"
"247018","007-UY","2018/11/13 20:59:29","新北市蘆洲區民權路116號","121.473488333333","25.08852","6501400","蘆洲區"
"247004","002-UY","2018/11/13 20:59:19","新北市蘆洲區永安南路二段268號","121.458663333333","25.0807383333333","6501400","蘆洲區"
"247022","001-UY","2018/11/13 20:59:33","新北市蘆洲區民族路542號","121.467935","25.089155","6501400","蘆洲區"
"251005","010-UM","2018/11/13 20:59:18","新北市淡水區學府路51巷2弄16號","121.447956666667","25.17005","6501000","淡水區"
"251013","KEA-2871","2018/11/13 20:59:18","新北市淡水區行忠路590號","121.468096666667","25.199275","6501000","淡水區"
"251016","179-VK","2018/11/13 20:59:31","新北市淡水區牛埔子11-1號","121.450198333333","25.21844","6501000","淡水區"
"251015","182-VK","2018/11/13 20:59:13","新北市淡水區淡金路四段542巷17號","121.452733333333","25.2270866666667","6501000","淡水區"
"251010","413-VK","2018/11/13 20:59:27","新北市淡水區中正路一段118-3號","121.42382","25.178955","6501000","淡水區"
"251012","441-VK","2018/11/13 20:59:18","新北市淡水區淡金路五段116-1號","121.456556666667","25.2369933333333","6501000","淡水區"
"251007","442-VK","2018/11/13 20:59:21","新北市淡水區仁愛街2巷14號","121.446483333333","25.1710216666667","6501000","淡水區"
"251001","559-UM","2018/11/13 20:59:15","新北市淡水區淡金路二段147號","121.449876666667","25.1827566666667","6501000","淡水區"
"251009","575-R6","2018/11/13 20:59:18","新北市淡水區民族路112巷68號","121.461863333333","25.1339816666667","6501000","淡水區"
"251011","650-BX","2018/11/13 20:59:22","新北市淡水區新民街322巷1號","121.435308333333","25.18379","6501000","淡水區"
"251002","672-BX","2018/11/13 20:59:24","新北市淡水區英專路63號","121.44563","25.17109","6501000","淡水區"
"251003","673-BX","2018/11/13 20:59:29","新北市淡水區新春街103-38號","121.44081","25.1827183333333","6501000","淡水區"
"242025","613-BX","2018/11/13 20:59:19","新北市林口區太平里180號","121.368668333333","25.1338533333333","6500500","新莊區"
"242011","132-UY","2018/11/13 20:58:32","新北市五股區中直路15-2號","121.423078333333","25.1112266666667","6500500","新莊區"
"242042","133-UY","2018/11/13 20:59:14","新北市五股區新五路二段2巷2-1號","121.438311666667","25.0652816666667","6500500","新莊區"
"242005","349-TH","2018/11/13 20:59:15","新北市八里區商港路120號","121.392846666667","25.1500916666667","6500500","新莊區"
"221032","280-BY","2018/11/13 20:59:14","新北市汐止區汐萬路一段256巷3號","121.653353333333","25.074475","6501100","汐止區"
"221029","298-VK","2018/11/13 20:59:27","新北市汐止區康寧街901號","121.651681666667","25.0749416666667","6501100","汐止區"
"221035","622-UM","2018/11/13 20:59:21","新北市汐止區汐萬路一段256巷1號","121.652025","25.0748866666667","6501100","汐止區"
"221018","753-BX","2018/11/13 20:59:27","新北市汐止區汐萬路一段256巷3號","121.653436666667","25.074585","6501100","汐止區"
"220091","267-BY","2018/11/13 20:59:30","新北市板橋區長江路三段151-1號","121.475775","25.037445","6500100","板橋區"
"220092","307-R5","2018/11/13 20:59:16","新北市板橋區華東街328號","121.452643333333","25.0034733333333","6500100","板橋區"
"220070","AAC-253","2018/11/13 20:59:26","新北市土城區城林路6巷80號","121.438171666667","24.9797466666667","6500100","板橋區"
