"lineid","car","time","location","longitude","latitude","cityid","cityname"
"244018","403-UM","2018/11/13 21:04:15","新北市林口區粉寮69號","121.40504","25.0908583333333","6501700","林口區"
"231059","046-UY","2018/11/13 21:09:31","新北市新店區僑信路42號","121.499373333333","24.9508983333333","6500600","新店區"
"231040","047-UY","2018/11/13 21:09:18","新北市新店區北新路一段351號","121.541985","24.9693","6500600","新店區"
"231062","110-UY","2018/11/13 21:09:19","新北市新店區雙城路60巷16弄13號","121.491685","24.947895","6500600","新店區"
"231048","187-VK","2018/11/13 21:09:26","新北市新店區中興路三段160號","121.544405","24.9805333333333","6500600","新店區"
"231054","KEA-2219","2018/11/13 21:09:32","新北市新店區大新街7巷48號","121.544411666667","24.9676316666667","6500600","新店區"
"231042","268-BY","2018/11/13 21:09:27","新北市新店區寶興路60巷4號","121.549818333333","24.97189","6500600","新店區"
"231051","278-BY","2018/11/13 21:09:26","新北市新店區中正路700巷82號","121.535973333333","24.9932866666667","6500600","新店區"
"231050","AAD-862","2018/11/13 21:09:21","新北市新店區中華路117巷6弄1號","121.537761666667","24.968665","6500600","新店區"
"231067","4772-VM","2018/11/13 21:09:12","新北市新店區薏仁坑路自強巷6號","121.496613333333","24.9583316666667","6500600","新店區"
"231065","512-UM","2018/11/13 21:09:16","新北市新店區安祥路57號","121.484125","24.9604083333333","6500600","新店區"
"231063","616-UM","2018/11/13 21:09:34","新北市新店區玫瑰路61巷1號","121.495961666667","24.9453283333333","6500600","新店區"
"231061","619-UM","2018/11/13 21:09:18","新北市新店區永安街22-1號","121.517428333333","24.98648","6500600","新店區"
"231064","719-UM","2018/11/13 21:09:27","新北市新店區薏仁坑路自強巷1號","121.49725","24.9577433333333","6500600","新店區"
"231060","897-TW","2018/11/13 21:09:32","新北市新店區薏仁坑路自強巷6號","121.49672","24.9584383333333","6500600","新店區"
"241011","013-R5","2018/11/13 21:09:12","新北市三重區秀江街57號","121.50096","25.0725916666667","6500200","三重區"
"241028","022-UY","2018/11/13 21:09:27","新北市三重區正義南路54號","121.498255","25.06069","6500200","三重區"
"241008","059-VK","2018/11/13 21:09:14","新北市三重區三和路三段8號","121.497098333333","25.0701033333333","6500200","三重區"
"241031","061-VK","2018/11/13 21:09:27","新北市三重區重新路五段406號","121.475748333333","25.0476633333333","6500200","三重區"
"241015","062-VK","2018/11/13 21:09:32","新北市三重區長元街100-2號","121.502805","25.066715","6500200","三重區"
"241017","063-VK","2018/11/13 21:09:20","新北市三重區國隆路31號","121.492261666667","25.0644666666667","6500200","三重區"
"241026","066-VK","2018/11/13 21:09:32","新北市三重區文化南路45號","121.500218333333","25.0614483333333","6500200","三重區"
"241002","090-VK","2018/11/13 21:09:27","新北市三重區五華街19號","121.494908333333","25.080365","6500200","三重區"
"241003","091-VK","2018/11/13 21:09:27","新北市三重區仁義街224號","121.494945","25.08469","6500200","三重區"
"251014","742-BX","2018/11/13 21:09:27","新北市淡水區六塊厝1-2號","121.45081","25.24261","6501000","淡水區"
"241005","262-UM","2018/11/13 21:09:11","新北市三重區三信路11號","121.488181666667","25.086075","6500200","三重區"
"241007","265-UM","2018/11/13 21:09:20","新北市三重區三和路四段145巷85號","121.486448333333","25.0787133333333","6500200","三重區"
"241016","266-UM","2018/11/13 21:09:02","新北市三重區正義北路64巷60號","121.495766666667","25.063795","6500200","三重區"
"241009","267-UM","2018/11/13 21:09:18","新北市三重區忠孝路二段124號","121.4831","25.0688883333333","6500200","三重區"
"241018","268-UM","2018/11/13 21:09:15","新北市三重區正義北路332-1號","121.49432","25.0706133333333","6500200","三重區"
"241032","269-UM","2018/11/13 21:09:20","新北市三重區中山路279號","121.471406666667","25.0615616666667","6500200","三重區"
"241013","270-UM","2018/11/13 21:09:17","新北市三重區仁愛街139號","121.495163333333","25.0752916666667","6500200","三重區"
"241025","271-UM","2018/11/13 21:09:29","新北市三重區中正北路208巷10弄4號","121.48237","25.0669466666667","6500200","三重區"
"241024","462-BY","2018/11/13 21:09:21","新北市三重區國道路一段58巷15號","121.481521666667","25.0721233333333","6500200","三重區"
"241004","475-VK","2018/11/13 21:09:30","新北市三重區仁愛街418號","121.490468333333","25.0813933333333","6500200","三重區"
"241020","478-VK","2018/11/13 21:09:14","新北市三重區忠孝路二段63號","121.484943333333","25.0704833333333","6500200","三重區"
"241014","543-UM","2018/11/13 21:09:16","新北市三重區三和路二段37-9號","121.501266666667","25.0676916666667","6500200","三重區"
"241023","545-UM","2018/11/13 21:09:25","新北市三重區洛陽街45巷15號","121.482365","25.063745","6500200","三重區"
"241001","547-UM","2018/11/13 21:09:27","新北市三重區福隆路50號","121.492405","25.0784683333333","6500200","三重區"
"241019","KEA-2593","2018/11/13 21:09:26","新北市三重區自強路二段74巷21號","121.48801","25.0698616666667","6500200","三重區"
"241006","AAD-863","2018/11/13 21:09:18","新北市三重區中正北路105號","121.48936","25.06324","6500200","三重區"
"241030","743-BX","2018/11/13 21:09:35","新北市三重區五谷王北街20巷15弄1號","121.475051666667","25.0484816666667","6500200","三重區"
"241012","941-UM","2018/11/13 21:09:11","新北市三重區龍門路300號","121.502446666667","25.0745266666667","6500200","三重區"
"241029","942-UM","2018/11/13 21:09:31","新北市三重區正義南路111號","121.498183333333","25.05853","6500200","三重區"
"241033","AAC-255","2018/11/13 21:09:31","新北市三重區中興北街289號","121.469045","25.062375","6500200","三重區"
"247012","KEA-2869","2018/11/13 21:09:26","新北市蘆洲區民族路24號","121.476111666667","25.0842416666667","6501400","蘆洲區"
"247002","893-R6","2018/11/13 21:09:23","新北市蘆洲區永樂街38巷40號","121.458548333333","25.0899666666667","6501400","蘆洲區"
"247024","500-BY","2018/11/13 21:09:19","新北市蘆洲區長興路50巷1號","121.46373","25.0839266666667","6501400","蘆洲區"
"247014","339-TH","2018/11/13 21:09:15","新北市蘆洲區中央路155號","121.472636666667","25.0847066666667","6501400","蘆洲區"
"247006","337-TH","2018/11/13 21:09:30","新北市蘆洲區九芎街79號","121.466563333333","25.078995","6501400","蘆洲區"
"247020","057-VK","2018/11/13 21:09:29","新北市蘆洲區民族路446-5號","121.472688333333","25.09225","6501400","蘆洲區"
"247010","056-VK","2018/11/13 21:09:23","新北市蘆洲區鷺江街71號","121.477226666667","25.0830966666667","6501400","蘆洲區"
"247008","053-VK","2018/11/13 21:09:28","新北市蘆洲區信義路30巷22號","121.474288333333","25.0786783333333","6501400","蘆洲區"
"247018","007-UY","2018/11/13 21:09:29","新北市蘆洲區民族路408巷10號","121.47479","25.0918366666667","6501400","蘆洲區"
"247004","002-UY","2018/11/13 21:09:19","新北市蘆洲區永安南路二段286號","121.457728333333","25.0812533333333","6501400","蘆洲區"
"247022","001-UY","2018/11/13 21:09:28","新北市蘆洲區三民路263號","121.468291666667","25.089435","6501400","蘆洲區"
"251005","010-UM","2018/11/13 21:09:18","新北市淡水區博愛街45號","121.446563333333","25.1692616666667","6501000","淡水區"
"251013","KEA-2871","2018/11/13 21:09:18","新北市淡水區行忠路328號","121.46047","25.199655","6501000","淡水區"
"251016","179-VK","2018/11/13 21:09:11","新北市淡水區前洲子11號","121.441018333333","25.219415","6501000","淡水區"
"251015","182-VK","2018/11/13 21:09:19","新北市淡水區淡金路四段542巷91號","121.45416","25.2252116666667","6501000","淡水區"
"251010","413-VK","2018/11/13 21:09:27","新北市淡水區中正路一段63巷9號","121.422565","25.177115","6501000","淡水區"
"251012","441-VK","2018/11/13 21:09:18","新北市淡水區淡金路五段172號","121.457001666667","25.24005","6501000","淡水區"
"251007","442-VK","2018/11/13 21:09:21","新北市淡水區學府路88號","121.44898","25.1710633333333","6501000","淡水區"
"251001","559-UM","2018/11/13 21:09:15","新北市淡水區新市一路三段101巷16弄3號","121.446666666667","25.1838166666667","6501000","淡水區"
"251009","575-R6","2018/11/13 21:09:18","新北市淡水區民族路112巷57號","121.46205","25.1343416666667","6501000","淡水區"
"251011","650-BX","2018/11/13 21:09:22","新北市淡水區新民街120巷45弄24號","121.437733333333","25.1797183333333","6501000","淡水區"
"251002","672-BX","2018/11/13 21:09:24","新北市淡水區水源街一段157號","121.447848333333","25.1716816666667","6501000","淡水區"
"251003","673-BX","2018/11/13 21:09:27","新北市淡水區新春街87號","121.43883","25.1826466666667","6501000","淡水區"
"242025","613-BX","2018/11/13 21:09:19","新北市八里區中山路三段390號","121.368171666667","25.1350783333333","6500500","新莊區"
"242005","349-TH","2018/11/13 21:09:15","新北市八里區中山路三段409號","121.368705","25.1346316666667","6500500","新莊區"
"220092","307-R5","2018/11/13 21:09:16","新北市板橋區民生路二段89-6號","121.470611666667","25.0193466666667","6500100","板橋區"
"220070","AAC-253","2018/11/13 21:09:26","新北市板橋區華東街1-10號","121.448461666667","24.9950083333333","6500100","板橋區"
