"lineid","car","time","location","longitude","latitude","cityid","cityname"
"251014","742-BX","2018/11/13 21:39:17","新北市淡水區淡金路三段426號","121.450261666667","25.2120366666667","6501000","淡水區"
"241005","262-UM","2018/11/13 21:39:31","新北市三重區碧華街1號","121.483578333333","25.0810083333333","6500200","三重區"
"247012","KEA-2869","2018/11/13 21:39:26","新北市五股區凌雲路三段24巷21-9號","121.433758333333","25.1076283333333","6501400","蘆洲區"
"251005","010-UM","2018/11/13 21:39:18","新北市淡水區水源街一段115號","121.446496666667","25.1720516666667","6501000","淡水區"
"251016","179-VK","2018/11/13 21:39:31","新北市淡水區崁頂59號","121.441113333333","25.19955","6501000","淡水區"
"251008","180-VK","2018/11/13 21:39:32","新北市淡水區水源街二段76號","121.451206666667","25.174215","6501000","淡水區"
"251010","413-VK","2018/11/13 21:39:27","新北市淡水區沙崙路216巷15號","121.426123333333","25.1841083333333","6501000","淡水區"
"251012","441-VK","2018/11/13 21:39:18","新北市淡水區淡金路四段203號","121.451601666667","25.2219483333333","6501000","淡水區"
"251007","442-VK","2018/11/13 21:39:21","新北市淡水區水源街二段160-4號","121.455303333333","25.17552","6501000","淡水區"
"251004","443-VK","2018/11/13 21:39:24","新北市淡水區民生路11號","121.460581666667","25.1378883333333","6501000","淡水區"
"251001","559-UM","2018/11/13 21:39:35","新北市淡水區崁頂二路250號","121.4358","25.1966733333333","6501000","淡水區"
"251006","561-UM","2018/11/13 21:39:28","新北市淡水區中正路11巷3號","121.43782","25.1707816666667","6501000","淡水區"
"251009","575-R6","2018/11/13 21:39:18","新北市淡水區民生路52巷22弄12號","121.46237","25.137005","6501000","淡水區"
"251011","650-BX","2018/11/13 21:39:22","新北市淡水區新民街322巷1號","121.435408333333","25.1837183333333","6501000","淡水區"
"251002","672-BX","2018/11/13 21:39:22","新北市淡水區學府路152號","121.446408333333","25.1742833333333","6501000","淡水區"
"251003","673-BX","2018/11/13 21:39:27","新北市淡水區新民街276號","121.435458333333","25.1815516666667","6501000","淡水區"
"242025","613-BX","2018/11/13 21:39:18","新北市五股區新五路二段83號","121.436836666667","25.07356","6500500","新莊區"
"242005","349-TH","2018/11/13 21:39:35","新北市五股區新五路三段2號","121.44481","25.08841","6500500","新莊區"
"220070","AAC-253","2018/11/13 21:39:26","新北市板橋區華東街1-9號","121.448243333333","24.994845","6500100","板橋區"
