"lineid","car","time","location","longitude","latitude","cityid","cityname"
"234040","862-TW","2018/11/13 21:49:20","新北市永和區福和路1號","121.526366666667","25.009695","6500400","永和區"
"234048","863-TW","2018/11/13 21:49:19","新北市永和區福和路1號","121.526476666667","25.0101133333333","6500400","永和區"
"247012","KEA-2869","2018/11/13 21:49:26","新北市八里區中山路三段382號","121.368521666667","25.1359216666667","6501400","蘆洲區"
"235010","733-UM","2018/11/13 21:41:22","新北市中和區員山路36巷13號","121.484175","24.9908183333333","6500300","中和區"
"251005","010-UM","2018/11/13 21:49:18","新北市淡水區鄧公路30巷24號","121.453375","25.1697966666667","6501000","淡水區"
"251008","180-VK","2018/11/13 21:49:32","新北市淡水區學府路96號","121.44968","25.171525","6501000","淡水區"
"251010","413-VK","2018/11/13 21:49:27","新北市淡水區中正路二段215號","121.426276666667","25.18933","6501000","淡水區"
"251012","441-VK","2018/11/13 21:49:18","新北市淡水區淡金路三段317號","121.44897","25.2059216666667","6501000","淡水區"
"251007","442-VK","2018/11/13 21:49:21","新北市淡水區水源街二段177巷100號","121.452086666667","25.1773466666667","6501000","淡水區"
"251004","443-VK","2018/11/13 21:49:24","新北市淡水區自強路201巷39號","121.462121666667","25.1268333333333","6501000","淡水區"
"251001","559-UM","2018/11/13 21:49:15","新北市淡水區崁頂二路250號","121.435798333333","25.1966766666667","6501000","淡水區"
"251006","561-UM","2018/11/13 21:49:28","新北市淡水區中正路11巷3號","121.437816666667","25.1707716666667","6501000","淡水區"
"251009","575-R6","2018/11/13 21:49:18","新北市淡水區民族路35巷42號","121.465258333333","25.1370466666667","6501000","淡水區"
"251011","650-BX","2018/11/13 21:49:22","新北市淡水區新民街322巷9號","121.436325","25.1828566666667","6501000","淡水區"
"251002","672-BX","2018/11/13 21:49:22","新北市淡水區學府路202號","121.447276666667","25.1763733333333","6501000","淡水區"
"251003","673-BX","2018/11/13 21:49:27","新北市淡水區新春街83號","121.438845","25.182495","6501000","淡水區"
"220070","AAC-253","2018/11/13 21:47:09","新北市板橋區華東街1-9號","121.448243333333","24.994845","6500100","板橋區"
