"lineid","car","time","location","longitude","latitude","cityid","cityname"
"248005","653-BX","2018/03/08 07:09:17","新北市五股區新五路二段89號","121.43675","25.074375","6501500","五股區"
"232001","290-BY","2018/03/08 07:09:13","新北市坪林區桶盤嶼8-2號","121.707191666667","24.9574566666667","6502000","坪林區"
"232014","291-BY","2018/03/08 07:09:09","新北市坪林區金瓜寮3-1號","121.680886666667","24.9182266666667","6502000","坪林區"
"232010","375-UM","2018/03/08 07:09:20","新北市坪林區水聳淒坑14號","121.723063333333","24.9267633333333","6502000","坪林區"
"232018","705-BZ","2018/03/08 07:09:31","新北市坪林區九芎坑3-4號","121.727368333333","24.9628183333333","6502000","坪林區"
"232007","758-BX","2018/03/08 07:09:13","新北市坪林區魚堀52-1號","121.704935","24.93145","6502000","坪林區"
"244004","248-BX","2018/03/08 07:09:25","新北市林口區頭湖82-5號","121.370013333333","25.08243","6501700","林口區"
"222006","289-BY","2018/03/08 07:08:22","新北市深坑區深坑街75號","121.614658333333","25.0011233333333","6501800","深坑區"
"235001","611-BX","2018/03/08 07:09:25","新北市中和區圓通路367巷4號","121.491366666667","24.9891933333333","6500300","中和區"
"226005","5620-A6","2018/03/08 07:09:26","新北市平溪區菁桐里菁桐街30號","121.72563","25.0238383333333","6502400","平溪區"
"226002","7418-A5","2018/03/08 07:09:09","新北市平溪區石底里公園街18-3號","121.733435","25.025605","6502400","平溪區"
"226003","AGD-0702","2018/03/08 07:09:16","新北市平溪區靜安路二段528號","121.74465","25.0272833333333","6502400","平溪區"
"223006","022-BY","2018/03/08 07:09:12","新北市石碇區新興坑1-1號","121.653935","25.0137466666667","6501900","石碇區"
"223001","205-TH","2018/03/08 07:09:17","新北市石碇區烏塗窟21號","121.656731666667","24.975045","6501900","石碇區"
"223008","406-TH","2018/03/08 07:09:14","新北市石碇區碇坪路一段2號","121.65166","25.0061783333333","6501900","石碇區"
"223001","592-UM","2018/03/08 07:09:29","新北市石碇區烏塗窟1號","121.656243333333","24.9757216666667","6501900","石碇區"
"223004","660-BX","2018/03/08 07:09:31","新北市石碇區碇坪路一段10號","121.651651666667","25.0060333333333","6501900","石碇區"
"223007","661-BX","2018/03/08 07:09:19","新北市石碇區雙溪84-1號","121.66125","25.00891","6501900","石碇區"
"223005","677-TV","2018/03/08 07:09:11","新北市石碇區碇坪路一段18號","121.651803333333","25.005395","6501900","石碇區"
"227007","282-VK","2018/03/08 07:09:17","新北市雙溪區新基里自強路5號","121.866366666667","25.0390616666667","6502500","雙溪區"
"252004","249-BX","2018/03/08 07:09:15","新北市三芝區錫板里小坑子20號","121.500963333333","25.2354233333333","6502100","三芝區"
"252007","AAC-283","2018/03/08 07:09:22","新北市三芝區古庄里山豬堀2-2號","121.499581666667","25.24934","6502100","三芝區"
"236009","165-UM","2018/03/08 07:09:11","新北市土城區中華路二段178號","121.437536666667","24.971805","6501300","土城區"
"236003","339-SR","2018/03/08 07:09:18","新北市土城區忠義路45巷2號","121.440888333333","24.9694766666667","6501300","土城區"
"220057","282-UM","2018/03/08 07:09:09","新北市板橋區國光路51號","121.458093333333","25.018015","6500100","板橋區"
