"lineid","car","time","location","longitude","latitude","cityid","cityname"
"248005","653-BX","2018/03/08 07:19:17","新北市五股區明德路12巷6號","121.433336666667","25.071845","6501500","五股區"
"232001","290-BY","2018/03/08 07:19:13","新北市坪林區桶盤嶼8-2號","121.707211666667","24.95748","6502000","坪林區"
"232014","291-BY","2018/03/08 07:19:28","新北市坪林區金瓜寮16-8號","121.682198333333","24.916355","6502000","坪林區"
"232010","375-UM","2018/03/08 07:19:20","新北市坪林區水聳淒坑7-8號","121.725246666667","24.92738","6502000","坪林區"
"232018","705-BZ","2018/03/08 07:19:11","新北市坪林區樟空子5-1號","121.727288333333","24.9674433333333","6502000","坪林區"
"232007","758-BX","2018/03/08 07:19:13","新北市坪林區魚堀42號","121.701256666667","24.9324033333333","6502000","坪林區"
"244004","248-BX","2018/03/08 07:19:24","新北市林口區南勢里71-36號","121.357486666667","25.0789883333333","6501700","林口區"
"222006","289-BY","2018/03/08 07:08:22","新北市深坑區深坑街75號","121.614658333333","25.0011233333333","6501800","深坑區"
"235001","611-BX","2018/03/08 07:19:24","新北市中和區圓通路367巷4號","121.491363333333","24.9891733333333","6500300","中和區"
"226005","5620-A6","2018/03/08 07:17:06","新北市平溪區菁桐里二坑路5號","121.721193333333","25.024295","6502400","平溪區"
"226002","7418-A5","2018/03/08 07:19:29","新北市平溪區靜安路三段10號","121.7494","25.0260783333333","6502400","平溪區"
"226003","AGD-0702","2018/03/08 07:19:16","新北市平溪區嶺腳里嶺腳寮70號","121.74844","25.031565","6502400","平溪區"
"223006","022-BY","2018/03/08 07:19:12","新北市石碇區雙溪79號","121.658078333333","25.0069366666667","6501900","石碇區"
"223001","205-TH","2018/03/08 07:19:05","新北市石碇區烏塗窟1-1號","121.655315","24.9759633333333","6501900","石碇區"
"223008","406-TH","2018/03/08 07:19:14","新北市石碇區靜安路一段121號","121.669733333333","25.0065483333333","6501900","石碇區"
"223001","592-UM","2018/03/08 07:19:29","新北市石碇區蓬菜寮5-1號","121.651976666667","24.9738733333333","6501900","石碇區"
"223004","660-BX","2018/03/08 07:19:31","新北市石碇區新興坑4號","121.653613333333","25.016795","6501900","石碇區"
"223007","661-BX","2018/03/08 07:19:19","新北市石碇區十八重溪86-2號","121.67153","25.0099933333333","6501900","石碇區"
"223005","677-TV","2018/03/08 07:19:11","新北市石碇區新興坑4-1號","121.65407","25.0166133333333","6501900","石碇區"
"227007","282-VK","2018/03/08 07:19:18","新北市雙溪區新基里自強路5號","121.866338333333","25.039055","6502500","雙溪區"
"252004","249-BX","2018/03/08 07:19:15","新北市三芝區店子里龜子山4號","121.502361666667","25.220685","6502100","三芝區"
"252007","AAC-283","2018/03/08 07:19:22","新北市三芝區錫板里小坑子1號","121.491908333333","25.2482516666667","6502100","三芝區"
"236009","165-UM","2018/03/08 07:19:31","新北市土城區中央路一段21號","121.448475","24.99097","6501300","土城區"
"236003","339-SR","2018/03/08 07:19:17","新北市土城區和平路38-10號","121.447445","24.9700966666667","6501300","土城區"
"242052","751-BX","2018/03/08 07:19:20","新北市新莊區新泰路357巷3弄57號","121.442156666667","25.0391333333333","6500500","新莊區"
"242022","362-BY","2018/03/08 07:19:12","新北市新莊區三和路12-21號","121.442136666667","25.03859","6500500","新莊區"
"242012","351-TH","2018/03/08 07:19:13","新北市新莊區新泰路357巷3弄57號","121.442078333333","25.039455","6500500","新莊區"
"220057","282-UM","2018/03/08 07:19:30","新北市板橋區國光路49巷2號","121.458073333333","25.01805","6500100","板橋區"
