"lineid","car","time","location","longitude","latitude","cityid","cityname"
"248005","653-BX","2018/03/08 07:49:17","新北市五股區明德路12巷3號","121.433201666667","25.07176","6501500","五股區"
"232001","290-BY","2018/03/08 07:49:13","新北市坪林區下坑子口18-2號","121.709315","24.9465483333333","6502000","坪林區"
"232014","291-BY","2018/03/08 07:49:09","新北市坪林區九芎根1號","121.669533333333","24.8888083333333","6502000","坪林區"
"232010","375-UM","2018/03/08 07:49:20","新北市坪林區厚德岡坑2-1號","121.7284","24.9416716666667","6502000","坪林區"
"232007","758-BX","2018/03/08 07:49:13","新北市坪林區九芎林32號","121.702543333333","24.9217366666667","6502000","坪林區"
"244004","248-BX","2018/03/08 07:49:25","新北市林口區頂福里73-6號","121.338685","25.0911983333333","6501700","林口區"
"244024","742-UY","2018/03/08 07:49:31","新北市林口區粉寮路二段160巷28號","121.405181666667","25.0908083333333","6501700","林口區"
"222006","289-BY","2018/03/08 07:49:16","新北市深坑區文化街60號","121.618591666667","25.0014083333333","6501800","深坑區"
"231008","192-VK","2018/03/08 07:49:23","新北市新店區安華路28-1號","121.519681666667","24.9614116666667","6500600","新店區"
"235001","611-BX","2018/03/08 07:49:24","新北市中和區圓通路367巷6號","121.491406666667","24.98917","6500300","中和區"
"226005","5620-A6","2018/03/08 07:49:26","新北市平溪區石底里公園街18-3號","121.733458333333","25.0256416666667","6502400","平溪區"
"226002","7418-A5","2018/03/08 07:49:29","新北市平溪區平湖里坑頭3號","121.783105","25.026075","6502400","平溪區"
"226003","AGD-0702","2018/03/08 07:37:16","新北市平溪區嶺腳里嶺腳寮83-2號","121.75062","25.0351033333333","6502400","平溪區"
"223006","022-BY","2018/03/08 07:49:12","新北市石碇區雙溪35號","121.650363333333","25.008685","6501900","石碇區"
"223001","205-TH","2018/03/08 07:46:16","新北市石碇區蛇舌子3號","121.665061666667","24.967705","6501900","石碇區"
"223008","406-TH","2018/03/08 07:49:14","新北市石碇區靜安路一段337號","121.699073333333","25.0147583333333","6501900","石碇區"
"223001","592-UM","2018/03/08 07:49:29","新北市石碇區樟空子2號","121.664375","24.962385","6501900","石碇區"
"223004","660-BX","2018/03/08 07:49:10","新北市石碇區楓子林8號","121.642248333333","25.00949","6501900","石碇區"
"223007","661-BX","2018/03/08 07:49:19","新北市石碇區大溪墘17號","121.692301666667","25.0081966666667","6501900","石碇區"
"223005","677-TV","2018/03/08 07:49:22","新北市石碇區楓子林30號","121.642331666667","25.0096183333333","6501900","石碇區"
"227007","282-VK","2018/03/08 07:49:17","新北市雙溪區雙溪里太平路54號","121.864803333333","25.0354566666667","6502500","雙溪區"
"252004","249-BX","2018/03/08 07:49:15","新北市三芝區店子里菜公坑78號","121.50921","25.2039833333333","6502100","三芝區"
"252007","AAC-283","2018/03/08 07:49:22","新北市三芝區古庄里四棧橋48-1號","121.482746666667","25.2642083333333","6502100","三芝區"
"237001","159-UY","2018/03/08 07:49:21","新北市三峽區國慶路301號","121.374241666667","24.9407866666667","6500900","三峽區"
"236009","165-UM","2018/03/08 07:49:11","新北市土城區清水路269號","121.46368","24.9852916666667","6501300","土城區"
"236003","339-SR","2018/03/08 07:49:17","新北市土城區南天母路192號","121.448776666667","24.9502383333333","6501300","土城區"
"242028","986-R7","2018/03/08 07:49:17","新北市新莊區新泰路357巷3弄49號","121.442285","25.0401016666667","6500500","新莊區"
"242052","751-BX","2018/03/08 07:49:20","新北市新莊區環河路506號","121.438651666667","25.0165116666667","6500500","新莊區"
"242024","615-BX","2018/03/08 07:49:32","新北市新莊區復興路一段99號","121.448936666667","25.042805","6500500","新莊區"
"242024","613-BX","2018/03/08 07:49:13","新北市新莊區中港一街161號","121.447028333333","25.04492","6500500","新莊區"
"242028","612-BX","2018/03/08 07:49:20","新北市新莊區幸福路766號","121.447113333333","25.049225","6500500","新莊區"
"242040","566-BX","2018/03/08 07:49:25","新北市新莊區中正路487號","121.441065","25.0334916666667","6500500","新莊區"
"242045","497-BY","2018/03/08 07:49:31","新北市新莊區中正路471號","121.441911666667","25.033485","6500500","新莊區"
"242030","442-UM","2018/03/08 07:49:22","新北市新莊區中環路二段392-1號","121.442353333333","25.0457416666667","6500500","新莊區"
"242049","441-UM","2018/03/08 07:49:27","新北市新莊區瓊林路59-88號","121.439688333333","25.0212166666667","6500500","新莊區"
"242055","440-UM","2018/03/08 07:49:23","新北市新莊區中正路473-1號","121.441923333333","25.0331483333333","6500500","新莊區"
"242035","415-TV","2018/03/08 07:49:27","新北市新莊區中正路400號","121.441598333333","25.0339016666667","6500500","新莊區"
"242006","413-TV","2018/03/08 07:49:19","新北市新莊區新泰路488號","121.442421666667","25.0458533333333","6500500","新莊區"
"242043","400-BY","2018/03/08 07:49:25","新北市新莊區福營路308號","121.422331666667","25.0273633333333","6500500","新莊區"
"242022","362-BY","2018/03/08 07:49:12","新北市新莊區中港路333號","121.452416666667","25.0452116666667","6500500","新莊區"
"242059","353-BY","2018/03/08 07:49:15","新北市新莊區三和路12-21號","121.442265","25.0379","6500500","新莊區"
"242008","132-UY","2018/03/08 07:49:24","新北市新莊區中環路二段392-1號","121.442433333333","25.0456916666667","6500500","新莊區"
"242038","133-UY","2018/03/08 07:49:20","新北市新莊區中正路481號","121.44124","25.0338133333333","6500500","新莊區"
"242047","172-VK","2018/03/08 07:49:22","新北市新莊區龍安路253號","121.419698333333","25.0200233333333","6500500","新莊區"
"242014","346-TH","2018/03/08 07:49:29","新北市新莊區建中街141號","121.445018333333","25.036515","6500500","新莊區"
"242020","348-TH","2018/03/08 07:49:10","新北市新莊區中港路132巷2號","121.455435","25.0405416666667","6500500","新莊區"
"242001","349-TH","2018/03/08 07:49:14","新北市新莊區三和路12-15號","121.442341666667","25.0372683333333","6500500","新莊區"
"242018","350-TH","2018/03/08 07:49:23","新北市新莊區中港路270號","121.45317","25.0439383333333","6500500","新莊區"
"242012","351-TH","2018/03/08 07:49:13","新北市新莊區中和街59巷22號","121.446483333333","25.0466766666667","6500500","新莊區"
"220057","282-UM","2018/03/08 07:49:09","新北市板橋區南雅南路一段8號","121.455966666667","25.006345","6500100","板橋區"
"242016","281-VK","2018/03/08 07:49:25","新北市新莊區中華路一段75號","121.45139","25.0413083333333","6500500","新莊區"
"242033","280-VK","2018/03/08 07:49:06","新北市新莊區中正路471號","121.44199","25.0334116666667","6500500","新莊區"
