"lineid","car","time","location","longitude","latitude","cityid","cityname"
"234070","149-BY","2018/07/26 08:39:40","新北市永和區中正路42巷13號","121.513958333333","24.99411","6500400","永和區"
"248005","653-BX","2018/07/26 08:39:36","新北市五股區明德路12巷1號","121.433336666667","25.0717616666667","6501500","五股區"
"232001","290-BY","2018/07/26 08:39:35","新北市坪林區虎寮潭1-3號","121.742945","24.95417","6502000","坪林區"
"232014","291-BY","2018/07/26 08:39:30","新北市坪林區北宜路八段373號","121.708328333333","24.930165","6502000","坪林區"
"244006","080-UY","2018/07/26 08:39:47","新北市林口區佳林路33號","121.386696666667","25.0819716666667","6501700","林口區"
"244003","248-BX","2018/07/26 08:39:31","新北市林口區下福12號","121.31454","25.1100716666667","6501700","林口區"
"244018","403-UM","2018/07/26 08:39:34","新北市林口區文化一路一段83巷14弄80號","121.373118333333","25.0720666666667","6501700","林口區"
"244012","742-UY","2018/07/26 08:39:35","新北市林口區林口路50號","121.390588333333","25.0788866666667","6501700","林口區"
"244008","410-SL","2018/07/26 08:39:39","新北市林口區文化一路二段226號","121.384013333333","25.0823766666667","6501700","林口區"
"244022","483-VK","2018/07/26 08:39:39","新北市林口區興林路152巷28號","121.38747","25.071775","6501700","林口區"
"244016","485-VK","2018/07/26 08:39:44","新北市林口區忠孝路468號","121.369883333333","25.070885","6501700","林口區"
"244010","657-BX","2018/07/26 08:39:49","新北市林口區中正路52號","121.395198333333","25.0774266666667","6501700","林口區"
"244024","837-TS","2018/07/26 08:39:46","新北市林口區文化北路一段281號","121.359508333333","25.0722466666667","6501700","林口區"
"244020","838-TS","2018/07/26 08:39:45","新北市林口區自強六街2號","121.400158333333","25.0768583333333","6501700","林口區"
"222006","289-BY","2018/07/26 08:39:34","新北市深坑區風格街2號","121.626768333333","25.0166483333333","6501800","深坑區"
"231069","189-VK","2018/07/26 08:39:30","新北市新店區新潭路二段61號","121.521955","24.9262466666667","6500600","新店區"
"231008","192-VK","2018/07/26 08:39:35","新北市新店區新烏路三段266號","121.550428333333","24.899805","6500600","新店區"
"235001","611-BX","2018/07/26 08:39:49","新北市中和區民利街14巷5弄20號","121.4798","24.9994366666667","6500300","中和區"
"247009","341-TH","2018/07/26 08:39:34","新北市蘆洲區和平路121巷12號","121.46694","25.07969","6501400","蘆洲區"
"226005","5620-A6","2018/07/26 08:39:23","新北市平溪區南山里南山坪105號","121.780556666667","25.0422383333333","6502400","平溪區"
"226007","7418-A5","2018/07/26 08:39:25","新北市平溪區東勢里芊蓁坑9號","121.73728","24.9945466666667","6502400","平溪區"
"226003","AGD-0702","2018/07/26 08:39:34","新北市平溪區新寮里月桃寮路3-7號","121.786066666667","25.052855","6502400","平溪區"
"223006","022-BY","2018/07/26 08:33:08","新北市深坑區昇高坑路51-1號","121.630563333333","24.9937183333333","6501900","石碇區"
"223003","205-TH","2018/07/26 08:39:41","新北市石碇區北宜路六段柑腳巷2號","121.659626666667","24.9380566666667","6501900","石碇區"
"223008","406-TH","2018/07/26 08:39:49","新北市石碇區碇南路二段松柏崎巷37-1號","121.67889","25.0231966666667","6501900","石碇區"
"223001","592-UM","2018/07/26 08:39:50","新北市石碇區北宜路六段柑腳巷1-1號","121.659738333333","24.93951","6501900","石碇區"
"223004","660-BX","2018/07/26 08:39:35","新北市石碇區崩山45號","121.679748333333","24.9682166666667","6501900","石碇區"
"223007","661-BX","2018/07/26 08:39:34","新北市石碇區碇南路二段松柏崎巷12號","121.675725","25.018055","6501900","石碇區"
"223005","677-TV","2018/07/26 08:39:44","新北市石碇區崩山43-2號","121.680433333333","24.9667366666667","6501900","石碇區"
"252004","249-BX","2018/07/26 08:39:35","新北市三芝區興華里田心子12-2號","121.492688333333","25.2058033333333","6502100","三芝區"
"252007","AAC-283","2018/07/26 08:39:37","新北市三芝區後厝里番子崙12-1號","121.490551666667","25.2381266666667","6502100","三芝區"
"237001","159-UY","2018/07/26 08:39:36","新北市三峽區學成路343號","121.376126666667","24.94475","6500900","三峽區"
"236009","165-UM","2018/07/26 08:39:51","新北市土城區石門路54號","121.457175","24.959815","6501300","土城區"
"236003","339-SR","2018/07/26 08:39:43","新北市土城區中山路25號","121.41893","24.96248","6501300","土城區"
"236005","498-BY","2018/07/26 08:39:34","新北市土城區永安街99號","121.43005","24.9637616666667","6501300","土城區"
"242033","AAC-296","2018/07/26 08:39:30","新北市新莊區新泰路107號","121.448918333333","25.035055","6500500","新莊區"
"242057","986-R7","2018/07/26 08:39:46","桃園市龜山區萬壽路一段9號","121.410373333333","25.0209433333333","6500500","新莊區"
"242052","751-BX","2018/07/26 08:39:49","新北市新莊區民安西路409號","121.430203333333","25.0090766666667","6500500","新莊區"
"242028","705-TV","2018/07/26 08:39:46","新北市新莊區中平路288-17號","121.444835","25.0512766666667","6500500","新莊區"
"242026","615-BX","2018/07/26 08:39:46","新北市新莊區幸福路763-1號","121.447858333333","25.0490316666667","6500500","新莊區"
"242024","613-BX","2018/07/26 08:39:44","新北市新莊區五工二路94巷19號","121.45998","25.0673716666667","6500500","新莊區"
"242040","566-BX","2018/07/26 08:39:30","新北市新莊區天祥街80號","121.415688333333","25.029415","6500500","新莊區"
"242045","497-BY","2018/07/26 08:39:50","新北市新莊區福營路338號","121.421625","25.0267883333333","6500500","新莊區"
"242049","441-UM","2018/07/26 08:39:47","新北市新莊區西盛街151號","121.42826","25.01809","6500500","新莊區"
"242055","440-UM","2018/07/26 08:39:33","新北市新莊區豐年街豐2巷17號","121.447233333333","25.0308283333333","6500500","新莊區"
"242006","413-TV","2018/07/26 08:39:43","新北市新莊區思源路585號","121.45976","25.0592616666667","6500500","新莊區"
"242043","400-BY","2018/07/26 08:39:40","新北市新莊區天泉二街24巷1號","121.414625","25.025495","6500500","新莊區"
"242022","362-BY","2018/07/26 08:39:41","新北市新莊區化成路380-1號","121.465936666667","25.0500483333333","6500500","新莊區"
"242059","353-BY","2018/07/26 08:39:47","新北市新莊區新樹路247號","121.434921666667","25.0221266666667","6500500","新莊區"
"242008","132-UY","2018/07/26 08:39:34","新北市新莊區昌平街71巷17號","121.453613333333","25.053445","6500500","新莊區"
"242038","133-UY","2018/07/26 08:39:36","新北市新莊區民安路299巷24號","121.429271666667","25.0231583333333","6500500","新莊區"
"242030","135-UY","2018/07/26 08:39:49","新北市新莊區新泰路277巷43弄17號","121.443906666667","25.0398833333333","6500500","新莊區"
"242010","173-VK","2018/07/26 08:39:44","新北市新莊區中港路591巷22號","121.450008333333","25.0525616666667","6500500","新莊區"
"242016","175-VK","2018/07/26 08:39:40","新北市新莊區中港路360號","121.452001666667","25.0469716666667","6500500","新莊區"
"242003","176-VK","2018/07/26 08:39:45","新北市新莊區化成路11巷21號","121.464083333333","25.0434366666667","6500500","新莊區"
"242014","347-TH","2018/07/26 08:39:43","新北市新莊區中平路184巷10弄18號","121.44552","25.04829","6500500","新莊區"
"242020","348-TH","2018/07/26 08:39:45","新北市新莊區新興街17號","121.450658333333","25.0369133333333","6500500","新莊區"
"242001","349-TH","2018/07/26 08:39:39","新北市新莊區新泰路2-11號","121.450086666667","25.0325183333333","6500500","新莊區"
"242018","350-TH","2018/07/26 08:39:45","新北市新莊區民生街15巷14號","121.455333333333","25.0426266666667","6500500","新莊區"
"242012","351-TH","2018/07/26 08:39:36","新北市新莊區中誠街53巷38號","121.451336666667","25.0470316666667","6500500","新莊區"
"242047","281-VK","2018/07/26 08:39:42","新北市新莊區民安路49號","121.423901666667","25.0261283333333","6500500","新莊區"
"242035","280-VK","2018/07/26 08:39:40","新北市新莊區民安路207巷12弄1號","121.426893333333","25.0230733333333","6500500","新莊區"
