"lineid","car","time","location","longitude","latitude","cityid","cityname"
"248005","653-BX","2018/07/26 10:29:36","新北市五股區中興路二段37巷26號","121.46054","25.0751266666667","6501500","五股區"
"222006","289-BY","2018/07/26 10:29:34","新北市深坑區阿柔洋35-1號","121.613313333333","24.9975833333333","6501800","深坑區"
"231069","189-VK","2018/07/26 10:29:50","新北市新店區新潭路一段102-1號","121.527735","24.9373983333333","6500600","新店區"
"231008","192-VK","2018/07/26 10:29:34","新北市新店區松林路16巷41號","121.547013333333","24.90765","6500600","新店區"
"235029","098-UM","2018/07/26 10:29:39","新北市中和區員山路36巷16-3號","121.485125","24.9913466666667","6500300","中和區"
"247009","341-TH","2018/07/26 10:29:34","新北市蘆洲區中山一路287號","121.471848333333","25.0795","6501400","蘆洲區"
"252007","AAC-283","2018/07/26 10:29:37","新北市三芝區新庄里番社后4-4號","121.501501666667","25.2675566666667","6502100","三芝區"
"237001","159-UY","2018/07/26 10:29:35","新北市三峽區中山路459巷163-1號","121.349298333333","24.9334033333333","6500900","三峽區"
