"lineid","car","time","location","longitude","latitude","cityid","cityname"
"234044","148-BY","2018/07/26 11:49:38","新北市永和區福和路1號","121.526223333333","25.00971","6500400","永和區"
"231008","192-VK","2018/07/26 11:49:34","新北市新店區屈尺路161-1號","121.543066666667","24.923685","6500600","新店區"
"235029","098-UM","2018/07/26 11:49:39","新北市中和區員山路36巷16-3號","121.484975","24.9912166666667","6500300","中和區"
"247009","341-TH","2018/07/26 11:23:05","新北市五股區中興路三段2巷10號","121.44892","25.0813833333333","6501400","蘆洲區"
"228005","097-TW","2018/07/26 11:49:39","新北市貢寮區貢寮里朝陽街1-2號","121.91237","25.02126","6502600","貢寮區"
