"lineid","car","time","location","longitude","latitude","cityid","cityname"
"234044","148-BY","2018/07/26 11:59:38","新北市永和區福和路1號","121.526265","25.009815","6500400","永和區"
"231008","192-VK","2018/07/26 11:59:34","新北市新店區屈尺路161-1號","121.542428333333","24.9231233333333","6500600","新店區"
"235029","098-UM","2018/07/26 11:59:39","新北市中和區員山路36巷16-3號","121.485006666667","24.991245","6500300","中和區"
"228005","097-TW","2018/07/26 11:59:39","新北市貢寮區貢寮里朝陽街1-2號","121.912361666667","25.021265","6502600","貢寮區"
"228004","212-TW","2018/07/26 11:59:26","新北市貢寮區貢寮里朝陽街2號","121.91251","25.02175","6502600","貢寮區"
