"lineid","car","time","location","longitude","latitude","cityid","cityname"
"234044","148-BY","2018/07/26 13:09:34","新北市永和區永元路18巷16號","121.523103333333","25.0001566666667","6500400","永和區"
"234070","149-BY","2018/07/26 13:09:23","新北市永和區厚德街83號","121.52437","24.998715","6500400","永和區"
"234005","207-UY","2018/07/26 13:09:19","新北市永和區中山路一段143號","121.510268333333","25.009685","6500400","永和區"
"234078","298-R6","2018/07/26 13:09:38","新北市永和區永貞路39巷13號","121.522441666667","25.0064083333333","6500400","永和區"
"234036","336-UY","2018/07/26 13:09:38","新北市永和區民樂街69巷2號","121.527356666667","24.9975983333333","6500400","永和區"
"234062","337-UY","2018/07/26 13:09:37","新北市永和區秀朗路二段33號","121.52136","25.0024083333333","6500400","永和區"
"234084","338-UY","2018/07/26 13:09:27","新北市永和區永貞路90號","121.519493333333","25.0045133333333","6500400","永和區"
"234068","552-UM","2018/07/26 13:09:41","新北市永和區豫溪街137巷1弄22號","121.518585","25.010455","6500400","永和區"
"234015","745-BX","2018/07/26 13:09:33","新北市永和區文化路90巷17號","121.513765","25.0161816666667","6500400","永和區"
"234028","746-BX","2018/07/26 13:09:31","新北市永和區四維街123號","121.523086666667","24.99825","6500400","永和區"
"234052","KEA-2590","2018/07/26 13:09:37","新北市永和區中興街133巷12號","121.518481666667","25.0124916666667","6500400","永和區"
"234012","KEA-2591","2018/07/26 13:09:37","新北市永和區保福路二段61號","121.510913333333","25.0122316666667","6500400","永和區"
"234060","AAD-866","2018/07/26 13:09:38","新北市永和區安樂路330號","121.514423333333","25.00585","6500400","永和區"
"234040","862-TW","2018/07/26 13:09:28","新北市永和區保平路113號","121.51095","25.00665","6500400","永和區"
"234048","863-TW","2018/07/26 13:09:19","新北市永和區文化路135巷9號","121.51069","25.01436","6500400","永和區"
"234025","9371-KE","2018/07/26 13:09:36","新北市永和區秀朗路一段10巷19號","121.513451666667","25.0061616666667","6500400","永和區"
"234010","9373-KE","2018/07/26 13:09:23","新北市永和區仁愛路31巷2弄2號","121.514185","25.0129783333333","6500400","永和區"
"248013","025-BX","2018/07/26 13:09:30","新北市五股區成泰路一段189巷18-1號","121.433595","25.0764","6501500","五股區"
"248005","077-UY","2018/07/26 13:09:27","新北市五股區中興路二段95號","121.460378333333","25.0774","6501500","五股區"
"248007","095-VK","2018/07/26 13:09:30","新北市五股區更洲路32巷15弄9號","121.458173333333","25.0805","6501500","五股區"
"248017","225-UY","2018/07/26 13:09:26","新北市五股區中興路三段198號","121.441065","25.0828016666667","6501500","五股區"
"248011","247-BX","2018/07/26 13:09:20","新北市五股區中興路三段188號","121.444318333333","25.0812383333333","6501500","五股區"
"248009","272-BY","2018/07/26 13:09:38","新北市五股區新五路二段201號","121.439886666667","25.0816633333333","6501500","五股區"
"248003","677-BX","2018/07/26 13:09:40","新北市五股區成泰路二段138號","121.43815","25.08375","6501500","五股區"
"248001","678-BX","2018/07/26 13:09:26","新北市五股區中興路三段188號","121.444643333333","25.08119","6501500","五股區"
"234022","9380-KE","2018/07/26 13:09:26","新北市永和區中興街10巷29號","121.516398333333","25.011005","6500400","永和區"
"234076","969-R7","2018/07/26 13:09:34","新北市永和區民光街10號","121.515498333333","24.9961233333333","6500400","永和區"
"234072","AAC-211","2018/07/26 13:09:22","新北市永和區竹林路211號","121.520583333333","25.008905","6500400","永和區"
"234066","AAC-212","2018/07/26 13:09:36","新北市永和區永和路一段114-1號","121.513615","25.0074683333333","6500400","永和區"
"234001","AAC-295","2018/07/26 13:09:26","新北市永和區中山路一段2號","121.514311666667","25.0104033333333","6500400","永和區"
"244003","248-BX","2018/07/26 13:09:26","新北市林口區嘉溪雅坑6-1號","121.341458333333","25.10628","6501700","林口區"
"243005","AAD-798","2018/07/26 13:09:35","新北市泰山區南林路99巷8號","121.415325","25.049785","6501600","泰山區"
"231002","002-UM","2018/07/26 13:09:27","新北市新店區安華路28-1號","121.519671666667","24.96089","6500600","新店區"
"231001","047-UY","2018/07/26 13:09:30","新北市新店區安華路28-1號","121.519273333333","24.96091","6500600","新店區"
"231005","106-UY","2018/07/26 13:09:30","新北市新店區安華路28-1號","121.519773333333","24.960895","6500600","新店區"
"231010","107-UY","2018/07/26 13:09:35","新北市新店區安一路一段1-1號","121.51941","24.9611966666667","6500600","新店區"
"231021","108-UY","2018/07/26 13:09:22","新北市新店區安一路一段1-1號","121.519885","24.961295","6500600","新店區"
"231011","187-VK","2018/07/26 13:09:36","新北市新店區安一路一段1-1號","121.51954","24.9611283333333","6500600","新店區"
"231023","KEA-2219","2018/07/26 13:09:29","新北市新店區安一路一段1-1號","121.519728333333","24.9612933333333","6500600","新店區"
"231003","268-BY","2018/07/26 13:09:22","新北市新店區安華路28-1號","121.519338333333","24.9605983333333","6500600","新店區"
"231051","278-BY","2018/07/26 13:09:37","新北市新店區安一路一段1-1號","121.519681666667","24.9611966666667","6500600","新店區"
"231017","AAD-862","2018/07/26 13:02:16","新北市新店區安華路30巷1號","121.519868333333","24.9597033333333","6500600","新店區"
"231027","3713-VJ","2018/07/26 13:09:29","新北市新店區安華路28-1號","121.51931","24.9606783333333","6500600","新店區"
"231037","4716-K9","2018/07/26 13:09:30","新北市新店區安一路一段1-1號","121.51939","24.9613416666667","6500600","新店區"
"231025","4715-K9","2018/07/26 13:09:23","新北市新店區安華路8號","121.519823333333","24.9622883333333","6500600","新店區"
"231036","512-UM","2018/07/26 13:09:31","新北市新店區安一路一段1-1號","121.519303333333","24.9613783333333","6500600","新店區"
"231013","513-UM","2018/07/26 13:09:22","新北市新店區安一路一段1-1號","121.519686666667","24.9611283333333","6500600","新店區"
"231034","616-UM","2018/07/26 13:09:29","新北市新店區安華路28-1號","121.519323333333","24.9605833333333","6500600","新店區"
"231006","617-UM","2018/07/26 13:09:39","新北市新店區安華路28-1號","121.519683333333","24.9608366666667","6500600","新店區"
"231030","619-UM","2018/07/26 13:09:26","新北市新店區安華路28-1號","121.519453333333","24.9609716666667","6500600","新店區"
"231035","719-UM","2018/07/26 13:09:40","新北市新店區安一路一段1-1號","121.519501666667","24.9611366666667","6500600","新店區"
"231031","720-UM","2018/07/26 13:09:26","新北市新店區安一路一段1-1號","121.51925","24.96125","6500600","新店區"
"231029","897-TW","2018/07/26 13:09:26","新北市新店區安華路28-1號","121.519643333333","24.96091","6500600","新店區"
"231004","899-TW","2018/07/26 13:09:35","新北市新店區安華路28-1號","121.519285","24.9608416666667","6500600","新店區"
"231024","AKT-0513","2018/07/26 13:09:38","新北市新店區安華路28-1號","121.51949","24.960595","6500600","新店區"
"235030","003-UY","2018/07/26 13:09:34","新北市中和區泰和街2號","121.500048333333","25.0012116666667","6500300","中和區"
"235028","005-UY","2018/07/26 13:09:28","新北市中和區中正路277-6號","121.495168333333","24.993705","6500300","中和區"
"235027","006-UY","2018/07/26 13:09:28","新北市中和區員山路36巷16-3號","121.485015","24.9913133333333","6500300","中和區"
"235003","097-UM","2018/07/26 13:09:26","新北市中和區和城路一段271巷1號","121.48545","24.9922","6500300","中和區"
"235029","098-UM","2018/07/26 13:09:39","新北市中和區莊敬路49巷20弄20號","121.502673333333","25.005835","6500300","中和區"
"235022","151-BY","2018/07/26 13:09:27","新北市中和區圓通路367巷61弄4號","121.491996666667","24.9830583333333","6500300","中和區"
"235031","255-BX","2018/07/26 13:09:35","新北市中和區中正路839巷29號","121.483505","25.0021983333333","6500300","中和區"
"235014","4979-A6","2018/07/26 13:09:40","新北市中和區錦和路350-1號","121.490143333333","24.9935516666667","6500300","中和區"
"235006","551-UM","2018/07/26 13:09:20","新北市中和區興南路三段35號","121.496926666667","24.978175","6500300","中和區"
"235034","558-UM","2018/07/26 13:09:24","新北市中和區中正路637巷60弄61號","121.48544","24.9930483333333","6500300","中和區"
"235009","565-BX","2018/07/26 13:09:25","新北市中和區員山路36巷13號","121.484201666667","24.99095","6500300","中和區"
"235001","611-BX","2018/07/26 13:09:28","新北市板橋區長安街138巷3弄71號","121.474501666667","25.0093866666667","6500300","中和區"
"235018","640-BX","2018/07/26 13:09:36","新北市中和區莒光路163號","121.472763333333","25.0002216666667","6500300","中和區"
"235011","732-UM","2018/07/26 13:09:32","新北市中和區中正路637巷60弄61號","121.485431666667","24.99294","6500300","中和區"
"235035","783-BX","2018/07/26 13:09:40","新北市中和區板南路520巷8號","121.483961666667","25.0087683333333","6500300","中和區"
"235026","800-TS","2018/07/26 13:09:31","新北市中和區建八路134號","121.48932","24.99845","6500300","中和區"
"235021","801-TS","2018/07/26 13:09:37","新北市中和區員山路36巷16-3號","121.4849","24.9917283333333","6500300","中和區"
"235005","802-TS","2018/07/26 13:09:26","新北市中和區錦和路350-1號","121.490533333333","24.993585","6500300","中和區"
"235016","805-TS","2018/07/26 13:09:36","新北市中和區中正路273號","121.49568","24.9937066666667","6500300","中和區"
"235015","157-BY","2018/07/26 13:09:38","新北市中和區板南路190-1號","121.500175","24.992885","6500300","中和區"
"235001","AAC-213","2018/07/26 13:09:19","新北市中和區景平路155號","121.513665","24.9921966666667","6500300","中和區"
"235002","251-BX","2018/07/26 13:09:34","新北市中和區景平路116號","121.51954","24.9918366666667","6500300","中和區"
"228005","097-TW","2018/07/26 13:09:38","新北市貢寮區仁理村研海街45號","121.925818333333","25.042695","6502600","貢寮區"
"228004","212-TW","2018/07/26 13:09:26","新北市貢寮區吉林里內寮街75號","121.891285","24.9723333333333","6502600","貢寮區"
"253003","6232-TK","2018/07/26 13:09:20","新北市石門區石崩山7號","121.565863333333","25.28274","6502200","石門區"
"253001","6251-TK","2018/07/26 13:09:27","新北市石門區楓林6號","121.537033333333","25.297275","6502200","石門區"
"253002","637-UY","2018/07/26 13:09:37","新北市石門區老崩山33號","121.557686666667","25.276835","6502200","石門區"
"253004","8270-PC","2018/07/26 13:09:35","新北市石門區阿里荖42-1號","121.604103333333","25.28478","6502200","石門區"
"207002","749-BX","2018/07/26 13:08:43","新北市萬里區溪底里香員林路16號","121.634578333333","25.1611483333333","6502800","萬里區"
"207001","662-BX","2018/07/26 13:09:33","新北市萬里區萬里里瑪鋉路48號","121.689515","25.17771","6502800","萬里區"
"252005","AAC-283","2018/07/26 13:09:36","新北市三芝區八賢里八連溪1號","121.5087","25.24695","6502100","三芝區"
"236005","498-BY","2018/07/26 13:09:33","新北市土城區亞洲路60號","121.435361666667","24.9734333333333","6501300","土城區"
"221032","280-BY","2018/07/26 13:09:36","新北市汐止區建成路57巷1號","121.662451666667","25.0725566666667","6501100","汐止區"
"242047","281-VK","2018/07/26 13:09:37","新北市新莊區新樹路157號","121.436721666667","25.0256216666667","6500500","新莊區"
"235032","KEA-2873","2018/07/26 13:09:36","新北市中和區員山路36巷16-3號","121.484971666667","24.99132","6500300","中和區"
"235025","KEA-2875","2018/07/26 13:09:37","新北市中和區連城路607號","121.477953333333","24.9931583333333","6500300","中和區"
