"lineid","car","time","location","longitude","latitude","cityid","cityname"
"234070","149-BY","2018/07/26 14:19:43","新北市永和區環河西路二段177-1號","121.50488","25.0135383333333","6500400","永和區"
"234005","207-UY","2018/07/26 14:19:40","新北市永和區中山路一段206號","121.508766666667","25.008625","6500400","永和區"
"234078","298-R6","2018/07/26 14:19:41","新北市永和區永亨路98號","121.523078333333","25.0047166666667","6500400","永和區"
"234036","336-UY","2018/07/26 14:19:38","新北市永和區成功路一段93巷21弄1號","121.528148333333","25.002765","6500400","永和區"
"234062","337-UY","2018/07/26 14:19:42","新北市永和區得和路166號","121.519478333333","24.99993","6500400","永和區"
"234084","338-UY","2018/07/26 14:19:37","新北市永和區永和路二段93號","121.514816666667","25.0115183333333","6500400","永和區"
"234068","552-UM","2018/07/26 14:19:41","新北市永和區福和路263巷16號","121.517925","25.00667","6500400","永和區"
"234028","746-BX","2018/07/26 14:19:31","新北市永和區民權路49巷17號","121.520918333333","24.9973283333333","6500400","永和區"
"234052","KEA-2590","2018/07/26 14:19:32","新北市永和區博愛街20巷2號","121.51772","25.0158083333333","6500400","永和區"
"234012","KEA-2591","2018/07/26 14:19:37","新北市永和區保生路62號","121.505286666667","25.008925","6500400","永和區"
"234060","AAD-866","2018/07/26 14:19:39","新北市永和區安樂路194巷5號","121.515388333333","25.00128","6500400","永和區"
"234040","862-TW","2018/07/26 14:19:28","新北市中和區中安街188號","121.51124","24.9993516666667","6500400","永和區"
"234048","863-TW","2018/07/26 14:19:39","新北市永和區文化路177號","121.509791666667","25.01689","6500400","永和區"
"234025","9371-KE","2018/07/26 14:19:36","新北市永和區安樂路144巷29號","121.515155","24.999745","6500400","永和區"
"248015","026-BX","2018/07/26 14:19:42","新北市五股區成洲五路20號","121.45244","25.1015983333333","6501500","五股區"
"248007","095-VK","2018/07/26 14:19:30","新北市五股區中興路二段83巷26-6號","121.460058333333","25.0753016666667","6501500","五股區"
"248017","225-UY","2018/07/26 14:19:26","新北市五股區壟路7-2號","121.416228333333","25.08945","6501500","五股區"
"248011","247-BX","2018/07/26 14:19:40","新北市五股區中興路四段48巷16號","121.438471666667","25.08334","6501500","五股區"
"248009","272-BY","2018/07/26 14:19:38","新北市五股區水碓二路1號","121.430573333333","25.0712733333333","6501500","五股區"
"248003","677-BX","2018/07/26 14:19:43","新北市五股區五福路59號","121.432808333333","25.0900866666667","6501500","五股區"
"248001","678-BX","2018/07/26 14:19:26","新北市五股區成泰路三段544-18號","121.45278","25.1034733333333","6501500","五股區"
"234022","9380-KE","2018/07/26 14:19:41","新北市永和區光復街2巷16弄27號","121.51806","25.0163783333333","6500400","永和區"
"234076","969-R7","2018/07/26 14:19:34","新北市永和區民族街81巷28號","121.51907","24.9966166666667","6500400","永和區"
"234072","AAC-211","2018/07/26 14:19:42","新北市永和區竹林路119巷40號","121.52281","25.011595","6500400","永和區"
"234066","AAC-212","2018/07/26 14:19:36","新北市永和區中山路一段281巷2弄1號","121.507316666667","25.00655","6500400","永和區"
"234001","AAC-295","2018/07/26 14:19:46","新北市永和區中正路660-1號","121.516843333333","25.0086416666667","6500400","永和區"
"243005","AAD-798","2018/07/26 14:19:41","新北市泰山區明志路三段145巷53弄2號","121.42668","25.0393283333333","6501600","泰山區"
"243001","297-R6","2018/07/26 14:19:42","新北市泰山區和平街13巷68號","121.43449","25.06635","6501600","泰山區"
"243008","380-SR","2018/07/26 14:19:40","新北市泰山區明志路三段159號","121.424718333333","25.0396416666667","6501600","泰山區"
"243007","421-VK","2018/07/26 14:19:38","新北市泰山區明志路二段1號","121.430205","25.05382","6501600","泰山區"
"243003","KEA-2215","2018/07/26 14:19:45","新北市泰山區貴子路17號","121.42636","25.0417766666667","6501600","泰山區"
"243002","KEA-2216","2018/07/26 14:19:26","新北市泰山區明志路一段507號","121.43063","25.05445","6501600","泰山區"
"243004","646-TV","2018/07/26 14:19:31","新北市泰山區仁義路220巷3號","121.4328","25.0534","6501600","泰山區"
"243006","680-BX","2018/07/26 14:19:34","新北市泰山區泰林路二段204號","121.433331666667","25.06136","6501600","泰山區"
"231002","002-UM","2018/07/26 14:19:27","新北市新店區中正路485號","121.533878333333","24.981975","6500600","新店區"
"231028","046-UY","2018/07/26 14:19:47","新北市新店區安和路二段213號","121.51767","24.975485","6500600","新店區"
"231001","047-UY","2018/07/26 14:19:30","新北市新店區北新路一段90號","121.542038333333","24.96851","6500600","新店區"
"231005","106-UY","2018/07/26 14:19:30","新北市新店區中興路三段216號","121.543593333333","24.982545","6500600","新店區"
"231021","108-UY","2018/07/26 14:19:42","新北市新店區新烏路二段140號","121.548896666667","24.9192083333333","6500600","新店區"
"231036","110-UY","2018/07/26 14:19:28","新北市新店區安祥路142號","121.474258333333","24.9554816666667","6500600","新店區"
"231011","187-VK","2018/07/26 14:19:36","新北市新店區五峰路63巷8弄44號","121.548006666667","24.9685966666667","6500600","新店區"
"231023","KEA-2219","2018/07/26 14:19:49","新北市新店區光明街80號","121.5387","24.9599616666667","6500600","新店區"
"231003","268-BY","2018/07/26 14:19:42","新北市新店區中興路一段201號","121.543563333333","24.9653566666667","6500600","新店區"
"231018","278-BY","2018/07/26 14:19:45","新北市新店區中央四街12號","121.529436666667","24.97387","6500600","新店區"
"231017","AAD-862","2018/07/26 14:19:45","新北市新店區北宜路二段470號","121.569991666667","24.955635","6500600","新店區"
"231038","3712-VJ","2018/07/26 14:19:46","新北市新店區溪洲路6巷10號","121.533986666667","24.9615633333333","6500600","新店區"
"231027","3713-VJ","2018/07/26 14:19:32","新北市新店區中正路111號","121.54245","24.9706766666667","6500600","新店區"
"231037","4716-K9","2018/07/26 14:19:30","新北市新店區車子路54號","121.503896666667","24.9517466666667","6500600","新店區"
"231013","513-UM","2018/07/26 14:19:42","新北市新店區大豐路65號","121.539593333333","24.979625","6500600","新店區"
"231034","616-UM","2018/07/26 14:19:49","新北市新店區車子路11號","121.50306","24.9520366666667","6500600","新店區"
"231006","617-UM","2018/07/26 14:19:39","新北市新店區北宜路二段599號","121.568198333333","24.9555666666667","6500600","新店區"
"231030","619-UM","2018/07/26 14:19:46","新北市新店區安民街3巷1號","121.514638333333","24.964255","6500600","新店區"
"231035","719-UM","2018/07/26 14:19:42","新北市新店區安民街156巷31號","121.517901666667","24.97006","6500600","新店區"
"231031","720-UM","2018/07/26 14:19:26","新北市新店區溪洲路196-5號","121.530745","24.9661666666667","6500600","新店區"
"231029","897-TW","2018/07/26 14:19:46","新北市新店區安康路二段213號","121.508878333333","24.958885","6500600","新店區"
"231004","899-TW","2018/07/26 14:19:35","新北市新店區北新路二段12號","121.542823333333","24.9712366666667","6500600","新店區"
"231024","AKT-0513","2018/07/26 14:19:38","新北市新店區柴埕路34-1號","121.513465","24.964925","6500600","新店區"
"235030","003-UY","2018/07/26 14:19:34","新北市中和區中和路101號","121.50137","25.00048","6500300","中和區"
"235028","005-UY","2018/07/26 14:19:48","新北市中和區景平路541號","121.498736666667","24.9993883333333","6500300","中和區"
"235027","006-UY","2018/07/26 14:19:48","新北市中和區板南路335號","121.494186666667","24.99769","6500300","中和區"
"235020","096-UM","2018/07/26 14:19:45","新北市中和區員山路511號","121.479875","25.0065066666667","6500300","中和區"
"235003","097-UM","2018/07/26 14:19:46","新北市中和區秀峰街86號","121.519731666667","24.9910983333333","6500300","中和區"
"235029","098-UM","2018/07/26 14:19:39","新北市中和區福美路260號","121.498218333333","25.0051483333333","6500300","中和區"
"235004","150-BY","2018/07/26 14:19:43","新北市中和區宜安路35號","121.512148333333","24.99618","6500300","中和區"
"235022","151-BY","2018/07/26 14:19:47","新北市中和區員山路36巷16-2號","121.485243333333","24.9916633333333","6500300","中和區"
"235019","183-VK","2018/07/26 14:19:37","新北市中和區莒光路5號","121.471995","25.0060666666667","6500300","中和區"
"235013","186-VK","2018/07/26 14:19:46","新北市中和區景新街230號","121.50824","24.99421","6500300","中和區"
"235031","255-BX","2018/07/26 14:19:35","新北市中和區連城路280號","121.484488333333","24.996265","6500300","中和區"
"235008","293-VK","2018/07/26 14:19:36","新北市中和區中興街241號","121.50041","24.9889616666667","6500300","中和區"
"235036","301-VK","2018/07/26 14:19:30","新北市中和區永和路39巷2號","121.498081666667","25.00494","6500300","中和區"
"235007","352-BY","2018/07/26 14:19:37","新北市中和區景平路290號","121.512971666667","24.9929733333333","6500300","中和區"
"247009","KEA-2869","2018/07/26 14:19:28","新北市蘆洲區三民路26巷30號","121.477938333333","25.0829516666667","6501400","蘆洲區"
"235014","4979-A6","2018/07/26 14:19:40","新北市中和區景安路218號","121.503868333333","24.9905516666667","6500300","中和區"
"235033","4980-A6","2018/07/26 14:19:29","新北市中和區景平路736巷1弄7號","121.497333333333","25.0040616666667","6500300","中和區"
"235006","551-UM","2018/07/26 14:19:40","新北市中和區安樂路217巷21弄16號","121.513998333333","24.997775","6500300","中和區"
"235034","558-UM","2018/07/26 14:19:47","新北市中和區中山路二段248號","121.497733333333","25.0025","6500300","中和區"
"235009","565-BX","2018/07/26 14:19:44","新北市中和區景新街383巷55號","121.51366","24.990755","6500300","中和區"
"235018","640-BX","2018/07/26 14:19:36","新北市中和區國光街109巷5號","121.469848333333","25.0001466666667","6500300","中和區"
"235024","647-TV","2018/07/26 14:19:46","新北市中和區中山路三段111號","121.474745","25.0058833333333","6500300","中和區"
"235011","732-UM","2018/07/26 14:19:32","新北市中和區和平街54巷5弄1號","121.508931666667","24.9914216666667","6500300","中和區"
"235010","733-UM","2018/07/26 14:19:47","新北市中和區忠孝街2巷8-5號","121.510378333333","24.9818833333333","6500300","中和區"
"235035","783-BX","2018/07/26 14:19:40","新北市中和區連城路519號","121.482031666667","24.9953516666667","6500300","中和區"
"235026","800-TS","2018/07/26 14:19:31","新北市中和區中山路二段362-6號","121.492175","25.0028683333333","6500300","中和區"
"235021","801-TS","2018/07/26 14:19:36","新北市中和區員山路423巷12弄1號","121.480466666667","25.0031133333333","6500300","中和區"
"235005","802-TS","2018/07/26 14:19:26","新北市中和區中安街226號","121.512196666667","24.9986583333333","6500300","中和區"
"235016","805-TS","2018/07/26 14:19:36","新北市中和區興南路二段124號","121.504453333333","24.9836533333333","6500300","中和區"
"235012","896-TW","2018/07/26 14:19:33","新北市中和區華新街109巷2號","121.508736666667","24.98248","6500300","中和區"
"235017","900-TW","2018/07/26 14:19:32","新北市中和區華安街21巷2號","121.467378333333","24.997515","6500300","中和區"
"235015","157-BY","2018/07/26 14:19:38","新北市中和區和平街54巷1弄2號","121.508665","24.99111","6500300","中和區"
"235001","AAC-213","2018/07/26 14:19:38","新北市中和區秀朗路三段10巷37弄4號","121.524028333333","24.9958866666667","6500300","中和區"
"235023","AAC-215","2018/07/26 14:19:38","新北市中和區圓通路252巷5弄48號","121.492271666667","24.9917733333333","6500300","中和區"
"220013","072-UY","2018/07/26 14:19:27","新北市板橋區民族路129巷5號","121.46757","25.00844","6500100","板橋區"
"220034","073-UY","2018/07/26 14:19:48","新北市板橋區中正路220號","121.455856666667","25.0184716666667","6500100","板橋區"
"220017","AAD-861","2018/07/26 14:19:45","新北市板橋區大華街73號","121.45939","25.0034566666667","6500100","板橋區"
"220105","120-SR","2018/07/26 14:19:44","新北市板橋區雙十路三段67號","121.470183333333","25.0324233333333","6500100","板橋區"
"247023","893-R6","2018/07/26 14:19:38","新北市蘆洲區長榮路665號","121.460133333333","25.0915533333333","6501400","蘆洲區"
"247013","546-UM","2018/07/26 14:19:40","新北市蘆洲區成功路60號","121.472476666667","25.0803916666667","6501400","蘆洲區"
"247021","500-BY","2018/07/26 14:19:48","新北市蘆洲區三民路128巷122號","121.469046666667","25.0912716666667","6501400","蘆洲區"
"247011","339-TH","2018/07/26 14:19:41","新北市蘆洲區民權路3巷14弄15號","121.475121666667","25.08561","6501400","蘆洲區"
"247003","337-TH","2018/07/26 14:19:29","新北市蘆洲區長安街172巷1號","121.459216666667","25.0834716666667","6501400","蘆洲區"
"247005","336-TH","2018/07/26 14:19:48","新北市蘆洲區長安街23巷1號","121.463885","25.0789383333333","6501400","蘆洲區"
"247017","057-VK","2018/07/26 14:19:35","新北市蘆洲區民權路60號","121.47527","25.087105","6501400","蘆洲區"
"247015","007-UY","2018/07/26 14:19:41","新北市蘆洲區光華路110巷30號","121.466496666667","25.0837933333333","6501400","蘆洲區"
"247001","002-UY","2018/07/26 14:19:37","新北市蘆洲區永樂街75號","121.456268333333","25.0885883333333","6501400","蘆洲區"
"247019","001-UY","2018/07/26 14:19:36","新北市蘆洲區仁愛街25號","121.472215","25.092715","6501400","蘆洲區"
"235002","251-BX","2018/07/26 14:19:34","新北市中和區大仁街10巷65號","121.520163333333","24.9925733333333","6500300","中和區"
"228005","097-TW","2018/07/26 14:19:38","新北市貢寮區美豐里土地公嶺54號","121.89454","25.06506","6502600","貢寮區"
"228004","212-TW","2018/07/26 14:19:47","新北市貢寮區雙玉里田寮洋街39號","121.924873333333","25.0138366666667","6502600","貢寮區"
"253003","6232-TK","2018/07/26 14:19:40","新北市石門區尖子鹿31號","121.57956","25.266015","6502200","石門區"
"253001","6251-TK","2018/07/26 14:19:47","新北市石門區八甲12-2號","121.522225","25.2820383333333","6502200","石門區"
"253002","637-UY","2018/07/26 14:19:37","新北市石門區大溪墘6-5號","121.550968333333","25.2771033333333","6502200","石門區"
"253004","8270-PC","2018/07/26 14:19:34","新北市石門區坪林24號","121.593911666667","25.268095","6502200","石門區"
"207002","749-BX","2018/07/26 14:18:43","新北市萬里區溪底里瑞泉路3號","121.608745","25.1438183333333","6502800","萬里區"
"207001","662-BX","2018/07/26 14:19:45","新北市萬里區磺潭里清水18號","121.637823333333","25.197695","6502800","萬里區"
"252005","AAC-283","2018/07/26 14:19:29","新北市三芝區橫山里橫山23-6號","121.540946666667","25.2627216666667","6502100","三芝區"
"236040","107-UM","2018/07/26 14:19:40","新北市土城區樂利街3巷2號","121.44835","24.9860766666667","6501300","土城區"
"236074","166-UM","2018/07/26 14:19:40","新北市土城區永安街110號","121.430165","24.9641616666667","6501300","土城區"
"236029","253-BX","2018/07/26 14:19:40","新北市土城區順風路63號","121.440156666667","24.977285","6501300","土城區"
"236024","269-VK","2018/07/26 14:19:34","新北市土城區承天路67號","121.439635","24.96341","6501300","土城區"
"236012","270-VK","2018/07/26 14:19:29","新北市土城區青雲路39巷7號","121.460346666667","24.9875683333333","6501300","土城區"
"236032","271-VK","2018/07/26 14:19:37","新北市土城區青雲路451巷8弄10號","121.459461666667","24.9742233333333","6501300","土城區"
"236068","KEA-2877","2018/07/26 14:19:29","新北市土城區明德路一段128巷8號","121.462988333333","24.9788433333333","6501300","土城區"
"236017","401-BY","2018/07/26 14:19:27","新北市土城區明德路二段99巷21號","121.45064","24.98082","6501300","土城區"
"236005","498-BY","2018/07/26 14:19:33","新北市土城區中華路一段56巷26-1號","121.444323333333","24.99","6501300","土城區"
"236057","912-UM","2018/07/26 14:19:48","新北市土城區中央路四段390號","121.412546666667","24.954175","6501300","土城區"
"236045","913-UM","2018/07/26 14:19:44","新北市土城區明德路一段355-5號","121.45702","24.9775583333333","6501300","土城區"
"236060","915-UM","2018/07/26 14:19:30","新北市土城區延壽路44巷15號","121.471521666667","24.9929966666667","6501300","土城區"
"236054","AAC-216","2018/07/26 14:19:36","新北市土城區中華路二段118號","121.437853333333","24.9739183333333","6501300","土城區"
"220028","200-UY","2018/07/26 14:19:36","新北市板橋區大觀路二段19巷85號","121.449271666667","25.00286","6500100","板橋區"
"220050","245-BX","2018/07/26 14:19:45","新北市板橋區莊敬路19號","121.473991666667","25.0280716666667","6500100","板橋區"
"220027","256-TC","2018/07/26 14:19:37","新北市板橋區民權路202巷17弄12號","121.460245","25.0166983333333","6500100","板橋區"
"220004","276-BY","2018/07/26 14:19:43","新北市板橋區信義路182號","121.459501666667","24.9913533333333","6500100","板橋區"
"220020","277-BY","2018/07/26 14:19:42","新北市板橋區金門街337巷10弄2號","121.429903333333","24.9850083333333","6500100","板橋區"
"220019","283-VK","2018/07/26 14:19:39","新北市板橋區忠孝路24巷20號","121.460161666667","25.0012083333333","6500100","板橋區"
"220043","285-UM","2018/07/26 14:19:39","新北市板橋區吳鳳路82號","121.466965","25.0312816666667","6500100","板橋區"
"220001","285-VK","2018/07/26 14:19:42","新北市板橋區富山街7巷10號","121.478546666667","25.02152","6500100","板橋區"
"220031","286-VK","2018/07/26 14:19:30","新北市板橋區龍興街95巷17號","121.443361666667","25.0026383333333","6500100","板橋區"
"220029","287-VK","2018/07/26 14:19:44","新北市板橋區南雅西路一段35號","121.45386","25.0045616666667","6500100","板橋區"
"220039","288-VK","2018/07/26 14:19:28","新北市板橋區長江路一段106巷13弄20號","121.460841666667","25.029485","6500100","板橋區"
"220009","293-UM","2018/07/26 14:19:33","新北市板橋區中山路二段411號","121.480723333333","25.0196716666667","6500100","板橋區"
"220010","295-UM","2018/07/26 14:19:34","新北市板橋區三民路二段153巷30弄33號","121.481115","25.0147","6500100","板橋區"
"220032","296-UM","2018/07/26 14:19:32","新北市板橋區滿平街136巷4弄2號","121.428376666667","24.987755","6500100","板橋區"
"220023","303-R5","2018/07/26 14:19:43","新北市板橋區南雅南路一段4巷12號","121.454853333333","25.0052383333333","6500100","板橋區"
"220041","307-R5","2018/07/26 14:19:44","新北市板橋區光武街48巷49號","121.468376666667","25.0271133333333","6500100","板橋區"
"220047","317-R6","2018/07/26 14:19:44","新北市板橋區民有街105號","121.464496666667","25.0281733333333","6500100","板橋區"
"220012","486-VK","2018/07/26 14:19:42","新北市板橋區中山路一段133號","121.46239","25.0104933333333","6500100","板橋區"
"220037","491-VK","2018/07/26 14:19:34","新北市板橋區雙十路二段239號","121.472791666667","25.0290183333333","6500100","板橋區"
"220104","560-BX","2018/07/26 14:19:49","新北市板橋區中正路413巷2弄26號","121.452976666667","25.0233716666667","6500100","板橋區"
"220052","561-BX","2018/07/26 14:19:44","新北市板橋區文化路一段188巷39號","121.467461666667","25.0186183333333","6500100","板橋區"
"220011","609-BX","2018/07/26 14:19:46","新北市板橋區三民路二段202-17號","121.47897","25.0134866666667","6500100","板橋區"
"220040","637-BX","2018/07/26 14:19:35","新北市板橋區縣民大道三段223號","121.480623333333","25.0254233333333","6500100","板橋區"
"220005","686-BX","2018/07/26 14:19:43","新北市板橋區五權街1號","121.463823333333","24.9948783333333","6500100","板橋區"
"220025","687-BX","2018/07/26 14:19:36","新北市板橋區大觀路二段293號","121.442286666667","24.998785","6500100","板橋區"
"220042","689-BX","2018/07/26 14:19:40","新北市板橋區漢生西路73號","121.462935","25.0187983333333","6500100","板橋區"
"220002","741-BX","2018/07/26 14:19:38","新北市板橋區校前街38號","121.46099","25.0031833333333","6500100","板橋區"
"220051","KEA-2699","2018/07/26 14:19:29","新北市板橋區文聖街205巷4號","121.479966666667","25.0265333333333","6500100","板橋區"
"220018","806-UM","2018/07/26 14:19:35","新北市板橋區忠孝路136號","121.46359","25.00237","6500100","板橋區"
"220003","827-TW","2018/07/26 14:19:27","新北市板橋區新民街4巷2弄2-1號","121.464085","25.0099966666667","6500100","板橋區"
"220014","829-TW","2018/07/26 14:19:45","新北市板橋區長安街138巷3弄37號","121.47395","25.0096583333333","6500100","板橋區"
"220016","830-TW","2018/07/26 14:19:37","新北市板橋區林森街1巷4號","121.482226666667","25.024075","6500100","板橋區"
"220045","831-TW","2018/07/26 14:19:31","新北市板橋區大同街26巷26號","121.478283333333","25.0265783333333","6500100","板橋區"
"220038","833-TW","2018/07/26 14:19:40","新北市板橋區民生路二段250號","121.468206666667","25.0234833333333","6500100","板橋區"
"220022","895-R6","2018/07/26 14:19:44","新北市板橋區北門街60號","121.456583333333","25.0115066666667","6500100","板橋區"
"220021","985-R7","2018/07/26 14:19:44","新北市板橋區中正路307號","121.455125","25.0196816666667","6500100","板橋區"
"220046","AAC-210","2018/07/26 14:19:41","新北市板橋區幸福路60巷65號","121.460058333333","25.0216466666667","6500100","板橋區"
"220030","AAC-253","2018/07/26 14:19:44","新北市板橋區滿平街84巷94號","121.426375","24.9868533333333","6500100","板橋區"
"235032","KEA-2873","2018/07/26 14:19:36","新北市中和區景平路493巷3-1號","121.499801666667","24.99758","6500300","中和區"
"235025","KEA-2875","2018/07/26 14:19:37","新北市中和區民利街61巷3號","121.47919","24.9985616666667","6500300","中和區"
