"lineid","car","time","location","longitude","latitude","cityid","cityname"
"234070","149-BY","2018/07/26 14:39:43","新北市八里區荖阡坑路41-3號","121.400161666667","25.132075","6500400","永和區"
"234078","298-R6","2018/07/26 14:39:33","新北市永和區永貞路82號","121.520241666667","25.0049383333333","6500400","永和區"
"234062","337-UY","2018/07/26 14:39:42","新北市永和區環河西路二段247號","121.499771666667","25.00929","6500400","永和區"
"234028","746-BX","2018/07/26 14:39:31","新北市中和區安樂路37號","121.511858333333","24.9930883333333","6500400","永和區"
"234052","KEA-2590","2018/07/26 14:39:32","新北市永和區環河東路一段82號","121.519676666667","25.0164816666667","6500400","永和區"
"234040","862-TW","2018/07/26 14:39:48","新北市永和區仁愛路271號","121.506016666667","25.0099383333333","6500400","永和區"
"234048","863-TW","2018/07/26 14:39:39","新北市永和區保安路132號","121.508906666667","25.0153316666667","6500400","永和區"
"234025","9371-KE","2018/07/26 14:39:36","新北市永和區中和路503號","121.510626666667","25.0023383333333","6500400","永和區"
"248013","025-BX","2018/07/26 14:39:36","新北市五股區五福路52巷12號","121.434128333333","25.0899366666667","6501500","五股區"
"248015","026-BX","2018/07/26 14:39:42","新北市五股區成泰路三段601巷17-1號","121.451725","25.1032816666667","6501500","五股區"
"248007","095-VK","2018/07/26 14:39:30","新北市五股區四維路118巷10弄1號","121.46889","25.0743466666667","6501500","五股區"
"248017","225-UY","2018/07/26 14:28:06","新北市五股區外寮路9-5號","121.419161666667","25.0787333333333","6501500","五股區"
"248011","247-BX","2018/07/26 14:39:40","新北市五股區成泰路二段38號","121.437108333333","25.0814416666667","6501500","五股區"
"248009","272-BY","2018/07/26 14:39:38","新北市五股區登林路51-8號","121.430916666667","25.06924","6501500","五股區"
"248003","677-BX","2018/07/26 14:39:43","新北市五股區成泰路一段222號","121.436448333333","25.079955","6501500","五股區"
"248001","678-BX","2018/07/26 14:39:26","新北市五股區成泰路三段469號","121.450443333333","25.098265","6501500","五股區"
"234072","AAC-211","2018/07/26 14:39:42","新北市永和區環河東路二段30號","121.52263","25.0126583333333","6500400","永和區"
"234001","AAC-295","2018/07/26 14:39:46","新北市永和區中正路537號","121.51669","25.0078383333333","6500400","永和區"
"243005","AAD-798","2018/07/26 14:39:41","新北市泰山區應化街13號","121.42379","25.0436933333333","6501600","泰山區"
"243001","297-R6","2018/07/26 14:39:47","新北市泰山區泰林路二段164巷37號","121.434201666667","25.0612583333333","6501600","泰山區"
"243008","380-SR","2018/07/26 14:39:40","新北市泰山區明志路三段488號","121.421101666667","25.0313783333333","6501600","泰山區"
"243007","421-VK","2018/07/26 14:39:38","新北市泰山區明志路二段214巷16弄2號","121.42681","25.0490366666667","6501600","泰山區"
"243003","KEA-2215","2018/07/26 14:39:45","新北市泰山區明志路三段196巷52號","121.421781666667","25.0398883333333","6501600","泰山區"
"243002","KEA-2216","2018/07/26 14:39:46","新北市泰山區中華街14巷1號","121.427696666667","25.052425","6501600","泰山區"
"243004","646-TV","2018/07/26 14:39:32","新北市泰山區全興路105號","121.433813333333","25.0569566666667","6501600","泰山區"
"243006","680-BX","2018/07/26 14:39:34","新北市泰山區泰林路二段33-1號","121.435841666667","25.05682","6501600","泰山區"
"231002","002-UM","2018/07/26 14:39:47","新北市新店區中正路374號","121.535168333333","24.9765216666667","6500600","新店區"
"231028","046-UY","2018/07/26 14:39:27","新北市新店區安成街25號","121.510128333333","24.9609366666667","6500600","新店區"
"231001","047-UY","2018/07/26 14:39:30","新北市新店區中正路12號","121.545496666667","24.9696083333333","6500600","新店區"
"231005","106-UY","2018/07/26 14:39:30","新北市新店區復興路1巷11號","121.540585","24.985965","6500600","新店區"
"231021","108-UY","2018/07/26 14:39:42","新北市新店區桂山路51巷6-1號","121.56251","24.90146","6500600","新店區"
"231036","110-UY","2018/07/26 14:39:48","新北市新店區安祥路109巷6弄49號","121.475508333333","24.957245","6500600","新店區"
"231011","187-VK","2018/07/26 14:39:36","新北市新店區中興路二段236巷9號","121.547845","24.9761183333333","6500600","新店區"
"231023","KEA-2219","2018/07/26 14:39:29","新北市新店區檳榔路40號","121.54156","24.9637583333333","6500600","新店區"
"231003","268-BY","2018/07/26 14:39:21","新北市新店區中正路5號","121.54575","24.969","6500600","新店區"
"231018","278-BY","2018/07/26 14:39:45","新北市新店區中央路222號","121.529538333333","24.9730833333333","6500600","新店區"
"231017","AAD-862","2018/07/26 14:39:45","新北市新店區北宜路三段221號","121.592498333333","24.9532416666667","6500600","新店區"
"231038","3712-VJ","2018/07/26 14:39:46","新北市新店區安康路一段266巷4號","121.52017","24.96399","6500600","新店區"
"231027","3713-VJ","2018/07/26 14:39:32","新北市新店區中正路336號","121.536731666667","24.9750366666667","6500600","新店區"
"231037","4716-K9","2018/07/26 14:39:30","新北市新店區柴埕路52巷17號","121.511188333333","24.965245","6500600","新店區"
"231013","513-UM","2018/07/26 14:39:42","新北市新店區明德路17號","121.542038333333","24.9769733333333","6500600","新店區"
"231034","616-UM","2018/07/26 14:39:29","新北市新店區黎明路51巷4號","121.50211","24.94886","6500600","新店區"
"231006","617-UM","2018/07/26 14:39:39","新北市新店區北宜路二段133號","121.551128333333","24.9531866666667","6500600","新店區"
"231030","619-UM","2018/07/26 14:39:26","新北市新店區安民街189-4號","121.516796666667","24.9711333333333","6500600","新店區"
"231035","719-UM","2018/07/26 14:32:40","新北市新店區安民街14號","121.515386666667","24.9645283333333","6500600","新店區"
"231029","897-TW","2018/07/26 14:39:46","新北市新店區安康路三段410號","121.485728333333","24.95159","6500600","新店區"
"231004","899-TW","2018/07/26 14:39:35","新北市新店區中正路288號","121.537903333333","24.974365","6500600","新店區"
"231024","AKT-0513","2018/07/26 14:39:38","新北市新店區力行路12號","121.539406666667","24.9646433333333","6500600","新店區"
"235030","003-UY","2018/07/26 14:39:34","新北市中和區景新街137號","121.506181666667","24.9970883333333","6500300","中和區"
"235028","005-UY","2018/07/26 14:39:28","新北市中和區南山路127巷3號","121.502605","24.9972733333333","6500300","中和區"
"235027","006-UY","2018/07/26 14:39:28","新北市中和區連城路249號","121.492815","24.9967466666667","6500300","中和區"
"235020","096-UM","2018/07/26 14:39:25","新北市中和區員山路581巷31弄20號","121.476756666667","25.010395","6500300","中和區"
"235003","097-UM","2018/07/26 14:39:45","新北市中和區安平路208號","121.513503333333","24.9997166666667","6500300","中和區"
"235029","098-UM","2018/07/26 14:39:39","新北市中和區福祥路57號","121.49931","25.004505","6500300","中和區"
"235004","150-BY","2018/07/26 14:39:43","新北市中和區安平路38號","121.50969","24.9949383333333","6500300","中和區"
"235022","151-BY","2018/07/26 14:39:47","新北市中和區員山路146巷19號","121.48242","24.9968183333333","6500300","中和區"
"235019","183-VK","2018/07/26 14:39:37","新北市中和區民生街15號","121.471358333333","25.0059233333333","6500300","中和區"
"235013","186-VK","2018/07/26 14:39:46","新北市中和區景平路566號","121.501846666667","24.99518","6500300","中和區"
"235031","255-BX","2018/07/26 14:39:35","新北市中和區連城路340巷14弄14號","121.483103333333","24.9972033333333","6500300","中和區"
"235008","293-VK","2018/07/26 14:39:36","新北市中和區興南路一段71號","121.510171666667","24.9893333333333","6500300","中和區"
"235036","301-VK","2018/07/26 14:39:30","新北市中和區中山路二段3巷22弄10號","121.506121666667","25.0049933333333","6500300","中和區"
"235007","352-BY","2018/07/26 14:39:37","新北市中和區南華路19號","121.502828333333","24.99585","6500300","中和區"
"247009","KEA-2869","2018/07/26 14:39:28","新北市蘆洲區信義路222巷47號","121.480516666667","25.0855966666667","6501400","蘆洲區"
"235014","4979-A6","2018/07/26 14:39:40","新北市中和區錦和路350-1號","121.490121666667","24.993555","6500300","中和區"
"235006","551-UM","2018/07/26 14:39:40","新北市中和區宜安路169號","121.508486666667","24.9990283333333","6500300","中和區"
"235034","558-UM","2018/07/26 14:39:44","新北市中和區連勝街34號","121.498175","24.99774","6500300","中和區"
"235009","565-BX","2018/07/26 14:39:44","新北市中和區景平路332號","121.512121666667","24.9927816666667","6500300","中和區"
"235018","640-BX","2018/07/26 14:39:42","新北市中和區莒光路92號","121.472328333333","25.0024983333333","6500300","中和區"
"235024","647-TV","2018/07/26 14:39:46","新北市中和區中山路二段523巷41號","121.482186666667","25.0032566666667","6500300","中和區"
"235011","732-UM","2018/07/26 14:39:38","新北市中和區南山路150號","121.504208333333","24.9921533333333","6500300","中和區"
"235010","733-UM","2018/07/26 14:39:47","新北市中和區景新街498號","121.513635","24.98703","6500300","中和區"
"235035","783-BX","2018/07/26 14:39:40","新北市中和區連城路453號","121.484623333333","24.9962433333333","6500300","中和區"
"235026","800-TS","2018/07/26 14:39:31","新北市中和區錦和路3號","121.485926666667","25.0041683333333","6500300","中和區"
"235021","801-TS","2018/07/26 14:39:36","新北市中和區員山路152-2號","121.48141","24.9984283333333","6500300","中和區"
"235005","802-TS","2018/07/26 14:39:46","新北市中和區中和路252巷1號","121.507683333333","24.9992883333333","6500300","中和區"
"235016","805-TS","2018/07/26 14:39:36","新北市中和區華新街192巷11號","121.506618333333","24.9825883333333","6500300","中和區"
"235012","896-TW","2018/07/26 14:39:32","新北市新店區安和路三段153號","121.516521666667","24.9856316666667","6500300","中和區"
"235017","900-TW","2018/07/26 14:39:32","新北市中和區國光街215巷24弄3號","121.467108333333","25.00028","6500300","中和區"
"235015","157-BY","2018/07/26 14:39:37","新北市中和區復興路335號","121.500231666667","24.9903016666667","6500300","中和區"
"235001","AAC-213","2018/07/26 14:39:38","新北市中和區秀朗路三段50巷4弄1號","121.525685","24.9954183333333","6500300","中和區"
"235023","AAC-215","2018/07/26 14:39:47","新北市中和區圓通路335巷1弄24號","121.493425","24.990515","6500300","中和區"
"220013","072-UY","2018/07/26 14:39:27","新北市板橋區國泰街109-1號","121.466155","25.0060783333333","6500100","板橋區"
"220034","073-UY","2018/07/26 14:39:40","新北市板橋區中正路166號","121.456621666667","25.0170116666667","6500100","板橋區"
"220017","AAD-861","2018/07/26 14:39:45","新北市板橋區縣民大道一段64巷22號","121.455423333333","25.00361","6500100","板橋區"
"220105","120-SR","2018/07/26 14:39:44","新北市板橋區文化路二段317號","121.471903333333","25.029985","6500100","板橋區"
"247023","893-R6","2018/07/26 14:39:39","新北市蘆洲區正和街63巷9號","121.46924","25.08066","6501400","蘆洲區"
"247013","546-UM","2018/07/26 14:39:40","新北市蘆洲區成功路108號","121.472425","25.0822183333333","6501400","蘆洲區"
"247021","500-BY","2018/07/26 14:39:48","新北市蘆洲區三民路206號","121.46912","25.0891366666667","6501400","蘆洲區"
"247011","339-TH","2018/07/26 14:39:41","新北市蘆洲區集賢路224巷46弄60-1號","121.480898333333","25.0880316666667","6501400","蘆洲區"
"247003","337-TH","2018/07/26 14:39:30","新北市蘆洲區永安南路二段328巷15弄2號","121.456648333333","25.0837683333333","6501400","蘆洲區"
"247005","336-TH","2018/07/26 14:39:28","新北市蘆洲區長安街96號","121.462171666667","25.0807016666667","6501400","蘆洲區"
"247017","057-VK","2018/07/26 14:39:35","新北市蘆洲區民族路314巷14號","121.477766666667","25.0903916666667","6501400","蘆洲區"
"247007","056-VK","2018/07/26 14:39:31","新北市蘆洲區信義路39號","121.474508333333","25.0794666666667","6501400","蘆洲區"
"247015","007-UY","2018/07/26 14:39:44","新北市蘆洲區正和街31號","121.469798333333","25.0818316666667","6501400","蘆洲區"
"247001","002-UY","2018/07/26 14:39:39","新北市蘆洲區永樂街31巷20號","121.458086666667","25.0876683333333","6501400","蘆洲區"
"247019","001-UY","2018/07/26 14:39:36","新北市蘆洲區民權路174巷5號","121.47212","25.0903516666667","6501400","蘆洲區"
"235002","251-BX","2018/07/26 14:39:34","新北市中和區自立路18號","121.522171666667","24.9935066666667","6500300","中和區"
"228005","097-TW","2018/07/26 14:39:38","新北市貢寮區美豐里雞母嶺街7號","121.902123333333","25.0643033333333","6502600","貢寮區"
"228004","212-TW","2018/07/26 14:39:26","新北市貢寮區福隆里龜壽谷街30-5號","121.946888333333","25.0137533333333","6502600","貢寮區"
"253003","6232-TK","2018/07/26 14:39:40","新北市石門區尖子鹿52-1號","121.579245","25.272375","6502200","石門區"
"253001","6251-TK","2018/07/26 14:39:47","新北市石門區崁子腳56號","121.5375","25.27436","6502200","石門區"
"253002","637-UY","2018/07/26 14:35:57","新北市三芝區橫山里橫山39-3號","121.545776666667","25.2545583333333","6502200","石門區"
"253004","8270-PC","2018/07/26 14:39:34","新北市石門區內阿里磅37號","121.5833","25.2371566666667","6502200","石門區"
"207002","749-BX","2018/07/26 14:39:43","新北市萬里區崁腳里崁腳路73號","121.64759","25.159595","6502800","萬里區"
"207001","662-BX","2018/07/26 14:39:45","新北市萬里區雙興里豐稟路27-2號","121.64136","25.1883866666667","6502800","萬里區"
"252005","AAC-283","2018/07/26 14:39:29","新北市三芝區埔坪里埔頭坑80號","121.509993333333","25.2538783333333","6502100","三芝區"
"236040","107-UM","2018/07/26 14:39:40","新北市土城區裕民路56號","121.448758333333","24.987905","6501300","土城區"
"236074","166-UM","2018/07/26 14:39:29","新北市土城區大暖路6-3號","121.423275","24.960565","6501300","土城區"
"236029","253-BX","2018/07/26 14:39:34","新北市土城區中華路二段199號","121.438041666667","24.974165","6501300","土城區"
"236024","269-VK","2018/07/26 14:39:35","新北市土城區忠義路47-1號","121.440828333333","24.9694783333333","6501300","土城區"
"236012","270-VK","2018/07/26 14:39:29","新北市土城區清水路202號","121.460456666667","24.9818866666667","6501300","土城區"
"236032","271-VK","2018/07/26 14:39:41","新北市土城區明德路一段313巷3弄13號","121.460133333333","24.9765516666667","6501300","土城區"
"236068","KEA-2877","2018/07/26 14:39:49","新北市土城區永豐路255巷21弄1號","121.475011666667","24.9738433333333","6501300","土城區"
"236017","401-BY","2018/07/26 14:39:27","新北市土城區延吉街253巷2號","121.46749","24.9846933333333","6501300","土城區"
"236057","912-UM","2018/07/26 14:39:28","新北市土城區中央路三段208-1號","121.429658333333","24.96484","6501300","土城區"
"236045","913-UM","2018/07/26 14:39:44","新北市土城區明德路一段26號","121.464976666667","24.984795","6501300","土城區"
"236060","915-UM","2018/07/26 14:39:30","新北市土城區延壽路13巷20號","121.47048","24.9909233333333","6501300","土城區"
"236054","AAC-216","2018/07/26 14:39:34","新北市土城區中華路一段45號","121.445786666667","24.9883383333333","6501300","土城區"
"238012","303-VK","2018/07/26 14:39:44","新北市樹林區育德街78號","121.38785","24.9683916666667","6500700","樹林區"
"220028","200-UY","2018/07/26 14:39:42","新北市板橋區大觀路二段153巷46弄16號","121.449131666667","24.9998633333333","6500100","板橋區"
"220050","245-BX","2018/07/26 14:39:38","新北市板橋區萬板路48號","121.471986666667","25.0228933333333","6500100","板橋區"
"220027","256-TC","2018/07/26 14:39:37","新北市板橋區建國街111號","121.46032","25.017605","6500100","板橋區"
"220004","276-BY","2018/07/26 14:39:36","新北市板橋區信義路1巷26弄19號","121.458183333333","24.9967816666667","6500100","板橋區"
"220020","277-BY","2018/07/26 14:39:42","新北市板橋區金門街215巷52號","121.43368","24.988515","6500100","板橋區"
"220019","283-VK","2018/07/26 14:39:38","新北市板橋區五權街32巷15號","121.464361666667","24.9929266666667","6500100","板橋區"
"220043","285-UM","2018/07/26 14:39:40","新北市板橋區長江路二段252號","121.469185","25.0324616666667","6500100","板橋區"
"220001","285-VK","2018/07/26 14:39:41","新北市板橋區富山街53巷1弄104號","121.477718333333","25.0197366666667","6500100","板橋區"
"220031","286-VK","2018/07/26 14:39:45","新北市板橋區龍興街63巷54號","121.441888333333","25.0018783333333","6500100","板橋區"
"220029","287-VK","2018/07/26 14:39:44","新北市板橋區大觀路一段29巷131弄18號","121.45059","25.0049533333333","6500100","板橋區"
"220039","288-VK","2018/07/26 14:39:28","新北市板橋區新海路431巷16號","121.457738333333","25.0269716666667","6500100","板橋區"
"220009","293-UM","2018/07/26 14:39:33","新北市板橋區中山路一段265巷45號","121.469203333333","25.0159233333333","6500100","板橋區"
"220010","295-UM","2018/07/26 14:39:33","新北市板橋區三民路二段81巷24號","121.480416666667","25.01668","6500100","板橋區"
"220032","296-UM","2018/07/26 14:39:30","新北市板橋區溪崑二街89號","121.427238333333","24.98947","6500100","板橋區"
"220023","303-R5","2018/07/26 14:39:43","新北市板橋區大勇街10巷3號","121.45372","25.0169883333333","6500100","板橋區"
"220041","307-R5","2018/07/26 14:39:44","新北市板橋區陽明街16號","121.466528333333","25.0217933333333","6500100","板橋區"
"220047","317-R6","2018/07/26 14:39:44","新北市板橋區裕民街91號","121.460428333333","25.027905","6500100","板橋區"
"220012","486-VK","2018/07/26 14:39:42","新北市板橋區民權路45號","121.461973333333","25.011395","6500100","板橋區"
"220037","491-VK","2018/07/26 14:39:34","新北市板橋區莊敬路8-5號","121.47343","25.0285766666667","6500100","板橋區"
"220104","560-BX","2018/07/26 14:39:29","新北市板橋區金華街149號","121.45975","25.0209366666667","6500100","板橋區"
"220052","561-BX","2018/07/26 14:39:45","新北市板橋區陽明街23巷8弄24號","121.465225","25.0208616666667","6500100","板橋區"
"220011","609-BX","2018/07/26 14:39:47","新北市板橋區三民路二段142號","121.479016666667","25.0156916666667","6500100","板橋區"
"220040","637-BX","2018/07/26 14:39:35","新北市板橋區懷德街201巷16號","121.481523333333","25.0295466666667","6500100","板橋區"
"220005","686-BX","2018/07/26 14:39:45","新北市板橋區和平路101巷1號","121.462161666667","24.9948966666667","6500100","板橋區"
"220025","687-BX","2018/07/26 14:39:33","新北市板橋區僑中二街12巷2號","121.446935","25.0105033333333","6500100","板橋區"
"220042","689-BX","2018/07/26 14:39:39","新北市板橋區新海路360號","121.459766666667","25.0249933333333","6500100","板橋區"
"220002","741-BX","2018/07/26 14:39:38","新北市板橋區忠孝路239巷20號","121.466873333333","25.003285","6500100","板橋區"
"220051","KEA-2699","2018/07/26 14:39:34","新北市板橋區松柏街36巷27號","121.475573333333","25.0293033333333","6500100","板橋區"
"220018","806-UM","2018/07/26 14:39:46","新北市板橋區長安街3號","121.465975","25.00857","6500100","板橋區"
"220003","827-TW","2018/07/26 14:39:27","新北市板橋區國慶路165號","121.462123333333","24.99634","6500100","板橋區"
"220014","829-TW","2018/07/26 14:39:45","新北市板橋區長安街144號","121.472893333333","25.0102566666667","6500100","板橋區"
"220016","830-TW","2018/07/26 14:39:37","新北市板橋區中山路二段416巷32弄3號","121.483195","25.0202366666667","6500100","板橋區"
"220045","831-TW","2018/07/26 14:39:31","新北市板橋區民生路二段234巷67號","121.470076666667","25.0225416666667","6500100","板橋區"
"220038","833-TW","2018/07/26 14:39:40","新北市板橋區英士路51號","121.460935","25.02456","6500100","板橋區"
"220022","895-R6","2018/07/26 14:39:42","新北市板橋區明德街2-2號","121.459715","25.0099866666667","6500100","板橋區"
"220021","985-R7","2018/07/26 14:39:44","新北市板橋區中正路320-1號","121.454706666667","25.0211816666667","6500100","板橋區"
"220046","AAC-210","2018/07/26 14:39:41","新北市板橋區漢生西路87號","121.462416666667","25.0195283333333","6500100","板橋區"
"220030","AAC-253","2018/07/26 14:39:45","新北市板橋區金門街223號","121.432235","24.9897283333333","6500100","板橋區"
"235032","KEA-2873","2018/07/26 14:39:35","新北市中和區莊敬路2號","121.49949","25.004295","6500300","中和區"
"235025","KEA-2875","2018/07/26 14:39:37","新北市中和區新生街148巷19弄6號","121.482415","25.0003883333333","6500300","中和區"
