"lineid","car","time","location","longitude","latitude","cityid","cityname"
"234070","149-BY","2018/07/26 15:19:43","新北市中和區勝利路2號","121.498021666667","25.008325","6500400","永和區"
"243006","680-BX","2018/07/26 15:19:34","新北市泰山區明志路一段185號","121.433006666667","25.061985","6501600","泰山區"
"231002","002-UM","2018/07/26 15:19:47","新北市新店區溪園路249號","121.523698333333","24.9824166666667","6500600","新店區"
"231028","046-UY","2018/07/26 15:19:47","新北市新店區僑信路132巷38號","121.499765","24.945425","6500600","新店區"
"231001","047-UY","2018/07/26 15:19:30","新北市新店區光明街314號","121.540638333333","24.9651766666667","6500600","新店區"
"231005","106-UY","2018/07/26 15:19:30","新北市新店區建國路249號","121.537606666667","24.9825383333333","6500600","新店區"
"231021","108-UY","2018/07/26 15:19:41","新北市新店區湖興路128-2號","121.561421666667","24.9304516666667","6500600","新店區"
"231036","110-UY","2018/07/26 15:19:28","新北市新店區安祥路106巷66號","121.475205","24.9605283333333","6500600","新店區"
"231011","187-VK","2018/07/26 15:19:36","新北市新店區寶慶街84號","121.541266666667","24.9867866666667","6500600","新店區"
"231023","KEA-2219","2018/07/26 15:19:29","新北市新店區北新路一段64巷39弄4號","121.542536666667","24.9657733333333","6500600","新店區"
"231026","256-BX","2018/07/26 15:19:48","新北市新店區中正路247巷4弄10號","121.538465","24.9734116666667","6500600","新店區"
"231003","268-BY","2018/07/26 15:19:41","新北市新店區寶橋路200號","121.55077","24.9784566666667","6500600","新店區"
"231018","278-BY","2018/07/26 15:19:45","新北市新店區中央八街74號","121.527618333333","24.97685","6500600","新店區"
"231017","AAD-862","2018/07/26 15:19:45","新北市新店區明山路45號","121.56386","24.9558033333333","6500600","新店區"
"231038","3712-VJ","2018/07/26 15:19:46","新北市新店區安華路28-1號","121.519738333333","24.9608933333333","6500600","新店區"
"231037","4716-K9","2018/07/26 15:19:30","新北市新店區安民街341-1號","121.516725","24.9751583333333","6500600","新店區"
"231025","4715-K9","2018/07/26 15:19:43","新北市新店區環河路105-4號","121.531616666667","24.9703933333333","6500600","新店區"
"231034","616-UM","2018/07/26 15:19:49","新北市新店區如意街3巷1號","121.49567","24.9493766666667","6500600","新店區"
"231006","617-UM","2018/07/26 15:19:39","新北市新店區北新路一段211號","121.540405","24.9651266666667","6500600","新店區"
"231030","619-UM","2018/07/26 15:19:46","新北市新店區安民街341-1號","121.516853333333","24.97492","6500600","新店區"
"231039","718-UY","2018/07/26 15:19:34","新北市新店區寶元路一段65號","121.542266666667","24.98586","6500600","新店區"
"231035","719-UM","2018/07/26 15:19:40","新北市新店區永平街23巷6號","121.516766666667","24.9831266666667","6500600","新店區"
"231031","720-UM","2018/07/26 15:19:46","新北市新店區和成街14巷2號","121.487905","24.9475866666667","6500600","新店區"
"231029","897-TW","2018/07/26 15:19:46","新北市新店區安康路三段738號","121.473803333333","24.9420616666667","6500600","新店區"
"231004","899-TW","2018/07/26 15:19:35","新北市新店區博愛街13巷24號","121.540245","24.9740383333333","6500600","新店區"
"231024","AKT-0513","2018/07/26 15:19:38","新北市新店區北新路一段311號","121.541538333333","24.967885","6500600","新店區"
"241022","060-VK","2018/07/26 15:19:30","新北市三重區重新路四段121號","121.484766666667","25.0525166666667","6500200","三重區"
"241015","062-VK","2018/07/26 15:19:46","新北市三重區重新路四段121號","121.484933333333","25.0524583333333","6500200","三重區"
"241013","270-UM","2018/07/26 15:19:41","新北市三重區重新路四段121號","121.484825","25.052595","6500200","三重區"
"235030","003-UY","2018/07/26 15:19:40","新北市中和區光華街85號","121.506941666667","25.00266","6500300","中和區"
"247009","KEA-2869","2018/07/26 15:18:48","新北市林口區太平里180號","121.368245","25.1348283333333","6501400","蘆洲區"
"235014","4979-A6","2018/07/26 15:19:39","新北市中和區景平路464巷2弄2號","121.505771666667","24.9938816666667","6500300","中和區"
"235033","4980-A6","2018/07/26 15:19:28","新北市中和區圓通路198巷2弄2號","121.49638","24.9948266666667","6500300","中和區"
"235012","896-TW","2018/07/26 15:19:32","新北市中和區景新街368號","121.512193333333","24.9903933333333","6500300","中和區"
"235001","AAC-213","2018/07/26 15:19:38","新北市三重區重新路五段326巷12號","121.479228333333","25.0466583333333","6500300","中和區"
"235023","AAC-215","2018/07/26 15:19:47","新北市中和區圓通路316號","121.48627","24.9879816666667","6500300","中和區"
"253003","6232-TK","2018/07/26 15:19:40","新北市石門區小坑9號","121.5944","25.2883966666667","6502200","石門區"
"253001","6251-TK","2018/07/26 15:19:27","新北市石門區小坑9號","121.594408333333","25.28838","6502200","石門區"
"253002","637-UY","2018/07/26 15:19:37","新北市石門區小坑9號","121.595088333333","25.2859716666667","6502200","石門區"
"253004","8270-PC","2018/07/26 15:19:29","新北市石門區小坑24-1號","121.59479","25.2770833333333","6502200","石門區"
"207002","749-BX","2018/07/26 15:19:43","新北市萬里區崁腳里內中福路2-1號","121.669196666667","25.16539","6502800","萬里區"
"207001","662-BX","2018/07/26 15:19:44","新北市萬里區大鵬里萬里加投14號","121.651286666667","25.2087583333333","6502800","萬里區"
"236040","107-UM","2018/07/26 15:19:40","新北市土城區裕民路216號","121.4535","24.9843366666667","6501300","土城區"
"236074","166-UM","2018/07/26 15:19:29","新北市土城區中州路27巷78號","121.412583333333","24.9563633333333","6501300","土城區"
"236029","253-BX","2018/07/26 15:19:34","新北市土城區中華路一段203號","121.442931666667","24.9849616666667","6501300","土城區"
"236024","269-VK","2018/07/26 15:19:41","新北市土城區員林街6-1號","121.442725","24.9780216666667","6501300","土城區"
"236012","270-VK","2018/07/26 15:19:29","新北市土城區廣福街5號","121.457293333333","24.988825","6501300","土城區"
"236032","271-VK","2018/07/26 15:19:48","新北市土城區國際路127-7號","121.467861666667","24.9760416666667","6501300","土城區"
"236068","KEA-2877","2018/07/26 15:19:49","新北市土城區裕民路185巷36弄10號","121.454341666667","24.9844083333333","6501300","土城區"
"236017","401-BY","2018/07/26 15:19:47","新北市土城區峰廷街14號","121.468773333333","24.9875766666667","6501300","土城區"
"236057","912-UM","2018/07/26 15:19:28","新北市土城區中央路三段59號","121.438825","24.9695466666667","6501300","土城區"
"236045","913-UM","2018/07/26 15:19:47","新北市土城區明德路一段99巷1號","121.465751666667","24.982925","6501300","土城區"
"236060","915-UM","2018/07/26 15:19:30","新北市土城區延和路105巷6弄1號","121.467358333333","24.991135","6501300","土城區"
"236054","AAC-216","2018/07/26 15:19:42","新北市土城區學府路一段52號","121.457425","24.9884033333333","6501300","土城區"
"238010","601-UM","2018/07/26 15:19:34","新北市樹林區中正路282-8號","121.415108333333","25.0095916666667","6500700","樹林區"
"238006","599-UM","2018/07/26 15:19:36","新北市樹林區太平路1-11號","121.418781666667","24.9843383333333","6500700","樹林區"
"238005","571-TV","2018/07/26 15:19:36","新北市樹林區樹新路81號","121.427585","24.99523","6500700","樹林區"
"238011","5061-A6","2018/07/26 15:19:27","新北市樹林區鎮前街283號","121.418436666667","24.98473","6500700","樹林區"
"238009","KEA-2213","2018/07/26 15:19:47","新北市樹林區和平街43號","121.42323","24.981695","6500700","樹林區"
"238008","KEA-2539","2018/07/26 15:19:29","新北市樹林區西圳街一段165巷20弄11號","121.395688333333","24.960165","6500700","樹林區"
"238012","303-VK","2018/07/26 15:19:44","新北市樹林區中山路一段237號","121.420736666667","24.9868166666667","6500700","樹林區"
"238001","283-BY","2018/07/26 15:19:35","新北市樹林區保安街二段333巷2號","121.41229","25.0076183333333","6500700","樹林區"
"238001","282-BY","2018/07/26 15:19:43","新北市樹林區大安路127號","121.422666666667","24.997185","6500700","樹林區"
"238007","268-VK","2018/07/26 15:19:31","新北市樹林區俊英街90號","121.427773333333","25.0049066666667","6500700","樹林區"
"238013","172-UY","2018/07/26 15:19:45","新北市樹林區味王街41號","121.404706666667","24.973785","6500700","樹林區"
"238003","169-UY","2018/07/26 15:19:46","新北市樹林區中山路一段103-2號","121.42318","24.9908533333333","6500700","樹林區"
"220050","245-BX","2018/07/26 15:19:36","新北市板橋區莊敬路221號","121.471876666667","25.0219933333333","6500100","板橋區"
"220027","256-TC","2018/07/26 15:19:37","新北市樹林區八德街368號","121.408461666667","24.9696466666667","6500100","板橋區"
"220031","286-VK","2018/07/26 15:19:41","新北市板橋區僑中二街104巷20號","121.445216666667","25.0080183333333","6500100","板橋區"
"220029","287-VK","2018/07/26 15:19:44","新北市板橋區僑中一街70號","121.44754","25.0115333333333","6500100","板橋區"
"220009","293-UM","2018/07/26 15:19:33","新北市板橋區四川路一段284號","121.458641666667","25.00082","6500100","板橋區"
"220041","307-R5","2018/07/26 15:19:44","新北市板橋區文化路一段37號","121.460466666667","25.0130233333333","6500100","板橋區"
"220037","491-VK","2018/07/26 15:19:34","新北市板橋區民治街83號","121.479586666667","25.032215","6500100","板橋區"
"220052","561-BX","2018/07/26 15:19:50","新北市板橋區漢生東路23巷51號","121.465981666667","25.0182","6500100","板橋區"
"220011","609-BX","2018/07/26 15:19:46","新北市板橋區三民路一段193號","121.479206666667","25.0191416666667","6500100","板橋區"
"220042","689-BX","2018/07/26 15:19:43","新北市板橋區長江路二段248號","121.468971666667","25.0325233333333","6500100","板橋區"
"220051","KEA-2699","2018/07/26 15:19:48","新北市板橋區縣民大道三段155號","121.478948333333","25.0243016666667","6500100","板橋區"
"220018","806-UM","2018/07/26 15:19:34","新北市板橋區德興街35號","121.453548333333","24.993855","6500100","板橋區"
"220003","827-TW","2018/07/26 15:19:47","新北市板橋區四川路一段387號","121.458003333333","24.9992633333333","6500100","板橋區"
"220038","833-TW","2018/07/26 15:19:40","新北市板橋區互助街66號","121.461093333333","25.02668","6500100","板橋區"
