"lineid","car","time","location","longitude","latitude","cityid","cityname"
"249005","172-UM","2018/07/26 17:19:45","新北市五股區中直路69-6號","121.413851666667","25.1228066666667","6502300","八里區"
"249004","303-UY","2018/07/26 17:19:40","新北市八里區忠八街2號","121.420773333333","25.159455","6502300","八里區"
"249002","305-UY","2018/07/26 17:19:42","新北市八里區龍米路二段117巷39-1號","121.443238333333","25.1419216666667","6502300","八里區"
"249003","593-UM","2018/07/26 17:19:39","新北市八里區中山路二段449號","121.396591666667","25.1456616666667","6502300","八里區"
"249001","759-BX","2018/07/26 17:19:31","新北市八里區中華路二段165巷3號","121.40764","25.1508733333333","6502300","八里區"
"244007","080-UY","2018/07/26 17:19:45","新北市林口區菁埔48-20號","121.378958333333","25.0945966666667","6501700","林口區"
"244019","403-UM","2018/07/26 17:19:41","新北市林口區文化二路一段539號","121.373816666667","25.0767166666667","6501700","林口區"
"244009","410-SL","2018/07/26 17:19:46","新北市林口區文化北路二段550巷30弄18號","121.378833333333","25.091505","6501700","林口區"
"244023","483-VK","2018/07/26 17:19:26","新北市林口區隆林街28號","121.388385","25.07542","6501700","林口區"
"244017","485-VK","2018/07/26 17:19:37","新北市林口區粉寮路37-1號","121.401068333333","25.0848133333333","6501700","林口區"
"244010","657-BX","2018/07/26 17:19:39","新北市林口區粉寮路一段105號","121.397806666667","25.08025","6501700","林口區"
"244025","837-TS","2018/07/26 17:19:32","新北市林口區仁愛二路63號","121.368535","25.0754466666667","6501700","林口區"
"244021","838-TS","2018/07/26 17:19:38","新北市林口區粉寮87號","121.40696","25.09742","6501700","林口區"
"231046","107-UY","2018/07/26 17:19:35","新北市新店區直潭路92號","121.530895","24.9375666666667","6500600","新店區"
"241011","013-R5","2018/07/26 17:19:40","新北市三重區河邊北街100巷17號","121.503205","25.0703816666667","6500200","三重區"
"241028","022-UY","2018/07/26 17:19:34","新北市三重區仁化街63號","121.493786666667","25.0589783333333","6500200","三重區"
"241008","059-VK","2018/07/26 17:19:31","新北市三重區下竹圍街22號","121.480985","25.0756966666667","6500200","三重區"
"241022","060-VK","2018/07/26 17:19:30","新北市三重區重陽路二段34巷44號","121.48568","25.06385","6500200","三重區"
"241015","062-VK","2018/07/26 17:19:26","新北市三重區福德北路82-1號","121.50179","25.0662016666667","6500200","三重區"
"241017","063-VK","2018/07/26 17:19:30","新北市三重區大同北路52號","121.495053333333","25.0630216666667","6500200","三重區"
"241024","065-VK","2018/07/26 17:19:36","新北市三重區中正北路193巷11弄35號","121.478741666667","25.070585","6500200","三重區"
"241026","066-VK","2018/07/26 17:19:41","新北市三重區福裕街35-3號","121.499091666667","25.061645","6500200","三重區"
"241002","090-VK","2018/07/26 17:19:35","新北市三重區富華街246號","121.49398","25.0858483333333","6500200","三重區"
"241003","091-VK","2018/07/26 17:19:29","新北市三重區五華街125號","121.491301666667","25.0840433333333","6500200","三重區"
"241019","742-BX","2018/07/26 17:19:30","新北市三重區自強路二段74巷25號","121.487745","25.069735","6500200","三重區"
"241005","262-UM","2018/07/26 17:19:46","新北市三重區永安北路二段25巷11號","121.482485","25.081635","6500200","三重區"
"241016","266-UM","2018/07/26 17:19:34","新北市三重區大同北路54巷3號","121.494086666667","25.06345","6500200","三重區"
"241009","267-UM","2018/07/26 17:19:42","新北市三重區仁愛街600巷2弄1號","121.48416","25.08077","6500200","三重區"
"241018","268-UM","2018/07/26 17:19:42","新北市三重區安慶街119號","121.49495","25.0689816666667","6500200","三重區"
"241032","269-UM","2018/07/26 17:19:44","新北市三重區三陽路13巷1號","121.486041666667","25.0594466666667","6500200","三重區"
"241013","270-UM","2018/07/26 17:19:41","新北市三重區三和路三段107巷10號","121.494695","25.073","6500200","三重區"
"241025","271-UM","2018/07/26 17:19:26","新北市三重區中正北路233號","121.475901666667","25.070395","6500200","三重區"
"241007","398-BY","2018/07/26 17:19:28","新北市三重區三和路四段155巷2號","121.483805","25.0785083333333","6500200","三重區"
"241024","KEA-2210","2018/07/26 17:19:29","新北市三重區國道路一段58巷15號","121.481378333333","25.0721016666667","6500200","三重區"
"241030","413-TH","2018/07/26 17:19:28","新北市三重區成功路73巷12號","121.489385","25.051875","6500200","三重區"
"241020","478-VK","2018/07/26 17:19:46","新北市三重區後竹圍街145號","121.48659","25.0721066666667","6500200","三重區"
"241014","543-UM","2018/07/26 17:19:43","新北市三重區長榮路6號","121.500021666667","25.0685133333333","6500200","三重區"
"241023","545-UM","2018/07/26 17:19:33","新北市三重區三民街195號","121.482105","25.0656133333333","6500200","三重區"
"241006","AAD-863","2018/07/26 17:19:32","新北市三重區國道路一段39巷7號","121.483805","25.0729916666667","6500200","三重區"
"241012","941-UM","2018/07/26 17:19:39","新北市三重區龍門路274巷51號","121.501115","25.0758","6500200","三重區"
"241029","942-UM","2018/07/26 17:19:43","新北市三重區重新路四段86號","121.488006666667","25.0573583333333","6500200","三重區"
"241033","AAC-255","2018/07/26 17:19:41","新北市三重區中興北街219號","121.469013333333","25.0584083333333","6500200","三重區"
"235064","005-UY","2018/07/26 17:19:49","新北市中和區員山路36巷16-3號","121.485005","24.9913","6500300","中和區"
"247010","KEA-2869","2018/07/26 17:19:39","新北市蘆洲區中山一路120巷7弄32號","121.477231666667","25.0822116666667","6501400","蘆洲區"
"247024","893-R6","2018/07/26 17:19:27","新北市蘆洲區長榮路235號","121.46041","25.085825","6501400","蘆洲區"
"247014","546-UM","2018/07/26 17:19:41","新北市蘆洲區得勝街118號","121.471065","25.0827616666667","6501400","蘆洲區"
"247022","500-BY","2018/07/26 17:19:41","新北市蘆洲區三民路128巷47號","121.469791666667","25.0898516666667","6501400","蘆洲區"
"247012","339-TH","2018/07/26 17:19:27","新北市蘆洲區信義路319巷10弄3號","121.47754","25.0864616666667","6501400","蘆洲區"
"247004","337-TH","2018/07/26 17:19:37","新北市五股區中興路二段182巷15弄13-1號","121.457438333333","25.0812266666667","6501400","蘆洲區"
"247006","336-TH","2018/07/26 17:19:31","新北市蘆洲區永安南路二段156號","121.46166","25.0788583333333","6501400","蘆洲區"
"247018","057-VK","2018/07/26 17:19:34","新北市蘆洲區民權路70號","121.475008333333","25.0872966666667","6501400","蘆洲區"
"247008","056-VK","2018/07/26 17:19:43","新北市三重區永福街135巷32弄21號","121.476775","25.0766366666667","6501400","蘆洲區"
"247016","007-UY","2018/07/26 17:19:31","新北市蘆洲區正和街101號","121.467755","25.0804283333333","6501400","蘆洲區"
"247002","002-UY","2018/07/26 17:19:37","新北市蘆洲區永樂街38巷33弄18號","121.45735","25.0898583333333","6501400","蘆洲區"
"247020","001-UY","2018/07/26 17:19:43","新北市蘆洲區民族路331-20號","121.473488333333","25.09184","6501400","蘆洲區"
"228003","097-TW","2018/07/26 17:19:39","新北市貢寮區福隆里興隆街24-1號","121.944348333333","25.01663","6502600","貢寮區"
"228001","212-TW","2018/07/26 17:19:25","新北市貢寮區仁理村尖山腳街18-3號","121.925511666667","25.0483733333333","6502600","貢寮區"
"228002","663-BX","2018/07/26 17:19:42","新北市貢寮區雙玉里下雙溪街28號","121.924728333333","25.0114816666667","6502600","貢寮區"
"224006","676-BX","2018/07/26 17:19:32","新北市瑞芳區傑魚坑路275號","121.786926666667","25.105565","6501200","瑞芳區"
"224008","285-BY","2018/07/26 17:19:32","新北市瑞芳區侯硐路48號","121.825786666667","25.0829783333333","6501200","瑞芳區"
"224009","273-VK","2018/07/26 17:19:36","新北市瑞芳區石碑巷41號","121.841543333333","25.1083316666667","6501200","瑞芳區"
"224005","271-BY","2018/07/26 17:19:47","新北市瑞芳區鼻頭路197號","121.91542","25.12348","6501200","瑞芳區"
"227010","642-TC","2018/07/26 17:19:43","新北市雙溪區三貂里定福路1號","121.84931","25.064245","6502500","雙溪區"
"227004","400-TW","2018/07/26 17:19:44","新北市雙溪區上林里內平林90號","121.82754","25.0274533333333","6502500","雙溪區"
"251009","008-UM","2018/07/26 17:19:41","新北市淡水區三民街17號","121.438925","25.1717983333333","6501000","淡水區"
"251004","009-UM","2018/07/26 17:19:34","新北市淡水區中正東路二段88巷11號","121.459051666667","25.150745","6501000","淡水區"
"251005","010-UM","2018/07/26 17:19:29","新北市淡水區鄧公路29巷2號","121.451648333333","25.1698966666667","6501000","淡水區"
"251013","KEA-2871","2018/07/26 17:19:35","新北市淡水區竹圍子8-1號","121.477568333333","25.1936233333333","6501000","淡水區"
"251016","179-VK","2018/07/26 17:19:37","新北市淡水區鄒厝崙12-2號","121.464511666667","25.19048","6501000","淡水區"
"251014","180-VK","2018/07/26 17:18:14","新北市淡水區番子田114號","121.463731666667","25.2296216666667","6501000","淡水區"
"251008","181-VK","2018/07/26 17:19:31","新北市淡水區大同路257號","121.46655","25.14226","6501000","淡水區"
"251015","182-VK","2018/07/26 17:19:37","新北市淡水區三空泉18號","121.474663333333","25.1663533333333","6501000","淡水區"
"251010","413-VK","2018/07/26 17:19:30","新北市淡水區濱海路三段601號","121.420613333333","25.1965183333333","6501000","淡水區"
"251012","441-VK","2018/07/26 17:19:32","新北市淡水區中山北路一段156號","121.44408","25.17783","6501000","淡水區"
"251007","442-VK","2018/07/26 17:19:30","新北市淡水區民生路60號","121.462125","25.1379116666667","6501000","淡水區"
"251006","561-UM","2018/07/26 17:19:28","新北市淡水區重建街199號","121.441015","25.1746","6501000","淡水區"
"251011","650-BX","2018/07/26 17:19:42","新北市淡水區坪頂路128號","121.464936666667","25.1613183333333","6501000","淡水區"
"251002","672-BX","2018/07/26 17:19:42","新北市淡水區中正路二段31號","121.419331666667","25.1816283333333","6501000","淡水區"
"251003","766-UM","2018/07/26 17:19:41","新北市淡水區中正路二段31號","121.419431666667","25.181505","6501000","淡水區"
"207003","550-UM","2018/07/26 17:19:29","新北市萬里區萬里里獅頭路23號","121.693348333333","25.178195","6502800","萬里區"
"252002","178-VK","2018/07/26 17:19:36","新北市三芝區忠孝街1-15號","121.505526666667","25.2538983333333","6502100","三芝區"
"252001","292-VK","2018/07/26 17:19:41","新北市三芝區長安街119號","121.497965","25.2596416666667","6502100","三芝區"
"242034","AAC-296","2018/07/26 17:19:48","新北市新莊區新莊路769號","121.442233333333","25.0325416666667","6500500","新莊區"
"242058","986-R7","2018/07/26 17:19:34","新北市新莊區中正路400號","121.441733333333","25.03393","6500500","新莊區"
"242053","751-BX","2018/07/26 17:19:34","新北市新莊區瓊林路59-70號","121.442098333333","25.0237716666667","6500500","新莊區"
"242029","705-TV","2018/07/26 17:19:36","新北市新莊區幸福路776號","121.446838333333","25.0492433333333","6500500","新莊區"
"242027","615-BX","2018/07/26 17:19:39","新北市新莊區中平路82巷36-2號","121.446338333333","25.0449333333333","6500500","新莊區"
"242042","566-BX","2018/07/26 17:19:34","新北市新莊區新泰路357巷2-2號","121.441998333333","25.041365","6500500","新莊區"
"242046","497-BY","2018/07/26 17:19:35","新北市新莊區新樹路16-1號","121.43925","25.0306633333333","6500500","新莊區"
"242051","441-UM","2018/07/26 17:19:30","新北市新莊區新樹路181-2號","121.436056666667","25.0243066666667","6500500","新莊區"
"242056","440-UM","2018/07/26 17:19:27","新北市新莊區新莊路664-2號","121.44222","25.0331266666667","6500500","新莊區"
"242007","413-TV","2018/07/26 17:19:38","新北市新莊區新泰路500號","121.442416666667","25.046125","6500500","新莊區"
"242044","400-BY","2018/07/26 17:19:38","新北市新莊區民安路29號","121.423375","25.0275816666667","6500500","新莊區"
"242023","362-BY","2018/07/26 17:19:31","新北市新莊區中平路122號","121.444806666667","25.0464683333333","6500500","新莊區"
"242061","353-BY","2018/07/26 17:19:36","新北市新莊區中環路一段287號","121.442093333333","25.0319733333333","6500500","新莊區"
"242009","132-UY","2018/07/26 17:19:32","新北市新莊區新泰路500號","121.442373333333","25.04594","6500500","新莊區"
"242039","133-UY","2018/07/26 17:19:43","新北市新莊區中正路481號","121.441353333333","25.0337633333333","6500500","新莊區"
"242031","135-UY","2018/07/26 17:19:31","新北市新莊區三和路12-10號","121.442031666667","25.0368316666667","6500500","新莊區"
"242048","172-VK","2018/07/26 17:19:28","新北市新莊區龍安路116號","121.418971666667","25.0204183333333","6500500","新莊區"
"242011","173-VK","2018/07/26 17:19:29","新北市新莊區新泰路357巷3弄55號","121.442168333333","25.0397966666667","6500500","新莊區"
"242017","175-VK","2018/07/26 17:19:41","新北市新莊區中港一街142號","121.44667","25.0449233333333","6500500","新莊區"
"242004","176-VK","2018/07/26 17:19:26","新北市新莊區中環路二段392-1號","121.442415","25.045535","6500500","新莊區"
"242015","347-TH","2018/07/26 17:19:34","新北市新莊區新泰路303號","121.445195","25.0408866666667","6500500","新莊區"
"242021","348-TH","2018/07/26 17:19:39","新北市新莊區明中街45-1號","121.457591666667","25.0391883333333","6500500","新莊區"
"242002","349-TH","2018/07/26 17:19:32","新北市新莊區新泰路38號","121.449533333333","25.0341533333333","6500500","新莊區"
"242019","350-TH","2018/07/26 17:19:42","新北市新莊區新泰路502巷38號","121.443555","25.04637","6500500","新莊區"
"242013","351-TH","2018/07/26 17:19:34","新北市新莊區中環路二段392-1號","121.442405","25.0455916666667","6500500","新莊區"
"238023","601-UM","2018/07/26 17:19:34","新北市樹林區中正路433-2號","121.414868333333","25.008395","6500700","樹林區"
"238019","599-UM","2018/07/26 17:19:46","新北市樹林區八德街100號","121.420876666667","24.980105","6500700","樹林區"
"238018","571-TV","2018/07/26 17:19:43","新北市樹林區鎮前街269巷52號","121.418786666667","24.9848183333333","6500700","樹林區"
"238024","5061-A6","2018/07/26 17:19:39","新北市樹林區保安街一段48巷16號","121.42622","24.9948616666667","6500700","樹林區"
"238022","KEA-2213","2018/07/26 17:19:34","新北市樹林區和平街41號","121.42308","24.981775","6500700","樹林區"
"238021","KEA-2539","2018/07/26 17:19:33","新北市樹林區西圳街一段111號","121.398991666667","24.9643883333333","6500700","樹林區"
"238025","303-VK","2018/07/26 17:19:43","新北市樹林區保安二街93號","121.42399","24.995275","6500700","樹林區"
"238017","283-BY","2018/07/26 17:19:35","新北市樹林區中正路419號","121.416695","25.0071416666667","6500700","樹林區"
"238014","282-BY","2018/07/26 17:19:43","新北市樹林區復興路48號","121.422196666667","24.9939266666667","6500700","樹林區"
"238020","268-VK","2018/07/26 17:19:29","新北市樹林區中山路二段209號","121.402856666667","24.9782066666667","6500700","樹林區"
"238026","172-UY","2018/07/26 17:19:36","新北市樹林區東大街144號","121.410026666667","24.9759583333333","6500700","樹林區"
"238016","169-UY","2018/07/26 17:18:46","新北市樹林區中山路一段312號","121.419986666667","24.9861416666667","6500700","樹林區"
"239007","AAC-297","2018/07/26 17:19:43","新北市鶯歌區行政路3-1號","121.3508","24.955275","6500800","鶯歌區"
"239006","891-R6","2018/07/26 17:19:45","新北市鶯歌區德昌二街73號","121.333393333333","24.9578533333333","6500800","鶯歌區"
"239008","527-UM","2018/07/26 17:19:32","新北市鶯歌區西湖街45巷1號","121.340315","24.958385","6500800","鶯歌區"
"239005","526-UM","2018/07/26 17:19:40","新北市鶯歌區福德四街6號","121.329805","24.96793","6500800","鶯歌區"
"239001","417-VK","2018/07/26 17:19:37","新北市鶯歌區尖山路173巷31號","121.345438333333","24.9470333333333","6500800","鶯歌區"
"239003","360-BY","2018/07/26 17:19:31","新北市鶯歌區德昌二街3巷1-1號","121.333211666667","24.95935","6500800","鶯歌區"
"239002","359-BY","2018/07/26 17:19:34","新北市鶯歌區建國路170號","121.350133333333","24.9535066666667","6500800","鶯歌區"
"239004","292-BY","2018/07/26 17:19:35","新北市鶯歌區文化路423-1號","121.353615","24.94906","6500800","鶯歌區"
"242036","280-VK","2018/07/26 17:19:28","新北市新莊區新樹路40號","121.437836666667","25.0283566666667","6500500","新莊區"
