"lineid","car","time","location","longitude","latitude","cityid","cityname"
"234007","207-UY","2018/07/26 18:19:33","新北市永和區環河西路二段107號","121.506245","25.0147716666667","6500400","永和區"
"234042","862-TW","2018/07/26 18:19:35","新北市永和區福和路1號","121.52638","25.00977","6500400","永和區"
"234026","9371-KE","2018/07/26 18:19:32","新北市永和區豫溪街42巷8號","121.515325","25.009385","6500400","永和區"
"234011","9373-KE","2018/07/26 18:19:34","新北市永和區文化路210號","121.510168333333","25.01666","6500400","永和區"
"249005","172-UM","2018/07/26 18:19:45","新北市八里區荖阡坑路15-27號","121.400496666667","25.1403183333333","6502300","八里區"
"249004","303-UY","2018/07/26 18:19:40","新北市八里區龍米路二段200巷1號","121.433486666667","25.1586216666667","6502300","八里區"
"249002","305-UY","2018/07/26 18:19:42","新北市八里區龍形二街39號","121.450193333333","25.1327316666667","6502300","八里區"
"249001","759-BX","2018/07/26 18:19:31","新北市八里區龍米路一段290號","121.451503333333","25.1295833333333","6502300","八里區"
"248014","025-BX","2018/07/26 18:19:33","新北市五股區自強路19巷11號","121.434653333333","25.073675","6501500","五股區"
"248016","026-BX","2018/07/26 18:19:41","新北市五股區西雲路288號","121.449805","25.0989066666667","6501500","五股區"
"248006","077-UY","2018/07/26 18:19:42","新北市五股區中興路一段152號","121.464538333333","25.073835","6501500","五股區"
"248008","095-VK","2018/07/26 18:19:29","新北市五股區更洲路32巷8弄14號","121.459231666667","25.0796366666667","6501500","五股區"
"248020","225-UY","2018/07/26 18:19:34","新北市五股區孝義路47巷22號","121.451575","25.1090833333333","6501500","五股區"
"248012","247-BX","2018/07/26 18:19:47","新北市五股區御成路10號","121.44181","25.09114","6501500","五股區"
"248010","272-BY","2018/07/26 18:19:44","新北市五股區成泰路一段158號","121.43512","25.0764216666667","6501500","五股區"
"248004","677-BX","2018/07/26 18:19:35","新北市五股區成泰路二段87號","121.438225","25.0841766666667","6501500","五股區"
"248002","678-BX","2018/07/26 18:19:46","新北市五股區西雲路45號","121.44339","25.0908966666667","6501500","五股區"
"244007","080-UY","2018/07/26 18:19:45","新北市林口區竹林路361號","121.388008333333","25.0847416666667","6501700","林口區"
"244019","403-UM","2018/07/26 18:19:41","新北市林口區忠孝路561巷10號","121.373288333333","25.0687816666667","6501700","林口區"
"244013","742-UY","2018/07/26 18:19:37","新北市林口區佳林路101巷36號","121.386983333333","25.080005","6501700","林口區"
"244009","410-SL","2018/07/26 18:19:46","新北市林口區文化三路二段315號","121.379428333333","25.08726","6501700","林口區"
"244023","483-VK","2018/07/26 18:19:26","新北市林口區仁愛路二段80號","121.384525","25.0754333333333","6501700","林口區"
"244017","485-VK","2018/07/26 18:19:36","新北市林口區公園路10號","121.366245","25.066655","6501700","林口區"
"244010","657-BX","2018/07/26 18:19:42","新北市林口區仁愛路一段276號","121.39337","25.07622","6501700","林口區"
"244025","837-TS","2018/07/26 18:19:37","新北市林口區文化北路一段151號","121.35709","25.070585","6501700","林口區"
"244021","838-TS","2018/07/26 18:19:38","新北市林口區自強一街6-1號","121.397818333333","25.0785933333333","6501700","林口區"
"243013","AAD-798","2018/07/26 18:19:36","新北市泰山區錢厝坑13號","121.416641666667","25.0386433333333","6501600","泰山區"
"222003","436-BY","2018/07/26 18:19:40","新北市深坑區旺耽路67號","121.626251666667","25.0030133333333","6501800","深坑區"
"222002","659-BX","2018/07/26 18:19:34","新北市深坑區雲鄉路58號","121.621938333333","24.9994866666667","6501800","深坑區"
"231041","002-UM","2018/07/26 18:19:38","新北市新店區安華路28-1號","121.519718333333","24.9608566666667","6500600","新店區"
"231059","046-UY","2018/07/26 18:19:35","新北市新店區安華路28-1號","121.51964","24.9607916666667","6500600","新店區"
"231040","047-UY","2018/07/26 18:19:28","新北市新店區安華路28-1號","121.519245","24.960895","6500600","新店區"
"231044","106-UY","2018/07/26 18:19:37","新北市新店區安華路28-1號","121.519693333333","24.9607533333333","6500600","新店區"
"231046","107-UY","2018/07/26 18:19:35","新北市新店區直潭七街60號","121.532288333333","24.9397583333333","6500600","新店區"
"231052","108-UY","2018/07/26 18:19:31","新北市新店區安康路一段35-1號","121.53215","24.9605483333333","6500600","新店區"
"231065","110-UY","2018/07/26 18:19:37","新北市新店區安一路一段1-1號","121.519271666667","24.961565","6500600","新店區"
"231047","187-VK","2018/07/26 18:19:44","新北市新店區安一路一段1-1號","121.519658333333","24.961155","6500600","新店區"
"231054","KEA-2219","2018/07/26 18:19:45","新北市新店區安一路一段1-1號","121.519735","24.9612716666667","6500600","新店區"
"231057","256-BX","2018/07/26 18:19:34","新北市新店區安一路一段1-1號","121.519708333333","24.96109","6500600","新店區"
"231042","268-BY","2018/07/26 18:19:38","新北市新店區安華路1-1號","121.519171666667","24.9604883333333","6500600","新店區"
"231051","278-BY","2018/07/26 18:19:45","新北市新店區安一路一段1-1號","121.519526666667","24.9611","6500600","新店區"
"231050","AAD-862","2018/07/26 18:19:34","新北市新店區安華路28-1號","121.520158333333","24.9610983333333","6500600","新店區"
"231058","3713-VJ","2018/07/26 18:19:47","新北市新店區安康路一段17號","121.533186666667","24.9603466666667","6500600","新店區"
"231066","4716-K9","2018/07/26 18:19:39","新北市新店區安一路一段1-1號","121.519386666667","24.9613033333333","6500600","新店區"
"231056","4715-K9","2018/07/26 18:19:36","新北市新店區中央路57號","121.532768333333","24.97737","6500600","新店區"
"231067","4772-VM","2018/07/26 18:19:45","新北市新店區安華路28-1號","121.519071666667","24.9607266666667","6500600","新店區"
"231049","513-UM","2018/07/26 18:19:28","新北市新店區安一路一段1-1號","121.519748333333","24.9610666666667","6500600","新店區"
"231063","616-UM","2018/07/26 18:19:40","新北市新店區安華路1-1號","121.519555","24.9605016666667","6500600","新店區"
"231045","617-UM","2018/07/26 18:19:34","新北市新店區安華路28-1號","121.519495","24.96083","6500600","新店區"
"231061","619-UM","2018/07/26 18:19:47","新北市新店區安華路28-1號","121.5198","24.9608266666667","6500600","新店區"
"231064","719-UM","2018/07/26 18:19:34","新北市新店區安一路一段1-1號","121.519606666667","24.96124","6500600","新店區"
"231062","720-UM","2018/07/26 18:19:31","新北市新店區安一路一段1-1號","121.519248333333","24.9611733333333","6500600","新店區"
"231060","897-TW","2018/07/26 18:19:48","新北市新店區安華路28-1號","121.51962","24.9609266666667","6500600","新店區"
"231043","899-TW","2018/07/26 18:19:48","新北市新店區安華路28-1號","121.51918","24.9607816666667","6500600","新店區"
"231055","AKT-0513","2018/07/26 18:19:36","新北市新店區光明街133號","121.539326666667","24.9620033333333","6500600","新店區"
"241006","AAD-863","2018/07/26 18:19:32","新北市三重區後竹圍街205巷50號","121.484323333333","25.073055","6500200","三重區"
"241033","AAC-255","2018/07/26 18:19:41","新北市三重區中興北街42巷33號","121.46805","25.0493016666667","6500200","三重區"
"235066","003-UY","2018/07/26 18:19:27","新北市中和區中山路二段119號","121.502923333333","25.00355","6500300","中和區"
"235064","005-UY","2018/07/26 18:19:28","新北市中和區中正路160號","121.498561666667","24.9939316666667","6500300","中和區"
"235063","006-UY","2018/07/26 18:19:35","新北市中和區中正路569號","121.486686666667","24.9942416666667","6500300","中和區"
"235056","096-UM","2018/07/26 18:19:29","新北市中和區中山路二段582號","121.482603333333","25.0051133333333","6500300","中和區"
"235039","097-UM","2018/07/26 18:19:30","新北市中和區景平路359號","121.504608333333","24.993435","6500300","中和區"
"235065","098-UM","2018/07/26 18:19:39","新北市中和區莊敬路49巷18號","121.501666666667","25.00611","6500300","中和區"
"235040","150-BY","2018/07/26 18:19:42","新北市中和區景平路355號","121.50473","24.99339","6500300","中和區"
"235058","151-BY","2018/07/26 18:19:44","新北市中和區圓通路369巷35號","121.489233333333","24.986505","6500300","中和區"
"235055","183-VK","2018/07/26 18:19:32","新北市中和區中正路637巷52弄3號","121.485335","24.9935733333333","6500300","中和區"
"235049","186-VK","2018/07/26 18:19:31","新北市中和區中正路637巷52弄1號","121.48552","24.993545","6500300","中和區"
"235067","255-BX","2018/07/26 18:19:45","新北市中和區和城路一段271巷1號","121.48558","24.9914283333333","6500300","中和區"
"235072","301-VK","2018/07/26 18:19:36","新北市中和區錦和路107號","121.490233333333","24.9952366666667","6500300","中和區"
"235043","352-BY","2018/07/26 18:19:37","新北市中和區中正路190-1號","121.497996666667","24.9937683333333","6500300","中和區"
"235050","4979-A6","2018/07/26 18:19:34","新北市中和區捷運路61巷28號","121.50914","24.9892416666667","6500300","中和區"
"235069","4980-A6","2018/07/26 18:19:31","新北市中和區錦和路164號","121.489708333333","24.9958216666667","6500300","中和區"
"235042","551-UM","2018/07/26 18:19:36","新北市中和區大仁街20巷25弄14號","121.519041666667","24.9935666666667","6500300","中和區"
"235070","558-UM","2018/07/26 18:19:46","新北市中和區景平路429-3號","121.501175","24.9955483333333","6500300","中和區"
"235045","565-BX","2018/07/26 18:19:32","新北市中和區景安路200巷5號","121.503525","24.9915666666667","6500300","中和區"
"235054","640-BX","2018/07/26 18:19:36","新北市中和區民享街88巷2號","121.474446666667","25.0007216666667","6500300","中和區"
"235060","647-TV","2018/07/26 18:19:46","新北市中和區連城路467-5號","121.483653333333","24.9961016666667","6500300","中和區"
"235047","732-UM","2018/07/26 18:19:40","新北市中和區南山路252號","121.507753333333","24.9887766666667","6500300","中和區"
"235046","733-UM","2018/07/26 18:19:36","新北市中和區員山路36巷13號","121.484105","24.99104","6500300","中和區"
"235062","800-TS","2018/07/26 18:19:30","新北市中和區橋和路126號","121.492985","25.0060333333333","6500300","中和區"
"235057","801-TS","2018/07/26 18:19:29","新北市中和區民安街180號","121.476313333333","24.9998733333333","6500300","中和區"
"235041","802-TS","2018/07/26 18:19:35","新北市中和區錦和路350-1號","121.490501666667","24.993605","6500300","中和區"
"235052","805-TS","2018/07/26 18:19:34","新北市中和區興南路二段96號","121.505008333333","24.98403","6500300","中和區"
"235048","896-TW","2018/07/26 18:19:44","新北市中和區錦和路350-1號","121.490081666667","24.9935266666667","6500300","中和區"
"235053","900-TW","2018/07/26 18:19:44","新北市中和區中正路637巷52弄5號","121.485185","24.9937883333333","6500300","中和區"
"235051","157-BY","2018/07/26 18:19:47","新北市中和區仁愛街91號","121.511906666667","24.98702","6500300","中和區"
"235037","AAC-213","2018/07/26 18:19:51","新北市中和區景德街75號","121.516601666667","24.9914266666667","6500300","中和區"
"226004","312-R5","2018/07/26 18:19:43","新北市平溪區薯榔里一坑路67號","121.713081666667","25.0224083333333","6502400","平溪區"
"235038","251-BX","2018/07/26 18:19:40","新北市中和區大智街98號","121.523728333333","24.9925083333333","6500300","中和區"
"228003","097-TW","2018/07/26 18:19:39","新北市貢寮區真理里美艷山街63號","121.9216","25.07165","6502600","貢寮區"
"228001","212-TW","2018/07/26 18:19:45","新北市貢寮區真理里新港街26巷55弄2-1號","121.92738","25.0528566666667","6502600","貢寮區"
"228002","663-BX","2018/07/26 18:19:42","新北市貢寮區福連里福興街39-3號","121.99379","25.01334","6502600","貢寮區"
"224006","676-BX","2018/07/26 18:19:32","新北市瑞芳區三爪子坑路106巷35號","121.809141666667","25.1039566666667","6501200","瑞芳區"
"224002","639-TC","2018/07/26 18:19:41","新北市瑞芳區三爪子坑路91巷15號","121.81173","25.1069316666667","6501200","瑞芳區"
"224008","285-BY","2018/07/26 18:19:32","新北市瑞芳區逢甲路38號","121.81135","25.1083916666667","6501200","瑞芳區"
"224007","275-VK","2018/07/26 18:19:46","新北市瑞芳區大埔路有勝新村7號","121.764786666667","25.1010383333333","6501200","瑞芳區"
"224009","273-VK","2018/07/26 18:19:39","新北市瑞芳區五號路8號","121.854881666667","25.1102433333333","6501200","瑞芳區"
"224005","271-BY","2018/07/26 18:19:27","新北市瑞芳區建基新村8號","121.812216666667","25.131885","6501200","瑞芳區"
"227010","642-TC","2018/07/26 18:19:32","新北市雙溪區牡丹里牡丹73號","121.85171","25.0593633333333","6502500","雙溪區"
"227004","400-TW","2018/07/26 18:19:44","新北市雙溪區共和里中山路8號","121.864803333333","25.03324","6502500","雙溪區"
"253005","032-BX","2018/07/26 18:19:31","新北市石門區中央路4-3號","121.565626666667","25.29134","6502200","石門區"
"253006","295-VK","2018/07/26 18:19:48","新北市石門區老梅路99號","121.546938333333","25.2892766666667","6502200","石門區"
"222001","KEA-2212","2018/07/26 18:19:39","新北市深坑區北深路二段51-1號","121.619025","25.00413","6501800","深坑區"
"208002","KEA-2872","2018/07/26 18:19:48","新北市金山區清泉里清水路60巷20號","121.634701666667","25.2322866666667","6502700","金山區"
"208003","665-BX","2018/07/26 18:19:29","新北市金山區民生路196號","121.645431666667","25.221795","6502700","金山區"
"208001","761-BX","2018/07/26 18:19:46","新北市金山區自強路11號","121.640375","25.21659","6502700","金山區"
"251004","009-UM","2018/07/26 18:19:39","新北市淡水區民族路112巷1號","121.46268","25.135065","6501000","淡水區"
"251005","010-UM","2018/07/26 18:19:29","新北市淡水區水源街一段122巷37號","121.447045","25.17041","6501000","淡水區"
"251001","011-UM","2018/07/26 18:19:31","新北市淡水區自強路98-3號","121.462431666667","25.1291483333333","6501000","淡水區"
"251013","KEA-2871","2018/07/26 18:19:35","新北市淡水區行忠路691號","121.471518333333","25.19943","6501000","淡水區"
"251016","179-VK","2018/07/26 18:19:36","新北市淡水區淡金路三段228巷35號","121.450086666667","25.20479","6501000","淡水區"
"251014","180-VK","2018/07/26 18:19:34","新北市淡水區崙頂14號","121.491188333333","25.2217283333333","6501000","淡水區"
"251008","181-VK","2018/07/26 18:19:35","新北市淡水區水源街二段246號","121.462998333333","25.175985","6501000","淡水區"
"251015","182-VK","2018/07/26 18:19:36","新北市淡水區興福寮66巷539號","121.484565","25.1651433333333","6501000","淡水區"
"251010","413-VK","2018/07/26 18:19:50","新北市淡水區淡海路200號","121.420231666667","25.1854683333333","6501000","淡水區"
"251012","441-VK","2018/07/26 18:19:32","新北市淡水區北新路二段77-5號","121.480575","25.1854883333333","6501000","淡水區"
"251006","443-VK","2018/07/26 18:19:32","新北市淡水區真理街11號","121.43758","25.17347","6501000","淡水區"
"251011","650-BX","2018/07/26 18:19:46","新北市淡水區坪頂路51巷2號","121.458401666667","25.1626683333333","6501000","淡水區"
"251002","672-BX","2018/07/26 18:19:42","新北市淡水區中正東路一段34號","121.452511666667","25.16239","6501000","淡水區"
"251003","766-UM","2018/07/26 18:19:41","新北市淡水區北新路180號","121.449253333333","25.1787533333333","6501000","淡水區"
"207003","550-UM","2018/07/26 18:19:29","新北市萬里區野柳里港東路6-4號","121.686736666667","25.2033166666667","6502800","萬里區"
"207004","225-TW","2018/07/26 18:19:43","新北市萬里區中幅里中福路39-2號","121.67687","25.1658133333333","6502800","萬里區"
"252003","249-BX","2018/07/26 18:19:47","新北市三芝區錫板里海尾11-7號","121.478761666667","25.26129","6502100","三芝區"
"252001","292-VK","2018/07/26 18:19:41","新北市三芝區中興街二段2號","121.498421666667","25.2566183333333","6502100","三芝區"
"237007","153-BY","2018/07/26 18:19:42","新北市三峽區中正路二段370巷36號","121.36453","24.9112516666667","6500900","三峽區"
"237009","210-TH","2018/07/26 18:19:37","新北市三峽區大仁路36號","121.365943333333","24.93755","6500900","三峽區"
"237013","252-BX","2018/07/26 18:19:46","新北市三峽區長泰街33巷14弄9號","121.377113333333","24.9316816666667","6500900","三峽區"
"237012","275-BY","2018/07/26 18:19:33","新北市三峽區民生街19巷7弄18號","121.377078333333","24.9356416666667","6500900","三峽區"
"237008","302-VK","2018/07/26 18:19:32","新北市三峽區白雞64-8號","121.384845","24.9125783333333","6500900","三峽區"
"237014","433-BY","2018/07/26 18:19:47","新北市三峽區復興路110巷4弄5號","121.373161666667","24.9384283333333","6500900","三峽區"
"237006","5529-G3","2018/07/26 18:19:39","新北市三峽區溪東路235號","121.406486666667","24.932595","6500900","三峽區"
"237011","KEA-2596","2018/07/26 18:19:35","新北市三峽區介壽路一段227號","121.379016666667","24.9303083333333","6500900","三峽區"
"237016","649-BX","2018/07/26 18:19:46","新北市三峽區紫微路19-1號","121.4249","24.921305","6500900","三峽區"
"237010","706-TV","2018/07/26 18:19:41","新北市三峽區中園街3號","121.368566666667","24.9274716666667","6500900","三峽區"
"237005","AKY-6261","2018/07/26 18:19:33","新北市三峽區文化路65巷2號","121.371958333333","24.9357","6500900","三峽區"
"236070","105-UM","2018/07/26 18:19:45","新北市土城區永豐路171號","121.4695","24.9790716666667","6501300","土城區"
"236042","107-UM","2018/07/26 18:19:28","新北市土城區裕生路21巷6弄22號","121.448583333333","24.9866383333333","6501300","土城區"
"236078","166-UM","2018/07/26 18:19:43","新北市土城區中央路三段281巷23弄19號","121.426311666667","24.9615483333333","6501300","土城區"
"236030","253-BX","2018/07/26 18:19:44","新北市土城區順風路41號","121.44073","24.97673","6501300","土城區"
"236026","269-VK","2018/07/26 18:19:44","新北市土城區承天路43巷2號","121.438921666667","24.9639566666667","6501300","土城區"
"236014","270-VK","2018/07/26 18:19:46","新北市土城區立清街69號","121.460336666667","24.9873083333333","6501300","土城區"
"236038","271-VK","2018/07/26 18:19:39","新北市土城區青雲路451巷8弄17號","121.459518333333","24.974115","6501300","土城區"
"236021","401-BY","2018/07/26 18:19:31","新北市土城區明德路一段371號","121.453111666667","24.9795083333333","6501300","土城區"
"236059","912-UM","2018/07/26 18:19:47","新北市土城區中央路四段466號","121.410195","24.95071","6501300","土城區"
"236049","913-UM","2018/07/26 18:19:28","新北市土城區明德路一段361-1號","121.45662","24.977595","6501300","土城區"
"236063","915-UM","2018/07/26 18:19:30","新北市土城區金城路三段185-1號","121.469808333333","24.9888066666667","6501300","土城區"
"236055","AAC-216","2018/07/26 18:19:36","新北市土城區中華路二段92號","121.438178333333","24.9747516666667","6501300","土城區"
"242058","986-R7","2018/07/26 18:19:33","新北市新莊區新北大道七段848號","121.413745","25.0236183333333","6500500","新莊區"
"242053","751-BX","2018/07/26 18:19:34","新北市新莊區民安西路410巷10弄1號","121.42811","25.0092483333333","6500500","新莊區"
"242029","705-TV","2018/07/26 18:19:36","新北市新莊區幸福路858號","121.443826666667","25.0489816666667","6500500","新莊區"
"242027","615-BX","2018/07/26 18:19:39","新北市新莊區幸福路761號","121.448015","25.0490883333333","6500500","新莊區"
"242025","613-BX","2018/07/26 18:19:41","新北市新莊區五權一路12巷9弄21號","121.45799","25.06535","6500500","新莊區"
"242042","566-BX","2018/07/26 18:19:34","新北市新莊區天祥街121巷22號","121.414161666667","25.0289916666667","6500500","新莊區"
"242046","497-BY","2018/07/26 18:19:44","新北市新莊區民安路46號","121.422688333333","25.0274316666667","6500500","新莊區"
"242051","441-UM","2018/07/26 18:19:50","新北市新莊區民安東路7號","121.427711666667","25.021","6500500","新莊區"
"242056","440-UM","2018/07/26 18:19:46","新北市新莊區泰豐街21號","121.448205","25.0318883333333","6500500","新莊區"
"242044","400-BY","2018/07/26 18:19:38","新北市新莊區中山路三段619號","121.413063333333","25.0250916666667","6500500","新莊區"
"242061","353-BY","2018/07/26 18:19:36","新北市新莊區新樹路181-2號","121.43613","25.0244666666667","6500500","新莊區"
"242009","132-UY","2018/07/26 18:19:41","新北市新莊區幸福路600號","121.452948333333","25.04939","6500500","新莊區"
"242039","133-UY","2018/07/26 18:19:43","新北市新莊區新樹路210號","121.433708333333","25.0204616666667","6500500","新莊區"
"242031","135-UY","2018/07/26 18:19:31","新北市新莊區新泰路277巷11號","121.44529","25.0402416666667","6500500","新莊區"
"242011","173-VK","2018/07/26 18:19:49","新北市新莊區中榮街49巷1號","121.449528333333","25.0525016666667","6500500","新莊區"
"242015","347-TH","2018/07/26 18:19:34","新北市新莊區中平路82巷28號","121.446","25.04484","6500500","新莊區"
"242021","348-TH","2018/07/26 18:19:47","新北市新莊區新興街3號","121.450645","25.0365966666667","6500500","新莊區"
"242002","349-TH","2018/07/26 18:19:32","新北市新莊區碧江街11號","121.455825","25.0349383333333","6500500","新莊區"
"238015","755-BX","2018/07/26 18:19:35","新北市樹林區大安路316號","121.41725","24.9918083333333","6500700","樹林區"
"238023","601-UM","2018/07/26 18:19:41","新北市樹林區忠信街2號","121.409515","25.015375","6500700","樹林區"
"238019","599-UM","2018/07/26 18:19:35","新北市樹林區中華路70號","121.419671666667","24.9814966666667","6500700","樹林區"
"238018","571-TV","2018/07/26 18:19:48","新北市樹林區樹新路28巷11號","121.427605","24.9942483333333","6500700","樹林區"
"238024","5061-A6","2018/07/26 18:19:40","新北市樹林區中山路一段151號","121.422178333333","24.9890916666667","6500700","樹林區"
"238025","303-VK","2018/07/26 18:19:43","新北市樹林區保安街一段120號","121.423441666667","24.99499","6500700","樹林區"
"238017","283-BY","2018/07/26 18:19:35","新北市樹林區光榮街3巷1號","121.413113333333","25.003975","6500700","樹林區"
"238014","282-BY","2018/07/26 18:19:44","新北市樹林區大安路97號","121.422771666667","24.9983366666667","6500700","樹林區"
"238020","268-VK","2018/07/26 18:19:29","新北市樹林區三龍街78號","121.413975","25.0185383333333","6500700","樹林區"
"238026","172-UY","2018/07/26 18:19:36","新北市樹林區佳園路一段41巷38-1號","121.395026666667","24.9704983333333","6500700","樹林區"
"238016","169-UY","2018/07/26 18:19:26","新北市樹林區文化街28號","121.419248333333","24.987705","6500700","樹林區"
"239007","AAC-297","2018/07/26 18:19:43","新北市鶯歌區尖山埔路64號","121.34849","24.9510266666667","6500800","鶯歌區"
"239006","891-R6","2018/07/26 18:19:45","新北市鶯歌區德昌街140巷20號","121.332163333333","24.9611583333333","6500800","鶯歌區"
"239008","527-UM","2018/07/26 18:19:32","新北市鶯歌區國際一路179號","121.33623","24.9765366666667","6500800","鶯歌區"
"239005","526-UM","2018/07/26 18:19:40","新北市鶯歌區鶯桃路668巷73號","121.329943333333","24.9718216666667","6500800","鶯歌區"
"239001","417-VK","2018/07/26 18:19:37","新北市鶯歌區中正三路福德巷25號","121.33983","24.94077","6500800","鶯歌區"
"239003","360-BY","2018/07/26 18:19:31","新北市鶯歌區福安街58號","121.335581666667","24.965205","6500800","鶯歌區"
"239002","359-BY","2018/07/26 18:19:34","新北市鶯歌區國華路31號","121.343006666667","24.9556883333333","6500800","鶯歌區"
"221008","489-VK","2018/07/26 18:19:43","新北市汐止區汐萬路一段329號","121.649701666667","25.075755","6501100","汐止區"
"221036","130-UY","2018/07/26 18:19:31","新北市汐止區長安路81號","121.669231666667","25.07843","6501100","汐止區"
"221015","131-UY","2018/07/26 18:19:34","新北市汐止區鄉長路二段23巷14號","121.667585","25.08305","6501100","汐止區"
"221010","269-BY","2018/07/26 18:19:43","新北市汐止區汐萬路二段286號","121.645001666667","25.0902816666667","6501100","汐止區"
"221012","278-VK","2018/07/26 18:19:48","新北市汐止區長興街二段4巷14號","121.673296666667","25.0804183333333","6501100","汐止區"
"221023","279-VK","2018/07/26 18:19:29","新北市汐止區中興路244號","121.629456666667","25.068165","6501100","汐止區"
"221032","280-BY","2018/07/26 18:19:31","新北市汐止區力行街36號","121.616391666667","25.05026","6501100","汐止區"
"221027","281-BY","2018/07/26 18:19:48","新北市汐止區和平街40-1號","121.662556666667","25.0710133333333","6501100","汐止區"
"221033","297-VK","2018/07/26 18:19:37","新北市汐止區宜興街33巷1號","121.621988333333","25.0421216666667","6501100","汐止區"
"221029","298-VK","2018/07/26 18:19:39","新北市汐止區汐萬路一段256巷3號","121.65238","25.0746233333333","6501100","汐止區"
"221021","299-VK","2018/07/26 18:19:43","新北市汐止區連興街52號","121.653888333333","25.0628733333333","6501100","汐止區"
"221031","353-TW","2018/07/26 18:19:39","新北市汐止區工建路332號","121.633708333333","25.05988","6501100","汐止區"
"221035","622-UM","2018/07/26 18:19:32","新北市汐止區大同路二段187巷4弄1號","121.652333333333","25.065175","6501100","汐止區"
"221025","623-UM","2018/07/26 18:19:41","新北市汐止區勤進路12巷39號","121.659081666667","25.0627466666667","6501100","汐止區"
"221038","646-BX","2018/07/26 18:19:30","新北市汐止區忠孝東路282號","121.663728333333","25.0682233333333","6501100","汐止區"
"221002","707-TV","2018/07/26 18:19:31","新北市汐止區福德一路201巷29號","121.635906666667","25.06454","6501100","汐止區"
"221018","753-BX","2018/07/26 18:19:38","新北市汐止區茄苳路118號","121.668071666667","25.07032","6501100","汐止區"
"220064","486-VK","2018/07/26 18:19:44","新北市板橋區華東街1-10號","121.448425","24.99503","6500100","板橋區"
"235068","KEA-2873","2018/07/26 18:19:20","新北市中和區員山路36巷16-3號","121.485103333333","24.9911983333333","6500300","中和區"
"235025","KEA-2875","2018/07/26 18:19:29","新北市中和區國光街215巷67號","121.46776","24.99973","6500300","中和區"
