"lineid","car","time","location","longitude","latitude","cityid","cityname"
"234046","148-BY","2018/07/26 18:29:37","新北市永和區福和路8巷1號","121.52499","25.0090566666667","6500400","永和區"
"234007","207-UY","2018/07/26 18:29:33","新北市永和區環河西路二段229巷5號","121.501565","25.0099316666667","6500400","永和區"
"234081","298-R6","2018/07/26 18:29:02","新北市永和區環河東路二段98號","121.524121666667","25.0104216666667","6500400","永和區"
"234038","336-UY","2018/07/26 18:29:39","新北市永和區福和路1號","121.526436666667","25.010115","6500400","永和區"
"234064","337-UY","2018/07/26 18:29:41","新北市永和區福和路1號","121.526576666667","25.0099416666667","6500400","永和區"
"234086","338-UY","2018/07/26 18:29:46","新北市永和區福和路1號","121.526493333333","25.0095583333333","6500400","永和區"
"234017","745-BX","2018/07/26 18:29:44","新北市永和區福和路1號","121.526411666667","25.0095333333333","6500400","永和區"
"234054","KEA-2590","2018/07/26 18:29:43","新北市永和區福和路1號","121.526316666667","25.0096983333333","6500400","永和區"
"234042","862-TW","2018/07/26 18:29:35","新北市永和區福和路1號","121.525961666667","25.009205","6500400","永和區"
"234026","9371-KE","2018/07/26 18:29:32","新北市永和區永貞路417巷29號","121.505895","25.008955","6500400","永和區"
"234011","9373-KE","2018/07/26 18:29:34","新北市永和區保福路二段158巷1號","121.509111666667","25.01504","6500400","永和區"
"249005","172-UM","2018/07/26 18:29:25","新北市八里區中華路三段134號","121.3913","25.1340916666667","6502300","八里區"
"249004","303-UY","2018/07/26 18:29:40","新北市八里區忠四街43號","121.424973333333","25.16108","6502300","八里區"
"249002","305-UY","2018/07/26 18:29:43","新北市八里區龍形三街26號","121.448023333333","25.1316583333333","6502300","八里區"
"249001","759-BX","2018/07/26 18:29:31","新北市八里區龍米路一段198號","121.451886666667","25.1277583333333","6502300","八里區"
"248014","025-BX","2018/07/26 18:29:33","新北市五股區自強路148號","121.432166666667","25.0703966666667","6501500","五股區"
"248016","026-BX","2018/07/26 18:29:41","新北市五股區凌雲路一段83巷30號","121.449348333333","25.1009666666667","6501500","五股區"
"248006","077-UY","2018/07/26 18:29:35","新北市五股區四維路38號","121.467253333333","25.0716883333333","6501500","五股區"
"248008","095-VK","2018/07/26 18:29:49","新北市五股區中興路二段52巷15-8號","121.462938333333","25.07783","6501500","五股區"
"248020","225-UY","2018/07/26 18:29:42","新北市五股區孝義路80號","121.449758333333","25.1146433333333","6501500","五股區"
"248012","247-BX","2018/07/26 18:29:47","新北市五股區御史路59號","121.4419","25.093675","6501500","五股區"
"248010","272-BY","2018/07/26 18:29:44","新北市五股區明德路8號","121.433323333333","25.0716366666667","6501500","五股區"
"248004","677-BX","2018/07/26 18:29:35","新北市五股區工商路130號","121.436005","25.086055","6501500","五股區"
"248002","678-BX","2018/07/26 18:29:46","新北市五股區西雲路113-1號","121.443971666667","25.0931416666667","6501500","五股區"
"234023","9380-KE","2018/07/26 18:29:49","新北市永和區福和路1號","121.526103333333","25.00908","6500400","永和區"
"244007","080-UY","2018/07/26 18:29:45","新北市林口區後湖11-63號","121.387041666667","25.0976066666667","6501700","林口區"
"244019","403-UM","2018/07/26 18:29:41","新北市林口區忠孝路577號","121.37509","25.0683783333333","6501700","林口區"
"244013","742-UY","2018/07/26 18:29:47","新北市林口區佳林路106號","121.385078333333","25.07908","6501700","林口區"
"244009","410-SL","2018/07/26 18:29:46","新北市林口區文化二路二段369號","121.380906666667","25.08685","6501700","林口區"
"244023","483-VK","2018/07/26 18:29:46","新北市林口區四維路245巷53號","121.382796666667","25.0754916666667","6501700","林口區"
"244017","485-VK","2018/07/26 18:29:36","新北市林口區八德路78號","121.365521666667","25.0655933333333","6501700","林口區"
"244010","657-BX","2018/07/26 18:29:39","新北市林口區中正路182號","121.39188","25.0774783333333","6501700","林口區"
"244025","837-TS","2018/07/26 18:29:32","新北市林口區南勢六街71-1號","121.355248333333","25.0720416666667","6501700","林口區"
"244021","838-TS","2018/07/26 18:29:38","新北市林口區自強二街33號","121.398495","25.077705","6501700","林口區"
"243013","AAD-798","2018/07/26 18:27:19","新北市泰山區明志路三段206巷3號","121.423285","25.0379116666667","6501600","泰山區"
"243011","KEA-2215","2018/07/26 18:29:40","新北市泰山區大科路78號","121.410786666667","25.0606583333333","6501600","泰山區"
"243012","646-TV","2018/07/26 18:29:35","新北市泰山區泰林路二段561號","121.42268","25.0636183333333","6501600","泰山區"
"222003","436-BY","2018/07/26 18:29:41","新北市深坑區烏月路56-1號","121.631095","25.0054966666667","6501800","深坑區"
"222002","659-BX","2018/07/26 18:29:34","新北市深坑區雲鄉路133號","121.622775","24.9980833333333","6501800","深坑區"
"231041","002-UM","2018/07/26 18:29:38","新北市新店區安華路28-1號","121.519736666667","24.9608416666667","6500600","新店區"
"231059","046-UY","2018/07/26 18:29:35","新北市新店區安華路28-1號","121.519623333333","24.9608066666667","6500600","新店區"
"231040","047-UY","2018/07/26 18:29:48","新北市新店區安一路一段1-1號","121.519275","24.9610516666667","6500600","新店區"
"231044","106-UY","2018/07/26 18:29:37","新北市新店區安華路28-1號","121.51968","24.9607866666667","6500600","新店區"
"231046","107-UY","2018/07/26 18:29:35","新北市新店區直潭七街60號","121.53228","24.9397616666667","6500600","新店區"
"231052","108-UY","2018/07/26 18:29:33","新北市新店區新烏路一段50-23號","121.54569","24.9494366666667","6500600","新店區"
"231065","110-UY","2018/07/26 18:29:37","新北市新店區安一路一段1-1號","121.51929","24.961305","6500600","新店區"
"231047","187-VK","2018/07/26 18:29:44","新北市新店區安一路一段1-1號","121.519671666667","24.9611516666667","6500600","新店區"
"231054","KEA-2219","2018/07/26 18:29:45","新北市新店區安一路一段1-1號","121.51984","24.96122","6500600","新店區"
"231057","256-BX","2018/07/26 18:29:34","新北市新店區北宜路一段222號","121.543936666667","24.9531416666667","6500600","新店區"
"231042","268-BY","2018/07/26 18:29:38","新北市新店區安一路一段1-1號","121.519578333333","24.961305","6500600","新店區"
"231051","278-BY","2018/07/26 18:29:45","新北市新店區安一路一段1-1號","121.519695","24.961255","6500600","新店區"
"231050","AAD-862","2018/07/26 18:29:34","新北市新店區安一路一段1-1號","121.520085","24.9611233333333","6500600","新店區"
"231058","3713-VJ","2018/07/26 18:29:47","新北市新店區新店後街112號","121.537671666667","24.955445","6500600","新店區"
"231066","4716-K9","2018/07/26 18:29:39","新北市新店區安一路一段1-1號","121.519325","24.961335","6500600","新店區"
"231056","4715-K9","2018/07/26 18:29:35","新北市新店區二十張路105巷16號","121.536871666667","24.9790633333333","6500600","新店區"
"231067","4772-VM","2018/07/26 18:29:45","新北市新店區安華路28-1號","121.519121666667","24.9606433333333","6500600","新店區"
"231049","513-UM","2018/07/26 18:29:28","新北市新店區安一路一段1-1號","121.51965","24.9610816666667","6500600","新店區"
"231063","616-UM","2018/07/26 18:29:40","新北市新店區安華路1-1號","121.51957","24.9604866666667","6500600","新店區"
"231045","617-UM","2018/07/26 18:29:34","新北市新店區安華路28-1號","121.519581666667","24.9608866666667","6500600","新店區"
"231061","619-UM","2018/07/26 18:29:47","新北市新店區安華路28-1號","121.519635","24.9606616666667","6500600","新店區"
"231064","719-UM","2018/07/26 18:29:35","新北市新店區安一路一段1-1號","121.5196","24.9611733333333","6500600","新店區"
"231062","720-UM","2018/07/26 18:29:31","新北市新店區安一路一段1-1號","121.5192","24.96117","6500600","新店區"
"231060","897-TW","2018/07/26 18:29:29","新北市新店區安華路28-1號","121.519636666667","24.9608066666667","6500600","新店區"
"231043","899-TW","2018/07/26 18:29:28","新北市新店區安華路28-1號","121.519158333333","24.960745","6500600","新店區"
"231055","AKT-0513","2018/07/26 18:29:36","新北市新店區中正路228號","121.539983333333","24.97283","6500600","新店區"
"241006","AAD-863","2018/07/26 18:29:32","新北市三重區車路頭街139巷12號","121.484246666667","25.0762466666667","6500200","三重區"
"235066","003-UY","2018/07/26 18:29:46","新北市中和區中山路二段119號","121.50287","25.0036366666667","6500300","中和區"
"235064","005-UY","2018/07/26 18:29:49","新北市中和區圓通路142號","121.498273333333","24.99573","6500300","中和區"
"235063","006-UY","2018/07/26 18:29:35","新北市中和區連城路389巷16號","121.486536666667","24.9952316666667","6500300","中和區"
"235056","096-UM","2018/07/26 18:29:29","新北市中和區員山路611巷1號","121.477886666667","25.0111966666667","6500300","中和區"
"235039","097-UM","2018/07/26 18:29:30","新北市中和區安平路159號","121.51233","24.9983733333333","6500300","中和區"
"235065","098-UM","2018/07/26 18:29:39","新北市中和區中山路二段64巷11號","121.503073333333","25.0056216666667","6500300","中和區"
"235040","150-BY","2018/07/26 18:29:42","新北市中和區安平路38號","121.509795","24.9949633333333","6500300","中和區"
"235058","151-BY","2018/07/26 18:29:43","新北市中和區圓通路369巷30弄8號","121.488926666667","24.9846166666667","6500300","中和區"
"235055","183-VK","2018/07/26 18:29:32","新北市中和區莒光路66號","121.472278333333","25.00321","6500300","中和區"
"235049","186-VK","2018/07/26 18:29:31","新北市中和區景平路357號","121.504655","24.993475","6500300","中和區"
"235067","255-BX","2018/07/26 18:29:45","新北市中和區連城路314號","121.48357","24.996185","6500300","中和區"
"235044","293-VK","2018/07/26 18:29:40","新北市中和區復興路301巷2弄1號","121.501488333333","24.9899283333333","6500300","中和區"
"235072","301-VK","2018/07/26 18:29:37","新北市中和區連城路171巷28號","121.495868333333","24.9971166666667","6500300","中和區"
"235043","352-BY","2018/07/26 18:29:37","新北市中和區景平路317號","121.506213333333","24.9931766666667","6500300","中和區"
"235050","4979-A6","2018/07/26 18:29:34","新北市中和區景新街410巷18弄20號","121.511843333333","24.98981","6500300","中和區"
"235069","4980-A6","2018/07/26 18:29:31","新北市中和區連城路127巷19-10號","121.496796666667","24.9981233333333","6500300","中和區"
"235042","551-UM","2018/07/26 18:29:36","新北市中和區秀朗路三段128巷1弄15號","121.523748333333","24.99155","6500300","中和區"
"235070","558-UM","2018/07/26 18:29:46","新北市中和區南華路42號","121.503601666667","24.9963933333333","6500300","中和區"
"235045","565-BX","2018/07/26 18:29:41","新北市中和區南山路236巷24弄30號","121.504823333333","24.9889133333333","6500300","中和區"
"235054","640-BX","2018/07/26 18:29:36","新北市中和區民享街89巷4弄16號","121.475218333333","25.00102","6500300","中和區"
"235060","647-TV","2018/07/26 18:29:46","新北市中和區員山路373號","121.481273333333","25.0022633333333","6500300","中和區"
"235047","732-UM","2018/07/26 18:29:40","新北市中和區南山路252號","121.507795","24.988765","6500300","中和區"
"235046","733-UM","2018/07/26 18:29:36","新北市中和區南山路291號","121.504361666667","24.99203","6500300","中和區"
"235062","800-TS","2018/07/26 18:29:30","新北市中和區景平路989巷33號","121.495166666667","25.0051166666667","6500300","中和區"
"235057","801-TS","2018/07/26 18:29:29","新北市中和區民安街38號","121.479971666667","25.0005366666667","6500300","中和區"
"235041","802-TS","2018/07/26 18:29:35","新北市中和區景安路68號","121.505758333333","24.9967","6500300","中和區"
"235052","805-TS","2018/07/26 18:29:44","新北市中和區興南路二段147號","121.505071666667","24.9838966666667","6500300","中和區"
"235048","896-TW","2018/07/26 18:29:44","新北市中和區中正路81號","121.500703333333","24.9933966666667","6500300","中和區"
"235053","900-TW","2018/07/26 18:29:44","新北市中和區民享街463號","121.470113333333","24.9928066666667","6500300","中和區"
"235051","157-BY","2018/07/26 18:29:47","新北市中和區興南路二段142巷18-9號","121.502743333333","24.9842966666667","6500300","中和區"
"235037","AAC-213","2018/07/26 18:29:30","新北市中和區景德街97號","121.515676666667","24.9913033333333","6500300","中和區"
"235059","AAC-215","2018/07/26 18:29:47","新北市中和區員山路36巷16-3號","121.484971666667","24.9912766666667","6500300","中和區"
"220065","072-UY","2018/07/26 18:29:32","新北市板橋區遠東路1號","121.456711666667","24.9991533333333","6500100","板橋區"
"226004","312-R5","2018/07/26 18:29:43","新北市平溪區靜安路二段300號","121.735733333333","25.0238366666667","6502400","平溪區"
"235038","251-BX","2018/07/26 18:29:40","新北市中和區立人街33-3號","121.520863333333","24.9941866666667","6500300","中和區"
"228003","097-TW","2018/07/26 18:29:39","新北市貢寮區和美里和美街40號","121.912365","25.08942","6502600","貢寮區"
"228001","212-TW","2018/07/26 18:29:45","新北市貢寮區仁理村保健街25號","121.923313333333","25.0499583333333","6502600","貢寮區"
"228002","663-BX","2018/07/26 18:29:42","新北市貢寮區福連里福連街37號","121.988705","25.0108366666667","6502600","貢寮區"
"224006","676-BX","2018/07/26 18:29:32","新北市瑞芳區明燈路二段101號","121.809995","25.1079266666667","6501200","瑞芳區"
"224002","639-TC","2018/07/26 18:29:37","新北市瑞芳區三爪子坑路29巷35號","121.813748333333","25.1066483333333","6501200","瑞芳區"
"224008","285-BY","2018/07/26 18:29:40","新北市瑞芳區逢甲路204號","121.806838333333","25.110195","6501200","瑞芳區"
"224007","275-VK","2018/07/26 18:29:33","新北市瑞芳區大埔路國宅新村42號","121.764411666667","25.099925","6501200","瑞芳區"
"224009","273-VK","2018/07/26 18:29:36","新北市瑞芳區五號路308號","121.856835","25.1114316666667","6501200","瑞芳區"
"224005","271-BY","2018/07/26 18:29:47","新北市瑞芳區建基路一段74號","121.816296666667","25.127945","6501200","瑞芳區"
"227010","642-TC","2018/07/26 18:29:32","新北市雙溪區牡丹里牡丹137-1號","121.851143333333","25.0589716666667","6502500","雙溪區"
"227004","400-TW","2018/07/26 18:29:44","新北市雙溪區魚行里坤溪21-1號","121.870381666667","25.0283","6502500","雙溪區"
"253005","032-BX","2018/07/26 18:29:31","新北市石門區老崩山11-1號","121.552476666667","25.29085","6502200","石門區"
"253006","295-VK","2018/07/26 18:29:48","新北市石門區公地20-1號","121.54576","25.2901866666667","6502200","石門區"
"222001","KEA-2212","2018/07/26 18:29:39","新北市深坑區北深路一段199號","121.630433333333","25.0089633333333","6501800","深坑區"
"208002","KEA-2872","2018/07/26 18:29:28","新北市金山區民生路31號","121.643573333333","25.221965","6502700","金山區"
"208003","665-BX","2018/07/26 18:29:29","新北市金山區中山路183號","121.638345","25.221045","6502700","金山區"
"208001","761-BX","2018/07/26 18:29:46","新北市金山區文化二路6號","121.636808333333","25.2246616666667","6502700","金山區"
"251004","009-UM","2018/07/26 18:29:34","新北市淡水區民族路31巷10號","121.462531666667","25.1361183333333","6501000","淡水區"
"251005","010-UM","2018/07/26 18:29:29","新北市淡水區中正東路35巷9號","121.446426666667","25.1686266666667","6501000","淡水區"
"251001","011-UM","2018/07/26 18:29:33","新北市淡水區自強路120號","121.464163333333","25.1329533333333","6501000","淡水區"
"251013","KEA-2871","2018/07/26 18:29:35","新北市淡水區椿子林19-3號","121.480123333333","25.2032716666667","6501000","淡水區"
"251016","179-VK","2018/07/26 18:29:36","新北市淡水區下圭柔山114-10號","121.4456","25.2096333333333","6501000","淡水區"
"251014","180-VK","2018/07/26 18:29:34","新北市淡水區番社前25-1號","121.49437","25.2146166666667","6501000","淡水區"
"251008","181-VK","2018/07/26 18:29:35","新北市淡水區北投子87-3號","121.468903333333","25.1787466666667","6501000","淡水區"
"251015","182-VK","2018/07/26 18:29:36","新北市淡水區興福寮88巷216號","121.486021666667","25.166565","6501000","淡水區"
"251010","413-VK","2018/07/26 18:29:30","新北市淡水區沙崙路181巷12號","121.423785","25.1845966666667","6501000","淡水區"
"251012","441-VK","2018/07/26 18:29:32","新北市淡水區北新路一段275號","121.46181","25.1822866666667","6501000","淡水區"
"251006","443-VK","2018/07/26 18:29:32","新北市淡水區新民街82號","121.438526666667","25.1765183333333","6501000","淡水區"
"251011","650-BX","2018/07/26 18:29:42","新北市淡水區中正東路8-1號","121.447753333333","25.1669683333333","6501000","淡水區"
"251002","672-BX","2018/07/26 18:29:42","新北市淡水區竿蓁二街15號","121.453125","25.1629966666667","6501000","淡水區"
"251003","766-UM","2018/07/26 18:29:41","新北市淡水區北新路169巷35-1號","121.449485","25.1800666666667","6501000","淡水區"
"207003","550-UM","2018/07/26 18:29:29","新北市萬里區野柳里港東路70號","121.687866666667","25.2045866666667","6502800","萬里區"
"207004","225-TW","2018/07/26 18:29:43","新北市萬里區萬里里瑪鋉路272-1號","121.688871666667","25.1808316666667","6502800","萬里區"
"252003","249-BX","2018/07/26 18:29:27","新北市三芝區後厝里北勢子43號","121.471808333333","25.2525383333333","6502100","三芝區"
"252001","292-VK","2018/07/26 18:29:41","新北市三芝區中興街二段6號","121.498526666667","25.2564583333333","6502100","三芝區"
"237007","153-BY","2018/07/26 18:29:42","新北市三峽區中正路二段574號","121.35955","24.906025","6500900","三峽區"
"237009","210-TH","2018/07/26 18:29:37","新北市三峽區文化路254號","121.367213333333","24.9359033333333","6500900","三峽區"
"237013","252-BX","2018/07/26 18:29:46","新北市三峽區永安街75號","121.375396666667","24.9295766666667","6500900","三峽區"
"237012","275-BY","2018/07/26 18:29:33","新北市三峽區三樹路168巷21號","121.379376666667","24.94061","6500900","三峽區"
"237008","302-VK","2018/07/26 18:29:32","新北市三峽區白雞68-285號","121.391645","24.9072233333333","6500900","三峽區"
"237014","433-BY","2018/07/26 18:29:46","新北市三峽區文化路9號","121.373218333333","24.935565","6500900","三峽區"
"237006","5529-G3","2018/07/26 18:29:39","新北市三峽區溪東路235號","121.406486666667","24.9326166666667","6500900","三峽區"
"237011","KEA-2596","2018/07/26 18:29:35","新北市三峽區溪東路182號","121.406698333333","24.93256","6500900","三峽區"
"237016","649-BX","2018/07/26 18:29:46","新北市三峽區竹崙路133號","121.434456666667","24.909575","6500900","三峽區"
"237010","706-TV","2018/07/26 18:29:41","新北市三峽區民權街147號","121.368843333333","24.9316583333333","6500900","三峽區"
"237005","AKY-6261","2018/07/26 18:29:33","新北市三峽區秀川街26巷3號","121.37152","24.9342333333333","6500900","三峽區"
"236070","105-UM","2018/07/26 18:29:45","新北市土城區永豐路211-2號","121.474611666667","24.97596","6501300","土城區"
"236042","107-UM","2018/07/26 18:29:44","新北市土城區裕民路67巷4弄10號","121.450081666667","24.987695","6501300","土城區"
"236078","166-UM","2018/07/26 18:29:33","新北市土城區大暖路42號","121.423276666667","24.9595066666667","6501300","土城區"
"236030","253-BX","2018/07/26 18:29:47","新北市土城區水源街81巷6號","121.439493333333","24.9762833333333","6501300","土城區"
"236026","269-VK","2018/07/26 18:29:43","新北市土城區南天母路137-4號","121.447726666667","24.954195","6501300","土城區"
"236014","270-VK","2018/07/26 18:29:46","新北市土城區青雲路39巷7號","121.460293333333","24.98737","6501300","土城區"
"236038","271-VK","2018/07/26 18:29:39","新北市土城區青雲路449號","121.458823333333","24.9749683333333","6501300","土城區"
"236021","401-BY","2018/07/26 18:29:31","新北市土城區永豐路135巷17弄1號","121.467251666667","24.9836216666667","6501300","土城區"
"236059","912-UM","2018/07/26 18:29:47","新北市土城區中央路四段23號","121.425088333333","24.962475","6501300","土城區"
"236049","913-UM","2018/07/26 18:29:48","新北市土城區明德路一段309號","121.459631666667","24.9771216666667","6501300","土城區"
"236063","915-UM","2018/07/26 18:29:30","新北市土城區延壽路77巷6弄9號","121.468433333333","24.992835","6501300","土城區"
"236055","AAC-216","2018/07/26 18:29:36","新北市土城區中華路二段6號","121.439408333333","24.978885","6501300","土城區"
"242058","986-R7","2018/07/26 18:29:33","新北市新莊區中正路897-10號","121.411593333333","25.0216416666667","6500500","新莊區"
"242053","751-BX","2018/07/26 18:29:34","新北市樹林區樹新路120巷20號","121.430581666667","24.996815","6500500","新莊區"
"242025","613-BX","2018/07/26 18:29:41","新北市新莊區中央路232號","121.454628333333","25.0590933333333","6500500","新莊區"
"242042","566-BX","2018/07/26 18:29:48","新北市新莊區天祥街91巷34號","121.414648333333","25.0287333333333","6500500","新莊區"
"242046","497-BY","2018/07/26 18:29:35","新北市新莊區中正路831-15號","121.420923333333","25.027675","6500500","新莊區"
"242051","441-UM","2018/07/26 18:29:30","新北市新莊區環漢路四段1號","121.43493","25.0003783333333","6500500","新莊區"
"242056","440-UM","2018/07/26 18:29:26","新北市新莊區瓊泰路63巷21弄9號","121.44249","25.0284433333333","6500500","新莊區"
"242044","400-BY","2018/07/26 18:29:38","新北市新莊區中正路新旺巷2號","121.41557","25.023535","6500500","新莊區"
"242061","353-BY","2018/07/26 18:29:36","新北市新莊區富國路176巷1號","121.424205","25.0243783333333","6500500","新莊區"
"242002","349-TH","2018/07/26 18:29:32","新北市新莊區武前街29號","121.450378333333","25.03253","6500500","新莊區"
"238015","755-BX","2018/07/26 18:29:35","新北市樹林區啟智街172號","121.414845","24.98697","6500700","樹林區"
"238023","601-UM","2018/07/26 18:29:34","新北市樹林區三福街114號","121.406405","25.01632","6500700","樹林區"
"238019","599-UM","2018/07/26 18:29:32","新北市樹林區中華路190-16號","121.411655","24.9805566666667","6500700","樹林區"
"238018","571-TV","2018/07/26 18:29:28","新北市樹林區樹新路86號","121.429431666667","24.9974666666667","6500700","樹林區"
"238024","5061-A6","2018/07/26 18:29:39","新北市樹林區中山路二段86號","121.414648333333","24.98359","6500700","樹林區"
"238022","KEA-2213","2018/07/26 18:29:33","新北市樹林區中山路三段129號","121.396466666667","24.9731933333333","6500700","樹林區"
"238025","303-VK","2018/07/26 18:29:43","新北市樹林區中山路三段210-2號","121.380846666667","24.9661216666667","6500700","樹林區"
"238014","282-BY","2018/07/26 18:28:03","新北市樹林區佳園路一段94號","121.393438333333","24.9687","6500700","樹林區"
"238020","268-VK","2018/07/26 18:29:29","桃園市龜山區宏慶街34巷20號","121.41085","25.01795","6500700","樹林區"
"238026","172-UY","2018/07/26 18:29:36","新北市樹林區八德街828-18號","121.392521666667","24.9693233333333","6500700","樹林區"
"238016","169-UY","2018/07/26 18:29:46","新北市樹林區文化街28號","121.419281666667","24.9878116666667","6500700","樹林區"
"239007","AAC-297","2018/07/26 18:29:43","新北市鶯歌區建國路278號","121.346943333333","24.953565","6500800","鶯歌區"
"239008","527-UM","2018/07/26 18:29:32","新北市鶯歌區國際一路179號","121.336221666667","24.9765416666667","6500800","鶯歌區"
"239005","526-UM","2018/07/26 18:29:40","新北市鶯歌區鶯桃路658巷37弄18號","121.329753333333","24.97016","6500800","鶯歌區"
"239001","417-VK","2018/07/26 18:29:37","新北市鶯歌區國中街178號","121.338258333333","24.9392183333333","6500800","鶯歌區"
"239003","360-BY","2018/07/26 18:29:31","新北市鶯歌區永和街91巷1號","121.333106666667","24.9679516666667","6500800","鶯歌區"
"239002","359-BY","2018/07/26 18:29:34","新北市鶯歌區文化路327-1號","121.352158333333","24.9520733333333","6500800","鶯歌區"
"221008","489-VK","2018/07/26 18:29:43","新北市汐止區康寧街901號","121.65144","25.0750416666667","6501100","汐止區"
"221036","130-UY","2018/07/26 18:29:39","新北市汐止區大同路三段67號","121.667396666667","25.0770383333333","6501100","汐止區"
"221015","131-UY","2018/07/26 18:29:34","新北市汐止區鄉長路二段5號","121.668656666667","25.0809316666667","6501100","汐止區"
"221010","269-BY","2018/07/26 18:29:43","新北市汐止區瑞松街10號","121.645226666667","25.104885","6501100","汐止區"
"221012","278-VK","2018/07/26 18:29:48","新北市汐止區保長路37巷2號","121.672906666667","25.0791483333333","6501100","汐止區"
"221023","279-VK","2018/07/26 18:29:29","新北市汐止區康寧街474巷7號","121.632266666667","25.0680516666667","6501100","汐止區"
"221032","280-BY","2018/07/26 18:29:31","新北市汐止區民權街二段97巷12號","121.619486666667","25.0467933333333","6501100","汐止區"
"221027","281-BY","2018/07/26 18:29:28","新北市汐止區和平街59號","121.661736666667","25.07068","6501100","汐止區"
"221033","297-VK","2018/07/26 18:29:37","新北市汐止區宜興街59巷1號","121.622375","25.0427883333333","6501100","汐止區"
"221029","298-VK","2018/07/26 18:29:39","新北市汐止區樟樹一路272-7號","121.642708333333","25.06889","6501100","汐止區"
"221021","299-VK","2018/07/26 18:29:42","新北市汐止區連興街122號","121.653668333333","25.0621416666667","6501100","汐止區"
"221031","353-TW","2018/07/26 18:29:39","新北市汐止區光復街7巷34號","121.640681666667","25.0598733333333","6501100","汐止區"
"221035","622-UM","2018/07/26 18:29:32","新北市汐止區大同路二段175號","121.651383333333","25.0641483333333","6501100","汐止區"
"221025","623-UM","2018/07/26 18:29:41","新北市汐止區仁愛路122巷6號","121.663106666667","25.0635683333333","6501100","汐止區"
"221038","646-BX","2018/07/26 18:29:30","新北市汐止區大同路二段397號","121.658008333333","25.067275","6501100","汐止區"
"221002","707-TV","2018/07/26 18:29:31","新北市汐止區福德一路152號","121.636406666667","25.0668016666667","6501100","汐止區"
"221018","753-BX","2018/07/26 18:29:38","新北市汐止區茄苳路224巷3弄8號","121.670885","25.0682083333333","6501100","汐止區"
"220064","486-VK","2018/07/26 18:29:44","新北市板橋區華東街11號","121.451451666667","24.9984316666667","6500100","板橋區"
"220057","686-BX","2018/07/26 18:29:41","新北市板橋區華東街1-9號","121.448245","24.9949116666667","6500100","板橋區"
"220077","687-BX","2018/07/26 18:29:28","新北市板橋區華東街1-10號","121.448268333333","24.9949183333333","6500100","板橋區"
"220054","741-BX","2018/07/26 18:29:47","新北市板橋區華東街1-9號","121.448076666667","24.9949216666667","6500100","板橋區"
"220082","AAC-253","2018/07/26 18:29:47","新北市板橋區華東街1-10號","121.448623333333","24.9949883333333","6500100","板橋區"
"235068","KEA-2873","2018/07/26 18:29:20","新北市中和區圓通路284號","121.491491666667","24.990625","6500300","中和區"
"235025","KEA-2875","2018/07/26 18:29:46","新北市中和區民享街88巷3號","121.474375","25.0005983333333","6500300","中和區"
