"lineid","car","time","location","longitude","latitude","cityid","cityname"
"234046","148-BY","2018/07/26 18:39:37","新北市永和區永元路52巷2號","121.522646666667","25.0010233333333","6500400","永和區"
"234007","207-UY","2018/07/26 18:39:33","新北市永和區新生路2-5號","121.509268333333","25.01697","6500400","永和區"
"234081","298-R6","2018/07/26 18:39:42","新北市永和區林森路83號","121.523908333333","25.0037733333333","6500400","永和區"
"234038","336-UY","2018/07/26 18:39:39","新北市永和區福和路1號","121.526391666667","25.0100516666667","6500400","永和區"
"234064","337-UY","2018/07/26 18:39:41","新北市永和區福和路1號","121.526491666667","25.0101","6500400","永和區"
"234086","338-UY","2018/07/26 18:39:46","新北市永和區安樂路172號","121.514791666667","25.0009916666667","6500400","永和區"
"234017","745-BX","2018/07/26 18:39:44","新北市永和區福和路1號","121.52656","25.0097516666667","6500400","永和區"
"234030","746-BX","2018/07/26 18:39:46","新北市永和區得和路328號","121.523318333333","24.9995583333333","6500400","永和區"
"234054","KEA-2590","2018/07/26 18:39:43","新北市永和區福和路1號","121.526031666667","25.0093516666667","6500400","永和區"
"234013","KEA-2591","2018/07/26 18:39:44","新北市永和區保福路二段105號","121.510151666667","25.013365","6500400","永和區"
"234042","862-TW","2018/07/26 18:39:35","新北市永和區永貞路310號","121.51183","25.004935","6500400","永和區"
"234026","9371-KE","2018/07/26 18:39:32","新北市永和區自由街58號","121.513793333333","25.005915","6500400","永和區"
"234011","9373-KE","2018/07/26 18:39:34","新北市永和區仁愛路40巷9弄3號","121.513835","25.01401","6500400","永和區"
"249005","172-UM","2018/07/26 18:39:45","新北市八里區中華路三段196號","121.388206666667","25.1256833333333","6502300","八里區"
"249004","303-UY","2018/07/26 18:39:40","新北市八里區忠孝路85號","121.424873333333","25.1602066666667","6502300","八里區"
"249002","305-UY","2018/07/26 18:39:42","新北市八里區龍形一街33巷6-2號","121.449303333333","25.1294783333333","6502300","八里區"
"249001","759-BX","2018/07/26 18:39:31","新北市八里區龍米路一段92號","121.454005","25.1239016666667","6502300","八里區"
"248014","025-BX","2018/07/26 18:39:33","新北市五股區蓬萊路24號","121.43417","25.0797916666667","6501500","五股區"
"248016","026-BX","2018/07/26 18:39:41","新北市五股區凌雲路一段149巷13-1號","121.448571666667","25.1008766666667","6501500","五股區"
"248008","095-VK","2018/07/26 18:39:49","新北市五股區中興路一段161號","121.464926666667","25.0736983333333","6501500","五股區"
"248020","225-UY","2018/07/26 18:38:54","新北市五股區孝義路108號","121.443783333333","25.1195866666667","6501500","五股區"
"248012","247-BX","2018/07/26 18:39:47","新北市五股區成泰路三段1號","121.440901666667","25.0875183333333","6501500","五股區"
"248010","272-BY","2018/07/26 18:39:44","新北市五股區水碓三路120號","121.431785","25.0736016666667","6501500","五股區"
"248004","677-BX","2018/07/26 18:39:44","新北市五股區民義路一段216-2號","121.430051666667","25.0893733333333","6501500","五股區"
"248002","678-BX","2018/07/26 18:39:46","新北市五股區成泰路三段319-1號","121.447631666667","25.095495","6501500","五股區"
"234023","9380-KE","2018/07/26 18:39:29","新北市永和區福和路8巷1號","121.524845","25.00881","6500400","永和區"
"234077","969-R7","2018/07/26 18:39:48","新北市永和區中正路610-1號","121.51721","25.0073266666667","6500400","永和區"
"234067","AAC-212","2018/07/26 18:39:35","新北市永和區福和路1號","121.526083333333","25.009875","6500400","永和區"
"244007","080-UY","2018/07/26 18:39:45","新北市林口區後湖40-2號","121.386586666667","25.0998383333333","6501700","林口區"
"244019","403-UM","2018/07/26 18:39:41","新北市林口區麗園二街12巷4-2號","121.378385","25.0684383333333","6501700","林口區"
"244013","742-UY","2018/07/26 18:39:37","新北市林口區仁愛路二段201-1號","121.377968333333","25.0744066666667","6501700","林口區"
"244009","410-SL","2018/07/26 18:39:46","新北市林口區竹林路330巷5號","121.391858333333","25.0830666666667","6501700","林口區"
"244023","483-VK","2018/07/26 18:39:46","新北市林口區信義路156-1號","121.379473333333","25.0799233333333","6501700","林口區"
"244017","485-VK","2018/07/26 18:39:36","新北市林口區文化二路一段62-4號","121.365305","25.06848","6501700","林口區"
"244010","657-BX","2018/07/26 18:39:39","新北市林口區新寮1-67號","121.39257","25.0765583333333","6501700","林口區"
"244025","837-TS","2018/07/26 18:39:32","新北市林口區南勢四街321號","121.356521666667","25.0747766666667","6501700","林口區"
"244021","838-TS","2018/07/26 18:39:38","新北市林口區工六路76號","121.400233333333","25.0772466666667","6501700","林口區"
"243013","AAD-798","2018/07/26 18:27:19","新北市泰山區明志路三段206巷3號","121.423285","25.0379116666667","6501600","泰山區"
"243016","380-SR","2018/07/26 18:39:34","新北市泰山區黎明路23-1號","121.421436666667","25.0618166666667","6501600","泰山區"
"243011","KEA-2215","2018/07/26 18:39:40","新北市泰山區大科路21-1號","121.41327","25.0617466666667","6501600","泰山區"
"243012","646-TV","2018/07/26 18:39:35","新北市泰山區泰林路二段194號","121.433478333333","25.0611166666667","6501600","泰山區"
"222003","436-BY","2018/07/26 18:39:40","新北市深坑區翠谷街33號","121.62654","25.0092316666667","6501800","深坑區"
"222002","659-BX","2018/07/26 18:39:34","新北市深坑區文山路一段62巷33號","121.621168333333","25.0002583333333","6501800","深坑區"
"231041","002-UM","2018/07/26 18:39:38","新北市新店區安華路28-1號","121.519783333333","24.9607766666667","6500600","新店區"
"231059","046-UY","2018/07/26 18:39:35","新北市新店區安華路28-1號","121.519636666667","24.960755","6500600","新店區"
"231040","047-UY","2018/07/26 18:39:48","新北市新店區安華路28-1號","121.519243333333","24.9608383333333","6500600","新店區"
"231044","106-UY","2018/07/26 18:39:38","新北市新店區北新路二段2號","121.542551666667","24.9705883333333","6500600","新店區"
"231046","107-UY","2018/07/26 18:39:35","新北市新店區直潭一街36號","121.535886666667","24.9416266666667","6500600","新店區"
"231052","108-UY","2018/07/26 18:39:31","新北市新店區永興路38號","121.543461666667","24.9386766666667","6500600","新店區"
"231065","110-UY","2018/07/26 18:39:37","新北市新店區安一路一段1-1號","121.51927","24.9613533333333","6500600","新店區"
"231047","187-VK","2018/07/26 18:39:44","新北市新店區安康路一段98號","121.527505","24.96226","6500600","新店區"
"231054","KEA-2219","2018/07/26 18:39:45","新北市新店區安一路一段1-1號","121.519916666667","24.9612333333333","6500600","新店區"
"231057","256-BX","2018/07/26 18:39:34","新北市新店區新烏路一段201號","121.548456666667","24.9318866666667","6500600","新店區"
"231042","268-BY","2018/07/26 18:39:38","新北市新店區安康路一段231號","121.525448333333","24.9631133333333","6500600","新店區"
"231051","278-BY","2018/07/26 18:39:45","新北市新店區中央路69號","121.532413333333","24.9768583333333","6500600","新店區"
"231050","AAD-862","2018/07/26 18:39:34","新北市新店區安一路一段1-1號","121.51973","24.9612133333333","6500600","新店區"
"231058","3713-VJ","2018/07/26 18:39:47","新北市新店區北宜路一段168號","121.540378333333","24.9529866666667","6500600","新店區"
"231066","4716-K9","2018/07/26 18:39:39","新北市新店區安一路一段1-1號","121.519438333333","24.96116","6500600","新店區"
"231056","4715-K9","2018/07/26 18:39:35","新北市新店區自立街5號","121.538751666667","24.9782766666667","6500600","新店區"
"231067","4772-VM","2018/07/26 18:39:45","新北市新店區安華路28-1號","121.51914","24.9606666666667","6500600","新店區"
"231049","513-UM","2018/07/26 18:39:48","新北市新店區安一路一段1-1號","121.519678333333","24.9610533333333","6500600","新店區"
"231063","616-UM","2018/07/26 18:39:40","新北市新店區安華路1-1號","121.519405","24.9604483333333","6500600","新店區"
"231045","617-UM","2018/07/26 18:39:34","新北市新店區安華路28-1號","121.519535","24.9608683333333","6500600","新店區"
"231061","619-UM","2018/07/26 18:39:27","新北市新店區安華路28-1號","121.519661666667","24.96077","6500600","新店區"
"231064","719-UM","2018/07/26 18:39:34","新北市新店區安一路一段1-1號","121.519658333333","24.9611666666667","6500600","新店區"
"231062","720-UM","2018/07/26 18:39:31","新北市新店區安一路一段1-1號","121.519123333333","24.96116","6500600","新店區"
"231060","897-TW","2018/07/26 18:39:49","新北市新店區安華路28-1號","121.51972","24.9606833333333","6500600","新店區"
"231043","899-TW","2018/07/26 18:39:48","新北市新店區安華路28-1號","121.519185","24.9606466666667","6500600","新店區"
"231055","AKT-0513","2018/07/26 18:39:36","新北市新店區北新路一段271巷43-1號","121.53941","24.9669233333333","6500600","新店區"
"241006","AAD-863","2018/07/26 18:39:32","新北市三重區車路頭街139巷12號","121.484241666667","25.07625","6500200","三重區"
"235066","003-UY","2018/07/26 18:39:27","新北市中和區水源路43號","121.504715","25.0035933333333","6500300","中和區"
"235064","005-UY","2018/07/26 18:39:28","新北市中和區連城路109巷53號","121.497115","24.9982066666667","6500300","中和區"
"235063","006-UY","2018/07/26 18:39:35","新北市中和區連城路347巷4弄23號","121.487281666667","24.9955866666667","6500300","中和區"
"235056","096-UM","2018/07/26 18:39:28","新北市中和區員山路611巷1號","121.47788","25.0113616666667","6500300","中和區"
"235039","097-UM","2018/07/26 18:39:30","新北市永和區安樂路30號","121.514515","24.9966183333333","6500300","中和區"
"235065","098-UM","2018/07/26 18:39:39","新北市中和區中山路二段2巷45弄44號","121.501708333333","25.00624","6500300","中和區"
"235040","150-BY","2018/07/26 18:39:42","新北市中和區宜安路63號","121.511298333333","24.99686","6500300","中和區"
"235058","151-BY","2018/07/26 18:39:43","新北市中和區連城路384號","121.480658333333","24.9950933333333","6500300","中和區"
"235055","183-VK","2018/07/26 18:39:32","新北市板橋區民族路276巷48號","121.469155","25.0055","6500300","中和區"
"235049","186-VK","2018/07/26 18:39:43","新北市中和區景安路140號","121.505131666667","24.9942383333333","6500300","中和區"
"235067","255-BX","2018/07/26 18:39:45","新北市中和區新生街16巷6弄3號","121.482795","25.0046216666667","6500300","中和區"
"235044","293-VK","2018/07/26 18:39:40","新北市中和區復興路280巷13號","121.502253333333","24.9912883333333","6500300","中和區"
"235072","301-VK","2018/07/26 18:39:46","新北市中和區中山路二段181號","121.50107","25.0027233333333","6500300","中和區"
"235043","352-BY","2018/07/26 18:39:37","新北市中和區景平路155號","121.513343333333","24.99227","6500300","中和區"
"235050","4979-A6","2018/07/26 18:39:34","新北市中和區景新街496巷28弄7號","121.513421666667","24.985795","6500300","中和區"
"235069","4980-A6","2018/07/26 18:39:31","新北市中和區連城路68-1號","121.497551666667","25.0014633333333","6500300","中和區"
"235042","551-UM","2018/07/26 18:39:36","新北市中和區成功路41巷1號","121.526253333333","24.9932116666667","6500300","中和區"
"235070","558-UM","2018/07/26 18:39:46","新北市中和區中和路102號","121.50277","24.9997666666667","6500300","中和區"
"235045","565-BX","2018/07/26 18:39:32","新北市中和區南山路236巷36弄11號","121.504275","24.987985","6500300","中和區"
"235054","640-BX","2018/07/26 18:39:36","新北市中和區民享街56號","121.474008333333","25.002425","6500300","中和區"
"235060","647-TV","2018/07/26 18:39:46","新北市中和區中山路二段475號","121.483113333333","25.0049916666667","6500300","中和區"
"235047","732-UM","2018/07/26 18:39:40","新北市中和區南山路320巷10弄11號","121.506918333333","24.9865583333333","6500300","中和區"
"235046","733-UM","2018/07/26 18:39:36","新北市中和區忠孝街126-1號","121.512198333333","24.9862533333333","6500300","中和區"
"235062","800-TS","2018/07/26 18:39:30","新北市中和區景平路726-2號","121.496638333333","25.0035066666667","6500300","中和區"
"235057","801-TS","2018/07/26 18:39:49","新北市中和區民安街24號","121.48031","25.00079","6500300","中和區"
"235041","802-TS","2018/07/26 18:39:35","新北市中和區中安街166號","121.510848333333","25.0001","6500300","中和區"
"235052","805-TS","2018/07/26 18:39:34","新北市中和區興南路三段62-3號","121.49285","24.9749366666667","6500300","中和區"
"235048","896-TW","2018/07/26 18:39:44","新北市中和區南山路325號","121.505151666667","24.99122","6500300","中和區"
"235053","900-TW","2018/07/26 18:39:44","新北市土城區延壽路75巷1號","121.469263333333","24.992495","6500300","中和區"
"235051","157-BY","2018/07/26 18:39:26","新北市中和區華新街143巷106弄5號","121.506093333333","24.9789783333333","6500300","中和區"
"235037","AAC-213","2018/07/26 18:39:30","新北市中和區景德街52號","121.517518333333","24.9914483333333","6500300","中和區"
"235059","AAC-215","2018/07/26 18:39:47","新北市中和區錦和路354巷15號","121.489708333333","24.99164","6500300","中和區"
"220065","072-UY","2018/07/26 18:39:32","新北市板橋區區運路37號","121.466281666667","25.010325","6500100","板橋區"
"220086","073-UY","2018/07/26 18:39:46","新北市板橋區南雅西路二段192巷1弄21號","121.452303333333","25.0150333333333","6500100","板橋區"
"226004","312-R5","2018/07/26 18:39:43","新北市平溪區平溪里三坑路39號","121.73284","25.0326333333333","6502400","平溪區"
"235038","251-BX","2018/07/26 18:39:40","新北市中和區大勇街76號","121.518205","24.9947466666667","6500300","中和區"
"228003","097-TW","2018/07/26 18:39:39","新北市貢寮區和美里龍洞街35號","121.916131666667","25.1116183333333","6502600","貢寮區"
"228001","212-TW","2018/07/26 18:39:45","新北市貢寮區仁理村研海街12-1號","121.923801666667","25.0516233333333","6502600","貢寮區"
"228002","663-BX","2018/07/26 18:39:42","新北市貢寮區福隆里桂安街7號","121.962915","25.021055","6502600","貢寮區"
"224010","AGQ-8101","2018/07/26 18:39:46","新北市瑞芳區崙頂路111號","121.84449","25.10689","6501200","瑞芳區"
"224006","676-BX","2018/07/26 18:39:32","新北市瑞芳區明燈路三段84號","121.805741666667","25.10827","6501200","瑞芳區"
"224002","639-TC","2018/07/26 18:39:43","新北市瑞芳區三爪子坑路107號","121.810748333333","25.1071933333333","6501200","瑞芳區"
"224008","285-BY","2018/07/26 18:39:32","新北市瑞芳區岳王路25號","121.807386666667","25.1110066666667","6501200","瑞芳區"
"224007","275-VK","2018/07/26 18:39:33","新北市瑞芳區大埔路117號","121.76353","25.101015","6501200","瑞芳區"
"224009","273-VK","2018/07/26 18:39:36","新北市瑞芳區祈堂路2號","121.859763333333","25.111715","6501200","瑞芳區"
"224005","271-BY","2018/07/26 18:39:47","新北市瑞芳區建基路一段40號","121.819423333333","25.1212133333333","6501200","瑞芳區"
"227010","642-TC","2018/07/26 18:39:32","新北市雙溪區牡丹里下坑11號","121.851011666667","25.0561833333333","6502500","雙溪區"
"227004","400-TW","2018/07/26 18:39:44","新北市雙溪區魚行里坤溪3-5號","121.875791666667","25.02116","6502500","雙溪區"
"253005","032-BX","2018/07/26 18:39:31","新北市石門區中山路50號","121.566546666667","25.29033","6502200","石門區"
"253006","295-VK","2018/07/26 18:39:48","新北市石門區崁子腳28-1號","121.539653333333","25.2898416666667","6502200","石門區"
"222001","KEA-2212","2018/07/26 18:39:38","新北市深坑區北深路一段82號","121.636361666667","25.0108383333333","6501800","深坑區"
"208002","KEA-2872","2018/07/26 18:39:48","新北市金山區仁愛路15-7號","121.638346666667","25.21874","6502700","金山區"
"208003","665-BX","2018/07/26 18:39:29","新北市金山區中山路280號","121.63497","25.2243933333333","6502700","金山區"
"208001","761-BX","2018/07/26 18:39:46","新北市金山區文化三路11號","121.635048333333","25.2248833333333","6502700","金山區"
"251004","009-UM","2018/07/26 18:39:34","新北市淡水區大同路1號","121.460931666667","25.1405083333333","6501000","淡水區"
"251001","011-UM","2018/07/26 18:39:31","新北市淡水區自強路415巷2號","121.465503333333","25.13421","6501000","淡水區"
"251013","KEA-2871","2018/07/26 18:39:35","新北市淡水區雲廣坑9號","121.477195","25.2108066666667","6501000","淡水區"
"251016","179-VK","2018/07/26 18:39:36","新北市淡水區下圭柔山84號","121.437711666667","25.20586","6501000","淡水區"
"251014","180-VK","2018/07/26 18:39:34","新北市淡水區崙頂12-8號","121.495576666667","25.2172316666667","6501000","淡水區"
"251008","181-VK","2018/07/26 18:39:44","新北市淡水區北投子15-4號","121.45203","25.1825333333333","6501000","淡水區"
"251015","182-VK","2018/07/26 18:39:36","新北市淡水區興福寮66巷26號","121.486221666667","25.1622833333333","6501000","淡水區"
"251010","413-VK","2018/07/26 18:39:30","新北市淡水區沙崙路124號","121.42338","25.18278","6501000","淡水區"
"251012","441-VK","2018/07/26 18:39:32","新北市淡水區北新路117號","121.44897","25.1785","6501000","淡水區"
"251006","443-VK","2018/07/26 18:39:32","新北市淡水區新民街38號","121.4396","25.1763166666667","6501000","淡水區"
"251011","650-BX","2018/07/26 18:39:42","新北市淡水區鄧公路36巷7號","121.456695","25.1690666666667","6501000","淡水區"
"251002","672-BX","2018/07/26 18:39:42","新北市淡水區中正東路一段3巷14弄1號","121.450933333333","25.1641733333333","6501000","淡水區"
"251003","766-UM","2018/07/26 18:39:41","新北市淡水區北新路69巷26號","121.446728333333","25.1801016666667","6501000","淡水區"
"207003","550-UM","2018/07/26 18:39:49","新北市萬里區野柳里八斗60號","121.661206666667","25.2066983333333","6502800","萬里區"
"207004","225-TW","2018/07/26 18:39:43","新北市萬里區萬里里獅頭路10-1號","121.6921","25.178715","6502800","萬里區"
"252002","178-VK","2018/07/26 18:39:36","新北市三芝區民生街64巷10號","121.50365","25.2551483333333","6502100","三芝區"
"252003","249-BX","2018/07/26 18:39:27","新北市三芝區後厝里土地公坑55-2號","121.462386666667","25.2482416666667","6502100","三芝區"
"252001","292-VK","2018/07/26 18:39:41","新北市三芝區中興街二段266號","121.502","25.2528333333333","6502100","三芝區"
"237007","153-BY","2018/07/26 18:39:42","新北市三峽區中正路三段170巷34號","121.352593333333","24.9044783333333","6500900","三峽區"
"237009","210-TH","2018/07/26 18:39:37","新北市三峽區大同路270巷2號","121.3654","24.9255383333333","6500900","三峽區"
"237013","252-BX","2018/07/26 18:39:46","新北市三峽區光明路69巷25號","121.376725","24.9292","6500900","三峽區"
"237012","275-BY","2018/07/26 18:39:33","新北市三峽區三樹路340號","121.383948333333","24.943355","6500900","三峽區"
"237008","302-VK","2018/07/26 18:39:32","新北市三峽區白雞115-7號","121.400706666667","24.9066966666667","6500900","三峽區"
"237014","433-BY","2018/07/26 18:39:46","新北市三峽區和平街69號","121.370105","24.9370633333333","6500900","三峽區"
"237006","5529-G3","2018/07/26 18:39:39","新北市三峽區溪東路473巷14號","121.414225","24.9286633333333","6500900","三峽區"
"237011","KEA-2596","2018/07/26 18:39:36","新北市三峽區成福路17號","121.417063333333","24.928345","6500900","三峽區"
"237016","649-BX","2018/07/26 18:39:46","新北市三峽區成福路284號","121.428451666667","24.9233416666667","6500900","三峽區"
"237010","706-TV","2018/07/26 18:39:41","新北市三峽區中山路118號","121.365673333333","24.9358683333333","6500900","三峽區"
"237005","AKY-6261","2018/07/26 18:39:33","新北市三峽區民族街5巷22號","121.369768333333","24.9318966666667","6500900","三峽區"
"236070","105-UM","2018/07/26 18:39:45","新北市土城區永豐路153巷1號","121.467363333333","24.9818166666667","6501300","土城區"
"236042","107-UM","2018/07/26 18:39:48","新北市土城區裕民路55巷16號","121.449601666667","24.9886733333333","6501300","土城區"
"236078","166-UM","2018/07/26 18:39:50","新北市土城區頂埔街36號","121.417115","24.9590883333333","6501300","土城區"
"236030","253-BX","2018/07/26 18:39:44","新北市土城區福仁街77號","121.439356666667","24.97419","6501300","土城區"
"236026","269-VK","2018/07/26 18:39:43","新北市土城區金城路一段66號","121.44289","24.971225","6501300","土城區"
"236014","270-VK","2018/07/26 18:39:46","新北市土城區清水路207巷11號","121.45991","24.9823233333333","6501300","土城區"
"236038","271-VK","2018/07/26 18:39:39","新北市土城區青山路26號","121.463461666667","24.975285","6501300","土城區"
"236021","401-BY","2018/07/26 18:39:32","新北市土城區延吉街253巷1號","121.467623333333","24.9847133333333","6501300","土城區"
"236059","912-UM","2018/07/26 18:39:47","新北市土城區金城路一段66號","121.442858333333","24.97118","6501300","土城區"
"236049","913-UM","2018/07/26 18:39:48","新北市土城區金城路三段10號","121.464776666667","24.9859166666667","6501300","土城區"
"236063","915-UM","2018/07/26 18:39:30","新北市中和區民享街498號","121.469353333333","24.9917233333333","6501300","土城區"
"236055","AAC-216","2018/07/26 18:39:36","新北市土城區裕民路6-5號","121.446933333333","24.98903","6501300","土城區"
"242058","986-R7","2018/07/26 18:39:33","新北市新莊區中正路887-19號","121.415995","25.024105","6500500","新莊區"
"242025","613-BX","2018/07/26 18:39:41","新北市新莊區幸福路914號","121.442126666667","25.04896","6500500","新莊區"
"242046","497-BY","2018/07/26 18:39:35","新北市新莊區富國路77巷23號","121.420413333333","25.0264983333333","6500500","新莊區"
"242061","353-BY","2018/07/26 18:39:36","新北市新莊區民安路211號","121.426345","25.0222016666667","6500500","新莊區"
"242002","349-TH","2018/07/26 18:39:32","新北市新莊區瓊林路46-9號","121.447113333333","25.02925","6500500","新莊區"
"238015","755-BX","2018/07/26 18:39:35","新北市樹林區備內街148號","121.408158333333","24.9891433333333","6500700","樹林區"
"238023","601-UM","2018/07/26 18:39:34","新北市樹林區三福街114號","121.406485","25.0162916666667","6500700","樹林區"
"238019","599-UM","2018/07/26 18:39:32","新北市樹林區中華路190-16號","121.411693333333","24.9806116666667","6500700","樹林區"
"238018","571-TV","2018/07/26 18:39:48","新北市樹林區鎮前街168號","121.424348333333","24.9899733333333","6500700","樹林區"
"238024","5061-A6","2018/07/26 18:39:39","新北市樹林區太順街49巷20弄12號","121.417971666667","24.978435","6500700","樹林區"
"238022","KEA-2213","2018/07/26 18:39:33","新北市樹林區中華路379巷21號","121.413453333333","24.9783483333333","6500700","樹林區"
"238025","303-VK","2018/07/26 18:39:43","新北市樹林區中山路三段135號","121.3963","24.9732066666667","6500700","樹林區"
"238014","282-BY","2018/07/26 18:39:43","新北市樹林區中山路二段230號","121.40884","24.9801366666667","6500700","樹林區"
"238020","268-VK","2018/07/26 18:39:49","新北市樹林區俊安街21號","121.419886666667","25.0135566666667","6500700","樹林區"
"238026","172-UY","2018/07/26 18:39:36","新北市樹林區八德街1014號","121.391303333333","24.96854","6500700","樹林區"
"238016","169-UY","2018/07/26 18:39:46","新北市樹林區文化街28號","121.419321666667","24.987685","6500700","樹林區"
"239007","AAC-297","2018/07/26 18:39:43","新北市鶯歌區中正一路461-2號","121.363141666667","24.956735","6500800","鶯歌區"
"239008","527-UM","2018/07/26 18:39:32","新北市鶯歌區國際一路14號","121.33621","24.9765566666667","6500800","鶯歌區"
"239005","526-UM","2018/07/26 18:39:40","桃園市八德區桃鶯路137號","121.328613333333","24.969585","6500800","鶯歌區"
"239001","417-VK","2018/07/26 18:39:37","新北市鶯歌區二橋街82巷1號","121.337095","24.938315","6500800","鶯歌區"
"239003","360-BY","2018/07/26 18:39:31","新北市鶯歌區永和街74號","121.333778333333","24.9684866666667","6500800","鶯歌區"
"239002","359-BY","2018/07/26 18:39:34","新北市鶯歌區中正一路309號","121.356766666667","24.9571083333333","6500800","鶯歌區"
"239004","292-BY","2018/07/26 18:39:35","新北市鶯歌區尖山路168巷15號","121.344841666667","24.94849","6500800","鶯歌區"
"221008","489-VK","2018/07/26 18:39:43","新北市汐止區康寧街901號","121.651436666667","25.0750583333333","6501100","汐止區"
"221036","130-UY","2018/07/26 18:39:31","新北市汐止區忠孝東路339巷10號","121.664275","25.0702316666667","6501100","汐止區"
"221015","131-UY","2018/07/26 18:39:46","新北市汐止區吉祥街12巷12-1號","121.668821666667","25.0805116666667","6501100","汐止區"
"221010","269-BY","2018/07/26 18:39:42","新北市汐止區汐萬路三段213號","121.64259","25.1002716666667","6501100","汐止區"
"221012","278-VK","2018/07/26 18:39:48","新北市汐止區長興街一段46號","121.670373333333","25.0791316666667","6501100","汐止區"
"221023","279-VK","2018/07/26 18:39:29","新北市汐止區民族二街84巷9-2號","121.633126666667","25.0704583333333","6501100","汐止區"
"221032","280-BY","2018/07/26 18:39:31","新北市汐止區福山街56巷19號","121.618035","25.04564","6501100","汐止區"
"221027","281-BY","2018/07/26 18:39:48","新北市汐止區汐萬路一段256巷1號","121.651765","25.07488","6501100","汐止區"
"221033","297-VK","2018/07/26 18:39:37","新北市汐止區南勢街3號","121.627105","25.0374433333333","6501100","汐止區"
"221029","298-VK","2018/07/26 18:39:39","新北市汐止區樟樹一路133巷1號","121.642145","25.065155","6501100","汐止區"
"221021","299-VK","2018/07/26 18:39:42","新北市汐止區復興路71號","121.657293333333","25.061975","6501100","汐止區"
"221031","353-TW","2018/07/26 18:39:39","新北市汐止區中興路58號","121.635475","25.0612766666667","6501100","汐止區"
"221035","622-UM","2018/07/26 18:39:32","新北市汐止區大同路二段101號","121.649888333333","25.063075","6501100","汐止區"
"221025","623-UM","2018/07/26 18:39:41","新北市汐止區仁愛路119巷19號","121.662171666667","25.0642466666667","6501100","汐止區"
"221038","646-BX","2018/07/26 18:39:50","新北市汐止區汐萬路一段256巷3號","121.652813333333","25.07445","6501100","汐止區"
"221002","707-TV","2018/07/26 18:39:31","新北市汐止區中興路16號","121.637206666667","25.0594166666667","6501100","汐止區"
"221018","753-BX","2018/07/26 18:39:38","新北市汐止區茄苳路293號","121.672918333333","25.06738","6501100","汐止區"
"220080","200-UY","2018/07/26 18:39:43","新北市板橋區大觀路二段265巷76弄26號","121.44151","24.9967483333333","6500100","板橋區"
"220079","256-TC","2018/07/26 18:39:36","新北市板橋區大觀路一段31號","121.449903333333","25.008485","6500100","板橋區"
"220056","276-BY","2018/07/26 18:39:47","新北市板橋區四川路二段橋頭6號","121.448301666667","24.99406","6500100","板橋區"
"220072","277-BY","2018/07/26 18:39:43","新北市板橋區大觀路三段59巷17弄6-1號","121.435285","24.9955633333333","6500100","板橋區"
"220071","283-VK","2018/07/26 18:39:41","新北市板橋區四川路二段59號","121.453558333333","24.9951983333333","6500100","板橋區"
"220094","285-UM","2018/07/26 18:39:40","新北市板橋區民生路二段161巷1號","121.469985","25.0197983333333","6500100","板橋區"
"220083","286-VK","2018/07/26 18:39:34","新北市板橋區大觀路二段107號","121.446315","25.0015966666667","6500100","板橋區"
"220081","287-VK","2018/07/26 18:39:30","新北市板橋區大觀路二段153巷47號","121.44714","25.0008583333333","6500100","板橋區"
"220061","293-UM","2018/07/26 18:39:46","新北市板橋區民生路二段120號","121.470341666667","25.0196983333333","6500100","板橋區"
"220084","296-UM","2018/07/26 18:39:44","新北市板橋區大觀路二段136號","121.443161666667","24.9991516666667","6500100","板橋區"
"220075","303-R5","2018/07/26 18:39:45","新北市板橋區南雅南路二段120-2號","121.452288333333","24.999825","6500100","板橋區"
"220064","486-VK","2018/07/26 18:39:43","新北市板橋區縣民大道一段193號","121.45936","25.008335","6500100","板橋區"
"220057","686-BX","2018/07/26 18:39:41","新北市板橋區華東街1-9號","121.44822","24.9948816666667","6500100","板橋區"
"220077","687-BX","2018/07/26 18:39:48","新北市板橋區大觀路二段174巷104弄1號","121.441046666667","25.0015383333333","6500100","板橋區"
"220054","741-BX","2018/07/26 18:39:47","新北市板橋區華東街1-9號","121.448085","24.9949083333333","6500100","板橋區"
"220070","806-UM","2018/07/26 18:39:31","新北市板橋區板城路421號","121.448203333333","24.99571","6500100","板橋區"
"220055","827-TW","2018/07/26 18:39:33","新北市板橋區華東街1-8號","121.447601666667","24.9949633333333","6500100","板橋區"
"220067","829-TW","2018/07/26 18:39:35","新北市板橋區民生路二段161巷9號","121.470295","25.0196633333333","6500100","板橋區"
"220096","831-TW","2018/07/26 18:39:30","新北市板橋區文化路二段76號","121.469318333333","25.0251283333333","6500100","板橋區"
"220089","833-TW","2018/07/26 18:39:32","新北市板橋區民生路二段161巷1號","121.470143333333","25.0201","6500100","板橋區"
"220074","895-R6","2018/07/26 18:39:43","新北市板橋區南雅南路二段134號","121.452015","24.9965583333333","6500100","板橋區"
"220073","985-R7","2018/07/26 18:39:29","新北市板橋區貴興路93號","121.456428333333","25.0028016666667","6500100","板橋區"
"220082","AAC-253","2018/07/26 18:39:47","新北市板橋區大觀路三段52號","121.432461666667","24.9959333333333","6500100","板橋區"
"235068","KEA-2873","2018/07/26 18:39:20","新北市中和區中正路131號","121.499801666667","24.9936083333333","6500300","中和區"
"235025","KEA-2875","2018/07/26 18:39:29","新北市中和區民享街32巷2號","121.473965","25.0034016666667","6500300","中和區"
