"lineid","car","time","location","longitude","latitude","cityid","cityname"
"234046","148-BY","2018/07/26 18:59:37","新北市永和區得和路373巷31弄9號","121.524686666667","25.0006316666667","6500400","永和區"
"234007","207-UY","2018/07/26 18:59:33","新北市永和區中山路一段56號","121.513003333333","25.0107066666667","6500400","永和區"
"234081","298-R6","2018/07/26 18:59:45","新北市永和區國中路206號","121.5222","25.0059383333333","6500400","永和區"
"234038","336-UY","2018/07/26 18:59:39","新北市中和區秀朗路三段36巷2號","121.526483333333","24.9960333333333","6500400","永和區"
"234064","337-UY","2018/07/26 18:59:41","新北市永和區中正路574號","121.517135","25.0063766666667","6500400","永和區"
"234086","338-UY","2018/07/26 18:59:46","新北市永和區永利路10巷11號","121.517975","25.00542","6500400","永和區"
"234070","552-UM","2018/07/26 18:59:44","新北市永和區竹林路96巷7號","121.519181666667","25.0120216666667","6500400","永和區"
"234017","745-BX","2018/07/26 18:59:44","新北市永和區永和路二段299號","121.516075","25.0161","6500400","永和區"
"234030","746-BX","2018/07/26 18:59:46","新北市永和區秀朗路二段289號","121.52615","24.9980816666667","6500400","永和區"
"234054","KEA-2590","2018/07/26 18:59:43","新北市永和區竹林路66巷15-7號","121.518278333333","25.0131316666667","6500400","永和區"
"234013","KEA-2591","2018/07/26 18:59:44","新北市永和區信義路17巷8號","121.513858333333","25.011805","6500400","永和區"
"234061","AAD-866","2018/07/26 18:59:38","新北市永和區福和路307號","121.516255","25.0072583333333","6500400","永和區"
"234042","862-TW","2018/07/26 18:59:35","新北市永和區永貞路310號","121.51183","25.0049133333333","6500400","永和區"
"234050","863-TW","2018/07/26 18:59:34","新北市永和區保安路2號","121.510848333333","25.0173933333333","6500400","永和區"
"234026","9371-KE","2018/07/26 18:59:32","新北市永和區安樂路304巷2號","121.514413333333","25.0049933333333","6500400","永和區"
"234011","9373-KE","2018/07/26 18:59:39","新北市永和區文化路90巷38號","121.513356666667","25.0164533333333","6500400","永和區"
"249005","172-UM","2018/07/26 18:59:45","新北市八里區長道坑3-1號","121.393883333333","25.1241833333333","6502300","八里區"
"249002","305-UY","2018/07/26 18:59:42","新北市八里區龍形一街33巷6-1號","121.449333333333","25.1295416666667","6502300","八里區"
"249001","759-BX","2018/07/26 18:59:31","新北市八里區龍米路二段46號","121.44822","25.140535","6502300","八里區"
"248014","025-BX","2018/07/26 18:59:33","新北市五股區民義路一段114號","121.435146666667","25.08562","6501500","五股區"
"248016","026-BX","2018/07/26 18:59:46","新北市五股區成泰路三段543巷12弄6號","121.451228333333","25.10214","6501500","五股區"
"248006","077-UY","2018/07/26 18:59:35","新北市五股區中興路一段52號","121.468018333333","25.0725983333333","6501500","五股區"
"248008","095-VK","2018/07/26 18:59:42","新北市五股區中興路一段118巷6弄4號","121.466281666667","25.074135","6501500","五股區"
"248020","225-UY","2018/07/26 18:59:34","新北市五股區凌雲路三段57號","121.425288333333","25.125005","6501500","五股區"
"248012","247-BX","2018/07/26 18:59:47","新北市五股區中興路四段48巷16號","121.438611666667","25.083415","6501500","五股區"
"248010","272-BY","2018/07/26 18:59:44","新北市五股區水碓一路23號","121.430543333333","25.0713783333333","6501500","五股區"
"248004","677-BX","2018/07/26 18:59:35","新北市五股區民義路二段70號","121.405566666667","25.1080966666667","6501500","五股區"
"248002","678-BX","2018/07/26 18:59:46","新北市五股區凌雲路一段50號","121.451578333333","25.1008983333333","6501500","五股區"
"234023","9380-KE","2018/07/26 18:59:49","新北市永和區竹林路75巷45號","121.520878333333","25.0143366666667","6500400","永和區"
"234077","969-R7","2018/07/26 18:59:47","新北市永和區智光街29號","121.518058333333","24.9990033333333","6500400","永和區"
"234074","AAC-211","2018/07/26 18:59:51","新北市永和區豫溪街217巷1號","121.525231666667","25.009785","6500400","永和區"
"234067","AAC-212","2018/07/26 18:59:48","新北市永和區自由街54號","121.513701666667","25.0060416666667","6500400","永和區"
"234003","AAC-295","2018/07/26 18:59:46","新北市永和區和平街34號","121.513135","25.010045","6500400","永和區"
"232011","375-UM","2018/07/26 18:59:36","新北市坪林區水聳淒坑25號","121.711491666667","24.93421","6502000","坪林區"
"244007","080-UY","2018/07/26 18:59:45","新北市林口區太平里5鄰23號","121.376466666667","25.115785","6501700","林口區"
"244019","403-UM","2018/07/26 18:59:41","新北市林口區麗園二街87號","121.382673333333","25.0667633333333","6501700","林口區"
"244013","742-UY","2018/07/26 18:59:37","新北市林口區麗園二街1巷6-1號","121.37804","25.0703233333333","6501700","林口區"
"244009","410-SL","2018/07/26 18:59:46","新北市林口區林口路83-1號","121.389606666667","25.0798733333333","6501700","林口區"
"244023","483-VK","2018/07/26 18:59:46","新北市林口區民權路22號","121.371551666667","25.0804783333333","6501700","林口區"
"244017","485-VK","2018/07/26 18:59:36","新北市林口區文化二路一段20巷25弄61號","121.366075","25.0676616666667","6501700","林口區"
"244010","657-BX","2018/07/26 18:59:39","新北市林口區中正路321號","121.388663333333","25.0776866666667","6501700","林口區"
"244025","837-TS","2018/07/26 18:59:32","新北市林口區南勢街128號","121.362595","25.07458","6501700","林口區"
"243013","AAD-798","2018/07/26 18:59:38","新北市泰山區明志路三段241號","121.42353","25.0377133333333","6501600","泰山區"
"243009","297-R6","2018/07/26 18:59:39","新北市泰山區泰林路二段360號","121.428901666667","25.0635566666667","6501600","泰山區"
"243016","380-SR","2018/07/26 18:59:34","新北市泰山區明志路二段152號","121.427508333333","25.0508433333333","6501600","泰山區"
"243015","421-VK","2018/07/26 18:59:46","新北市泰山區明志路一段223號","121.432545","25.0611733333333","6501600","泰山區"
"243011","KEA-2215","2018/07/26 18:59:40","新北市泰山區明志路二段254巷16弄37號","121.423786666667","25.0503233333333","6501600","泰山區"
"243010","KEA-2216","2018/07/26 18:59:41","新北市泰山區辭修路30號","121.428996666667","25.0582183333333","6501600","泰山區"
"243012","646-TV","2018/07/26 18:59:37","新北市泰山區福興三街156號","121.433075","25.0571983333333","6501600","泰山區"
"243014","680-BX","2018/07/26 18:59:34","新北市泰山區泰林路二段601號","121.421518333333","25.0634933333333","6501600","泰山區"
"222003","436-BY","2018/07/26 18:59:40","新北市深坑區深南路51-1號","121.621346666667","25.0101516666667","6501800","深坑區"
"222002","659-BX","2018/07/26 18:59:34","新北市深坑區文山路一段31巷2號","121.62983","25.0034116666667","6501800","深坑區"
"231041","002-UM","2018/07/26 18:59:38","新北市新店區環河路74號","121.53702","24.963145","6500600","新店區"
"231059","046-UY","2018/07/26 18:59:35","新北市新店區安華路28-1號","121.519666666667","24.9608516666667","6500600","新店區"
"231040","047-UY","2018/07/26 18:59:48","新北市新店區中正路397號","121.534545","24.97738","6500600","新店區"
"231044","106-UY","2018/07/26 18:59:37","新北市新店區寶中路72號","121.547861666667","24.9806583333333","6500600","新店區"
"231046","107-UY","2018/07/26 18:59:45","新北市新店區直潭八街2號","121.53461","24.9401666666667","6500600","新店區"
"231052","108-UY","2018/07/26 18:59:31","新北市新店區屈尺路58號","121.547375","24.9226566666667","6500600","新店區"
"231065","110-UY","2018/07/26 18:59:48","新北市新店區建業路86號","121.480318333333","24.9547533333333","6500600","新店區"
"231047","187-VK","2018/07/26 18:59:44","新北市新店區德正街40號","121.54431","24.9715583333333","6500600","新店區"
"231054","KEA-2219","2018/07/26 18:59:45","新北市新店區新店路13號","121.540298333333","24.9528816666667","6500600","新店區"
"231042","268-BY","2018/07/26 18:59:38","新北市新店區五峰路60號","121.545835","24.968305","6500600","新店區"
"231051","278-BY","2018/07/26 18:59:45","新北市新店區百忍街32號","121.533933333333","24.97585","6500600","新店區"
"231050","AAD-862","2018/07/26 18:59:34","新北市新店區北宜路二段56巷3弄1號","121.549163333333","24.95094","6500600","新店區"
"231058","3713-VJ","2018/07/26 18:59:46","新北市新店區光明街94號","121.538863333333","24.9604116666667","6500600","新店區"
"231066","4716-K9","2018/07/26 18:59:39","新北市新店區安豐路22巷5-5號","121.501671666667","24.956035","6500600","新店區"
"231056","4715-K9","2018/07/26 18:59:36","新北市新店區二十張路46巷37弄23號","121.535965","24.9814916666667","6500600","新店區"
"231067","4772-VM","2018/07/26 18:59:45","新北市新店區安華路1-1號","121.519125","24.960575","6500600","新店區"
"231049","513-UM","2018/07/26 18:59:28","新北市新店區中正路454-5號","121.534443333333","24.9790416666667","6500600","新店區"
"231063","616-UM","2018/07/26 18:59:40","新北市新店區車子路115-11號","121.507285","24.95462","6500600","新店區"
"231045","617-UM","2018/07/26 18:59:34","新北市新店區北新路一段43號","121.538106666667","24.9593716666667","6500600","新店區"
"231061","619-UM","2018/07/26 18:59:47","新北市新店區安華路1-1號","121.519611666667","24.9599483333333","6500600","新店區"
"231064","719-UM","2018/07/26 18:59:34","新北市新店區安一路一段1-1號","121.519635","24.9615916666667","6500600","新店區"
"231062","720-UM","2018/07/26 18:59:31","新北市新店區安豐路56號","121.499175","24.9543383333333","6500600","新店區"
"231060","897-TW","2018/07/26 18:59:48","新北市新店區安華路30巷12-1號","121.518668333333","24.9582133333333","6500600","新店區"
"231043","899-TW","2018/07/26 18:59:48","新北市新店區北新路二段2號","121.542565","24.970565","6500600","新店區"
"231055","AKT-0513","2018/07/26 18:59:36","新北市新店區中央二街68號","121.52623","24.9745","6500600","新店區"
"241026","066-VK","2018/07/26 18:59:41","新北市三重區泉州街108號","121.49486","25.0536966666667","6500200","三重區"
"241035","462-BY","2018/07/26 18:59:38","新北市三重區重新路四段121號","121.484856666667","25.0520083333333","6500200","三重區"
"241020","478-VK","2018/07/26 18:59:46","新北市三重區忠孝路二段31號","121.486191666667","25.0712483333333","6500200","三重區"
"241006","AAD-863","2018/07/26 18:59:32","新北市三重區車路頭街139巷12號","121.484255","25.07623","6500200","三重區"
"235066","003-UY","2018/07/26 18:59:46","新北市中和區中山路二段131巷5弄5號","121.502911666667","25.0029083333333","6500300","中和區"
"235064","005-UY","2018/07/26 18:59:49","新北市中和區泰和街44巷15號","121.49844","25.000655","6500300","中和區"
"235063","006-UY","2018/07/26 18:59:35","新北市中和區中正路538號","121.487511666667","24.9945933333333","6500300","中和區"
"235056","096-UM","2018/07/26 18:59:48","新北市中和區新民街81號","121.481481666667","25.007885","6500300","中和區"
"235039","097-UM","2018/07/26 18:59:50","新北市中和區安樂路217巷20弄17號","121.513423333333","24.9989483333333","6500300","中和區"
"235065","098-UM","2018/07/26 18:59:39","新北市中和區勝利路35巷3弄4號","121.499198333333","25.00714","6500300","中和區"
"235040","150-BY","2018/07/26 18:59:42","新北市中和區安樂路87號","121.51292","24.9946283333333","6500300","中和區"
"235058","151-BY","2018/07/26 18:59:44","新北市中和區連城路428巷13號","121.479763333333","24.9955433333333","6500300","中和區"
"235055","183-VK","2018/07/26 18:59:47","新北市中和區民德路25巷1號","121.469093333333","25.0027383333333","6500300","中和區"
"235049","186-VK","2018/07/26 18:59:39","新北市中和區景安路177巷36號","121.507023333333","24.9944683333333","6500300","中和區"
"235067","255-BX","2018/07/26 18:59:45","新北市中和區中正路809號","121.48468","25.0017733333333","6500300","中和區"
"235044","293-VK","2018/07/26 18:59:40","新北市中和區中興街163號","121.499921666667","24.9908616666667","6500300","中和區"
"235072","301-VK","2018/07/26 18:59:36","新北市中和區中山路二段258號","121.497628333333","25.0025233333333","6500300","中和區"
"235043","352-BY","2018/07/26 18:59:37","新北市中和區秀朗路三段64號","121.526381666667","24.994845","6500300","中和區"
"235050","4979-A6","2018/07/26 18:59:34","新北市中和區華新街50巷7號","121.507638333333","24.983895","6500300","中和區"
"235069","4980-A6","2018/07/26 18:59:50","新北市中和區圓通路109號","121.499465","24.9966083333333","6500300","中和區"
"235042","551-UM","2018/07/26 18:59:36","新北市中和區秀朗路三段22巷15號","121.525511666667","24.99613","6500300","中和區"
"235070","558-UM","2018/07/26 18:59:46","新北市中和區連城路18號","121.498766666667","25.0021783333333","6500300","中和區"
"235045","565-BX","2018/07/26 18:59:32","新北市中和區景新街467巷20弄7-5號","121.514388333333","24.9878233333333","6500300","中和區"
"235054","640-BX","2018/07/26 18:59:36","新北市中和區民享街86巷29號","121.472941666667","25.0003333333333","6500300","中和區"
"235060","647-TV","2018/07/26 18:59:46","新北市中和區中山路三段135號","121.474121666667","25.0061266666667","6500300","中和區"
"235047","732-UM","2018/07/26 18:59:40","新北市中和區興南路二段54巷9弄2號","121.505976666667","24.9855783333333","6500300","中和區"
"235046","733-UM","2018/07/26 18:59:36","新北市中和區興南路二段11號","121.508268333333","24.986165","6500300","中和區"
"235071","783-BX","2018/07/26 18:59:49","新北市中和區員山路36巷16-3號","121.485221666667","24.9911066666667","6500300","中和區"
"235062","800-TS","2018/07/26 18:59:30","新北市中和區中山路二段330號","121.494705","25.00242","6500300","中和區"
"235057","801-TS","2018/07/26 18:59:29","新北市中和區民利街93巷1號","121.478133333333","24.997875","6500300","中和區"
"235041","802-TS","2018/07/26 18:59:35","新北市中和區宜安路123號","121.509996666667","24.9980766666667","6500300","中和區"
"235052","805-TS","2018/07/26 18:59:37","新北市中和區興南路二段114巷4號","121.504195","24.9842516666667","6500300","中和區"
"235048","896-TW","2018/07/26 18:59:44","新北市中和區華新街109巷16號","121.508783333333","24.981035","6500300","中和區"
"235053","900-TW","2018/07/26 18:59:44","新北市中和區壽德街26-1號","121.46648","24.9944583333333","6500300","中和區"
"235051","157-BY","2018/07/26 18:59:47","新北市中和區忠孝街13號","121.510008333333","24.9827733333333","6500300","中和區"
"235037","AAC-213","2018/07/26 18:59:30","新北市中和區秀朗路三段10巷14弄43號","121.524098333333","24.9964316666667","6500300","中和區"
"235059","AAC-215","2018/07/26 18:59:47","新北市中和區圓通路369巷19弄8號","121.491278333333","24.988275","6500300","中和區"
"220065","072-UY","2018/07/26 18:59:32","新北市板橋區民族路287巷5號","121.47113","25.00714","6500100","板橋區"
"220086","073-UY","2018/07/26 18:59:45","新北市板橋區民權路209號","121.457921666667","25.0148683333333","6500100","板橋區"
"220069","AAD-861","2018/07/26 18:59:37","新北市板橋區大華街14號","121.458403333333","25.0060316666667","6500100","板橋區"
"220106","120-SR","2018/07/26 18:59:35","新北市板橋區文化路二段124巷28-2號","121.47129","25.0256466666667","6500100","板橋區"
"226004","312-R5","2018/07/26 18:59:43","新北市平溪區靜安路二段551號","121.749025","25.0257933333333","6502400","平溪區"
"235038","251-BX","2018/07/26 18:59:40","新北市中和區立人街12號","121.519335","24.9942616666667","6500300","中和區"
"228003","097-TW","2018/07/26 18:59:39","新北市貢寮區和美里龍洞街56-2號","121.912141666667","25.1139066666667","6502600","貢寮區"
"228001","212-TW","2018/07/26 18:59:45","新北市貢寮區仁理村保健街85號","121.92387","25.0521183333333","6502600","貢寮區"
"228002","663-BX","2018/07/26 18:59:42","新北市貢寮區福隆里東興街106巷25弄1號","121.946425","25.0182916666667","6502600","貢寮區"
"224010","AGQ-8101","2018/07/26 18:58:13","新北市瑞芳區基山街6號","121.845301666667","25.10933","6501200","瑞芳區"
"224006","676-BX","2018/07/26 18:59:32","新北市瑞芳區民族街24-1號","121.80674","25.1068766666667","6501200","瑞芳區"
"224002","639-TC","2018/07/26 18:59:37","新北市瑞芳區靜安路四段10號","121.79491","25.084655","6501200","瑞芳區"
"224008","285-BY","2018/07/26 18:59:32","新北市瑞芳區逢甲路347-2號","121.797825","25.1141016666667","6501200","瑞芳區"
"224007","275-VK","2018/07/26 18:59:33","新北市瑞芳區中央路48巷124號","121.757945","25.1039183333333","6501200","瑞芳區"
"224009","273-VK","2018/07/26 18:59:36","新北市瑞芳區長仁路37-1號","121.865375","25.11784","6501200","瑞芳區"
"224005","271-BY","2018/07/26 18:59:47","新北市瑞芳區瑞濱路67號","121.822198333333","25.12097","6501200","瑞芳區"
"227010","642-TC","2018/07/26 18:59:32","新北市雙溪區牡丹里中正路58巷23號","121.86647","25.0416283333333","6502500","雙溪區"
"227004","400-TW","2018/07/26 18:59:44","新北市雙溪區平林里康福家園10號","121.8588","25.0373366666667","6502500","雙溪區"
"253005","032-BX","2018/07/26 18:59:31","新北市石門區尖子鹿76號","121.571015","25.2968266666667","6502200","石門區"
"253006","295-VK","2018/07/26 18:59:48","新北市石門區下員坑28-2號","121.518303333333","25.279355","6502200","石門區"
"222001","KEA-2212","2018/07/26 18:59:39","新北市深坑區北深路一段264號","121.629395","25.008745","6501800","深坑區"
"208002","KEA-2872","2018/07/26 18:59:28","新北市金山區信義路72號","121.635153333333","25.2194866666667","6502700","金山區"
"208003","665-BX","2018/07/26 18:59:29","新北市金山區中正路23號","121.635915","25.2222083333333","6502700","金山區"
"208001","761-BX","2018/07/26 18:59:46","新北市金山區中山路69號","121.640733333333","25.2182783333333","6502700","金山區"
"251009","008-UM","2018/07/26 18:59:41","新北市淡水區重建街66號","121.439891666667","25.1719833333333","6501000","淡水區"
"251001","011-UM","2018/07/26 18:59:31","新北市淡水區自強路58號","121.463163333333","25.1274916666667","6501000","淡水區"
"251013","KEA-2871","2018/07/26 18:59:35","新北市淡水區安子內12-1號","121.481526666667","25.2190833333333","6501000","淡水區"
"251016","179-VK","2018/07/26 18:59:36","新北市淡水區淡金路三段331巷3號","121.448526666667","25.206145","6501000","淡水區"
"251014","180-VK","2018/07/26 18:59:34","新北市淡水區小中寮22號","121.489306666667","25.22939","6501000","淡水區"
"251015","182-VK","2018/07/26 18:59:36","新北市淡水區糞箕湖62號","121.485216666667","25.172275","6501000","淡水區"
"251010","413-VK","2018/07/26 18:59:30","新北市淡水區淡海路111號","121.42161","25.1826583333333","6501000","淡水區"
"251007","442-VK","2018/07/26 18:59:50","新北市淡水區民生路113巷1弄53號","121.462398333333","25.1384383333333","6501000","淡水區"
"251006","443-VK","2018/07/26 18:59:32","新北市淡水區崁頂36號","121.43902","25.1946766666667","6501000","淡水區"
"251002","672-BX","2018/07/26 18:59:42","新北市淡水區中正東路55-4號","121.446768333333","25.167865","6501000","淡水區"
"251003","766-UM","2018/07/26 18:59:41","新北市淡水區中山北路一段149巷24號","121.442925","25.1780383333333","6501000","淡水區"
"207003","550-UM","2018/07/26 18:59:49","新北市萬里區大鵬里頂社24-5號","121.657841666667","25.21003","6502800","萬里區"
"207004","225-TW","2018/07/26 18:59:43","新北市萬里區萬里里獅頭路23號","121.693245","25.1782683333333","6502800","萬里區"
"252002","178-VK","2018/07/26 18:59:36","新北市三芝區中正路一段68號","121.503691666667","25.2578016666667","6502100","三芝區"
"252003","249-BX","2018/07/26 18:59:47","新北市三芝區後厝里北勢子42-1號","121.472061666667","25.2524133333333","6502100","三芝區"
"252001","292-VK","2018/07/26 18:59:41","新北市三芝區中興街二段260號","121.50174","25.2530383333333","6502100","三芝區"
"237007","153-BY","2018/07/26 18:59:42","新北市三峽區大埔路143號","121.366575","24.9059016666667","6500900","三峽區"
"237013","252-BX","2018/07/26 18:59:46","新北市三峽區光明路69巷25號","121.376715","24.929275","6500900","三峽區"
"237012","275-BY","2018/07/26 18:59:33","新北市三峽區三樹路222巷192-9號","121.388231666667","24.9418866666667","6500900","三峽區"
"237008","302-VK","2018/07/26 18:59:32","新北市三峽區正義街5號","121.369983333333","24.9200816666667","6500900","三峽區"
"237014","433-BY","2018/07/26 18:59:46","新北市三峽區隆恩街158巷42號","121.365595","24.9449983333333","6500900","三峽區"
"237006","5529-G3","2018/07/26 18:59:39","新北市三峽區溪東路233巷2弄3號","121.406978333333","24.9334616666667","6500900","三峽區"
"237011","KEA-2596","2018/07/26 18:59:35","新北市三峽區介壽路三段178號","121.402471666667","24.9440233333333","6500900","三峽區"
"237016","649-BX","2018/07/26 18:59:46","新北市三峽區建安83號","121.453646666667","24.9205083333333","6500900","三峽區"
"237010","706-TV","2018/07/26 18:59:41","新北市三峽區復興路271號","121.366443333333","24.93893","6500900","三峽區"
"237005","AKY-6261","2018/07/26 18:59:33","新北市三峽區中山路257巷29號","121.362478333333","24.93597","6500900","三峽區"
"236070","105-UM","2018/07/26 18:59:45","新北市土城區明德路一段385-1號","121.452758333333","24.9803116666667","6501300","土城區"
"236042","107-UM","2018/07/26 18:59:48","新北市土城區學府路一段189巷15號","121.45259","24.9845166666667","6501300","土城區"
"236078","166-UM","2018/07/26 18:59:30","新北市土城區中央路四段213號","121.413821666667","24.9558266666667","6501300","土城區"
"236030","253-BX","2018/07/26 18:59:44","新北市土城區慶利街9號","121.439545","24.9736383333333","6501300","土城區"
"236026","269-VK","2018/07/26 18:59:46","新北市土城區中正路56巷10號","121.44394","24.97501","6501300","土城區"
"236014","270-VK","2018/07/26 18:59:46","新北市土城區延和路13巷10號","121.463721666667","24.9883183333333","6501300","土城區"
"236038","271-VK","2018/07/26 18:59:40","新北市土城區仁愛路54巷7號","121.462183333333","24.9783866666667","6501300","土城區"
"236021","401-BY","2018/07/26 18:59:31","新北市土城區延吉街215號","121.468448333333","24.985275","6501300","土城區"
"236059","912-UM","2018/07/26 18:59:47","新北市土城區金城路二段266號","121.458038333333","24.98395","6501300","土城區"
"236049","913-UM","2018/07/26 18:59:48","新北市土城區青雲路287號","121.45907","24.9799933333333","6501300","土城區"
"236063","915-UM","2018/07/26 18:59:30","新北市土城區延和路39巷2號","121.465996666667","24.9896666666667","6501300","土城區"
"236055","AAC-216","2018/07/26 18:59:36","新北市土城區學成路164號","121.448023333333","24.9891116666667","6501300","土城區"
"242002","349-TH","2018/07/26 18:59:32","新北市新莊區瓊林南路77-41號","121.437705","25.0125033333333","6500500","新莊區"
"238023","601-UM","2018/07/26 18:59:34","新北市樹林區大慶街156號","121.396836666667","25.0130866666667","6500700","樹林區"
"238019","599-UM","2018/07/26 18:59:32","新北市樹林區東榮街91巷4弄2號","121.416243333333","24.981965","6500700","樹林區"
"238022","KEA-2213","2018/07/26 18:59:34","新北市樹林區中山路二段151巷14弄7號","121.40782","24.9773983333333","6500700","樹林區"
"238021","KEA-2539","2018/07/26 18:59:44","新北市樹林區柑園街二段328巷6弄29號","121.373248333333","24.9526816666667","6500700","樹林區"
"238025","303-VK","2018/07/26 18:59:44","新北市樹林區民和街37號","121.384151666667","24.9694916666667","6500700","樹林區"
"238017","283-BY","2018/07/26 18:59:35","新北市樹林區保安街一段342號","121.41793","24.99808","6500700","樹林區"
"238014","282-BY","2018/07/26 18:59:43","新北市樹林區千歲街61巷2號","121.426446666667","24.9979283333333","6500700","樹林區"
"238020","268-VK","2018/07/26 18:59:49","新北市樹林區俊英街155巷13號","121.423736666667","25.01221","6500700","樹林區"
"238026","172-UY","2018/07/26 18:59:36","新北市樹林區德和街26巷2號","121.391455","24.975735","6500700","樹林區"
"238016","169-UY","2018/07/26 18:59:46","新北市樹林區文化街25巷13號","121.418446666667","24.986695","6500700","樹林區"
"239007","AAC-297","2018/07/26 18:59:43","新北市鶯歌區中正一路329號","121.357238333333","24.957105","6500800","鶯歌區"
"239006","891-R6","2018/07/26 18:59:45","新北市鶯歌區鶯桃路296巷55弄12號","121.336156666667","24.96166","6500800","鶯歌區"
"239008","527-UM","2018/07/26 18:59:32","新北市鶯歌區國際二路18巷25號","121.337805","24.975525","6500800","鶯歌區"
"239005","526-UM","2018/07/26 18:59:40","新北市鶯歌區鳳吉一街9號","121.32539","24.9732816666667","6500800","鶯歌區"
"239001","417-VK","2018/07/26 18:59:37","新北市鶯歌區永明街13號","121.338306666667","24.95531","6500800","鶯歌區"
"239003","360-BY","2018/07/26 18:59:31","新北市鶯歌區鶯桃路501號","121.331601666667","24.96654","6500800","鶯歌區"
"239004","292-BY","2018/07/26 18:59:35","新北市鶯歌區尖山路302巷18號","121.341798333333","24.9433566666667","6500800","鶯歌區"
"221008","489-VK","2018/07/26 18:59:43","新北市汐止區康寧街753巷2弄22號","121.640106666667","25.0745416666667","6501100","汐止區"
"221036","130-UY","2018/07/26 18:59:41","新北市汐止區忠孝東路258巷11弄11號","121.664275","25.0678233333333","6501100","汐止區"
"221015","131-UY","2018/07/26 18:59:34","新北市汐止區忠孝東路473巷24-1號","121.665063333333","25.0737216666667","6501100","汐止區"
"221010","269-BY","2018/07/26 18:59:42","新北市汐止區康寧街901號","121.651401666667","25.074995","6501100","汐止區"
"221012","278-VK","2018/07/26 18:59:48","新北市汐止區康寧街901號","121.650788333333","25.075215","6501100","汐止區"
"221023","279-VK","2018/07/26 18:59:29","新北市汐止區康寧街901號","121.650933333333","25.0751816666667","6501100","汐止區"
"221032","280-BY","2018/07/26 18:59:31","新北市汐止區橫科路407巷81弄1號","121.62841","25.0483083333333","6501100","汐止區"
"221027","281-BY","2018/07/26 18:59:48","新北市汐止區康寧街901號","121.651381666667","25.07496","6501100","汐止區"
"221033","297-VK","2018/07/26 18:59:37","新北市汐止區南勢街3號","121.627078333333","25.0374183333333","6501100","汐止區"
"221029","298-VK","2018/07/26 18:59:39","新北市汐止區樟樹一路254號","121.64236","25.0673016666667","6501100","汐止區"
"221021","299-VK","2018/07/26 18:59:42","新北市汐止區康寧街901號","121.651526666667","25.0749966666667","6501100","汐止區"
"221031","353-TW","2018/07/26 18:59:39","新北市汐止區福德二路156巷3號","121.630023333333","25.0654","6501100","汐止區"
"221035","622-UM","2018/07/26 18:59:32","新北市汐止區汐萬路一段247-1號","121.651376666667","25.073125","6501100","汐止區"
"221025","623-UM","2018/07/26 18:59:21","新北市汐止區汐萬路一段115巷2號","121.654338333333","25.0707533333333","6501100","汐止區"
"221038","646-BX","2018/07/26 18:59:30","新北市汐止區汐萬路一段312號","121.650625","25.075225","6501100","汐止區"
"221002","707-TV","2018/07/26 18:59:31","新北市汐止區大同路一段2號","121.621015","25.0549466666667","6501100","汐止區"
"221018","753-BX","2018/07/26 18:59:38","新北市汐止區汐萬路一段117號","121.65418","25.0710183333333","6501100","汐止區"
"220080","200-UY","2018/07/26 18:59:43","新北市板橋區大觀路二段265巷1弄14號","121.44349","24.998395","6500100","板橋區"
"220079","256-TC","2018/07/26 18:59:48","新北市板橋區民權路202巷12弄2號","121.460508333333","25.01545","6500100","板橋區"
"220056","276-BY","2018/07/26 18:59:27","新北市板橋區信義路104號","121.458175","24.9927816666667","6500100","板橋區"
"220072","277-BY","2018/07/26 18:59:43","新北市板橋區篤行路一段33號","121.432068333333","24.9943966666667","6500100","板橋區"
"220071","283-VK","2018/07/26 18:59:41","新北市板橋區忠孝路154巷5號","121.464073333333","25.00206","6500100","板橋區"
"220094","285-UM","2018/07/26 18:59:40","新北市板橋區莒光路1-1號","121.469561666667","25.0249583333333","6500100","板橋區"
"220053","285-VK","2018/07/26 18:59:46","新北市板橋區中山路二段89巷48號","121.47378","25.0172366666667","6500100","板橋區"
"220083","286-VK","2018/07/26 18:59:34","新北市板橋區大觀路一段38巷156弄77號","121.442925","25.0068","6500100","板橋區"
"220081","287-VK","2018/07/26 18:59:35","新北市板橋區光華街19巷15號","121.453178333333","25.0119583333333","6500100","板橋區"
"220090","288-VK","2018/07/26 18:59:45","新北市板橋區四維路177巷1弄2號","121.464041666667","25.0261766666667","6500100","板橋區"
"220061","293-UM","2018/07/26 18:59:46","新北市板橋區富山街109巷70號","121.475261666667","25.0213083333333","6500100","板橋區"
"220062","295-UM","2018/07/26 18:59:43","新北市板橋區三民路二段正隆巷42號","121.477001666667","25.0137883333333","6500100","板橋區"
"220084","296-UM","2018/07/26 18:59:44","新北市板橋區龍興街6號","121.44274","24.99953","6500100","板橋區"
"220075","303-R5","2018/07/26 18:59:45","新北市板橋區後菜園街32巷2號","121.4568","25.010325","6500100","板橋區"
"220092","307-R5","2018/07/26 18:59:31","新北市板橋區縣民大道二段112號","121.467143333333","25.015755","6500100","板橋區"
"220098","317-R6","2018/07/26 18:59:50","新北市板橋區民有街24-3號","121.466173333333","25.0251383333333","6500100","板橋區"
"220064","486-VK","2018/07/26 18:59:44","新北市板橋區縣民大道二段106號","121.467165","25.0152516666667","6500100","板橋區"
"220088","491-VK","2018/07/26 18:59:46","新北市板橋區民生路二段232號","121.468853333333","25.0221183333333","6500100","板橋區"
"220035","560-BX","2018/07/26 18:59:31","新北市板橋區中正路341巷35號","121.454168333333","25.019715","6500100","板橋區"
"220103","561-BX","2018/07/26 18:59:28","新北市板橋區介壽街115號","121.4703","25.0184916666667","6500100","板橋區"
"220063","609-BX","2018/07/26 18:59:36","新北市板橋區中山路二段110號","121.4759","25.0166883333333","6500100","板橋區"
"220079","630-UY","2018/07/26 18:52:11","新北市板橋區華東街1-10號","121.448478333333","24.99484","6500100","板橋區"
"220091","637-BX","2018/07/26 18:59:42","新北市板橋區雙十路二段47巷30號","121.475475","25.0257916666667","6500100","板橋區"
"220057","686-BX","2018/07/26 18:59:41","新北市板橋區重慶路107號","121.462181666667","25.00528","6500100","板橋區"
"220077","687-BX","2018/07/26 18:59:48","新北市板橋區大觀路二段299號","121.442103333333","24.99875","6500100","板橋區"
"220093","689-BX","2018/07/26 18:59:31","新北市板橋區民生路三段6號","121.4678","25.0238666666667","6500100","板橋區"
"220054","741-BX","2018/07/26 18:59:28","新北市板橋區成都街60號","121.463005","25.0050733333333","6500100","板橋區"
"220102","KEA-2699","2018/07/26 18:59:31","新北市板橋區雙十路一段44巷36號","121.477251666667","25.0248383333333","6500100","板橋區"
"220070","806-UM","2018/07/26 18:59:51","新北市板橋區四川路一段489號","121.457141666667","24.99718","6500100","板橋區"
"220055","827-TW","2018/07/26 18:59:33","新北市板橋區中山路一段158巷23-1號","121.466511666667","25.0112266666667","6500100","板橋區"
"220067","829-TW","2018/07/26 18:59:35","新北市板橋區三民路186巷13-1號","121.478641666667","25.0150283333333","6500100","板橋區"
"220068","830-TW","2018/07/26 18:59:48","新北市板橋區中山路二段465巷82號","121.481326666667","25.0223566666667","6500100","板橋區"
"220096","831-TW","2018/07/26 18:59:45","新北市板橋區莒光路74號","121.471425","25.0241333333333","6500100","板橋區"
"220089","833-TW","2018/07/26 18:59:32","新北市板橋區文化路二段410巷2號","121.47404","25.03157","6500100","板橋區"
"220074","895-R6","2018/07/26 18:59:43","新北市板橋區西門街63號","121.454666666667","25.00928","6500100","板橋區"
"220073","985-R7","2018/07/26 18:59:49","新北市板橋區民權路200號","121.459011666667","25.01383","6500100","板橋區"
"220097","AAC-210","2018/07/26 18:59:30","新北市板橋區板新路237號","121.467533333333","25.0159966666667","6500100","板橋區"
"220082","AAC-253","2018/07/26 18:59:36","新北市板橋區滿平街82號","121.427573333333","24.9891466666667","6500100","板橋區"
"235068","KEA-2873","2018/07/26 18:59:36","新北市中和區圓通路232巷10號","121.494846666667","24.9933083333333","6500300","中和區"
"235025","KEA-2875","2018/07/26 18:59:29","新北市中和區民享街2巷2號","121.473775","25.0057933333333","6500300","中和區"
