"lineid","car","time","location","longitude","latitude","cityid","cityname"
"234046","148-BY","2018/07/26 19:39:37","新北市永和區秀朗路二段89號","121.523228333333","25.0017266666667","6500400","永和區"
"234007","207-UY","2018/07/26 19:39:33","新北市永和區中和路525號","121.511166666667","25.0028216666667","6500400","永和區"
"234081","298-R6","2018/07/26 19:39:48","新北市永和區國中路104巷8弄6號","121.524875","25.0067","6500400","永和區"
"234038","336-UY","2018/07/26 19:39:39","新北市永和區民樂街29號","121.527691666667","25.0015216666667","6500400","永和區"
"234064","337-UY","2018/07/26 19:39:41","新北市永和區秀朗路一段192巷6弄14號","121.519083333333","25.0023033333333","6500400","永和區"
"234086","338-UY","2018/07/26 19:39:46","新北市永和區永亨路122號","121.5244","25.0040383333333","6500400","永和區"
"234070","552-UM","2018/07/26 19:39:44","新北市永和區永和路二段235號","121.515598333333","25.0142916666667","6500400","永和區"
"234017","745-BX","2018/07/26 19:39:44","新北市永和區永和路二段425巷64號","121.513595","25.0171833333333","6500400","永和區"
"234030","746-BX","2018/07/26 19:39:46","新北市永和區四維街119號","121.523221666667","24.998095","6500400","永和區"
"234054","KEA-2590","2018/07/26 19:39:43","新北市永和區竹林路39巷18號","121.51863","25.0146133333333","6500400","永和區"
"234013","KEA-2591","2018/07/26 19:39:44","新北市永和區永平路208號","121.509581666667","25.0101933333333","6500400","永和區"
"234061","AAD-866","2018/07/26 19:39:38","新北市永和區中正路470號","121.517411666667","25.0030816666667","6500400","永和區"
"234042","862-TW","2018/07/26 19:39:35","新北市永和區中和路603號","121.512453333333","25.0043016666667","6500400","永和區"
"234050","863-TW","2018/07/26 19:39:34","新北市永和區保安路132號","121.508953333333","25.0153416666667","6500400","永和區"
"234026","9371-KE","2018/07/26 19:39:31","新北市永和區中和路501巷2號","121.510578333333","25.002555","6500400","永和區"
"249004","303-UY","2018/07/26 19:39:47","新北市八里區仁愛路10號","121.4132","25.16205","6502300","八里區"
"249002","305-UY","2018/07/26 19:39:42","新北市八里區頂寮二街33-1號","121.4503","25.12517","6502300","八里區"
"249003","593-UM","2018/07/26 19:39:30","新北市八里區華峰三街29號","121.399321666667","25.1459633333333","6502300","八里區"
"248014","025-BX","2018/07/26 19:39:37","新北市五股區五福路50號","121.433588333333","25.0895166666667","6501500","五股區"
"248016","026-BX","2018/07/26 19:39:48","新北市五股區成泰路3段651-1號","121.452905","25.1053166666667","6501500","五股區"
"248008","095-VK","2018/07/26 19:39:49","新北市五股區四維路118巷15號","121.469376666667","25.074175","6501500","五股區"
"248020","225-UY","2018/07/26 19:39:34","新北市五股區中直路19-4號","121.423153333333","25.1117916666667","6501500","五股區"
"248012","247-BX","2018/07/26 19:39:47","新北市五股區成泰路一段241巷1弄1號","121.436433333333","25.0808666666667","6501500","五股區"
"248010","272-BY","2018/07/26 19:39:44","新北市五股區自強路115號","121.43242","25.070505","6501500","五股區"
"248004","677-BX","2018/07/26 19:39:35","新北市五股區成泰路二段38號","121.437088333333","25.0812933333333","6501500","五股區"
"248002","678-BX","2018/07/26 19:39:46","新北市五股區成泰路三段577巷72號","121.450178333333","25.1034733333333","6501500","五股區"
"234077","969-R7","2018/07/26 19:39:28","新北市永和區民權路1巷8號","121.520685","24.9983933333333","6500400","永和區"
"234074","AAC-211","2018/07/26 19:39:31","新北市永和區竹林路223號","121.520821666667","25.0085316666667","6500400","永和區"
"234067","AAC-212","2018/07/26 19:39:35","新北市永和區永貞路422號","121.508611666667","25.0081583333333","6500400","永和區"
"234003","AAC-295","2018/07/26 19:39:46","新北市永和區自由街71號","121.513415","25.0052316666667","6500400","永和區"
"243013","AAD-798","2018/07/26 19:36:35","新北市泰山區應化街7號","121.423865","25.043715","6501600","泰山區"
"243009","297-R6","2018/07/26 19:39:39","新北市泰山區美寧街69號","121.430896666667","25.0647483333333","6501600","泰山區"
"243016","380-SR","2018/07/26 19:39:34","新北市泰山區明志路三段452號","121.420878333333","25.0325183333333","6501600","泰山區"
"243015","421-VK","2018/07/26 19:39:46","新北市泰山區文程路18巷9號","121.428305","25.0488683333333","6501600","泰山區"
"243011","KEA-2215","2018/07/26 19:39:41","新北市泰山區新北大道六段196號","121.427013333333","25.03727","6501600","泰山區"
"243010","KEA-2216","2018/07/26 19:39:41","新北市泰山區明志路二段7巷16號","121.430725","25.0532716666667","6501600","泰山區"
"243012","646-TV","2018/07/26 19:39:35","新北市泰山區全興路258號","121.435758333333","25.0531716666667","6501600","泰山區"
"243014","680-BX","2018/07/26 19:39:34","新北市泰山區泰林路二段33-9號","121.43501","25.05678","6501600","泰山區"
"222003","436-BY","2018/07/26 19:39:40","新北市深坑區深南路51-1號","121.62123","25.0098033333333","6501800","深坑區"
"222002","659-BX","2018/07/26 19:39:34","新北市深坑區北深路一段177號","121.632525","25.0109183333333","6501800","深坑區"
"231041","002-UM","2018/07/26 19:39:38","新北市新店區中正路485號","121.533921666667","24.9820566666667","6500600","新店區"
"231059","046-UY","2018/07/26 19:39:35","新北市新店區安和路三段83號","121.517986666667","24.9837916666667","6500600","新店區"
"231040","047-UY","2018/07/26 19:39:28","新北市新店區北新路一段96巷23號","121.543063333333","24.96873","6500600","新店區"
"231044","106-UY","2018/07/26 19:39:38","新北市新店區北新路三段210號","121.54117","24.9842983333333","6500600","新店區"
"231046","107-UY","2018/07/26 19:39:35","新北市新店區自由街9號","121.535631666667","24.9749533333333","6500600","新店區"
"231052","108-UY","2018/07/26 19:39:50","新北市新店區新烏路二段482號","121.553061666667","24.9079866666667","6500600","新店區"
"231065","110-UY","2018/07/26 19:39:45","新北市新店區安祥路109巷77號","121.477621666667","24.9602233333333","6500600","新店區"
"231047","187-VK","2018/07/26 19:39:44","新北市新店區五峰路61巷2-1號","121.5472","24.9702866666667","6500600","新店區"
"231054","KEA-2219","2018/07/26 19:39:45","新北市新店區文中路45號","121.539493333333","24.9566066666667","6500600","新店區"
"231057","256-BX","2018/07/26 19:39:33","新北市新店區橘園一路11號","121.547976666667","24.9340416666667","6500600","新店區"
"231042","268-BY","2018/07/26 19:39:38","新北市新店區中興路一段198號","121.543591666667","24.9652266666667","6500600","新店區"
"231051","278-BY","2018/07/26 19:39:45","新北市新店區中央四街47號","121.52785","24.974935","6500600","新店區"
"231050","AAD-862","2018/07/26 19:39:34","新北市新店區秀水路50號","121.555546666667","24.9565133333333","6500600","新店區"
"231058","3713-VJ","2018/07/26 19:39:47","新北市新店區中華路83巷67號","121.538415","24.9674033333333","6500600","新店區"
"231066","4716-K9","2018/07/26 19:39:39","新北市新店區安康路三段165巷5號","121.48969","24.9512716666667","6500600","新店區"
"231049","513-UM","2018/07/26 19:39:48","新北市新店區大豐路53號","121.539946666667","24.9797783333333","6500600","新店區"
"231063","616-UM","2018/07/26 19:39:40","新北市新店區達觀路12號","121.505456666667","24.9402333333333","6500600","新店區"
"231045","617-UM","2018/07/26 19:39:34","新北市新店區北宜路二段204號","121.559288333333","24.9543883333333","6500600","新店區"
"231061","619-UM","2018/07/26 19:39:47","新北市新店區安康路二段1-5號","121.51703","24.96389","6500600","新店區"
"231064","719-UM","2018/07/26 19:39:34","新北市新店區安和路一段52巷2-1號","121.51767","24.9662533333333","6500600","新店區"
"231062","720-UM","2018/07/26 19:39:31","新北市新店區秀山路11巷8號","121.531955","24.9593866666667","6500600","新店區"
"231060","897-TW","2018/07/26 19:39:29","新北市新店區安康路二段133號","121.512078333333","24.9605116666667","6500600","新店區"
"231043","899-TW","2018/07/26 19:39:28","新北市新店區北新路二段78號","121.543011666667","24.9726483333333","6500600","新店區"
"231055","AKT-0513","2018/07/26 19:39:36","新北市新店區新生街3巷4號","121.54032","24.9656316666667","6500600","新店區"
"241011","013-R5","2018/07/26 19:39:34","新北市三重區秀江街202號","121.49753","25.0716233333333","6500200","三重區"
"241028","022-UY","2018/07/26 19:39:34","新北市三重區中正南路157號","121.493865","25.056165","6500200","三重區"
"241008","059-VK","2018/07/26 19:39:47","新北市三重區永福街133號","121.478831666667","25.0767766666667","6500200","三重區"
"241022","060-VK","2018/07/26 19:39:46","新北市三重區中正北路166號","121.484353333333","25.0661933333333","6500200","三重區"
"241031","061-VK","2018/07/26 19:39:34","新北市三重區重新路四段248號","121.486151666667","25.0534183333333","6500200","三重區"
"241015","062-VK","2018/07/26 19:39:45","新北市三重區福德北路34號","121.502095","25.0652133333333","6500200","三重區"
"241017","063-VK","2018/07/26 19:39:30","新北市三重區大仁街20號","121.491571666667","25.0635033333333","6500200","三重區"
"241026","066-VK","2018/07/26 19:39:41","新北市三重區文化南路65巷27號","121.499198333333","25.06082","6500200","三重區"
"241003","091-VK","2018/07/26 19:39:47","新北市三重區五華街93巷66號","121.49411","25.0851866666667","6500200","三重區"
"241019","742-BX","2018/07/26 19:39:42","新北市三重區六張街194巷1弄19號","121.48795","25.06817","6500200","三重區"
"241009","267-UM","2018/07/26 19:39:41","新北市三重區三和路四段416號","121.480836666667","25.07988","6500200","三重區"
"241013","270-UM","2018/07/26 19:39:48","新北市三重區仁賢街8號","121.495768333333","25.0746916666667","6500200","三重區"
"241025","271-UM","2018/07/26 19:39:32","新北市三重區頂崁街140號","121.477666666667","25.0650833333333","6500200","三重區"
"241007","398-BY","2018/07/26 19:39:48","新北市三重區三和路四段125巷76號","121.487263333333","25.078655","6500200","三重區"
"241030","413-TH","2018/07/26 19:39:48","新北市三重區新興路27號","121.49232","25.0532816666667","6500200","三重區"
"241035","462-BY","2018/07/26 19:39:38","新北市三重區信義西街1號","121.498091666667","25.0648483333333","6500200","三重區"
"241020","478-VK","2018/07/26 19:39:46","新北市三重區自強路三段43巷19號","121.48753","25.0729233333333","6500200","三重區"
"241014","543-UM","2018/07/26 19:39:42","新北市三重區河邊北街82號","121.50426","25.0689533333333","6500200","三重區"
"241023","545-UM","2018/07/26 19:39:33","新北市三重區忠孝路三段99巷11號","121.479705","25.0643466666667","6500200","三重區"
"241006","AAD-863","2018/07/26 19:39:52","新北市三重區聯華街78號","121.48596","25.075385","6500200","三重區"
"241012","941-UM","2018/07/26 19:39:38","新北市三重區河邊北街256巷35號","121.500448333333","25.0759883333333","6500200","三重區"
"241029","942-UM","2018/07/26 19:39:40","新北市三重區中正南路184-1號","121.494101666667","25.0563183333333","6500200","三重區"
"235066","003-UY","2018/07/26 19:39:46","新北市中和區景新街117號","121.505566666667","24.997625","6500300","中和區"
"235064","005-UY","2018/07/26 19:39:48","新北市中和區南山路127巷35號","121.503755","24.9976183333333","6500300","中和區"
"235063","006-UY","2018/07/26 19:39:35","新北市中和區連城路203巷10弄33號","121.495553333333","24.9963433333333","6500300","中和區"
"235056","096-UM","2018/07/26 19:39:28","新北市中和區民富街94號","121.476893333333","25.008585","6500300","中和區"
"235039","097-UM","2018/07/26 19:39:30","新北市中和區景德街3號","121.519121666667","24.9911816666667","6500300","中和區"
"235065","098-UM","2018/07/26 19:39:39","新北市中和區永和路8巷17號","121.50061","25.0034866666667","6500300","中和區"
"235040","150-BY","2018/07/26 19:39:42","新北市中和區宜安路73號","121.511095","24.9972883333333","6500300","中和區"
"235058","151-BY","2018/07/26 19:39:43","新北市中和區員山路124巷9號","121.481806666667","24.9959933333333","6500300","中和區"
"235055","183-VK","2018/07/26 19:39:32","新北市中和區中山路三段181巷2號","121.47285","25.005965","6500300","中和區"
"235049","186-VK","2018/07/26 19:39:30","新北市中和區景安路139號","121.505735","24.9955566666667","6500300","中和區"
"235067","255-BX","2018/07/26 19:39:45","新北市中和區新生街220巷15弄2號","121.482911666667","24.9978833333333","6500300","中和區"
"235044","293-VK","2018/07/26 19:39:40","新北市中和區興南路一段109號","121.509298333333","24.9881083333333","6500300","中和區"
"235072","301-VK","2018/07/26 19:39:36","新北市中和區錦和路91-1號","121.490036666667","24.99571","6500300","中和區"
"235043","352-BY","2018/07/26 19:39:43","新北市中和區安樂路18號","121.511963333333","24.9921333333333","6500300","中和區"
"235050","4979-A6","2018/07/26 19:39:34","新北市中和區錦和路350-1號","121.49046","24.9935466666667","6500300","中和區"
"235042","551-UM","2018/07/26 19:39:36","新北市中和區景安路79巷33號","121.50728","24.9963983333333","6500300","中和區"
"235070","558-UM","2018/07/26 19:39:45","新北市中和區圓通路119號","121.49929","24.996235","6500300","中和區"
"235045","565-BX","2018/07/26 19:39:32","新北市中和區景新街448號","121.513378333333","24.9878566666667","6500300","中和區"
"235054","640-BX","2018/07/26 19:39:36","新北市中和區國光街107巷2弄32號","121.469283333333","24.998975","6500300","中和區"
"235060","647-TV","2018/07/26 19:39:45","新北市中和區中山路二段523巷13號","121.481786666667","25.0040233333333","6500300","中和區"
"235047","732-UM","2018/07/26 19:39:40","新北市中和區南山路283巷11號","121.504538333333","24.9925833333333","6500300","中和區"
"235046","733-UM","2018/07/26 19:39:36","新北市中和區景新街462號","121.513461666667","24.987335","6500300","中和區"
"235071","783-BX","2018/07/26 19:39:49","新北市中和區新生街114巷2號","121.483348333333","25.0024516666667","6500300","中和區"
"235057","801-TS","2018/07/26 19:39:49","新北市中和區員山路256號","121.481383333333","25.0016216666667","6500300","中和區"
"235041","802-TS","2018/07/26 19:39:35","新北市中和區中和路472號","121.512391666667","25.0040383333333","6500300","中和區"
"235052","805-TS","2018/07/26 19:39:34","新北市中和區華新街204號","121.506643333333","24.9818633333333","6500300","中和區"
"235048","896-TW","2018/07/26 19:39:44","新北市中和區忠孝街1巷2-1號","121.5091","24.9831366666667","6500300","中和區"
"235053","900-TW","2018/07/26 19:39:44","新北市中和區國光街215巷4弄1號","121.466345","25.001795","6500300","中和區"
"235051","157-BY","2018/07/26 19:39:46","新北市中和區板南路178號","121.500915","24.99279","6500300","中和區"
"235037","AAC-213","2018/07/26 19:39:30","新北市中和區秀朗路三段50巷5-1號","121.525951666667","24.9954133333333","6500300","中和區"
"235059","AAC-215","2018/07/26 19:39:47","新北市中和區錦和路358號","121.490653333333","24.9913266666667","6500300","中和區"
"220065","072-UY","2018/07/26 19:39:42","新北市板橋區國泰街39巷1號","121.468443333333","25.0065216666667","6500100","板橋區"
"220086","073-UY","2018/07/26 19:39:46","新北市板橋區中正路162號","121.456518333333","25.016855","6500100","板橋區"
"220069","AAD-861","2018/07/26 19:39:37","新北市板橋區縣民大道一段64巷36號","121.455828333333","25.0033616666667","6500100","板橋區"
"220106","120-SR","2018/07/26 19:39:51","新北市板橋區江寧路三段29號","121.47117","25.0317666666667","6500100","板橋區"
"247004","337-TH","2018/07/26 19:39:46","新北市蘆洲區中華街6巷20號","121.463026666667","25.082045","6501400","蘆洲區"
"247008","056-VK","2018/07/26 19:39:34","新北市蘆洲區中山二路16號","121.475093333333","25.0819533333333","6501400","蘆洲區"
"247002","002-UY","2018/07/26 19:39:42","新北市蘆洲區三民路595號","121.460916666667","25.0936583333333","6501400","蘆洲區"
"226004","312-R5","2018/07/26 19:39:43","新北市平溪區十分里十分街311號","121.775023333333","25.04389","6502400","平溪區"
"235038","251-BX","2018/07/26 19:39:40","新北市中和區自立路20巷2號","121.521943333333","24.9933833333333","6500300","中和區"
"228003","097-TW","2018/07/26 19:39:39","新北市貢寮區真理里美艷山街15-3號","121.923715","25.0680033333333","6502600","貢寮區"
"228001","212-TW","2018/07/26 19:39:45","新北市貢寮區真理里延平街22-9號","121.924615","25.0560033333333","6502600","貢寮區"
"224010","AGQ-8101","2018/07/26 19:37:06","新北市瑞芳區烏勢巷145號","121.847558333333","25.10879","6501200","瑞芳區"
"224002","639-TC","2018/07/26 19:39:37","新北市瑞芳區三爪子坑路13巷153號","121.815065","25.1062916666667","6501200","瑞芳區"
"227010","642-TC","2018/07/26 19:39:32","新北市雙溪區新基里新基北街20號","121.867205","25.0388966666667","6502500","雙溪區"
"227004","400-TW","2018/07/26 19:39:44","新北市雙溪區雙溪里內挖路8號","121.8635","25.03612","6502500","雙溪區"
"222001","KEA-2212","2018/07/26 19:39:38","新北市深坑區北深路二段200號","121.612955","25.0015783333333","6501800","深坑區"
"208002","KEA-2872","2018/07/26 19:39:48","新北市金山區中山路313巷2號","121.635516666667","25.2235516666667","6502700","金山區"
"208003","665-BX","2018/07/26 19:39:49","新北市金山區仁愛路6號","121.638561666667","25.220135","6502700","金山區"
"208001","761-BX","2018/07/26 19:39:46","新北市金山區六股里下六股50號","121.617555","25.2218416666667","6502700","金山區"
"251009","008-UM","2018/07/26 19:39:41","新北市淡水區中山北路一段198巷11號","121.44527","25.1792616666667","6501000","淡水區"
"251005","010-UM","2018/07/26 19:39:49","新北市淡水區原德路108巷2號","121.443388333333","25.1734783333333","6501000","淡水區"
"251001","011-UM","2018/07/26 19:39:51","新北市淡水區民權路51號","121.459783333333","25.139075","6501000","淡水區"
"251013","KEA-2871","2018/07/26 19:39:35","新北市淡水區店子後9號","121.46035","25.2185783333333","6501000","淡水區"
"251016","179-VK","2018/07/26 19:39:36","新北市淡水區下圭柔山119-51號","121.450705","25.2084616666667","6501000","淡水區"
"251014","180-VK","2018/07/26 19:39:14","新北市淡水區中和里13-2號","121.478055","25.2305416666667","6501000","淡水區"
"251008","181-VK","2018/07/26 19:39:41","新北市淡水區中正路32巷2號","121.43093","25.175345","6501000","淡水區"
"251015","182-VK","2018/07/26 19:39:36","新北市淡水區泉洲厝8-1號","121.485158333333","25.1889133333333","6501000","淡水區"
"251010","413-VK","2018/07/26 19:39:30","新北市淡水區濱海路二段202巷27號","121.435123333333","25.1932033333333","6501000","淡水區"
"251012","441-VK","2018/07/26 19:39:31","新北市淡水區中山北路三段164號","121.445626666667","25.1966133333333","6501000","淡水區"
"251007","442-VK","2018/07/26 19:39:50","新北市淡水區中正東路一段111巷21號","121.455245","25.1610866666667","6501000","淡水區"
"251006","443-VK","2018/07/26 19:39:32","新北市淡水區大義街40號","121.442056666667","25.1783933333333","6501000","淡水區"
"251011","650-BX","2018/07/26 19:39:46","新北市淡水區八勢路20號","121.460711666667","25.1534483333333","6501000","淡水區"
"207003","550-UM","2018/07/26 19:39:29","新北市萬里區大鵬里下社1號","121.64793","25.215155","6502800","萬里區"
"207004","225-TW","2018/07/26 19:39:43","新北市萬里區萬里里瑪鋉路5-1號","121.686873333333","25.1752933333333","6502800","萬里區"
"252002","178-VK","2018/07/26 19:39:36","新北市三芝區三民街16號","121.504246666667","25.2586033333333","6502100","三芝區"
"252001","292-VK","2018/07/26 19:39:41","新北市三芝區公正街66號","121.49978","25.2574283333333","6502100","三芝區"
"237007","153-BY","2018/07/26 19:39:42","新北市三峽區二鬮路136巷20弄69號","121.357715","24.90949","6500900","三峽區"
"237009","210-TH","2018/07/26 19:39:36","新北市三峽區民權街153-1號","121.368283333333","24.9311883333333","6500900","三峽區"
"237013","252-BX","2018/07/26 19:39:45","新北市三峽區介壽路一段383號","121.383978333333","24.9310783333333","6500900","三峽區"
"237012","275-BY","2018/07/26 19:39:33","新北市三峽區愛國路34巷1號","121.374438333333","24.932705","6500900","三峽區"
"237008","302-VK","2018/07/26 19:39:32","新北市三峽區永安街95巷5-6號","121.374873333333","24.928665","6500900","三峽區"
"237014","433-BY","2018/07/26 19:39:46","新北市三峽區中山路81號","121.366691666667","24.935185","6500900","三峽區"
"237006","5529-G3","2018/07/26 19:39:39","新北市三峽區中正路一段336巷15弄2號","121.369935","24.9249466666667","6500900","三峽區"
"237011","KEA-2596","2018/07/26 19:39:35","新北市三峽區介壽路一段586號","121.38892","24.93448","6500900","三峽區"
"237016","649-BX","2018/07/26 19:39:46","新北市三峽區成福路184號","121.424073333333","24.9282116666667","6500900","三峽區"
"237010","706-TV","2018/07/26 19:39:41","新北市三峽區復興路125號","121.371495","24.9380466666667","6500900","三峽區"
"237005","AKY-6261","2018/07/26 19:39:33","新北市三峽區中山路169巷9號","121.364283333333","24.9360216666667","6500900","三峽區"
"236070","105-UM","2018/07/26 19:39:45","新北市土城區金城路二段2巷5號","121.447275","24.97598","6501300","土城區"
"236042","107-UM","2018/07/26 19:39:48","新北市土城區裕民路255-5號","121.454691666667","24.982865","6501300","土城區"
"236078","166-UM","2018/07/26 19:39:41","新北市土城區中州路51號","121.412785","24.95789","6501300","土城區"
"236030","253-BX","2018/07/26 19:39:44","新北市土城區福祥街64號","121.44154","24.981575","6501300","土城區"
"236026","269-VK","2018/07/26 19:39:43","新北市土城區中央路二段57巷13號","121.443345","24.97906","6501300","土城區"
"236038","271-VK","2018/07/26 19:39:39","新北市土城區青雲路257巷3號","121.459373333333","24.9808633333333","6501300","土城區"
"236021","401-BY","2018/07/26 19:39:31","新北市土城區峰廷街18號","121.469005","24.9872766666667","6501300","土城區"
"236059","912-UM","2018/07/26 19:39:47","新北市土城區中央路二段64號","121.442578333333","24.979265","6501300","土城區"
"236049","913-UM","2018/07/26 19:39:48","新北市土城區明德路一段67號","121.465426666667","24.9843133333333","6501300","土城區"
"236063","915-UM","2018/07/26 19:39:50","新北市土城區延平街64號","121.467836666667","24.9927733333333","6501300","土城區"
"236055","AAC-216","2018/07/26 19:39:40","新北市土城區學府路一段44號","121.457881666667","24.9885316666667","6501300","土城區"
"242029","705-TV","2018/07/26 19:39:40","新北市新莊區新泰路255巷83號","121.44204","25.0390216666667","6500500","新莊區"
"242007","413-TV","2018/07/26 19:39:38","新北市新莊區三和路12-21號","121.442176666667","25.0382016666667","6500500","新莊區"
"242023","362-BY","2018/07/26 19:39:35","新北市新莊區復興路二段147號","121.457798333333","25.0444033333333","6500500","新莊區"
"242039","133-UY","2018/07/26 19:39:43","新北市新莊區建國二路62號","121.43204","25.0248716666667","6500500","新莊區"
"242031","135-UY","2018/07/26 19:39:34","新北市新莊區公園一路135號","121.446075","25.03833","6500500","新莊區"
"242048","172-VK","2018/07/26 19:39:41","新北市新莊區民安路37巷3號","121.423868333333","25.0269383333333","6500500","新莊區"
"242011","173-VK","2018/07/26 19:39:28","新北市新莊區三和路12-21號","121.442018333333","25.038705","6500500","新莊區"
"242004","176-VK","2018/07/26 19:39:46","新北市新莊區化成路29巷59號","121.462465","25.043995","6500500","新莊區"
"242021","348-TH","2018/07/26 19:39:39","新北市新莊區新泰路125號","121.448368333333","25.0361183333333","6500500","新莊區"
"242002","349-TH","2018/07/26 19:39:32","新北市新莊區環河路636-7號","121.437463333333","25.0119183333333","6500500","新莊區"
"238015","755-BX","2018/07/26 19:39:41","新北市樹林區中山路一段108巷37號","121.421726666667","24.99142","6500700","樹林區"
"238023","601-UM","2018/07/26 19:39:34","新北市樹林區三福街114號","121.406441666667","25.0162883333333","6500700","樹林區"
"238024","5061-A6","2018/07/26 19:39:39","新北市樹林區山佳街57-1號","121.392941666667","24.9724166666667","6500700","樹林區"
"238022","KEA-2213","2018/07/26 19:39:33","新北市樹林區名園街51巷6弄1號","121.42059","24.9783016666667","6500700","樹林區"
"238021","KEA-2539","2018/07/26 19:39:44","新北市樹林區佳園路三段145巷26-2號","121.387481666667","24.9491066666667","6500700","樹林區"
"238025","303-VK","2018/07/26 19:39:43","新北市樹林區中山路二段168號","121.412205","24.9826216666667","6500700","樹林區"
"238017","283-BY","2018/07/26 19:39:40","新北市樹林區保安街二段45巷46號","121.413648333333","25.00034","6500700","樹林區"
"238014","282-BY","2018/07/26 19:39:43","新北市樹林區千歲街30巷12號","121.426056666667","24.9962416666667","6500700","樹林區"
"238020","268-VK","2018/07/26 19:39:49","新北市板橋區大觀路三段50巷47號","121.432766666667","24.9955466666667","6500700","樹林區"
"238026","172-UY","2018/07/26 19:39:36","新北市樹林區佳園路三段36號","121.387906666667","24.9536116666667","6500700","樹林區"
"239007","AAC-297","2018/07/26 19:39:43","新北市鶯歌區大湖路326巷2弄18號","121.345846666667","24.969565","6500800","鶯歌區"
"239006","891-R6","2018/07/26 19:39:45","新北市鶯歌區永昌街77號","121.340955","24.9498983333333","6500800","鶯歌區"
"239005","526-UM","2018/07/26 19:39:40","新北市鶯歌區中湖街315巷1號","121.346358333333","24.9780916666667","6500800","鶯歌區"
"239001","417-VK","2018/07/26 19:39:37","新北市鶯歌區尖山埔路二段57號","121.341741666667","24.9484116666667","6500800","鶯歌區"
"239003","360-BY","2018/07/26 19:39:31","新北市鶯歌區中正一路113-1號","121.37026","24.9582616666667","6500800","鶯歌區"
"239004","292-BY","2018/07/26 19:39:35","新北市鶯歌區二甲路2號","121.334823333333","24.9346166666667","6500800","鶯歌區"
"221008","489-VK","2018/07/26 19:39:43","新北市汐止區康寧街61巷33號","121.619536666667","25.0676783333333","6501100","汐止區"
"221036","130-UY","2018/07/26 19:39:31","新北市汐止區汐萬路一段312號","121.650665","25.0753383333333","6501100","汐止區"
"221015","131-UY","2018/07/26 19:39:34","新北市汐止區汐萬路一段312號","121.650435","25.07521","6501100","汐止區"
"221010","269-BY","2018/07/26 19:39:42","新北市汐止區汐萬路二段9號","121.649483333333","25.08035","6501100","汐止區"
"221012","278-VK","2018/07/26 19:39:40","新北市汐止區大同路三段535號","121.680965","25.071515","6501100","汐止區"
"221023","279-VK","2018/07/26 19:39:49","新北市汐止區明峰街190號","121.628151666667","25.0695583333333","6501100","汐止區"
"221032","280-BY","2018/07/26 19:39:31","新北市汐止區汐萬路一段312號","121.650603333333","25.0753616666667","6501100","汐止區"
"221027","281-BY","2018/07/26 19:39:48","新北市汐止區忠孝東路9號","121.658271666667","25.0659466666667","6501100","汐止區"
"221033","297-VK","2018/07/26 19:39:37","台北市南港區舊莊街二段17號","121.62548","25.0374783333333","6501100","汐止區"
"221029","298-VK","2018/07/26 19:39:39","新北市汐止區康寧街901號","121.651498333333","25.074855","6501100","汐止區"
"221021","299-VK","2018/07/26 19:39:42","新北市汐止區南興路6巷2號","121.651741666667","25.06331","6501100","汐止區"
"221031","353-TW","2018/07/26 19:39:39","新北市汐止區康寧街901號","121.650865","25.075245","6501100","汐止區"
"221025","623-UM","2018/07/26 19:39:41","新北市汐止區福安街20巷1號","121.662675","25.0649833333333","6501100","汐止區"
"221038","646-BX","2018/07/26 19:39:43","新北市汐止區忠孝東路227號","121.662338333333","25.0670816666667","6501100","汐止區"
"221002","707-TV","2018/07/26 19:39:31","新北市汐止區大同路一段219巷26號","121.633265","25.0584416666667","6501100","汐止區"
"221018","753-BX","2018/07/26 19:39:38","新北市汐止區汐萬路一段191號","121.652435","25.0716833333333","6501100","汐止區"
"220080","200-UY","2018/07/26 19:39:43","新北市板橋區大觀路二段37巷258號","121.449918333333","25.0018983333333","6500100","板橋區"
"220101","245-BX","2018/07/26 19:39:35","新北市板橋區莒光路196巷28號","121.472986666667","25.0226716666667","6500100","板橋區"
"220079","256-TC","2018/07/26 19:39:36","新北市板橋區建國街69號","121.459115","25.0172916666667","6500100","板橋區"
"220056","276-BY","2018/07/26 19:39:47","新北市板橋區四川路一段336號","121.456996666667","24.996985","6500100","板橋區"
"220072","277-BY","2018/07/26 19:39:43","新北市板橋區金門街251號","121.431876666667","24.98898","6500100","板橋區"
"220071","283-VK","2018/07/26 19:39:41","新北市板橋區信義路279巷11號","121.461923333333","24.9894233333333","6500100","板橋區"
"220094","285-UM","2018/07/26 19:39:40","新北市板橋區宏國路94號","121.470025","25.032025","6500100","板橋區"
"220053","285-VK","2018/07/26 19:39:40","新北市板橋區中山路二段148巷30號","121.477086666667","25.01613","6500100","板橋區"
"220083","286-VK","2018/07/26 19:39:34","新北市板橋區龍興街71巷27號","121.442658333333","25.0022883333333","6500100","板橋區"
"220081","287-VK","2018/07/26 19:39:50","新北市板橋區大觀路一段29巷179弄22號","121.449233333333","25.0046683333333","6500100","板橋區"
"220090","288-VK","2018/07/26 19:39:45","新北市板橋區長江路一段48巷9號","121.459211666667","25.0284516666667","6500100","板橋區"
"220061","293-UM","2018/07/26 19:39:46","新北市板橋區中山路一段265巷16號","121.468591666667","25.014625","6500100","板橋區"
"220062","295-UM","2018/07/26 19:39:43","新北市板橋區三民路二段29巷13號","121.481878333333","25.018115","6500100","板橋區"
"220084","296-UM","2018/07/26 19:39:44","新北市板橋區滿平二街10巷2號","121.425523333333","24.9866133333333","6500100","板橋區"
"220075","303-R5","2018/07/26 19:39:45","新北市板橋區大勇街2號","121.455746666667","25.01773","6500100","板橋區"
"220092","307-R5","2018/07/26 19:39:31","新北市板橋區文化路二段78號","121.469436666667","25.02523","6500100","板橋區"
"220098","317-R6","2018/07/26 19:39:50","新北市板橋區四維路279巷47號","121.46123","25.0276216666667","6500100","板橋區"
"220064","486-VK","2018/07/26 19:39:43","新北市板橋區民族路39號","121.462626666667","25.009715","6500100","板橋區"
"220088","491-VK","2018/07/26 19:39:46","新北市板橋區仁化街150巷1號","121.477895","25.0331133333333","6500100","板橋區"
"220035","560-BX","2018/07/26 19:39:31","新北市板橋區新生街89巷16號","121.457548333333","25.022415","6500100","板橋區"
"220103","561-BX","2018/07/26 19:39:28","新北市板橋區文化路一段341號","121.466513333333","25.020815","6500100","板橋區"
"220063","609-BX","2018/07/26 19:39:36","新北市板橋區中山路二段553巷4弄9號","121.4835","25.0226983333333","6500100","板橋區"
"220079","630-UY","2018/07/26 19:39:47","新北市板橋區華東街1-10號","121.448531666667","24.994755","6500100","板橋區"
"220091","637-BX","2018/07/26 19:39:42","新北市板橋區懷德街139巷1號","121.47933","25.0305116666667","6500100","板橋區"
"220057","686-BX","2018/07/26 19:39:41","新北市板橋區和平路安樂巷20號","121.461275","24.9939216666667","6500100","板橋區"
"220077","687-BX","2018/07/26 19:39:47","新北市板橋區僑中二街2號","121.447376666667","25.01127","6500100","板橋區"
"220093","689-BX","2018/07/26 19:39:40","新北市板橋區長江路一段127號","121.460313333333","25.030085","6500100","板橋區"
"220054","741-BX","2018/07/26 19:39:47","新北市板橋區忠孝路196-2號","121.465533333333","25.0026083333333","6500100","板橋區"
"220102","KEA-2699","2018/07/26 19:39:50","新北市板橋區文化路二段410巷2弄28號","121.47436","25.0304133333333","6500100","板橋區"
"220070","806-UM","2018/07/26 19:39:30","新北市板橋區民族路208號","121.468281666667","25.0073616666667","6500100","板橋區"
"220055","827-TW","2018/07/26 19:39:33","新北市板橋區國慶路149巷4弄2-1號","121.461253333333","24.996855","6500100","板橋區"
"220067","829-TW","2018/07/26 19:39:44","新北市板橋區長安街138巷1弄11號","121.473166666667","25.009865","6500100","板橋區"
"220068","830-TW","2018/07/26 19:39:48","新北市板橋區中山路二段515號","121.48297","25.0211966666667","6500100","板橋區"
"220096","831-TW","2018/07/26 19:39:50","新北市板橋區民生路二段226巷13號","121.470396666667","25.0218316666667","6500100","板橋區"
"220089","833-TW","2018/07/26 19:39:32","新北市板橋區英士路40號","121.461343333333","25.0250416666667","6500100","板橋區"
"220074","895-R6","2018/07/26 19:39:43","新北市板橋區館前西路150-4號","121.455658333333","25.0085716666667","6500100","板橋區"
"220073","985-R7","2018/07/26 19:39:49","新北市板橋區國光路51號","121.458015","25.01799","6500100","板橋區"
"220097","AAC-210","2018/07/26 19:39:50","新北市板橋區幸福路32巷2號","121.461586666667","25.0205016666667","6500100","板橋區"
"220082","AAC-253","2018/07/26 19:39:51","新北市板橋區大觀路三段180巷30號","121.429818333333","24.9936283333333","6500100","板橋區"
"235068","KEA-2873","2018/07/26 19:39:20","新北市中和區景平路632-8號","121.499681666667","24.998655","6500300","中和區"
"235025","KEA-2875","2018/07/26 19:39:46","新北市中和區員山路325-5號","121.481191666667","25.0010966666667","6500300","中和區"
