"lineid","car","time","location","longitude","latitude","cityid","cityname"
"234046","148-BY","2018/07/26 19:49:17","新北市永和區永利路173號","121.525455","25.0034133333333","6500400","永和區"
"234007","207-UY","2018/07/26 19:49:15","新北市中和區中和路228號","121.506533333333","24.99958","6500400","永和區"
"234081","298-R6","2018/07/26 19:49:22","新北市永和區永亨路98號","121.52304","25.00479","6500400","永和區"
"234038","336-UY","2018/07/26 19:49:19","新北市永和區民樂街55巷10號","121.527878333333","24.9986366666667","6500400","永和區"
"234064","337-UY","2018/07/26 19:49:28","新北市永和區中正路368巷12號","121.518238333333","25.0006966666667","6500400","永和區"
"234086","338-UY","2018/07/26 19:49:26","新北市永和區中正路560號","121.517168333333","25.005925","6500400","永和區"
"234070","552-UM","2018/07/26 19:49:24","新北市永和區竹林路86號","121.519413333333","25.0126616666667","6500400","永和區"
"234017","745-BX","2018/07/26 19:49:24","新北市永和區永和路二段310號","121.516191666667","25.016095","6500400","永和區"
"234030","746-BX","2018/07/26 19:49:25","新北市永和區民生路67巷23號","121.524048333333","24.9973483333333","6500400","永和區"
"234054","KEA-2590","2018/07/26 19:49:23","新北市永和區竹林路75巷7號","121.519193333333","25.01355","6500400","永和區"
"234013","KEA-2591","2018/07/26 19:49:24","新北市永和區仁愛路188號","121.509746666667","25.0126333333333","6500400","永和區"
"234061","AAD-866","2018/07/26 19:49:18","新北市永和區中正路132號","121.514591666667","24.9960833333333","6500400","永和區"
"234042","862-TW","2018/07/26 19:49:17","新北市永和區中和路389巷51-1號","121.50786","25.0021116666667","6500400","永和區"
"234050","863-TW","2018/07/26 19:49:14","新北市永和區保安路140號","121.508491666667","25.01514","6500400","永和區"
"234026","9371-KE","2018/07/26 19:49:31","新北市永和區雙和街25巷4號","121.508836666667","25.00201","6500400","永和區"
"234011","9373-KE","2018/07/26 19:49:14","新北市永和區仁愛路352巷90號","121.501213333333","25.00776","6500400","永和區"
"249004","303-UY","2018/07/26 19:49:28","新北市八里區中山路一段268巷5弄38號","121.414198333333","25.16102","6502300","八里區"
"249002","305-UY","2018/07/26 19:49:22","新北市八里區頂寮五街22號","121.451265","25.1261316666667","6502300","八里區"
"249003","593-UM","2018/07/26 19:49:30","新北市八里區華峰一街70巷1號","121.397826666667","25.14629","6502300","八里區"
"249001","759-BX","2018/07/26 19:49:31","新北市八里區中華路二段252號","121.405398333333","25.1496683333333","6502300","八里區"
"248014","025-BX","2018/07/26 19:49:25","新北市五股區五福路32巷6號","121.434408333333","25.089255","6501500","五股區"
"248016","026-BX","2018/07/26 19:49:28","新北市五股區成泰路四段24-5號","121.453458333333","25.106925","6501500","五股區"
"248008","095-VK","2018/07/26 19:49:29","新北市蘆洲區中山二路320號","121.468451666667","25.0765733333333","6501500","五股區"
"248020","225-UY","2018/07/26 19:49:14","新北市五股區中直路40號","121.419958333333","25.1150516666667","6501500","五股區"
"248012","247-BX","2018/07/26 19:49:27","新北市五股區蓬萊路24號","121.433878333333","25.07992","6501500","五股區"
"248010","272-BY","2018/07/26 19:49:24","新北市五股區登林路貿商巷1弄2號","121.429653333333","25.06984","6501500","五股區"
"248004","677-BX","2018/07/26 19:49:15","新北市五股區成泰路一段106-1號","121.435663333333","25.0720133333333","6501500","五股區"
"248002","678-BX","2018/07/26 19:49:26","新北市五股區成泰路四段15-3號","121.453235","25.1068333333333","6501500","五股區"
"234077","969-R7","2018/07/26 19:49:27","新北市永和區中正路242巷2弄1號","121.516851666667","24.9979416666667","6500400","永和區"
"234074","AAC-211","2018/07/26 19:49:31","新北市永和區豫溪街136巷5號","121.521241666667","25.010085","6500400","永和區"
"234067","AAC-212","2018/07/26 19:49:15","新北市永和區永貞路378巷9號","121.509738333333","25.0075616666667","6500400","永和區"
"234003","AAC-295","2018/07/26 19:49:26","新北市永和區福和路318號","121.515791666667","25.0072516666667","6500400","永和區"
"243013","AAD-798","2018/07/26 19:36:35","新北市泰山區應化街7號","121.423865","25.043715","6501600","泰山區"
"243009","297-R6","2018/07/26 19:49:19","新北市泰山區美寧街69號","121.430908333333","25.0647416666667","6501600","泰山區"
"243016","380-SR","2018/07/26 19:49:14","新北市泰山區新北大道七段103號","121.417688333333","25.032045","6501600","泰山區"
"243015","421-VK","2018/07/26 19:49:26","新北市泰山區明志路二段214巷11號","121.426671666667","25.0489133333333","6501600","泰山區"
"243011","KEA-2215","2018/07/26 19:49:21","新北市泰山區明志路三段196巷21弄28號","121.42243","25.0385133333333","6501600","泰山區"
"243010","KEA-2216","2018/07/26 19:49:21","新北市泰山區民生路33號","121.430665","25.05227","6501600","泰山區"
"243012","646-TV","2018/07/26 19:49:15","新北市泰山區全興路13號","121.432351666667","25.058925","6501600","泰山區"
"243014","680-BX","2018/07/26 19:49:14","新北市泰山區泰林路二段33-7號","121.4352","25.0564016666667","6501600","泰山區"
"222003","436-BY","2018/07/26 19:49:20","新北市深坑區深南路51-1號","121.621243333333","25.0097716666667","6501800","深坑區"
"222002","659-BX","2018/07/26 19:49:34","新北市深坑區北深路二段2巷1號","121.621378333333","25.0046933333333","6501800","深坑區"
"231041","002-UM","2018/07/26 19:49:18","新北市新店區中央路210-1號","121.530063333333","24.97357","6500600","新店區"
"231059","046-UY","2018/07/26 19:49:15","新北市新店區安和路二段173號","121.518543333333","24.9745483333333","6500600","新店區"
"231040","047-UY","2018/07/26 19:49:28","新北市新店區中正路75巷71號","121.54312","24.9687383333333","6500600","新店區"
"231044","106-UY","2018/07/26 19:49:17","新北市新店區復興路107號","121.5345","24.98791","6500600","新店區"
"231046","107-UY","2018/07/26 19:49:24","新北市新店區三民路159巷19弄31號","121.532215","24.97305","6500600","新店區"
"231052","108-UY","2018/07/26 19:49:31","新北市新店區新烏路三段206號","121.550858333333","24.9015333333333","6500600","新店區"
"231065","110-UY","2018/07/26 19:49:25","新北市新店區安祥路109巷112號","121.477045","24.958705","6500600","新店區"
"231047","187-VK","2018/07/26 19:49:24","新北市新店區寶興路65巷2號","121.55082","24.9716433333333","6500600","新店區"
"231054","KEA-2219","2018/07/26 19:49:25","新北市新店區光明街71號","121.53894","24.9605216666667","6500600","新店區"
"231057","256-BX","2018/07/26 19:49:17","新北市新店區梅崗三路1號","121.558141666667","24.9312","6500600","新店區"
"231042","268-BY","2018/07/26 19:49:06","新北市新店區中興路一段266-5號","121.545156666667","24.967465","6500600","新店區"
"231051","278-BY","2018/07/26 19:49:25","新北市新店區中央二街68號","121.526386666667","24.9746283333333","6500600","新店區"
"231050","AAD-862","2018/07/26 19:49:14","新北市新店區郵政路101號","121.554185","24.951345","6500600","新店區"
"231058","3713-VJ","2018/07/26 19:49:27","新北市新店區薏仁坑路6號","121.500468333333","24.95797","6500600","新店區"
"231066","4716-K9","2018/07/26 19:49:19","新北市新店區安康路二段341巷50號","121.496683333333","24.954335","6500600","新店區"
"231067","4772-VM","2018/07/26 19:49:21","新北市新店區安康路一段323-3號","121.521423333333","24.96377","6500600","新店區"
"231049","513-UM","2018/07/26 19:49:28","新北市新店區民權路98號","121.536333333333","24.9830783333333","6500600","新店區"
"231063","616-UM","2018/07/26 19:49:20","新北市新店區車子路11號","121.503043333333","24.9519933333333","6500600","新店區"
"231045","617-UM","2018/07/26 19:49:14","新北市新店區中生路66號","121.56465","24.9525583333333","6500600","新店區"
"231061","619-UM","2018/07/26 19:49:27","新北市新店區安民街135號","121.516415","24.9693533333333","6500600","新店區"
"231064","719-UM","2018/07/26 19:49:14","新北市新店區安和路二段1號","121.517761666667","24.9667816666667","6500600","新店區"
"231062","720-UM","2018/07/26 19:49:11","新北市新店區永業路34號","121.532668333333","24.9555383333333","6500600","新店區"
"231060","897-TW","2018/07/26 19:49:32","新北市新店區安康路二段266號","121.50863","24.958845","6500600","新店區"
"231043","899-TW","2018/07/26 19:49:28","新北市新店區中正路234號","121.539838333333","24.9728916666667","6500600","新店區"
"231055","AKT-0513","2018/07/26 19:49:16","新北市新店區力行路72號","121.538745","24.966175","6500600","新店區"
"241011","013-R5","2018/07/26 19:49:14","新北市三重區介壽路41號","121.498571666667","25.0700983333333","6500200","三重區"
"241028","022-UY","2018/07/26 19:49:14","新北市三重區中正南路133號","121.494046666667","25.0569766666667","6500200","三重區"
"241008","059-VK","2018/07/26 19:49:27","新北市三重區永福街147-8號","121.478733333333","25.0761183333333","6500200","三重區"
"241022","060-VK","2018/07/26 19:49:11","新北市三重區重新路三段111-1號","121.490855","25.0595816666667","6500200","三重區"
"241031","061-VK","2018/07/26 19:49:34","新北市三重區洛陽街四段101-7號","121.485436666667","25.0540266666667","6500200","三重區"
"241015","062-VK","2018/07/26 19:49:25","新北市三重區重新路一段1號","121.503811666667","25.0642816666667","6500200","三重區"
"241017","063-VK","2018/07/26 19:49:30","新北市三重區重陽路三段5巷8弄29號","121.489605","25.0666233333333","6500200","三重區"
"241024","065-VK","2018/07/26 19:49:30","新北市三重區國道路一段58巷20號","121.481196666667","25.0720466666667","6500200","三重區"
"241026","066-VK","2018/07/26 19:49:20","新北市三重區光興街1號","121.50028","25.0605166666667","6500200","三重區"
"241003","091-VK","2018/07/26 19:49:26","新北市三重區五華街93巷6號","121.49211","25.0838416666667","6500200","三重區"
"241019","742-BX","2018/07/26 19:49:21","新北市三重區自強路二段74巷25號","121.487741666667","25.0695183333333","6500200","三重區"
"241016","266-UM","2018/07/26 19:49:14","新北市三重區正德街43號","121.49585","25.06278","6500200","三重區"
"241009","267-UM","2018/07/26 19:49:21","新北市三重區三和路四段398-1號","121.481421666667","25.0792483333333","6500200","三重區"
"241018","268-UM","2018/07/26 19:49:29","新北市三重區雙園街57巷36號","121.494508333333","25.0684433333333","6500200","三重區"
"241013","270-UM","2018/07/26 19:49:28","新北市三重區仁愛街112巷14號","121.494766666667","25.0739966666667","6500200","三重區"
"241025","271-UM","2018/07/26 19:49:32","新北市三重區忠孝路三段71號","121.480645","25.0659166666667","6500200","三重區"
"241007","398-BY","2018/07/26 19:49:28","新北市三重區三和路四段135巷3號","121.485001666667","25.0781316666667","6500200","三重區"
"241030","413-TH","2018/07/26 19:49:28","新北市三重區環河南路254巷44號","121.4896","25.0512816666667","6500200","三重區"
"241035","462-BY","2018/07/26 19:49:18","新北市三重區大榮街53號","121.499188333333","25.063475","6500200","三重區"
"241004","475-VK","2018/07/26 19:49:25","新北市三重區五華街74號","121.493416666667","25.08201","6500200","三重區"
"241020","478-VK","2018/07/26 19:49:26","新北市三重區三和路四段2號","121.491618333333","25.0737433333333","6500200","三重區"
"241014","543-UM","2018/07/26 19:49:22","新北市三重區三和路二段37-7號","121.501293333333","25.0674466666667","6500200","三重區"
"241023","545-UM","2018/07/26 19:49:33","新北市三重區頂崁街172號","121.477571666667","25.0659433333333","6500200","三重區"
"241001","547-UM","2018/07/26 19:49:20","新北市三重區仁愛街327巷60號","121.493518333333","25.0803333333333","6500200","三重區"
"241006","AAD-863","2018/07/26 19:49:12","新北市三重區力行路二段82號","121.481603333333","25.0738483333333","6500200","三重區"
"241012","941-UM","2018/07/26 19:49:18","新北市三重區仁福街64巷13號","121.497718333333","25.0751333333333","6500200","三重區"
"241029","942-UM","2018/07/26 19:49:20","新北市三重區光明路55號","121.491593333333","25.0579983333333","6500200","三重區"
"241033","AAC-255","2018/07/26 19:49:21","新北市三重區中興南街66號","121.470758333333","25.044075","6500200","三重區"
"235066","003-UY","2018/07/26 19:49:26","新北市中和區南工路36號","121.505743333333","25.00114","6500300","中和區"
"235063","006-UY","2018/07/26 19:49:15","新北市中和區連城路263巷11弄2號","121.492451666667","24.9952","6500300","中和區"
"235056","096-UM","2018/07/26 19:49:28","新北市中和區中山路三段114巷46號","121.475803333333","25.007145","6500300","中和區"
"235039","097-UM","2018/07/26 19:49:29","新北市中和區大勇街25巷38弄1號","121.515821666667","24.993715","6500300","中和區"
"235065","098-UM","2018/07/26 19:49:19","新北市中和區福祥路90巷5號","121.499591666667","25.0057883333333","6500300","中和區"
"235040","150-BY","2018/07/26 19:49:22","新北市中和區安平路30號","121.509613333333","24.9948766666667","6500300","中和區"
"235058","151-BY","2018/07/26 19:49:31","新北市中和區員山路146巷20號","121.482263333333","24.99678","6500300","中和區"
"235055","183-VK","2018/07/26 19:49:25","新北市中和區德光路27巷1弄1號","121.470826666667","25.0040216666667","6500300","中和區"
"235049","186-VK","2018/07/26 19:49:30","新北市中和區中興街50號","121.500666666667","24.9945116666667","6500300","中和區"
"235067","255-BX","2018/07/26 19:49:25","新北市中和區新生街281號","121.483916666667","24.9976933333333","6500300","中和區"
"235044","293-VK","2018/07/26 19:49:20","新北市中和區南山路158號","121.504383333333","24.9919266666667","6500300","中和區"
"235072","301-VK","2018/07/26 19:49:16","新北市中和區永和路103巷15弄4號","121.495141666667","25.0074266666667","6500300","中和區"
"235043","352-BY","2018/07/26 19:49:18","新北市中和區華新街230號","121.506115","24.9816633333333","6500300","中和區"
"235050","4979-A6","2018/07/26 19:49:14","新北市中和區景平路241巷84弄54號","121.50608","24.9923816666667","6500300","中和區"
"235070","558-UM","2018/07/26 19:49:25","新北市中和區圓通路208號","121.496011666667","24.9939683333333","6500300","中和區"
"235045","565-BX","2018/07/26 19:49:12","新北市中和區景平路404號","121.509088333333","24.9930316666667","6500300","中和區"
"235054","640-BX","2018/07/26 19:49:16","新北市中和區莒光路127號","121.472578333333","25.001915","6500300","中和區"
"235060","647-TV","2018/07/26 19:49:25","新北市中和區員山路396號","121.480525","25.0046033333333","6500300","中和區"
"235047","732-UM","2018/07/26 19:49:20","新北市中和區和平街3-1號","121.50983","24.9900316666667","6500300","中和區"
"235046","733-UM","2018/07/26 19:49:15","新北市中和區仁愛街53號","121.511238333333","24.9880316666667","6500300","中和區"
"235057","801-TS","2018/07/26 19:49:29","新北市中和區員山路128-1號","121.481281666667","24.9961533333333","6500300","中和區"
"235041","802-TS","2018/07/26 19:49:15","新北市中和區新興街17巷26號","121.5127","25.0028316666667","6500300","中和區"
"235052","805-TS","2018/07/26 19:49:34","新北市中和區華新街30巷16號","121.506863333333","24.98443","6500300","中和區"
"235048","896-TW","2018/07/26 19:49:24","新北市中和區興南路一段137號","121.508798333333","24.9876583333333","6500300","中和區"
"235053","900-TW","2018/07/26 19:49:24","新北市中和區國光街189巷12弄2號","121.467466666667","25.00146","6500300","中和區"
"235051","157-BY","2018/07/26 19:49:26","新北市中和區中興街180巷52弄1號","121.498596666667","24.98832","6500300","中和區"
"235037","AAC-213","2018/07/26 19:49:30","新北市中和區自立路76號","121.523983333333","24.9912516666667","6500300","中和區"
"235059","AAC-215","2018/07/26 19:49:27","新北市中和區圓通路305巷15弄4號","121.494501666667","24.9894233333333","6500300","中和區"
"220065","072-UY","2018/07/26 19:49:16","新北市板橋區區運路66號","121.46633","25.0100916666667","6500100","板橋區"
"220086","073-UY","2018/07/26 19:49:25","新北市板橋區南雅西路二段7巷25號","121.451923333333","25.0094766666667","6500100","板橋區"
"220069","AAD-861","2018/07/26 19:49:17","新北市板橋區南雅南路二段11-4號","121.454131666667","25.00245","6500100","板橋區"
"220106","120-SR","2018/07/26 19:49:16","新北市板橋區文化路二段606號","121.477183333333","25.0350933333333","6500100","板橋區"
"247014","546-UM","2018/07/26 19:49:24","新北市蘆洲區中央路91號","121.472691666667","25.0842083333333","6501400","蘆洲區"
"247004","337-TH","2018/07/26 19:49:30","新北市蘆洲區長安街207巷17號","121.459495","25.0817383333333","6501400","蘆洲區"
"247006","336-TH","2018/07/26 19:49:27","新北市蘆洲區永安南路二段14號","121.46732","25.0770233333333","6501400","蘆洲區"
"247008","056-VK","2018/07/26 19:49:14","新北市蘆洲區中山一路51巷10號","121.478733333333","25.0804833333333","6501400","蘆洲區"
"247002","002-UY","2018/07/26 19:49:22","新北市蘆洲區永樂街38巷69號","121.458605","25.09053","6501400","蘆洲區"
"226004","312-R5","2018/07/26 19:49:23","新北市平溪區靜安路二段530巷7號","121.744981666667","25.0273583333333","6502400","平溪區"
"235038","251-BX","2018/07/26 19:49:20","新北市中和區自立路6號","121.522455","24.9965333333333","6500300","中和區"
"228003","097-TW","2018/07/26 19:49:19","新北市貢寮區真理里美艷山街7號","121.926876666667","25.0596716666667","6502600","貢寮區"
"228001","212-TW","2018/07/26 19:49:25","新北市貢寮區真理里新港街26巷26號","121.92754","25.05531","6502600","貢寮區"
"224010","AGQ-8101","2018/07/26 19:49:26","新北市瑞芳區豎崎路37號","121.843185","25.1088766666667","6501200","瑞芳區"
"224002","639-TC","2018/07/26 19:49:24","新北市瑞芳區民享新村38號","121.81743","25.1058733333333","6501200","瑞芳區"
"227010","642-TC","2018/07/26 19:49:12","新北市雙溪區新基里中華路78號","121.865931666667","25.0383433333333","6502500","雙溪區"
"227004","400-TW","2018/07/26 19:49:24","新北市雙溪區雙溪里內挖路36號","121.863203333333","25.0367633333333","6502500","雙溪區"
"222001","KEA-2212","2018/07/26 19:49:18","新北市深坑區北深路三段106號","121.606893333333","25.0015883333333","6501800","深坑區"
"208002","KEA-2872","2018/07/26 19:49:28","新北市金山區三民街30號","121.634901666667","25.22334","6502700","金山區"
"208003","665-BX","2018/07/26 19:49:29","新北市金山區清泉里清水路53號","121.629505","25.235335","6502700","金山區"
"208001","761-BX","2018/07/26 19:49:26","新北市金山區重和里六股林口38-1號","121.603238333333","25.2187116666667","6502700","金山區"
"251009","008-UM","2018/07/26 19:49:21","新北市淡水區中正路32號","121.44384","25.1691766666667","6501000","淡水區"
"251005","010-UM","2018/07/26 19:49:29","新北市淡水區中正東路1號","121.44723","25.1672883333333","6501000","淡水區"
"251001","011-UM","2018/07/26 19:49:11","新北市淡水區淡金路24號","121.456918333333","25.1603","6501000","淡水區"
"251013","KEA-2871","2018/07/26 19:49:15","新北市淡水區頂田寮15-1號","121.462083333333","25.2140716666667","6501000","淡水區"
"251016","179-VK","2018/07/26 19:49:16","新北市淡水區三塊厝3-3號","121.456711666667","25.2097983333333","6501000","淡水區"
"251014","180-VK","2018/07/26 19:49:14","新北市淡水區番社前1-7號","121.468188333333","25.2360133333333","6501000","淡水區"
"251008","181-VK","2018/07/26 19:49:21","新北市淡水區中正路一段24巷2-4號","121.42681","25.177015","6501000","淡水區"
"251015","182-VK","2018/07/26 19:49:16","新北市淡水區北新路一段695號","121.47401","25.185195","6501000","淡水區"
"251010","413-VK","2018/07/26 19:49:30","新北市淡水區崁頂里77號","121.430696666667","25.2031916666667","6501000","淡水區"
"251012","441-VK","2018/07/26 19:49:24","新北市淡水區淡金路三段66號","121.44824","25.19996","6501000","淡水區"
"251007","442-VK","2018/07/26 19:49:30","新北市淡水區中正東路一段3巷25號","121.451628333333","25.1653433333333","6501000","淡水區"
"251006","443-VK","2018/07/26 19:49:32","新北市淡水區中山北路一段247巷70號","121.442883333333","25.1794983333333","6501000","淡水區"
"251011","650-BX","2018/07/26 19:49:26","新北市淡水區北投子14-3號","121.449376666667","25.1831033333333","6501000","淡水區"
"251003","766-UM","2018/07/26 19:49:21","新北市淡水區中山北路三段157號","121.445203333333","25.1962983333333","6501000","淡水區"
"207003","550-UM","2018/07/26 19:49:29","新北市萬里區磺潭里公館崙4號","121.642191666667","25.2145466666667","6502800","萬里區"
"207004","225-TW","2018/07/26 19:49:23","新北市萬里區萬里里瑪鋉路170號","121.689853333333","25.1797983333333","6502800","萬里區"
"252002","178-VK","2018/07/26 19:49:16","新北市三芝區三民街20號","121.504511666667","25.2586733333333","6502100","三芝區"
"252001","292-VK","2018/07/26 19:49:21","新北市三芝區公正街66號","121.499781666667","25.2574366666667","6502100","三芝區"
"237007","153-BY","2018/07/26 19:49:22","新北市三峽區二鬮路136巷24弄1號","121.356018333333","24.90994","6500900","三峽區"
"237009","210-TH","2018/07/26 19:49:17","新北市三峽區中園街117號","121.367738333333","24.924485","6500900","三峽區"
"237013","252-BX","2018/07/26 19:49:25","新北市三峽區橫溪路69號","121.397468333333","24.9353466666667","6500900","三峽區"
"237012","275-BY","2018/07/26 19:49:33","新北市三峽區中華路48巷18號","121.371035","24.9298766666667","6500900","三峽區"
"237008","302-VK","2018/07/26 19:49:12","新北市三峽區永安街183號","121.373168333333","24.9268683333333","6500900","三峽區"
"237014","433-BY","2018/07/26 19:49:27","新北市三峽區中正路二段122號","121.366371666667","24.9172333333333","6500900","三峽區"
"237006","5529-G3","2018/07/26 19:49:18","新北市三峽區中正路一段336巷15弄2號","121.369945","24.9249483333333","6500900","三峽區"
"237011","KEA-2596","2018/07/26 19:49:15","新北市三峽區中正路一段112-1號","121.374048333333","24.929485","6500900","三峽區"
"237016","649-BX","2018/07/26 19:49:26","新北市三峽區溪東路309號","121.410091666667","24.9306233333333","6500900","三峽區"
"237010","706-TV","2018/07/26 19:49:21","新北市三峽區復興路29號","121.373803333333","24.9365483333333","6500900","三峽區"
"237005","AKY-6261","2018/07/26 19:49:12","新北市三峽區長泰街70-1號","121.377031666667","24.9330383333333","6500900","三峽區"
"236070","105-UM","2018/07/26 19:49:24","新北市土城區水源街32巷12號","121.44112","24.97588","6501300","土城區"
"236042","107-UM","2018/07/26 19:49:28","新北市土城區金城路二段245巷21號","121.455111666667","24.9835183333333","6501300","土城區"
"236078","166-UM","2018/07/26 19:49:30","新北市土城區中央路四段418-2號","121.411025","24.9528116666667","6501300","土城區"
"236030","253-BX","2018/07/26 19:49:24","新北市土城區中央路一段294號","121.443363333333","24.9823783333333","6501300","土城區"
"236026","269-VK","2018/07/26 19:49:24","新北市土城區中央路二段61巷26號","121.443395","24.9788416666667","6501300","土城區"
"236038","271-VK","2018/07/26 19:49:19","新北市土城區國際路158巷54號","121.467966666667","24.9748433333333","6501300","土城區"
"236021","401-BY","2018/07/26 19:49:31","新北市土城區延吉街137巷11號","121.470941666667","24.985755","6501300","土城區"
"236059","912-UM","2018/07/26 19:49:27","新北市土城區中央路一段104號","121.446763333333","24.9883","6501300","土城區"
"236049","913-UM","2018/07/26 19:49:28","新北市土城區青雲路265號","121.459101666667","24.9806083333333","6501300","土城區"
"236063","915-UM","2018/07/26 19:49:30","新北市土城區延和路105巷2弄1號","121.467595","24.9904483333333","6501300","土城區"
"236055","AAC-216","2018/07/26 19:49:16","新北市土城區延和路107號","121.467731666667","24.9902433333333","6501300","土城區"
"242034","AAC-296","2018/07/26 19:49:22","新北市新莊區公園一路110號","121.444441666667","25.0373633333333","6500500","新莊區"
"242058","986-R7","2018/07/26 19:49:24","新北市新莊區新樹路40號","121.437778333333","25.0282516666667","6500500","新莊區"
"242029","705-TV","2018/07/26 19:49:32","新北市新莊區中平路357號","121.44473","25.0516416666667","6500500","新莊區"
"242046","497-BY","2018/07/26 19:49:15","新北市新莊區裕民街19巷4號","121.419603333333","25.025195","6500500","新莊區"
"242056","440-UM","2018/07/26 19:49:31","新北市新莊區新豐街8號","121.448925","25.0345933333333","6500500","新莊區"
"242007","413-TV","2018/07/26 19:49:27","新北市新莊區新北大道三段5號","121.458496666667","25.060105","6500500","新莊區"
"242023","362-BY","2018/07/26 19:49:23","新北市新莊區化成路206號","121.465603333333","25.0463916666667","6500500","新莊區"
"242039","133-UY","2018/07/26 19:49:23","新北市新莊區民安路299巷55弄1號","121.429478333333","25.0238616666667","6500500","新莊區"
"242031","135-UY","2018/07/26 19:49:14","新北市新莊區忠孝街16號","121.443961666667","25.0349566666667","6500500","新莊區"
"242048","172-VK","2018/07/26 19:49:21","新北市新莊區建安街76巷3弄18號","121.425646666667","25.0246983333333","6500500","新莊區"
"242011","173-VK","2018/07/26 19:49:28","新北市新莊區中榮街76號","121.448261666667","25.05299","6500500","新莊區"
"242017","175-VK","2018/07/26 19:49:21","新北市新莊區中華路一段226號","121.452628333333","25.04299","6500500","新莊區"
"242004","176-VK","2018/07/26 19:49:22","新北市新莊區化成路63巷24弄13號","121.46273","25.04593","6500500","新莊區"
"242021","348-TH","2018/07/26 19:49:22","新北市新莊區建中街34號","121.448946666667","25.03743","6500500","新莊區"
"242019","350-TH","2018/07/26 19:49:17","新北市新莊區明智街21巷2號","121.453981666667","25.0413033333333","6500500","新莊區"
"242013","351-TH","2018/07/26 19:49:14","新北市新莊區中泰街36號","121.450905","25.04695","6500500","新莊區"
"238015","755-BX","2018/07/26 19:49:20","新北市樹林區中山路二段230號","121.409103333333","24.9802866666667","6500700","樹林區"
"238023","601-UM","2018/07/26 19:49:31","新北市樹林區三寶街2號","121.406546666667","25.01619","6500700","樹林區"
"238021","KEA-2539","2018/07/26 19:49:26","新北市樹林區佳園路三段101巷38弄6號","121.39118","24.9505616666667","6500700","樹林區"
"238026","172-UY","2018/07/26 19:49:20","新北市樹林區佳園路二段39號","121.391666666667","24.9627466666667","6500700","樹林區"
"239006","891-R6","2018/07/26 19:49:25","新北市鶯歌區中正二路8號","121.351766666667","24.9519233333333","6500800","鶯歌區"
"239004","292-BY","2018/07/26 19:49:15","新北市鶯歌區國中街148號","121.338883333333","24.9397033333333","6500800","鶯歌區"
"221008","489-VK","2018/07/26 19:49:23","新北市汐止區康寧街60號","121.619051666667","25.066545","6501100","汐止區"
"221036","130-UY","2018/07/26 19:49:31","新北市汐止區汐萬路一段158號","121.652621666667","25.0714083333333","6501100","汐止區"
"221015","131-UY","2018/07/26 19:49:14","新北市汐止區忠孝東路462巷60號","121.666593333333","25.0745316666667","6501100","汐止區"
"221010","269-BY","2018/07/26 19:49:22","新北市汐止區汐萬路一段411號","121.649208333333","25.079505","6501100","汐止區"
"221012","278-VK","2018/07/26 19:49:28","新北市汐止區大同路408-1號","121.682175","25.0720166666667","6501100","汐止區"
"221023","279-VK","2018/07/26 19:49:29","新北市汐止區民族六街3巷1號","121.629473333333","25.07029","6501100","汐止區"
"221032","280-BY","2018/07/26 19:49:31","新北市汐止區橫科路403巷18號","121.625338333333","25.0474583333333","6501100","汐止區"
"221027","281-BY","2018/07/26 19:49:28","新北市汐止區南昌街2巷15號","121.662698333333","25.0688983333333","6501100","汐止區"
"221033","297-VK","2018/07/26 19:49:17","新北市汐止區東勢街76巷100-1號","121.636403333333","25.0390083333333","6501100","汐止區"
"221029","298-VK","2018/07/26 19:49:19","新北市汐止區康寧街901號","121.651438333333","25.074995","6501100","汐止區"
"221021","299-VK","2018/07/26 19:49:22","新北市汐止區莊敬街29巷5號","121.6572","25.0609533333333","6501100","汐止區"
"221031","353-TW","2018/07/26 19:49:19","新北市汐止區福德二路54巷2弄7號","121.634036666667","25.0677616666667","6501100","汐止區"
"221035","622-UM","2018/07/26 19:49:31","新北市汐止區長江街13巷6弄1號","121.6547","25.0716833333333","6501100","汐止區"
"221025","623-UM","2018/07/26 19:49:21","新北市汐止區秀峰路81巷18號","121.660861666667","25.0643283333333","6501100","汐止區"
"221038","646-BX","2018/07/26 19:49:30","新北市汐止區忠孝東路399號","121.665716666667","25.0709533333333","6501100","汐止區"
"221018","753-BX","2018/07/26 19:49:18","新北市汐止區大同路二段613號","121.664146666667","25.07087","6501100","汐止區"
"220080","200-UY","2018/07/26 19:49:23","新北市板橋區大觀路二段57號","121.446746666667","25.0026883333333","6500100","板橋區"
"220101","245-BX","2018/07/26 19:49:16","新北市板橋區縣民大道三段79巷2號","121.47532","25.021825","6500100","板橋區"
"220079","256-TC","2018/07/26 19:49:16","新北市板橋區中正路183巷15號","121.45558","25.0161566666667","6500100","板橋區"
"220056","276-BY","2018/07/26 19:49:27","新北市板橋區四川路二段99巷4弄2號","121.452858333333","24.994185","6500100","板橋區"
"220072","277-BY","2018/07/26 19:49:23","新北市板橋區金門街131號","121.43295","24.9913083333333","6500100","板橋區"
"220071","283-VK","2018/07/26 19:49:28","新北市板橋區五權街32巷1號","121.464915","24.9931683333333","6500100","板橋區"
"220094","285-UM","2018/07/26 19:49:20","新北市板橋區長江路一段113號","121.459791666667","25.02988","6500100","板橋區"
"220053","285-VK","2018/07/26 19:49:20","新北市板橋區中山路二段60巷1弄21號","121.474948333333","25.0157816666667","6500100","板橋區"
"220083","286-VK","2018/07/26 19:49:14","新北市板橋區龍興街63巷13號","121.442551666667","25.0015166666667","6500100","板橋區"
"220081","287-VK","2018/07/26 19:49:30","新北市板橋區大觀路一段27號","121.450096666667","25.0084333333333","6500100","板橋區"
"220090","288-VK","2018/07/26 19:49:24","新北市板橋區龍泉街54巷7弄2號","121.456808333333","25.02663","6500100","板橋區"
"220061","293-UM","2018/07/26 19:49:26","新北市板橋區中山路一段283巷2弄15號","121.470518333333","25.014945","6500100","板橋區"
"220062","295-UM","2018/07/26 19:49:20","新北市板橋區光復街33巷23號","121.482273333333","25.01903","6500100","板橋區"
"220084","296-UM","2018/07/26 19:49:25","新北市板橋區溪崑二街103巷20號","121.427216666667","24.988645","6500100","板橋區"
"220075","303-R5","2018/07/26 19:49:25","新北市板橋區金華街10巷48弄59號","121.459065","25.02019","6500100","板橋區"
"220092","307-R5","2018/07/26 19:49:31","新北市板橋區陽明街164巷10弄1號","121.464111666667","25.0243616666667","6500100","板橋區"
"220098","317-R6","2018/07/26 19:49:30","新北市板橋區四維路269巷94弄2號","121.459516666667","25.0267183333333","6500100","板橋區"
"220064","486-VK","2018/07/26 19:49:27","新北市板橋區實踐路81號","121.463985","25.0057466666667","6500100","板橋區"
"242036","280-VK","2018/07/26 19:49:29","新北市新莊區建安街66號","121.426968333333","25.0245716666667","6500500","新莊區"
"220088","491-VK","2018/07/26 19:49:25","新北市板橋區大同街71號","121.479468333333","25.0279833333333","6500100","板橋區"
"220035","560-BX","2018/07/26 19:49:31","新北市板橋區金華街103號","121.458751666667","25.0208433333333","6500100","板橋區"
"220103","561-BX","2018/07/26 19:49:28","新北市板橋區陽明街29巷33號","121.463705","25.0224933333333","6500100","板橋區"
"220063","609-BX","2018/07/26 19:49:33","新北市板橋區三民路一段31巷1號","121.479333333333","25.02311","6500100","板橋區"
"220091","637-BX","2018/07/26 19:49:22","新北市板橋區文聖街151號","121.478625","25.028015","6500100","板橋區"
"220057","686-BX","2018/07/26 19:49:21","新北市板橋區信義路243號","121.460246666667","24.9910533333333","6500100","板橋區"
"220077","687-BX","2018/07/26 19:49:28","新北市板橋區僑中一街102巷3弄20號","121.445968333333","25.012475","6500100","板橋區"
"220093","689-BX","2018/07/26 19:49:31","新北市板橋區長江路二段289號","121.470403333333","25.033235","6500100","板橋區"
"220054","741-BX","2018/07/26 19:49:26","新北市板橋區忠孝路忠義巷15弄26號","121.465758333333","25.0041983333333","6500100","板橋區"
"220102","KEA-2699","2018/07/26 19:49:30","新北市板橋區雙十路二段46巷13號","121.476095","25.0280416666667","6500100","板橋區"
"220070","806-UM","2018/07/26 19:49:30","新北市板橋區成都街87號","121.46289","25.0052266666667","6500100","板橋區"
"220055","827-TW","2018/07/26 19:49:32","新北市板橋區國慶路149巷21弄12號","121.460231666667","24.997335","6500100","板橋區"
"220067","829-TW","2018/07/26 19:49:18","新北市板橋區長安街138巷1弄73號","121.474608333333","25.0108733333333","6500100","板橋區"
"220068","830-TW","2018/07/26 19:49:28","新北市板橋區中山路二段416巷36-1號","121.483116666667","25.0198516666667","6500100","板橋區"
"220096","831-TW","2018/07/26 19:49:30","新北市板橋區莒光路28巷20號","121.46982","25.0236766666667","6500100","板橋區"
"220089","833-TW","2018/07/26 19:49:12","新北市板橋區龍泉街114號","121.456905","25.0244633333333","6500100","板橋區"
"220074","895-R6","2018/07/26 19:49:23","新北市板橋區府中路29-2號","121.458505","25.008","6500100","板橋區"
"220073","985-R7","2018/07/26 19:49:30","新北市板橋區南雅西路二段275號","121.451896666667","25.01514","6500100","板橋區"
"220097","AAC-210","2018/07/26 19:49:30","新北市板橋區文化路一段285巷42號","121.463286666667","25.01979","6500100","板橋區"
"220082","AAC-253","2018/07/26 19:49:26","新北市板橋區溪北路101號","121.428831666667","24.9892333333333","6500100","板橋區"
"235068","KEA-2873","2018/07/26 19:49:30","新北市中和區莊敬路16巷15弄7號","121.500431666667","25.0038766666667","6500300","中和區"
"235025","KEA-2875","2018/07/26 19:49:29","新北市中和區新生街166巷18號","121.482583333333","25.0003683333333","6500300","中和區"
