"lineid","car","time","location","longitude","latitude","cityid","cityname"
"234081","298-R6","2018/07/26 20:39:22","新北市永和區永貞路82號","121.520156666667","25.005085","6500400","永和區"
"234064","337-UY","2018/07/26 20:39:21","新北市永和區永和路二段290號","121.516056666667","25.0156716666667","6500400","永和區"
"234070","552-UM","2018/07/26 20:39:24","新北市中和區光環路二段27號","121.487946666667","25.0127733333333","6500400","永和區"
"234030","746-BX","2018/07/26 20:39:25","新北市中和區景平路514號","121.503488333333","24.9936966666667","6500400","永和區"
"234061","AAD-866","2018/07/26 20:39:18","新北市永和區秀朗路一段175號","121.517091666667","25.0037066666667","6500400","永和區"
"234050","863-TW","2018/07/26 20:39:34","新北市永和區保安路144號","121.50857","25.0149233333333","6500400","永和區"
"249004","303-UY","2018/07/26 20:39:28","新北市八里區中山路一段157巷30號","121.41278","25.158065","6502300","八里區"
"249002","305-UY","2018/07/26 20:36:42","新北市八里區龍米路二段150號","121.436475","25.15637","6502300","八里區"
"249003","593-UM","2018/07/26 20:39:30","新北市八里區下罟子5-6號","121.387146666667","25.1460983333333","6502300","八里區"
"249001","759-BX","2018/07/26 20:39:31","新北市八里區中山路三段331號","121.37758","25.1388333333333","6502300","八里區"
"234023","9380-KE","2018/07/26 20:39:29","新北市永和區竹林路25巷26號","121.517998333333","25.0149066666667","6500400","永和區"
"234077","969-R7","2018/07/26 20:39:27","新北市三重區重新路五段326巷25-1號","121.479506666667","25.043015","6500400","永和區"
"234074","AAC-211","2018/07/26 20:39:31","新北市永和區竹林路37號","121.517841666667","25.0142716666667","6500400","永和區"
"243013","AAD-798","2018/07/26 20:39:13","新北市泰山區黎明路47號","121.422058333333","25.0578466666667","6501600","泰山區"
"243016","380-SR","2018/07/26 20:38:02","新北市泰山區明志路二段191號","121.427618333333","25.049365","6501600","泰山區"
"243011","KEA-2215","2018/07/26 20:39:21","新北市泰山區公園路89號","121.424371666667","25.0551366666667","6501600","泰山區"
"243010","KEA-2216","2018/07/26 20:39:21","新北市泰山區公園路88-1號","121.423483333333","25.0576966666667","6501600","泰山區"
"243012","646-TV","2018/07/26 20:39:15","新北市泰山區橫窠雅10-16號","121.415013333333","25.067105","6501600","泰山區"
"222003","436-BY","2018/07/26 20:39:20","新北市深坑區阿柔洋25-1號","121.613125","24.9991033333333","6501800","深坑區"
"222002","659-BX","2018/07/26 20:39:13","新北市深坑區萬福路45號","121.599453333333","25.00685","6501800","深坑區"
"231041","002-UM","2018/07/26 20:39:18","新北市新店區中正路696號","121.534015","24.9905416666667","6500600","新店區"
"231059","046-UY","2018/07/26 20:39:30","新北市新店區僑信路132巷25號","121.499988333333","24.945445","6500600","新店區"
"231040","047-UY","2018/07/26 20:39:28","新北市新店區中正路270號","121.539001666667","24.9736633333333","6500600","新店區"
"231044","106-UY","2018/07/26 20:39:17","新北市新店區建國路291巷1號","121.536946666667","24.9854616666667","6500600","新店區"
"231052","108-UY","2018/07/26 20:39:31","新北市新店區松林路1號","121.546906666667","24.9120383333333","6500600","新店區"
"231065","110-UY","2018/07/26 20:39:29","新北市新店區安祥路102巷46弄83號","121.487218333333","24.963445","6500600","新店區"
"231047","187-VK","2018/07/26 20:39:24","新北市新店區寶慶街2-3號","121.543698333333","24.98695","6500600","新店區"
"231054","KEA-2219","2018/07/26 20:39:31","新北市新店區行政街28巷2號","121.542841666667","24.9656633333333","6500600","新店區"
"231057","256-BX","2018/07/26 20:39:33","新北市新店區花園六路二段9-2號","121.555741666667","24.9329433333333","6500600","新店區"
"231042","268-BY","2018/07/26 20:39:18","新北市新店區寶橋路224號","121.551236666667","24.9787316666667","6500600","新店區"
"231051","278-BY","2018/07/26 20:39:25","新北市新店區中央六街7號","121.530251666667","24.9745133333333","6500600","新店區"
"231050","AAD-862","2018/07/26 20:39:14","新北市新店區中正路265巷2-1號","121.537995","24.97386","6500600","新店區"
"231058","3713-VJ","2018/07/26 20:39:26","新北市新店區平等街65號","121.535941666667","24.9725333333333","6500600","新店區"
"231066","4716-K9","2018/07/26 20:39:19","新北市新店區安民街365巷1弄8號","121.516428333333","24.975275","6500600","新店區"
"231056","4715-K9","2018/07/26 20:39:35","新北市新店區中央七街61巷12號","121.528761666667","24.97629","6500600","新店區"
"231067","4772-VM","2018/07/26 20:39:21","新北市新店區安華路28-1號","121.519753333333","24.9608166666667","6500600","新店區"
"231049","513-UM","2018/07/26 20:39:28","新北市新店區永業路81巷5弄1號","121.530165","24.9489816666667","6500600","新店區"
"231063","616-UM","2018/07/26 20:39:20","新北市新店區玫瑰路4-1號","121.493581666667","24.95141","6500600","新店區"
"231045","617-UM","2018/07/26 20:39:14","新北市新店區長春路57號","121.55055","24.95774","6500600","新店區"
"231061","619-UM","2018/07/26 20:39:27","新北市新店區新和街34號","121.519251666667","24.9848816666667","6500600","新店區"
"231068","718-UY","2018/07/26 20:39:14","新北市新店區中興路三段330號","121.542141666667","24.98649","6500600","新店區"
"231064","719-UM","2018/07/26 20:39:14","新北市中和區景新街561號","121.51567","24.9864383333333","6500600","新店區"
"231062","720-UM","2018/07/26 20:39:31","新北市新店區安泰路60巷55弄39號","121.484516666667","24.945575","6500600","新店區"
"231060","897-TW","2018/07/26 20:39:29","新北市新店區安康路三段567-1號","121.47562","24.9437816666667","6500600","新店區"
"231043","899-TW","2018/07/26 20:39:28","新北市新店區博愛街13巷23號","121.540288333333","24.9741333333333","6500600","新店區"
"241011","013-R5","2018/07/26 20:39:14","新北市三重區龍門路181號","121.499353333333","25.07328","6500200","三重區"
"241028","022-UY","2018/07/26 20:39:34","新北市三重區光興街91號","121.497398333333","25.0599633333333","6500200","三重區"
"241008","059-VK","2018/07/26 20:39:27","新北市三重區下竹圍街42-1號","121.481068333333","25.0748533333333","6500200","三重區"
"241022","060-VK","2018/07/26 20:39:31","新北市三重區中山路33巷27-5號","121.487951666667","25.0621033333333","6500200","三重區"
"241031","061-VK","2018/07/26 20:39:34","新北市三重區重陽路一段113巷1弄49號","121.488065","25.05848","6500200","三重區"
"241015","062-VK","2018/07/26 20:39:25","新北市三重區雙園街1號","121.497813333333","25.068435","6500200","三重區"
"241017","063-VK","2018/07/26 20:39:30","新北市三重區大同北路269號","121.490793333333","25.0673466666667","6500200","三重區"
"241024","065-VK","2018/07/26 20:39:30","新北市三重區忠孝路三段34號","121.48125","25.0666","6500200","三重區"
"241026","066-VK","2018/07/26 20:39:20","新北市三重區文化南路3號","121.50004","25.062415","6500200","三重區"
"241002","090-VK","2018/07/26 20:39:15","新北市三重區仁義街167巷32弄1號","121.498101666667","25.0821216666667","6500200","三重區"
"241019","742-BX","2018/07/26 20:39:21","新北市三重區大智街129-1號","121.491168333333","25.0703666666667","6500200","三重區"
"241005","262-UM","2018/07/26 20:39:26","新北市三重區碧華街416號","121.492126666667","25.0851933333333","6500200","三重區"
"241016","266-UM","2018/07/26 20:39:14","新北市三重區長壽西街143-3號","121.494271666667","25.0666366666667","6500200","三重區"
"241009","267-UM","2018/07/26 20:39:21","新北市三重區碧華街57號","121.484785","25.0813083333333","6500200","三重區"
"241018","268-UM","2018/07/26 20:39:28","新北市三重區自強路一段193號","121.491865","25.0681466666667","6500200","三重區"
"241032","269-UM","2018/07/26 20:39:32","新北市三重區重陽路一段120巷48號","121.485078333333","25.0601283333333","6500200","三重區"
"241013","270-UM","2018/07/26 20:39:28","新北市三重區仁愛街92巷22號","121.494476666667","25.0735916666667","6500200","三重區"
"241025","271-UM","2018/07/26 20:39:12","新北市三重區頂崁街141號","121.47787","25.065055","6500200","三重區"
"241007","398-BY","2018/07/26 20:39:28","新北市三重區三和路四段97-15號","121.488078333333","25.0767183333333","6500200","三重區"
"241030","413-TH","2018/07/26 20:39:28","新北市三重區成功路73巷12號","121.48941","25.0519216666667","6500200","三重區"
"241035","462-BY","2018/07/26 20:39:18","新北市三重區正義北路388號","121.493048333333","25.0716483333333","6500200","三重區"
"241004","475-VK","2018/07/26 20:39:25","新北市三重區仁愛街403號","121.491015","25.081","6500200","三重區"
"241020","478-VK","2018/07/26 20:39:26","新北市三重區忠孝路一段71號","121.490715","25.0720216666667","6500200","三重區"
"241014","543-UM","2018/07/26 20:39:22","新北市三重區三和路二段123號","121.498775","25.0691966666667","6500200","三重區"
"241023","545-UM","2018/07/26 20:39:33","新北市三重區自由街35巷2號","121.478976666667","25.0669283333333","6500200","三重區"
"241001","547-UM","2018/07/26 20:39:20","新北市三重區自強路三段110巷15-1號","121.486365","25.0749616666667","6500200","三重區"
"241006","AAD-863","2018/07/26 20:39:32","新北市三重區車路頭街139巷12號","121.484266666667","25.07625","6500200","三重區"
"241012","941-UM","2018/07/26 20:39:18","新北市三重區秀江街5號","121.502568333333","25.0730933333333","6500200","三重區"
"241029","942-UM","2018/07/26 20:39:20","新北市三重區集美街126巷27號","121.490093333333","25.053795","6500200","三重區"
"241033","AAC-255","2018/07/26 20:39:21","新北市三重區光復路二段87巷63號","121.475443333333","25.058055","6500200","三重區"
"247010","KEA-2869","2018/07/26 20:39:19","新北市蘆洲區集賢路406號","121.480031666667","25.0817483333333","6501400","蘆洲區"
"235069","4980-A6","2018/07/26 20:39:11","新北市中和區連城路347巷41號","121.488576666667","24.9947916666667","6500300","中和區"
"247024","893-R6","2018/07/26 20:39:26","新北市蘆洲區長樂路81號","121.462548333333","25.08694","6501400","蘆洲區"
"247014","546-UM","2018/07/26 20:39:24","新北市蘆洲區中山一路196號","121.473681666667","25.0808666666667","6501400","蘆洲區"
"247022","500-BY","2018/07/26 20:39:28","新北市蘆洲區中正路243巷7弄50號","121.467718333333","25.085505","6501400","蘆洲區"
"247012","339-TH","2018/07/26 20:39:26","新北市蘆洲區集賢路224巷48號","121.481155","25.0877166666667","6501400","蘆洲區"
"247004","337-TH","2018/07/26 20:39:26","新北市蘆洲區長安街297號","121.458086666667","25.0848516666667","6501400","蘆洲區"
"247006","336-TH","2018/07/26 20:39:26","新北市蘆洲區和平路136號","121.46712","25.0806166666667","6501400","蘆洲區"
"247008","056-VK","2018/07/26 20:39:14","新北市蘆洲區重陽街18號","121.480718333333","25.081545","6501400","蘆洲區"
"247016","007-UY","2018/07/26 20:39:28","新北市蘆洲區中山二路174號","121.470661666667","25.0806983333333","6501400","蘆洲區"
"247002","002-UY","2018/07/26 20:39:22","新北市蘆洲區長安街375巷20號","121.456541666667","25.087985","6501400","蘆洲區"
"247020","001-UY","2018/07/26 20:39:17","新北市蘆洲區民族路424-1號","121.47395","25.0919283333333","6501400","蘆洲區"
"222001","KEA-2212","2018/07/26 20:39:18","新北市深坑區北深路三段234號","121.600591666667","25.00409","6501800","深坑區"
"251001","011-UM","2018/07/26 20:39:31","新北市淡水區鄧公路278巷1號","121.460973333333","25.1688566666667","6501000","淡水區"
"251013","KEA-2871","2018/07/26 20:39:15","新北市淡水區下圭柔山28巷3號","121.457153333333","25.2042566666667","6501000","淡水區"
"251016","179-VK","2018/07/26 20:39:16","新北市淡水區後洲子8-2號","121.449848333333","25.2240133333333","6501000","淡水區"
"251014","180-VK","2018/07/26 20:39:21","新北市淡水區公埔子29-1號","121.46384","25.2326983333333","6501000","淡水區"
"251015","182-VK","2018/07/26 20:39:16","新北市淡水區淡金路四段542巷17號","121.452711666667","25.2271","6501000","淡水區"
"251010","413-VK","2018/07/26 20:39:29","新北市淡水區沙崙路181巷1號","121.424026666667","25.18437","6501000","淡水區"
"251012","441-VK","2018/07/26 20:39:11","新北市淡水區興仁路108號","121.451688333333","25.2181733333333","6501000","淡水區"
"251007","442-VK","2018/07/26 20:39:30","新北市淡水區新市一路三段151號","121.448593333333","25.1833616666667","6501000","淡水區"
"251006","443-VK","2018/07/26 20:39:32","新北市淡水區商工路198巷1號","121.451013333333","25.18807","6501000","淡水區"
"251002","672-BX","2018/07/26 20:39:21","新北市淡水區中正路36號","121.443768333333","25.1692116666667","6501000","淡水區"
"251003","766-UM","2018/07/26 20:39:21","新北市淡水區新民街120巷46號","121.438495","25.1782416666667","6501000","淡水區"
"252002","178-VK","2018/07/26 20:39:16","新北市三芝區淡金路二段47-2號","121.503675","25.2604866666667","6502100","三芝區"
"252001","292-VK","2018/07/26 20:39:21","新北市三芝區育英街35號","121.501206666667","25.25705","6502100","三芝區"
"237014","433-BY","2018/07/26 20:39:26","新北市鶯歌區中正一路481號","121.372548333333","24.9593233333333","6500900","三峽區"
"242034","AAC-296","2018/07/26 20:39:25","新北市新莊區建中街114號","121.445873333333","25.0366366666667","6500500","新莊區"
"242058","986-R7","2018/07/26 20:39:24","新北市新莊區四維路129-1號","121.422886666667","25.0226716666667","6500500","新莊區"
"242053","751-BX","2018/07/26 20:39:14","新北市新莊區西盛街323巷24號","121.428911666667","25.0146433333333","6500500","新莊區"
"242029","705-TV","2018/07/26 20:39:20","新北市新莊區中華路二段77號","121.452835","25.0477066666667","6500500","新莊區"
"242027","615-BX","2018/07/26 20:39:24","新北市新莊區思源路59號","121.459928333333","25.0403366666667","6500500","新莊區"
"242025","613-BX","2018/07/26 20:39:26","新北市新莊區化成路579巷1號","121.464263333333","25.0659583333333","6500500","新莊區"
"242042","566-BX","2018/07/26 20:39:16","新北市新莊區中正路700-39號","121.417446666667","25.0277466666667","6500500","新莊區"
"242046","497-BY","2018/07/26 20:39:15","新北市新莊區龍安路108號","121.418458333333","25.0205","6500500","新莊區"
"242056","440-UM","2018/07/26 20:39:31","新北市新莊區瓊泰路7號","121.444801666667","25.0285933333333","6500500","新莊區"
"242007","413-TV","2018/07/26 20:39:18","新北市新莊區思源路287巷17號","121.458866666667","25.048205","6500500","新莊區"
"242044","400-BY","2018/07/26 20:39:29","新北市新莊區龍安路74號","121.417133333333","25.020985","6500500","新莊區"
"242023","362-BY","2018/07/26 20:39:15","新北市新莊區化成路170號","121.465581666667","25.0454783333333","6500500","新莊區"
"242061","353-BY","2018/07/26 20:39:25","新北市新莊區新樹路260-2號","121.432391666667","25.0151833333333","6500500","新莊區"
"242009","132-UY","2018/07/26 20:39:32","新北市新莊區福壽街99巷8弄4號","121.45685","25.050625","6500500","新莊區"
"242039","133-UY","2018/07/26 20:39:30","新北市新莊區瓊林路204號","121.438568333333","25.0207983333333","6500500","新莊區"
"242031","135-UY","2018/07/26 20:39:14","新北市新莊區中正路508巷5弄2號","121.435058333333","25.03387","6500500","新莊區"
"242048","172-VK","2018/07/26 20:39:21","新北市新莊區中正路657號","121.428703333333","25.03075","6500500","新莊區"
"242011","173-VK","2018/07/26 20:16:05","新北市新莊區幸福路678巷3弄8號","121.450378333333","25.050015","6500500","新莊區"
"242017","175-VK","2018/07/26 20:39:21","新北市新莊區新泰路368號","121.444546666667","25.0428533333333","6500500","新莊區"
"242015","347-TH","2018/07/26 20:39:34","新北市新莊區中和街12號","121.44835","25.0431733333333","6500500","新莊區"
"242021","348-TH","2018/07/26 20:39:19","新北市新莊區中華路一段73號","121.452261666667","25.04008","6500500","新莊區"
"242002","349-TH","2018/07/26 20:39:32","新北市新莊區明中街43巷29號","121.456986666667","25.0385333333333","6500500","新莊區"
"242019","350-TH","2018/07/26 20:39:17","新北市新莊區銘德街122號","121.455088333333","25.04317","6500500","新莊區"
"242013","351-TH","2018/07/26 20:39:34","新北市新莊區中和街159號","121.447466666667","25.0499983333333","6500500","新莊區"
"221008","489-VK","2018/07/26 20:39:23","新北市汐止區翠峰街2巷2號","121.645328333333","25.076555","6501100","汐止區"
"221036","130-UY","2018/07/26 20:39:31","新北市汐止區新昌路67號","121.663575","25.0689833333333","6501100","汐止區"
"221015","131-UY","2018/07/26 20:39:14","新北市汐止區建成路26號","121.66455","25.072755","6501100","汐止區"
"221023","279-VK","2018/07/26 20:39:29","新北市汐止區康寧街629號","121.63713","25.07189","6501100","汐止區"
"221032","280-BY","2018/07/26 20:39:31","新北市汐止區弘道街53巷30弄2號","121.618978333333","25.0500483333333","6501100","汐止區"
"221027","281-BY","2018/07/26 20:39:28","新北市汐止區大同路二段563-1號","121.662811666667","25.0699183333333","6501100","汐止區"
"221033","297-VK","2018/07/26 20:39:17","新北市汐止區合順街18巷8弄5號","121.620301666667","25.0419416666667","6501100","汐止區"
"221029","298-VK","2018/07/26 20:39:31","新北市汐止區新台五路一段79-11號","121.645541666667","25.0620616666667","6501100","汐止區"
"221021","299-VK","2018/07/26 20:39:22","新北市汐止區水源路一段286號","121.65417","25.05823","6501100","汐止區"
"221035","622-UM","2018/07/26 20:39:12","新北市汐止區長江街101-5號","121.658725","25.0732133333333","6501100","汐止區"
"221025","623-UM","2018/07/26 20:39:21","新北市汐止區水源路二段185號","121.657783333333","25.0535383333333","6501100","汐止區"
"221038","646-BX","2018/07/26 20:39:30","新北市汐止區汐萬路一段213號","121.65203","25.0722866666667","6501100","汐止區"
"221002","707-TV","2018/07/26 20:39:31","新北市汐止區福德二路167號","121.630938333333","25.0650666666667","6501100","汐止區"
"221018","753-BX","2018/07/26 20:39:26","新北市汐止區茄苳路101號","121.667201666667","25.0712916666667","6501100","汐止區"
"220083","286-VK","2018/07/26 20:39:34","新北市板橋區僑中二街108巷3號","121.445623333333","25.00723","6500100","板橋區"
"242036","280-VK","2018/07/26 20:39:28","新北市新莊區建安街16巷3號","121.428401666667","25.0264383333333","6500500","新莊區"
"220103","561-BX","2018/07/26 20:39:28","新北市板橋區漢生東路45號","121.465693333333","25.0165116666667","6500100","板橋區"
"220070","806-UM","2018/07/26 20:39:30","新北市八里區下罟子17號","121.381585","25.143995","6500100","板橋區"
