"lineid","car","time","location","longitude","latitude","cityid","cityname"
"234030","746-BX","2018/07/26 20:49:25","新北市三重區大有街23號","121.466658333333","25.0650883333333","6500400","永和區"
"249002","305-UY","2018/07/26 20:49:22","新北市八里區商港路105巷15號","121.388613333333","25.1471933333333","6502300","八里區"
"234077","969-R7","2018/07/26 20:49:27","新北市八里區荖阡坑路34-2號","121.401171666667","25.130485","6500400","永和區"
"234074","AAC-211","2018/07/26 20:49:31","新北市永和區環河東路二段34號","121.522646666667","25.0125916666667","6500400","永和區"
"243013","AAD-798","2018/07/26 20:49:32","新北市泰山區泰林路三段745巷145號","121.407118333333","25.06835","6501600","泰山區"
"222003","436-BY","2018/07/26 20:49:20","新北市深坑區文山路三段48-1號","121.609928333333","24.9985533333333","6501800","深坑區"
"222002","659-BX","2018/07/26 20:49:23","新北市深坑區北深路三段93巷61號","121.603951666667","25.0008416666667","6501800","深坑區"
"231041","002-UM","2018/07/26 20:49:18","新北市新店區溪園路249號","121.524105","24.9825933333333","6500600","新店區"
"231059","046-UY","2018/07/26 20:49:28","新北市新店區僑信路126巷22號","121.499613333333","24.9456133333333","6500600","新店區"
"231040","047-UY","2018/07/26 20:49:28","新北市新店區中正路266號","121.53904","24.9735483333333","6500600","新店區"
"231044","106-UY","2018/07/26 20:49:17","新北市新店區中正路366號","121.535153333333","24.976175","6500600","新店區"
"231052","108-UY","2018/07/26 20:49:31","新北市新店區新烏路一段106號","121.545548333333","24.9365166666667","6500600","新店區"
"231065","110-UY","2018/07/26 20:49:25","新北市新店區安祥路104巷11弄14號","121.481121666667","24.9637116666667","6500600","新店區"
"231047","187-VK","2018/07/26 20:49:24","新北市新店區寶元路二段1巷2號","121.55074","24.9840666666667","6500600","新店區"
"231054","KEA-2219","2018/07/26 20:49:25","新北市新店區中正路75巷71號","121.543105","24.9688516666667","6500600","新店區"
"231057","256-BX","2018/07/26 20:49:33","新北市新店區永興路41號","121.54378","24.9378933333333","6500600","新店區"
"231042","268-BY","2018/07/26 20:49:18","新北市新店區寶高路120巷1號","121.554596666667","24.9760966666667","6500600","新店區"
"231051","278-BY","2018/07/26 20:49:25","新北市新店區中央五街84號","121.526336666667","24.976175","6500600","新店區"
"231050","AAD-862","2018/07/26 20:49:34","新北市新店區三民路32-1號","121.536641666667","24.971225","6500600","新店區"
"231058","3713-VJ","2018/07/26 20:49:26","新北市新店區溪園路401號","121.523785","24.9780716666667","6500600","新店區"
"231066","4716-K9","2018/07/26 20:49:19","新北市新店區安民街365巷1弄10號","121.516508333333","24.97528","6500600","新店區"
"231056","4715-K9","2018/07/26 20:49:16","新北市新店區安德街116巷26弄3號","121.508671666667","24.9619316666667","6500600","新店區"
"231067","4772-VM","2018/07/26 20:49:21","新北市新店區安華路28-1號","121.51988","24.9607733333333","6500600","新店區"
"231049","513-UM","2018/07/26 20:49:28","新北市新店區永業路81巷1弄1號","121.529715","24.9494533333333","6500600","新店區"
"231063","616-UM","2018/07/26 20:49:33","新北市新店區富貴街11巷34號","121.495006666667","24.948405","6500600","新店區"
"231045","617-UM","2018/07/26 20:49:34","新北市新店區北新路一段91號","121.538836666667","24.9618916666667","6500600","新店區"
"231061","619-UM","2018/07/26 20:49:27","新北市新店區新和街97號","121.52117","24.9865583333333","6500600","新店區"
"231068","718-UY","2018/07/26 20:49:34","新北市新店區中興路三段228巷28號","121.544751666667","24.9834783333333","6500600","新店區"
"231064","719-UM","2018/07/26 20:48:54","新北市新店區安民街389號","121.516083333333","24.9770716666667","6500600","新店區"
"231062","720-UM","2018/07/26 20:49:31","新北市新店區和成街18巷18號","121.487598333333","24.9463366666667","6500600","新店區"
"231060","897-TW","2018/07/26 20:49:28","新北市新店區安康路三段800號","121.470925","24.9400233333333","6500600","新店區"
"231043","899-TW","2018/07/26 20:49:29","新北市新店區建國路97巷2號","121.540386666667","24.976955","6500600","新店區"
"241011","013-R5","2018/07/26 20:49:34","新北市三重區龍濱路205巷11號","121.502695","25.0718833333333","6500200","三重區"
"241028","022-UY","2018/07/26 20:49:14","新北市三重區中正南路41巷1號","121.49364","25.0600733333333","6500200","三重區"
"241008","059-VK","2018/07/26 20:49:27","新北市三重區永福街72巷11號","121.479513333333","25.0768983333333","6500200","三重區"
"241022","060-VK","2018/07/26 20:49:31","新北市三重區過圳街27-5號","121.488056666667","25.0624283333333","6500200","三重區"
"241031","061-VK","2018/07/26 20:49:14","新北市三重區重陽路一段113巷1弄1號","121.487491666667","25.05983","6500200","三重區"
"241015","062-VK","2018/07/26 20:49:25","新北市三重區自強路一段8號","121.498785","25.0682966666667","6500200","三重區"
"241017","063-VK","2018/07/26 20:49:30","新北市三重區民生街1號","121.491956666667","25.067405","6500200","三重區"
"241024","065-VK","2018/07/26 20:49:30","新北市三重區國道路一段58巷20號","121.481285","25.072055","6500200","三重區"
"241026","066-VK","2018/07/26 20:49:20","新北市三重區文化南路3號","121.500008333333","25.062415","6500200","三重區"
"241002","090-VK","2018/07/26 20:49:35","新北市三重區仁義街167巷55號","121.49896","25.082375","6500200","三重區"
"241019","742-BX","2018/07/26 20:49:21","新北市三重區三張街49號","121.491265","25.071155","6500200","三重區"
"241005","262-UM","2018/07/26 20:49:26","新北市三重區五華街141巷50號","121.492911666667","25.086285","6500200","三重區"
"241016","266-UM","2018/07/26 20:49:33","新北市三重區正義北路204號","121.496418333333","25.0672583333333","6500200","三重區"
"241009","267-UM","2018/07/26 20:49:21","新北市三重區三和路四段197號","121.482073333333","25.0792033333333","6500200","三重區"
"241018","268-UM","2018/07/26 20:49:28","新北市三重區正義北路311號","121.494283333333","25.0711933333333","6500200","三重區"
"241032","269-UM","2018/07/26 20:49:32","新北市三重區重陽路一段120巷48號","121.485076666667","25.0601583333333","6500200","三重區"
"241013","270-UM","2018/07/26 20:49:28","新北市三重區仁賢街12-1號","121.49568","25.07491","6500200","三重區"
"241025","271-UM","2018/07/26 20:49:32","新北市三重區貴陽街14號","121.484243333333","25.06189","6500200","三重區"
"241007","398-BY","2018/07/26 20:49:28","新北市三重區慈愛街8號","121.484515","25.0783983333333","6500200","三重區"
"241030","413-TH","2018/07/26 20:49:28","新北市三重區昌隆街26號","121.491975","25.0523133333333","6500200","三重區"
"241004","475-VK","2018/07/26 20:49:25","新北市三重區分子尾街36-1號","121.489478333333","25.081015","6500200","三重區"
"241020","478-VK","2018/07/26 20:49:26","新北市三重區忠孝路一段101號","121.489486666667","25.0721366666667","6500200","三重區"
"241014","543-UM","2018/07/26 20:49:22","新北市三重區安和路48號","121.500785","25.069745","6500200","三重區"
"241023","545-UM","2018/07/26 20:49:12","新北市三重區三民街146巷3弄2號","121.481523333333","25.0645683333333","6500200","三重區"
"241001","547-UM","2018/07/26 20:49:19","新北市三重區自強路三段76巷9號","121.486441666667","25.074175","6500200","三重區"
"241006","AAD-863","2018/07/26 20:49:32","新北市三重區車路頭街139巷14號","121.484291666667","25.0762316666667","6500200","三重區"
"241012","941-UM","2018/07/26 20:49:18","新北市三重區仁信街27號","121.501276666667","25.0755933333333","6500200","三重區"
"241029","942-UM","2018/07/26 20:49:20","新北市三重區重安街14號","121.490286666667","25.0581933333333","6500200","三重區"
"241033","AAC-255","2018/07/26 20:49:21","新北市三重區光復路二段1號","121.472313333333","25.0533433333333","6500200","三重區"
"247010","KEA-2869","2018/07/26 20:49:19","新北市蘆洲區鷺江街93號","121.476811666667","25.08385","6501400","蘆洲區"
"235069","4980-A6","2018/07/26 20:49:31","新北市中和區員山路379號","121.480986666667","25.002395","6500300","中和區"
"247024","893-R6","2018/07/26 20:49:26","新北市蘆洲區長樂路136號","121.462196666667","25.0901366666667","6501400","蘆洲區"
"247022","500-BY","2018/07/26 20:49:28","新北市蘆洲區中正路164號","121.468661666667","25.085725","6501400","蘆洲區"
"247012","339-TH","2018/07/26 20:49:26","新北市蘆洲區集賢路224巷12號","121.481955","25.0869433333333","6501400","蘆洲區"
"247004","337-TH","2018/07/26 20:49:26","新北市蘆洲區長安街101號","121.461541666667","25.0807883333333","6501400","蘆洲區"
"247006","336-TH","2018/07/26 20:49:26","新北市蘆洲區永安南路二段18號","121.467726666667","25.0771666666667","6501400","蘆洲區"
"247016","007-UY","2018/07/26 20:49:28","新北市蘆洲區中山二路253號","121.470011666667","25.079885","6501400","蘆洲區"
"247002","002-UY","2018/07/26 20:49:23","新北市蘆洲區長安街240號","121.457733333333","25.0856816666667","6501400","蘆洲區"
"247020","001-UY","2018/07/26 20:49:17","新北市蘆洲區仁愛街64號","121.47146","25.093875","6501400","蘆洲區"
"222001","KEA-2212","2018/07/26 20:49:18","新北市深坑區北深路三段133號","121.604011666667","25.00255","6501800","深坑區"
"251001","011-UM","2018/07/26 20:49:31","新北市淡水區淡金路一段69號","121.458791666667","25.1731116666667","6501000","淡水區"
"251013","KEA-2871","2018/07/26 20:49:15","新北市淡水區行忠路169號","121.45652","25.20105","6501000","淡水區"
"251016","179-VK","2018/07/26 20:49:16","新北市淡水區淡金路四段469號","121.451753333333","25.2238816666667","6501000","淡水區"
"251014","180-VK","2018/07/26 20:49:34","新北市淡水區公埔子32-8號","121.46165","25.2323783333333","6501000","淡水區"
"251015","182-VK","2018/07/26 20:49:16","新北市淡水區淡金路四段542巷17號","121.452718333333","25.2270966666667","6501000","淡水區"
"251010","413-VK","2018/07/26 20:49:29","新北市淡水區沙崙路145號","121.42342","25.1829733333333","6501000","淡水區"
"251012","441-VK","2018/07/26 20:49:31","新北市淡水區淡金路四段514號","121.45207","25.2257133333333","6501000","淡水區"
"251007","442-VK","2018/07/26 20:49:30","新北市淡水區學府路102巷66號","121.453593333333","25.17102","6501000","淡水區"
"251011","650-BX","2018/07/26 20:49:26","新北市淡水區新民街一段13號","121.433003333333","25.184715","6501000","淡水區"
"251002","672-BX","2018/07/26 20:49:21","新北市淡水區中正東路6號","121.44705","25.167075","6501000","淡水區"
"251003","766-UM","2018/07/26 20:49:21","新北市淡水區中山北路一段247巷102號","121.442203333333","25.179555","6501000","淡水區"
"237014","433-BY","2018/07/26 20:49:26","新北市三峽區中山路459巷163-3號","121.349151666667","24.9333283333333","6500900","三峽區"
"242034","AAC-296","2018/07/26 20:49:29","新北市新莊區中正路415號","121.444775","25.0344633333333","6500500","新莊區"
"242058","986-R7","2018/07/26 20:49:24","新北市新莊區民安路138號","121.424136666667","25.0253783333333","6500500","新莊區"
"242029","705-TV","2018/07/26 20:49:20","新北市新莊區新泰路202號","121.44715","25.0385716666667","6500500","新莊區"
"242027","615-BX","2018/07/26 20:49:24","新北市新莊區環河路48-7號","121.436675","25.00977","6500500","新莊區"
"242042","566-BX","2018/07/26 20:49:16","新北市新莊區天祥街12號","121.417283333333","25.0271516666667","6500500","新莊區"
"242044","400-BY","2018/07/26 20:49:28","新北市新莊區龍安路108號","121.418388333333","25.0205083333333","6500500","新莊區"
"242023","362-BY","2018/07/26 20:49:15","新北市新莊區環河路116-1號","121.460698333333","25.0378633333333","6500500","新莊區"
"242061","353-BY","2018/07/26 20:49:17","新北市新莊區莊崑路31號","121.432376666667","24.99968","6500500","新莊區"
"242009","132-UY","2018/07/26 20:49:32","新北市新莊區幸福路564巷2弄2號","121.454466666667","25.0495483333333","6500500","新莊區"
"242048","172-VK","2018/07/26 20:49:00","新北市新莊區環河路455號","121.44049","25.0210466666667","6500500","新莊區"
"242015","347-TH","2018/07/26 20:49:34","新北市新莊區中環路一段287號","121.44202","25.0320233333333","6500500","新莊區"
"242002","349-TH","2018/07/26 20:49:32","新北市新莊區中港路五守新村16巷2號","121.45472","25.03888","6500500","新莊區"
"221015","131-UY","2018/07/26 20:49:14","新北市汐止區大同路二段553號","121.662425","25.06967","6501100","汐止區"
"221023","279-VK","2018/07/26 20:49:29","新北市汐止區汐萬路一段256巷3號","121.652508333333","25.07462","6501100","汐止區"
"221027","281-BY","2018/07/26 20:49:28","新北市汐止區大同路二段364號","121.657518333333","25.06722","6501100","汐止區"
"221033","297-VK","2018/07/26 20:49:17","新北市汐止區合順街18巷8弄5號","121.620306666667","25.041915","6501100","汐止區"
"221029","298-VK","2018/07/26 20:49:19","新北市汐止區工建路98號","121.639565","25.06362","6501100","汐止區"
"221021","299-VK","2018/07/26 20:49:22","新北市汐止區新台五路一段212-1號","121.65584","25.0631083333333","6501100","汐止區"
"221035","622-UM","2018/07/26 20:49:31","新北市汐止區汐萬路一段256巷3號","121.652176666667","25.0747416666667","6501100","汐止區"
"221038","646-BX","2018/07/26 20:49:30","新北市汐止區汐萬路一段256巷1號","121.65201","25.0747933333333","6501100","汐止區"
"221002","707-TV","2018/07/26 20:49:31","新北市汐止區福德二路146號","121.630585","25.0651366666667","6501100","汐止區"
"221018","753-BX","2018/07/26 20:49:18","新北市汐止區大同路二段397號","121.658061666667","25.0672866666667","6501100","汐止區"
"242036","280-VK","2018/07/26 20:49:28","新北市新莊區中正路589號","121.434246666667","25.032505","6500500","新莊區"
"220070","806-UM","2018/07/26 20:49:30","新北市林口區汕頭32號","121.366661666667","25.1350283333333","6500100","板橋區"
