"lineid","car","time","location","longitude","latitude","cityid","cityname"
"234077","969-R7","2018/07/26 20:59:27","新北市林口區汕頭32號","121.366358333333","25.1347183333333","6500400","永和區"
"243013","AAD-798","2018/07/26 20:59:13","新北市泰山區泰林路三段745巷145號","121.405516666667","25.0676733333333","6501600","泰山區"
"231059","046-UY","2018/07/26 20:59:15","新北市新店區僑信路119號","121.50077","24.94599","6500600","新店區"
"231040","047-UY","2018/07/26 20:59:28","新北市新店區北新路一段351號","121.541933333333","24.96941","6500600","新店區"
"231052","108-UY","2018/07/26 20:59:31","新北市新店區環河路29巷1號","121.536426666667","24.9612433333333","6500600","新店區"
"231065","110-UY","2018/07/26 20:59:25","新北市新店區安祥路69巷79號","121.482865","24.9591916666667","6500600","新店區"
"231047","187-VK","2018/07/26 20:59:24","新北市新店區寶元路二段1巷2號","121.550511666667","24.984185","6500600","新店區"
"231054","KEA-2219","2018/07/26 20:59:25","新北市新店區北新路一段96巷23號","121.543005","24.96888","6500600","新店區"
"231042","268-BY","2018/07/26 20:59:18","新北市新店區寶橋路98號","121.547251666667","24.9755983333333","6500600","新店區"
"231051","278-BY","2018/07/26 20:59:25","新北市新店區溪園路221號","121.525858333333","24.983415","6500600","新店區"
"231050","AAD-862","2018/07/26 20:59:34","新北市新店區三民路75巷3弄2號","121.535678333333","24.97096","6500600","新店區"
"231058","3713-VJ","2018/07/26 20:59:26","新北市新店區安康路二段414巷2號","121.495813333333","24.957815","6500600","新店區"
"231066","4716-K9","2018/07/26 20:59:19","新北市新店區吉安街14號","121.516775","24.9657166666667","6500600","新店區"
"231067","4772-VM","2018/07/26 20:59:21","新北市新店區安德街49號","121.511023333333","24.9622533333333","6500600","新店區"
"231049","513-UM","2018/07/26 20:59:28","新北市新店區安光路16號","121.513676666667","24.9648016666667","6500600","新店區"
"231063","616-UM","2018/07/26 20:59:20","新北市新店區富貴街6巷2號","121.494645","24.95018","6500600","新店區"
"231045","617-UM","2018/07/26 20:59:14","新北市新店區柴埕路100-2號","121.503206666667","24.959395","6500600","新店區"
"231061","619-UM","2018/07/26 20:59:27","新北市新店區永安街107號","121.520896666667","24.9856333333333","6500600","新店區"
"231068","718-UY","2018/07/26 20:59:14","新北市新店區寶元路二段64巷1號","121.547253333333","24.981065","6500600","新店區"
"231064","719-UM","2018/07/26 20:57:54","新北市新店區安民街303巷9弄2號","121.516898333333","24.9733716666667","6500600","新店區"
"231062","720-UM","2018/07/26 20:59:31","新北市新店區裕合街109號","121.490218333333","24.94926","6500600","新店區"
"231060","897-TW","2018/07/26 20:59:29","新北市新店區安康路三段451號","121.483015","24.94963","6500600","新店區"
"231043","899-TW","2018/07/26 20:59:28","新北市新店區中正路397號","121.534398333333","24.9773666666667","6500600","新店區"
"241011","013-R5","2018/07/26 20:59:34","新北市三重區秀江街119號","121.499708333333","25.0721983333333","6500200","三重區"
"241028","022-UY","2018/07/26 20:59:34","新北市三重區正義南路60-1號","121.49825","25.0606466666667","6500200","三重區"
"241008","059-VK","2018/07/26 20:59:27","新北市三重區力行路二段162巷11號","121.482456666667","25.0765616666667","6500200","三重區"
"241022","060-VK","2018/07/26 20:59:31","新北市三重區重陽路二段19巷12號","121.488078333333","25.0624533333333","6500200","三重區"
"241031","061-VK","2018/07/26 20:59:34","新北市三重區重陽路一段113巷1弄1號","121.487485","25.0598266666667","6500200","三重區"
"241015","062-VK","2018/07/26 20:59:25","新北市三重區福德北路46號","121.502025","25.0655033333333","6500200","三重區"
"241017","063-VK","2018/07/26 20:59:30","新北市三重區大仁街23號","121.492008333333","25.06461","6500200","三重區"
"241024","065-VK","2018/07/26 20:59:30","新北市三重區國道路一段58巷20號","121.481293333333","25.072065","6500200","三重區"
"241026","066-VK","2018/07/26 20:59:20","新北市三重區文化南路7號","121.499993333333","25.06238","6500200","三重區"
"241002","090-VK","2018/07/26 20:59:35","新北市三重區五華街1巷32號","121.496261666667","25.0800233333333","6500200","三重區"
"241003","091-VK","2018/07/26 20:59:26","新北市三重區進安街198號","121.493861666667","25.0859633333333","6500200","三重區"
"241019","742-BX","2018/07/26 20:59:21","新北市三重區自強路二段50巷29號","121.488153333333","25.0696966666667","6500200","三重區"
"241005","262-UM","2018/07/26 20:59:26","新北市三重區五華街167號","121.490111666667","25.0850033333333","6500200","三重區"
"241016","266-UM","2018/07/26 20:59:33","新北市三重區自強路一段107號","121.495411666667","25.0665066666667","6500200","三重區"
"241009","267-UM","2018/07/26 20:59:21","新北市三重區三和路四段165-7號","121.483121666667","25.0786333333333","6500200","三重區"
"241018","268-UM","2018/07/26 20:59:28","新北市三重區雙園街103號","121.493758333333","25.0673116666667","6500200","三重區"
"241032","269-UM","2018/07/26 20:59:32","新北市三重區三陽路133號","121.483145","25.0588866666667","6500200","三重區"
"241013","270-UM","2018/07/26 20:59:28","新北市三重區仁賢街12-1號","121.495688333333","25.0748883333333","6500200","三重區"
"241025","271-UM","2018/07/26 20:59:12","新北市三重區貴陽街18-1號","121.484203333333","25.0618833333333","6500200","三重區"
"241007","398-BY","2018/07/26 20:59:28","新北市三重區慈愛街1號","121.484608333333","25.0783883333333","6500200","三重區"
"241030","413-TH","2018/07/26 20:59:28","新北市三重區中正南路262號","121.493265","25.0526716666667","6500200","三重區"
"241004","475-VK","2018/07/26 20:59:25","新北市三重區仁愛街423-1號","121.490416666667","25.0814466666667","6500200","三重區"
"241020","478-VK","2018/07/26 20:59:26","新北市三重區忠孝路二段35號","121.485965","25.0710616666667","6500200","三重區"
"241014","543-UM","2018/07/26 20:59:22","新北市三重區長榮路75號","121.502615","25.0690633333333","6500200","三重區"
"241023","545-UM","2018/07/26 20:59:32","新北市三重區洛陽街45巷15號","121.48235","25.063765","6500200","三重區"
"241001","547-UM","2018/07/26 20:59:19","新北市三重區自強路三段97號","121.487703333333","25.0751533333333","6500200","三重區"
"241006","AAD-863","2018/07/26 20:59:32","新北市三重區力行路二段162巷55號","121.480883333333","25.076445","6500200","三重區"
"241012","941-UM","2018/07/26 20:59:18","新北市三重區仁信街27號","121.501305","25.0756133333333","6500200","三重區"
"241029","942-UM","2018/07/26 20:59:20","新北市三重區正義南路111號","121.498265","25.058545","6500200","三重區"
"241033","AAC-255","2018/07/26 20:59:21","新北市三重區光復路二段2號","121.472066666667","25.05353","6500200","三重區"
"247010","KEA-2869","2018/07/26 20:59:19","新北市蘆洲區鷺江街76號","121.477015","25.0837883333333","6501400","蘆洲區"
"235069","4980-A6","2018/07/26 20:59:31","新北市中和區中正路637巷32號","121.484976666667","24.9945733333333","6500300","中和區"
"247024","893-R6","2018/07/26 20:59:26","新北市蘆洲區長興路213號","121.461216666667","25.0863416666667","6501400","蘆洲區"
"247014","546-UM","2018/07/26 20:59:24","新北市蘆洲區中山二路36巷15號","121.474268333333","25.08293","6501400","蘆洲區"
"247022","500-BY","2018/07/26 20:59:28","新北市蘆洲區三民路226號","121.46863","25.0895566666667","6501400","蘆洲區"
"247012","339-TH","2018/07/26 20:59:26","新北市蘆洲區民權路5號","121.476636666667","25.0857316666667","6501400","蘆洲區"
"247004","337-TH","2018/07/26 20:59:26","新北市蘆洲區永安南路二段266號","121.458861666667","25.0806066666667","6501400","蘆洲區"
"247006","336-TH","2018/07/26 20:59:26","新北市蘆洲區永安南路二段18號","121.467661666667","25.0771416666667","6501400","蘆洲區"
"247018","057-VK","2018/07/26 20:59:35","新北市蘆洲區民權路99號","121.47269","25.0891283333333","6501400","蘆洲區"
"247016","007-UY","2018/07/26 20:59:28","新北市蘆洲區正和街81號","121.468321666667","25.0808066666667","6501400","蘆洲區"
"247020","001-UY","2018/07/26 20:59:17","新北市蘆洲區民族路488號","121.471151666667","25.0912966666667","6501400","蘆洲區"
"251005","010-UM","2018/07/26 20:59:29","新北市淡水區學府路51巷2弄4號","121.447743333333","25.169645","6501000","淡水區"
"251001","011-UM","2018/07/26 20:59:31","新北市淡水區淡金路二段147號","121.449658333333","25.1828166666667","6501000","淡水區"
"251013","KEA-2871","2018/07/26 20:59:15","新北市淡水區行忠路146號","121.45457","25.1993983333333","6501000","淡水區"
"251016","179-VK","2018/07/26 20:59:16","新北市淡水區牛埔子11-1號","121.450295","25.2184466666667","6501000","淡水區"
"251014","180-VK","2018/07/26 20:59:14","新北市淡水區淡金路五段72號","121.454963333333","25.233545","6501000","淡水區"
"251015","182-VK","2018/07/26 20:59:16","新北市淡水區淡金路四段542巷17號","121.452728333333","25.2270866666667","6501000","淡水區"
"251010","413-VK","2018/07/26 20:59:29","新北市淡水區中正路一段116-3號","121.423928333333","25.17874","6501000","淡水區"
"251012","441-VK","2018/07/26 20:59:31","新北市淡水區淡金路五段110號","121.45652","25.23668","6501000","淡水區"
"251007","442-VK","2018/07/26 20:59:30","新北市淡水區學府路100巷2號","121.450178333333","25.1717816666667","6501000","淡水區"
"251011","650-BX","2018/07/26 20:59:26","新北市淡水區新民街322巷2號","121.435275","25.1833916666667","6501000","淡水區"
"251002","672-BX","2018/07/26 20:59:25","新北市淡水區英專路59號","121.44557","25.171035","6501000","淡水區"
"251003","766-UM","2018/07/26 20:59:21","新北市淡水區新春街125巷5號","121.441495","25.1823683333333","6501000","淡水區"
"242048","172-VK","2018/07/26 20:59:21","新北市樹林區太平路277號","121.418965","24.9727666666667","6500500","新莊區"
"242002","349-TH","2018/07/26 20:59:12","新北市新莊區中港路18號","121.45502","25.0371233333333","6500500","新莊區"
"221029","298-VK","2018/07/26 20:59:19","新北市汐止區汐萬路一段256巷1號","121.651921666667","25.074775","6501100","汐止區"
"221018","753-BX","2018/07/26 20:59:18","新北市汐止區汐萬路一段256巷3號","121.65332","25.0745116666667","6501100","汐止區"
"220070","806-UM","2018/07/26 20:59:30","新北市八里區中山路三段409號","121.368488333333","25.1349233333333","6500100","板橋區"
