"lineid","car","time","location","longitude","latitude","cityid","cityname"
"234077","969-R7","2018/07/26 21:09:27","新北市八里區中山路三段409號","121.368558333333","25.1349383333333","6500400","永和區"
"243013","AAD-798","2018/07/26 21:09:13","新北市泰山區黎明路3號","121.421066666667","25.063245","6501600","泰山區"
"231059","046-UY","2018/07/26 21:09:15","新北市新店區僑義路30號","121.500708333333","24.949665","6500600","新店區"
"231040","047-UY","2018/07/26 21:09:28","新北市新店區北新路一段351號","121.541893333333","24.9694266666667","6500600","新店區"
"231065","110-UY","2018/07/26 21:09:25","新北市新店區安祥路69巷41弄19號","121.48209","24.9610583333333","6500600","新店區"
"231047","187-VK","2018/07/26 21:09:24","新北市新店區中興路三段160號","121.544445","24.9807","6500600","新店區"
"231054","KEA-2219","2018/07/26 21:09:25","新北市新店區大新街7巷38號","121.54437","24.967695","6500600","新店區"
"231042","268-BY","2018/07/26 21:09:18","新北市新店區寶興路60巷3號","121.549846666667","24.9717566666667","6500600","新店區"
"231051","278-BY","2018/07/26 21:09:25","新北市新店區中正路695巷6-1號","121.534036666667","24.99081","6500600","新店區"
"231050","AAD-862","2018/07/26 21:09:34","新北市新店區中華路117巷1號","121.538065","24.9685733333333","6500600","新店區"
"231066","4716-K9","2018/07/26 21:09:19","新北市新店區薏仁坑路自強巷1號","121.496985","24.958105","6500600","新店區"
"231063","616-UM","2018/07/26 21:09:20","新北市新店區玫瑰路66巷1號","121.495916666667","24.9451783333333","6500600","新店區"
"231061","619-UM","2018/07/26 21:09:29","新北市新店區永安街22-1號","121.517445","24.986455","6500600","新店區"
"231060","897-TW","2018/07/26 21:09:29","新北市新店區安康路二段317號","121.49974","24.9568083333333","6500600","新店區"
"241011","013-R5","2018/07/26 21:09:14","新北市三重區秀江街119號","121.499698333333","25.0722433333333","6500200","三重區"
"241028","022-UY","2018/07/26 21:09:14","新北市三重區正義南路60-1號","121.49825","25.0606116666667","6500200","三重區"
"241008","059-VK","2018/07/26 21:09:27","新北市三重區三和路三段8號","121.49707","25.0701566666667","6500200","三重區"
"241022","060-VK","2018/07/26 21:09:31","新北市三重區中正北路64巷20號","121.48618","25.0637233333333","6500200","三重區"
"241031","061-VK","2018/07/26 21:09:14","新北市三重區重新路五段320號","121.478471666667","25.048835","6500200","三重區"
"241015","062-VK","2018/07/26 21:09:29","新北市三重區長元街61號","121.502641666667","25.0665566666667","6500200","三重區"
"241017","063-VK","2018/07/26 21:09:30","新北市三重區國隆路31號","121.492403333333","25.06447","6500200","三重區"
"241024","065-VK","2018/07/26 21:09:30","新北市三重區國道路一段58巷20號","121.481295","25.07204","6500200","三重區"
"241026","066-VK","2018/07/26 21:09:20","新北市三重區文化南路43號","121.50021","25.0614766666667","6500200","三重區"
"241002","090-VK","2018/07/26 21:09:15","新北市三重區五華街11號","121.494953333333","25.0802716666667","6500200","三重區"
"241003","091-VK","2018/07/26 21:09:26","新北市三重區五華街71巷118號","121.495046666667","25.0845816666667","6500200","三重區"
"241019","742-BX","2018/07/26 21:09:21","新北市三重區自強路二段74巷11號","121.488175","25.0699133333333","6500200","三重區"
"241005","262-UM","2018/07/26 21:09:26","新北市三重區三信路186號","121.487953333333","25.086125","6500200","三重區"
"241016","266-UM","2018/07/26 21:09:33","新北市三重區信義西街138號","121.495643333333","25.06434","6500200","三重區"
"241009","267-UM","2018/07/26 21:09:21","新北市三重區忠孝路二段124號","121.483085","25.0688133333333","6500200","三重區"
"241018","268-UM","2018/07/26 21:09:28","新北市三重區正義北路332-1號","121.494371666667","25.070495","6500200","三重區"
"241032","269-UM","2018/07/26 21:09:32","新北市三重區新北大道一段125號","121.483075","25.0613983333333","6500200","三重區"
"241013","270-UM","2018/07/26 21:09:28","新北市三重區仁愛街125巷1號","121.496026666667","25.0751683333333","6500200","三重區"
"241025","271-UM","2018/07/26 21:09:32","新北市三重區中正北路208巷10弄4號","121.482358333333","25.06694","6500200","三重區"
"241007","398-BY","2018/07/26 21:09:28","新北市三重區三和路四段145巷85號","121.4864","25.078745","6500200","三重區"
"241030","413-TH","2018/07/26 21:09:28","新北市三重區五谷王北街20巷15弄1號","121.474956666667","25.0485183333333","6500200","三重區"
"241004","475-VK","2018/07/26 21:09:25","新北市三重區仁愛街423-1號","121.490423333333","25.0814666666667","6500200","三重區"
"241020","478-VK","2018/07/26 21:09:26","新北市三重區忠孝路二段35號","121.48594","25.0711066666667","6500200","三重區"
"241014","543-UM","2018/07/26 21:09:22","新北市三重區長安街82-1號","121.501368333333","25.0676666666667","6500200","三重區"
"241023","545-UM","2018/07/26 21:09:32","新北市三重區洛陽街45巷15號","121.482336666667","25.06376","6500200","三重區"
"241001","547-UM","2018/07/26 21:09:19","新北市三重區溪尾街56號","121.490578333333","25.0775116666667","6500200","三重區"
"241006","AAD-863","2018/07/26 21:09:32","新北市三重區中正北路105號","121.4894","25.063255","6500200","三重區"
"241012","941-UM","2018/07/26 21:09:18","新北市三重區仁信街27號","121.501283333333","25.0755333333333","6500200","三重區"
"241029","942-UM","2018/07/26 21:09:20","新北市三重區正義南路111號","121.49824","25.058565","6500200","三重區"
"241033","AAC-255","2018/07/26 21:09:30","新北市三重區重光街107-1號","121.466336666667","25.0647233333333","6500200","三重區"
"247010","KEA-2869","2018/07/26 21:09:19","新北市蘆洲區鷺江街42號","121.477301666667","25.083115","6501400","蘆洲區"
"247024","893-R6","2018/07/26 21:09:26","新北市蘆洲區長興路50巷1號","121.463801666667","25.0837883333333","6501400","蘆洲區"
"247014","546-UM","2018/07/26 21:09:24","新北市蘆洲區中央路155號","121.472681666667","25.0846866666667","6501400","蘆洲區"
"247022","500-BY","2018/07/26 21:09:28","新北市蘆洲區中正路198號","121.466755","25.088255","6501400","蘆洲區"
"247012","339-TH","2018/07/26 21:09:26","新北市蘆洲區民族路22號","121.476086666667","25.0841316666667","6501400","蘆洲區"
"247004","337-TH","2018/07/26 21:09:26","新北市蘆洲區永安南路二段282號","121.457845","25.08095","6501400","蘆洲區"
"247006","336-TH","2018/07/26 21:09:26","新北市蘆洲區和平路91號","121.468195","25.0786783333333","6501400","蘆洲區"
"247018","057-VK","2018/07/26 21:09:14","新北市蘆洲區民族路408巷6號","121.474801666667","25.09178","6501400","蘆洲區"
"247008","056-VK","2018/07/26 21:09:34","新北市蘆洲區民生街24號","121.47506","25.0789283333333","6501400","蘆洲區"
"247016","007-UY","2018/07/26 21:09:28","新北市蘆洲區中正路185巷78弄1號","121.466098333333","25.0843016666667","6501400","蘆洲區"
"247002","002-UY","2018/07/26 21:09:22","新北市蘆洲區長榮路500號","121.459428333333","25.089655","6501400","蘆洲區"
"247020","001-UY","2018/07/26 21:09:17","新北市蘆洲區民族路488號","121.471076666667","25.09139","6501400","蘆洲區"
"251009","008-UM","2018/07/26 21:09:21","新北市淡水區民族路112巷40號","121.462025","25.13437","6501000","淡水區"
"251005","010-UM","2018/07/26 21:09:29","新北市淡水區博愛街14號","121.446055","25.1698683333333","6501000","淡水區"
"251001","011-UM","2018/07/26 21:09:32","新北市淡水區新市一路三段18號","121.445526666667","25.1829416666667","6501000","淡水區"
"251013","KEA-2871","2018/07/26 21:09:15","新北市淡水區行忠路328號","121.460466666667","25.19966","6501000","淡水區"
"251016","179-VK","2018/07/26 21:09:16","新北市淡水區前洲子2號","121.444656666667","25.2167583333333","6501000","淡水區"
"251014","180-VK","2018/07/26 21:09:15","新北市淡水區六塊厝2-2號","121.45014","25.2409283333333","6501000","淡水區"
"251015","182-VK","2018/07/26 21:09:16","新北市淡水區淡金路四段542巷67號","121.454818333333","25.2269583333333","6501000","淡水區"
"251010","413-VK","2018/07/26 21:09:29","新北市淡水區中正路一段102號","121.42434","25.1776983333333","6501000","淡水區"
"251012","441-VK","2018/07/26 21:09:31","新北市淡水區淡金路五段172號","121.457028333333","25.24003","6501000","淡水區"
"251007","442-VK","2018/07/26 21:09:30","新北市淡水區英專路42-4號","121.445866666667","25.1703166666667","6501000","淡水區"
"251011","650-BX","2018/07/26 21:09:26","新北市淡水區新民街222巷16弄8號","121.43702","25.18013","6501000","淡水區"
"251002","672-BX","2018/07/26 21:09:21","新北市淡水區水源街一段145號","121.447406666667","25.1718483333333","6501000","淡水區"
"251003","766-UM","2018/07/26 21:09:21","新北市淡水區新春街96號","121.4391","25.1823783333333","6501000","淡水區"
"220070","806-UM","2018/07/26 21:09:30","新北市八里區中山路三段385號","121.372098333333","25.1374883333333","6500100","板橋區"
