"lineid","car","time","location","longitude","latitude","cityid","cityname"
"232001","290-BY","2018/10/29 06:39:24","新北市坪林區北宜路八段558號","121.717835","24.9093466666667","6502000","坪林區"
"232012","291-BY","2018/10/29 06:39:23","新北市坪林區北宜路八段558號","121.717873333333","24.9093616666667","6502000","坪林區"
"232005","758-BX","2018/10/29 06:39:11","新北市坪林區北宜路八段558號","121.718061666667","24.9093466666667","6502000","坪林區"
"235001","611-BX","2018/10/29 06:39:15","新北市中和區圓通路333號","121.491943333333","24.9906566666667","6500300","中和區"
"235010","733-UM","2018/10/29 06:39:13","新北市中和區和平街29-1號","121.50745","24.991075","6500300","中和區"
"223006","022-BY","2018/10/29 06:39:24","新北市石碇區小粗坑(潭邊里)2號","121.669631666667","24.98299","6501900","石碇區"
"223002","KEA-2673","2018/10/29 06:39:15","新北市石碇區石碇東街141號","121.659081666667","24.98947","6501900","石碇區"
"223003","205-TH","2018/10/29 06:39:25","新北市石碇區湳窟22號","121.660941666667","24.9909966666667","6501900","石碇區"
"223008","406-TH","2018/10/29 06:39:23","新北市石碇區碇坪路一段242號","121.675476666667","24.978615","6501900","石碇區"
"223007","661-BX","2018/10/29 06:39:18","新北市石碇區石崁1號","121.651903333333","25.0012683333333","6501900","石碇區"
"227005","282-VK","2018/10/29 06:39:20","新北市雙溪區牡丹里下坑13號","121.851328333333","25.05612","6502500","雙溪區"
"242001","233-RS","2018/10/29 06:39:09","新北市新莊區中港路303號","121.452838333333","25.0445233333333","6500500","新莊區"
