"lineid","car","time","location","longitude","latitude","cityid","cityname"
"234025","9371-KE","2018/01/12 15:29:50","新北市永和區福和路1號","121.526355","25.0097366666667","6500400","永和區"
"231002","001-UM","2018/01/12 15:29:34","新北市新店區環河路152號","121.535246666667","24.9669183333333","6500600","新店區"
"231025","0291-UT","2018/01/12 15:29:40","新北市新店區環河路105-12號","121.531833333333","24.970055","6500600","新店區"
"231037","0293-UT","2018/01/12 15:29:50","新北市新店區安興路105-1號","121.514631666667","24.97771","6500600","新店區"
"231028","046-UY","2018/01/12 15:29:38","新北市新店區僑信路27號","121.499361666667","24.9507716666667","6500600","新店區"
"231030","047-UY","2018/01/12 15:29:55","新北市新店區新和街54號","121.519753333333","24.9852616666667","6500600","新店區"
"231029","106-UY","2018/01/12 15:29:50","新北市新店區安康路三段525巷56號","121.481975","24.9452183333333","6500600","新店區"
"231018","107-UY","2018/01/12 15:29:51","新北市新店區中央七街99號","121.52619","24.9773733333333","6500600","新店區"
"231012","108-UY","2018/01/12 15:29:55","新北市新店區寶元路一段102號","121.545185","24.9833266666667","6500600","新店區"
"231022","187-VK","2018/01/12 15:29:48","新北市新店區金興路1號","121.548661666667","24.929645","6500600","新店區"
"231026","256-BX","2018/01/12 15:29:52","新北市新店區三民路117巷6弄1號","121.534123333333","24.9711566666667","6500600","新店區"
"231023","AAD-862","2018/01/12 15:29:42","新北市新店區北新路一段88巷3號","121.542175","24.9675533333333","6500600","新店區"
"231038","4715-K9","2018/01/12 15:29:37","新北市新店區安康路一段258-1號","121.520613333333","24.96463","6500600","新店區"
"231036","512-UM","2018/01/12 15:29:50","新北市新店區安祥路69巷41弄34號","121.482053333333","24.96084","6500600","新店區"
"231035","515-UM","2018/01/12 15:29:37","新北市新店區安興路81號","121.515568333333","24.975315","6500600","新店區"
"231006","617-UM","2018/01/12 15:29:41","新北市新店區安華路28-1號","121.519615","24.960765","6500600","新店區"
"231003","641-BX","2018/01/12 15:29:40","新北市新店區寶高路118號","121.554466666667","24.976015","6500600","新店區"
"231034","645-TV","2018/01/12 15:29:44","新北市新店區富貴街12巷1號","121.494011666667","24.9491266666667","6500600","新店區"
"231039","718-UY","2018/01/12 15:29:38","新北市新店區寶元路一段74巷1號","121.544123333333","24.984155","6500600","新店區"
"231032","720-UM","2018/01/12 15:29:41","新北市新店區雙城路129號","121.492771666667","24.946785","6500600","新店區"
"231005","897-TW","2018/01/12 15:29:35","新北市新店區建國路293巷1號","121.53669","24.9862","6500600","新店區"
"231004","899-TW","2018/01/12 15:29:46","新北市新店區民族路185號","121.537335","24.9764216666667","6500600","新店區"
"241003","091-VK","2018/01/12 15:29:44","新北市三重區環河南路261號","121.490386666667","25.0499516666667","6500200","三重區"
"241033","AAC-255","2018/01/12 15:29:42","新北市三重區成功路90號","121.488093333333","25.051355","6500200","三重區"
"235058","151-BY","2018/01/12 15:04:40","新北市中和區員山路36巷16-2號","121.485185","24.991485","6500300","中和區"
"235014","4979-A6","2018/01/12 15:29:49","新北市中和區景新街129號","121.505716666667","24.9973916666667","6500300","中和區"
"235033","4980-A6","2018/01/12 15:29:36","新北市中和區員山路359巷3號","121.480908333333","25.00197","6500300","中和區"
"235005","802-TS","2018/01/12 15:29:37","新北市中和區員山路36巷16-2號","121.485368333333","24.9917166666667","6500300","中和區"
"235023","AAC-215","2018/01/12 15:29:54","新北市中和區員山路30-11號","121.484215","24.9876716666667","6500300","中和區"
"236067","105-UM","2018/01/12 15:29:39","新北市土城區中央路二段212號","121.442006666667","24.9755983333333","6501300","土城區"
"236041","107-UM","2018/01/12 15:29:37","新北市土城區學府路一段164巷21號","121.453536666667","24.987365","6501300","土城區"
"236077","166-UM","2018/01/12 15:29:21","新北市土城區福安街104號","121.417395","24.9639583333333","6501300","土城區"
"236029","253-BX","2018/01/12 15:29:48","新北市土城區中央路一段118巷1弄19號","121.445626666667","24.987515","6501300","土城區"
"236025","269-VK","2018/01/12 15:29:44","新北市土城區明德路二段122號","121.444733333333","24.9843333333333","6501300","土城區"
"236013","270-VK","2018/01/12 15:29:52","新北市土城區廣興街28號","121.455688333333","24.9917233333333","6501300","土城區"
"236035","271-VK","2018/01/12 15:29:44","新北市土城區延吉街351號","121.464651666667","24.9839783333333","6501300","土城區"
"236019","401-BY","2018/01/12 15:29:55","新北市土城區金城路三段198號","121.4685","24.9880383333333","6501300","土城區"
"236057","912-UM","2018/01/12 15:29:50","新北市土城區中央路二段252號","121.441751666667","24.9745416666667","6501300","土城區"
"236046","913-UM","2018/01/12 15:29:51","新北市土城區青雲路145號","121.458705","24.9841966666667","6501300","土城區"
"236061","915-UM","2018/01/12 15:29:54","新北市土城區金城路三段33巷19號","121.465138333333","24.9872416666667","6501300","土城區"
"236054","AAC-216","2018/01/12 15:29:52","新北市土城區延和路207號","121.469686666667","24.9899933333333","6501300","土城區"
"221012","276-VK","2018/01/12 13:23:15","新北市汐止區汐萬路一段256巷3號","121.653455","25.0746483333333","6501100","汐止區"
"220050","245-BX","2018/01/12 15:29:41","新北市板橋區漢生東路83巷2號","121.466711666667","25.0157516666667","6500100","板橋區"
"220020","277-BY","2018/01/12 15:29:44","新北市樹林區八德街1022號","121.391091666667","24.96848","6500100","板橋區"
"220012","486-VK","2018/01/12 15:29:51","新北市板橋區南雅南路二段116號","121.452711666667","25.0006883333333","6500100","板橋區"
"220038","487-VK","2018/01/12 15:29:42","新北市板橋區四維路319號","121.462848333333","25.02899","6500100","板橋區"
"220052","561-BX","2018/01/12 15:29:39","新北市板橋區漢生東路43巷28號","121.46645","25.0175683333333","6500100","板橋區"
"220003","827-TW","2018/01/12 15:10:21","新北市板橋區華東街1-9號","121.448153333333","24.9949066666667","6500100","板橋區"
