"lineid","car","time","location","longitude","latitude","cityid","cityname"
"231037","0293-UT","2018/01/12 15:59:50","新北市新店區安民街46號","121.515945","24.9655233333333","6500600","新店區"
"231030","047-UY","2018/01/12 15:59:54","新北市新店區安和路三段33-1號","121.516853333333","24.9801166666667","6500600","新店區"
"231018","107-UY","2018/01/12 15:59:51","新北市新店區中正路663巷7弄15號","121.53299","24.9900933333333","6500600","新店區"
"231012","108-UY","2018/01/12 15:59:55","新北市新店區中正路439號","121.534015","24.9784883333333","6500600","新店區"
"231016","KEA-2219","2018/01/12 15:59:43","新北市新店區中正路282-9號","121.538161666667","24.9745183333333","6500600","新店區"
"231046","278-BY","2018/01/12 15:59:47","新北市新店區碧潭路40號","121.534255","24.9565083333333","6500600","新店區"
"231038","4715-K9","2018/01/12 15:59:57","新北市新店區安康路二段183巷14號","121.509668333333","24.958725","6500600","新店區"
"231035","515-UM","2018/01/12 15:59:37","新北市新店區安民街251巷10弄6號","121.516965","24.9726116666667","6500600","新店區"
"231003","641-BX","2018/01/12 15:59:20","新北市新店區寶興路70巷4號","121.551023333333","24.9707083333333","6500600","新店區"
"231034","645-TV","2018/01/12 15:59:44","新北市新店區吉祥街5巷1號","121.497251666667","24.9478483333333","6500600","新店區"
"231013","719-UM","2018/01/12 15:59:37","新北市新店區安民街5號","121.51515","24.9641866666667","6500600","新店區"
"241011","013-R5","2018/01/12 15:59:42","新北市三重區雙園街32號","121.496978333333","25.068","6500200","三重區"
"241028","022-UY","2018/01/12 15:59:56","新北市三重區大同南路122巷15號","121.497425","25.058515","6500200","三重區"
"241008","059-VK","2018/01/12 15:59:57","新北市三重區重新路四段121號","121.484878333333","25.05117","6500200","三重區"
"241015","062-VK","2018/01/12 15:59:54","新北市三重區重新路四段121號","121.485076666667","25.0520716666667","6500200","三重區"
"241017","063-VK","2018/01/12 15:59:40","新北市三重區民生街88-1號","121.48995","25.0641166666667","6500200","三重區"
"241024","065-VK","2018/01/12 15:59:41","新北市三重區中正北路145巷5弄1號","121.484355","25.0677316666667","6500200","三重區"
"241026","066-VK","2018/01/12 15:59:40","新北市三重區重新路二段97號","121.495881666667","25.0616533333333","6500200","三重區"
"241003","091-VK","2018/01/12 15:59:40","新北市三重區仁義街321號","121.495386666667","25.0843583333333","6500200","三重區"
"241020","156-TC","2018/01/12 15:59:55","新北市三重區車路頭街4巷23號","121.483151666667","25.0702233333333","6500200","三重區"
"241005","262-UM","2018/01/12 15:59:42","新北市三重區自強路四段32號","121.488868333333","25.07692","6500200","三重區"
"241018","265-UM","2018/01/12 15:59:53","新北市三重區大仁街22號","121.491523333333","25.0635766666667","6500200","三重區"
"241016","266-UM","2018/01/12 15:59:34","新北市三重區重新路四段121號","121.485173333333","25.05205","6500200","三重區"
"241022","267-UM","2018/01/12 15:59:48","新北市三重區中正北路176巷16號","121.482755","25.0660683333333","6500200","三重區"
"241013","270-UM","2018/01/12 15:59:42","新北市三重區三和路三段16巷6號","121.496628333333","25.0699966666667","6500200","三重區"
"241025","271-UM","2018/01/12 15:59:35","新北市三重區三民街195號","121.482103333333","25.0657516666667","6500200","三重區"
"241007","398-BY","2018/01/12 15:59:51","新北市三重區忠孝路二段94號","121.483596666667","25.0693933333333","6500200","三重區"
"241014","543-UM","2018/01/12 15:59:49","新北市三重區重新路四段121號","121.484981666667","25.0521266666667","6500200","三重區"
"241023","545-UM","2018/01/12 15:59:38","新北市三重區中正北路172-1號","121.484078333333","25.06647","6500200","三重區"
"241001","547-UM","2018/01/12 15:59:52","新北市三重區忠孝路三段20號","121.481505","25.0670683333333","6500200","三重區"
"241006","AAD-863","2018/01/12 15:59:35","新北市三重區新北大道一段250號","121.479866666667","25.06141","6500200","三重區"
"241012","941-UM","2018/01/12 15:59:52","新北市三重區文化北路118巷51號","121.497506666667","25.0662083333333","6500200","三重區"
"241029","942-UM","2018/01/12 15:59:51","新北市三重區大同南路212巷37號","121.497773333333","25.0566833333333","6500200","三重區"
"241033","AAC-255","2018/01/12 15:59:42","新北市三重區重新路五段440號","121.474813333333","25.04743","6500200","三重區"
"235058","151-BY","2018/01/12 15:04:40","新北市中和區員山路36巷16-2號","121.485185","24.991485","6500300","中和區"
"235026","800-TS","2018/01/12 15:59:39","新北市中和區永和路191巷22號","121.491315","25.00657","6500300","中和區"
"224007","272-VK","2018/01/12 15:59:48","新北市瑞芳區大埔路52號","121.769151666667","25.104235","6501200","瑞芳區"
"224005","271-BY","2018/01/12 15:59:37","新北市瑞芳區傑魚坑路313號","121.786206666667","25.10434","6501200","瑞芳區"
"227011","642-TC","2018/01/12 15:59:50","新北市雙溪區三港里雙澳路38-2號","121.872593333333","25.051495","6502500","雙溪區"
"227003","400-TW","2018/01/12 15:59:38","新北市雙溪區平林里外平林76號","121.841986666667","25.0348583333333","6502500","雙溪區"
"251008","181-VK","2018/01/12 15:59:54","新北市淡水區中正路二段31號","121.419468333333","25.1818666666667","6501000","淡水區"
"236057","912-UM","2018/01/12 15:59:50","新北市土城區中央路二段237號","121.44021","24.9720816666667","6501300","土城區"
"221012","276-VK","2018/01/12 13:23:15","新北市汐止區汐萬路一段256巷3號","121.653455","25.0746483333333","6501100","汐止區"
"220003","827-TW","2018/01/12 15:10:21","新北市板橋區華東街1-9號","121.448153333333","24.9949066666667","6500100","板橋區"
