"lineid","car","time","location","longitude","latitude","cityid","cityname"
"231037","0293-UT","2018/01/12 16:09:50","新北市新店區薏仁坑路自強巷1號","121.497863333333","24.9577066666667","6500600","新店區"
"231030","047-UY","2018/01/12 16:09:34","新北市新店區薏仁坑路22號","121.498605","24.9591266666667","6500600","新店區"
"231018","107-UY","2018/01/12 16:09:51","新北市新店區中正路694巷15號","121.53534","24.99089","6500600","新店區"
"231016","KEA-2219","2018/01/12 16:09:40","新北市新店區中正路448-1號","121.533988333333","24.978695","6500600","新店區"
"231046","278-BY","2018/01/12 16:09:47","新北市新店區灣潭路2-4號","121.536541666667","24.9501033333333","6500600","新店區"
"231038","4715-K9","2018/01/12 16:09:57","新北市新店區薏仁坑路自強巷1號","121.49771","24.9576983333333","6500600","新店區"
"231035","515-UM","2018/01/12 16:09:57","新北市新店區薏仁坑路23號","121.497655","24.9588683333333","6500600","新店區"
"231034","645-TV","2018/01/12 16:09:44","新北市新店區如意街26號","121.49381","24.94831","6500600","新店區"
"241011","013-R5","2018/01/12 16:09:42","新北市三重區正義北路378號","121.49341","25.0715716666667","6500200","三重區"
"241028","022-UY","2018/01/12 16:09:36","新北市三重區正義南路107號","121.49822","25.05855","6500200","三重區"
"241008","059-VK","2018/01/12 16:09:37","新北市三重區力行路二段84號","121.481853333333","25.07393","6500200","三重區"
"241031","061-VK","2018/01/12 16:09:53","新北市三重區重新路四段121號","121.484538333333","25.052135","6500200","三重區"
"241015","062-VK","2018/01/12 16:09:54","新北市三重區福德南路108-14號","121.501538333333","25.0583466666667","6500200","三重區"
"241017","063-VK","2018/01/12 16:09:41","新北市三重區民生街80號","121.490508333333","25.0646316666667","6500200","三重區"
"241024","065-VK","2018/01/12 16:09:41","新北市三重區力行路一段91號","121.486335","25.0681083333333","6500200","三重區"
"241026","066-VK","2018/01/12 16:09:40","新北市三重區正義南路38號","121.498166666667","25.061075","6500200","三重區"
"241002","090-VK","2018/01/12 16:09:53","新北市三重區仁義街91號","121.49969","25.0797483333333","6500200","三重區"
"241003","091-VK","2018/01/12 16:09:40","新北市三重區自強路五段114號","121.496835","25.0837216666667","6500200","三重區"
"241020","156-TC","2018/01/12 16:09:55","新北市三重區車路頭街4巷14號","121.483338333333","25.0700433333333","6500200","三重區"
"241005","262-UM","2018/01/12 16:09:42","新北市三重區溪尾街328號","121.488085","25.084765","6500200","三重區"
"241018","265-UM","2018/01/12 16:09:53","新北市三重區大仁街26號","121.491536666667","25.06388","6500200","三重區"
"241016","266-UM","2018/01/12 16:09:54","新北市三重區新北大道一段8號","121.488705","25.0613466666667","6500200","三重區"
"241022","267-UM","2018/01/12 16:09:48","新北市三重區重陽路二段72號","121.487211666667","25.064055","6500200","三重區"
"241013","270-UM","2018/01/12 16:09:42","新北市三重區安樂街32-1號","121.496446666667","25.0696633333333","6500200","三重區"
"241025","271-UM","2018/01/12 16:09:40","新北市三重區忠孝路三段40巷30號","121.482531666667","25.06603","6500200","三重區"
"241007","398-BY","2018/01/12 16:09:51","新北市三重區慈愛街10號","121.484555","25.078395","6500200","三重區"
"241030","480-VK","2018/01/12 16:09:41","新北市三重區重新路四段254號","121.48501","25.0529116666667","6500200","三重區"
"241014","543-UM","2018/01/12 16:09:49","新北市三重區福德南路154號","121.501316666667","25.05819","6500200","三重區"
"241023","545-UM","2018/01/12 16:09:38","新北市三重區力行路一段60號","121.484796666667","25.0690116666667","6500200","三重區"
"241001","547-UM","2018/01/12 16:09:52","新北市三重區自強路四段77號","121.490718333333","25.07893","6500200","三重區"
"241006","AAD-863","2018/01/12 16:09:56","新北市三重區永福街58巷3弄20號","121.48065","25.0773633333333","6500200","三重區"
"241012","941-UM","2018/01/12 16:09:51","新北市三重區文化北路132巷16號","121.49789","25.0665266666667","6500200","三重區"
"241029","942-UM","2018/01/12 16:09:51","新北市三重區同安街72號","121.4954","25.056595","6500200","三重區"
"241033","AAC-255","2018/01/12 16:09:42","新北市三重區五谷王南街50-1號","121.473938333333","25.0446383333333","6500200","三重區"
"235058","151-BY","2018/01/12 15:04:40","新北市中和區員山路36巷16-2號","121.485185","24.991485","6500300","中和區"
"235026","800-TS","2018/01/12 16:09:39","新北市中和區永和路171巷3弄14號","121.493078333333","25.0066916666667","6500300","中和區"
"224006","676-BX","2018/01/12 16:09:48","新北市瑞芳區大寮路356號","121.784648333333","25.1029333333333","6501200","瑞芳區"
"224007","272-VK","2018/01/12 16:09:48","新北市瑞芳區粗坑口路86巷14號","121.761181666667","25.099205","6501200","瑞芳區"
"224005","271-BY","2018/01/12 16:09:57","新北市瑞芳區明燈路二段66號","121.809493333333","25.1075633333333","6501200","瑞芳區"
"227011","642-TC","2018/01/12 16:09:50","新北市雙溪區三港里雙澳路83號","121.884465","25.05374","6502500","雙溪區"
"227003","400-TW","2018/01/12 16:09:38","新北市雙溪區上林里內平林47號","121.833315","25.0304366666667","6502500","雙溪區"
"251008","181-VK","2018/01/12 16:09:54","新北市淡水區中山路135號","121.441015","25.1715533333333","6501000","淡水區"
"236057","912-UM","2018/01/12 16:09:50","新北市土城區中央路三段88號","121.436163333333","24.9669483333333","6501300","土城區"
"221012","276-VK","2018/01/12 13:23:15","新北市汐止區汐萬路一段256巷3號","121.653455","25.0746483333333","6501100","汐止區"
"220003","827-TW","2018/01/12 15:10:21","新北市板橋區華東街1-9號","121.448153333333","24.9949066666667","6500100","板橋區"
