"lineid","car","time","location","longitude","latitude","cityid","cityname"
"249005","172-UM","2018/01/12 17:09:28","新北市八里區華富山6-3號","121.420843333333","25.142585","6502300","八里區"
"249004","303-UY","2018/01/12 17:09:26","新北市八里區忠孝路197號","121.422246666667","25.1608483333333","6502300","八里區"
"249002","305-UY","2018/01/12 17:09:30","新北市八里區龍米路二段147巷1號","121.443438333333","25.149325","6502300","八里區"
"249003","593-UM","2018/01/12 17:09:37","新北市八里區訊塘路96號","121.397541666667","25.146455","6502300","八里區"
"244013","069-UM","2018/01/12 17:09:26","新北市林口區粉寮69號","121.405105","25.09082","6501700","林口區"
"244007","080-UY","2018/01/12 17:09:26","新北市林口區菁埔25-2號","121.377006666667","25.0961816666667","6501700","林口區"
"244019","402-UM","2018/01/12 17:09:41","新北市林口區四維路156號","121.380533333333","25.0755483333333","6501700","林口區"
"244023","483-VK","2018/01/12 17:09:38","新北市林口區仁愛路一段326號","121.39129","25.0764766666667","6501700","林口區"
"244009","837-TS","2018/01/12 17:09:31","新北市林口區工四路42號","121.40053","25.0839166666667","6501700","林口區"
"244021","838-TS","2018/01/12 17:09:35","新北市林口區粉寮路二段38號","121.403391666667","25.0867266666667","6501700","林口區"
"231046","278-BY","2018/01/12 17:09:27","新北市新店區直潭路92號","121.530938333333","24.9376466666667","6500600","新店區"
"241011","013-R5","2018/01/12 17:09:42","新北市三重區仁愛街59號","121.496356666667","25.07219","6500200","三重區"
"241028","022-UY","2018/01/12 17:09:36","新北市三重區重新路三段110號","121.492278333333","25.0602533333333","6500200","三重區"
"241008","059-VK","2018/01/12 17:09:37","新北市三重區力行路二段134號","121.48202","25.0756283333333","6500200","三重區"
"241009","060-VK","2018/01/12 17:09:36","新北市三重區三和路四段211-10號","121.482016666667","25.0798133333333","6500200","三重區"
"241015","062-VK","2018/01/12 17:09:34","新北市三重區長生街38號","121.499705","25.0664633333333","6500200","三重區"
"241017","063-VK","2018/01/12 17:09:40","新北市三重區中正北路25巷2號","121.493276666667","25.0627733333333","6500200","三重區"
"241024","065-VK","2018/01/12 17:09:41","新北市三重區後竹圍街295號","121.478873333333","25.06985","6500200","三重區"
"241026","066-VK","2018/01/12 17:09:40","新北市三重區正義南路6號","121.497991666667","25.0617616666667","6500200","三重區"
"241002","090-VK","2018/01/12 17:09:33","新北市三重區五華街35巷52號","121.49568","25.08163","6500200","三重區"
"241003","091-VK","2018/01/12 17:09:40","新北市三重區富福街116號","121.493615","25.08573","6500200","三重區"
"241020","156-TC","2018/01/12 17:09:35","新北市三重區自強路三段16號","121.486848333333","25.0720616666667","6500200","三重區"
"241005","262-UM","2018/01/12 17:09:42","新北市三重區仁愛街705號","121.482616666667","25.0806216666667","6500200","三重區"
"241018","265-UM","2018/01/12 17:09:33","新北市三重區六張街52號","121.494263333333","25.0703083333333","6500200","三重區"
"241016","266-UM","2018/01/12 17:09:34","新北市三重區中正北路25巷14號","121.49349","25.0628583333333","6500200","三重區"
"241022","267-UM","2018/01/12 17:09:30","新北市三重區三民街84號","121.485605","25.0628516666667","6500200","三重區"
"241032","269-UM","2018/01/12 17:09:44","新北市三重區興華街50號","121.484948333333","25.0597733333333","6500200","三重區"
"241013","270-UM","2018/01/12 17:09:42","新北市三重區仁昌街36號","121.496976666667","25.0741683333333","6500200","三重區"
"241025","271-UM","2018/01/12 17:09:35","新北市三重區中正北路560巷89號","121.470986666667","25.0682783333333","6500200","三重區"
"241007","398-BY","2018/01/12 17:09:31","新北市三重區三和路四段163巷65號","121.485391666667","25.0791933333333","6500200","三重區"
"241004","475-VK","2018/01/12 17:09:28","新北市三重區五華街98巷10號","121.491705","25.0817933333333","6500200","三重區"
"241019","478-VK","2018/01/12 17:09:43","新北市三重區三張街149巷1號","121.486956666667","25.0697133333333","6500200","三重區"
"241030","480-VK","2018/01/12 17:09:41","新北市三重區集成路24號","121.48878","25.0522833333333","6500200","三重區"
"241014","543-UM","2018/01/12 17:09:29","新北市三重區龍濱路128號","121.501748333333","25.0716516666667","6500200","三重區"
"241023","545-UM","2018/01/12 17:09:38","新北市三重區忠孝路三段84巷1號","121.480248333333","25.06451","6500200","三重區"
"241001","547-UM","2018/01/12 17:09:32","新北市三重區仁愛街257號","121.493313333333","25.0784166666667","6500200","三重區"
"241006","AAD-863","2018/01/12 17:09:35","新北市三重區三和路四段109號","121.48632","25.076945","6500200","三重區"
"241012","941-UM","2018/01/12 17:09:32","新北市三重區仁信街9號","121.501603333333","25.07569","6500200","三重區"
"241029","942-UM","2018/01/12 17:09:36","新北市三重區重安街24號","121.490411666667","25.0580266666667","6500200","三重區"
"241033","AAC-255","2018/01/12 17:09:42","新北市三重區中興北街271號","121.469171666667","25.0606183333333","6500200","三重區"
"235062","800-TS","2018/01/12 16:52:54","新北市中和區員山路36巷16-3號","121.485131666667","24.9913566666667","6500300","中和區"
"247022","893-R6","2018/01/12 17:09:41","新北市蘆洲區三民路222號","121.468781666667","25.0893133333333","6501400","蘆洲區"
"247012","546-UM","2018/01/12 17:09:43","新北市蘆洲區信義路292巷7號","121.477976666667","25.0877066666667","6501400","蘆洲區"
"247020","500-BY","2018/01/12 17:09:29","新北市蘆洲區仁愛街64號","121.47138","25.0939983333333","6501400","蘆洲區"
"247008","341-TH","2018/01/12 17:09:30","新北市蘆洲區信義路30巷15號","121.474475","25.0787433333333","6501400","蘆洲區"
"247010","339-TH","2018/01/12 17:09:42","新北市蘆洲區民族路22號","121.476091666667","25.084115","6501400","蘆洲區"
"247004","336-TH","2018/01/12 17:09:39","新北市蘆洲區長安街136-1號","121.460235","25.0819716666667","6501400","蘆洲區"
"247016","057-VK","2018/01/12 17:09:41","新北市蘆洲區光華路65巷2號","121.468358333333","25.0825233333333","6501400","蘆洲區"
"247006","056-VK","2018/01/12 17:09:39","新北市蘆洲區中華街6巷5號","121.462295","25.0825566666667","6501400","蘆洲區"
"247002","053-VK","2018/01/12 17:09:31","新北市蘆洲區永樂街64號","121.457166666667","25.08851","6501400","蘆洲區"
"247014","007-UY","2018/01/12 17:09:39","新北市蘆洲區中央路26號","121.473558333333","25.0828366666667","6501400","蘆洲區"
"247024","002-UY","2018/01/12 17:09:39","新北市蘆洲區長興路23號","121.463706666667","25.0832933333333","6501400","蘆洲區"
"247018","001-UY","2018/01/12 17:09:27","新北市蘆洲區復興路107-1號","121.477013333333","25.0878883333333","6501400","蘆洲區"
"228002","663-BX","2018/01/12 17:09:45","新北市貢寮區龍崗里嵩陽街55號","121.907658333333","25.016595","6502600","貢寮區"
"228001","670-TC","2018/01/12 17:09:37","新北市貢寮區仁理村研海街62-2號","121.925743333333","25.0442833333333","6502600","貢寮區"
"228003","828-UM","2018/01/12 17:09:37","新北市貢寮區福隆里東興街31-1號","121.952318333333","25.0206616666667","6502600","貢寮區"
"224006","676-BX","2018/01/12 17:09:34","新北市瑞芳區大寮路110號","121.781225","25.097765","6501200","瑞芳區"
"224009","285-BY","2018/01/12 17:09:32","新北市瑞芳區輕便路32-1號","121.844103333333","25.1108366666667","6501200","瑞芳區"
"224008","275-VK","2018/01/12 17:09:41","新北市瑞芳區侯硐路111-1號","121.831055","25.0896116666667","6501200","瑞芳區"
"224007","272-VK","2018/01/12 17:09:28","新北市瑞芳區粗坑口路66號","121.7613","25.0989866666667","6501200","瑞芳區"
"224005","271-BY","2018/01/12 17:09:37","新北市瑞芳區鼻頭路113號","121.916243333333","25.1226883333333","6501200","瑞芳區"
"227011","642-TC","2018/01/12 17:09:30","新北市雙溪區牡丹里下坑29號","121.850121666667","25.05686","6502500","雙溪區"
"227003","400-TW","2018/01/12 17:09:38","新北市雙溪區外柑里外柑腳51號","121.808218333333","25.017905","6502500","雙溪區"
"251004","009-UM","2018/01/12 17:09:25","新北市淡水區中山路33-1號","121.443823333333","25.1703683333333","6501000","淡水區"
"251008","181-VK","2018/01/12 17:09:34","新北市淡水區樹梅坑7-6號","121.471986666667","25.144035","6501000","淡水區"
"251010","413-VK","2018/01/12 17:09:42","新北市淡水區新市五路二段75號","121.431283333333","25.1982783333333","6501000","淡水區"
"251012","441-VK","2018/01/12 17:09:31","新北市淡水區中山北路一段158號","121.444186666667","25.17786","6501000","淡水區"
"251005","443-VK","2018/01/12 17:09:42","新北市淡水區水源街一段160號","121.448898333333","25.1711116666667","6501000","淡水區"
"251006","561-UM","2018/01/12 17:09:31","新北市淡水區新民街21號","121.439331666667","25.1752683333333","6501000","淡水區"
"251009","575-R6","2018/01/12 17:09:27","新北市淡水區三民街22號","121.43906","25.1718333333333","6501000","淡水區"
"251007","577-R6","2018/01/12 17:09:40","新北市淡水區中正東路二段121號","121.459465","25.150255","6501000","淡水區"
"251011","650-BX","2018/01/12 17:09:38","新北市淡水區坪頂路52巷18號","121.457673333333","25.1624466666667","6501000","淡水區"
"252002","178-VK","2018/01/12 17:09:39","新北市三芝區忠孝街1-19號","121.505773333333","25.2534016666667","6502100","三芝區"
"242032","AAC-296","2018/01/12 17:09:29","新北市新莊區新泰路255巷83號","121.442081666667","25.0390066666667","6500500","新莊區"
"242050","751-BX","2018/01/12 17:09:28","新北市新莊區新泰路401巷29-1號","121.442085","25.0439316666667","6500500","新莊區"
"242023","613-BX","2018/01/12 17:09:40","新北市新莊區新泰路255巷83號","121.442046666667","25.038955","6500500","新莊區"
"242027","612-BX","2018/01/12 17:09:33","新北市新莊區新泰路357巷3弄57號","121.442178333333","25.0392566666667","6500500","新莊區"
"242039","566-BX","2018/01/12 17:09:38","新北市新莊區新泰路357巷3弄27號","121.441985","25.0406233333333","6500500","新莊區"
"242044","442-UM","2018/01/12 17:09:28","新北市新莊區中正路481號","121.44122","25.03379","6500500","新莊區"
"242048","441-UM","2018/01/12 17:09:31","新北市新莊區中正路442號","121.440328333333","25.0335833333333","6500500","新莊區"
"242054","440-UM","2018/01/12 17:09:43","新北市新莊區新泰路357巷3弄49號","121.441978333333","25.04012","6500500","新莊區"
"242034","415-TV","2018/01/12 17:09:36","新北市新莊區新泰路357巷3弄57號","121.441906666667","25.038965","6500500","新莊區"
"242005","413-TV","2018/01/12 17:09:23","新北市新莊區新泰路357巷3弄57號","121.441808333333","25.0394683333333","6500500","新莊區"
"242041","400-BY","2018/01/12 17:09:26","新北市新莊區新泰路357巷3弄57號","121.442213333333","25.039635","6500500","新莊區"
"242060","362-BY","2018/01/12 17:09:28","新北市新莊區新泰路255巷83號","121.442225","25.0388816666667","6500500","新莊區"
"242058","353-BY","2018/01/12 17:09:42","新北市新莊區新泰路255巷83號","121.442176666667","25.0389683333333","6500500","新莊區"
"242007","132-UY","2018/01/12 17:09:34","新北市新莊區新泰路255巷83號","121.441958333333","25.038905","6500500","新莊區"
"242037","133-UY","2018/01/12 17:09:36","新北市新莊區三和路12-21號","121.442201666667","25.03866","6500500","新莊區"
"242021","135-UY","2018/01/12 17:09:36","新北市新莊區新泰路255巷83號","121.442293333333","25.0390833333333","6500500","新莊區"
"242015","175-VK","2018/01/12 17:09:32","新北市新莊區三和路12-21號","121.442033333333","25.0387233333333","6500500","新莊區"
"242002","176-VK","2018/01/12 17:09:38","新北市新莊區三和路12-21號","121.442048333333","25.0385816666667","6500500","新莊區"
"242017","350-TH","2018/01/12 17:09:38","新北市新莊區新泰路255巷83號","121.442118333333","25.0388866666667","6500500","新莊區"
"238023","601-UM","2018/01/12 17:09:25","新北市樹林區八德街836號","121.392373333333","24.968565","6500700","樹林區"
"238019","599-UM","2018/01/12 17:09:40","新北市樹林區八德街495-1號","121.401948333333","24.970355","6500700","樹林區"
"238018","571-TV","2018/01/12 17:09:40","新北市樹林區環河路2-2號","121.425105","24.976575","6500700","樹林區"
"238024","5061-A6","2018/01/12 17:09:23","新北市樹林區鎮前街160號","121.424468333333","24.9900816666667","6500700","樹林區"
"238021","KEA-2217","2018/01/12 17:09:31","新北市樹林區西圳街一段165巷22號","121.395891666667","24.9610683333333","6500700","樹林區"
"238022","KEA-2213","2018/01/12 17:09:42","新北市樹林區八德街238號","121.41318","24.97053","6500700","樹林區"
"238025","303-VK","2018/01/12 17:09:40","新北市樹林區育德街78號","121.38749","24.9685066666667","6500700","樹林區"
"238017","283-BY","2018/01/12 17:09:28","新北市樹林區八德街445-1號","121.404711666667","24.9700516666667","6500700","樹林區"
"238014","282-BY","2018/01/12 17:09:29","新北市樹林區中洲街27號","121.397175","24.9719916666667","6500700","樹林區"
"238026","172-UY","2018/01/12 17:09:39","新北市樹林區新興街39號","121.3999","24.9718183333333","6500700","樹林區"
"239007","AAC-297","2018/01/12 17:09:38","新北市鶯歌區建國路97號","121.353005","24.9540633333333","6500800","鶯歌區"
"239006","891-R6","2018/01/12 17:09:28","新北市鶯歌區八德路2巷37弄4號","121.33691","24.946475","6500800","鶯歌區"
"239008","527-UM","2018/01/12 17:09:42","新北市鶯歌區尖山路56號","121.349721666667","24.94967","6500800","鶯歌區"
"239005","526-UM","2018/01/12 17:09:27","新北市鶯歌區德昌二街3巷1-1號","121.333191666667","24.959175","6500800","鶯歌區"
"239001","417-VK","2018/01/12 17:09:41","新北市鶯歌區尖山路140巷12弄7號","121.346526666667","24.9494566666667","6500800","鶯歌區"
"239003","360-BY","2018/01/12 17:09:27","新北市鶯歌區八德路16號","121.330616666667","24.9554466666667","6500800","鶯歌區"
"239002","359-BY","2018/01/12 17:09:35","新北市鶯歌區建國路255號","121.34795","24.95346","6500800","鶯歌區"
