"lineid","car","time","location","longitude","latitude","cityid","cityname"
"234046","148-BY","2018/01/12 18:39:32","新北市永和區永元路68號","121.522581666667","25.0015033333333","6500400","永和區"
"234013","149-BY","2018/01/12 18:39:42","新北市永和區文化路208號","121.510295","25.0166533333333","6500400","永和區"
"234007","207-UY","2018/01/12 18:39:27","新北市永和區文化路170號","121.511923333333","25.0155783333333","6500400","永和區"
"234081","298-R6","2018/01/12 18:39:29","新北市永和區林森路75號","121.524006666667","25.0039266666667","6500400","永和區"
"234038","336-UY","2018/01/12 18:39:31","新北市永和區福和路1號","121.526631666667","25.0101","6500400","永和區"
"234064","337-UY","2018/01/12 18:39:37","新北市永和區福和路1號","121.526505","25.0100166666667","6500400","永和區"
"234086","338-UY","2018/01/12 18:39:34","新北市永和區安樂路248號","121.514705","25.00327","6500400","永和區"
"234017","745-BX","2018/01/12 18:39:43","新北市永和區福和路1號","121.526491666667","25.0096983333333","6500400","永和區"
"234030","746-BX","2018/01/12 18:39:36","新北市永和區環河東路三段50號","121.52679","25.0062983333333","6500400","永和區"
"234042","838-RS","2018/01/12 18:39:36","新北市永和區福和路1號","121.525726666667","25.0095483333333","6500400","永和區"
"234061","AAD-866","2018/01/12 18:39:30","新北市永和區福和路1號","121.525351666667","25.0095416666667","6500400","永和區"
"234050","863-TW","2018/01/12 18:39:42","新北市永和區福和路1號","121.526028333333","25.009885","6500400","永和區"
"234026","9371-KE","2018/01/12 18:39:38","新北市永和區永貞路361巷2號","121.508911666667","25.00782","6500400","永和區"
"234011","9373-KE","2018/01/12 18:39:34","新北市永和區永和路二段233-1號","121.51527","25.0142066666667","6500400","永和區"
"249005","172-UM","2018/01/12 18:39:28","新北市八里區中華路三段190號","121.388333333333","25.1259666666667","6502300","八里區"
"249001","173-UM","2018/01/12 18:39:42","新北市八里區龍米路一段386巷1-1號","121.451558333333","25.1322166666667","6502300","八里區"
"249004","303-UY","2018/01/12 18:39:26","新北市八里區中山路一段29-1號","121.421503333333","25.1591916666667","6502300","八里區"
"248014","025-BX","2018/01/12 18:39:44","新北市五股區成泰路一段132號","121.43508","25.0754883333333","6501500","五股區"
"248016","026-BX","2018/01/12 18:39:28","新北市五股區凌雲路一段149巷13-1號","121.448615","25.100875","6501500","五股區"
"248008","095-VK","2018/01/12 18:39:34","新北市五股區中興路一段151巷1弄2號","121.46505","25.07316","6501500","五股區"
"248018","225-UY","2018/01/12 18:39:40","新北市五股區民義路二段78號","121.405951666667","25.1090083333333","6501500","五股區"
"248012","247-BX","2018/01/12 18:39:38","新北市五股區成泰路三段2巷1-20號","121.44125","25.08666","6501500","五股區"
"248004","677-BX","2018/01/12 18:39:44","新北市五股區民義路一段310-9號","121.424275","25.0939266666667","6501500","五股區"
"248002","678-BX","2018/01/12 18:22:17","新北市五股區西雲路65號","121.44362","25.0917533333333","6501500","五股區"
"248010","682-TV","2018/01/12 18:39:42","新北市五股區自強路91號","121.432478333333","25.0716966666667","6501500","五股區"
"234077","969-R7","2018/01/12 18:39:42","新北市永和區中正路164號","121.515025","24.996695","6500400","永和區"
"234074","AAC-211","2018/01/12 18:39:40","新北市永和區福和路1號","121.526225","25.009765","6500400","永和區"
"234067","AAC-212","2018/01/12 18:39:42","新北市永和區福和路282號","121.517663333333","25.0074833333333","6500400","永和區"
"234003","AAC-295","2018/01/12 18:39:42","新北市永和區福和路1號","121.52594","25.0093033333333","6500400","永和區"
"232011","076-UY","2018/01/12 18:26:09","新北市坪林區坪雙路一段31號","121.711666666667","24.9424383333333","6502000","坪林區"
"244013","069-UM","2018/01/12 18:39:46","新北市林口區佳林路138號","121.384663333333","25.0779133333333","6501700","林口區"
"244007","080-UY","2018/01/12 18:39:26","新北市林口區後湖28-3號","121.387445","25.0993233333333","6501700","林口區"
"244019","402-UM","2018/01/12 18:39:41","新北市林口區忠孝路577號","121.37509","25.0682933333333","6501700","林口區"
"244025","742-UY","2018/01/12 18:39:45","新北市林口區南勢二街162號","121.359201666667","25.0746983333333","6501700","林口區"
"244023","483-VK","2018/01/12 18:39:38","新北市林口區文化二路二段110巷17號","121.380388333333","25.08122","6501700","林口區"
"244017","485-VK","2018/01/12 18:39:43","新北市林口區文化二路一段102號","121.367058333333","25.070465","6501700","林口區"
"244011","656-BX","2018/01/12 18:39:30","新北市林口區仁愛路一段272巷17號","121.392151666667","25.07667","6501700","林口區"
"244009","837-TS","2018/01/12 18:39:31","新北市林口區文化二路二段369號","121.381191666667","25.086695","6501700","林口區"
"244021","838-TS","2018/01/12 18:39:39","新北市林口區工六路2號","121.39758","25.07937","6501700","林口區"
"243012","AAD-798","2018/01/12 18:39:45","新北市泰山區泰林路二段212號","121.433196666667","25.0615016666667","6501600","泰山區"
"243013","646-TV","2018/01/12 18:39:34","新北市泰山區明志路三段206巷3號","121.423273333333","25.0379483333333","6501600","泰山區"
"243016","680-BX","2018/01/12 18:39:38","新北市泰山區黎明路23-1號","121.421381666667","25.0613666666667","6501600","泰山區"
"222003","436-BY","2018/01/12 18:39:30","新北市深坑區翠谷街17巷1號","121.626486666667","25.0084583333333","6501800","深坑區"
"222002","659-BX","2018/01/12 18:39:28","新北市深坑區文山路一段62巷3號","121.62291","25.00086","6501800","深坑區"
"231041","001-UM","2018/01/12 18:39:29","新北市新店區安華路28-1號","121.51946","24.9609333333333","6500600","新店區"
"231066","0293-UT","2018/01/12 18:39:36","新北市新店區安華路1-1號","121.51947","24.9604966666667","6500600","新店區"
"231059","046-UY","2018/01/12 18:39:35","新北市新店區安華路28-1號","121.519526666667","24.9607733333333","6500600","新店區"
"231061","047-UY","2018/01/12 18:39:42","新北市新店區安華路28-1號","121.519261666667","24.9609166666667","6500600","新店區"
"231060","106-UY","2018/01/12 18:39:28","新北市新店區安華路28-1號","121.51953","24.96085","6500600","新店區"
"231051","107-UY","2018/01/12 18:39:31","新北市新店區環河路118號","121.536793333333","24.9678433333333","6500600","新店區"
"231048","108-UY","2018/01/12 18:39:41","新北市新店區安康路一段75號","121.530201666667","24.96109","6500600","新店區"
"231053","187-VK","2018/01/12 18:39:19","新北市新店區長興路19號","121.546425","24.9399116666667","6500600","新店區"
"231050","KEA-2219","2018/01/12 18:39:29","新北市新店區安華路28-1號","121.519765","24.9612283333333","6500600","新店區"
"231057","256-BX","2018/01/12 18:39:43","新北市新店區新烏路一段215號","121.549306666667","24.93147","6500600","新店區"
"231046","278-BY","2018/01/12 18:39:27","新北市新店區直潭二街1號","121.535548333333","24.9431883333333","6500600","新店區"
"231054","AAD-862","2018/01/12 18:39:42","新北市新店區安華路28-1號","121.519755","24.9611783333333","6500600","新店區"
"231058","3712-VJ","2018/01/12 18:39:40","新北市新店區能仁街12-1號","121.540606666667","24.955465","6500600","新店區"
"231056","3713-VJ","2018/01/12 18:39:34","新北市新店區自立街36號","121.538436666667","24.97856","6500600","新店區"
"231055","4716-K9","2018/01/12 18:39:41","新北市新店區中正路152號","121.541611666667","24.9717616666667","6500600","新店區"
"231067","4772-VM","2018/01/12 18:39:30","新北市新店區安康路一段355號","121.519965","24.9636","6500600","新店區"
"231065","512-UM","2018/01/12 18:39:41","新北市新店區安華路28-1號","121.519128333333","24.9612283333333","6500600","新店區"
"231064","515-UM","2018/01/12 18:39:32","新北市新店區安華路28-1號","121.519645","24.9611233333333","6500600","新店區"
"231045","617-UM","2018/01/12 18:39:42","新北市新店區安華路28-1號","121.519395","24.9611683333333","6500600","新店區"
"231040","619-UM","2018/01/12 18:39:48","新北市新店區安華路28-1號","121.51952","24.9609233333333","6500600","新店區"
"231042","641-BX","2018/01/12 18:39:30","新北市新店區安華路1-1號","121.519506666667","24.96048","6500600","新店區"
"231063","645-TV","2018/01/12 18:39:31","新北市新店區安華路28-1號","121.519275","24.9606716666667","6500600","新店區"
"231049","719-UM","2018/01/12 18:39:46","新北市新店區安康路一段164-1號","121.52589","24.96307","6500600","新店區"
"231062","720-UM","2018/01/12 18:39:44","新北市新店區安華路28-1號","121.519291666667","24.9612666666667","6500600","新店區"
"231044","897-TW","2018/01/12 18:39:26","新北市新店區中正路30號","121.544996666667","24.96983","6500600","新店區"
"231043","899-TW","2018/01/12 18:39:40","新北市新店區安華路28-1號","121.519225","24.96085","6500600","新店區"
"241033","AAC-255","2018/01/12 18:23:00","新北市三重區光復路一段54巷1號","121.471836666667","25.0485566666667","6500200","三重區"
"235066","003-UY","2018/01/12 18:39:31","新北市中和區水源路35號","121.504321666667","25.0035716666667","6500300","中和區"
"235064","005-UY","2018/01/12 18:39:32","新北市中和區連城路115號","121.496213333333","24.9994483333333","6500300","中和區"
"235063","006-UY","2018/01/12 18:39:31","新北市中和區連城路347巷3號","121.488336666667","24.9955616666667","6500300","中和區"
"235046","031-BX","2018/01/12 18:39:39","新北市中和區捷運路8號","121.509883333333","24.9895633333333","6500300","中和區"
"235056","096-UM","2018/01/12 18:39:44","新北市中和區員山路611巷1號","121.47793","25.0112733333333","6500300","中和區"
"235039","097-UM","2018/01/12 18:39:43","新北市中和區安樂路185號","121.514838333333","24.9980483333333","6500300","中和區"
"235065","098-UM","2018/01/12 18:39:26","新北市中和區莊敬路33巷34弄9號","121.50038","25.0060783333333","6500300","中和區"
"235040","150-BY","2018/01/12 18:39:35","新北市中和區安平路82號","121.511133333333","24.99677","6500300","中和區"
"235058","151-BY","2018/01/12 18:39:43","新北市中和區圓通路369巷30弄100號","121.48812","24.9841283333333","6500300","中和區"
"235055","183-VK","2018/01/12 18:39:37","新北市板橋區民族路276巷48號","121.469128333333","25.0054733333333","6500300","中和區"
"235038","185-VK","2018/01/12 18:39:28","新北市中和區大勇街60巷16號","121.518741666667","24.9947316666667","6500300","中和區"
"235049","186-VK","2018/01/12 18:39:33","新北市中和區明義街30號","121.504006666667","24.9950883333333","6500300","中和區"
"235067","255-BX","2018/01/12 18:39:36","新北市中和區中正路883號","121.48431","25.004215","6500300","中和區"
"235044","293-VK","2018/01/12 18:39:45","新北市中和區復興路280巷20號","121.502053333333","24.9917233333333","6500300","中和區"
"235072","301-VK","2018/01/12 18:39:41","新北市中和區連城路87號","121.496708333333","25.00024","6500300","中和區"
"235043","352-BY","2018/01/12 18:39:42","新北市中和區景平路111巷2號","121.516475","24.99174","6500300","中和區"
"235068","377-QA","2018/01/12 18:39:22","新北市中和區中正路131號","121.499808333333","24.9936316666667","6500300","中和區"
"235061","378-QA","2018/01/12 18:39:32","新北市中和區民享街92巷36號","121.473463333333","24.99959","6500300","中和區"
"235050","4979-A6","2018/01/12 18:39:35","新北市中和區忠孝街99-3號","121.512101666667","24.9862016666667","6500300","中和區"
"235069","4980-A6","2018/01/12 18:39:42","新北市中和區景平路654號","121.497766666667","25.0007666666667","6500300","中和區"
"235042","551-UM","2018/01/12 18:38:32","新北市中和區成功路97巷18弄3號","121.526901666667","24.99154","6500300","中和區"
"235070","558-UM","2018/01/12 18:36:17","新北市中和區景新街129號","121.505703333333","24.99733","6500300","中和區"
"235045","565-BX","2018/01/12 18:39:41","新北市中和區南山路236巷21號","121.50557","24.9885333333333","6500300","中和區"
"235054","640-BX","2018/01/12 18:39:29","新北市中和區民享街32巷22號","121.472728333333","25.0031933333333","6500300","中和區"
"235060","647-TV","2018/01/12 18:39:45","新北市中和區員山路477巷1號","121.480046666667","25.0050516666667","6500300","中和區"
"235047","732-UM","2018/01/12 18:39:41","新北市中和區南山路320巷25號","121.507205","24.9861966666667","6500300","中和區"
"235062","800-TS","2018/01/12 18:39:33","新北市中和區中山路二段312巷12號","121.495293333333","25.0037133333333","6500300","中和區"
"235057","801-TS","2018/01/12 18:39:39","新北市中和區民安街2巷20號","121.480201666667","25.0017383333333","6500300","中和區"
"235052","805-TS","2018/01/12 18:39:34","新北市中和區興南路三段68號","121.492776666667","24.974955","6500300","中和區"
"235048","896-TW","2018/01/12 18:39:43","新北市中和區南山路397號","121.506676666667","24.9901266666667","6500300","中和區"
"235053","911-UM","2018/01/12 18:39:32","新北市中和區莒光路222-8號","121.4689","24.994935","6500300","中和區"
"235051","157-BY","2018/01/12 18:39:30","新北市中和區興南路二段114巷10弄10號","121.503988333333","24.9846383333333","6500300","中和區"
"235037","AAC-213","2018/01/12 18:39:39","新北市中和區景德街91號","121.516085","24.9913666666667","6500300","中和區"
"235059","AAC-215","2018/01/12 18:39:35","新北市中和區錦和路350-1號","121.490513333333","24.993515","6500300","中和區"
"220065","072-UY","2018/01/12 18:39:34","新北市板橋區實踐路78號","121.463755","25.0053533333333","6500100","板橋區"
"220086","073-UY","2018/01/12 18:39:45","新北市板橋區南雅西路一段21巷22號","121.45316","25.0038116666667","6500100","板橋區"
"220069","AAD-861","2018/01/12 18:39:33","新北市板橋區華東街1-10號","121.448391666667","24.9951233333333","6500100","板橋區"
"226004","205-ST","2018/01/12 18:39:31","新北市平溪區平溪里三坑路49-1號","121.732111666667","25.0336583333333","6502400","平溪區"
"235041","251-BX","2018/01/12 18:39:42","新北市中和區宜安路162號","121.509186666667","24.9989283333333","6500300","中和區"
"228002","663-BX","2018/01/12 18:39:44","新北市貢寮區福隆里東興街6-11號","121.950751666667","25.021065","6502600","貢寮區"
"228001","670-TC","2018/01/12 18:39:37","新北市貢寮區仁理村保健街73號","121.923733333333","25.051675","6502600","貢寮區"
"228003","828-UM","2018/01/12 18:39:37","新北市貢寮區和美里龍洞街5-1號","121.918415","25.1118083333333","6502600","貢寮區"
"224006","676-BX","2018/01/12 18:39:33","新北市瑞芳區明燈路三段37-3號","121.807011666667","25.1078983333333","6501200","瑞芳區"
"224002","639-TC","2018/01/12 18:39:43","新北市瑞芳區頂坪路工業區7號","121.792908333333","25.1019883333333","6501200","瑞芳區"
"224009","285-BY","2018/01/12 18:39:26","新北市瑞芳區祈堂路8號","121.858866666667","25.1139916666667","6501200","瑞芳區"
"224008","275-VK","2018/01/12 18:39:41","新北市瑞芳區瑞芳街48號","121.806018333333","25.1096416666667","6501200","瑞芳區"
"224007","272-VK","2018/01/12 18:39:39","新北市瑞芳區大埔路吉慶公園城20號","121.764828333333","25.099995","6501200","瑞芳區"
"224005","271-BY","2018/01/12 18:39:36","新北市瑞芳區瑞濱路7號","121.827016666667","25.1216783333333","6501200","瑞芳區"
"227011","642-TC","2018/01/12 18:39:30","新北市雙溪區牡丹里下坑11號","121.851043333333","25.0561683333333","6502500","雙溪區"
"227003","400-TW","2018/01/12 18:39:38","新北市雙溪區魚行里坤溪3-5號","121.8756","25.0212916666667","6502500","雙溪區"
"253005","032-BX","2018/01/12 18:39:25","新北市石門區中山路64號","121.567266666667","25.2909533333333","6502200","石門區"
"253006","295-VK","2018/01/12 18:39:45","新北市石門區楓林37-6號","121.54082","25.2897433333333","6502200","石門區"
"222001","KEA-2212","2018/01/12 18:39:43","新北市深坑區北深路一段20號","121.639486666667","25.01039","6501800","深坑區"
"208002","742-BX","2018/01/12 18:39:39","新北市金山區忠孝一路31號","121.638413333333","25.2195","6502700","金山區"
"208003","665-BX","2018/01/12 18:39:28","新北市金山區中山路395號","121.633366666667","25.2252816666667","6502700","金山區"
"208001","761-BX","2018/01/12 18:39:47","新北市金山區文化三路46號","121.635021666667","25.224985","6502700","金山區"
"251004","009-UM","2018/01/12 18:37:04","新北市淡水區民族路33巷16-19號","121.462511666667","25.1359216666667","6501000","淡水區"
"251001","011-UM","2018/01/12 18:39:30","新北市淡水區自強路419號","121.465553333333","25.1342866666667","6501000","淡水區"
"251008","181-VK","2018/01/12 18:39:34","新北市淡水區北投子72-1號","121.453553333333","25.1822583333333","6501000","淡水區"
"251010","413-VK","2018/01/12 18:39:42","新北市淡水區沙崙路124號","121.423398333333","25.1827933333333","6501000","淡水區"
"251012","441-VK","2018/01/12 18:39:31","新北市淡水區北新路117號","121.448925","25.1786483333333","6501000","淡水區"
"251006","561-UM","2018/01/12 18:39:31","新北市淡水區崁頂36-6號","121.43932","25.1938883333333","6501000","淡水區"
"251011","650-BX","2018/01/12 18:39:38","新北市淡水區鄧公路50號","121.459698333333","25.1687166666667","6501000","淡水區"
"251002","672-BX","2018/01/12 18:39:46","新北市淡水區中正東路一段3巷14弄1號","121.450855","25.164165","6501000","淡水區"
"251003","673-BX","2018/01/12 18:39:33","新北市淡水區中山北路一段212巷38號","121.446123333333","25.179035","6501000","淡水區"
"207003","550-UM","2018/01/12 18:39:39","新北市萬里區大鵬里頂社2-1號","121.660318333333","25.2071866666667","6502800","萬里區"
"207004","225-TW","2018/01/12 18:39:36","新北市萬里區萬里里獅頭路12-5號","121.692416666667","25.1792233333333","6502800","萬里區"
"252002","178-VK","2018/01/12 18:39:38","新北市三芝區民生街32號","121.503735","25.2563316666667","6502100","三芝區"
"252003","249-BX","2018/01/12 18:39:31","新北市三芝區後厝里土地公坑73-2號","121.46073","25.2475616666667","6502100","三芝區"
"252001","292-VK","2018/01/12 18:39:38","新北市三芝區埔頭里埔頭14號","121.501031666667","25.2536433333333","6502100","三芝區"
"237004","078-UY","2018/01/12 18:39:44","新北市三峽區有木111-1號","121.43448","24.8601583333333","6500900","三峽區"
"237007","153-BY","2018/01/12 18:39:44","新北市三峽區柑樹路6巷4號","121.36278","24.9054183333333","6500900","三峽區"
"237009","210-TH","2018/01/12 18:39:42","新北市三峽區弘園街37號","121.367158333333","24.9276833333333","6500900","三峽區"
"237013","252-BX","2018/01/12 18:39:32","新北市三峽區光明路69巷25號","121.376756666667","24.9292533333333","6500900","三峽區"
"237012","275-BY","2018/01/12 18:39:44","新北市三峽區三樹路340號","121.383986666667","24.9432666666667","6500900","三峽區"
"237008","302-VK","2018/01/12 18:39:29","新北市三峽區白雞127號","121.395201666667","24.9113116666667","6500900","三峽區"
"237014","433-BY","2018/01/12 18:39:35","新北市三峽區復興路485號","121.361555","24.9386216666667","6500900","三峽區"
"237006","5529-G3","2018/01/12 18:39:40","新北市三峽區溪東路371巷4弄27號","121.412976666667","24.929545","6500900","三峽區"
"237010","706-TV","2018/01/12 18:39:31","新北市三峽區復興路309號","121.365333333333","24.9388583333333","6500900","三峽區"
"237005","AKY-6261","2018/01/12 18:39:35","新北市三峽區新興街8號","121.37262","24.9358166666667","6500900","三峽區"
"236072","105-UM","2018/01/12 18:39:35","新北市土城區永豐路157巷29弄1號","121.468731666667","24.9815583333333","6501300","土城區"
"236043","107-UM","2018/01/12 18:39:36","新北市土城區學成路139號","121.44912","24.9894633333333","6501300","土城區"
"236079","166-UM","2018/01/12 18:11:58","新北市土城區永安街1號","121.434508333333","24.965305","6501300","土城區"
"236031","253-BX","2018/01/12 18:39:35","新北市土城區慶利街21號","121.439071666667","24.9742333333333","6501300","土城區"
"236027","269-VK","2018/01/12 18:39:28","新北市土城區忠義路51號","121.440456666667","24.96894","6501300","土城區"
"236015","270-VK","2018/01/12 18:39:45","新北市土城區清水路207巷11號","121.459995","24.9822416666667","6501300","土城區"
"236039","271-VK","2018/01/12 18:39:31","新北市土城區明德路一段291巷11弄1號","121.460413333333","24.9766166666667","6501300","土城區"
"236022","401-BY","2018/01/12 18:39:35","新北市土城區永豐路12號","121.465743333333","24.98457","6501300","土城區"
"236059","912-UM","2018/01/12 18:39:28","新北市土城區中央路四段76-3號","121.419003333333","24.95939","6501300","土城區"
"236050","913-UM","2018/01/12 18:39:28","新北市土城區明德路一段4號","121.46473","24.9857016666667","6501300","土城區"
"236063","915-UM","2018/01/12 18:39:34","新北市土城區延壽路55巷9弄2號","121.469435","24.991645","6501300","土城區"
"236055","AAC-216","2018/01/12 18:39:42","新北市土城區中華路一段23號","121.446973333333","24.9891133333333","6501300","土城區"
"242041","400-BY","2018/01/12 18:39:46","新北市新莊區天祥街72巷11號","121.416165","25.0299416666667","6500500","新莊區"
"242060","362-BY","2018/01/12 18:39:28","新北市新莊區富國路178號","121.42432","25.0243916666667","6500500","新莊區"
"242046","172-VK","2018/01/12 18:39:42","新北市泰山區明志路三段517號","121.421115","25.0321533333333","6500500","新莊區"
"242056","349-TH","2018/01/12 18:39:40","新北市新莊區環河路636-7號","121.437466666667","25.0116933333333","6500500","新莊區"
"238015","755-BX","2018/01/12 18:39:42","新北市樹林區備內街79號","121.409146666667","24.98962","6500700","樹林區"
"238023","601-UM","2018/01/12 18:39:45","新北市樹林區三福街114號","121.406405","25.0163116666667","6500700","樹林區"
"238019","599-UM","2018/01/12 18:39:33","新北市樹林區中華路190號","121.411925","24.98049","6500700","樹林區"
"238018","571-TV","2018/01/12 18:39:40","新北市樹林區鎮前街72號","121.425525","24.99224","6500700","樹林區"
"238024","5061-A6","2018/01/12 18:39:43","新北市樹林區太順街79巷17號","121.417108333333","24.9780533333333","6500700","樹林區"
"238025","303-VK","2018/01/12 18:39:40","新北市樹林區中山路三段22號","121.395676666667","24.972985","6500700","樹林區"
"238017","283-BY","2018/01/12 18:39:48","新北市樹林區光榮街21號","121.412021666667","25.00372","6500700","樹林區"
"238014","282-BY","2018/01/12 18:39:29","新北市樹林區大安路111巷25號","121.423225","24.9976183333333","6500700","樹林區"
"238020","268-VK","2018/01/12 18:39:38","新北市樹林區俊安街13號","121.419675","25.0140183333333","6500700","樹林區"
"238026","172-UY","2018/01/12 18:39:39","新北市樹林區佳園路一段80巷46號","121.39187","24.9694816666667","6500700","樹林區"
"238016","169-UY","2018/01/12 18:39:39","新北市樹林區文化街28號","121.41932","24.9876666666667","6500700","樹林區"
"239007","AAC-297","2018/01/12 18:39:38","新北市鶯歌區中正一路478號","121.366501666667","24.9568033333333","6500800","鶯歌區"
"239006","891-R6","2018/01/12 18:39:28","新北市鶯歌區鶯桃路296巷46-1號","121.335715","24.9613566666667","6500800","鶯歌區"
"239008","527-UM","2018/01/12 18:39:32","新北市鶯歌區國際一路14號","121.336193333333","24.9765333333333","6500800","鶯歌區"
"239005","526-UM","2018/01/12 18:39:47","新北市鶯歌區鳳吉一街42號","121.326118333333","24.9737833333333","6500800","鶯歌區"
"239001","417-VK","2018/01/12 18:39:41","新北市鶯歌區鶯桃路16號","121.34231","24.9514283333333","6500800","鶯歌區"
"239003","360-BY","2018/01/12 18:39:26","新北市鶯歌區永和街249號","121.336993333333","24.9721833333333","6500800","鶯歌區"
"239002","359-BY","2018/01/12 18:39:35","新北市鶯歌區文化路311號","121.352441666667","24.9524266666667","6500800","鶯歌區"
"239004","193-VK","2018/01/12 18:39:40","新北市鶯歌區中正三路247巷67弄2號","121.333935","24.9362166666667","6500800","鶯歌區"
"221036","130-UY","2018/01/12 18:39:37","新北市汐止區南昌街13號","121.663435","25.0695233333333","6501100","汐止區"
"221010","269-BY","2018/01/12 18:39:35","新北市汐止區汐萬路三段74巷2號","121.644261666667","25.0951583333333","6501100","汐止區"
"221012","278-VK","2018/01/12 18:39:36","新北市汐止區長江街63號","121.65671","25.071845","6501100","汐止區"
"221023","279-VK","2018/01/12 18:39:44","新北市汐止區康寧街611號","121.636203333333","25.07094","6501100","汐止區"
"221032","280-BY","2018/01/12 18:39:43","新北市汐止區民權街二段79號","121.61922","25.0481","6501100","汐止區"
"221027","281-BY","2018/01/12 18:39:25","新北市汐止區汐萬路一段115巷1號","121.654448333333","25.07048","6501100","汐止區"
"221029","298-VK","2018/01/12 18:39:48","新北市汐止區樟樹一路131號","121.642175","25.0649633333333","6501100","汐止區"
"221031","353-TW","2018/01/12 18:39:39","新北市汐止區福德一路274號","121.632111666667","25.0639983333333","6501100","汐止區"
"221008","358-BY","2018/01/12 18:39:37","新北市汐止區康寧街901號","121.651448333333","25.075085","6501100","汐止區"
"221015","567-BX","2018/01/12 18:39:45","新北市汐止區吉祥街26號","121.66777","25.08102","6501100","汐止區"
"221035","622-UM","2018/01/12 18:39:35","新北市汐止區新台五路一段79-7號","121.646415","25.0624283333333","6501100","汐止區"
"221025","623-UM","2018/01/12 18:39:42","新北市汐止區福安街20巷20號","121.661963333333","25.064595","6501100","汐止區"
"221038","646-BX","2018/01/12 18:39:33","新北市汐止區汐萬路一段256巷3號","121.65333","25.07465","6501100","汐止區"
"221033","647-BX","2018/01/12 18:39:42","新北市汐止區南勢街1巷1號","121.627096666667","25.0374866666667","6501100","汐止區"
"221002","707-TV","2018/01/12 18:39:47","新北市汐止區中興路23號","121.636936666667","25.0595733333333","6501100","汐止區"
"221018","753-BX","2018/01/12 18:39:43","新北市汐止區茄苳路277號","121.672398333333","25.0679933333333","6501100","汐止區"
"220079","145-BY","2018/01/12 18:39:29","新北市板橋區林園街7-1號","121.45395","25.009175","6500100","板橋區"
"220080","200-UY","2018/01/12 18:39:40","新北市板橋區大觀路二段443-2號","121.44105","24.9951816666667","6500100","板橋區"
"220082","610-BX","2018/01/12 18:39:40","新北市板橋區四川路二段橋頭1巷1號","121.446941666667","24.9940416666667","6500100","板橋區"
"220072","277-BY","2018/01/12 18:39:33","新北市板橋區四川路二段橋頭1巷1號","121.446796666667","24.9941216666667","6500100","板橋區"
"220094","285-UM","2018/01/12 18:39:29","新北市板橋區民生路二段120號","121.470388333333","25.0196483333333","6500100","板橋區"
"220053","285-VK","2018/01/12 18:39:31","新北市板橋區民生路二段161巷3號","121.470261666667","25.0198433333333","6500100","板橋區"
"220083","286-VK","2018/01/12 18:39:40","新北市板橋區板城路421號","121.448253333333","24.9958","6500100","板橋區"
"220081","287-VK","2018/01/12 18:39:45","新北市板橋區大觀路二段11-12號","121.448226666667","24.996745","6500100","板橋區"
"220061","293-UM","2018/01/12 18:39:47","新北市板橋區民生路二段161巷9號","121.47032","25.0196166666667","6500100","板橋區"
"220084","296-UM","2018/01/12 18:39:27","新北市板橋區板城路421號","121.448058333333","24.9963316666667","6500100","板橋區"
"220075","303-R5","2018/01/12 18:39:42","新北市板橋區大觀路288號","121.449516666667","24.9983433333333","6500100","板橋區"
"220062","305-R5","2018/01/12 18:39:40","新北市板橋區民生路二段120號","121.470358333333","25.019715","6500100","板橋區"
"220064","486-VK","2018/01/12 18:39:47","新北市板橋區中山路一段19號","121.459613333333","25.0086866666667","6500100","板橋區"
"220035","560-BX","2018/01/12 18:39:41","新北市板橋區南雅西路二段145巷10號","121.45155","25.012055","6500100","板橋區"
"220103","561-BX","2018/01/12 18:39:34","新北市板橋區民生路二段120號","121.47034","25.01972","6500100","板橋區"
"220071","568-UM","2018/01/12 18:39:35","新北市板橋區華東街1號","121.448535","24.994305","6500100","板橋區"
"220063","609-BX","2018/01/12 18:39:32","新北市板橋區民生路二段161巷1號","121.470133333333","25.0198466666667","6500100","板橋區"
"220056","630-UY","2018/01/12 18:39:45","新北市板橋區四川路二段140巷8號","121.449596666667","24.993225","6500100","板橋區"
"220057","686-BX","2018/01/12 18:39:44","新北市板橋區華東街1-9號","121.448191666667","24.9949066666667","6500100","板橋區"
"220077","687-BX","2018/01/12 18:39:36","新北市板橋區大觀路二段431-1號","121.441578333333","24.99511","6500100","板橋區"
"220054","741-BX","2018/01/12 18:39:41","新北市板橋區華東街1-9號","121.448091666667","24.9948833333333","6500100","板橋區"
"220067","829-TW","2018/01/12 18:39:36","新北市板橋區民生路二段120號","121.470463333333","25.0195983333333","6500100","板橋區"
"220074","895-R6","2018/01/12 18:39:40","新北市板橋區南雅南路二段144巷14號","121.450911666667","24.995905","6500100","板橋區"
"220073","985-R7","2018/01/12 18:39:31","新北市板橋區南雅南路二段144巷19號","121.450978333333","24.9958066666667","6500100","板橋區"
"220097","AAC-210","2018/01/12 18:39:47","新北市板橋區民生路二段161巷5號","121.47014","25.0196633333333","6500100","板橋區"
"220070","AAC-253","2018/01/12 18:39:42","新北市板橋區華東街1-9號","121.448276666667","24.99487","6500100","板橋區"
