"lineid","car","time","location","longitude","latitude","cityid","cityname"
"234046","148-BY","2018/01/12 19:29:32","新北市永和區得和路423號","121.526258333333","24.99921","6500400","永和區"
"234013","149-BY","2018/01/12 19:29:42","新北市永和區永和路二段28號","121.514765","25.0104316666667","6500400","永和區"
"234007","207-UY","2018/01/12 19:29:27","新北市永和區永和路一段216號","121.514386666667","25.0095666666667","6500400","永和區"
"234081","298-R6","2018/01/12 19:29:43","新北市永和區福和路5-1號","121.52499","25.0087366666667","6500400","永和區"
"234038","336-UY","2018/01/12 19:29:31","新北市永和區民樂街38號","121.527526666667","25.000745","6500400","永和區"
"234064","337-UY","2018/01/12 19:29:37","新北市永和區中正路368巷1弄86號","121.520423333333","25.0007516666667","6500400","永和區"
"234086","338-UY","2018/01/12 19:29:34","新北市永和區林森路99號","121.523361666667","25.0036366666667","6500400","永和區"
"234054","553-UM","2018/01/12 19:29:44","新北市永和區永和路二段168號","121.51552","25.0129966666667","6500400","永和區"
"234017","745-BX","2018/01/12 19:29:43","新北市永和區環河西路一段87號","121.512336666667","25.0179383333333","6500400","永和區"
"234030","746-BX","2018/01/12 19:29:36","新北市永和區民生路69號","121.522606666667","24.9972633333333","6500400","永和區"
"234042","838-RS","2018/01/12 19:29:36","新北市永和區中和路519巷4號","121.510841666667","25.0030316666667","6500400","永和區"
"234061","AAD-866","2018/01/12 19:29:30","新北市永和區中正路570號","121.517208333333","25.006235","6500400","永和區"
"234070","847-RS","2018/01/12 19:29:34","新北市永和區警光街5-1號","121.519696666667","25.009475","6500400","永和區"
"234050","863-TW","2018/01/12 19:29:22","新北市永和區信義路120號","121.512343333333","25.0146333333333","6500400","永和區"
"234026","9371-KE","2018/01/12 19:29:38","新北市中和區中安街90號","121.511945","25.0014783333333","6500400","永和區"
"234011","9373-KE","2018/01/12 19:29:34","新北市永和區保福路二段9巷15弄5號","121.510375","25.0108983333333","6500400","永和區"
"249003","593-UM","2018/01/12 19:29:40","新北市八里區商港六路13號","121.396666666667","25.1483233333333","6502300","八里區"
"248014","025-BX","2018/01/12 19:29:48","新北市五股區民義路一段185-19號","121.431195","25.0873616666667","6501500","五股區"
"248016","026-BX","2018/01/12 19:29:28","新北市五股區成洲五路12號","121.452326666667","25.101595","6501500","五股區"
"248008","095-VK","2018/01/12 19:29:34","新北市五股區中興路一段97號","121.466605","25.0729766666667","6501500","五股區"
"248018","225-UY","2018/01/12 19:20:40","新北市五股區壟路11-1號","121.415823333333","25.0847633333333","6501500","五股區"
"248012","247-BX","2018/01/12 19:29:42","新北市五股區成泰路二段97號","121.437993333333","25.08429","6501500","五股區"
"248004","677-BX","2018/01/12 19:29:43","新北市五股區五福路35號","121.43361","25.08946","6501500","五股區"
"248002","678-BX","2018/01/12 19:29:37","新北市五股區凌雲路一段158巷11號","121.447733333333","25.103355","6501500","五股區"
"248010","682-TV","2018/01/12 19:29:36","新北市五股區水碓一路23號","121.430643333333","25.071395","6501500","五股區"
"234023","9380-KE","2018/01/12 19:29:29","新北市永和區竹林路91巷21弄9號","121.52084","25.0125583333333","6500400","永和區"
"234077","969-R7","2018/01/12 19:29:42","新北市永和區民族街43巷8號","121.518928333333","24.9983983333333","6500400","永和區"
"234074","AAC-211","2018/01/12 19:29:40","新北市永和區環河東路一段140號","121.520958333333","25.015075","6500400","永和區"
"234067","AAC-212","2018/01/12 19:29:43","新北市永和區保平路176號","121.510868333333","25.0066866666667","6500400","永和區"
"234003","AAC-295","2018/01/12 19:29:42","新北市永和區福和路372號","121.514358333333","25.007665","6500400","永和區"
"244019","402-UM","2018/01/12 19:29:41","新北市林口區麗園二街12巷2-2號","121.378321666667","25.06908","6501700","林口區"
"244023","483-VK","2018/01/12 19:29:38","新北市林口區文化三路二段1-1號","121.372981666667","25.0784483333333","6501700","林口區"
"243012","AAD-798","2018/01/12 19:29:45","新北市泰山區仁愛路66號","121.432393333333","25.0548716666667","6501600","泰山區"
"243011","297-R6","2018/01/12 19:29:44","新北市泰山區中山路二段563號","121.42991","25.0405083333333","6501600","泰山區"
"243015","380-SR","2018/01/12 19:29:43","新北市泰山區明志路二段87號","121.428785","25.0521633333333","6501600","泰山區"
"243014","421-VK","2018/01/12 19:29:32","新北市泰山區中港西路422號","121.433768333333","25.0539166666667","6501600","泰山區"
"243010","KEA-2215","2018/01/12 19:29:35","新北市泰山區民權街37號","121.429158333333","25.0509133333333","6501600","泰山區"
"243009","KEA-2216","2018/01/12 19:29:34","新北市五股區成泰路一段7巷4號","121.433346666667","25.066725","6501600","泰山區"
"243013","646-TV","2018/01/12 19:29:34","新北市泰山區貴子路24號","121.425731666667","25.0419233333333","6501600","泰山區"
"243016","680-BX","2018/01/12 19:29:38","新北市泰山區明志路三段331號","121.422231666667","25.0356416666667","6501600","泰山區"
"222003","436-BY","2018/01/12 19:29:30","新北市深坑區深南路51-1號","121.621236666667","25.0098116666667","6501800","深坑區"
"222002","659-BX","2018/01/12 19:29:48","新北市深坑區北深路一段177號","121.632486666667","25.0108716666667","6501800","深坑區"
"231041","001-UM","2018/01/12 19:29:29","新北市新店區中正路547號","121.533793333333","24.987745","6500600","新店區"
"231066","0293-UT","2018/01/12 19:29:36","新北市新店區安康路三段165巷2弄1號","121.489361666667","24.95132","6500600","新店區"
"231059","046-UY","2018/01/12 19:29:35","新北市新店區安和路三段124號","121.516728333333","24.9856216666667","6500600","新店區"
"231061","047-UY","2018/01/12 19:29:42","新北市新店區吉安街21號","121.516168333333","24.9658266666667","6500600","新店區"
"231060","106-UY","2018/01/12 19:29:28","新北市新店區安康路二段85號","121.513515","24.9628633333333","6500600","新店區"
"231051","107-UY","2018/01/12 19:29:31","新北市新店區中央五街22-1號","121.529155","24.9746066666667","6500600","新店區"
"231048","108-UY","2018/01/12 19:29:41","新北市新店區五峰路63巷8弄72號","121.548015","24.9685083333333","6500600","新店區"
"231053","187-VK","2018/01/12 19:29:39","新北市新店區廣興路5巷19號","121.545648333333","24.914035","6500600","新店區"
"231050","KEA-2219","2018/01/12 19:29:29","新北市新店區北宜路二段277號","121.555033333333","24.9536366666667","6500600","新店區"
"231057","256-BX","2018/01/12 19:29:42","新北市新店區花園一路二段5號","121.549918333333","24.9336266666667","6500600","新店區"
"231046","278-BY","2018/01/12 19:29:27","新北市新店區光明街149號","121.539468333333","24.9622683333333","6500600","新店區"
"231054","AAD-862","2018/01/12 19:29:42","新北市新店區文中路40號","121.539758333333","24.95649","6500600","新店區"
"231058","3712-VJ","2018/01/12 19:29:40","新北市新店區寶橋路85巷23號","121.54526","24.9760883333333","6500600","新店區"
"231055","4716-K9","2018/01/12 19:29:40","新北市新店區新生街13巷26號","121.538931666667","24.9665083333333","6500600","新店區"
"231067","4772-VM","2018/01/12 19:29:30","新北市新店區車子路10-1號","121.504603333333","24.9548416666667","6500600","新店區"
"231065","512-UM","2018/01/12 19:29:41","新北市新店區安祥路109巷1弄13號","121.476061666667","24.95971","6500600","新店區"
"231064","515-UM","2018/01/12 19:29:32","新北市新店區安忠路57巷9弄2號","121.513498333333","24.9582583333333","6500600","新店區"
"231045","617-UM","2018/01/12 19:29:42","新北市新店區北宜路二段209號","121.55316","24.9532766666667","6500600","新店區"
"231040","619-UM","2018/01/12 19:29:48","新北市新店區北新路一段40號","121.540981666667","24.9660633333333","6500600","新店區"
"231042","641-BX","2018/01/12 19:29:30","新北市新店區中興路一段174號","121.543105","24.9645233333333","6500600","新店區"
"231063","645-TV","2018/01/12 19:29:30","新北市新店區達觀路16號","121.503038333333","24.9409566666667","6500600","新店區"
"231049","719-UM","2018/01/12 19:29:26","新北市新店區二十張路1巷2弄3號","121.540111666667","24.9819983333333","6500600","新店區"
"231062","720-UM","2018/01/12 19:29:44","新北市新店區精忠路2號","121.532965","24.9598","6500600","新店區"
"231044","897-TW","2018/01/12 19:29:46","新北市新店區中興路三段137號","121.5446","24.9797516666667","6500600","新店區"
"231043","899-TW","2018/01/12 19:29:40","新北市新店區北新路二段156-1號","121.542988333333","24.9755566666667","6500600","新店區"
"241028","022-UY","2018/01/12 19:29:44","新北市三重區中寮街90號","121.493245","25.058065","6500200","三重區"
"241008","059-VK","2018/01/12 19:29:41","新北市三重區永福街135巷34號","121.47752","25.0771216666667","6500200","三重區"
"241009","060-VK","2018/01/12 19:29:36","新北市三重區溪尾街242巷80號","121.485943333333","25.0813266666667","6500200","三重區"
"241031","061-VK","2018/01/12 19:29:33","新北市三重區集美街65-3號","121.488538333333","25.0540433333333","6500200","三重區"
"241017","063-VK","2018/01/12 19:29:39","新北市三重區中正北路25巷25弄2號","121.49321","25.06263","6500200","三重區"
"241026","066-VK","2018/01/12 19:29:45","新北市三重區文化南路47巷43號","121.499136666667","25.0611116666667","6500200","三重區"
"241020","156-TC","2018/01/12 19:29:43","新北市三重區三和路四段36號","121.490646666667","25.07439","6500200","三重區"
"241022","267-UM","2018/01/12 19:29:38","新北市三重區忠孝路三段40巷59號","121.483548333333","25.0653383333333","6500200","三重區"
"241032","269-UM","2018/01/12 19:29:41","新北市三重區三陽路25號","121.485585","25.0587766666667","6500200","三重區"
"241025","271-UM","2018/01/12 19:29:35","新北市三重區頂崁街210巷12弄10號","121.475786666667","25.06727","6500200","三重區"
"241007","398-BY","2018/01/12 19:29:35","新北市三重區溪尾街124-2號","121.48942","25.0794216666667","6500200","三重區"
"241030","480-VK","2018/01/12 19:29:21","新北市三重區成功路41巷7號","121.49031","25.0514316666667","6500200","三重區"
"241023","545-UM","2018/01/12 19:29:38","新北市三重區頂崁街99號","121.478033333333","25.063825","6500200","三重區"
"241006","AAD-863","2018/01/12 19:29:44","新北市三重區自強路三段101號","121.487776666667","25.0754033333333","6500200","三重區"
"241035","743-BX","2018/01/12 19:29:31","新北市三重區信義西街1號","121.498171666667","25.0648416666667","6500200","三重區"
"241029","942-UM","2018/01/12 19:29:43","新北市三重區中正南路216號","121.493826666667","25.0550833333333","6500200","三重區"
"241033","AAC-255","2018/01/12 19:29:28","新北市三重區光復路一段54巷6號","121.471665","25.0485266666667","6500200","三重區"
"235066","003-UY","2018/01/12 19:29:31","新北市中和區景新街72號","121.504328333333","24.9989283333333","6500300","中和區"
"235064","005-UY","2018/01/12 19:29:32","新北市中和區南山路81巷55號","121.504036666667","24.998095","6500300","中和區"
"235063","006-UY","2018/01/12 19:29:31","新北市中和區板南路335號","121.49422","24.9976916666667","6500300","中和區"
"235046","031-BX","2018/01/12 19:29:39","新北市中和區忠孝街37巷42號","121.510755","24.98487","6500300","中和區"
"235056","096-UM","2018/01/12 19:29:44","新北市中和區員山路557號","121.479575","25.0075816666667","6500300","中和區"
"235039","097-UM","2018/01/12 19:29:34","新北市中和區秀峰街87號","121.52133","24.9902283333333","6500300","中和區"
"235065","098-UM","2018/01/12 19:29:46","新北市中和區中山路二段2巷13弄11號","121.503568333333","25.0064566666667","6500300","中和區"
"235040","150-BY","2018/01/12 19:29:35","新北市中和區景安路79巷50號","121.507678333333","24.9957616666667","6500300","中和區"
"235058","151-BY","2018/01/12 19:29:43","新北市中和區員山路36巷16-2號","121.485215","24.9916766666667","6500300","中和區"
"235055","183-VK","2018/01/12 19:29:37","新北市中和區莒光路120巷58號","121.471635","25.000775","6500300","中和區"
"235038","185-VK","2018/01/12 19:29:48","新北市中和區立人街3號","121.521765","24.993995","6500300","中和區"
"235049","186-VK","2018/01/12 19:29:33","新北市中和區景新街273巷22號","121.510418333333","24.99394","6500300","中和區"
"235067","255-BX","2018/01/12 19:29:31","新北市中和區連城路467-3號","121.483885","24.9961583333333","6500300","中和區"
"235044","293-VK","2018/01/12 19:29:45","新北市中和區捷運路123-1號","121.50744","24.99054","6500300","中和區"
"235072","301-VK","2018/01/12 19:29:41","新北市中和區連城路265巷10弄1號","121.491715","24.9952383333333","6500300","中和區"
"235043","352-BY","2018/01/12 19:29:42","新北市中和區景新街155號","121.506615","24.9965283333333","6500300","中和區"
"235068","377-QA","2018/01/12 19:29:42","新北市中和區連勝街57巷14號","121.497883333333","24.9966966666667","6500300","中和區"
"235061","378-QA","2018/01/12 19:29:32","新北市中和區民利街47號","121.47952","24.998835","6500300","中和區"
"235050","4979-A6","2018/01/12 19:29:35","新北市中和區中正路424號","121.491726666667","24.9942066666667","6500300","中和區"
"235042","551-UM","2018/01/12 19:29:32","新北市中和區安樂路217巷35弄3號","121.513698333333","24.9979","6500300","中和區"
"235045","565-BX","2018/01/12 19:29:47","新北市中和區景新街400號","121.512601666667","24.989525","6500300","中和區"
"235054","640-BX","2018/01/12 19:29:49","新北市中和區國光街112巷22弄2-4號","121.469703333333","25.002185","6500300","中和區"
"235060","647-TV","2018/01/12 19:29:45","新北市中和區民有街82號","121.476091666667","25.0041433333333","6500300","中和區"
"235047","732-UM","2018/01/12 19:29:41","新北市中和區景平路323號","121.50598","24.992965","6500300","中和區"
"235057","801-TS","2018/01/12 19:29:38","新北市中和區員山路425號","121.480941666667","25.003485","6500300","中和區"
"235052","805-TS","2018/01/12 19:29:34","新北市中和區華新街143巷67弄35號","121.507528333333","24.979275","6500300","中和區"
"235048","896-TW","2018/01/12 19:29:43","新北市中和區忠孝街99號","121.512098333333","24.98585","6500300","中和區"
"235053","911-UM","2018/01/12 19:29:32","新北市中和區華順街25號","121.467231666667","24.9986316666667","6500300","中和區"
"235051","157-BY","2018/01/12 19:29:30","新北市中和區景平路221巷28號","121.50944","24.992185","6500300","中和區"
"235037","AAC-213","2018/01/12 19:29:39","新北市中和區秀朗路三段10巷14弄2號","121.525325","24.9964816666667","6500300","中和區"
"235059","AAC-215","2018/01/12 19:29:35","新北市中和區圓通路252巷6號","121.493058333333","24.99169","6500300","中和區"
"220065","072-UY","2018/01/12 19:29:33","新北市板橋區國泰街111巷11號","121.466075","25.0061033333333","6500100","板橋區"
"220086","073-UY","2018/01/12 19:29:45","新北市板橋區中正路257號","121.455776666667","25.0184216666667","6500100","板橋區"
"220106","075-UY","2018/01/12 19:29:40","新北市板橋區長江路三段58號","121.473581666667","25.0339116666667","6500100","板橋區"
"220069","AAD-861","2018/01/12 19:29:33","新北市板橋區大明街20巷29弄19號","121.45778","25.003425","6500100","板橋區"
"220096","120-SR","2018/01/12 19:29:32","新北市板橋區萬板路155號","121.473833333333","25.0234283333333","6500100","板橋區"
"247004","336-TH","2018/01/12 19:29:39","新北市蘆洲區長安街198號","121.458678333333","25.084085","6501400","蘆洲區"
"226004","205-ST","2018/01/12 19:29:31","新北市平溪區靜安路三段369號","121.780683333333","25.0455366666667","6502400","平溪區"
"235041","251-BX","2018/01/12 19:29:42","新北市中和區中和路350巷21弄1號","121.510726666667","25.0005916666667","6500300","中和區"
"228002","663-BX","2018/01/12 19:29:48","新北市貢寮區龍門里龍門街76號","121.931166666667","25.0268866666667","6502600","貢寮區"
"228001","670-TC","2018/01/12 19:29:37","新北市貢寮區真理里延平街68-1號","121.925395","25.057435","6502600","貢寮區"
"228003","828-UM","2018/01/12 19:29:37","新北市貢寮區和美里和美街29號","121.91386","25.0829016666667","6502600","貢寮區"
"224010","AGQ-8101","2018/01/12 19:29:14","新北市瑞芳區基山街3號","121.845305","25.1097616666667","6501200","瑞芳區"
"224006","676-BX","2018/01/12 19:29:33","新北市瑞芳區三爪子坑路106巷1-11號","121.807763333333","25.1051","6501200","瑞芳區"
"224002","639-TC","2018/01/12 19:29:43","新北市瑞芳區三爪子坑路13巷39號","121.814246666667","25.10677","6501200","瑞芳區"
"224009","285-BY","2018/01/12 19:29:46","新北市瑞芳區靜安路四段67號","121.79471","25.104705","6501200","瑞芳區"
"224005","271-BY","2018/01/12 19:29:36","新北市瑞芳區傑魚坑路191號","121.788031666667","25.10752","6501200","瑞芳區"
"227011","642-TC","2018/01/12 19:29:30","新北市雙溪區新基里新基北街43號","121.868196666667","25.0396833333333","6502500","雙溪區"
"227003","400-TW","2018/01/12 19:29:38","新北市雙溪區雙溪里光復街18號","121.865125","25.035455","6502500","雙溪區"
"253005","032-BX","2018/01/12 19:29:45","新北市石門區小坑9號","121.594378333333","25.2884166666667","6502200","石門區"
"253006","295-VK","2018/01/12 19:29:45","新北市石門區中山路70號","121.567543333333","25.2917266666667","6502200","石門區"
"222001","KEA-2212","2018/01/12 19:29:31","新北市深坑區深坑街10號","121.615965","25.0027383333333","6501800","深坑區"
"208002","742-BX","2018/01/12 19:29:39","新北市金山區仁愛路78巷2號","121.634666666667","25.2215233333333","6502700","金山區"
"208003","665-BX","2018/01/12 19:29:48","新北市金山區仁愛路66號","121.635176666667","25.2211933333333","6502700","金山區"
"208001","761-BX","2018/01/12 19:29:47","新北市金山區中正路9號","121.63696","25.2224633333333","6502700","金山區"
"251001","011-UM","2018/01/12 19:29:29","新北市淡水區民權路139-1號","121.460081666667","25.13649","6501000","淡水區"
"251010","413-VK","2018/01/12 19:29:46","新北市淡水區中正路二段200巷5號","121.425933333333","25.188485","6501000","淡水區"
"251012","441-VK","2018/01/12 19:29:31","新北市淡水區中山北路三段156號","121.445555","25.195755","6501000","淡水區"
"251005","443-VK","2018/01/12 19:29:41","新北市淡水區水源街一段71巷11號","121.444406666667","25.1729133333333","6501000","淡水區"
"251006","561-UM","2018/01/12 19:29:31","新北市淡水區大義街27號","121.442528333333","25.17828","6501000","淡水區"
"251009","575-R6","2018/01/12 19:29:46","新北市淡水區大忠街5巷1號","121.443233333333","25.1764766666667","6501000","淡水區"
"251007","577-R6","2018/01/12 19:29:40","新北市淡水區坪頂路50號","121.458008333333","25.16258","6501000","淡水區"
"251011","650-BX","2018/01/12 19:29:49","新北市淡水區中正東路二段143巷2弄7號","121.460571666667","25.14667","6501000","淡水區"
"251003","673-BX","2018/01/12 19:29:33","新北市淡水區中山北路二段383號","121.443955","25.18882","6501000","淡水區"
"207003","550-UM","2018/01/12 19:29:38","新北市萬里區大鵬里萬里加投158號","121.643945","25.215075","6502800","萬里區"
"207004","225-TW","2018/01/12 19:29:36","新北市萬里區萬里里瑪鋉路121號","121.689018333333","25.17817","6502800","萬里區"
"252002","178-VK","2018/01/12 19:29:38","新北市三芝區淡金路二段18-1號","121.502656666667","25.2595166666667","6502100","三芝區"
"252001","292-VK","2018/01/12 19:29:38","新北市三芝區長勤街50-1號","121.500213333333","25.25546","6502100","三芝區"
"237004","078-UY","2018/01/12 19:29:44","新北市三峽區有木130-2號","121.435366666667","24.8573983333333","6500900","三峽區"
"237007","153-BY","2018/01/12 19:29:44","新北市三峽區二鬮路178號","121.359126666667","24.9068","6500900","三峽區"
"237009","210-TH","2018/01/12 19:29:42","新北市三峽區民權街153-1號","121.368316666667","24.9311883333333","6500900","三峽區"
"237013","252-BX","2018/01/12 19:29:36","新北市三峽區介壽路一段311巷2號","121.38131","24.9305633333333","6500900","三峽區"
"237012","275-BY","2018/01/12 19:29:44","新北市三峽區三樹路98巷177號","121.384643333333","24.9401866666667","6500900","三峽區"
"237008","302-VK","2018/01/12 19:29:29","新北市三峽區永安街139號","121.373731666667","24.9282366666667","6500900","三峽區"
"237014","433-BY","2018/01/12 19:29:34","新北市三峽區民權街153-1號","121.36848","24.9314133333333","6500900","三峽區"
"237006","5529-G3","2018/01/12 19:29:40","新北市三峽區大同路98-6號","121.375283333333","24.92741","6500900","三峽區"
"237005","AKY-6261","2018/01/12 19:29:35","新北市三峽區復興路367巷1弄21號","121.364163333333","24.93806","6500900","三峽區"
"236072","105-UM","2018/01/12 19:29:35","新北市土城區學府路一段159號","121.453206666667","24.9857966666667","6501300","土城區"
"236079","166-UM","2018/01/12 19:29:34","新北市土城區中州路35號","121.413501666667","24.9579216666667","6501300","土城區"
"236031","253-BX","2018/01/12 19:29:30","新北市土城區中央路一段324號","121.443246666667","24.9816383333333","6501300","土城區"
"236027","269-VK","2018/01/12 19:29:48","新北市土城區中央路二段61巷22號","121.443233333333","24.9786983333333","6501300","土城區"
"236022","401-BY","2018/01/12 19:29:35","新北市土城區峰廷街3號","121.469113333333","24.9873383333333","6501300","土城區"
"236059","912-UM","2018/01/12 19:29:48","新北市土城區中央路二段280號","121.440775","24.9740283333333","6501300","土城區"
"236050","913-UM","2018/01/12 19:29:29","新北市土城區清水路178號","121.46007","24.9816833333333","6501300","土城區"
"242032","AAC-296","2018/01/12 19:29:44","新北市新莊區新泰路227號","121.446088333333","25.0392133333333","6500500","新莊區"
"242044","442-UM","2018/01/12 19:29:28","新北市新莊區龍安路70號","121.415243333333","25.0216066666667","6500500","新莊區"
"238015","755-BX","2018/01/12 19:29:28","新北市樹林區復興路197號","121.42053","24.991565","6500700","樹林區"
"238023","601-UM","2018/01/12 19:29:45","新北市樹林區中正路865號","121.40877","25.0182116666667","6500700","樹林區"
"238019","599-UM","2018/01/12 19:29:33","新北市樹林區大同街7號","121.418643333333","24.9828233333333","6500700","樹林區"
"238018","571-TV","2018/01/12 19:29:40","新北市樹林區環河路10號","121.426836666667","24.9779066666667","6500700","樹林區"
"238024","5061-A6","2018/01/12 19:29:43","新北市樹林區山佳街57號","121.392901666667","24.9725033333333","6500700","樹林區"
"238021","KEA-2217","2018/01/12 19:29:32","新北市樹林區柑園街二段247巷20號","121.375093333333","24.9501233333333","6500700","樹林區"
"238022","KEA-2213","2018/01/12 19:29:41","新北市樹林區太順街35號","121.418803333333","24.9795433333333","6500700","樹林區"
"238025","303-VK","2018/01/12 19:29:40","新北市樹林區中山路一段47號","121.42405","24.9923783333333","6500700","樹林區"
"238017","283-BY","2018/01/12 19:29:48","新北市樹林區保安街二段169號","121.414976666667","25.0029666666667","6500700","樹林區"
"238014","282-BY","2018/01/12 19:29:29","新北市樹林區保安二街64巷29號","121.424413333333","24.9967766666667","6500700","樹林區"
"238020","268-VK","2018/01/12 19:29:38","新北市樹林區俊英街111巷1-10號","121.423916666667","25.009435","6500700","樹林區"
"238026","172-UY","2018/01/12 19:29:39","新北市樹林區佳園路三段61號","121.387801666667","24.9530983333333","6500700","樹林區"
"238016","169-UY","2018/01/12 19:29:39","新北市樹林區中山路二段128號","121.413355","24.9829233333333","6500700","樹林區"
"239007","AAC-297","2018/01/12 19:29:38","新北市鶯歌區大湖路326巷34號","121.346013333333","24.9697066666667","6500800","鶯歌區"
"239006","891-R6","2018/01/12 19:29:28","新北市鶯歌區文化路60號","121.356286666667","24.954675","6500800","鶯歌區"
"239001","417-VK","2018/01/12 19:29:41","新北市鶯歌區國華路71-1號","121.342958333333","24.9543916666667","6500800","鶯歌區"
"239003","360-BY","2018/01/12 19:29:26","新北市鶯歌區中正一路478號","121.366526666667","24.9568516666667","6500800","鶯歌區"
"239002","359-BY","2018/01/12 19:29:35","新北市鶯歌區大湖路277號","121.345278333333","24.9732516666667","6500800","鶯歌區"
"221036","130-UY","2018/01/12 19:29:37","新北市汐止區汐萬路一段256巷1號","121.651943333333","25.074795","6501100","汐止區"
"221010","269-BY","2018/01/12 19:29:35","新北市汐止區連峰街5巷2號","121.646563333333","25.0769383333333","6501100","汐止區"
"221012","278-VK","2018/01/12 19:29:43","新北市汐止區大同路三段174號","121.674045","25.0749766666667","6501100","汐止區"
"221023","279-VK","2018/01/12 19:29:44","新北市汐止區康寧街753巷1-1號","121.639123333333","25.0737216666667","6501100","汐止區"
"221032","280-BY","2018/01/12 19:29:43","新北市汐止區大同路二段175號","121.651641666667","25.0643116666667","6501100","汐止區"
"221027","281-BY","2018/01/12 19:29:45","新北市汐止區忠孝東路9號","121.658296666667","25.0659533333333","6501100","汐止區"
"221029","298-VK","2018/01/12 19:29:48","新北市汐止區康寧街901號","121.651531666667","25.0748983333333","6501100","汐止區"
"221031","353-TW","2018/01/12 19:29:39","新北市汐止區康寧街901號","121.651688333333","25.0749316666667","6501100","汐止區"
"221008","358-BY","2018/01/12 19:29:37","新北市汐止區康寧街145號","121.62209","25.0667266666667","6501100","汐止區"
"221015","567-BX","2018/01/12 19:29:45","新北市汐止區康寧街901號","121.651598333333","25.0748883333333","6501100","汐止區"
"221025","623-UM","2018/01/12 19:29:42","新北市汐止區新台五路二段10號","121.660286666667","25.06506","6501100","汐止區"
"221038","646-BX","2018/01/12 19:29:33","新北市汐止區汐萬路一段39-3號","121.654873333333","25.06955","6501100","汐止區"
"221033","647-BX","2018/01/12 19:29:42","新北市汐止區南勢街3號","121.627068333333","25.0374066666667","6501100","汐止區"
"221002","707-TV","2018/01/12 19:29:47","新北市汐止區大同路一段341號","121.638683333333","25.0594633333333","6501100","汐止區"
"220079","145-BY","2018/01/12 19:29:27","新北市板橋區建國街10號","121.45716","25.01688","6500100","板橋區"
"220080","200-UY","2018/01/12 19:29:40","新北市板橋區大觀路二段37巷226號","121.449445","25.0010783333333","6500100","板橋區"
"220101","245-BX","2018/01/12 19:29:42","新北市板橋區縣民大道三段127巷25號","121.476856666667","25.0238016666667","6500100","板橋區"
"220072","277-BY","2018/01/12 19:29:33","新北市板橋區篤行路二段151巷11號","121.430456666667","24.987495","6500100","板橋區"
"220093","280-UM","2018/01/12 19:29:37","新北市板橋區新海路389號","121.458858333333","25.026335","6500100","板橋區"
"220094","285-UM","2018/01/12 19:29:30","新北市板橋區吳鳳路36號","121.468638333333","25.0303433333333","6500100","板橋區"
"220053","285-VK","2018/01/12 19:29:31","新北市板橋區富山街53巷1弄54號","121.477978333333","25.020585","6500100","板橋區"
"220083","286-VK","2018/01/12 19:29:40","新北市板橋區大觀路二段174巷157號","121.44153","25.0029883333333","6500100","板橋區"
"220081","287-VK","2018/01/12 19:29:45","新北市板橋區南雅南路一段106號","121.454955","25.0043283333333","6500100","板橋區"
"220090","288-VK","2018/01/12 19:29:41","新北市板橋區裕民街51號","121.461246666667","25.0285283333333","6500100","板橋區"
"220061","293-UM","2018/01/12 19:29:46","新北市板橋區中山路二段255巷7號","121.477016666667","25.01793","6500100","板橋區"
"220084","296-UM","2018/01/12 19:29:47","新北市板橋區篤行路三段43號","121.428413333333","24.98646","6500100","板橋區"
"220075","303-R5","2018/01/12 19:29:42","新北市板橋區中正路305巷28弄2號","121.454441666667","25.0187933333333","6500100","板橋區"
"220062","305-R5","2018/01/12 19:29:40","新北市板橋區三民路二段123巷22號","121.480276666667","25.0156016666667","6500100","板橋區"
"220092","307-R5","2018/01/12 19:29:31","新北市板橋區松江街14號","121.469183333333","25.0261983333333","6500100","板橋區"
"220098","317-R6","2018/01/12 19:29:43","新北市板橋區民生路三段281巷2弄4號","121.463631666667","25.0300183333333","6500100","板橋區"
"220064","486-VK","2018/01/12 19:29:47","新北市板橋區館前東路25號","121.460536666667","25.0072216666667","6500100","板橋區"
"220089","487-VK","2018/01/12 19:29:38","新北市板橋區文化路一段123號","121.461853333333","25.0148916666667","6500100","板橋區"
"220088","491-VK","2018/01/12 19:29:40","新北市板橋區雙十路二段83-3號","121.475893333333","25.027365","6500100","板橋區"
"220035","560-BX","2018/01/12 19:29:40","新北市板橋區中正路401號","121.454218333333","25.0221583333333","6500100","板橋區"
"220103","561-BX","2018/01/12 19:29:44","新北市板橋區文化路一段270巷1弄1號","121.46748","25.02095","6500100","板橋區"
"220071","568-UM","2018/01/12 19:29:35","新北市板橋區忠孝路24巷22號","121.46024","25.0009966666667","6500100","板橋區"
"220063","609-BX","2018/01/12 19:29:44","新北市板橋區三民路一段5巷23號","121.480026666667","25.0235466666667","6500100","板橋區"
"220056","630-UY","2018/01/12 19:29:45","新北市板橋區信義路1巷26弄45號","121.459626666667","24.9967466666667","6500100","板橋區"
"220091","637-BX","2018/01/12 19:29:35","新北市板橋區文聖街149巷25號","121.479511666667","25.0285816666667","6500100","板橋區"
"220057","686-BX","2018/01/12 19:29:44","新北市板橋區國慶路188號","121.463183333333","24.9962883333333","6500100","板橋區"
"220077","687-BX","2018/01/12 19:29:35","新北市板橋區僑中三街1號","121.446826666667","25.0041516666667","6500100","板橋區"
"220054","741-BX","2018/01/12 19:29:44","新北市板橋區光明街3號","121.460246666667","25.0025366666667","6500100","板橋區"
"220055","827-TW","2018/01/12 19:29:36","新北市板橋區重慶路290巷22弄14號","121.462266666667","24.9994533333333","6500100","板橋區"
"220067","829-TW","2018/01/12 19:29:43","新北市板橋區長安街138巷5弄4號","121.473118333333","25.0086883333333","6500100","板橋區"
"220102","830-TW","2018/01/12 19:29:43","新北市板橋區雙十路二段122號","121.47431","25.0290183333333","6500100","板橋區"
"220074","895-R6","2018/01/12 19:29:40","新北市板橋區中正路1巷14號","121.455228333333","25.0115983333333","6500100","板橋區"
"220073","985-R7","2018/01/12 19:29:31","新北市板橋區中正路280號","121.455036666667","25.0201366666667","6500100","板橋區"
"220097","AAC-210","2018/01/12 19:29:47","新北市板橋區漢生西路151巷1號","121.463085","25.0222416666667","6500100","板橋區"
"220070","AAC-253","2018/01/12 19:29:42","新北市板橋區四川路一段10巷2號","121.459366666667","25.0067033333333","6500100","板橋區"
