"lineid","car","time","location","longitude","latitude","cityid","cityname"
"234046","148-BY","2018/01/12 19:39:32","新北市永和區成功路一段76號","121.526253333333","25.00339","6500400","永和區"
"234013","149-BY","2018/01/12 19:39:42","新北市永和區永平路222號","121.509095","25.0105833333333","6500400","永和區"
"234007","207-UY","2018/01/12 19:39:27","新北市中和區中和路464號","121.512328333333","25.0038733333333","6500400","永和區"
"234081","298-R6","2018/01/12 19:39:29","新北市永和區林森路20巷7號","121.525861666667","25.0057016666667","6500400","永和區"
"234038","336-UY","2018/01/12 19:39:31","新北市永和區民樂街29號","121.52778","25.00151","6500400","永和區"
"234064","337-UY","2018/01/12 19:39:37","新北市永和區秀朗路一段192巷6弄10號","121.5191","25.002355","6500400","永和區"
"234086","338-UY","2018/01/12 19:39:34","新北市永和區永亨路165巷1-4號","121.526171666667","25.0042333333333","6500400","永和區"
"234054","553-UM","2018/01/12 19:39:44","新北市永和區竹林路39巷18號","121.51868","25.0146266666667","6500400","永和區"
"234017","745-BX","2018/01/12 19:39:43","新北市永和區環河西路一段51巷24號","121.514171666667","25.0175466666667","6500400","永和區"
"234030","746-BX","2018/01/12 19:39:36","新北市永和區民生路37巷7號","121.523671666667","24.9980216666667","6500400","永和區"
"234042","838-RS","2018/01/12 19:39:36","新北市中和區宜安路180號","121.508758333333","24.99935","6500400","永和區"
"234061","AAD-866","2018/01/12 19:39:30","新北市永和區中正路456號","121.5175","25.00293","6500400","永和區"
"234070","847-RS","2018/01/12 19:39:34","新北市永和區永和路二段233號","121.51559","25.0141766666667","6500400","永和區"
"234050","863-TW","2018/01/12 19:39:42","新北市永和區保安路53號","121.509445","25.01577","6500400","永和區"
"234026","9371-KE","2018/01/12 19:39:38","新北市永和區雙和街7巷7-1號","121.50956","25.0014166666667","6500400","永和區"
"249004","303-UY","2018/01/12 19:39:34","新北市八里區博物館路10-1號","121.41515","25.1640216666667","6502300","八里區"
"249002","305-UY","2018/01/12 19:39:30","新北市八里區頂寮二街42號","121.450443333333","25.125215","6502300","八里區"
"249003","593-UM","2018/01/12 19:39:40","新北市八里區中華路二段526號","121.399373333333","25.145655","6502300","八里區"
"248014","025-BX","2018/01/12 19:39:48","新北市五股區工商路166號","121.433563333333","25.0881183333333","6501500","五股區"
"248016","026-BX","2018/01/12 19:39:48","新北市五股區成泰路3段651-1號","121.452906666667","25.10538","6501500","五股區"
"248008","095-VK","2018/01/12 19:39:34","新北市五股區四維路116-2號","121.467883333333","25.074545","6501500","五股區"
"248018","225-UY","2018/01/12 19:33:00","新北市五股區外寮路1-1號","121.425751666667","25.0767716666667","6501500","五股區"
"248012","247-BX","2018/01/12 19:39:38","新北市五股區成泰路二段138號","121.438106666667","25.0837483333333","6501500","五股區"
"248004","677-BX","2018/01/12 19:39:43","新北市五股區成泰路二段112號","121.437868333333","25.0833","6501500","五股區"
"248002","678-BX","2018/01/12 19:39:37","新北市五股區成泰路三段577巷49號","121.45067","25.1031816666667","6501500","五股區"
"248010","682-TV","2018/01/12 19:39:36","新北市五股區水碓一路23號","121.430693333333","25.0713833333333","6501500","五股區"
"234077","969-R7","2018/01/12 19:39:42","新北市永和區民權路1巷8號","121.520633333333","24.9983516666667","6500400","永和區"
"234074","AAC-211","2018/01/12 19:39:40","新北市永和區竹林路214號","121.52077","25.008155","6500400","永和區"
"234067","AAC-212","2018/01/12 19:39:42","新北市永和區中山路一段201號","121.508948333333","25.00876","6500400","永和區"
"234003","AAC-295","2018/01/12 19:39:42","新北市永和區自由街77巷1號","121.513216666667","25.0051283333333","6500400","永和區"
"244019","402-UM","2018/01/12 19:39:41","新北市林口區文化二路一段490-8號","121.375953333333","25.0781416666667","6501700","林口區"
"243012","AAD-798","2018/01/12 19:39:45","新北市泰山區仁愛路100巷64號","121.433886666667","25.0542016666667","6501600","泰山區"
"243011","297-R6","2018/01/12 19:39:44","新北市泰山區明志路三段204巷1號","121.421506666667","25.038195","6501600","泰山區"
"243015","380-SR","2018/01/12 19:39:43","新北市泰山區民權街53號","121.429115","25.05034","6501600","泰山區"
"243014","421-VK","2018/01/12 19:39:36","新北市泰山區泰林路二段37-1號","121.435421666667","25.0573433333333","6501600","泰山區"
"243010","KEA-2215","2018/01/12 19:39:35","新北市泰山區民生路30號","121.430975","25.051995","6501600","泰山區"
"243009","KEA-2216","2018/01/12 19:39:34","新北市泰山區美寧街58號","121.430741666667","25.0646483333333","6501600","泰山區"
"243013","646-TV","2018/01/12 19:39:34","新北市泰山區應化街13號","121.423816666667","25.0437116666667","6501600","泰山區"
"243016","680-BX","2018/01/12 19:39:37","新北市泰山區新北大道七段93號","121.41794","25.0319866666667","6501600","泰山區"
"222003","436-BY","2018/01/12 19:31:44","新北市深坑區深南路51-1號","121.621245","25.0098183333333","6501800","深坑區"
"222002","659-BX","2018/01/12 19:39:28","新北市深坑區北深路一段177號","121.632493333333","25.0108916666667","6501800","深坑區"
"231041","001-UM","2018/01/12 19:39:29","新北市新店區中正路487號","121.533706666667","24.98211","6500600","新店區"
"231066","0293-UT","2018/01/12 19:39:36","新北市新店區吉安街43號","121.51531","24.96602","6500600","新店區"
"231059","046-UY","2018/01/12 19:39:35","新北市新店區安和路二段240號","121.516551666667","24.978345","6500600","新店區"
"231061","047-UY","2018/01/12 19:39:42","新北市新店區安民街192號","121.517138333333","24.971605","6500600","新店區"
"231060","106-UY","2018/01/12 19:39:28","新北市新店區安康路二段161號","121.510215","24.9592816666667","6500600","新店區"
"231051","107-UY","2018/01/12 19:39:31","新北市新店區中央四街29號","121.528696666667","24.9744116666667","6500600","新店區"
"231048","108-UY","2018/01/12 19:39:41","新北市新店區五峰路57-1號","121.54729","24.9707833333333","6500600","新店區"
"231053","187-VK","2018/01/12 19:39:40","新北市新店區新烏路二段331號","121.550221666667","24.9105233333333","6500600","新店區"
"231050","KEA-2219","2018/01/12 19:39:29","新北市新店區郵政路1號","121.557645","24.9526616666667","6500600","新店區"
"231057","256-BX","2018/01/12 19:39:42","新北市新店區橘園一路11號","121.548021666667","24.934035","6500600","新店區"
"231046","278-BY","2018/01/12 19:39:47","新北市新店區中正路329巷7弄1號","121.535155","24.9741666666667","6500600","新店區"
"231054","AAD-862","2018/01/12 19:39:42","新北市新店區北宜路一段37號","121.538381666667","24.9575016666667","6500600","新店區"
"231058","3712-VJ","2018/01/12 19:39:40","新北市新店區中正路104號","121.543188333333","24.97059","6500600","新店區"
"231056","3713-VJ","2018/01/12 19:39:34","新北市新店區柴埕路59號","121.513575","24.964905","6500600","新店區"
"231055","4716-K9","2018/01/12 19:39:40","新北市新店區新生街13巷26號","121.538946666667","24.9664916666667","6500600","新店區"
"231067","4772-VM","2018/01/12 19:39:30","新北市新店區精忠路10-1號","121.532708333333","24.959025","6500600","新店區"
"231065","512-UM","2018/01/12 19:39:41","新北市新店區安祥路109巷90弄78號","121.475893333333","24.9584366666667","6500600","新店區"
"231064","515-UM","2018/01/12 19:39:32","新北市新店區安和路一段52巷2號","121.517615","24.96614","6500600","新店區"
"231045","617-UM","2018/01/12 19:39:42","新北市新店區北宜路二段234號","121.559945","24.954445","6500600","新店區"
"231040","619-UM","2018/01/12 19:39:48","新北市新店區北新路一段96巷23號","121.542995","24.9688416666667","6500600","新店區"
"231042","641-BX","2018/01/12 19:39:30","新北市新店區中興路一段216號","121.543956666667","24.9657033333333","6500600","新店區"
"231063","645-TV","2018/01/12 19:39:30","新北市新店區達觀路41號","121.502823333333","24.938225","6500600","新店區"
"231049","719-UM","2018/01/12 19:39:46","新北市新店區建國路128巷1號","121.539085","24.97938","6500600","新店區"
"231062","720-UM","2018/01/12 19:39:43","新北市新店區永業路23號","121.533245","24.9556966666667","6500600","新店區"
"231044","897-TW","2018/01/12 19:39:46","新北市新店區北新路三段218號","121.54109","24.9843583333333","6500600","新店區"
"231043","899-TW","2018/01/12 19:39:40","新北市新店區中正路134號","121.54198","24.9713966666667","6500600","新店區"
"241011","013-R5","2018/01/12 19:39:46","新北市三重區秀江街186號","121.497838333333","25.071595","6500200","三重區"
"241028","022-UY","2018/01/12 19:39:44","新北市三重區中正南路157號","121.493863333333","25.0561133333333","6500200","三重區"
"241008","059-VK","2018/01/12 19:39:41","新北市三重區永福街68號","121.479035","25.0769533333333","6500200","三重區"
"241009","060-VK","2018/01/12 19:39:36","新北市三重區永安北路一段105-1號","121.480088333333","25.0793383333333","6500200","三重區"
"241031","061-VK","2018/01/12 19:39:33","新北市三重區重新路四段248號","121.486048333333","25.05339","6500200","三重區"
"241015","062-VK","2018/01/12 19:39:31","新北市三重區福德北路34號","121.502108333333","25.0652416666667","6500200","三重區"
"241017","063-VK","2018/01/12 19:39:39","新北市三重區重陽路三段5巷8弄33號","121.49041","25.0663233333333","6500200","三重區"
"241026","066-VK","2018/01/12 19:39:45","新北市三重區文化南路65巷34號","121.499178333333","25.0607216666667","6500200","三重區"
"241020","156-TC","2018/01/12 19:39:43","新北市三重區自強路三段43巷23號","121.487763333333","25.072975","6500200","三重區"
"241018","265-UM","2018/01/12 19:39:33","新北市三重區大智街65號","121.492538333333","25.0681133333333","6500200","三重區"
"241022","267-UM","2018/01/12 19:39:38","新北市三重區中正北路70號","121.486535","25.0646033333333","6500200","三重區"
"241032","269-UM","2018/01/12 19:39:41","新北市三重區三陽路116巷4號","121.483106666667","25.0582583333333","6500200","三重區"
"241013","270-UM","2018/01/12 19:39:37","新北市三重區仁愛街123-3號","121.495843333333","25.0749816666667","6500200","三重區"
"241025","271-UM","2018/01/12 19:39:35","新北市三重區忠孝路三段99巷11號","121.480033333333","25.0645883333333","6500200","三重區"
"241007","398-BY","2018/01/12 19:39:35","新北市三重區仁美街61號","121.486715","25.0783583333333","6500200","三重區"
"241019","478-VK","2018/01/12 19:39:39","新北市三重區六張街194巷1弄12號","121.488288333333","25.0681783333333","6500200","三重區"
"241030","480-VK","2018/01/12 19:39:41","新北市三重區新興路30-1號","121.491796666667","25.0530216666667","6500200","三重區"
"241014","543-UM","2018/01/12 19:39:44","新北市三重區長壽街196號","121.50422","25.0690466666667","6500200","三重區"
"241023","545-UM","2018/01/12 19:39:37","新北市三重區忠孝路三段99巷11號","121.479826666667","25.0643066666667","6500200","三重區"
"241001","547-UM","2018/01/12 19:39:36","新北市三重區仁愛街315巷19號","121.493548333333","25.0797266666667","6500200","三重區"
"241006","AAD-863","2018/01/12 19:39:44","新北市三重區聯華街96號","121.485516666667","25.0752233333333","6500200","三重區"
"241035","743-BX","2018/01/12 19:39:31","新北市三重區信義西街40號","121.498286666667","25.0647116666667","6500200","三重區"
"241012","941-UM","2018/01/12 19:39:31","新北市三重區仁義街15號","121.500225","25.0758166666667","6500200","三重區"
"241029","942-UM","2018/01/12 19:39:43","新北市三重區光明路122號","121.492941666667","25.0559566666667","6500200","三重區"
"241033","AAC-255","2018/01/12 19:39:28","新北市三重區五谷王南街46巷11號","121.474863333333","25.044995","6500200","三重區"
"235066","003-UY","2018/01/12 19:39:31","新北市中和區中和路196巷11號","121.50514","24.9991516666667","6500300","中和區"
"235064","005-UY","2018/01/12 19:39:32","新北市中和區南山路127巷32弄2號","121.503955","24.9976433333333","6500300","中和區"
"235063","006-UY","2018/01/12 19:39:31","新北市中和區連城路171巷41弄1號","121.496431666667","24.9966483333333","6500300","中和區"
"235046","031-BX","2018/01/12 19:39:39","新北市中和區忠孝街79號","121.512166666667","24.985155","6500300","中和區"
"235056","096-UM","2018/01/12 19:39:44","新北市中和區民富街68號","121.476503333333","25.0075866666667","6500300","中和區"
"235039","097-UM","2018/01/12 19:39:34","新北市中和區秀峰街119巷8弄9號","121.5191","24.9899033333333","6500300","中和區"
"235065","098-UM","2018/01/12 19:39:26","新北市中和區永和路9巷1號","121.499251666667","25.0040116666667","6500300","中和區"
"235040","150-BY","2018/01/12 19:39:35","新北市中和區宜安路92巷1號","121.51088","24.997615","6500300","中和區"
"235058","151-BY","2018/01/12 19:39:43","新北市中和區連城路525-3號","121.481415","24.995025","6500300","中和區"
"235055","183-VK","2018/01/12 19:39:37","新北市中和區中山路三段181巷6號","121.472868333333","25.0058083333333","6500300","中和區"
"235038","185-VK","2018/01/12 19:39:48","新北市中和區自立路141巷3號","121.522423333333","24.993525","6500300","中和區"
"235049","186-VK","2018/01/12 19:39:34","新北市中和區景平路568號","121.502028333333","24.99533","6500300","中和區"
"235067","255-BX","2018/01/12 19:39:31","新北市中和區新生街220巷4號","121.482898333333","24.9985933333333","6500300","中和區"
"235044","293-VK","2018/01/12 19:39:45","新北市中和區南山路421巷1弄3號","121.50739","24.9895916666667","6500300","中和區"
"235072","301-VK","2018/01/12 19:39:41","新北市中和區中正路432巷30號","121.49086","24.995735","6500300","中和區"
"235043","352-BY","2018/01/12 19:39:42","新北市中和區興南路一段129號","121.508883333333","24.987655","6500300","中和區"
"235068","377-QA","2018/01/12 19:39:42","新北市中和區泰和街12號","121.49991","25.0010266666667","6500300","中和區"
"235061","378-QA","2018/01/12 19:39:32","新北市中和區民樂路1號","121.481486666667","25.0011683333333","6500300","中和區"
"235050","4979-A6","2018/01/12 19:39:35","新北市中和區中正路589巷15號","121.485651666667","24.9935166666667","6500300","中和區"
"235042","551-UM","2018/01/12 19:39:32","新北市中和區中安街222號","121.512151666667","24.9987466666667","6500300","中和區"
"235045","565-BX","2018/01/12 19:39:47","新北市中和區景新街557號","121.515366666667","24.9864283333333","6500300","中和區"
"235054","640-BX","2018/01/12 19:39:29","新北市中和區國光街85巷10號","121.470423333333","24.999825","6500300","中和區"
"235060","647-TV","2018/01/12 19:39:45","新北市中和區員山路294巷22號","121.4824","25.0023433333333","6500300","中和區"
"235047","732-UM","2018/01/12 19:39:42","新北市中和區南山路281號","121.504241666667","24.9923416666667","6500300","中和區"
"235057","801-TS","2018/01/12 19:39:39","新北市中和區員山路240號","121.481451666667","25.00133","6500300","中和區"
"235052","805-TS","2018/01/12 19:39:34","新北市中和區華新街206巷9號","121.506358333333","24.982365","6500300","中和區"
"235048","896-TW","2018/01/12 19:39:43","新北市中和區華新街42號","121.507838333333","24.9842333333333","6500300","中和區"
"235053","911-UM","2018/01/12 19:39:32","新北市中和區國光街184巷15號","121.467281666667","25.0020866666667","6500300","中和區"
"235051","157-BY","2018/01/12 19:39:30","新北市中和區景平路566號","121.501945","24.995425","6500300","中和區"
"235037","AAC-213","2018/01/12 19:39:39","新北市中和區秀朗路三段50巷2-1號","121.52579","24.99544","6500300","中和區"
"235059","AAC-215","2018/01/12 19:39:35","新北市中和區錦和路201號","121.490968333333","24.9903633333333","6500300","中和區"
"220065","072-UY","2018/01/12 19:39:41","新北市板橋區國泰街39巷5弄10號","121.468736666667","25.005975","6500100","板橋區"
"220086","073-UY","2018/01/12 19:39:45","新北市板橋區復興街19號","121.457726666667","25.01745","6500100","板橋區"
"220106","075-UY","2018/01/12 19:39:40","新北市板橋區文化路二段426號","121.474068333333","25.0317366666667","6500100","板橋區"
"220069","AAD-861","2018/01/12 19:39:33","新北市板橋區縣民大道一段64巷3號","121.455538333333","25.0037416666667","6500100","板橋區"
"220096","120-SR","2018/01/12 19:39:47","新北市板橋區民生路二段240巷37號","121.469428333333","25.0230533333333","6500100","板橋區"
"247008","341-TH","2018/01/12 19:39:29","新北市蘆洲區中山一路195號","121.474376666667","25.0811183333333","6501400","蘆洲區"
"247004","336-TH","2018/01/12 19:39:39","新北市蘆洲區長安街98巷21號","121.463048333333","25.0819616666667","6501400","蘆洲區"
"226004","205-ST","2018/01/12 19:39:31","新北市平溪區十分里十分街76號","121.776328333333","25.0421233333333","6502400","平溪區"
"235041","251-BX","2018/01/12 19:39:42","新北市中和區中和路460號","121.512166666667","25.0038483333333","6500300","中和區"
"228001","670-TC","2018/01/12 19:39:37","新北市貢寮區真理里大澳街3號","121.924766666667","25.0556766666667","6502600","貢寮區"
"228003","828-UM","2018/01/12 19:39:37","新北市貢寮區真理里美艷山街15-3號","121.923708333333","25.0680016666667","6502600","貢寮區"
"224010","AGQ-8101","2018/01/12 19:39:34","新北市瑞芳區基山街271號","121.840891666667","25.107575","6501200","瑞芳區"
"224002","639-TC","2018/01/12 19:39:45","新北市瑞芳區民享新村1號","121.817528333333","25.105565","6501200","瑞芳區"
"224009","285-BY","2018/01/12 19:39:46","新北市瑞芳區靜安路四段5號","121.795098333333","25.0797616666667","6501200","瑞芳區"
"227011","642-TC","2018/01/12 19:39:30","新北市雙溪區新基里新基北街22號","121.867241666667","25.0389966666667","6502500","雙溪區"
"227003","400-TW","2018/01/12 19:39:38","新北市雙溪區雙溪里太平路33號","121.864566666667","25.0354166666667","6502500","雙溪區"
"222001","KEA-2212","2018/01/12 19:39:31","新北市深坑區北深路二段206號","121.612666666667","25.001585","6501800","深坑區"
"208002","742-BX","2018/01/12 19:39:40","新北市金山區三民街32號","121.634856666667","25.223375","6502700","金山區"
"208003","665-BX","2018/01/12 19:39:28","新北市金山區中山路302號","121.634516666667","25.2246516666667","6502700","金山區"
"208001","761-BX","2018/01/12 19:39:47","新北市金山區六股里頂六股13號","121.612278333333","25.2224266666667","6502700","金山區"
"251001","011-UM","2018/01/12 19:39:29","新北市淡水區民權路41號","121.45979","25.1402433333333","6501000","淡水區"
"251008","181-VK","2018/01/12 19:39:34","新北市淡水區中正路一段8巷2弄2號","121.428155","25.1771666666667","6501000","淡水區"
"251010","413-VK","2018/01/12 19:39:42","新北市淡水區崁頂92號","121.429355","25.201795","6501000","淡水區"
"251012","441-VK","2018/01/12 19:39:31","新北市淡水區中山北路三段156號","121.445606666667","25.1956816666667","6501000","淡水區"
"251005","443-VK","2018/01/12 19:39:41","新北市淡水區原德路108巷2號","121.44338","25.1735316666667","6501000","淡水區"
"251006","561-UM","2018/01/12 19:39:31","新北市淡水區中山北路一段247巷70號","121.442968333333","25.1794083333333","6501000","淡水區"
"251009","575-R6","2018/01/12 19:39:46","新北市淡水區重建街222號","121.441441666667","25.1748083333333","6501000","淡水區"
"251007","577-R6","2018/01/12 19:39:40","新北市淡水區中正東路一段111巷20號","121.45516","25.1608766666667","6501000","淡水區"
"251011","650-BX","2018/01/12 19:39:49","新北市淡水區八勢一街7-17號","121.460766666667","25.1572583333333","6501000","淡水區"
"251002","672-BX","2018/01/12 19:39:46","新北市淡水區下圭柔山90-8號","121.431261666667","25.2103366666667","6501000","淡水區"
"207003","550-UM","2018/01/12 19:39:38","新北市萬里區大鵬里下社50號","121.648418333333","25.2158916666667","6502800","萬里區"
"207004","225-TW","2018/01/12 19:39:36","新北市萬里區萬里里瑪鋉路21號","121.687403333333","25.1753783333333","6502800","萬里區"
"252002","178-VK","2018/01/12 19:39:39","新北市三芝區三民街31號","121.50459","25.2585283333333","6502100","三芝區"
"252001","292-VK","2018/01/12 19:39:38","新北市三芝區公正街66號","121.499776666667","25.2574583333333","6502100","三芝區"
"237004","078-UY","2018/01/12 19:39:44","新北市三峽區金敏189號","121.392863333333","24.8736016666667","6500900","三峽區"
"237007","153-BY","2018/01/12 19:39:44","新北市三峽區二鬮路112號","121.35996","24.9086883333333","6500900","三峽區"
"237009","210-TH","2018/01/12 19:39:42","新北市三峽區中園街13-1號","121.36866","24.92709","6500900","三峽區"
"237013","252-BX","2018/01/12 19:39:32","新北市三峽區橫溪路15號","121.396241666667","24.93591","6500900","三峽區"
"237012","275-BY","2018/01/12 19:39:25","新北市三峽區民生街95號","121.374436666667","24.9355533333333","6500900","三峽區"
"237008","302-VK","2018/01/12 19:39:29","新北市三峽區中正路一段292巷12弄6號","121.371053333333","24.92613","6500900","三峽區"
"237014","433-BY","2018/01/12 19:39:35","新北市三峽區添福2號","121.371811666667","24.9063683333333","6500900","三峽區"
"237006","5529-G3","2018/01/12 19:39:40","新北市三峽區中正路一段336巷15弄2號","121.369951666667","24.924925","6500900","三峽區"
"237015","649-BX","2018/01/12 19:32:31","新北市三峽區成福路49號","121.418043333333","24.9288633333333","6500900","三峽區"
"237005","AKY-6261","2018/01/12 19:39:35","新北市三峽區中山路231巷1弄6號","121.363115","24.9367016666667","6500900","三峽區"
"236072","105-UM","2018/01/12 19:39:35","新北市土城區學士路14號","121.453548333333","24.98288","6501300","土城區"
"236043","107-UM","2018/01/12 19:39:36","新北市土城區學士路12巷2號","121.453601666667","24.9830233333333","6501300","土城區"
"236079","166-UM","2018/01/12 19:39:45","新北市土城區溪頭路119號","121.409873333333","24.9515033333333","6501300","土城區"
"236031","253-BX","2018/01/12 19:39:33","新北市土城區福祥街97號","121.441416666667","24.98135","6501300","土城區"
"236027","269-VK","2018/01/12 19:39:28","新北市土城區中央路二段61巷28號","121.443376666667","24.978765","6501300","土城區"
"236039","271-VK","2018/01/12 19:39:35","新北市土城區清水路98巷3弄40號","121.45884","24.9808116666667","6501300","土城區"
"236022","401-BY","2018/01/12 19:39:35","新北市土城區峰廷街3號","121.469118333333","24.9873633333333","6501300","土城區"
"236050","913-UM","2018/01/12 19:39:28","新北市土城區明德路一段71號","121.465691666667","24.9833016666667","6501300","土城區"
"236063","915-UM","2018/01/12 19:39:33","新北市土城區延平街66號","121.467841666667","24.99282","6501300","土城區"
"236055","AAC-216","2018/01/12 19:39:42","新北市土城區學府路一段146號","121.454838333333","24.9870316666667","6501300","土城區"
"242032","AAC-296","2018/01/12 19:39:44","新北市新莊區新泰路213巷56號","121.444898333333","25.0384333333333","6500500","新莊區"
"242027","612-BX","2018/01/12 19:39:39","新北市新莊區新泰路255巷83號","121.442186666667","25.0390966666667","6500500","新莊區"
"242044","442-UM","2018/01/12 19:39:48","新北市新莊區新北大道七段712號","121.412305","25.02658","6500500","新莊區"
"242037","133-UY","2018/01/12 19:39:36","新北市新莊區民安路207巷12弄2號","121.426881666667","25.0230216666667","6500500","新莊區"
"242013","346-TH","2018/01/12 19:39:33","新北市新莊區中誠街121巷3號","121.449528333333","25.0473216666667","6500500","新莊區"
"242019","348-TH","2018/01/12 19:39:31","新北市新莊區新泰路369巷24號","121.442558333333","25.0433266666667","6500500","新莊區"
"242017","350-TH","2018/01/12 19:39:33","新北市新莊區三和路12-21號","121.441785","25.03864","6500500","新莊區"
"238015","755-BX","2018/01/12 19:39:28","新北市樹林區日新街79號","121.42187","24.99063","6500700","樹林區"
"238023","601-UM","2018/01/12 19:39:45","新北市樹林區三福街60號","121.405346666667","25.016335","6500700","樹林區"
"238018","571-TV","2018/01/12 19:39:40","新北市樹林區中山路三段214號","121.379978333333","24.9674866666667","6500700","樹林區"
"238024","5061-A6","2018/01/12 19:39:43","新北市樹林區育德街78-1號","121.387953333333","24.9682216666667","6500700","樹林區"
"238021","KEA-2217","2018/01/12 19:39:27","新北市樹林區學成路752號","121.383513333333","24.946435","6500700","樹林區"
"238022","KEA-2213","2018/01/12 19:39:41","新北市樹林區名園街51巷6弄16號","121.420895","24.9780816666667","6500700","樹林區"
"238025","303-VK","2018/01/12 19:39:40","新北市樹林區中山路二段54號","121.41637","24.9844683333333","6500700","樹林區"
"238017","283-BY","2018/01/12 19:39:28","新北市樹林區保安街二段45巷13弄6號","121.415273333333","24.99968","6500700","樹林區"
"238014","282-BY","2018/01/12 19:39:49","新北市樹林區千歲街30巷30弄2號","121.425928333333","24.9963283333333","6500700","樹林區"
"238020","268-VK","2018/01/12 19:39:38","新北市板橋區大觀路三段50巷89號","121.431308333333","24.9964216666667","6500700","樹林區"
"238026","172-UY","2018/01/12 19:39:39","新北市樹林區佳園路二段15巷21號","121.394418333333","24.9628416666667","6500700","樹林區"
"238016","169-UY","2018/01/12 19:39:39","新北市樹林區中山路三段210-2號","121.380716666667","24.96669","6500700","樹林區"
"239007","AAC-297","2018/01/12 19:39:38","新北市鶯歌區大湖路358號","121.346306666667","24.9726016666667","6500800","鶯歌區"
"239006","891-R6","2018/01/12 19:39:48","新北市鶯歌區中正一路478號","121.366713333333","24.956895","6500800","鶯歌區"
"239002","359-BY","2018/01/12 19:39:35","新北市鶯歌區大湖路74號","121.342545","24.96267","6500800","鶯歌區"
"221036","130-UY","2018/01/12 19:39:37","新北市汐止區汐萬路一段256巷1號","121.651938333333","25.074795","6501100","汐止區"
"221010","269-BY","2018/01/12 19:39:35","新北市汐止區汐萬路二段23巷1號","121.649536666667","25.0807883333333","6501100","汐止區"
"221012","278-VK","2018/01/12 19:39:36","新北市汐止區大同路三段370號","121.681023333333","25.0713166666667","6501100","汐止區"
"221023","279-VK","2018/01/12 19:39:44","新北市汐止區中興路286巷1號","121.628196666667","25.0695683333333","6501100","汐止區"
"221032","280-BY","2018/01/12 19:39:43","新北市汐止區橫科路119號","121.62009","25.0504233333333","6501100","汐止區"
"221027","281-BY","2018/01/12 19:39:45","新北市汐止區忠孝東路9號","121.658316666667","25.0659216666667","6501100","汐止區"
"221029","298-VK","2018/01/12 19:39:27","新北市汐止區康寧街901號","121.65148","25.0750016666667","6501100","汐止區"
"221021","299-VK","2018/01/12 19:39:44","新北市汐止區南興路28號","121.652248333333","25.06158","6501100","汐止區"
"221031","353-TW","2018/01/12 19:39:39","新北市汐止區康寧街901號","121.651663333333","25.0749733333333","6501100","汐止區"
"221008","358-BY","2018/01/12 19:39:37","新北市汐止區康寧街61巷31號","121.619433333333","25.067465","6501100","汐止區"
"221015","567-BX","2018/01/12 19:39:45","新北市汐止區康寧街901號","121.651523333333","25.0749516666667","6501100","汐止區"
"221025","623-UM","2018/01/12 19:39:42","新北市汐止區福安街20巷13號","121.662353333333","25.06475","6501100","汐止區"
"221038","646-BX","2018/01/12 19:39:48","新北市汐止區忠孝東路225號","121.662335","25.0669616666667","6501100","汐止區"
"221033","647-BX","2018/01/12 19:39:42","台北市南港區舊莊街二段10巷1號","121.62641","25.0375766666667","6501100","汐止區"
"221002","707-TV","2018/01/12 19:39:47","新北市汐止區大同路一段342號","121.638015","25.05903","6501100","汐止區"
"221018","753-BX","2018/01/12 19:39:43","新北市汐止區汐萬路一段312號","121.650416666667","25.0751033333333","6501100","汐止區"
"220079","145-BY","2018/01/12 19:39:38","新北市板橋區建國街117號","121.46051","25.01761","6500100","板橋區"
"220080","200-UY","2018/01/12 19:39:40","新北市板橋區大觀路二段37巷52號","121.449068333333","25.0025366666667","6500100","板橋區"
"220101","245-BX","2018/01/12 19:39:42","新北市板橋區縣民大道三段33巷6弄1號","121.47393","25.0212483333333","6500100","板橋區"
"220072","277-BY","2018/01/12 19:39:33","新北市板橋區金門街253巷17弄1號","121.433148333333","24.988685","6500100","板橋區"
"220093","280-UM","2018/01/12 19:39:36","新北市板橋區民生路三段319號","121.462783333333","25.03099","6500100","板橋區"
"220094","285-UM","2018/01/12 19:39:29","新北市板橋區宏國路97-3號","121.469786666667","25.032315","6500100","板橋區"
"220053","285-VK","2018/01/12 19:39:31","新北市板橋區中山路二段148巷32號","121.477083333333","25.0160466666667","6500100","板橋區"
"220083","286-VK","2018/01/12 19:39:40","新北市板橋區龍興街65巷20號","121.443206666667","25.00167","6500100","板橋區"
"220081","287-VK","2018/01/12 19:39:45","新北市板橋區大觀路一段75巷1號","121.447313333333","25.0045033333333","6500100","板橋區"
"220090","288-VK","2018/01/12 19:39:41","新北市板橋區新海路431巷20號","121.457765","25.0268366666667","6500100","板橋區"
"220061","293-UM","2018/01/12 19:39:46","新北市板橋區中山路一段273號","121.468995","25.0135033333333","6500100","板橋區"
"220084","296-UM","2018/01/12 19:39:47","新北市板橋區滿平二街32號","121.42523","24.9875366666667","6500100","板橋區"
"220075","303-R5","2018/01/12 19:39:46","新北市板橋區大仁街110巷24號","121.452535","25.0167316666667","6500100","板橋區"
"220062","305-R5","2018/01/12 19:39:40","新北市板橋區三民路二段29巷2號","121.481385","25.018","6500100","板橋區"
"220092","307-R5","2018/01/12 19:39:48","新北市板橋區文化路一段387巷29-3號","121.4658","25.02234","6500100","板橋區"
"220098","317-R6","2018/01/12 19:39:43","新北市板橋區四維路269巷62號","121.460756666667","25.0272116666667","6500100","板橋區"
"220064","486-VK","2018/01/12 19:39:29","新北市板橋區民權路45號","121.46199","25.0113466666667","6500100","板橋區"
"220089","487-VK","2018/01/12 19:39:38","新北市板橋區雨農路19號","121.461603333333","25.024315","6500100","板橋區"
"220088","491-VK","2018/01/12 19:39:46","新北市板橋區文化路二段560號","121.476426666667","25.0343533333333","6500100","板橋區"
"220035","560-BX","2018/01/12 19:39:40","新北市板橋區金華街85巷19號","121.458348333333","25.0214283333333","6500100","板橋區"
"220103","561-BX","2018/01/12 19:39:33","新北市板橋區文化路一段288號","121.467381666667","25.0214566666667","6500100","板橋區"
"220071","568-UM","2018/01/12 19:39:35","新北市板橋區四川路一段475號","121.457083333333","24.997495","6500100","板橋區"
"220063","609-BX","2018/01/12 19:39:32","新北市板橋區中山路二段505巷22號","121.482125","25.02211","6500100","板橋區"
"220056","630-UY","2018/01/12 19:39:44","新北市板橋區四川路二段47巷2弄2號","121.454021666667","24.9950016666667","6500100","板橋區"
"220091","637-BX","2018/01/12 19:39:35","新北市板橋區懷德街139巷14-3號","121.479566666667","25.030595","6500100","板橋區"
"220057","686-BX","2018/01/12 19:39:44","新北市中和區和平路226-3號","121.464265","24.9963283333333","6500100","板橋區"
"220077","687-BX","2018/01/12 19:39:35","新北市板橋區僑中一街125巷1號","121.445751666667","25.011735","6500100","板橋區"
"220054","741-BX","2018/01/12 19:39:47","新北市板橋區忠孝路239巷14號","121.466706666667","25.0031766666667","6500100","板橋區"
"220055","827-TW","2018/01/12 19:39:38","新北市板橋區國慶路149巷21弄11號","121.4603","24.99729","6500100","板橋區"
"220067","829-TW","2018/01/12 19:39:47","新北市板橋區長安街150號","121.473083333333","25.010375","6500100","板橋區"
"220102","830-TW","2018/01/12 19:39:46","新北市板橋區文化路二段410巷39號","121.47482","25.03027","6500100","板橋區"
"220074","895-R6","2018/01/12 19:39:43","新北市板橋區府中路34號","121.457748333333","25.00962","6500100","板橋區"
"220073","985-R7","2018/01/12 19:39:31","新北市板橋區國光路67巷14號","121.459015","25.0186616666667","6500100","板橋區"
"220097","AAC-210","2018/01/12 19:39:46","新北市板橋區漢生西路89巷2弄12-2號","121.461748333333","25.0196433333333","6500100","板橋區"
"220070","AAC-253","2018/01/12 19:39:43","新北市板橋區民族路292號","121.470333333333","25.0067733333333","6500100","板橋區"
