"lineid","car","time","location","longitude","latitude","cityid","cityname"
"234046","148-BY","2018/01/12 20:09:32","新北市永和區得和路326號","121.52326","24.99958","6500400","永和區"
"234013","149-BY","2018/01/12 20:09:42","新北市永和區永貞路424號","121.50815","25.0087066666667","6500400","永和區"
"234007","207-UY","2018/01/12 20:09:47","新北市永和區保順路37巷13號","121.502983333333","25.0102733333333","6500400","永和區"
"234081","298-R6","2018/01/12 20:09:41","新北市永和區國中路109巷3弄1號","121.52392","25.0055833333333","6500400","永和區"
"234038","336-UY","2018/01/12 20:09:31","新北市永和區成功路一段66號","121.526801666667","25.0037183333333","6500400","永和區"
"234064","337-UY","2018/01/12 20:09:37","新北市永和區秀朗路二段43號","121.521566666667","25.002495","6500400","永和區"
"234086","338-UY","2018/01/12 20:09:34","新北市永和區福和路196號","121.52004","25.0077233333333","6500400","永和區"
"234054","553-UM","2018/01/12 20:09:44","新北市永和區博愛街15號","121.517195","25.0158766666667","6500400","永和區"
"234017","745-BX","2018/01/12 20:09:43","新北市永和區文化路123號","121.512313333333","25.0153216666667","6500400","永和區"
"234030","746-BX","2018/01/12 20:09:36","新北市永和區民權路49巷35號","121.521921666667","24.997565","6500400","永和區"
"234042","838-RS","2018/01/12 20:09:36","新北市永和區中和路463號","121.509908333333","25.00172","6500400","永和區"
"234061","AAD-866","2018/01/12 20:09:30","新北市永和區中正路129巷6號","121.515596666667","24.9982133333333","6500400","永和區"
"234070","847-RS","2018/01/12 20:09:35","新北市永和區福和路183巷1號","121.520053333333","25.0072616666667","6500400","永和區"
"234050","863-TW","2018/01/12 20:09:42","新北市永和區環河西路二段149號","121.505646666667","25.0140883333333","6500400","永和區"
"234011","9373-KE","2018/01/12 20:09:34","新北市永和區仁愛路352巷122弄15號","121.500788333333","25.008935","6500400","永和區"
"249005","172-UM","2018/01/12 20:09:48","新北市八里區下罟子57-8號","121.387698333333","25.138545","6502300","八里區"
"249001","173-UM","2018/01/12 20:09:46","新北市八里區中華路二段326號","121.403193333333","25.147975","6502300","八里區"
"249004","303-UY","2018/01/12 20:07:54","新北市八里區中山路一段157巷67號","121.412268333333","25.1577333333333","6502300","八里區"
"249002","305-UY","2018/01/12 20:09:30","新北市八里區龍米路一段51號","121.456476666667","25.1193033333333","6502300","八里區"
"249003","593-UM","2018/01/12 20:09:40","新北市八里區中山路二段540巷28號","121.397031666667","25.1470416666667","6502300","八里區"
"248014","025-BX","2018/01/12 20:09:48","新北市五股區成泰路三段43號","121.442138333333","25.0886916666667","6501500","五股區"
"248016","026-BX","2018/01/12 20:09:28","新北市五股區凌雲路一段158巷57弄1號","121.447088333333","25.10448","6501500","五股區"
"248018","225-UY","2018/01/12 20:09:40","新北市五股區登林路108號","121.427","25.0705733333333","6501500","五股區"
"248012","247-BX","2018/01/12 20:09:38","新北市五股區六合街118號","121.430263333333","25.09079","6501500","五股區"
"248004","677-BX","2018/01/12 20:09:43","新北市五股區成泰路一段137號","121.4355","25.0728633333333","6501500","五股區"
"248002","678-BX","2018/01/12 20:09:37","新北市五股區成泰路三段355號","121.44866","25.0955966666667","6501500","五股區"
"248010","682-TV","2018/01/12 20:09:36","新北市五股區成泰路一段7巷20號","121.433076666667","25.0668616666667","6501500","五股區"
"234023","9380-KE","2018/01/12 20:09:29","新北市永和區中正路662巷48號","121.518343333333","25.0088166666667","6500400","永和區"
"234077","969-R7","2018/01/12 20:09:42","新北市永和區民光街34號","121.516563333333","24.9957416666667","6500400","永和區"
"234074","AAC-211","2018/01/12 20:09:40","新北市永和區豫溪街148號","121.521796666667","25.0103933333333","6500400","永和區"
"234067","AAC-212","2018/01/12 20:09:42","新北市永和區保平路214巷10弄2號","121.509341666667","25.0065066666667","6500400","永和區"
"234003","AAC-295","2018/01/12 20:09:46","新北市永和區自強街37號","121.515943333333","25.0080383333333","6500400","永和區"
"243012","AAD-798","2018/01/12 20:09:45","新北市泰山區楓江路86巷16-1號","121.437425","25.0624916666667","6501600","泰山區"
"243011","297-R6","2018/01/12 20:09:44","新北市泰山區德安街9號","121.419445","25.0319033333333","6501600","泰山區"
"243015","380-SR","2018/01/12 20:09:43","新北市泰山區明志路一段395號","121.430845","25.057445","6501600","泰山區"
"243014","421-VK","2018/01/12 20:09:32","新北市泰山區明志路一段24號","121.433586666667","25.0655566666667","6501600","泰山區"
"243010","KEA-2215","2018/01/12 20:09:35","新北市泰山區明志路二段214巷16弄49號","121.426901666667","25.0505733333333","6501600","泰山區"
"243009","KEA-2216","2018/01/12 20:09:34","新北市泰山區泰林路二段116巷1弄1號","121.4348","25.0594","6501600","泰山區"
"243013","646-TV","2018/01/12 20:09:34","新北市泰山區民國街31號","121.425928333333","25.043885","6501600","泰山區"
"243016","680-BX","2018/01/12 20:09:38","新北市泰山區貴陽街11號","121.421635","25.0335183333333","6501600","泰山區"
"222003","436-BY","2018/01/12 20:09:30","新北市深坑區埔新街60號","121.620181666667","25.0024483333333","6501800","深坑區"
"222002","659-BX","2018/01/12 20:09:28","新北市深坑區北深路三段158巷32弄1號","121.601655","25.0044966666667","6501800","深坑區"
"231041","001-UM","2018/01/12 20:09:29","新北市新店區中正路468號","121.533971666667","24.97944","6500600","新店區"
"231066","0293-UT","2018/01/12 20:09:36","新北市新店區吉安街30號","121.51606","24.9660116666667","6500600","新店區"
"231059","046-UY","2018/01/12 20:09:41","新北市新店區安德街60巷27號","121.511043333333","24.9632366666667","6500600","新店區"
"231061","047-UY","2018/01/12 20:09:42","新北市新店區安興路32號","121.515773333333","24.9703716666667","6500600","新店區"
"231060","106-UY","2018/01/12 20:09:48","新北市新店區安康路三段351號","121.484896666667","24.9513066666667","6500600","新店區"
"231051","107-UY","2018/01/12 20:09:51","新北市新店區中央六街9號","121.530198333333","24.97462","6500600","新店區"
"231048","108-UY","2018/01/12 20:09:41","新北市新店區永華街49號","121.544288333333","24.9758933333333","6500600","新店區"
"231053","187-VK","2018/01/12 20:09:39","新北市新店區新烏路三段117號","121.552161666667","24.9028666666667","6500600","新店區"
"231050","KEA-2219","2018/01/12 20:09:29","新北市新店區北新路一段96巷23號","121.542821666667","24.9687133333333","6500600","新店區"
"231057","256-BX","2018/01/12 20:09:42","新北市新店區花園一路一段2號","121.553126666667","24.93247","6500600","新店區"
"231054","AAD-862","2018/01/12 20:09:42","新北市新店區檳榔路40號","121.541563333333","24.9637583333333","6500600","新店區"
"231056","3713-VJ","2018/01/12 20:09:34","新北市新店區北新路二段29巷3弄1號","121.542228333333","24.97299","6500600","新店區"
"231055","4716-K9","2018/01/12 20:09:40","新北市新店區中華路42巷17號","121.540668333333","24.96887","6500600","新店區"
"231067","4772-VM","2018/01/12 20:09:30","新北市新店區溪洲路6巷40-1號","121.533658333333","24.96292","6500600","新店區"
"231065","512-UM","2018/01/12 20:09:41","新北市新店區安祥路106巷88號","121.474506666667","24.9596483333333","6500600","新店區"
"231064","515-UM","2018/01/12 20:09:32","新北市新店區安康路二段118-11號","121.51313","24.9635683333333","6500600","新店區"
"231045","617-UM","2018/01/12 20:09:42","新北市新店區北宜路一段107-2號","121.539586666667","24.954975","6500600","新店區"
"231040","619-UM","2018/01/12 20:09:28","新北市新店區中正路106號","121.543126666667","24.97054","6500600","新店區"
"231042","641-BX","2018/01/12 20:09:30","新北市新店區中興路二段230號","121.547823333333","24.9752133333333","6500600","新店區"
"231063","645-TV","2018/01/12 20:09:30","新北市新店區黎明路52巷9號","121.502011666667","24.9487516666667","6500600","新店區"
"231068","718-UY","2018/01/12 20:09:42","新北市新店區寶興路42巷37號","121.547618333333","24.9719166666667","6500600","新店區"
"231049","719-UM","2018/01/12 20:09:46","新北市新店區北新路二段121巷1-2號","121.542215","24.9748083333333","6500600","新店區"
"231062","720-UM","2018/01/12 20:09:44","新北市新店區安豐路22巷20號","121.50321","24.9544883333333","6500600","新店區"
"231044","897-TW","2018/01/12 20:09:46","新北市新店區寶慶街58巷8號","121.54205","24.9871016666667","6500600","新店區"
"231043","899-TW","2018/01/12 20:09:40","新北市新店區民族路188號","121.536831666667","24.9761033333333","6500600","新店區"
"241011","013-R5","2018/01/12 20:09:46","新北市三重區三和路三段45號","121.495593333333","25.0715466666667","6500200","三重區"
"241028","022-UY","2018/01/12 20:09:44","新北市三重區仁化街137號","121.494673333333","25.0575033333333","6500200","三重區"
"241008","059-VK","2018/01/12 20:09:41","新北市三重區永福街197巷15-1號","121.478946666667","25.0743833333333","6500200","三重區"
"241009","060-VK","2018/01/12 20:09:36","新北市三重區永福街123號","121.479011666667","25.0770233333333","6500200","三重區"
"241031","061-VK","2018/01/12 20:09:33","新北市三重區過圳街19號","121.488725","25.0601616666667","6500200","三重區"
"241015","062-VK","2018/01/12 20:09:31","新北市三重區福德北路30號","121.502213333333","25.064985","6500200","三重區"
"241017","063-VK","2018/01/12 20:09:39","新北市三重區自強路一段147-1號","121.493998333333","25.0667766666667","6500200","三重區"
"241024","065-VK","2018/01/12 20:09:41","新北市三重區中正北路288號","121.480418333333","25.06868","6500200","三重區"
"241026","066-VK","2018/01/12 20:09:45","新北市三重區福德南路53號","121.503018333333","25.061575","6500200","三重區"
"241002","090-VK","2018/01/12 20:09:33","新北市三重區仁義街233號","121.496428333333","25.0823366666667","6500200","三重區"
"241003","091-VK","2018/01/12 20:09:38","新北市三重區仁愛街472號","121.489655","25.0824416666667","6500200","三重區"
"241020","156-TC","2018/01/12 20:09:43","新北市三重區三和路三段162號","121.49278","25.0730733333333","6500200","三重區"
"241018","265-UM","2018/01/12 20:09:33","新北市三重區正義北路256巷44號","121.49497","25.0682133333333","6500200","三重區"
"241016","266-UM","2018/01/12 20:09:45","新北市三重區重新路三段47巷5弄52號","121.493793333333","25.06251","6500200","三重區"
"241022","267-UM","2018/01/12 20:09:38","新北市三重區新北大道一段58號","121.487325","25.06152","6500200","三重區"
"241032","269-UM","2018/01/12 20:09:41","新北市三重區捷運路65號","121.483393333333","25.0556033333333","6500200","三重區"
"241013","270-UM","2018/01/12 20:09:37","新北市三重區三和路三段139巷21號","121.493528333333","25.0739333333333","6500200","三重區"
"241025","271-UM","2018/01/12 20:09:42","新北市三重區中正北路416號","121.475283333333","25.07072","6500200","三重區"
"241007","398-BY","2018/01/12 20:09:35","新北市三重區三和路四段111-8號","121.486378333333","25.0775083333333","6500200","三重區"
"241004","475-VK","2018/01/12 20:09:41","新北市三重區仁愛街362號","121.491461666667","25.0803833333333","6500200","三重區"
"241019","478-VK","2018/01/12 20:09:48","新北市三重區自強路二段33巷36號","121.490358333333","25.0697716666667","6500200","三重區"
"241030","480-VK","2018/01/12 20:09:41","新北市三重區成功路145巷35號","121.48779","25.0532233333333","6500200","三重區"
"241014","543-UM","2018/01/12 20:09:44","新北市三重區長樂街112號","121.501591666667","25.069575","6500200","三重區"
"241023","545-UM","2018/01/12 20:09:37","新北市三重區頂崁街225號","121.47699","25.0681866666667","6500200","三重區"
"241001","547-UM","2018/01/12 20:09:36","新北市三重區三和路四段87號","121.489538333333","25.0757383333333","6500200","三重區"
"241035","743-BX","2018/01/12 20:09:31","新北市三重區平安街3號","121.498951666667","25.0642983333333","6500200","三重區"
"241012","941-UM","2018/01/12 20:09:31","新北市三重區仁愛街125巷95號","121.498358333333","25.0761133333333","6500200","三重區"
"241029","942-UM","2018/01/12 20:09:43","新北市三重區光明路32巷26號","121.491905","25.0587283333333","6500200","三重區"
"241033","AAC-255","2018/01/12 20:09:48","新北市三重區光復路一段61巷27號","121.473548333333","25.0491516666667","6500200","三重區"
"235066","003-UY","2018/01/12 20:09:31","新北市中和區水源路115號","121.508051666667","25.003475","6500300","中和區"
"235046","031-BX","2018/01/12 20:09:39","新北市中和區忠孝街31巷5號","121.510426666667","24.9832116666667","6500300","中和區"
"235039","097-UM","2018/01/12 20:09:34","新北市中和區景平路278巷16弄24號","121.51442","24.9937583333333","6500300","中和區"
"235065","098-UM","2018/01/12 20:09:46","新北市中和區永和路86號","121.497465","25.00526","6500300","中和區"
"235040","150-BY","2018/01/12 20:09:35","新北市中和區保健路31號","121.508605","24.9977766666667","6500300","中和區"
"235068","377-QA","2018/01/12 20:09:42","新北市中和區福祥路93號","121.498813333333","25.00601","6500300","中和區"
"235050","4979-A6","2018/01/12 20:09:35","新北市中和區景新街300號","121.511268333333","24.9919183333333","6500300","中和區"
"235069","4980-A6","2018/01/12 20:09:42","新北市中和區南山路127巷27弄16號","121.503443333333","24.99797","6500300","中和區"
"235051","157-BY","2018/01/12 20:09:30","新北市中和區景安路220巷4弄1號","121.503363333333","24.990965","6500300","中和區"
"235037","AAC-213","2018/01/12 20:09:39","新北市中和區自強路20號","121.520206666667","24.99536","6500300","中和區"
"235059","AAC-215","2018/01/12 20:09:35","新北市中和區圓通路335巷33弄17號","121.492976666667","24.98898","6500300","中和區"
"220069","AAD-861","2018/01/12 20:09:33","新北市板橋區大明街18-5號","121.458763333333","25.003015","6500100","板橋區"
"247022","893-R6","2018/01/12 20:09:39","新北市蘆洲區三民路175號","121.470928333333","25.0871","6501400","蘆洲區"
"247012","546-UM","2018/01/12 20:09:49","新北市蘆洲區民族路252號","121.478963333333","25.08877","6501400","蘆洲區"
"247020","500-BY","2018/01/12 20:09:31","新北市蘆洲區民權路106巷5弄22號","121.47427","25.089185","6501400","蘆洲區"
"247008","341-TH","2018/01/12 20:09:29","新北市蘆洲區集賢路413號","121.480041666667","25.0809216666667","6501400","蘆洲區"
"247010","339-TH","2018/01/12 20:09:44","新北市蘆洲區集賢路401號","121.480228333333","25.0818116666667","6501400","蘆洲區"
"247004","336-TH","2018/01/12 20:09:39","新北市蘆洲區長安街267巷9弄2號","121.457695","25.08327","6501400","蘆洲區"
"247016","057-VK","2018/01/12 20:09:38","新北市蘆洲區光華路176巷8號","121.464911666667","25.08239","6501400","蘆洲區"
"247006","056-VK","2018/01/12 20:09:40","新北市蘆洲區中山二路300巷1號","121.468576666667","25.076875","6501400","蘆洲區"
"247002","053-VK","2018/01/12 20:09:41","新北市蘆洲區永康街2巷8號","121.459373333333","25.086175","6501400","蘆洲區"
"247014","007-UY","2018/01/12 20:09:38","新北市蘆洲區中山二路190號","121.470408333333","25.0804516666667","6501400","蘆洲區"
"247024","002-UY","2018/01/12 20:09:36","新北市蘆洲區光明路130號","121.463825","25.0882183333333","6501400","蘆洲區"
"247018","001-UY","2018/01/12 20:09:34","新北市蘆洲區民族路314巷11-2號","121.477973333333","25.0905533333333","6501400","蘆洲區"
"235041","251-BX","2018/01/12 20:09:42","新北市中和區安樂路51巷4號","121.511903333333","24.9937683333333","6500300","中和區"
"222001","KEA-2212","2018/01/12 20:09:31","新北市深坑區北深路三段193號","121.601153333333","25.0036666666667","6501800","深坑區"
"251004","009-UM","2018/01/12 20:09:06","新北市淡水區民族路29巷8號","121.461203333333","25.136895","6501000","淡水區"
"251008","181-VK","2018/01/12 20:09:34","新北市淡水區淡海路72巷30弄18號","121.425178333333","25.1826","6501000","淡水區"
"251010","413-VK","2018/01/12 20:09:42","新北市淡水區新市二路二段2號","121.425463333333","25.196285","6501000","淡水區"
"251012","441-VK","2018/01/12 20:09:42","新北市淡水區淡金路三段224號","121.448915","25.2048066666667","6501000","淡水區"
"251006","561-UM","2018/01/12 20:09:31","新北市淡水區北新路141巷60弄11號","121.448136666667","25.1797","6501000","淡水區"
"251009","575-R6","2018/01/12 20:09:46","新北市淡水區中山路46號","121.444181666667","25.17014","6501000","淡水區"
"251002","672-BX","2018/01/12 20:09:46","新北市淡水區中正路197號","121.43819","25.171525","6501000","淡水區"
"251003","673-BX","2018/01/12 20:09:33","新北市淡水區中山北路二段189巷15弄31號","121.443465","25.1841033333333","6501000","淡水區"
"207003","550-UM","2018/01/12 20:09:38","新北市萬里區大鵬里萬里加投178號","121.643115","25.2158383333333","6502800","萬里區"
"207004","225-TW","2018/01/12 20:09:42","新北市萬里區北基里大勇路16號","121.682201666667","25.1766716666667","6502800","萬里區"
"252002","178-VK","2018/01/12 20:09:38","新北市三芝區中正路一段72號","121.504035","25.25776","6502100","三芝區"
"252001","292-VK","2018/01/12 20:09:38","新北市三芝區公正街9號","121.499738333333","25.2574716666667","6502100","三芝區"
"237007","153-BY","2018/01/12 20:09:44","新北市三峽區麻園41號","121.363795","24.9210016666667","6500900","三峽區"
"237012","275-BY","2018/01/12 20:09:44","新北市三峽區中華路125號","121.37119","24.9278316666667","6500900","三峽區"
"237006","5529-G3","2018/01/12 20:09:40","新北市三峽區嘉添227-14號","121.370708333333","24.91131","6500900","三峽區"
"237015","649-BX","2018/01/12 19:55:31","新北市三峽區介壽路二段138巷1弄152-2號","121.400008333333","24.9297183333333","6500900","三峽區"
"237005","AKY-6261","2018/01/12 20:09:35","新北市三峽區民生街1巷7號","121.379718333333","24.9358883333333","6500900","三峽區"
"236072","105-UM","2018/01/12 20:09:35","新北市土城區中央路三段177號","121.431585","24.9649766666667","6501300","土城區"
"236043","107-UM","2018/01/12 20:09:36","新北市土城區學成路25號","121.452998333333","24.9868466666667","6501300","土城區"
"236079","166-UM","2018/01/12 20:05:53","新北市土城區中山路27號","121.419366666667","24.962585","6501300","土城區"
"236031","253-BX","2018/01/12 20:09:36","新北市土城區中央路一段141號","121.446746666667","24.9879783333333","6501300","土城區"
"236027","269-VK","2018/01/12 20:09:48","新北市土城區裕生路106號","121.446798333333","24.984425","6501300","土城區"
"236015","270-VK","2018/01/12 20:09:35","新北市土城區德興街133號","121.455076666667","24.9917716666667","6501300","土城區"
"236039","271-VK","2018/01/12 20:09:47","新北市土城區延吉街296巷1弄1號","121.46446","24.984255","6501300","土城區"
"236022","401-BY","2018/01/12 20:09:35","新北市土城區延吉街75巷7號","121.472433333333","24.9870833333333","6501300","土城區"
"236059","912-UM","2018/01/12 20:09:47","新北市土城區中央路二段144號","121.441966666667","24.977255","6501300","土城區"
"236050","913-UM","2018/01/12 20:09:49","新北市土城區清水路294號","121.46252","24.9837083333333","6501300","土城區"
"236055","AAC-216","2018/01/12 20:09:42","新北市土城區青雲路33號","121.460835","24.988295","6501300","土城區"
"242032","AAC-296","2018/01/12 20:09:44","新北市新莊區忠孝街29巷7號","121.443601666667","25.035575","6500500","新莊區"
"242029","986-R7","2018/01/12 20:09:38","新北市新莊區中原路319-1號","121.446608333333","25.0542416666667","6500500","新莊區"
"242050","751-BX","2018/01/12 20:09:28","新北市新莊區民安西路196巷1號","121.42579","25.0152783333333","6500500","新莊區"
"242025","615-BX","2018/01/12 20:09:44","新北市新莊區五工路66號","121.458943333333","25.0642133333333","6500500","新莊區"
"242023","613-BX","2018/01/12 20:09:32","新北市新莊區化成路570號","121.466196666667","25.05447","6500500","新莊區"
"242027","612-BX","2018/01/12 20:09:39","新北市新莊區幸福路829號","121.444963333333","25.048995","6500500","新莊區"
"242039","566-BX","2018/01/12 20:09:38","新北市新莊區民安西路99號","121.426941666667","25.01882","6500500","新莊區"
"242044","442-UM","2018/01/12 20:09:28","桃園市龜山區萬壽路一段9號","121.41036","25.02094","6500500","新莊區"
"242048","441-UM","2018/01/12 20:09:34","新北市新莊區四維路152巷29號","121.422023333333","25.022485","6500500","新莊區"
"242054","440-UM","2018/01/12 20:09:44","新北市新莊區民安西路291號","121.426536666667","25.0119416666667","6500500","新莊區"
"242034","415-TV","2018/01/12 20:09:34","新北市新莊區中正路320號","121.446145","25.03484","6500500","新莊區"
"242005","413-TV","2018/01/12 20:09:43","新北市新莊區頭興街11巷2號","121.461696666667","25.0536233333333","6500500","新莊區"
"242041","400-BY","2018/01/12 20:09:37","新北市新莊區中正路694巷114號","121.41692","25.0302","6500500","新莊區"
"242060","362-BY","2018/01/12 20:09:34","新北市新莊區瓊林路96-4號","121.44403","25.0272033333333","6500500","新莊區"
"242058","353-BY","2018/01/12 20:09:36","新北市新莊區龍安路266巷3號","121.421686666667","25.0191516666667","6500500","新莊區"
"242007","132-UY","2018/01/12 20:09:29","新北市新莊區思源路419巷1弄2號","121.459261666667","25.0522983333333","6500500","新莊區"
"242037","133-UY","2018/01/12 20:09:36","新北市新莊區建安街10號","121.428628333333","25.0265916666667","6500500","新莊區"
"242021","135-UY","2018/01/12 20:09:41","新北市新莊區中興街11號","121.449211666667","25.036135","6500500","新莊區"
"242046","172-VK","2018/01/12 20:09:42","新北市新莊區裕民街85巷14號","121.419183333333","25.0233883333333","6500500","新莊區"
"242009","173-VK","2018/01/12 20:09:46","新北市新莊區昌盛街35巷3弄3號","121.453921666667","25.0504566666667","6500500","新莊區"
"242015","175-VK","2018/01/12 20:09:44","新北市新莊區中平路26巷54號","121.44728","25.043395","6500500","新莊區"
"242002","176-VK","2018/01/12 20:09:48","新北市新莊區中正路145-22號","121.458561666667","25.0376616666667","6500500","新莊區"
"242013","346-TH","2018/01/12 20:09:37","新北市新莊區中信街63巷2弄7號","121.448753333333","25.0503483333333","6500500","新莊區"
"242019","348-TH","2018/01/12 20:09:43","新北市新莊區長青街29號","121.457171666667","25.0421683333333","6500500","新莊區"
"242056","349-TH","2018/01/12 20:09:40","新北市新莊區新莊路649巷13弄14號","121.445628333333","25.031805","6500500","新莊區"
"242017","350-TH","2018/01/12 20:09:37","新北市新莊區中港路397號","121.451875","25.04685","6500500","新莊區"
"242011","351-TH","2018/01/12 20:09:34","新北市新莊區中信街53號","121.449685","25.0507283333333","6500500","新莊區"
"238021","KEA-2217","2018/01/12 20:08:27","新北市樹林區田尾街266號","121.396706666667","24.9489783333333","6500700","樹林區"
"221036","130-UY","2018/01/12 20:09:47","新北市汐止區新台五路二段29號","121.662895","25.0663083333333","6501100","汐止區"
"221010","269-BY","2018/01/12 20:09:35","新北市汐止區八連路一段317號","121.63963","25.0862533333333","6501100","汐止區"
"221012","278-VK","2018/01/12 20:09:36","新北市汐止區汐平路一段186號","121.692505","25.0664916666667","6501100","汐止區"
"221023","279-VK","2018/01/12 20:09:44","新北市汐止區明峰街298巷10弄1號","121.624885","25.0693316666667","6501100","汐止區"
"221032","280-BY","2018/01/12 20:09:43","新北市汐止區弘道街8巷5弄6號","121.617368333333","25.0478633333333","6501100","汐止區"
"221027","281-BY","2018/01/12 20:09:45","新北市汐止區中正路115號","121.660455","25.0694483333333","6501100","汐止區"
"221029","298-VK","2018/01/12 20:09:48","新北市汐止區樟樹一路119巷10弄1號","121.64125","25.064515","6501100","汐止區"
"221021","299-VK","2018/01/12 20:09:44","新北市汐止區水源路一段231號","121.654413333333","25.0608266666667","6501100","汐止區"
"221031","353-TW","2018/01/12 20:09:39","新北市汐止區福德二路91巷2號","121.632628333333","25.0660366666667","6501100","汐止區"
"221008","358-BY","2018/01/12 20:09:37","台北市內湖區康樂街14號","121.617853333333","25.0679516666667","6501100","汐止區"
"221015","567-BX","2018/01/12 20:09:45","新北市汐止區建成路26號","121.664541666667","25.0726133333333","6501100","汐止區"
"221035","622-UM","2018/01/12 20:09:35","新北市汐止區長江街97號","121.658166666667","25.0727683333333","6501100","汐止區"
"221025","623-UM","2018/01/12 20:09:41","新北市汐止區水源路一段273號","121.65406","25.05901","6501100","汐止區"
"221038","646-BX","2018/01/12 20:09:33","新北市汐止區大同路三段66-3號","121.668091666667","25.0771183333333","6501100","汐止區"
"221033","647-BX","2018/01/12 20:09:42","新北市汐止區東勢街201巷104號","121.633593333333","25.0429666666667","6501100","汐止區"
"221018","753-BX","2018/01/12 20:09:43","新北市汐止區茄苳路304號","121.673323333333","25.0668683333333","6501100","汐止區"
"220101","245-BX","2018/01/12 20:09:22","新北市板橋區莒光路171巷1弄16號","121.474501666667","25.0246233333333","6500100","板橋區"
"220072","277-BY","2018/01/12 20:09:42","新北市板橋區金門街109巷27-2號","121.43399","24.9916733333333","6500100","板橋區"
"220093","280-UM","2018/01/12 20:09:36","新北市板橋區溪頭街2號","121.457378333333","25.0290566666667","6500100","板橋區"
"220053","285-VK","2018/01/12 20:09:33","新北市板橋區懷仁街62號","121.47707","25.0187116666667","6500100","板橋區"
"220083","286-VK","2018/01/12 20:09:40","新北市板橋區僑中二街90巷29號","121.444828333333","25.009255","6500100","板橋區"
"220081","287-VK","2018/01/12 20:09:45","新北市板橋區僑中一街124巷18弄19號","121.446971666667","25.0136733333333","6500100","板橋區"
"220061","293-UM","2018/01/12 20:09:46","新北市板橋區縣民大道二段200巷3號","121.469843333333","25.0172183333333","6500100","板橋區"
"220084","296-UM","2018/01/12 20:09:47","新北市板橋區滿平街84巷86號","121.426251666667","24.9869716666667","6500100","板橋區"
"220092","307-R5","2018/01/12 20:09:42","新北市板橋區文化路一段81巷6號","121.46087","25.0141383333333","6500100","板橋區"
"220064","486-VK","2018/01/12 20:09:46","新北市板橋區漢生東路193巷2號","121.471125","25.0120916666667","6500100","板橋區"
"220089","487-VK","2018/01/12 20:09:40","新北市板橋區互助街87號","121.459746666667","25.0258483333333","6500100","板橋區"
"220088","491-VK","2018/01/12 20:09:36","新北市板橋區民治街92號","121.479296666667","25.0318366666667","6500100","板橋區"
"220103","561-BX","2018/01/12 20:09:33","新北市板橋區自由路26巷1號","121.465798333333","25.0227466666667","6500100","板橋區"
"220071","568-UM","2018/01/12 20:09:35","新北市板橋區廣權路89號","121.46431","24.9925466666667","6500100","板橋區"
"220055","827-TW","2018/01/12 20:09:36","新北市板橋區仁愛路71號","121.460851666667","24.99969","6500100","板橋區"
"220067","829-TW","2018/01/12 20:09:35","新北市板橋區中山路一段206巷66弄2號","121.471973333333","25.0131533333333","6500100","板橋區"
"220102","830-TW","2018/01/12 20:09:35","新北市板橋區懷德街76巷8號","121.47749","25.0318083333333","6500100","板橋區"
"220074","895-R6","2018/01/12 20:09:40","新北市板橋區府後街6號","121.458876666667","25.01029","6500100","板橋區"
"220073","985-R7","2018/01/12 20:09:31","新北市新莊區三和路12-11號","121.442258333333","25.03696","6500100","板橋區"
"220097","AAC-210","2018/01/12 20:09:46","新北市板橋區復興街135號","121.461086666667","25.01807","6500100","板橋區"
"220070","AAC-253","2018/01/12 20:09:42","新北市板橋區德興街38巷10號","121.452965","24.99345","6500100","板橋區"
