"lineid","car","time","location","longitude","latitude","cityid","cityname"
"234074","AAC-211","2018/01/12 20:49:40","新北市永和區竹林路75巷4弄34號","121.521588333333","25.014205","6500400","永和區"
"243013","646-TV","2018/01/12 20:49:34","新北市泰山區黎明里35號","121.410853333333","25.070265","6501600","泰山區"
"222003","436-BY","2018/01/12 20:49:30","新北市深坑區文山路三段48-1號","121.609908333333","24.998535","6501800","深坑區"
"222002","659-BX","2018/01/12 20:49:48","新北市深坑區北深路三段93巷11號","121.605481666667","25.0010966666667","6501800","深坑區"
"231066","0293-UT","2018/01/12 20:49:36","新北市新店區安興路105-1號","121.514583333333","24.977735","6500600","新店區"
"231059","046-UY","2018/01/12 20:49:35","新北市新店區僑信路108巷42號","121.498998333333","24.9464466666667","6500600","新店區"
"231061","047-UY","2018/01/12 20:49:42","新北市新店區新和街93巷10號","121.52078","24.9867066666667","6500600","新店區"
"231060","106-UY","2018/01/12 20:49:48","新北市新店區安康路三段738號","121.473871666667","24.9420616666667","6500600","新店區"
"231051","107-UY","2018/01/12 20:49:31","新北市新店區民生路181號","121.528701666667","24.97855","6500600","新店區"
"231048","108-UY","2018/01/12 20:49:41","新北市新店區寶元路一段109號","121.545706666667","24.9831333333333","6500600","新店區"
"231053","187-VK","2018/01/12 20:49:39","新北市新店區新烏路二段9號","121.544433333333","24.9293366666667","6500600","新店區"
"231050","KEA-2219","2018/01/12 20:49:49","新北市新店區中正路247巷27弄1號","121.538473333333","24.9722833333333","6500600","新店區"
"231057","256-BX","2018/01/12 20:49:42","新北市新店區新烏路一段201號","121.547703333333","24.9318683333333","6500600","新店區"
"231054","AAD-862","2018/01/12 20:49:42","新北市新店區北新路一段126巷25號","121.543378333333","24.9697433333333","6500600","新店區"
"231058","3712-VJ","2018/01/12 20:49:40","新北市新店區中央路133巷6號","121.530616666667","24.9736133333333","6500600","新店區"
"231056","3713-VJ","2018/01/12 20:49:34","新北市新店區中央七街61巷3號","121.528331666667","24.97659","6500600","新店區"
"231065","512-UM","2018/01/12 20:49:41","新北市新店區安祥路69巷17號","121.48188","24.9613783333333","6500600","新店區"
"231064","515-UM","2018/01/12 20:49:37","新北市新店區安民街381號","121.516286666667","24.97645","6500600","新店區"
"231040","619-UM","2018/01/12 20:49:48","新北市新店區中正路274號","121.538863333333","24.9736366666667","6500600","新店區"
"231042","641-BX","2018/01/12 20:49:50","新北市新店區寶高路118號","121.554516666667","24.975975","6500600","新店區"
"231063","645-TV","2018/01/12 20:49:30","新北市新店區如意街15號","121.494773333333","24.9481433333333","6500600","新店區"
"231068","718-UY","2018/01/12 20:49:42","新北市新店區中興路三段228巷28號","121.544765","24.98351","6500600","新店區"
"231049","719-UM","2018/01/12 20:49:46","新北市新店區安光路2號","121.514196666667","24.9634416666667","6500600","新店區"
"231062","720-UM","2018/01/12 20:49:44","新北市新店區裕合街79號","121.489076666667","24.9494366666667","6500600","新店區"
"231044","897-TW","2018/01/12 20:49:46","新北市新店區民族路239號","121.536523333333","24.9755983333333","6500600","新店區"
"231043","899-TW","2018/01/12 20:49:40","新北市新店區建國路33巷2號","121.540261666667","24.9742233333333","6500600","新店區"
"241011","013-R5","2018/01/12 20:49:46","新北市三重區龍濱路128號","121.501825","25.0716683333333","6500200","三重區"
"241028","022-UY","2018/01/12 20:49:44","新北市三重區中正南路5號","121.493531666667","25.0601816666667","6500200","三重區"
"241008","059-VK","2018/01/12 20:49:41","新北市三重區永福街72巷11號","121.47951","25.0769233333333","6500200","三重區"
"241009","060-VK","2018/01/12 20:49:36","新北市三重區三和路四段388-2號","121.482028333333","25.0791066666667","6500200","三重區"
"241031","061-VK","2018/01/12 20:49:33","新北市三重區重陽路一段113巷3號","121.487611666667","25.0597983333333","6500200","三重區"
"241015","062-VK","2018/01/12 20:49:31","新北市三重區自強路一段6號","121.498961666667","25.0682666666667","6500200","三重區"
"241017","063-VK","2018/01/12 20:49:39","新北市三重區民生街38巷2弄15號","121.492176666667","25.06714","6500200","三重區"
"241024","065-VK","2018/01/12 20:49:41","新北市三重區國道路一段58巷20號","121.481206666667","25.0720066666667","6500200","三重區"
"241026","066-VK","2018/01/12 20:49:45","新北市三重區文化南路3號","121.50008","25.0624066666667","6500200","三重區"
"241002","090-VK","2018/01/12 20:49:33","新北市三重區仁義街167巷40號","121.498773333333","25.08264","6500200","三重區"
"241020","156-TC","2018/01/12 20:49:43","新北市三重區忠孝路一段101號","121.48951","25.07219","6500200","三重區"
"241018","265-UM","2018/01/12 20:49:33","新北市三重區自強路一段236號","121.49327","25.067105","6500200","三重區"
"241016","266-UM","2018/01/12 20:49:45","新北市三重區自強路一段226號","121.493706666667","25.0668666666667","6500200","三重區"
"241022","267-UM","2018/01/12 20:49:38","新北市三重區過圳街27-5號","121.488023333333","25.0624266666667","6500200","三重區"
"241032","269-UM","2018/01/12 20:49:41","新北市三重區興華街73號","121.48496","25.0601316666667","6500200","三重區"
"241013","270-UM","2018/01/12 20:49:37","新北市三重區仁愛街131號","121.495613333333","25.07488","6500200","三重區"
"241025","271-UM","2018/01/12 20:49:35","新北市三重區貴陽街20號","121.48412","25.0620683333333","6500200","三重區"
"241007","398-BY","2018/01/12 20:49:35","新北市三重區慈愛街6號","121.484306666667","25.078385","6500200","三重區"
"241004","475-VK","2018/01/12 20:49:41","新北市三重區仁愛街403號","121.491033333333","25.0809616666667","6500200","三重區"
"241019","478-VK","2018/01/12 20:49:28","新北市三重區大智街188號","121.48957","25.0704933333333","6500200","三重區"
"241030","480-VK","2018/01/12 20:49:41","新北市三重區昌隆街26號","121.491995","25.0522516666667","6500200","三重區"
"241014","543-UM","2018/01/12 20:49:44","新北市三重區龍濱路116號","121.501975","25.0703383333333","6500200","三重區"
"241023","545-UM","2018/01/12 20:49:37","新北市三重區忠孝路三段99巷4號","121.480176666667","25.0643016666667","6500200","三重區"
"241001","547-UM","2018/01/12 20:49:36","新北市三重區自強路三段97號","121.487648333333","25.075165","6500200","三重區"
"241006","AAD-863","2018/01/12 20:49:44","新北市三重區車路頭街139巷8號","121.484113333333","25.07628","6500200","三重區"
"241012","941-UM","2018/01/12 20:49:31","新北市三重區仁信街6號","121.5013","25.0755","6500200","三重區"
"241029","942-UM","2018/01/12 20:49:43","新北市三重區重安街14號","121.49033","25.05819","6500200","三重區"
"241033","AAC-255","2018/01/12 20:49:48","新北市三重區光復路二段1號","121.472308333333","25.0533283333333","6500200","三重區"
"235069","4980-A6","2018/01/12 20:49:34","新北市中和區員山路359巷1弄8號","121.48099","25.0016216666667","6500300","中和區"
"235026","800-TS","2018/01/12 20:31:01","新北市中和區員山路36巷16-3號","121.48479","24.9913116666667","6500300","中和區"
"247022","893-R6","2018/01/12 20:49:49","新北市蘆洲區三民路118號","121.471373333333","25.0871866666667","6501400","蘆洲區"
"247012","546-UM","2018/01/12 20:49:29","新北市蘆洲區中興街72號","121.482181666667","25.08796","6501400","蘆洲區"
"247020","500-BY","2018/01/12 20:49:31","新北市蘆洲區仁愛街64號","121.471506666667","25.0939416666667","6501400","蘆洲區"
"247008","341-TH","2018/01/12 20:49:29","新北市三重區三和路四段237號","121.481121666667","25.0803483333333","6501400","蘆洲區"
"247010","339-TH","2018/01/12 20:49:44","新北市蘆洲區鷺江街76號","121.476985","25.083775","6501400","蘆洲區"
"247004","336-TH","2018/01/12 20:49:39","新北市蘆洲區長安街101號","121.461626666667","25.0808","6501400","蘆洲區"
"247016","057-VK","2018/01/12 20:49:38","新北市蘆洲區中山二路223號","121.470438333333","25.0800683333333","6501400","蘆洲區"
"247002","053-VK","2018/01/12 20:49:41","新北市蘆洲區長安街307號","121.457945","25.0852783333333","6501400","蘆洲區"
"247014","007-UY","2018/01/12 20:49:38","新北市蘆洲區三民路33號","121.475435","25.0829916666667","6501400","蘆洲區"
"247024","002-UY","2018/01/12 20:49:36","新北市蘆洲區長樂路140號","121.462066666667","25.0903333333333","6501400","蘆洲區"
"247018","001-UY","2018/01/12 20:49:34","新北市蘆洲區民權路70號","121.4749","25.087345","6501400","蘆洲區"
"222001","KEA-2212","2018/01/12 20:49:31","新北市深坑區北深路三段133號","121.604008333333","25.00248","6501800","深坑區"
"251001","011-UM","2018/01/12 20:49:49","新北市淡水區淡金路218號","121.460486666667","25.1671866666667","6501000","淡水區"
"251010","413-VK","2018/01/12 20:49:41","新北市淡水區沙崙路126號","121.423475","25.1829183333333","6501000","淡水區"
"251012","441-VK","2018/01/12 20:49:31","新北市淡水區興仁路162號","121.45157","25.2206383333333","6501000","淡水區"
"251005","443-VK","2018/01/12 20:49:41","新北市淡水區淡金路二段599號","121.44661","25.1922616666667","6501000","淡水區"
"251007","577-R6","2018/01/12 20:49:42","新北市淡水區鄧公路23巷2號","121.45108","25.1700866666667","6501000","淡水區"
"251011","650-BX","2018/01/12 20:49:49","新北市淡水區新民街一段11號","121.433148333333","25.1845016666667","6501000","淡水區"
"251002","672-BX","2018/01/12 20:49:46","新北市淡水區英專路42-1號","121.445741666667","25.170345","6501000","淡水區"
"251003","673-BX","2018/01/12 20:49:33","新北市淡水區中山北路一段247巷56號","121.443263333333","25.179625","6501000","淡水區"
"252002","178-VK","2018/01/12 20:49:38","新北市三芝區淡金路二段89-1號","121.504058333333","25.2608633333333","6502100","三芝區"
"242032","AAC-296","2018/01/12 20:49:44","新北市新莊區中正路535-1號","121.437561666667","25.0330116666667","6500500","新莊區"
"242029","986-R7","2018/01/12 20:49:38","新北市新莊區中華路二段39號","121.453453333333","25.0465116666667","6500500","新莊區"
"242050","751-BX","2018/01/12 20:49:28","新北市新莊區新樹路295-5號","121.433638333333","25.0196883333333","6500500","新莊區"
"242025","615-BX","2018/01/12 20:49:41","新北市新莊區新樹路647-1號","121.435633333333","25.0027266666667","6500500","新莊區"
"242027","612-BX","2018/01/12 20:49:39","新北市新莊區瓊林南路77-41號","121.437338333333","25.01294","6500500","新莊區"
"242039","566-BX","2018/01/12 20:49:38","新北市新莊區瓊林路59-38號","121.441238333333","25.0235733333333","6500500","新莊區"
"242048","441-UM","2018/01/12 20:49:34","新北市新莊區中正路516號","121.433451666667","25.0322566666667","6500500","新莊區"
"242060","362-BY","2018/01/12 20:49:35","新北市新莊區新樹路483巷2號","121.432956666667","25.0125166666667","6500500","新莊區"
"242007","132-UY","2018/01/12 20:49:49","新北市新莊區碧江街27號","121.453508333333","25.0336833333333","6500500","新莊區"
"242037","133-UY","2018/01/12 20:49:35","新北市新莊區中正路449號","121.443083333333","25.0340533333333","6500500","新莊區"
"242056","349-TH","2018/01/12 20:49:40","新北市板橋區大觀路3段36巷68弄7-2號","121.435205","24.9976366666667","6500500","新莊區"
"242011","351-TH","2018/01/12 20:49:33","新北市新莊區瓊泰路77巷16號","121.442163333333","25.0293983333333","6500500","新莊區"
"221036","130-UY","2018/01/12 20:49:37","新北市汐止區忠孝東路276號","121.663565","25.0681033333333","6501100","汐止區"
"221032","280-BY","2018/01/12 20:49:43","新北市汐止區汐萬路一段284號","121.650805","25.0742516666667","6501100","汐止區"
"221027","281-BY","2018/01/12 20:49:45","新北市汐止區水源路一段3號","121.657208333333","25.067115","6501100","汐止區"
"221029","298-VK","2018/01/12 20:49:48","新北市汐止區康寧街901號","121.650845","25.0752483333333","6501100","汐止區"
"221021","299-VK","2018/01/12 20:49:44","新北市汐止區大同路二段271號","121.65229","25.0671383333333","6501100","汐止區"
"221035","622-UM","2018/01/12 20:49:35","新北市汐止區汐萬路一段310號","121.650373333333","25.0748016666667","6501100","汐止區"
"221038","646-BX","2018/01/12 20:49:33","新北市汐止區汐萬路一段256巷1號","121.652001666667","25.074805","6501100","汐止區"
"221033","647-BX","2018/01/12 20:49:42","新北市汐止區合順街18巷8弄5號","121.620345","25.0418966666667","6501100","汐止區"
"221018","753-BX","2018/01/12 20:49:43","新北市汐止區汐萬路一段256巷3號","121.652103333333","25.0747266666667","6501100","汐止區"
"220055","827-TW","2018/01/12 20:49:36","新北市八里區中山路三段386號","121.368423333333","25.1359","6500100","板橋區"
"220070","AAC-253","2018/01/12 20:49:42","新北市林口區汕頭32號","121.366475","25.135005","6500100","板橋區"
