"lineid","car","time","location","longitude","latitude","cityid","cityname"
"231048","108-UY","2018/01/12 21:29:41","新北市新店區薏仁坑路自強巷6號","121.49659","24.9583983333333","6500600","新店區"
"231050","KEA-2219","2018/01/12 21:29:49","新北市新店區中正路407號","121.534303333333","24.9776933333333","6500600","新店區"
"231063","645-TV","2018/01/12 21:29:30","新北市新店區吉祥街5巷2號","121.497316666667","24.947615","6500600","新店區"
"241017","063-VK","2018/01/12 21:29:39","新北市三重區中正北路25巷2號","121.493206666667","25.0626733333333","6500200","三重區"
"241024","065-VK","2018/01/12 21:29:51","新北市三重區中正北路117號","121.483493333333","25.0670383333333","6500200","三重區"
"241005","262-UM","2018/01/12 21:29:42","新北市三重區碧華街1號","121.483511666667","25.0812","6500200","三重區"
"241007","398-BY","2018/01/12 21:29:35","新北市三重區正義北路113號","121.496961666667","25.065695","6500200","三重區"
"235010","031-BX","2018/01/12 21:05:37","新北市中和區員山路36巷16-2號","121.48529","24.99164","6500300","中和區"
"247020","500-BY","2018/01/12 21:29:51","新北市蘆洲區環堤大道212號","121.457413333333","25.0919583333333","6501400","蘆洲區"
"247008","341-TH","2018/01/12 21:29:49","新北市五股區四維路185巷24號","121.465766666667","25.07735","6501400","蘆洲區"
"247014","007-UY","2018/01/12 21:29:38","新北市蘆洲區光榮路103號","121.464815","25.0896283333333","6501400","蘆洲區"
"247024","002-UY","2018/01/12 21:29:36","新北市五股區新五路二段372巷20號","121.447878333333","25.0859383333333","6501400","蘆洲區"
"251004","009-UM","2018/01/12 21:29:33","新北市淡水區民族路2號","121.460315","25.1368916666667","6501000","淡水區"
"251001","011-UM","2018/01/12 21:29:49","新北市淡水區濱海路二段153號","121.436731666667","25.189905","6501000","淡水區"
"251008","181-VK","2018/01/12 21:29:34","新北市淡水區水源街二段124號","121.453123333333","25.174705","6501000","淡水區"
"251010","413-VK","2018/01/12 21:29:41","新北市淡水區沙崙路25巷21號","121.420563333333","25.1824366666667","6501000","淡水區"
"251012","441-VK","2018/01/12 21:29:31","新北市淡水區石頭埔8號","121.452651666667","25.2345783333333","6501000","淡水區"
"251005","443-VK","2018/01/12 21:29:41","新北市淡水區水源街一段34巷9號","121.443211666667","25.1718","6501000","淡水區"
"251006","561-UM","2018/01/12 21:29:43","新北市淡水區公明街80號","121.444141666667","25.16815","6501000","淡水區"
"251009","575-R6","2018/01/12 21:29:46","新北市淡水區民族路33巷13號","121.463785","25.1363783333333","6501000","淡水區"
"251011","650-BX","2018/01/12 21:29:29","新北市淡水區新民街180-6號","121.436728333333","25.1787066666667","6501000","淡水區"
"251002","672-BX","2018/01/12 21:29:45","新北市淡水區英專路151號","121.448336666667","25.17489","6501000","淡水區"
"251003","673-BX","2018/01/12 21:22:48","新北市淡水區崁頂15-5號","121.438968333333","25.185895","6501000","淡水區"
"220055","827-TW","2018/01/12 21:29:36","新北市五股區凌雲路二段18巷64-3號","121.44164","25.1063016666667","6500100","板橋區"
"220070","AAC-253","2018/01/12 21:29:42","新北市五股區新五路二段119-10號","121.438403333333","25.078775","6500100","板橋區"
