"lineid","car","time","location","longitude","latitude","cityid","cityname"
"231063","645-TV","2018/01/12 21:39:30","新北市新店區如意街28號","121.49376","24.9483466666667","6500600","新店區"
"241005","262-UM","2018/01/12 21:39:42","新北市三重區碧華街1號","121.483446666667","25.081205","6500200","三重區"
"247008","341-TH","2018/01/12 21:39:49","新北市八里區荖阡坑路32號","121.40321","25.1280166666667","6501400","蘆洲區"
"251004","009-UM","2018/01/12 21:39:33","新北市淡水區民權路99-5號","121.460123333333","25.1378266666667","6501000","淡水區"
"251001","011-UM","2018/01/12 21:39:29","新北市淡水區新市二路三段152號","121.435371666667","25.1942866666667","6501000","淡水區"
"251008","181-VK","2018/01/12 21:39:33","新北市淡水區水源街二段62號","121.451073333333","25.17415","6501000","淡水區"
"251010","413-VK","2018/01/12 21:39:41","新北市淡水區沙崙路216巷15號","121.426216666667","25.184115","6501000","淡水區"
"251012","441-VK","2018/01/12 21:39:31","新北市淡水區淡金路四段478號","121.45188","25.2240733333333","6501000","淡水區"
"251005","443-VK","2018/01/12 21:39:41","新北市淡水區學府路88號","121.449081666667","25.1708033333333","6501000","淡水區"
"251006","561-UM","2018/01/12 21:39:43","新北市淡水區中正路11巷4號","121.43889","25.1700433333333","6501000","淡水區"
"251009","575-R6","2018/01/12 21:39:46","新北市淡水區民生路124巷32弄2號","121.463958333333","25.13749","6501000","淡水區"
"251011","650-BX","2018/01/12 21:39:43","新北市淡水區新民街294號","121.43509","25.1823116666667","6501000","淡水區"
"251002","672-BX","2018/01/12 21:39:45","新北市淡水區學府路158號","121.446675","25.1746283333333","6501000","淡水區"
"251003","673-BX","2018/01/12 21:39:33","新北市淡水區新春街44號","121.437441666667","25.181615","6501000","淡水區"
"220055","827-TW","2018/01/12 21:39:36","新北市泰山區磚雅厝6號","121.442058333333","25.0425083333333","6500100","板橋區"
"220070","AAC-253","2018/01/12 21:39:42","新北市板橋區大觀路二段7巷109-3號","121.452108333333","25.00267","6500100","板橋區"
