"lineid","car","time","location","longitude","latitude","cityid","cityname"
"234044","148-BY","2018/09/25 13:59:37","新北市永和區成功路二段75號","121.526733333333","24.9995733333333","6500400","永和區"
"234005","207-UY","2018/09/25 13:59:35","新北市永和區中和路435號","121.509523333333","25.0009783333333","6500400","永和區"
"234078","298-R6","2018/09/25 13:59:36","新北市永和區林森路112巷12弄8號","121.522641666667","25.004525","6500400","永和區"
"234036","336-UY","2018/09/25 13:59:29","新北市永和區成功路二段152-2號","121.526491666667","24.9967","6500400","永和區"
"234062","337-UY","2018/09/25 13:59:35","新北市永和區中正路412巷20弄27號","121.519056666667","25.001305","6500400","永和區"
"234084","338-UY","2018/09/25 13:59:36","新北市永和區福和路130號","121.521968333333","25.0078716666667","6500400","永和區"
"234068","552-UM","2018/09/25 13:59:21","新北市永和區國光路14號","121.51925","25.0083866666667","6500400","永和區"
"234015","745-BX","2018/09/25 13:59:22","新北市永和區文化路48號","121.514675","25.015135","6500400","永和區"
"234028","746-BX","2018/09/25 13:59:28","新北市永和區民生路47巷18號","121.523916666667","24.9976083333333","6500400","永和區"
"234052","KEA-2590","2018/09/25 13:59:24","新北市永和區竹林路39巷42弄1號","121.520161666667","25.0152566666667","6500400","永和區"
"234012","KEA-2591","2018/09/25 13:59:34","新北市永和區保生路55號","121.504658333333","25.010615","6500400","永和區"
"234060","AAD-866","2018/09/25 13:59:35","新北市永和區中正路151巷14號","121.515538333333","24.99887","6500400","永和區"
"234040","862-TW","2018/09/25 13:59:25","新北市永和區中和路335巷18弄14號","121.507838333333","25.0003733333333","6500400","永和區"
"234048","863-TW","2018/09/25 13:59:35","新北市永和區保安路264號","121.505793333333","25.0124133333333","6500400","永和區"
"234025","9371-KE","2018/09/25 13:59:22","新北市永和區自由街50號","121.513861666667","25.0062033333333","6500400","永和區"
"234010","9373-KE","2018/09/25 13:59:28","新北市永和區仁愛路352巷118號","121.500288333333","25.0084","6500400","永和區"
"248017","225-UY","2018/09/25 13:59:27","新北市五股區民義路一段220巷14號","121.428598333333","25.0923716666667","6501500","五股區"
"234022","9380-KE","2018/09/25 13:59:26","新北市永和區永和路二段267號","121.515913333333","25.015395","6500400","永和區"
"234076","969-R7","2018/09/25 13:59:19","新北市永和區民權路80號","121.51982","24.9977683333333","6500400","永和區"
"234072","AAC-211","2018/09/25 13:59:30","新北市永和區豫溪街159-1號","121.521396666667","25.0103683333333","6500400","永和區"
"234066","AAC-212","2018/09/25 13:59:18","新北市永和區永貞路358號","121.510245","25.0065483333333","6500400","永和區"
"234001","AAC-295","2018/09/25 13:59:33","新北市永和區福和路318號","121.515736666667","25.0072866666667","6500400","永和區"
"244002","248-BX","2018/09/25 13:59:35","新北市林口區仁愛路二段267巷7號","121.373266666667","25.0770983333333","6501700","林口區"
"231002","002-UM","2018/09/25 13:59:31","新北市新店區中正路695巷2號","121.533983333333","24.9907","6500600","新店區"
"231027","0291-UT","2018/09/25 13:59:31","新北市新店區北宜路一段39巷20號","121.53885","24.9583916666667","6500600","新店區"
"231028","046-UY","2018/09/25 13:59:34","新北市新店區安和路三段12號","121.517983333333","24.9810583333333","6500600","新店區"
"231001","047-UY","2018/09/25 13:59:27","新北市新店區三民路45號","121.537078333333","24.970885","6500600","新店區"
"231005","106-UY","2018/09/25 13:59:24","新北市新店區中興路三段202號","121.543843333333","24.98197","6500600","新店區"
"231010","107-UY","2018/09/25 13:59:25","新北市新店區環河路60號","121.53685","24.9625583333333","6500600","新店區"
"231020","108-UY","2018/09/25 13:59:38","新北市新店區湖子內路22號","121.542336666667","24.9307883333333","6500600","新店區"
"231012","187-VK","2018/09/25 13:59:33","新北市新店區德正街27巷34號","121.54562","24.9712666666667","6500600","新店區"
"231032","188-VK","2018/09/25 13:59:23","新北市新店區莒光路44巷21弄11-6號","121.518563333333","24.9522733333333","6500600","新店區"
"231023","KEA-2219","2018/09/25 13:59:15","新北市新店區文中路51號","121.539808333333","24.9566183333333","6500600","新店區"
"231026","256-BX","2018/09/25 13:59:35","新北市新店區環河路22-1號","121.5369","24.9620583333333","6500600","新店區"
"231003","268-BY","2018/09/25 13:59:32","新北市新店區光明街98-1號","121.539363333333","24.960235","6500600","新店區"
"231018","278-BY","2018/09/25 13:59:20","新北市新店區中央路192號","121.530926666667","24.974825","6500600","新店區"
"231015","AAD-862","2018/09/25 13:59:29","新北市新店區北宜路二段112-1號","121.556458333333","24.95383","6500600","新店區"
"231004","355-BY","2018/09/25 13:59:31","新北市新店區北新路二段125號","121.542933333333","24.975245","6500600","新店區"
"231038","3712-VJ","2018/09/25 13:59:32","新北市新店區安華路30巷1號","121.519605","24.9592433333333","6500600","新店區"
"231037","4716-K9","2018/09/25 13:59:19","新北市新店區安康路三段355巷47號","121.484995","24.9493066666667","6500600","新店區"
"231025","4715-K9","2018/09/25 13:59:20","新北市新店區建安街45號","121.538575","24.9757533333333","6500600","新店區"
"231036","512-UM","2018/09/25 13:59:38","新北市新店區安祥路114號","121.474825","24.956605","6500600","新店區"
"231013","513-UM","2018/09/25 13:59:25","新北市新店區明德路111號","121.54152","24.9794716666667","6500600","新店區"
"231034","616-UM","2018/09/25 13:59:23","新北市新店區達觀路8巷3-4號","121.503873333333","24.943245","6500600","新店區"
"231006","617-UM","2018/09/25 13:59:22","新北市新店區北宜路二段209號","121.553145","24.9533516666667","6500600","新店區"
"231030","619-UM","2018/09/25 13:59:31","新北市新店區安康路一段266巷4號","121.520136666667","24.96399","6500600","新店區"
"231035","719-UM","2018/09/25 13:59:19","新北市新店區安康路二段51號","121.514396666667","24.9634916666667","6500600","新店區"
"231029","897-TW","2018/09/25 13:59:26","新北市新店區安康路二段3-1號","121.516135","24.9637233333333","6500600","新店區"
"231024","AKT-0513","2018/09/25 13:59:25","新北市新店區安和路三段1號","121.517661666667","24.97993","6500600","新店區"
"235030","003-UY","2018/09/25 13:59:38","新北市中和區中山路二段131巷5弄3號","121.502863333333","25.0028516666667","6500300","中和區"
"235028","005-UY","2018/09/25 13:59:24","新北市中和區泰和街30巷29號","121.498778333333","25.0014266666667","6500300","中和區"
"235027","006-UY","2018/09/25 13:59:34","新北市中和區中正路568號","121.48652","24.9946266666667","6500300","中和區"
"235020","096-UM","2018/09/25 13:59:28","新北市板橋區三民路二段228號","121.478763333333","25.0113716666667","6500300","中和區"
"235003","097-UM","2018/09/25 13:59:34","新北市中和區景平路3號","121.523703333333","24.9903016666667","6500300","中和區"
"235029","098-UM","2018/09/25 13:59:36","新北市中和區莊敬路37號","121.500825","25.0049866666667","6500300","中和區"
"235004","150-BY","2018/09/25 13:59:28","新北市中和區保健路44巷1號","121.509591666667","24.99717","6500300","中和區"
"235022","151-BY","2018/09/25 13:59:28","新北市中和區連城路534巷2號","121.475293333333","24.991395","6500300","中和區"
"235019","183-VK","2018/09/25 13:59:16","新北市中和區中山路三段208號","121.471536666667","25.00649","6500300","中和區"
"235002","185-VK","2018/09/25 13:59:23","新北市中和區立人街24-5號","121.518855","24.994135","6500300","中和區"
"235013","186-VK","2018/09/25 13:59:27","新北市中和區景安路167巷27號","121.506691666667","24.9951166666667","6500300","中和區"
"235031","255-BX","2018/09/25 13:59:30","新北市中和區新生街264號","121.483811666667","24.9971983333333","6500300","中和區"
"235008","293-VK","2018/09/25 13:59:23","新北市中和區中興街161巷8弄1號","121.501058333333","24.9908966666667","6500300","中和區"
"235036","301-VK","2018/09/25 13:59:37","新北市中和區中山路二段99號","121.503365","25.0039683333333","6500300","中和區"
"235007","352-BY","2018/09/25 13:59:36","新北市中和區成功路74號","121.52594","24.991855","6500300","中和區"
"235006","KEA-2878","2018/09/25 13:59:35","新北市中和區自立路58巷2號","121.523593333333","24.9916483333333","6500300","中和區"
"235014","4979-A6","2018/09/25 13:59:27","新北市中和區忠孝街1號","121.508925","24.9830016666667","6500300","中和區"
"235033","4980-A6","2018/09/25 13:59:22","新北市中和區圓通路109巷1弄2號","121.499888333333","24.99639","6500300","中和區"
"235034","558-UM","2018/09/25 13:59:32","新北市中和區中和路212號","121.50598","24.9995016666667","6500300","中和區"
"235009","565-BX","2018/09/25 13:59:25","新北市中和區景新街467巷20弄21號","121.51504","24.9872733333333","6500300","中和區"
"235018","640-BX","2018/09/25 13:59:19","新北市中和區莒光路129巷2弄9號","121.473138333333","25.00163","6500300","中和區"
"235011","732-UM","2018/09/25 13:59:32","新北市中和區興南路二段54巷2-8號","121.506005","24.9855783333333","6500300","中和區"
"235010","733-UM","2018/09/25 13:59:37","新北市中和區興南路二段11號","121.50817","24.98616","6500300","中和區"
"235035","783-BX","2018/09/25 13:59:28","新北市中和區立德街56號","121.488411666667","25.0074333333333","6500300","中和區"
"235026","800-TS","2018/09/25 13:59:26","新北市中和區中山路二段366巷13-1號","121.491741666667","25.004535","6500300","中和區"
"235021","801-TS","2018/09/25 13:59:27","新北市中和區民利街100巷6弄1號","121.476996666667","24.9984983333333","6500300","中和區"
"235005","802-TS","2018/09/25 13:59:25","新北市中和區新興街17巷28號","121.51275","25.0028433333333","6500300","中和區"
"235016","805-TS","2018/09/25 13:59:30","新北市中和區興南路二段131-6號","121.503801666667","24.981585","6500300","中和區"
"235012","896-TW","2018/09/25 13:59:32","新北市中和區華新街64號","121.508155","24.9838316666667","6500300","中和區"
"235017","900-TW","2018/09/25 13:59:24","新北市中和區壽德街26號","121.466575","24.9941433333333","6500300","中和區"
"235024","911-UM","2018/09/25 13:59:21","新北市中和區民治街5巷2號","121.475088333333","25.005045","6500300","中和區"
"235015","157-BY","2018/09/25 13:59:21","新北市中和區忠孝街19巷19號","121.50971","24.9840883333333","6500300","中和區"
"235001","AAC-213","2018/09/25 13:59:30","新北市中和區秀朗路三段10巷37弄2號","121.524116666667","24.9960916666667","6500300","中和區"
"235023","AAC-215","2018/09/25 13:59:20","新北市中和區圓通路367巷20弄21號","121.49152","24.9884233333333","6500300","中和區"
"220016","013-TV","2018/09/25 13:59:37","新北市板橋區中山路二段443巷68號","121.481113333333","25.0218883333333","6500100","板橋區"
"220013","015-TV","2018/09/25 13:59:23","新北市板橋區漢生東路330-1號","121.471771666667","25.0078833333333","6500100","板橋區"
"220034","073-UY","2018/09/25 13:59:30","新北市板橋區中正路229號","121.456011666667","25.01784","6500100","板橋區"
"220105","075-UY","2018/09/25 13:59:35","新北市板橋區莒光路42號","121.47041","25.02447","6500100","板橋區"
"220017","AAD-861","2018/09/25 13:59:38","新北市板橋區華興街90號","121.45685","25.0054766666667","6500100","板橋區"
"247001","893-R6","2018/09/25 13:59:22","新北市蘆洲區永平街32巷74號","121.460545","25.093655","6501400","蘆洲區"
"247015","546-UM","2018/09/25 13:59:28","新北市蘆洲區光華路42號","121.468838333333","25.0831716666667","6501400","蘆洲區"
"247013","339-TH","2018/09/25 13:59:20","新北市蘆洲區中正路201號","121.468536666667","25.0859133333333","6501400","蘆洲區"
"247005","337-TH","2018/09/25 13:59:34","新北市蘆洲區永安南路二段60-1號","121.46515","25.0777216666667","6501400","蘆洲區"
"247007","336-TH","2018/09/25 13:59:27","新北市三重區永安北路一段29號","121.476668333333","25.0756733333333","6501400","蘆洲區"
"247019","057-VK","2018/09/25 13:59:22","新北市蘆洲區民族路422巷19號","121.473738333333","25.092855","6501400","蘆洲區"
"247009","056-VK","2018/09/25 13:59:27","新北市蘆洲區中興街38-5號","121.481468333333","25.08664","6501400","蘆洲區"
"247017","007-UY","2018/09/25 13:59:21","新北市蘆洲區民族路327巷93號","121.475741666667","25.089085","6501400","蘆洲區"
"247003","002-UY","2018/09/25 13:59:35","新北市蘆洲區中華街6號","121.46344","25.0816466666667","6501400","蘆洲區"
"228004","212-TW","2018/09/25 13:59:24","新北市貢寮區龍崗里泮宮路51-1號","121.908145","25.016725","6502600","貢寮區"
"228005","828-UM","2018/09/25 13:58:57","新北市貢寮區美豐里雞母嶺街52號","121.890918333333","25.0669533333333","6502600","貢寮區"
"207002","291-VK","2018/09/25 13:59:22","新北市萬里區溪底里富士坪路19號","121.625425","25.1487383333333","6502800","萬里區"
"207001","662-BX","2018/09/25 13:59:37","新北市萬里區磺潭里磺溪12-1號","121.631021666667","25.203435","6502800","萬里區"
"252005","AAC-283","2018/09/25 13:59:35","新北市三芝區橫山里橫山31-1號","121.544123333333","25.2580716666667","6502100","三芝區"
"236065","105-UM","2018/09/25 13:59:25","新北市土城區和平路54號","121.445208333333","24.9689483333333","6501300","土城區"
"236040","107-UM","2018/09/25 13:59:40","新北市土城區城林路6巷80號","121.438513333333","24.9797933333333","6501300","土城區"
"236074","166-UM","2018/09/25 13:59:30","新北市土城區永寧路32巷10弄1號","121.428915","24.9609683333333","6501300","土城區"
"236029","253-BX","2018/09/25 13:59:34","新北市土城區興城路79號","121.439878333333","24.9707116666667","6501300","土城區"
"236024","269-VK","2018/09/25 13:59:28","新北市土城區承天路23號","121.43655","24.965535","6501300","土城區"
"236013","270-VK","2018/09/25 13:59:39","新北市土城區城林路6巷80號","121.43857","24.979785","6501300","土城區"
"236032","271-VK","2018/09/25 13:59:30","新北市土城區城林路6巷80號","121.438436666667","24.97976","6501300","土城區"
"236017","401-BY","2018/09/25 13:59:31","新北市土城區城林路6巷80號","121.438521666667","24.9798633333333","6501300","土城區"
"236057","912-UM","2018/09/25 13:59:30","新北市土城區中央路三段260號","121.42722","24.9639933333333","6501300","土城區"
"236045","913-UM","2018/09/25 13:59:31","新北市土城區城林路6巷80號","121.43848","24.979685","6501300","土城區"
"236060","915-UM","2018/09/25 13:59:37","新北市土城區城林路6巷80號","121.438495","24.979755","6501300","土城區"
"236054","AAC-216","2018/09/25 13:59:26","新北市土城區城林路6巷80號","121.438365","24.979805","6501300","土城區"
"221010","269-BY","2018/09/25 13:59:37","新北市汐止區長青路210巷188號","121.616178333333","25.11333","6501100","汐止區"
"221032","280-BY","2018/09/25 13:59:36","新北市汐止區新台五路一段78號","121.646973333333","25.0611166666667","6501100","汐止區"
"220027","145-BY","2018/09/25 13:59:33","新北市板橋區民權路202巷9弄20號","121.45966","25.015685","6500100","板橋區"
"220028","200-UY","2018/09/25 13:59:30","新北市板橋區合宜路5號","121.445833333333","24.9954583333333","6500100","板橋區"
"220030","610-BX","2018/09/25 13:59:36","新北市板橋區滿平街81巷120弄22號","121.42788","24.9890166666667","6500100","板橋區"
"220050","245-BX","2018/09/25 13:59:22","新北市板橋區文化路二段182巷1弄2號","121.471298333333","25.02742","6500100","板橋區"
"220047","257-TC","2018/09/25 13:59:37","新北市板橋區民有街24-3號","121.466133333333","25.0251866666667","6500100","板橋區"
"220004","276-BY","2018/09/25 13:59:31","新北市板橋區信義路64號","121.45727","24.9937333333333","6500100","板橋區"
"220020","277-BY","2018/09/25 13:59:31","新北市板橋區篤行路一段18號","121.432073333333","24.994985","6500100","板橋區"
"220043","280-UM","2018/09/25 13:59:31","新北市板橋區文化路二段76號","121.469298333333","25.025095","6500100","板橋區"
"220019","283-VK","2018/09/25 13:59:22","新北市板橋區重慶路247-2號","121.463653333333","25.000465","6500100","板橋區"
"220001","285-VK","2018/09/25 13:59:35","新北市板橋區中山路二段89巷66號","121.473661666667","25.0175533333333","6500100","板橋區"
"220031","286-VK","2018/09/25 13:59:25","新北市板橋區大觀路二段22巷38-2號","121.444603333333","25.0037366666667","6500100","板橋區"
"220029","287-VK","2018/09/25 13:59:34","新北市板橋區光華街44巷2號","121.453736666667","25.0129716666667","6500100","板橋區"
"220039","288-VK","2018/09/25 13:59:33","新北市板橋區四維路175-3號","121.464511666667","25.0263883333333","6500100","板橋區"
"220009","293-UM","2018/09/25 13:59:17","新北市板橋區富山街109巷1號","121.476135","25.021805","6500100","板橋區"
"220052","295-UM","2018/09/25 13:59:25","新北市板橋區介壽街106號","121.470563333333","25.0182116666667","6500100","板橋區"
"220023","303-R5","2018/09/25 13:59:32","新北市板橋區南雅西路二段12號","121.453266666667","25.0092633333333","6500100","板橋區"
"220010","305-R5","2018/09/25 13:59:28","新北市板橋區三民路二段245巷59號","121.480838333333","25.01265","6500100","板橋區"
"220041","307-R5","2018/09/25 13:59:26","新北市板橋區文化路一段104巷15號","121.465173333333","25.0181583333333","6500100","板橋區"
"220012","486-VK","2018/09/25 13:59:18","新北市板橋區板新路157號","121.4698","25.0156633333333","6500100","板橋區"
"220037","491-VK","2018/09/25 13:59:31","新北市板橋區民生路二段232-13號","121.468773333333","25.02241","6500100","板橋區"
"220104","560-BX","2018/09/25 13:59:23","新北市板橋區中正路375巷27號","121.453768333333","25.0202016666667","6500100","板橋區"
"220032","568-UM","2018/09/25 13:59:24","新北市板橋區大觀路三段5-4號","121.432606666667","24.9959283333333","6500100","板橋區"
"220011","609-BX","2018/09/25 13:59:35","新北市板橋區中山路二段265號","121.4777","25.0176966666667","6500100","板橋區"
"220040","637-BX","2018/09/25 13:59:38","新北市板橋區大同街52號","121.478868333333","25.0275216666667","6500100","板橋區"
"220005","686-BX","2018/09/25 13:59:26","新北市板橋區重慶路89巷2-1號","121.46202","25.0062516666667","6500100","板橋區"
"220025","687-BX","2018/09/25 13:59:27","新北市板橋區大觀路二段174巷137號","121.441148333333","25.0020416666667","6500100","板橋區"
"220042","689-BX","2018/09/25 13:59:31","新北市板橋區民生路三段147號","121.466131666667","25.0266683333333","6500100","板橋區"
"220002","741-BX","2018/09/25 13:59:26","新北市板橋區重慶路139巷21號","121.463705","25.004725","6500100","板橋區"
"220051","KEA-2699","2018/09/25 13:59:32","新北市板橋區萬板路710號","121.481743333333","25.0274316666667","6500100","板橋區"
"220003","827-TW","2018/09/25 13:59:33","新北市板橋區中山路一段158巷20號","121.466416666667","25.0111383333333","6500100","板橋區"
"220014","830-TW","2018/09/25 13:59:37","新北市板橋區三民路二段正隆巷14號","121.477936666667","25.0128116666667","6500100","板橋區"
"220045","831-TW","2018/09/25 13:59:38","新北市板橋區莒光路101號","121.472595","25.0240666666667","6500100","板橋區"
"220038","833-TW","2018/09/25 13:59:29","新北市板橋區文化路二段315號","121.472135","25.0296933333333","6500100","板橋區"
"220022","895-R6","2018/09/25 13:59:31","新北市板橋區西門街59號","121.454406666667","25.009195","6500100","板橋區"
"220021","985-R7","2018/09/25 13:59:29","新北市板橋區西門街2號","121.455895","25.0115616666667","6500100","板橋區"
"220046","AAC-210","2018/09/25 13:59:25","新北市板橋區國光路200號","121.461815","25.0184316666667","6500100","板橋區"
"220018","AAC-253","2018/09/25 13:59:29","新北市板橋區四川路一段294號","121.458726666667","25.000595","6500100","板橋區"
"235032","KEA-2873","2018/09/25 13:59:29","新北市中和區圓通路162巷17號","121.496881666667","24.9949333333333","6500300","中和區"
"235025","KEA-2875","2018/09/25 13:59:20","新北市中和區自治街30號","121.474948333333","25.0032866666667","6500300","中和區"
