"lineid","car","time","location","longitude","latitude","cityid","cityname"
"234044","148-BY","2018/09/25 14:09:37","新北市永和區永元路120號","121.522728333333","25.0027033333333","6500400","永和區"
"234005","207-UY","2018/09/25 14:09:36","新北市中和區南工路20號","121.505483333333","25.0004916666667","6500400","永和區"
"234078","298-R6","2018/09/25 14:09:36","新北市永和區國中路90號","121.524535","25.0062133333333","6500400","永和區"
"234036","336-UY","2018/09/25 14:09:29","新北市永和區成功路一段74號","121.526691666667","25.0034066666667","6500400","永和區"
"234062","337-UY","2018/09/25 14:09:35","新北市永和區永利路152號","121.52246","25.00275","6500400","永和區"
"234084","338-UY","2018/09/25 14:09:39","新北市永和區中正路616巷1號","121.517193333333","25.0077183333333","6500400","永和區"
"234068","552-UM","2018/09/25 14:09:23","新北市永和區福和路171號","121.520071666667","25.0074016666667","6500400","永和區"
"234015","745-BX","2018/09/25 14:09:22","新北市永和區仁愛路89號","121.51307","25.0131233333333","6500400","永和區"
"234028","746-BX","2018/09/25 14:09:28","新北市永和區民權路49巷2號","121.520211666667","24.9970783333333","6500400","永和區"
"234052","KEA-2590","2018/09/25 14:09:24","新北市永和區博愛街37號","121.518723333333","25.015855","6500400","永和區"
"234012","KEA-2591","2018/09/25 14:09:34","新北市永和區永貞路387號","121.508023333333","25.0086916666667","6500400","永和區"
"234060","AAD-866","2018/09/25 14:09:35","新北市中和區安平路222號","121.51404","25.0001166666667","6500400","永和區"
"234040","862-TW","2018/09/25 14:09:33","新北市永和區雙和街50號","121.5089","25.00307","6500400","永和區"
"234048","863-TW","2018/09/25 14:09:35","新北市永和區環河西路二段89號","121.506561666667","25.01496","6500400","永和區"
"234025","9371-KE","2018/09/25 14:09:22","新北市永和區安樂路270號","121.514483333333","25.00413","6500400","永和區"
"234010","9373-KE","2018/09/25 14:09:28","新北市永和區環河西路二段251號","121.499963333333","25.0086166666667","6500400","永和區"
"248017","225-UY","2018/09/25 14:09:27","新北市五股區民義路一段255-5號","121.426133333333","25.091425","6501500","五股區"
"234022","9380-KE","2018/09/25 14:09:26","新北市永和區博愛街32巷17-1號","121.518865","25.0153066666667","6500400","永和區"
"234076","969-R7","2018/09/25 14:09:39","新北市永和區民族街67巷20號","121.519581666667","24.9971533333333","6500400","永和區"
"234072","AAC-211","2018/09/25 14:09:30","新北市永和區竹林路201巷24弄4號","121.522225","25.0096016666667","6500400","永和區"
"234066","AAC-212","2018/09/25 14:09:38","新北市永和區保平路232號","121.509391666667","25.0055216666667","6500400","永和區"
"234001","AAC-295","2018/09/25 14:09:20","新北市永和區中正路734號","121.515423333333","25.0101316666667","6500400","永和區"
"244002","248-BX","2018/09/25 14:09:24","新北市林口區文化二路一段378號","121.374035","25.0763116666667","6501700","林口區"
"231002","002-UM","2018/09/25 14:09:29","新北市新店區中正路542-10號","121.533623333333","24.9848666666667","6500600","新店區"
"231027","0291-UT","2018/09/25 14:09:31","新北市新店區光明街138巷13弄11號","121.540065","24.9615916666667","6500600","新店區"
"231028","046-UY","2018/09/25 14:09:34","新北市新店區安和路三段77號","121.51787","24.9835133333333","6500600","新店區"
"231001","047-UY","2018/09/25 14:09:27","新北市新店區中華路50號","121.539633333333","24.96846","6500600","新店區"
"231005","106-UY","2018/09/25 14:09:24","新北市新店區中興路三段302號","121.542338333333","24.9851616666667","6500600","新店區"
"231010","107-UY","2018/09/25 14:09:25","新北市新店區安華路1-1號","121.519598333333","24.9603116666667","6500600","新店區"
"231020","108-UY","2018/09/25 14:09:17","新北市新店區自強路115號","121.546148333333","24.9231283333333","6500600","新店區"
"231012","187-VK","2018/09/25 14:09:33","新北市新店區中興路一段268巷12號","121.545636666667","24.9672233333333","6500600","新店區"
"231032","188-VK","2018/09/25 14:09:23","新北市新店區華城路2號","121.53046","24.96055","6500600","新店區"
"231023","KEA-2219","2018/09/25 14:09:35","新北市新店區文中路45號","121.539656666667","24.9566333333333","6500600","新店區"
"231003","268-BY","2018/09/25 14:09:35","新北市新店區中興路一段57號","121.539746666667","24.9604583333333","6500600","新店區"
"231018","278-BY","2018/09/25 14:09:20","新北市新店區中央五街17號","121.529466666667","24.9744366666667","6500600","新店區"
"231015","AAD-862","2018/09/25 14:09:29","新北市新店區北宜路二段382號","121.564473333333","24.9529916666667","6500600","新店區"
"231004","355-BY","2018/09/25 14:09:34","新北市新店區北新路二段131號","121.542853333333","24.9753666666667","6500600","新店區"
"231038","3712-VJ","2018/09/25 14:09:32","新北市新店區安康路一段291巷18號","121.52232","24.9625366666667","6500600","新店區"
"231037","4716-K9","2018/09/25 14:09:19","新北市新店區安康路三段165巷2弄10號","121.489196666667","24.9513283333333","6500600","新店區"
"231025","4715-K9","2018/09/25 14:09:20","新北市新店區自立街45巷2-1號","121.537016666667","24.9799333333333","6500600","新店區"
"231036","512-UM","2018/09/25 14:09:33","新北市新店區安祥路110巷2號","121.474835","24.9569933333333","6500600","新店區"
"231013","513-UM","2018/09/25 14:09:25","新北市新店區北新路三段65巷34弄18號","121.540031666667","24.9816533333333","6500600","新店區"
"231034","616-UM","2018/09/25 14:09:23","新北市新店區車子路11號","121.503038333333","24.9519866666667","6500600","新店區"
"231006","617-UM","2018/09/25 14:09:22","新北市新店區北宜路二段126號","121.556838333333","24.9539016666667","6500600","新店區"
"231030","619-UM","2018/09/25 14:09:31","新北市新店區安興路7-1號","121.515013333333","24.968515","6500600","新店區"
"231035","719-UM","2018/09/25 14:08:18","新北市新店區安和路一段51號","121.517531666667","24.96593","6500600","新店區"
"231029","897-TW","2018/09/25 14:09:26","新北市新店區安康路二段161號","121.510228333333","24.959305","6500600","新店區"
"235030","003-UY","2018/09/25 14:09:38","新北市中和區廣福路42號","121.504311666667","25.0020766666667","6500300","中和區"
"235028","005-UY","2018/09/25 14:09:24","新北市中和區泰和街2號","121.500101666667","25.0013116666667","6500300","中和區"
"235027","006-UY","2018/09/25 14:09:34","新北市中和區連城路249巷24號","121.494023333333","24.995975","6500300","中和區"
"235020","096-UM","2018/09/25 14:09:28","新北市中和區中山路二段598號","121.481975","25.0052283333333","6500300","中和區"
"235003","097-UM","2018/09/25 14:09:34","新北市中和區秀峰街119巷4弄1號","121.519785","24.9901883333333","6500300","中和區"
"235029","098-UM","2018/09/25 14:09:36","新北市中和區中山路二段2巷3弄1號","121.504866666667","25.0061516666667","6500300","中和區"
"235004","150-BY","2018/09/25 14:09:28","新北市中和區宜安路121號","121.51005","24.99796","6500300","中和區"
"235022","151-BY","2018/09/25 14:09:28","新北市中和區員山路143巷14-3號","121.480371666667","24.9960716666667","6500300","中和區"
"235019","183-VK","2018/09/25 14:09:36","新北市中和區德光路74號","121.469206666667","25.0036966666667","6500300","中和區"
"235002","185-VK","2018/09/25 14:09:23","新北市中和區大仁街10巷27弄3號","121.519183333333","24.9927566666667","6500300","中和區"
"235013","186-VK","2018/09/25 14:09:27","新北市中和區明禮街43號","121.504156666667","24.9963483333333","6500300","中和區"
"235031","255-BX","2018/09/25 14:09:30","新北市中和區新生街233巷10號","121.484308333333","24.9985283333333","6500300","中和區"
"235008","293-VK","2018/09/25 14:09:23","新北市中和區中興街202巷2號","121.499363333333","24.9900083333333","6500300","中和區"
"235036","301-VK","2018/09/25 14:09:17","新北市中和區中山路二段238號","121.498163333333","25.0025633333333","6500300","中和區"
"235007","352-BY","2018/09/25 14:09:36","新北市中和區景平路146號","121.518421666667","24.992015","6500300","中和區"
"235006","KEA-2878","2018/09/25 14:09:35","新北市中和區大勇街60巷15號","121.51863","24.9947733333333","6500300","中和區"
"247011","KEA-2869","2018/09/25 14:09:37","新北市蘆洲區信義路248號","121.478466666667","25.0864166666667","6501400","蘆洲區"
"235014","4979-A6","2018/09/25 14:09:27","新北市中和區復興路263巷9弄1號","121.502951666667","24.989735","6500300","中和區"
"235033","4980-A6","2018/09/25 14:09:22","新北市中和區中和路217巷1弄9號","121.503738333333","25.0004316666667","6500300","中和區"
"235034","558-UM","2018/09/25 14:09:32","新北市中和區中和路51號","121.50028","25.0012566666667","6500300","中和區"
"235009","565-BX","2018/09/25 14:09:25","新北市中和區景新街467巷35弄17號","121.514033333333","24.9888416666667","6500300","中和區"
"235018","640-BX","2018/09/25 14:09:19","新北市中和區民享街29號","121.474013333333","25.0043316666667","6500300","中和區"
"235011","732-UM","2018/09/25 14:09:32","新北市中和區興南路一段64巷2號","121.510693333333","24.9902733333333","6500300","中和區"
"235010","733-UM","2018/09/25 14:09:37","新北市中和區忠孝街1巷50號","121.508383333333","24.9843516666667","6500300","中和區"
"235035","783-BX","2018/09/25 14:09:19","新北市中和區立言街50號","121.488401666667","25.0066616666667","6500300","中和區"
"235026","800-TS","2018/09/25 14:09:26","新北市中和區中山路二段366巷13號","121.491615","25.0042983333333","6500300","中和區"
"235021","801-TS","2018/09/25 14:09:27","新北市中和區民利街50號","121.479345","24.9987833333333","6500300","中和區"
"235005","802-TS","2018/09/25 14:09:25","新北市中和區中安街178巷3弄2號","121.510568333333","24.999065","6500300","中和區"
"235016","805-TS","2018/09/25 14:09:30","新北市中和區興南路二段164號","121.503718333333","24.9827216666667","6500300","中和區"
"235012","896-TW","2018/09/25 14:09:32","新北市中和區工專路129號","121.50869","24.9792933333333","6500300","中和區"
"235017","900-TW","2018/09/25 14:09:24","新北市中和區華福街71巷32號","121.467736666667","24.9970133333333","6500300","中和區"
"235024","911-UM","2018/09/25 14:09:21","新北市中和區民享街41號","121.474005","25.0029533333333","6500300","中和區"
"235015","157-BY","2018/09/25 14:09:21","新北市中和區和平街8號","121.510238333333","24.9901266666667","6500300","中和區"
"235001","AAC-213","2018/09/25 14:09:30","新北市中和區秀朗路三段50巷2弄2號","121.526193333333","24.9955033333333","6500300","中和區"
"235023","AAC-215","2018/09/25 14:09:20","新北市中和區圓通路294巷17-5號","121.488633333333","24.990465","6500300","中和區"
"220016","013-TV","2018/09/25 14:09:37","新北市板橋區翠華街6巷17號","121.481035","25.0242966666667","6500100","板橋區"
"220013","015-TV","2018/09/25 14:09:23","新北市板橋區民族路219巷9號","121.469266666667","25.0079733333333","6500100","板橋區"
"220034","073-UY","2018/09/25 14:09:30","新北市板橋區中正路216巷106號","121.458998333333","25.0191383333333","6500100","板橋區"
"220105","075-UY","2018/09/25 14:09:35","新北市板橋區雙十路三段10巷16號","121.472286666667","25.0309616666667","6500100","板橋區"
"220017","AAD-861","2018/09/25 14:09:31","新北市板橋區華興街38號","121.458645","25.0046983333333","6500100","板橋區"
"247001","893-R6","2018/09/25 14:09:22","新北市蘆洲區永平街56號","121.457663333333","25.09152","6501400","蘆洲區"
"247015","546-UM","2018/09/25 14:09:28","新北市蘆洲區光華路46巷38號","121.467808333333","25.0842716666667","6501400","蘆洲區"
"247023","500-BY","2018/09/25 14:09:30","新北市蘆洲區光榮路116號","121.464538333333","25.0894266666667","6501400","蘆洲區"
"247013","339-TH","2018/09/25 14:09:20","新北市蘆洲區忠孝路66號","121.471531666667","25.08526","6501400","蘆洲區"
"247005","337-TH","2018/09/25 14:09:34","新北市蘆洲區永安南路二段16巷17弄2號","121.467741666667","25.0779633333333","6501400","蘆洲區"
"247007","336-TH","2018/09/25 14:09:27","新北市蘆洲區中山一路234號","121.472883333333","25.0802883333333","6501400","蘆洲區"
"247019","057-VK","2018/09/25 14:09:22","新北市蘆洲區仁愛街36巷18號","121.472785","25.093585","6501400","蘆洲區"
"247009","056-VK","2018/09/25 14:09:27","新北市蘆洲區三民路52號","121.475371666667","25.083615","6501400","蘆洲區"
"247017","007-UY","2018/09/25 14:09:22","新北市蘆洲區復興路105巷11號","121.476398333333","25.0883566666667","6501400","蘆洲區"
"247003","002-UY","2018/09/25 14:09:35","新北市蘆洲區長安街179號","121.460693333333","25.0815733333333","6501400","蘆洲區"
"247021","001-UY","2018/09/25 14:09:32","新北市蘆洲區三民路165號","121.471388333333","25.0869483333333","6501400","蘆洲區"
"228004","212-TW","2018/09/25 14:09:24","新北市貢寮區雙玉里德心街9-1號","121.918266666667","25.0159433333333","6502600","貢寮區"
"228005","828-UM","2018/09/25 14:09:37","新北市雙溪區三港里雙澳路100號","121.889083333333","25.0558466666667","6502600","貢寮區"
"207002","291-VK","2018/09/25 14:09:22","新北市萬里區溪底里瑞泉路20號","121.605275","25.1476516666667","6502800","萬里區"
"207001","662-BX","2018/09/25 14:09:28","新北市萬里區磺潭里清水18號","121.63788","25.1977283333333","6502800","萬里區"
"252005","AAC-283","2018/09/25 14:09:35","新北市三芝區橫山里大坑85-1號","121.528921666667","25.2582633333333","6502100","三芝區"
"236065","105-UM","2018/09/25 14:09:25","新北市土城區金城路二段58號","121.45225","24.9795416666667","6501300","土城區"
"236040","107-UM","2018/09/25 14:09:20","新北市土城區中華路二段2號","121.43953","24.979585","6501300","土城區"
"236074","166-UM","2018/09/25 14:09:30","新北市土城區永寧路35號","121.43021","24.96227","6501300","土城區"
"236029","253-BX","2018/09/25 14:09:34","新北市土城區興城路79號","121.439828333333","24.9707166666667","6501300","土城區"
"236024","269-VK","2018/09/25 14:09:28","新北市土城區承天路18號","121.439411666667","24.9634766666667","6501300","土城區"
"236013","270-VK","2018/09/25 14:09:19","新北市土城區學府路一段208號","121.452406666667","24.985355","6501300","土城區"
"236032","271-VK","2018/09/25 14:09:30","新北市土城區明德路一段375-1號","121.454978333333","24.9781116666667","6501300","土城區"
"236017","401-BY","2018/09/25 14:09:31","新北市土城區中央路二段280號","121.440808333333","24.974125","6501300","土城區"
"236057","912-UM","2018/09/25 14:09:30","新北市土城區中央路四段107號","121.416581666667","24.95779","6501300","土城區"
"236045","913-UM","2018/09/25 14:09:31","新北市土城區明德路一段365-1號","121.453568333333","24.9790433333333","6501300","土城區"
"236060","915-UM","2018/09/25 14:09:37","新北市土城區金城路二段388號","121.463545","24.9856666666667","6501300","土城區"
"236054","AAC-216","2018/09/25 14:09:26","新北市土城區城林路6巷80號","121.43833","24.979565","6501300","土城區"
"221010","269-BY","2018/09/25 14:09:37","新北市汐止區長青路210巷156號","121.615093333333","25.11365","6501100","汐止區"
"221032","280-BY","2018/09/25 14:09:36","新北市汐止區民權街二段83號","121.619223333333","25.0478383333333","6501100","汐止區"
"220027","145-BY","2018/09/25 14:09:25","新北市板橋區民權路260巷7號","121.458311666667","25.0153683333333","6500100","板橋區"
"220028","200-UY","2018/09/25 14:09:30","新北市板橋區大觀路二段1巷44號","121.450208333333","25.003595","6500100","板橋區"
"220030","610-BX","2018/09/25 14:09:35","新北市板橋區溪崑二街88號","121.427166666667","24.9894416666667","6500100","板橋區"
"220050","245-BX","2018/09/25 14:09:22","新北市板橋區萬板路11號","121.470415","25.0208683333333","6500100","板橋區"
"220047","257-TC","2018/09/25 14:09:35","新北市板橋區自由路51巷9-3號","121.465078333333","25.02345","6500100","板橋區"
"220004","276-BY","2018/09/25 14:09:31","新北市板橋區信義路74巷8號","121.45659","24.9928333333333","6500100","板橋區"
"220020","277-BY","2018/09/25 14:09:31","新北市板橋區金門街369巷58號","121.428318333333","24.9816783333333","6500100","板橋區"
"220043","280-UM","2018/09/25 14:09:31","新北市板橋區光武街91號","121.466766666667","25.0270416666667","6500100","板橋區"
"220019","283-VK","2018/09/25 14:09:22","新北市板橋區重慶路247-3號","121.463246666667","25.000305","6500100","板橋區"
"220001","285-VK","2018/09/25 14:09:23","新北市板橋區懷仁街34巷22號","121.475816666667","25.01907","6500100","板橋區"
"220031","286-VK","2018/09/25 14:09:25","新北市板橋區大觀路二段174巷196弄2號","121.442533333333","25.0038416666667","6500100","板橋區"
"220029","287-VK","2018/09/25 14:09:34","新北市板橋區南雅西路二段2-1號","121.453221666667","25.0088733333333","6500100","板橋區"
"220039","288-VK","2018/09/25 14:09:33","新北市板橋區裕民街45巷3-1號","121.461561666667","25.0283583333333","6500100","板橋區"
"220009","293-UM","2018/09/25 14:09:17","新北市板橋區中山路二段268號","121.478936666667","25.01843","6500100","板橋區"
"220052","295-UM","2018/09/25 14:09:31","新北市板橋區文化路一段188巷9弄35號","121.469068333333","25.0191933333333","6500100","板橋區"
"220023","303-R5","2018/09/25 14:09:32","新北市板橋區西門街63號","121.4547","25.0092633333333","6500100","板橋區"
"220010","305-R5","2018/09/25 14:09:28","新北市板橋區三民路二段居仁巷2弄25號","121.480035","25.0130433333333","6500100","板橋區"
"220041","307-R5","2018/09/25 14:09:28","新北市板橋區文化路二段225巷60弄32號","121.469221666667","25.0291916666667","6500100","板橋區"
"220012","486-VK","2018/09/25 14:09:38","新北市板橋區板新路150號","121.470406666667","25.0157166666667","6500100","板橋區"
"220037","491-VK","2018/09/25 14:09:22","新北市板橋區莊敬路48-2號","121.472646666667","25.0271466666667","6500100","板橋區"
"220104","560-BX","2018/09/25 14:09:23","新北市板橋區中正路415號","121.454238333333","25.022655","6500100","板橋區"
"220032","568-UM","2018/09/25 14:09:32","新北市板橋區溪崑一街45號","121.43022","24.9909933333333","6500100","板橋區"
"220011","609-BX","2018/09/25 14:09:35","新北市板橋區三民路二段202-5號","121.479065","25.0145816666667","6500100","板橋區"
"220040","637-BX","2018/09/25 14:09:38","新北市板橋區縣民大道三段247巷5號","121.481603333333","25.0262933333333","6500100","板橋區"
"220005","686-BX","2018/09/25 14:09:26","新北市板橋區重慶路293號","121.463298333333","24.999345","6500100","板橋區"
"220025","687-BX","2018/09/25 14:09:27","新北市板橋區龍興街95巷1號","121.44405","25.0023183333333","6500100","板橋區"
"220042","689-BX","2018/09/25 14:09:30","新北市板橋區民生路三段177號","121.465516666667","25.02724","6500100","板橋區"
"220002","741-BX","2018/09/25 14:09:26","新北市板橋區重慶路69巷1號","121.462155","25.0070116666667","6500100","板橋區"
"220051","KEA-2699","2018/09/25 14:09:32","新北市板橋區田單街51號","121.48261","25.0279366666667","6500100","板橋區"
"220003","827-TW","2018/09/25 14:09:33","新北市板橋區新民街7巷10號","121.463596666667","25.0102083333333","6500100","板橋區"
"220014","830-TW","2018/09/25 14:09:37","新北市板橋區民享街116巷2弄3號","121.477833333333","25.0156283333333","6500100","板橋區"
"220045","831-TW","2018/09/25 14:09:19","新北市板橋區大同街2號","121.476835","25.02674","6500100","板橋區"
"220038","833-TW","2018/09/25 14:09:29","新北市板橋區文化路二段331號","121.472486666667","25.030385","6500100","板橋區"
"220022","895-R6","2018/09/25 14:09:31","新北市板橋區府中路123號","121.45614","25.0095933333333","6500100","板橋區"
"220021","985-R7","2018/09/25 14:09:21","新北市板橋區民權路216-1號","121.458781666667","25.014135","6500100","板橋區"
"220046","AAC-210","2018/09/25 14:09:20","新北市板橋區新海路135巷4號","121.459908333333","25.0228783333333","6500100","板橋區"
"220018","AAC-253","2018/09/25 14:09:29","新北市板橋區四川路一段256號","121.459115","25.0013883333333","6500100","板橋區"
"235032","KEA-2873","2018/09/25 14:09:29","新北市中和區景平路545巷3號","121.498368333333","24.999075","6500300","中和區"
"235025","KEA-2875","2018/09/25 14:09:20","新北市中和區員山路352號","121.481145","25.00362","6500300","中和區"
