"lineid","car","time","location","longitude","latitude","cityid","cityname"
"234005","207-UY","2018/09/25 14:29:36","新北市永和區永貞路151號","121.515686666667","25.0039916666667","6500400","永和區"
"234078","298-R6","2018/09/25 14:29:39","新北市永和區福和路57巷4弄1號","121.522886666667","25.007265","6500400","永和區"
"234036","336-UY","2018/09/25 14:29:36","新北市永和區環河東路四段36號","121.528768333333","24.99899","6500400","永和區"
"234062","337-UY","2018/09/25 14:29:35","新北市永和區中正路403號","121.5171","25.0046316666667","6500400","永和區"
"234084","338-UY","2018/09/25 14:29:27","新北市永和區光復街21號","121.516481666667","25.017375","6500400","永和區"
"234068","552-UM","2018/09/25 14:29:41","新北市永和區永寧街1號","121.520301666667","25.0065916666667","6500400","永和區"
"234028","746-BX","2018/09/25 14:29:28","新北市永和區民權路84號","121.51986","24.9970216666667","6500400","永和區"
"234052","KEA-2590","2018/09/25 14:29:24","新北市永和區環河東路一段80號","121.519525","25.0164033333333","6500400","永和區"
"234060","AAD-866","2018/09/25 14:29:35","新北市永和區秀朗路一段175號","121.516993333333","25.0036616666667","6500400","永和區"
"234040","862-TW","2018/09/25 14:29:25","新北市永和區安樂路348號","121.514453333333","25.00641","6500400","永和區"
"234048","863-TW","2018/09/25 14:29:35","新北市永和區新生路197號","121.506711666667","25.0141716666667","6500400","永和區"
"234025","9371-KE","2018/09/25 14:29:22","新北市中和區中安街98-1號","121.511691666667","25.0012116666667","6500400","永和區"
"248017","225-UY","2018/09/25 14:29:27","新北市五股區外寮路6-1號","121.425125","25.0752216666667","6501500","五股區"
"234072","AAC-211","2018/09/25 14:29:30","新北市永和區環河東路一段124號","121.520723333333","25.0154033333333","6500400","永和區"
"234001","AAC-295","2018/09/25 14:29:20","新北市永和區大新街31號","121.515228333333","25.0085","6500400","永和區"
"244002","248-BX","2018/09/25 14:17:58","新北市林口區林口路76號","121.389651666667","25.0806883333333","6501700","林口區"
"231002","002-UM","2018/09/25 14:29:22","新北市新店區中央路81號","121.532311666667","24.9766533333333","6500600","新店區"
"231027","0291-UT","2018/09/25 14:29:31","新北市新店區寶橋路56號","121.54596","24.9753783333333","6500600","新店區"
"231028","046-UY","2018/09/25 14:29:34","新北市新店區安和路一段1號","121.516753333333","24.9638616666667","6500600","新店區"
"231001","047-UY","2018/09/25 14:29:27","新北市新店區中正路75巷71號","121.543138333333","24.968865","6500600","新店區"
"231005","106-UY","2018/09/25 14:29:26","新北市新店區北新路三段179號","121.541095","24.9842366666667","6500600","新店區"
"231020","108-UY","2018/09/25 14:29:17","新北市新店區新烏路二段304號","121.549075","24.9122033333333","6500600","新店區"
"231012","187-VK","2018/09/25 14:29:33","新北市新店區寶興路42巷5號","121.548683333333","24.972765","6500600","新店區"
"231032","188-VK","2018/09/25 14:29:23","新北市新店區溪洲路196-6號","121.53028","24.9669383333333","6500600","新店區"
"231023","KEA-2219","2018/09/25 14:29:35","新北市新店區光明街141號","121.539465","24.96209","6500600","新店區"
"231003","268-BY","2018/09/25 14:29:32","新北市新店區中興路一段267-3號","121.54504","24.9678266666667","6500600","新店區"
"231018","278-BY","2018/09/25 14:29:40","新北市新店區中央三街64號","121.526803333333","24.9750116666667","6500600","新店區"
"231015","AAD-862","2018/09/25 14:29:29","新北市新店區北宜路三段66號","121.575426666667","24.9505583333333","6500600","新店區"
"231004","355-BY","2018/09/25 14:29:31","新北市新店區中正路282-11號","121.538441666667","24.9739816666667","6500600","新店區"
"231038","3712-VJ","2018/09/25 14:29:32","新北市新店區溪洲路8巷54號","121.533378333333","24.9622316666667","6500600","新店區"
"231037","4716-K9","2018/09/25 14:29:19","新北市新店區安康路二段269號","121.504573333333","24.957535","6500600","新店區"
"231036","512-UM","2018/09/25 14:29:33","新北市新店區安祥路109巷85弄16號","121.478053333333","24.9598083333333","6500600","新店區"
"231013","513-UM","2018/09/25 14:29:25","新北市新店區民權路108-1號","121.53607","24.9835516666667","6500600","新店區"
"231034","616-UM","2018/09/25 14:29:23","新北市新店區車子路11號","121.503058333333","24.9519566666667","6500600","新店區"
"231006","617-UM","2018/09/25 14:29:23","新北市新店區北宜路二段322號","121.561926666667","24.9540033333333","6500600","新店區"
"231030","619-UM","2018/09/25 14:29:31","新北市新店區安民街50號","121.516111666667","24.965815","6500600","新店區"
"231035","719-UM","2018/09/25 14:29:19","新北市新店區安民街49號","121.516035","24.9658166666667","6500600","新店區"
"231029","897-TW","2018/09/25 14:29:26","新北市新店區安康路二段454號","121.494426666667","24.954235","6500600","新店區"
"231024","AKT-0513","2018/09/25 14:29:25","新北市新店區力行路11巷1號","121.539215","24.9646266666667","6500600","新店區"
"235030","003-UY","2018/09/25 14:29:38","新北市中和區景新街43號","121.503993333333","24.9992133333333","6500300","中和區"
"235028","005-UY","2018/09/25 14:29:24","新北市中和區南山路127巷8弄1號","121.502888333333","24.9971866666667","6500300","中和區"
"235027","006-UY","2018/09/25 14:29:34","新北市中和區連勝街175號","121.49411","24.99703","6500300","中和區"
"235020","096-UM","2018/09/25 14:29:28","新北市中和區員山路514巷1號","121.479338333333","25.00961","6500300","中和區"
"235003","097-UM","2018/09/25 14:29:34","新北市中和區秀峰街119巷8弄1號","121.51937","24.9889766666667","6500300","中和區"
"235029","098-UM","2018/09/25 14:29:36","新北市中和區永和路8巷3號","121.500225","25.0031716666667","6500300","中和區"
"235004","150-BY","2018/09/25 14:29:28","新北市中和區宜安路23巷5號","121.512658333333","24.9955766666667","6500300","中和區"
"235022","151-BY","2018/09/25 14:29:28","新北市中和區員山路36巷16-2號","121.485263333333","24.9915483333333","6500300","中和區"
"235019","183-VK","2018/09/25 14:29:36","新北市中和區德光路27巷9號","121.47096","25.0036233333333","6500300","中和區"
"235002","185-VK","2018/09/25 14:29:23","新北市中和區自立路99巷1號","121.52198","24.995135","6500300","中和區"
"235013","186-VK","2018/09/25 14:29:27","新北市中和區景新街285巷25號","121.510755","24.99371","6500300","中和區"
"235031","255-BX","2018/09/25 14:29:30","新北市中和區連城路340巷10弄11號","121.483031666667","24.9966116666667","6500300","中和區"
"235008","293-VK","2018/09/25 14:29:35","新北市中和區南山路160號","121.504395","24.9918133333333","6500300","中和區"
"235036","301-VK","2018/09/25 14:29:37","新北市中和區中山路二段3巷22弄36號","121.505798333333","25.0041733333333","6500300","中和區"
"235007","352-BY","2018/09/25 14:29:36","新北市中和區景平路370號","121.51096","24.9927933333333","6500300","中和區"
"235006","KEA-2878","2018/09/25 14:29:35","新北市中和區中和路262巷43弄1號","121.509523333333","24.9994883333333","6500300","中和區"
"247011","KEA-2869","2018/09/25 14:29:37","新北市蘆洲區復興路125號","121.47758","25.0883583333333","6501400","蘆洲區"
"235014","4979-A6","2018/09/25 14:29:27","新北市中和區中正路571巷1弄4號","121.48682","24.9937583333333","6500300","中和區"
"235033","4980-A6","2018/09/25 14:29:22","新北市中和區連城路134巷11號","121.495206666667","24.9999866666667","6500300","中和區"
"235034","558-UM","2018/09/25 14:29:32","新北市中和區景平路634-12號","121.498391666667","24.999765","6500300","中和區"
"235009","565-BX","2018/09/25 14:29:25","新北市中和區景新街499號","121.514061666667","24.9869933333333","6500300","中和區"
"235018","640-BX","2018/09/25 14:29:19","新北市中和區民德路189巷7號","121.4691","24.9990183333333","6500300","中和區"
"235011","732-UM","2018/09/25 14:29:32","新北市中和區景平路259巷18號","121.507801666667","24.9927066666667","6500300","中和區"
"235010","733-UM","2018/09/25 14:29:18","新北市中和區忠孝街37巷52號","121.511086666667","24.984915","6500300","中和區"
"235035","783-BX","2018/09/25 14:29:19","新北市中和區連城路467-5號","121.48362","24.996095","6500300","中和區"
"235026","800-TS","2018/09/25 14:29:26","新北市中和區中山路二段480號","121.487578333333","25.0049916666667","6500300","中和區"
"235021","801-TS","2018/09/25 14:29:27","新北市中和區中山路三段13號","121.479645","25.005995","6500300","中和區"
"235005","802-TS","2018/09/25 14:29:25","新北市中和區景安路50號","121.506586666667","24.9982283333333","6500300","中和區"
"235016","805-TS","2018/09/25 14:29:30","新北市中和區華新街143巷65弄2號","121.50667","24.9789466666667","6500300","中和區"
"235012","896-TW","2018/09/25 14:29:31","新北市中和區忠孝街39-5號","121.511843333333","24.9839983333333","6500300","中和區"
"235017","900-TW","2018/09/25 14:29:24","新北市中和區民德路197-2號","121.468885","24.9985933333333","6500300","中和區"
"235024","911-UM","2018/09/25 14:29:21","新北市中和區新生街115號","121.483585","25.0017083333333","6500300","中和區"
"235015","157-BY","2018/09/25 14:29:21","新北市中和區中興街132巷11號","121.498911666667","24.99165","6500300","中和區"
"235001","AAC-213","2018/09/25 14:29:30","新北市中和區秀朗路三段10巷14弄12號","121.525073333333","24.9965783333333","6500300","中和區"
"235023","AAC-215","2018/09/25 14:29:40","新北市中和區圓通路252巷1號","121.493571666667","24.9909966666667","6500300","中和區"
"220016","013-TV","2018/09/25 14:29:37","新北市板橋區中山路二段559-2號","121.484396666667","25.0219483333333","6500100","板橋區"
"220013","015-TV","2018/09/25 14:29:23","新北市板橋區實踐路93巷101號","121.467353333333","25.0059566666667","6500100","板橋區"
"220034","073-UY","2018/09/25 14:29:30","新北市板橋區漢生西路89巷4弄10號","121.461085","25.0188233333333","6500100","板橋區"
"220105","075-UY","2018/09/25 14:29:35","新北市板橋區雙十路三段10巷1弄31號","121.471256666667","25.03172","6500100","板橋區"
"220017","AAD-861","2018/09/25 14:29:31","新北市板橋區稚暉街46巷1號","121.456395","25.0043016666667","6500100","板橋區"
"247001","893-R6","2018/09/25 14:29:22","新北市蘆洲區永樂街38巷33弄46號","121.456806666667","25.0898016666667","6501400","蘆洲區"
"247015","546-UM","2018/09/25 14:29:27","新北市蘆洲區中正路185巷76號","121.466218333333","25.0843566666667","6501400","蘆洲區"
"247023","500-BY","2018/09/25 14:29:30","新北市蘆洲區中正路263巷2號","121.467355","25.0874366666667","6501400","蘆洲區"
"247013","339-TH","2018/09/25 14:29:20","新北市蘆洲區中正路16號","121.471448333333","25.0820183333333","6501400","蘆洲區"
"247005","337-TH","2018/09/25 14:29:34","新北市蘆洲區長安街91號","121.462053333333","25.0804233333333","6501400","蘆洲區"
"247007","336-TH","2018/09/25 14:29:27","新北市蘆洲區民生街47號","121.474986666667","25.0788516666667","6501400","蘆洲區"
"247019","057-VK","2018/09/25 14:29:33","新北市蘆洲區水湳街285號","121.469508333333","25.0930733333333","6501400","蘆洲區"
"247009","056-VK","2018/09/25 14:29:26","新北市蘆洲區鷺江街17號","121.47912","25.0825266666667","6501400","蘆洲區"
"247017","007-UY","2018/09/25 14:29:21","新北市蘆洲區復興路227巷19號","121.479706666667","25.0907316666667","6501400","蘆洲區"
"247003","002-UY","2018/09/25 14:29:35","新北市蘆洲區永康街116號","121.458126666667","25.0853783333333","6501400","蘆洲區"
"228004","212-TW","2018/09/25 14:29:24","新北市貢寮區雙玉里田寮洋街34-1號","121.93133","25.0149433333333","6502600","貢寮區"
"228005","828-UM","2018/09/25 14:29:37","新北市貢寮區美豐里巫里岸9-1號","121.901946666667","25.070025","6502600","貢寮區"
"207002","291-VK","2018/09/25 14:29:37","新北市萬里區溪底里福德坑路2-2號","121.624691666667","25.1558433333333","6502800","萬里區"
"207001","662-BX","2018/09/25 14:29:28","新北市萬里區磺潭里清水18-2號","121.638441666667","25.1983616666667","6502800","萬里區"
"252005","AAC-283","2018/09/25 14:29:35","新北市三芝區埔坪里埔頭坑80號","121.510608333333","25.2544616666667","6502100","三芝區"
"236065","105-UM","2018/09/25 14:29:25","新北市土城區永豐路255巷23弄1號","121.475208333333","24.9734266666667","6501300","土城區"
"236040","107-UM","2018/09/25 14:29:21","新北市土城區裕民路67巷4弄8號","121.45002","24.9877583333333","6501300","土城區"
"236074","166-UM","2018/09/25 14:29:30","新北市土城區中央路四段27巷10弄2號","121.42472","24.9618316666667","6501300","土城區"
"236029","253-BX","2018/09/25 14:29:34","新北市土城區水源街30號","121.440925","24.97554","6501300","土城區"
"236024","269-VK","2018/09/25 14:29:28","新北市土城區承天路22號","121.439588333333","24.9633166666667","6501300","土城區"
"236013","270-VK","2018/09/25 14:29:39","新北市土城區青雲路39巷7號","121.460395","24.9875733333333","6501300","土城區"
"236032","271-VK","2018/09/25 14:29:32","新北市土城區青雲路453號","121.458833333333","24.9746133333333","6501300","土城區"
"236017","401-BY","2018/09/25 14:29:31","新北市土城區永豐路202巷5-2號","121.466351666667","24.9832083333333","6501300","土城區"
"236057","912-UM","2018/09/25 14:29:30","新北市土城區中央路四段131號","121.41609","24.95751","6501300","土城區"
"236045","913-UM","2018/09/25 14:29:33","新北市土城區青雲路364號","121.458701666667","24.9739166666667","6501300","土城區"
"236060","915-UM","2018/09/25 14:29:37","新北市土城區延壽路44巷15號","121.471338333333","24.9929716666667","6501300","土城區"
"236054","AAC-216","2018/09/25 14:29:27","新北市土城區中華路二段6號","121.439475","24.9789516666667","6501300","土城區"
"221010","269-BY","2018/09/25 14:29:17","新北市汐止區八連路一段330號","121.640713333333","25.088375","6501100","汐止區"
"221032","280-BY","2018/09/25 14:29:36","新北市汐止區橫科路221巷19-1號","121.62154","25.0495633333333","6501100","汐止區"
"220027","145-BY","2018/09/25 14:29:25","新北市板橋區建國街21號","121.457941666667","25.0169833333333","6500100","板橋區"
"220028","200-UY","2018/09/25 14:29:37","新北市板橋區大觀路二段37巷254號","121.449953333333","25.0021166666667","6500100","板橋區"
"220030","610-BX","2018/09/25 14:29:36","新北市板橋區金門街237號","121.432113333333","24.989435","6500100","板橋區"
"220050","245-BX","2018/09/25 14:29:22","新北市板橋區莊敬路220巷66號","121.471765","25.0208533333333","6500100","板橋區"
"220047","257-TC","2018/09/25 14:29:35","新北市板橋區民生路三段299巷5號","121.463263333333","25.030285","6500100","板橋區"
"220004","276-BY","2018/09/25 14:29:31","新北市板橋區干城路159號","121.46077","24.9920133333333","6500100","板橋區"
"220020","277-BY","2018/09/25 14:29:31","新北市板橋區篤行路二段141巷23號","121.430618333333","24.9876966666667","6500100","板橋區"
"220043","280-UM","2018/09/25 14:29:33","新北市板橋區吳鳳路17巷9號","121.467696666667","25.02992","6500100","板橋區"
"220019","283-VK","2018/09/25 14:29:22","新北市板橋區四川路一段304號","121.458561666667","25.0004283333333","6500100","板橋區"
"220001","285-VK","2018/09/25 14:29:35","新北市板橋區富山街62巷8號","121.477228333333","25.022285","6500100","板橋區"
"220031","286-VK","2018/09/25 14:29:33","新北市板橋區龍興街71巷2-1號","121.443671666667","25.0018916666667","6500100","板橋區"
"220029","287-VK","2018/09/25 14:29:34","新北市板橋區大觀路一段29巷137弄1號","121.450183333333","25.0054033333333","6500100","板橋區"
"220039","288-VK","2018/09/25 14:29:33","新北市板橋區裕民街77號","121.460798333333","25.0282883333333","6500100","板橋區"
"220009","293-UM","2018/09/25 14:29:35","新北市板橋區成功路6巷15號","121.476033333333","25.0171166666667","6500100","板橋區"
"220052","295-UM","2018/09/25 14:29:25","新北市板橋區介壽街9號","121.467298333333","25.02038","6500100","板橋區"
"220023","303-R5","2018/09/25 14:29:32","新北市板橋區中正路253巷5號","121.455338333333","25.01819","6500100","板橋區"
"220010","305-R5","2018/09/25 14:29:28","新北市板橋區三民路二段123巷30號","121.480538333333","25.0155833333333","6500100","板橋區"
"220041","307-R5","2018/09/25 14:29:32","新北市板橋區光武街2巷15號","121.468333333333","25.0253566666667","6500100","板橋區"
"220012","486-VK","2018/09/25 14:29:37","新北市板橋區中山路一段53號","121.460906666667","25.0093933333333","6500100","板橋區"
"220037","491-VK","2018/09/25 14:29:26","新北市板橋區雙十路二段4號","121.477271666667","25.0252633333333","6500100","板橋區"
"220104","560-BX","2018/09/25 14:29:23","新北市板橋區中正路413巷7號","121.45383","25.0225166666667","6500100","板橋區"
"220032","568-UM","2018/09/25 14:29:36","新北市板橋區篤行路三段玉平巷76弄15號","121.427141666667","24.9860866666667","6500100","板橋區"
"220011","609-BX","2018/09/25 14:25:55","新北市板橋區三民路二段257號","121.479091666667","25.0115516666667","6500100","板橋區"
"220040","637-BX","2018/09/25 14:29:38","新北市板橋區文聖街149巷5號","121.478733333333","25.028205","6500100","板橋區"
"220005","686-BX","2018/09/25 14:29:26","新北市板橋區五權街7-1號","121.463853333333","24.99462","6500100","板橋區"
"220025","687-BX","2018/09/25 14:29:27","新北市板橋區大觀路一段61號","121.447373333333","25.00568","6500100","板橋區"
"220042","689-BX","2018/09/25 14:29:30","新北市板橋區新海路115號","121.461076666667","25.0228133333333","6500100","板橋區"
"220002","741-BX","2018/09/25 14:29:38","新北市板橋區忠孝路235號","121.46598","25.0027866666667","6500100","板橋區"
"220051","KEA-2699","2018/09/25 14:29:37","新北市板橋區松柏街22巷31號","121.474995","25.0291833333333","6500100","板橋區"
"220003","827-TW","2018/09/25 14:29:33","新北市板橋區重慶路290巷22弄6號","121.462313333333","24.99918","6500100","板橋區"
"220014","830-TW","2018/09/25 14:29:37","新北市板橋區長安街138巷7弄6號","121.473398333333","25.00836","6500100","板橋區"
"220045","831-TW","2018/09/25 14:29:18","新北市板橋區民生路二段226巷36號","121.471343333333","25.022025","6500100","板橋區"
"220038","833-TW","2018/09/25 14:29:29","新北市板橋區文化路一段71號","121.460948333333","25.0138133333333","6500100","板橋區"
"220022","895-R6","2018/09/25 14:29:31","新北市板橋區府中路68號","121.456636666667","25.00968","6500100","板橋區"
"220021","985-R7","2018/09/25 14:29:37","新北市板橋區新生街19號","121.455915","25.0211966666667","6500100","板橋區"
"220046","AAC-210","2018/09/25 14:29:40","新北市板橋區漢生西路125號","121.462628333333","25.021265","6500100","板橋區"
"220018","AAC-253","2018/09/25 14:29:29","新北市板橋區四川路一段153號","121.459933333333","25.0041266666667","6500100","板橋區"
"235032","KEA-2873","2018/09/25 14:29:29","新北市中和區廟美街26號","121.50085","25.0017933333333","6500300","中和區"
"235025","KEA-2875","2018/09/25 14:29:20","新北市中和區民安街2巷3號","121.480616666667","25.0012283333333","6500300","中和區"
