"lineid","car","time","location","longitude","latitude","cityid","cityname"
"231046","107-UY","2018/09/25 15:49:28","新北市新店區安一路一段1-1號","121.519851666667","24.9610733333333","6500600","新店區"
"231020","108-UY","2018/09/25 15:49:38","新北市新店區新烏路一段179-1號","121.545416666667","24.9340016666667","6500600","新店區"
"231012","187-VK","2018/09/25 15:49:37","新北市新店區中興路三段161號","121.544163333333","24.9803083333333","6500600","新店區"
"231032","188-VK","2018/09/25 15:49:22","新北市新店區雙城路133號","121.497806666667","24.9391683333333","6500600","新店區"
"231023","KEA-2219","2018/09/25 15:49:35","新北市新店區中興路一段255號","121.544451666667","24.9670366666667","6500600","新店區"
"231026","256-BX","2018/09/25 15:49:23","新北市新店區民生路15號","121.532983333333","24.9866966666667","6500600","新店區"
"231003","268-BY","2018/09/25 15:49:32","新北市新店區寶興路60巷3號","121.549938333333","24.9718283333333","6500600","新店區"
"231018","278-BY","2018/09/25 15:49:20","新北市新店區中正路663巷1弄2號","121.532853333333","24.98999","6500600","新店區"
"231015","AAD-862","2018/09/25 15:49:29","新北市新店區中華路117巷4弄2號","121.53825","24.9689116666667","6500600","新店區"
"231038","3712-VJ","2018/09/25 15:49:34","新北市新店區安康路二段234巷10號","121.509343333333","24.9597283333333","6500600","新店區"
"231037","4716-K9","2018/09/25 15:49:39","新北市新店區安興路112號","121.514613333333","24.9776566666667","6500600","新店區"
"231013","513-UM","2018/09/25 15:49:25","新北市新店區永業路81巷9弄12號","121.531395","24.950815","6500600","新店區"
"231034","616-UM","2018/09/25 15:49:23","新北市新店區吉祥街6巷1號","121.497696666667","24.94569","6500600","新店區"
"231030","619-UM","2018/09/25 15:49:31","新北市新店區永安街64號","121.51941","24.9868383333333","6500600","新店區"
"231035","719-UM","2018/09/25 15:49:39","新北市新店區安興路83-8號","121.51537","24.975685","6500600","新店區"
"241011","013-R5","2018/09/25 15:49:38","新北市三重區三和路二段228號","121.497503333333","25.0696016666667","6500200","三重區"
"241028","022-UY","2018/09/25 15:49:39","新北市三重區中正南路47號","121.493975","25.0596183333333","6500200","三重區"
"241008","059-VK","2018/09/25 15:49:24","新北市三重區重新路四段121號","121.485045","25.05229","6500200","三重區"
"241015","062-VK","2018/09/25 15:49:37","新北市三重區重新路四段121號","121.485098333333","25.0523783333333","6500200","三重區"
"241017","063-VK","2018/09/25 15:49:24","新北市三重區大仁街38號","121.4916","25.0643016666667","6500200","三重區"
"241024","065-VK","2018/09/25 15:49:30","新北市三重區捷運路36號","121.482888333333","25.0550683333333","6500200","三重區"
"241002","090-VK","2018/09/25 15:49:37","新北市三重區重新路四段121號","121.484766666667","25.0522616666667","6500200","三重區"
"241005","262-UM","2018/09/25 15:49:27","新北市三重區河邊北街379號","121.502271666667","25.07652","6500200","三重區"
"241016","266-UM","2018/09/25 15:49:27","新北市三重區重新路四段121號","121.484901666667","25.0526716666667","6500200","三重區"
"241032","269-UM","2018/09/25 15:49:35","新北市三重區三陽路100巷3弄13號","121.483001666667","25.0581816666667","6500200","三重區"
"241013","270-UM","2018/09/25 15:49:25","新北市三重區三和路三段42號","121.495783333333","25.0707816666667","6500200","三重區"
"241025","271-UM","2018/09/25 15:49:25","新北市三重區捷運路36號","121.482925","25.055365","6500200","三重區"
"241007","398-BY","2018/09/25 15:49:34","新北市三重區捷運路36號","121.482915","25.055215","6500200","三重區"
"241004","475-VK","2018/09/25 15:49:39","新北市三重區重新路四段121號","121.484646666667","25.052175","6500200","三重區"
"241020","478-VK","2018/09/25 15:49:23","新北市三重區忠孝路二段65巷1弄1號","121.484938333333","25.0707833333333","6500200","三重區"
"241030","480-VK","2018/09/25 15:49:29","新北市三重區重新路四段121號","121.485175","25.052405","6500200","三重區"
"241014","543-UM","2018/09/25 15:49:25","新北市三重區重新路四段121號","121.484711666667","25.052445","6500200","三重區"
"241023","545-UM","2018/09/25 15:49:41","新北市三重區忠孝路三段84巷3號","121.480685","25.0646916666667","6500200","三重區"
"241006","AAD-863","2018/09/25 15:49:29","新北市三重區重新路四段121號","121.484593333333","25.0522833333333","6500200","三重區"
"241026","743-BX","2018/09/25 15:49:41","新北市三重區重新路四段121號","121.484713333333","25.0518616666667","6500200","三重區"
"241012","941-UM","2018/09/25 15:49:27","新北市三重區自強路一段34號","121.498003333333","25.0672766666667","6500200","三重區"
"241029","942-UM","2018/09/25 15:49:24","新北市三重區大同南路159號","121.49685","25.0557116666667","6500200","三重區"
"241033","AAC-255","2018/09/25 15:49:36","新北市三重區光復路一段57號","121.472138333333","25.0491183333333","6500200","三重區"
"235033","4980-A6","2018/09/25 15:49:22","新北市中和區連城路469巷21弄3號","121.48402","24.9951783333333","6500300","中和區"
"235046","733-UM","2018/09/25 15:25:08","新北市中和區員山路36巷13號","121.484165","24.9907966666667","6500300","中和區"
"235023","AAC-215","2018/09/25 15:49:40","新北市中和區員山路37-9號","121.482256666667","24.99026","6500300","中和區"
"227009","642-TC","2018/09/25 15:49:32","新北市雙溪區牡丹里中正路70號","121.864205","25.04434","6502500","雙溪區"
"227003","400-TW","2018/09/25 15:49:31","新北市雙溪區平林里外平林44號","121.85292","25.036335","6502500","雙溪區"
"236065","105-UM","2018/09/25 15:49:25","新北市土城區福安街42巷24號","121.418643333333","24.9653633333333","6501300","土城區"
"236074","166-UM","2018/09/25 15:49:30","新北市土城區中州路26-4號","121.414375","24.9575583333333","6501300","土城區"
"236024","269-VK","2018/09/25 15:49:37","新北市土城區中央路一段249巷20號","121.446198333333","24.985395","6501300","土城區"
"236017","401-BY","2018/09/25 15:49:37","新北市土城區金城路三段208號","121.471671666667","24.9898016666667","6501300","土城區"
"236057","912-UM","2018/09/25 15:49:34","新北市土城區中央路二段7號","121.443033333333","24.9806533333333","6501300","土城區"
"236045","913-UM","2018/09/25 15:49:35","新北市土城區清水路97號","121.456573333333","24.9817683333333","6501300","土城區"
"236054","AAC-216","2018/09/25 15:49:26","新北市土城區中華路一段201號","121.442933333333","24.9852433333333","6501300","土城區"
