"lineid","car","time","location","longitude","latitude","cityid","cityname"
"249005","172-UM","2018/09/25 17:08:45","新北市八里區華富山6-1號","121.419398333333","25.1423033333333","6502300","八里區"
"249001","173-UM","2018/09/25 17:08:54","新北市八里區中華路二段486號","121.400436666667","25.1457","6502300","八里區"
"249004","303-UY","2018/09/25 17:09:10","新北市八里區忠孝路175號","121.423265","25.1608066666667","6502300","八里區"
"249002","305-UY","2018/09/25 17:09:07","新北市八里區龍米路二段153巷1號","121.441065","25.1507383333333","6502300","八里區"
"249003","593-UM","2018/09/25 17:09:01","新北市八里區訊塘路92號","121.397673333333","25.1464833333333","6502300","八里區"
"244023","069-UM","2018/09/25 17:09:14","新北市林口區仁愛路一段619號","121.38986","25.0766566666667","6501700","林口區"
"244007","080-UY","2018/09/25 17:08:59","新北市林口區菁埔37-9號","121.376553333333","25.0972533333333","6501700","林口區"
"244019","403-UM","2018/09/25 17:09:07","新北市林口區仁愛路二段190號","121.380523333333","25.073865","6501700","林口區"
"244013","KEA-2802","2018/09/25 17:08:57","新北市林口區粉寮路二段88巷100-12號","121.40957","25.090195","6501700","林口區"
"244017","485-VK","2018/09/25 17:09:01","新北市林口區粉寮路二段88巷100-12號","121.409765","25.0901966666667","6501700","林口區"
"244025","837-TS","2018/09/25 17:08:59","新北市林口區中山路6號","121.396733333333","25.0782","6501700","林口區"
"244021","838-TS","2018/09/25 17:09:02","新北市林口區粉寮路60-17號","121.404293333333","25.0902716666667","6501700","林口區"
"231046","107-UY","2018/09/25 17:09:08","新北市新店區直潭路92號","121.530933333333","24.9376033333333","6500600","新店區"
"241011","013-R5","2018/09/25 17:08:57","新北市三重區龍濱路196號","121.501005","25.07328","6500200","三重區"
"241028","022-UY","2018/09/25 17:08:59","新北市三重區重新路三段110號","121.492311666667","25.060325","6500200","三重區"
"241008","059-VK","2018/09/25 17:09:04","新北市三重區力行路二段136巷17弄2號","121.481676666667","25.0756583333333","6500200","三重區"
"241031","061-VK","2018/09/25 17:09:05","新北市三重區重陽路一段113巷3號","121.487536666667","25.0598016666667","6500200","三重區"
"241015","062-VK","2018/09/25 17:08:57","新北市三重區長生街14號","121.499261666667","25.066385","6500200","三重區"
"241017","063-VK","2018/09/25 17:09:03","新北市三重區中正北路25巷25弄5號","121.493351666667","25.062705","6500200","三重區"
"241024","065-VK","2018/09/25 17:09:10","新北市三重區大勇街82巷2號","121.479366666667","25.0713683333333","6500200","三重區"
"241002","090-VK","2018/09/25 17:08:57","新北市三重區五華街33-1號","121.494705","25.0809716666667","6500200","三重區"
"241003","091-VK","2018/09/25 16:42:06","新北市三重區五華街87巷24號","121.492731666667","25.08385","6500200","三重區"
"251014","742-BX","2018/09/25 17:08:58","新北市淡水區八里堆6-6號","121.459578333333","25.22513","6501000","淡水區"
"241005","262-UM","2018/09/25 17:09:07","新北市三重區碧華街104號","121.484396666667","25.081585","6500200","三重區"
"241016","266-UM","2018/09/25 17:09:07","新北市三重區國隆路27號","121.492713333333","25.0642033333333","6500200","三重區"
"241009","267-UM","2018/09/25 17:09:07","新北市三重區三和路四段215巷12號","121.48223","25.0799716666667","6500200","三重區"
"241018","268-UM","2018/09/25 17:08:55","新北市三重區六張街81號","121.493285","25.0700416666667","6500200","三重區"
"241032","269-UM","2018/09/25 17:08:55","新北市三重區重陽路一段117巷1號","121.48683","25.060305","6500200","三重區"
"241013","270-UM","2018/09/25 17:09:05","新北市三重區仁福街9號","121.495966666667","25.0742816666667","6500200","三重區"
"241025","271-UM","2018/09/25 17:09:06","新北市三重區中正北路560巷38號","121.47148","25.0682433333333","6500200","三重區"
"241007","398-BY","2018/09/25 17:09:12","新北市三重區三和路四段135巷55號","121.487745","25.0789966666667","6500200","三重區"
"241004","475-VK","2018/09/25 17:08:59","新北市三重區五華街122巷4號","121.49176","25.0830933333333","6500200","三重區"
"241020","478-VK","2018/09/25 17:09:13","新北市三重區後竹圍街173-1號","121.48617","25.0718933333333","6500200","三重區"
"241030","480-VK","2018/09/25 17:09:09","新北市三重區集成路45號","121.489175","25.0527383333333","6500200","三重區"
"241014","543-UM","2018/09/25 17:09:05","新北市三重區龍濱路199號","121.501898333333","25.07147","6500200","三重區"
"241023","545-UM","2018/09/25 17:09:01","新北市三重區忠孝路三段84巷1號","121.480241666667","25.06463","6500200","三重區"
"241001","547-UM","2018/09/25 17:09:12","新北市三重區仁愛街269巷43號","121.49423","25.0793966666667","6500200","三重區"
"241019","KEA-2593","2018/09/25 17:09:01","新北市三重區力行路一段153巷32號","121.486141666667","25.0691416666667","6500200","三重區"
"241006","AAD-863","2018/09/25 17:09:09","新北市三重區三和路四段250號","121.486135","25.0768083333333","6500200","三重區"
"241026","743-BX","2018/09/25 17:09:01","新北市三重區重新路二段1號","121.499681666667","25.063105","6500200","三重區"
"241022","887-TS","2018/09/25 17:08:54","新北市三重區重陽路二段24巷8號","121.486333333333","25.0627083333333","6500200","三重區"
"241012","941-UM","2018/09/25 17:09:07","新北市三重區仁壽街207號","121.500451666667","25.0746","6500200","三重區"
"241029","942-UM","2018/09/25 17:09:04","新北市三重區重新路三段150號","121.490861666667","25.059305","6500200","三重區"
"241033","AAC-255","2018/09/25 17:08:57","新北市三重區中興北街275號","121.469116666667","25.0607333333333","6500200","三重區"
"247012","KEA-2869","2018/09/25 17:09:00","新北市蘆洲區信義路292巷7號","121.47803","25.08773","6501400","蘆洲區"
"247002","893-R6","2018/09/25 17:09:05","新北市蘆洲區永樂街46號","121.457728333333","25.0883833333333","6501400","蘆洲區"
"247016","546-UM","2018/09/25 17:08:53","新北市蘆洲區光華路65巷26號","121.468766666667","25.0820783333333","6501400","蘆洲區"
"247024","500-BY","2018/09/25 17:09:05","新北市蘆洲區長興路71號","121.4625","25.0845566666667","6501400","蘆洲區"
"247014","339-TH","2018/09/25 17:09:08","新北市蘆洲區中央路37巷15號","121.473425","25.0825633333333","6501400","蘆洲區"
"247006","337-TH","2018/09/25 17:09:09","新北市蘆洲區長安街102巷65號","121.462683333333","25.082175","6501400","蘆洲區"
"247008","336-TH","2018/09/25 17:08:59","新北市蘆洲區信義路30巷46號","121.474526666667","25.07822","6501400","蘆洲區"
"247020","057-VK","2018/09/25 17:09:08","新北市蘆洲區仁愛街62巷22號","121.4721","25.094285","6501400","蘆洲區"
"247010","056-VK","2018/09/25 17:09:06","新北市蘆洲區民族路5號","121.4756","25.083945","6501400","蘆洲區"
"247018","007-UY","2018/09/25 17:08:45","新北市蘆洲區復興路168號","121.477608333333","25.088315","6501400","蘆洲區"
"247004","002-UY","2018/09/25 17:08:53","新北市蘆洲區長安街191號","121.460293333333","25.0819","6501400","蘆洲區"
"247022","001-UY","2018/09/25 17:08:54","新北市蘆洲區三民路222號","121.468848333333","25.089165","6501400","蘆洲區"
"228001","212-TW","2018/09/25 17:09:04","新北市貢寮區仁理村研海街45號","121.926426666667","25.0407383333333","6502600","貢寮區"
"228002","663-BX","2018/09/25 17:09:12","新北市貢寮區龍崗里嵩陽街55號","121.907678333333","25.01659","6502600","貢寮區"
"228003","828-UM","2018/09/25 17:09:04","新北市貢寮區福隆里東興街31-1號","121.952358333333","25.02066","6502600","貢寮區"
"224006","676-BX","2018/09/25 17:09:00","新北市瑞芳區大寮路101-2號","121.778296666667","25.09927","6501200","瑞芳區"
"224008","285-BY","2018/09/25 17:09:07","新北市瑞芳區九芎橋路198號","121.834458333333","25.098995","6501200","瑞芳區"
"224007","275-VK","2018/09/25 17:09:03","新北市瑞芳區粗坑口路3號","121.76174","25.0987816666667","6501200","瑞芳區"
"224009","273-VK","2018/09/25 17:09:11","新北市瑞芳區豎崎路56號","121.84309","25.1102183333333","6501200","瑞芳區"
"224005","271-BY","2018/09/25 17:09:14","新北市瑞芳區鼻頭路179號","121.915678333333","25.123125","6501200","瑞芳區"
"227009","642-TC","2018/09/25 17:08:53","新北市雙溪區牡丹里下坑11號","121.851193333333","25.0561683333333","6502500","雙溪區"
"227003","400-TW","2018/09/25 17:09:11","新北市雙溪區外柑里田寮5號","121.80603","25.01654","6502500","雙溪區"
"251005","010-UM","2018/09/25 17:08:52","新北市淡水區水源街一段152號","121.448216666667","25.1715","6501000","淡水區"
"251002","012-UM","2018/09/25 17:09:11","新北市淡水區中正路二段31號","121.41946","25.181615","6501000","淡水區"
"251013","KEA-2871","2018/09/25 17:08:57","新北市淡水區大埤頭2號","121.488591666667","25.1955833333333","6501000","淡水區"
"251016","179-VK","2018/09/25 17:09:05","新北市淡水區社厝坑3-11號","121.475263333333","25.1888883333333","6501000","淡水區"
"251015","180-VK","2018/09/25 17:08:58","新北市淡水區樹林口41號","121.473545","25.1679966666667","6501000","淡水區"
"251008","181-VK","2018/09/25 17:09:01","新北市淡水區民生路169號","121.469638333333","25.1420733333333","6501000","淡水區"
"251010","413-VK","2018/09/25 17:09:13","新北市淡水區中正路二段31號","121.419406666667","25.1814783333333","6501000","淡水區"
"251012","441-VK","2018/09/25 17:08:59","新北市淡水區中山北路一段158號","121.444248333333","25.1779483333333","6501000","淡水區"
"251007","442-VK","2018/09/25 17:09:02","新北市淡水區民權路99-5號","121.459973333333","25.1377816666667","6501000","淡水區"
"251004","443-VK","2018/09/25 17:09:00","新北市淡水區中山路8號","121.44475","25.1688766666667","6501000","淡水區"
"251006","561-UM","2018/09/25 17:08:52","新北市淡水區真理街6號","121.438421666667","25.1744533333333","6501000","淡水區"
"251009","575-R6","2018/09/25 17:09:10","新北市淡水區三民街22號","121.439071666667","25.17182","6501000","淡水區"
"251011","650-BX","2018/09/25 17:09:07","新北市淡水區坪頂路49號","121.457758333333","25.1625316666667","6501000","淡水區"
"252002","178-VK","2018/09/25 17:08:53","新北市三芝區忠孝街1-19號","121.505978333333","25.25315","6502100","三芝區"
"252001","292-VK","2018/09/25 17:08:54","新北市三芝區埔頭里埔頭27-1號","121.495461666667","25.26014","6502100","三芝區"
"242037","AAC-296","2018/09/25 17:09:10","新北市新莊區瓊泰路63巷21弄9號","121.442435","25.02844","6500500","新莊區"
"242058","986-R7","2018/09/25 17:08:57","新北市新莊區新泰路357巷3弄51號","121.442441666667","25.03998","6500500","新莊區"
"242056","751-BX","2018/09/25 17:09:03","新北市新莊區瓊泰路63巷21弄9號","121.442515","25.0284216666667","6500500","新莊區"
"242029","705-TV","2018/09/25 17:09:03","新北市新莊區瓊林路110-1號","121.44204","25.0257183333333","6500500","新莊區"
"242027","615-BX","2018/09/25 17:08:57","新北市新莊區新泰路2-11號","121.450006666667","25.03244","6500500","新莊區"
"242025","613-BX","2018/09/25 17:08:57","新北市新莊區三和路10號","121.442373333333","25.0361333333333","6500500","新莊區"
"242044","566-BX","2018/09/25 17:08:52","新北市新莊區新樹路67巷5號","121.442076666667","25.0310383333333","6500500","新莊區"
"242048","497-BY","2018/09/25 17:09:10","新北市新莊區富國路87號","121.420468333333","25.0259433333333","6500500","新莊區"
"242053","442-UM","2018/09/25 17:08:56","新北市新莊區瓊林路59-20號","121.44084","25.021235","6500500","新莊區"
"242039","415-TV","2018/09/25 17:09:06","新北市新莊區新樹路239-1號","121.435283333333","25.0222983333333","6500500","新莊區"
"242009","413-TV","2018/09/25 17:09:10","新北市新莊區三和路12-21號","121.442293333333","25.0383033333333","6500500","新莊區"
"242023","362-BY","2018/09/25 17:08:55","新北市新莊區新泰路71號","121.449386666667","25.0344","6500500","新莊區"
"242061","353-BY","2018/09/25 17:08:59","新北市新莊區環河路636-7號","121.437401666667","25.0117133333333","6500500","新莊區"
"242042","133-UY","2018/09/25 17:09:04","新北市新莊區環河路636-7號","121.437375","25.0115066666667","6500500","新莊區"
"242034","135-UY","2018/09/25 17:08:52","新北市新莊區瓊林路51-3號","121.445436666667","25.0277716666667","6500500","新莊區"
"242051","172-VK","2018/09/25 17:08:53","新北市新莊區新樹路449巷23號","121.434815","25.0143683333333","6500500","新莊區"
"242013","173-VK","2018/09/25 17:08:37","新北市新莊區瓊林路59-90號","121.441131666667","25.0218333333333","6500500","新莊區"
"242019","175-VK","2018/09/25 17:09:05","新北市新莊區瓊林路59-66號","121.441281666667","25.0224033333333","6500500","新莊區"
"242007","176-VK","2018/09/25 17:09:10","新北市新莊區瓊林路59-90號","121.44117","25.02226","6500500","新莊區"
"242017","346-TH","2018/09/25 17:09:00","新北市新莊區三和路12-21號","121.442321666667","25.0384533333333","6500500","新莊區"
"242032","347-TH","2018/09/25 17:09:06","新北市新莊區新泰路357巷3弄55號","121.44237","25.039805","6500500","新莊區"
"242005","349-TH","2018/09/25 17:09:12","新北市新莊區三和路12-21號","121.442288333333","25.03821","6500500","新莊區"
"242021","350-TH","2018/09/25 17:09:01","新北市新莊區大觀街37號","121.45367","25.0354833333333","6500500","新莊區"
"242015","351-TH","2018/09/25 17:08:54","新北市新莊區仁愛街54巷1號","121.444945","25.0372433333333","6500500","新莊區"
"238019","599-UM","2018/09/25 17:09:04","新北市樹林區太平路269號","121.41949","24.9730266666667","6500700","樹林區"
"238018","571-TV","2018/09/25 17:09:03","新北市樹林區環河路10號","121.42693","24.9779766666667","6500700","樹林區"
"238011","5061-A6","2018/09/25 17:09:02","新北市樹林區環河路10號","121.426963333333","24.9780166666667","6500700","樹林區"
"238022","KEA-2213","2018/09/25 17:08:59","新北市樹林區國凱街124號","121.422956666667","24.9802083333333","6500700","樹林區"
"238021","KEA-2539","2018/09/25 17:09:08","新北市樹林區西圳街165巷20弄26號","121.395546666667","24.9600533333333","6500700","樹林區"
"238025","303-VK","2018/09/25 17:09:08","新北市樹林區中山路三段125-11號","121.398765","24.9739883333333","6500700","樹林區"
"238017","283-BY","2018/09/25 17:08:59","新北市樹林區新興街20-12號","121.398373333333","24.9727816666667","6500700","樹林區"
"238014","282-BY","2018/09/25 17:08:59","新北市樹林區中山路二段209號","121.403488333333","24.9768766666667","6500700","樹林區"
"238020","268-VK","2018/09/25 17:09:00","新北市樹林區中正路105號","121.424973333333","25.0011633333333","6500700","樹林區"
"238016","169-UY","2018/09/25 17:08:46","新北市樹林區中山路二段222-2號","121.410116666667","24.9805366666667","6500700","樹林區"
"239007","AAC-297","2018/09/25 17:09:12","新北市鶯歌區信義街48號","121.353358333333","24.9553","6500800","鶯歌區"
"239006","891-R6","2018/09/25 17:09:04","新北市鶯歌區八德路2巷37弄10號","121.337178333333","24.9464333333333","6500800","鶯歌區"
"239008","527-UM","2018/09/25 17:08:59","新北市鶯歌區尖山路83號","121.348745","24.9494133333333","6500800","鶯歌區"
"239005","526-UM","2018/09/25 17:09:04","新北市鶯歌區鶯桃路311號","121.333933333333","24.9608866666667","6500800","鶯歌區"
"239001","417-VK","2018/09/25 17:09:06","新北市鶯歌區尖山路140巷6弄6號","121.347026666667","24.9488666666667","6500800","鶯歌區"
"239003","360-BY","2018/09/25 17:09:06","新北市鶯歌區德昌二街92-1號","121.33225","24.9548216666667","6500800","鶯歌區"
"239002","359-BY","2018/09/25 17:09:13","新北市鶯歌區建國路196號","121.349433333333","24.9535783333333","6500800","鶯歌區"
"239004","193-VK","2018/09/25 17:09:07","新北市鶯歌區文化路324巷3弄1號","121.349708333333","24.9451183333333","6500800","鶯歌區"
"242002","281-VK","2018/09/25 17:08:58","新北市新莊區環河路455號","121.440658333333","25.02091","6500500","新莊區"
