"lineid","car","time","location","longitude","latitude","cityid","cityname"
"249005","172-UM","2018/09/25 17:19:05","新北市八里區荖阡坑路50-1號","121.411048333333","25.1214316666667","6502300","八里區"
"249001","173-UM","2018/09/25 17:19:15","新北市八里區中華路二段165巷3號","121.407708333333","25.1508783333333","6502300","八里區"
"249004","303-UY","2018/09/25 17:19:10","新北市八里區賢三街29號","121.418773333333","25.158885","6502300","八里區"
"249002","305-UY","2018/09/25 17:19:07","新北市八里區烏山頭20-1號","121.444438333333","25.1421466666667","6502300","八里區"
"249003","593-UM","2018/09/25 17:19:01","新北市八里區中山路二段486號","121.398513333333","25.1470466666667","6502300","八里區"
"244023","069-UM","2018/09/25 17:18:54","新北市林口區隆林街14號","121.389123333333","25.0753916666667","6501700","林口區"
"244007","080-UY","2018/09/25 17:18:59","新北市林口區中華路355號","121.381333333333","25.0923766666667","6501700","林口區"
"244019","403-UM","2018/09/25 17:19:07","新北市林口區文化二路一段338號","121.372698333333","25.07493","6501700","林口區"
"244013","KEA-2802","2018/09/25 17:18:57","新北市林口區粉寮路二段88巷100-12號","121.409631666667","25.0902083333333","6501700","林口區"
"244017","485-VK","2018/09/25 17:19:01","新北市林口區粉寮路一段105號","121.397888333333","25.0802833333333","6501700","林口區"
"244009","656-BX","2018/09/25 17:19:12","新北市林口區松柏路70號","121.379386666667","25.09166","6501700","林口區"
"244011","701-TV","2018/09/25 17:19:04","新北市林口區粉寮路一段77號","121.396873333333","25.0787566666667","6501700","林口區"
"244025","837-TS","2018/09/25 17:18:59","新北市林口區文化三路一段589號","121.371128333333","25.0766633333333","6501700","林口區"
"244021","838-TS","2018/09/25 17:19:02","新北市林口區粉寮路67-16號","121.404046666667","25.0910633333333","6501700","林口區"
"231046","107-UY","2018/09/25 17:19:08","新北市新店區直潭路92號","121.530926666667","24.9376133333333","6500600","新店區"
"241011","013-R5","2018/09/25 17:18:57","新北市三重區河邊北街100巷35號","121.502258333333","25.0701766666667","6500200","三重區"
"241028","022-UY","2018/09/25 17:18:59","新北市三重區仁化街66號","121.493903333333","25.0590033333333","6500200","三重區"
"241008","059-VK","2018/09/25 17:19:04","新北市三重區下竹圍街19號","121.481051666667","25.0757083333333","6500200","三重區"
"241015","062-VK","2018/09/25 17:18:57","新北市三重區福德北路82號","121.501765","25.0663116666667","6500200","三重區"
"241017","063-VK","2018/09/25 17:19:03","新北市三重區大同北路91號","121.494721666667","25.0635683333333","6500200","三重區"
"241024","065-VK","2018/09/25 17:19:10","新北市三重區中正北路193巷11弄46號","121.478925","25.0706316666667","6500200","三重區"
"241002","090-VK","2018/09/25 17:18:57","新北市三重區自強路五段66-1號","121.495995","25.082705","6500200","三重區"
"241003","091-VK","2018/09/25 17:17:26","新北市三重區五華街127號","121.491198333333","25.08415","6500200","三重區"
"251014","742-BX","2018/09/25 17:16:58","新北市淡水區番子田120號","121.464185","25.2285366666667","6501000","淡水區"
"241005","262-UM","2018/09/25 17:19:07","新北市三重區仁華街15-1號","121.483453333333","25.081775","6500200","三重區"
"241016","266-UM","2018/09/25 17:19:07","新北市三重區大同北路54巷3號","121.49407","25.0636066666667","6500200","三重區"
"241009","267-UM","2018/09/25 17:19:07","新北市三重區仁愛街600巷1號","121.484035","25.0809283333333","6500200","三重區"
"241018","268-UM","2018/09/25 17:18:55","新北市三重區安慶街173號","121.493808333333","25.0686066666667","6500200","三重區"
"241032","269-UM","2018/09/25 17:19:15","新北市三重區興華街125號","121.48335","25.0598316666667","6500200","三重區"
"241013","270-UM","2018/09/25 17:19:05","新北市三重區仁愛街82巷2號","121.495335","25.0735366666667","6500200","三重區"
"241025","271-UM","2018/09/25 17:19:06","新北市三重區中正北路295號","121.474583333333","25.0712466666667","6500200","三重區"
"241007","398-BY","2018/09/25 17:18:54","新北市三重區三和路四段165號","121.483455","25.0785866666667","6500200","三重區"
"241020","478-VK","2018/09/25 17:19:03","新北市三重區自強路三段7巷28號","121.487996666667","25.0722116666667","6500200","三重區"
"241030","480-VK","2018/09/25 17:19:09","新北市三重區成功路73巷25號","121.489985","25.052615","6500200","三重區"
"241014","543-UM","2018/09/25 17:19:05","新北市三重區長壽街42號","121.50023","25.0683083333333","6500200","三重區"
"241023","545-UM","2018/09/25 17:19:01","新北市三重區三民街195號","121.482081666667","25.0656233333333","6500200","三重區"
"241019","KEA-2593","2018/09/25 17:19:01","新北市三重區忠孝路二段77號","121.484703333333","25.07033","6500200","三重區"
"241026","743-BX","2018/09/25 17:19:01","新北市三重區福裕街35-2號","121.499123333333","25.0616233333333","6500200","三重區"
"241022","887-TS","2018/09/25 17:18:54","新北市三重區重陽路二段34巷35號","121.485653333333","25.0639","6500200","三重區"
"241012","941-UM","2018/09/25 17:19:07","新北市三重區龍門路274巷45號","121.501046666667","25.0755483333333","6500200","三重區"
"241033","AAC-255","2018/09/25 17:18:56","新北市三重區中興北街195號","121.469066666667","25.0573833333333","6500200","三重區"
"247012","KEA-2869","2018/09/25 17:19:07","新北市蘆洲區信義路319巷11號","121.477898333333","25.086155","6501400","蘆洲區"
"235052","805-TS","2018/09/25 17:19:10","新北市中和區員山路36巷16號","121.484416666667","24.99152","6500300","中和區"
"247002","893-R6","2018/09/25 17:19:05","新北市蘆洲區永樂街38巷33弄3號","121.457926666667","25.08942","6501400","蘆洲區"
"247016","546-UM","2018/09/25 17:18:56","新北市蘆洲區正和街81號","121.468195","25.0807783333333","6501400","蘆洲區"
"247024","500-BY","2018/09/25 17:19:05","新北市蘆洲區長榮路166號","121.461036666667","25.084965","6501400","蘆洲區"
"247014","339-TH","2018/09/25 17:19:08","新北市蘆洲區光華路1號","121.469986666667","25.0834916666667","6501400","蘆洲區"
"247006","337-TH","2018/09/25 17:19:09","新北市蘆洲區長安街73巷15號","121.462196666667","25.0793666666667","6501400","蘆洲區"
"247008","336-TH","2018/09/25 17:18:59","新北市蘆洲區永安北路一段72巷16號","121.476745","25.07713","6501400","蘆洲區"
"247020","057-VK","2018/09/25 17:19:07","新北市蘆洲區民族路341號","121.472795","25.0918783333333","6501400","蘆洲區"
"247010","056-VK","2018/09/25 17:19:06","新北市蘆洲區中山一路120巷7弄26號","121.47741","25.0819233333333","6501400","蘆洲區"
"247018","007-UY","2018/09/25 17:19:06","新北市蘆洲區民權路84號","121.474481666667","25.0876933333333","6501400","蘆洲區"
"247004","002-UY","2018/09/25 17:19:06","新北市蘆洲區中原路93號","121.457653333333","25.0815833333333","6501400","蘆洲區"
"247022","001-UY","2018/09/25 17:18:54","新北市蘆洲區三民路128巷68號","121.470275","25.089305","6501400","蘆洲區"
"228001","212-TW","2018/09/25 17:19:04","新北市貢寮區仁理村尖山腳街18-3號","121.925518333333","25.0483283333333","6502600","貢寮區"
"228002","663-BX","2018/09/25 17:19:12","新北市貢寮區雙玉里下雙溪街26號","121.923946666667","25.0101016666667","6502600","貢寮區"
"228003","828-UM","2018/09/25 17:19:04","新北市貢寮區福隆里興隆街15號","121.943763333333","25.016585","6502600","貢寮區"
"224006","676-BX","2018/09/25 17:19:00","新北市瑞芳區大寮路2號","121.78455","25.0995183333333","6501200","瑞芳區"
"224008","285-BY","2018/09/25 17:19:07","新北市瑞芳區柴寮路33號","121.824628333333","25.082425","6501200","瑞芳區"
"224009","273-VK","2018/09/25 17:19:11","新北市瑞芳區輕便路214號","121.844803333333","25.1104566666667","6501200","瑞芳區"
"224005","271-BY","2018/09/25 17:18:53","新北市瑞芳區鼻頭路131號","121.916071666667","25.12244","6501200","瑞芳區"
"227009","642-TC","2018/09/25 17:19:12","新北市雙溪區三貂里定福路1-2號","121.850293333333","25.0638383333333","6502500","雙溪區"
"227003","400-TW","2018/09/25 17:18:51","新北市雙溪區上林里內平林90號","121.827546666667","25.02747","6502500","雙溪區"
"251005","010-UM","2018/09/25 17:19:12","新北市淡水區鄧公路19-1號","121.450293333333","25.1700083333333","6501000","淡水區"
"251002","012-UM","2018/09/25 17:19:11","新北市淡水區中正路二段31號","121.419413333333","25.1816566666667","6501000","淡水區"
"251013","KEA-2871","2018/09/25 17:18:57","新北市淡水區演戲埔腳9-1號","121.472846666667","25.1963066666667","6501000","淡水區"
"251016","179-VK","2018/09/25 17:18:51","新北市淡水區鄒厝崙14號","121.461673333333","25.1905","6501000","淡水區"
"251015","180-VK","2018/09/25 17:18:58","新北市淡水區三空泉16-10號","121.472128333333","25.1651066666667","6501000","淡水區"
"251008","181-VK","2018/09/25 17:19:01","新北市淡水區大同路257號","121.466501666667","25.1422466666667","6501000","淡水區"
"251010","413-VK","2018/09/25 17:18:53","新北市淡水區沙崙路200號","121.424645","25.1839166666667","6501000","淡水區"
"251012","441-VK","2018/09/25 17:18:58","新北市淡水區中山北路一段158號","121.444263333333","25.177825","6501000","淡水區"
"251007","442-VK","2018/09/25 17:19:02","新北市淡水區民生路56號","121.46201","25.13786","6501000","淡水區"
"251004","443-VK","2018/09/25 17:18:59","新北市淡水區中正東路二段88巷15號","121.459096666667","25.15046","6501000","淡水區"
"251006","561-UM","2018/09/25 17:19:12","新北市淡水區新生街120號","121.440721666667","25.1746516666667","6501000","淡水區"
"251009","575-R6","2018/09/25 17:19:10","新北市淡水區三民街26號","121.439101666667","25.1718416666667","6501000","淡水區"
"251011","650-BX","2018/09/25 17:17:47","新北市淡水區坪頂路86號","121.462485","25.163305","6501000","淡水區"
"251003","673-BX","2018/09/25 17:18:53","新北市淡水區中正路二段31號","121.41946","25.1815016666667","6501000","淡水區"
"207003","550-UM","2018/09/25 17:18:51","新北市萬里區萬里里獅頭路23號","121.693293333333","25.1782883333333","6502800","萬里區"
"252002","178-VK","2018/09/25 17:18:53","新北市三芝區忠孝街1-14號","121.505536666667","25.2539383333333","6502100","三芝區"
"252001","292-VK","2018/09/25 17:19:14","新北市三芝區長安街119號","121.49807","25.259655","6502100","三芝區"
"237012","275-BY","2018/09/25 17:18:58","新北市三峽區中山路459巷137號","121.34996","24.9338966666667","6500900","三峽區"
"242037","AAC-296","2018/09/25 17:19:10","新北市新莊區新樹路177號","121.436573333333","25.0251166666667","6500500","新莊區"
"242058","986-R7","2018/09/25 17:18:57","新北市新莊區新泰路357巷3弄53號","121.442483333333","25.0399533333333","6500500","新莊區"
"242056","751-BX","2018/09/25 17:19:13","新北市新莊區新莊路664-1號","121.442376666667","25.032715","6500500","新莊區"
"242029","705-TV","2018/09/25 17:19:02","新北市新莊區幸福路767號","121.447065","25.0490683333333","6500500","新莊區"
"242027","615-BX","2018/09/25 17:18:57","新北市新莊區復興路二段107號","121.456245","25.04436","6500500","新莊區"
"242025","613-BX","2018/09/25 17:18:57","新北市新莊區復興路一段212號","121.452896666667","25.0438566666667","6500500","新莊區"
"242044","566-BX","2018/09/25 17:18:52","新北市新莊區瓊林路208-1號","121.436001666667","25.0219966666667","6500500","新莊區"
"242048","497-BY","2018/09/25 17:19:10","新北市新莊區龍安路252-2號","121.421235","25.0195266666667","6500500","新莊區"
"242053","442-UM","2018/09/25 17:18:56","新北市新莊區環河路636-7號","121.436648333333","25.010845","6500500","新莊區"
"242039","415-TV","2018/09/25 17:19:06","新北市新莊區民安路298號","121.428176666667","25.021905","6500500","新莊區"
"242009","413-TV","2018/09/25 17:19:10","新北市新莊區中原路245號","121.449228333333","25.0543166666667","6500500","新莊區"
"242023","362-BY","2018/09/25 17:18:55","新北市新莊區中華路一段130號","121.452585","25.0411216666667","6500500","新莊區"
"242061","353-BY","2018/09/25 17:18:59","新北市新莊區瓊林路59-17號","121.442301666667","25.0247066666667","6500500","新莊區"
"242042","133-UY","2018/09/25 17:19:04","新北市新莊區新樹路69-67號","121.442135","25.0294566666667","6500500","新莊區"
"242034","135-UY","2018/09/25 17:19:12","新北市新莊區瓊林路42-1號","121.447561666667","25.0296016666667","6500500","新莊區"
"242051","172-VK","2018/09/25 17:19:13","新北市新莊區瓊林南路75號","121.434888333333","25.0144883333333","6500500","新莊區"
"242013","173-VK","2018/09/25 17:18:57","新北市新莊區三和路12-18號","121.442171666667","25.0376766666667","6500500","新莊區"
"242019","175-VK","2018/09/25 17:19:05","新北市新莊區中平路82巷36-2號","121.446293333333","25.044905","6500500","新莊區"
"242007","176-VK","2018/09/25 17:19:10","新北市新莊區中平路82巷14號","121.44537","25.0448366666667","6500500","新莊區"
"242017","346-TH","2018/09/25 17:19:00","新北市新莊區中港路291號","121.452528333333","25.0441333333333","6500500","新莊區"
"242032","347-TH","2018/09/25 17:19:06","新北市新莊區新泰路464號","121.443215","25.0448983333333","6500500","新莊區"
"242005","349-TH","2018/09/25 17:18:52","新北市新莊區新泰路308號","121.445395","25.0412783333333","6500500","新莊區"
"242021","350-TH","2018/09/25 17:19:01","新北市新莊區中正路197號","121.452961666667","25.035915","6500500","新莊區"
"242015","351-TH","2018/09/25 17:18:53","新北市新莊區仁愛街54巷1號","121.445015","25.037305","6500500","新莊區"
"238023","601-UM","2018/09/25 17:19:03","新北市樹林區中正路439-1號","121.414716666667","25.0085316666667","6500700","樹林區"
"238019","599-UM","2018/09/25 17:19:04","新北市樹林區太平路273巷23號","121.421181666667","24.976335","6500700","樹林區"
"238018","571-TV","2018/09/25 17:19:02","新北市樹林區博愛街246號","121.42222","24.9854183333333","6500700","樹林區"
"238011","5061-A6","2018/09/25 17:19:02","新北市樹林區博愛一街29巷64號","121.425936666667","24.9917266666667","6500700","樹林區"
"238022","KEA-2213","2018/09/25 17:18:59","新北市樹林區仁愛街79號","121.423828333333","24.982885","6500700","樹林區"
"238021","KEA-2539","2018/09/25 17:19:08","新北市樹林區西圳街一段140號","121.396988333333","24.96329","6500700","樹林區"
"238025","303-VK","2018/09/25 17:19:08","新北市樹林區保安二街29號","121.424661666667","24.993575","6500700","樹林區"
"238017","283-BY","2018/09/25 17:18:59","新北市樹林區保安街一段227號","121.420263333333","24.9964616666667","6500700","樹林區"
"238014","282-BY","2018/09/25 17:18:59","新北市樹林區長壽街70巷26號","121.421975","24.994925","6500700","樹林區"
"238020","268-VK","2018/09/25 17:19:00","新北市樹林區千歲街101-2號","121.42856","25.0009","6500700","樹林區"
"238016","169-UY","2018/09/25 17:19:06","新北市樹林區中山路一段183-1號","121.421478333333","24.9880616666667","6500700","樹林區"
"239007","AAC-297","2018/09/25 17:19:12","新北市鶯歌區光復街13號","121.35162","24.9551166666667","6500800","鶯歌區"
"239006","891-R6","2018/09/25 17:19:04","新北市鶯歌區德昌二街95號","121.333231666667","24.9574166666667","6500800","鶯歌區"
"239008","527-UM","2018/09/25 17:18:59","新北市鶯歌區國光街66-2號","121.34086","24.9577033333333","6500800","鶯歌區"
"239005","526-UM","2018/09/25 17:19:04","新北市鶯歌區福德三街10號","121.329785","24.9676116666667","6500800","鶯歌區"
"239001","417-VK","2018/09/25 17:19:06","新北市鶯歌區尖山路204號","121.343653333333","24.9470216666667","6500800","鶯歌區"
"239003","360-BY","2018/09/25 17:19:06","新北市鶯歌區德昌街27號","121.333236666667","24.959725","6500800","鶯歌區"
"239002","359-BY","2018/09/25 17:19:13","新北市鶯歌區建國路154號","121.350763333333","24.9538516666667","6500800","鶯歌區"
"239004","193-VK","2018/09/25 17:19:07","新北市鶯歌區文化路254-1號","121.352865","24.9477016666667","6500800","鶯歌區"
"242002","281-VK","2018/09/25 17:18:58","新北市新莊區瓊林路46-9號","121.44718","25.0290816666667","6500500","新莊區"
"242011","280-VK","2018/09/25 17:18:59","新北市新莊區三和路12-12號","121.442286666667","25.037085","6500500","新莊區"
