"lineid","car","time","location","longitude","latitude","cityid","cityname"
"234042","862-TW","2018/09/25 18:08:59","新北市永和區福和路1號","121.526336666667","25.0097133333333","6500400","永和區"
"234026","9371-KE","2018/09/25 18:09:03","新北市永和區秀朗路一段10巷21號","121.513353333333","25.0063233333333","6500400","永和區"
"249005","172-UM","2018/09/25 18:09:05","新北市八里區荖阡坑路17-10號","121.40184","25.1387883333333","6502300","八里區"
"249001","173-UM","2018/09/25 18:08:54","新北市八里區龍米路二段36號","121.448538333333","25.14013","6502300","八里區"
"249004","303-UY","2018/09/25 18:09:10","新北市八里區渡船頭24-4號","121.437496666667","25.1555433333333","6502300","八里區"
"249002","305-UY","2018/09/25 18:09:07","新北市八里區龍米路一段356巷46號","121.452115","25.1302933333333","6502300","八里區"
"249003","593-UM","2018/09/25 18:09:01","新北市八里區中華路二段248號","121.405491666667","25.1497216666667","6502300","八里區"
"248014","025-BX","2018/09/25 18:09:08","新北市五股區成泰路一段235號","121.436251666667","25.079345","6501500","五股區"
"248006","077-UY","2018/09/25 18:09:11","新北市五股區中興路二段77-1號","121.46091","25.0771833333333","6501500","五股區"
"248008","095-VK","2018/09/25 18:09:09","新北市五股區中興路二段182巷15弄13號","121.457133333333","25.0813233333333","6501500","五股區"
"248020","225-UY","2018/09/25 18:08:55","新北市蘆洲區環堤大道202號","121.454196666667","25.09269","6501500","五股區"
"248004","677-BX","2018/09/25 18:09:03","新北市五股區工商路66號","121.438835","25.0846483333333","6501500","五股區"
"248002","678-BX","2018/09/25 18:09:05","新北市五股區新五路二段373號","121.444411666667","25.0886116666667","6501500","五股區"
"232011","375-UM","2018/09/25 18:09:07","新北市坪林區坪雙路一段41號","121.711703333333","24.942435","6502000","坪林區"
"244023","069-UM","2018/09/25 18:09:14","新北市林口區東湖路93巷102號","121.385505","25.0703733333333","6501700","林口區"
"244007","080-UY","2018/09/25 18:08:59","新北市林口區竹林路552號","121.387311666667","25.0843466666667","6501700","林口區"
"244019","403-UM","2018/09/25 18:09:07","新北市林口區文化一路一段100巷10弄1號","121.373918333333","25.0707433333333","6501700","林口區"
"244013","KEA-2802","2018/09/25 18:08:57","新北市林口區中山路50號","121.395246666667","25.0785066666667","6501700","林口區"
"244017","485-VK","2018/09/25 18:09:01","新北市林口區忠孝路504巷2號","121.370385","25.069945","6501700","林口區"
"244009","656-BX","2018/09/25 18:09:12","新北市林口區中山路299號","121.384245","25.0802483333333","6501700","林口區"
"244011","701-TV","2018/09/25 18:09:04","新北市林口區中正路32號","121.395618333333","25.0775566666667","6501700","林口區"
"244025","837-TS","2018/09/25 18:08:59","新北市林口區文化北路一段299巷27號","121.358951666667","25.0733883333333","6501700","林口區"
"244021","838-TS","2018/09/25 18:09:02","新北市林口區自強五街23號","121.40016","25.0757933333333","6501700","林口區"
"243013","AAD-798","2018/09/25 18:08:56","新北市泰山區犁頭窠18號","121.41963","25.0500866666667","6501600","泰山區"
"222003","436-BY","2018/09/25 18:09:01","新北市深坑區阿柔洋49號","121.611578333333","24.99709","6501800","深坑區"
"222002","659-BX","2018/09/25 18:08:57","新北市深坑區文化街52號","121.618925","25.001585","6501800","深坑區"
"231041","002-UM","2018/09/25 18:08:59","新北市新店區安華路28-1號","121.519631666667","24.960845","6500600","新店區"
"231059","046-UY","2018/09/25 18:09:05","新北市新店區安華路28-1號","121.519541666667","24.9608283333333","6500600","新店區"
"231040","047-UY","2018/09/25 18:09:12","新北市新店區安一路一段1-1號","121.51922","24.9611166666667","6500600","新店區"
"231044","106-UY","2018/09/25 18:09:11","新北市新店區安華路28-1號","121.519628333333","24.9607366666667","6500600","新店區"
"231046","107-UY","2018/09/25 18:09:08","新北市新店區直潭七街60號","121.532228333333","24.9399066666667","6500600","新店區"
"231053","108-UY","2018/09/25 18:09:11","新北市新店區安一路一段1-1號","121.519415","24.9611266666667","6500600","新店區"
"231048","187-VK","2018/09/25 18:09:10","新北市新店區安一路一段1-1號","121.519511666667","24.9611233333333","6500600","新店區"
"231054","KEA-2219","2018/09/25 18:09:07","新北市新店區安一路一段1-1號","121.519725","24.961165","6500600","新店區"
"231042","268-BY","2018/09/25 18:09:06","新北市新店區安華路28-1號","121.519283333333","24.960605","6500600","新店區"
"231051","278-BY","2018/09/25 18:09:01","新北市新店區安一路一段1-1號","121.519796666667","24.9611516666667","6500600","新店區"
"231050","AAD-862","2018/09/25 18:08:57","新北市新店區安一路一段1-1號","121.519788333333","24.9611183333333","6500600","新店區"
"231043","355-BY","2018/09/25 18:09:05","新北市新店區安華路28-1號","121.519343333333","24.96097","6500600","新店區"
"231058","3713-VJ","2018/09/25 18:09:09","新北市新店區安華路28-1號","121.519231666667","24.9606233333333","6500600","新店區"
"231056","4715-K9","2018/09/25 18:09:02","新北市新店區安康路一段231號","121.525448333333","24.9631233333333","6500600","新店區"
"231065","512-UM","2018/09/25 18:09:05","新北市新店區安一路一段1-1號","121.519356666667","24.9612133333333","6500600","新店區"
"231049","513-UM","2018/09/25 18:09:09","新北市新店區安華路30巷1號","121.519513333333","24.9597616666667","6500600","新店區"
"231063","616-UM","2018/09/25 18:08:57","新北市新店區安華路28-1號","121.51948","24.9605433333333","6500600","新店區"
"231061","619-UM","2018/09/25 18:09:15","新北市新店區安華路28-1號","121.519403333333","24.9608016666667","6500600","新店區"
"231064","719-UM","2018/09/25 18:08:59","新北市新店區安一路一段1-1號","121.519513333333","24.9612016666667","6500600","新店區"
"231062","720-UM","2018/09/25 18:09:03","新北市新店區安一路一段1-1號","121.518998333333","24.9613","6500600","新店區"
"231060","897-TW","2018/09/25 18:08:56","新北市新店區安華路28-1號","121.519595","24.960845","6500600","新店區"
"231055","AKT-0513","2018/09/25 18:08:57","新北市新店區安華路28-1號","121.519593333333","24.9605216666667","6500600","新店區"
"251014","742-BX","2018/09/25 18:08:58","新北市淡水區南平15號","121.488536666667","25.218955","6501000","淡水區"
"241024","KEA-2210","2018/09/25 18:09:08","新北市三重區國道路一段39巷11號","121.48366","25.0729933333333","6500200","三重區"
"241033","AAC-255","2018/09/25 18:08:56","新北市三重區光復路一段68巷40號","121.47047","25.04921","6500200","三重區"
"235066","003-UY","2018/09/25 18:09:07","新北市中和區圓通路98號","121.499725","24.9968766666667","6500300","中和區"
"235064","005-UY","2018/09/25 18:08:54","新北市中和區中正路213號","121.497036666667","24.9936833333333","6500300","中和區"
"235056","096-UM","2018/09/25 18:09:11","新北市中和區中正路637巷52弄1號","121.485465","24.9934333333333","6500300","中和區"
"235039","097-UM","2018/09/25 18:09:11","新北市中和區和城路一段271巷1號","121.485651666667","24.99191","6500300","中和區"
"235065","098-UM","2018/09/25 18:08:58","新北市中和區中山路二段2巷45弄44號","121.501843333333","25.00624","6500300","中和區"
"235058","151-BY","2018/09/25 18:09:03","新北市中和區圓通路367巷33弄61號","121.495903333333","24.9859633333333","6500300","中和區"
"235055","183-VK","2018/09/25 18:09:03","新北市中和區員山路36巷16-3號","121.48505","24.991325","6500300","中和區"
"235038","185-VK","2018/09/25 18:09:08","新北市中和區景平路182號","121.516203333333","24.992095","6500300","中和區"
"235042","KEA-2878","2018/09/25 18:09:02","新北市中和區中正路190-1號","121.497883333333","24.993785","6500300","中和區"
"247012","KEA-2869","2018/09/25 18:09:00","新北市蘆洲區民族路87號","121.479471666667","25.0861966666667","6501400","蘆洲區"
"235050","4979-A6","2018/09/25 18:09:01","新北市中和區中正路503號","121.488658333333","24.9935316666667","6500300","中和區"
"235069","4980-A6","2018/09/25 18:09:08","新北市中和區中正路169號","121.498138333333","24.9935716666667","6500300","中和區"
"235070","558-UM","2018/09/25 18:08:57","新北市中和區中正路281-3號","121.494625","24.9938683333333","6500300","中和區"
"235045","565-BX","2018/09/25 18:09:11","新北市中和區錦和路350-1號","121.490543333333","24.9935916666667","6500300","中和區"
"235054","640-BX","2018/09/25 18:08:57","新北市中和區連城路599號","121.47874","24.99333","6500300","中和區"
"235047","732-UM","2018/09/25 18:09:13","新北市中和區錦和路350-1號","121.490458333333","24.9935433333333","6500300","中和區"
"235062","800-TS","2018/09/25 18:09:00","新北市中和區新生街163號","121.483663333333","25.0011816666667","6500300","中和區"
"235057","801-TS","2018/09/25 18:09:09","新北市中和區員山路36巷16-3號","121.485083333333","24.9914416666667","6500300","中和區"
"235052","805-TS","2018/09/25 18:08:56","新北市中和區中正路273號","121.495615","24.9938183333333","6500300","中和區"
"235053","900-TW","2018/09/25 18:09:05","新北市中和區員山路36巷16-3號","121.485001666667","24.9916716666667","6500300","中和區"
"235051","157-BY","2018/09/25 18:09:10","新北市中和區板南路102號","121.503668333333","24.9925333333333","6500300","中和區"
"235037","AAC-213","2018/09/25 18:08:57","新北市中和區景平路149號","121.513876666667","24.9920366666667","6500300","中和區"
"247002","893-R6","2018/09/25 18:09:05","新北市蘆洲區永平街32巷57弄35號","121.458318333333","25.093435","6501400","蘆洲區"
"226004","205-ST","2018/09/25 18:09:09","新北市平溪區白石里白石腳5號","121.721481666667","25.0215016666667","6502400","平溪區"
"228001","212-TW","2018/09/25 18:09:04","新北市貢寮區真理里新港街26巷55弄2-1號","121.927401666667","25.05285","6502600","貢寮區"
"228002","663-BX","2018/09/25 18:09:12","新北市貢寮區福連里馬崗街2-7號","121.99867","25.0145633333333","6502600","貢寮區"
"228003","828-UM","2018/09/25 18:09:04","新北市貢寮區真理里美艷山街6-2號","121.92877","25.060755","6502600","貢寮區"
"224006","676-BX","2018/09/25 18:09:00","新北市瑞芳區中山路22號","121.804041666667","25.1062383333333","6501200","瑞芳區"
"224002","639-TC","2018/09/25 18:09:03","新北市瑞芳區三爪子坑路149巷22-13號","121.811556666667","25.105835","6501200","瑞芳區"
"224008","285-BY","2018/09/25 18:09:07","新北市瑞芳區明燈路一段45巷100號","121.820496666667","25.104515","6501200","瑞芳區"
"224007","275-VK","2018/09/25 18:09:08","新北市瑞芳區四腳亭坑路9號","121.777655","25.1095733333333","6501200","瑞芳區"
"224009","273-VK","2018/09/25 18:09:11","新北市瑞芳區金光路260號","121.853438333333","25.106965","6501200","瑞芳區"
"224005","271-BY","2018/09/25 18:09:14","新北市瑞芳區深澳路67-1號","121.818238333333","25.1301466666667","6501200","瑞芳區"
"227009","642-TC","2018/09/25 18:09:12","新北市雙溪區三貂里定福路1-2號","121.850711666667","25.063355","6502500","雙溪區"
"253006","032-BX","2018/09/25 18:08:55","新北市石門區老梅路52巷25弄2-1號","121.546721666667","25.2874166666667","6502200","石門區"
"253005","295-VK","2018/09/25 18:09:00","新北市石門區福安街35號","121.568701666667","25.29211","6502200","石門區"
"222001","KEA-2212","2018/09/25 18:09:08","新北市深坑區北深路二段184號","121.614053333333","25.00243","6501800","深坑區"
"208002","KEA-2872","2018/09/25 18:09:02","新北市金山區三界壇路101號","121.62037","25.2305516666667","6502700","金山區"
"208003","665-BX","2018/09/25 18:09:02","新北市金山區磺港里磺港路25號","121.649515","25.2294433333333","6502700","金山區"
"208001","761-BX","2018/09/25 18:09:01","新北市金山區磺港里磺港路117號","121.645978333333","25.22643","6502700","金山區"
"251005","010-UM","2018/09/25 18:09:12","新北市淡水區水源街一段147號","121.447488333333","25.1717616666667","6501000","淡水區"
"251002","012-UM","2018/09/25 18:09:11","新北市淡水區中正東路一段123-1號","121.45444","25.1595483333333","6501000","淡水區"
"251013","KEA-2871","2018/09/25 18:08:56","新北市淡水區竹圍子12號","121.476461666667","25.1932966666667","6501000","淡水區"
"251016","179-VK","2018/09/25 18:09:11","新北市淡水區下圭柔山13號","121.451488333333","25.2013266666667","6501000","淡水區"
"251015","180-VK","2018/09/25 18:08:58","新北市淡水區興福寮88巷1號","121.485383333333","25.1649316666667","6501000","淡水區"
"251008","181-VK","2018/09/25 18:09:00","新北市淡水區坪頂路70巷41號","121.460713333333","25.1603566666667","6501000","淡水區"
"251010","413-VK","2018/09/25 18:09:12","新北市淡水區淡海路156號","121.421038333333","25.1831766666667","6501000","淡水區"
"251012","441-VK","2018/09/25 18:09:06","新北市淡水區北新路三段173號","121.492501666667","25.19227","6501000","淡水區"
"251007","442-VK","2018/09/25 18:09:02","新北市淡水區中正東路二段153號","121.45961","25.1466516666667","6501000","淡水區"
"251004","443-VK","2018/09/25 18:08:56","新北市淡水區民族路110巷36弄2號","121.461515","25.1353116666667","6501000","淡水區"
"251001","559-UM","2018/09/25 18:09:12","新北市淡水區自立路10號","121.46315","25.1297783333333","6501000","淡水區"
"251006","561-UM","2018/09/25 18:09:12","新北市淡水區真理街3巷24-1號","121.437835","25.1765766666667","6501000","淡水區"
"251009","575-R6","2018/09/25 18:09:10","新北市淡水區大忠街34巷15號","121.443871666667","25.1757166666667","6501000","淡水區"
"251011","650-BX","2018/09/25 18:09:10","新北市淡水區三空泉9-2號","121.474138333333","25.1634466666667","6501000","淡水區"
"251003","673-BX","2018/09/25 18:09:12","新北市淡水區大忠街113巷20號","121.447228333333","25.177425","6501000","淡水區"
"207003","550-UM","2018/09/25 18:09:11","新北市萬里區野柳里港西路70-3號","121.685463333333","25.204735","6502800","萬里區"
"207004","225-TW","2018/09/25 18:09:03","新北市萬里區中幅里中福路115號","121.676301666667","25.168205","6502800","萬里區"
"252002","178-VK","2018/09/25 18:09:13","新北市三芝區中山路二段35號","121.502883333333","25.2552133333333","6502100","三芝區"
"252003","249-BX","2018/09/25 18:09:04","新北市三芝區埔頭里埔頭43-3號","121.499693333333","25.2611916666667","6502100","三芝區"
"252001","292-VK","2018/09/25 18:08:54","新北市三芝區中興街二段2號","121.49837","25.2567016666667","6502100","三芝區"
"237007","153-BY","2018/09/25 18:09:08","新北市三峽區中正路二段325號","121.366028333333","24.91024","6500900","三峽區"
"237009","210-TH","2018/09/25 18:08:55","新北市三峽區大仁路50巷22號","121.365273333333","24.9382966666667","6500900","三峽區"
"237013","252-BX","2018/09/25 18:08:57","新北市三峽區長泰街41巷10號","121.377533333333","24.9322633333333","6500900","三峽區"
"237012","275-BY","2018/09/25 18:08:57","新北市三峽區民生街1巷3-12號","121.37782","24.9363733333333","6500900","三峽區"
"237008","302-VK","2018/09/25 18:09:11","新北市三峽區白雞42-3號","121.379268333333","24.9113516666667","6500900","三峽區"
"237014","433-BY","2018/09/25 18:08:58","新北市三峽區復興路80巷20號","121.37367","24.9378133333333","6500900","三峽區"
"237006","5529-G3","2018/09/25 18:08:57","新北市三峽區橫溪路95-2號","121.398508333333","24.935435","6500900","三峽區"
"237011","KEA-2596","2018/09/25 18:08:58","新北市三峽區大同路2-1號","121.378391666667","24.9300733333333","6500900","三峽區"
"237016","649-BX","2018/09/25 18:09:01","新北市三峽區紫新路32巷1號","121.422348333333","24.9219266666667","6500900","三峽區"
"237010","706-TV","2018/09/25 18:08:56","新北市三峽區中園街18號","121.368098333333","24.9272033333333","6500900","三峽區"
"237005","AKY-6261","2018/09/25 18:09:07","新北市三峽區文化路65巷2號","121.371955","24.9356616666667","6500900","三峽區"
"236070","105-UM","2018/09/25 18:08:59","新北市土城區青雲路603號","121.459486666667","24.9698516666667","6501300","土城區"
"236042","107-UM","2018/09/25 18:08:55","新北市土城區中華路二段2號","121.439388333333","24.9796666666667","6501300","土城區"
"236079","166-UM","2018/09/25 18:08:56","新北市土城區永寧路18號","121.430451666667","24.9627616666667","6501300","土城區"
"236030","253-BX","2018/09/25 18:08:55","新北市土城區城林路6巷80號","121.438661666667","24.979685","6501300","土城區"
"236026","269-VK","2018/09/25 18:09:06","新北市土城區承天路65號","121.43949","24.9637383333333","6501300","土城區"
"236014","270-VK","2018/09/25 18:09:02","新北市土城區學府路二段5號","121.449475","24.9820533333333","6501300","土城區"
"236038","271-VK","2018/09/25 18:08:58","新北市土城區明德路一段385-1號","121.452653333333","24.9797283333333","6501300","土城區"
"236021","401-BY","2018/09/25 18:09:01","新北市土城區城林路6巷80號","121.43851","24.9797716666667","6501300","土城區"
"236059","912-UM","2018/09/25 18:09:06","新北市土城區中央路四段196-1號","121.41629","24.9576766666667","6501300","土城區"
"236049","913-UM","2018/09/25 18:08:54","新北市土城區明德路一段385-1號","121.452731666667","24.9797616666667","6501300","土城區"
"236063","915-UM","2018/09/25 18:09:13","新北市土城區中正路69號","121.444721666667","24.9756283333333","6501300","土城區"
"236055","AAC-216","2018/09/25 18:09:12","新北市土城區中華路二段92號","121.43824","24.974755","6501300","土城區"
"242037","AAC-296","2018/09/25 18:09:10","新北市新莊區後港一路49巷6號","121.425985","25.0267383333333","6500500","新莊區"
"242058","986-R7","2018/09/25 18:09:14","新北市新莊區壽山路162號","121.415126666667","25.0311266666667","6500500","新莊區"
"242056","751-BX","2018/09/25 18:09:13","新北市新莊區豐年街96號","121.446426666667","25.0308383333333","6500500","新莊區"
"242029","705-TV","2018/09/25 18:09:02","新北市新莊區中平路110巷28號","121.446341666667","25.045755","6500500","新莊區"
"242027","615-BX","2018/09/25 18:08:57","新北市新莊區幸福路83號","121.456385","25.0492083333333","6500500","新莊區"
"242025","613-BX","2018/09/25 18:09:06","新北市新莊區五權一路42號","121.457723333333","25.065535","6500500","新莊區"
"242044","566-BX","2018/09/25 18:08:52","新北市新莊區雙鳳路101號","121.414536666667","25.0278683333333","6500500","新莊區"
"242048","497-BY","2018/09/25 18:09:10","新北市新莊區萬安街49號","121.421613333333","25.0245733333333","6500500","新莊區"
"242054","442-UM","2018/09/25 18:08:56","新北市新莊區民安西路327巷4弄2號","121.428","25.0114266666667","6500500","新莊區"
"242039","415-TV","2018/09/25 18:09:06","新北市新莊區民安西路38巷36號","121.42632","25.020265","6500500","新莊區"
"242009","413-TV","2018/09/25 18:09:10","新北市新莊區昌平街71巷15號","121.45372","25.0536016666667","6500500","新莊區"
"242046","400-BY","2018/09/25 18:09:14","新北市新莊區福營路201號","121.430905","25.0305683333333","6500500","新莊區"
"242023","362-BY","2018/09/25 18:09:15","新北市新莊區幸福路823號","121.44524","25.04888","6500500","新莊區"
"242061","353-BY","2018/09/25 18:08:59","新北市新莊區新樹路327號","121.43318","25.0189583333333","6500500","新莊區"
"242042","133-UY","2018/09/25 18:09:04","新北市新莊區雙鳳路116巷15弄2號","121.413518333333","25.0292083333333","6500500","新莊區"
"242034","135-UY","2018/09/25 18:09:07","新北市新莊區福海街24巷14號","121.44599","25.0340783333333","6500500","新莊區"
"242051","172-VK","2018/09/25 18:07:53","新北市新莊區民本街23巷5號","121.428538333333","25.019815","6500500","新莊區"
"242019","175-VK","2018/09/25 18:09:05","新北市新莊區長青街37巷22弄1號","121.456185","25.0411933333333","6500500","新莊區"
"242007","176-VK","2018/09/25 18:09:10","新北市新莊區自重街2號","121.45344","25.0473783333333","6500500","新莊區"
"242017","346-TH","2018/09/25 18:09:00","新北市新莊區永樂街12號","121.451973333333","25.0451366666667","6500500","新莊區"
"242032","347-TH","2018/09/25 18:09:05","新北市新莊區新泰路289巷48號","121.443321666667","25.0403833333333","6500500","新莊區"
"242005","349-TH","2018/09/25 18:09:12","新北市新莊區自立街80號","121.45448","25.04529","6500500","新莊區"
"242021","350-TH","2018/09/25 18:09:01","新北市新莊區建興街89巷2號","121.449843333333","25.039125","6500500","新莊區"
"242015","351-TH","2018/09/25 18:09:14","新北市新莊區中和街59巷28號","121.446218333333","25.0467566666667","6500500","新莊區"
"238015","755-BX","2018/09/25 18:08:58","新北市樹林區大安路415號","121.415401666667","24.988675","6500700","樹林區"
"238023","601-UM","2018/09/25 18:09:03","新北市樹林區三福街72號","121.404471666667","25.0161883333333","6500700","樹林區"
"238019","599-UM","2018/09/25 18:09:03","新北市樹林區水源街13巷2號","121.425013333333","24.9832583333333","6500700","樹林區"
"238018","571-TV","2018/09/25 18:09:02","新北市樹林區樹新路246號","121.431326666667","25.0007016666667","6500700","樹林區"
"238011","5061-A6","2018/09/25 18:09:02","新北市樹林區大安路515號","121.414111666667","24.98619","6500700","樹林區"
"238022","KEA-2213","2018/09/25 18:08:59","新北市樹林區太平路174巷1號","121.418056666667","24.976775","6500700","樹林區"
"238021","KEA-2539","2018/09/25 18:09:08","新北市樹林區柑園街二段9號","121.388128333333","24.9558316666667","6500700","樹林區"
"238025","303-VK","2018/09/25 18:09:08","新北市樹林區保安街二段281-1號","121.412728333333","25.0060033333333","6500700","樹林區"
"238017","283-BY","2018/09/25 18:08:59","新北市樹林區中正路644號","121.409925","25.0162383333333","6500700","樹林區"
"238014","282-BY","2018/09/25 18:08:59","新北市樹林區千歲街61巷40弄3號","121.425723333333","24.9988366666667","6500700","樹林區"
"238020","268-VK","2018/09/25 18:09:00","新北市樹林區三俊街199巷37號","121.420708333333","25.018435","6500700","樹林區"
"238026","172-UY","2018/09/25 18:09:07","新北市樹林區佳園路一段2-8號","121.392683333333","24.9717683333333","6500700","樹林區"
"238016","169-UY","2018/09/25 18:08:37","新北市樹林區日新街146號","121.420475","24.988705","6500700","樹林區"
"239007","AAC-297","2018/09/25 18:09:12","新北市鶯歌區尖山埔路54號","121.348611666667","24.951055","6500800","鶯歌區"
"239006","891-R6","2018/09/25 18:09:04","新北市鶯歌區鶯桃路457號","121.332048333333","24.9656816666667","6500800","鶯歌區"
"239008","527-UM","2018/09/25 18:08:59","新北市鶯歌區國際一路62號","121.335361666667","24.9780366666667","6500800","鶯歌區"
"239005","526-UM","2018/09/25 18:09:04","新北市鶯歌區鶯桃路668巷73號","121.32989","24.9717716666667","6500800","鶯歌區"
"239001","417-VK","2018/09/25 18:09:06","新北市鶯歌區尖山路219號","121.341071666667","24.9447483333333","6500800","鶯歌區"
"239003","360-BY","2018/09/25 18:09:06","新北市鶯歌區福安街11巷1號","121.335335","24.96514","6500800","鶯歌區"
"239002","359-BY","2018/09/25 18:09:13","新北市鶯歌區永明街135號","121.342803333333","24.9558816666667","6500800","鶯歌區"
"221008","489-VK","2018/09/25 18:09:03","新北市汐止區康寧街383號","121.629085","25.067875","6501100","汐止區"
"221036","130-UY","2018/09/25 18:09:13","新北市汐止區大同路三段143號","121.669498333333","25.077685","6501100","汐止區"
"221015","131-UY","2018/09/25 18:08:28","新北市汐止區鄉長路二段99號","121.6651","25.0859516666667","6501100","汐止區"
"221010","269-BY","2018/09/25 18:09:12","新北市汐止區汐萬路二段273號","121.645855","25.0889566666667","6501100","汐止區"
"221012","278-VK","2018/09/25 18:09:04","新北市汐止區保一街47-1號","121.674448333333","25.080195","6501100","汐止區"
"221023","279-VK","2018/09/25 18:08:55","新北市汐止區中興路291巷1號","121.628091666667","25.06996","6501100","汐止區"
"221032","280-BY","2018/09/25 18:08:57","新北市汐止區橫科路10號","121.617786666667","25.05121","6501100","汐止區"
"221027","281-BY","2018/09/25 18:09:09","新北市汐止區大同路二段525號","121.661618333333","25.06903","6501100","汐止區"
"221029","298-VK","2018/09/25 18:08:53","新北市汐止區樟樹二路134號","121.64002","25.0656066666667","6501100","汐止區"
"221021","299-VK","2018/09/25 18:09:12","新北市汐止區龍安路16號","121.65571","25.0642116666667","6501100","汐止區"
"221031","353-TW","2018/09/25 18:09:02","新北市汐止區中興路181號","121.630315","25.0667933333333","6501100","汐止區"
"221035","622-UM","2018/09/25 18:08:54","新北市汐止區汐萬路一段4號","121.656245","25.0672866666667","6501100","汐止區"
"221025","623-UM","2018/09/25 18:09:00","新北市汐止區秀峰路151巷1號","121.660903333333","25.0619933333333","6501100","汐止區"
"221038","646-BX","2018/09/25 18:09:07","新北市汐止區環山路16號","121.657548333333","25.0602116666667","6501100","汐止區"
"221002","707-TV","2018/09/25 18:08:56","新北市汐止區福德一路208號","121.63452","25.0653716666667","6501100","汐止區"
"221018","753-BX","2018/09/25 18:09:11","新北市汐止區忠孝東路396號","121.665723333333","25.070575","6501100","汐止區"
"242002","281-VK","2018/09/25 18:09:12","新北市新莊區新莊路57號","121.458455","25.0370916666667","6500500","新莊區"
"242011","280-VK","2018/09/25 18:08:59","新北市新莊區中港路中慶巷39號","121.449166666667","25.053665","6500500","新莊區"
"235061","KEA-2875","2018/09/25 18:08:48","新北市中和區連城路583巷17號","121.478888333333","24.9933516666667","6500300","中和區"
