"lineid","car","time","location","longitude","latitude","cityid","cityname"
"234007","207-UY","2018/09/25 18:19:03","新北市永和區環河西路二段179號","121.504718333333","25.0123966666667","6500400","永和區"
"234042","862-TW","2018/09/25 18:18:59","新北市永和區福和路1號","121.526328333333","25.0097","6500400","永和區"
"234026","9371-KE","2018/09/25 18:19:04","新北市永和區豫溪街28巷5號","121.515303333333","25.0095366666667","6500400","永和區"
"249005","172-UM","2018/09/25 18:19:05","新北市八里區荖阡坑路15-40號","121.401655","25.1397883333333","6502300","八里區"
"249001","173-UM","2018/09/25 18:18:54","新北市八里區龍米路一段135號","121.452108333333","25.12692","6502300","八里區"
"249004","303-UY","2018/09/25 18:19:10","新北市八里區龍米路二段232巷3號","121.431536666667","25.1589866666667","6502300","八里區"
"249002","305-UY","2018/09/25 18:18:46","新北市八里區龍形二街20號","121.450568333333","25.13284","6502300","八里區"
"248014","025-BX","2018/09/25 18:19:08","新北市五股區成泰路一段171巷15號","121.43433","25.0744116666667","6501500","五股區"
"248016","026-BX","2018/09/25 18:18:55","新北市五股區成泰路三段477巷18號","121.449905","25.098915","6501500","五股區"
"248006","077-UY","2018/09/25 18:19:11","新北市五股區中興路一段169號","121.464695","25.07381","6501500","五股區"
"248008","095-VK","2018/09/25 18:19:09","新北市五股區更洲路32巷8弄14號","121.459248333333","25.0796316666667","6501500","五股區"
"248020","225-UY","2018/09/25 18:18:55","新北市五股區孝義路38-1號","121.454335","25.1100516666667","6501500","五股區"
"248012","247-BX","2018/09/25 18:19:08","新北市五股區御史路1巷101弄2號","121.441003333333","25.0911766666667","6501500","五股區"
"248010","272-BY","2018/09/25 18:19:09","新北市五股區成泰路一段189巷14-4號","121.433775","25.0775016666667","6501500","五股區"
"248004","677-BX","2018/09/25 18:19:03","新北市五股區成泰路二段156號","121.438336666667","25.0841283333333","6501500","五股區"
"248002","678-BX","2018/09/25 18:19:05","新北市五股區西雲路46號","121.443593333333","25.091015","6501500","五股區"
"244023","069-UM","2018/09/25 18:18:54","新北市林口區東湖路153巷2號","121.38271","25.0728316666667","6501700","林口區"
"244007","080-UY","2018/09/25 18:18:59","新北市林口區中山路202-1號","121.387546666667","25.07924","6501700","林口區"
"244019","403-UM","2018/09/25 18:19:07","新北市林口區忠孝路552巷19-8號","121.374751666667","25.0668766666667","6501700","林口區"
"244013","KEA-2802","2018/09/25 18:18:57","新北市林口區中山路164號","121.390451666667","25.0788416666667","6501700","林口區"
"244017","485-VK","2018/09/25 18:19:01","新北市林口區八德路20巷3號","121.367965","25.0674483333333","6501700","林口區"
"244009","656-BX","2018/09/25 18:19:12","新北市林口區文林二街20號","121.376288333333","25.0890233333333","6501700","林口區"
"244011","701-TV","2018/09/25 18:19:04","新北市林口區中正路74巷5弄4號","121.39452","25.078","6501700","林口區"
"244025","837-TS","2018/09/25 18:18:59","新北市林口區南勢二街72號","121.355993333333","25.069695","6501700","林口區"
"244021","838-TS","2018/09/25 18:19:02","新北市林口區自強一街26號","121.398651666667","25.0780183333333","6501700","林口區"
"243013","AAD-798","2018/09/25 18:18:56","新北市泰山區南林路103號","121.414845","25.04522","6501600","泰山區"
"222003","436-BY","2018/09/25 18:19:01","新北市深坑區旺耽路67號","121.626296666667","25.0030066666667","6501800","深坑區"
"222002","659-BX","2018/09/25 18:18:57","新北市深坑區文山路一段62巷12號","121.62153","25.0011583333333","6501800","深坑區"
"231041","002-UM","2018/09/25 18:18:59","新北市新店區安華路28-1號","121.519661666667","24.9608683333333","6500600","新店區"
"231059","046-UY","2018/09/25 18:19:05","新北市新店區安華路28-1號","121.519545","24.96081","6500600","新店區"
"231040","047-UY","2018/09/25 18:19:12","新北市新店區安華路28-1號","121.519268333333","24.960865","6500600","新店區"
"231044","106-UY","2018/09/25 18:19:11","新北市新店區安華路28-1號","121.519681666667","24.9607366666667","6500600","新店區"
"231046","107-UY","2018/09/25 18:19:08","新北市新店區直潭路93號","121.532191666667","24.939905","6500600","新店區"
"231053","108-UY","2018/09/25 18:19:11","新北市新店區北新路一段63號","121.538176666667","24.9598716666667","6500600","新店區"
"231048","187-VK","2018/09/25 18:19:10","新北市新店區安一路一段1-1號","121.519486666667","24.961135","6500600","新店區"
"231054","KEA-2219","2018/09/25 18:19:07","新北市新店區安一路一段1-1號","121.519678333333","24.9611916666667","6500600","新店區"
"231057","256-BX","2018/09/25 18:19:06","新北市新店區安一路一段1-1號","121.519653333333","24.9610733333333","6500600","新店區"
"231042","268-BY","2018/09/25 18:19:06","新北市新店區安華路28-1號","121.519325","24.96064","6500600","新店區"
"231051","278-BY","2018/09/25 18:19:01","新北市新店區安一路一段1-1號","121.519748333333","24.9610966666667","6500600","新店區"
"231050","AAD-862","2018/09/25 18:18:57","新北市新店區安華路28-1號","121.519883333333","24.9610466666667","6500600","新店區"
"231043","355-BY","2018/09/25 18:19:05","新北市新店區安一路一段1-1號","121.519366666667","24.96103","6500600","新店區"
"231058","3713-VJ","2018/09/25 18:19:09","新北市新店區安康路一段107-2號","121.528703333333","24.96171","6500600","新店區"
"231056","4715-K9","2018/09/25 18:19:02","新北市新店區中央路57號","121.53277","24.9773933333333","6500600","新店區"
"231065","512-UM","2018/09/25 18:19:05","新北市新店區安一路一段1-1號","121.519336666667","24.96112","6500600","新店區"
"231049","513-UM","2018/09/25 18:19:08","新北市新店區安華路30巷1號","121.51954","24.9597583333333","6500600","新店區"
"231063","616-UM","2018/09/25 18:18:57","新北市新店區安華路1-1號","121.519438333333","24.9604366666667","6500600","新店區"
"231045","617-UM","2018/09/25 18:18:45","新北市新店區安華路28-1號","121.51938","24.9609166666667","6500600","新店區"
"231061","619-UM","2018/09/25 18:18:55","新北市新店區安華路28-1號","121.519405","24.9607566666667","6500600","新店區"
"231064","719-UM","2018/09/25 18:18:59","新北市新店區安一路一段1-1號","121.519486666667","24.961175","6500600","新店區"
"231062","720-UM","2018/09/25 18:19:03","新北市新店區安一路一段1-1號","121.519108333333","24.9612833333333","6500600","新店區"
"231060","897-TW","2018/09/25 18:18:56","新北市新店區安華路28-1號","121.519561666667","24.960795","6500600","新店區"
"231055","AKT-0513","2018/09/25 18:19:03","新北市新店區中正路130號","121.542058333333","24.9713466666667","6500600","新店區"
"251014","742-BX","2018/09/25 18:19:09","新北市淡水區崙頂16號","121.491471666667","25.2216583333333","6501000","淡水區"
"241024","KEA-2210","2018/09/25 18:19:08","新北市三重區中正北路193巷35弄75號","121.478843333333","25.0713433333333","6500200","三重區"
"241033","AAC-255","2018/09/25 18:18:56","新北市三重區中興北街52-1號","121.468755","25.0506866666667","6500200","三重區"
"235066","003-UY","2018/09/25 18:19:07","新北市中和區中山路二段122號","121.502598333333","25.00381","6500300","中和區"
"235064","005-UY","2018/09/25 18:18:54","新北市中和區中正路166號","121.498353333333","24.993795","6500300","中和區"
"235056","096-UM","2018/09/25 18:18:51","新北市中和區中山路二段479號","121.483048333333","25.00482","6500300","中和區"
"235039","097-UM","2018/09/25 18:19:11","新北市中和區景平路279號","121.507786666667","24.9931233333333","6500300","中和區"
"235065","098-UM","2018/09/25 18:18:58","新北市中和區莊敬路49巷18號","121.501708333333","25.0061116666667","6500300","中和區"
"235040","150-BY","2018/09/25 18:19:07","新北市中和區中正路271-1號","121.495768333333","24.993595","6500300","中和區"
"235058","151-BY","2018/09/25 18:19:03","新北市中和區圓通路367巷58號","121.491981666667","24.984415","6500300","中和區"
"235055","183-VK","2018/09/25 18:19:03","新北市中和區連城路523巷13弄2號","121.481701666667","24.993565","6500300","中和區"
"235038","185-VK","2018/09/25 18:19:08","新北市中和區大智街42巷28號","121.52264","24.9919916666667","6500300","中和區"
"235049","186-VK","2018/09/25 18:19:11","新北市中和區中正路637巷52弄1號","121.485453333333","24.9934133333333","6500300","中和區"
"235067","255-BX","2018/09/25 18:19:08","新北市中和區和城路一段271巷1號","121.485805","24.9918183333333","6500300","中和區"
"235072","301-VK","2018/09/25 18:19:12","新北市中和區連城路301號","121.489805","24.9960983333333","6500300","中和區"
"235043","352-BY","2018/09/25 18:19:02","新北市中和區景平路377號","121.504095","24.993375","6500300","中和區"
"235042","KEA-2878","2018/09/25 18:19:02","新北市中和區大勇街27巷2號","121.517305","24.9936383333333","6500300","中和區"
"247012","KEA-2869","2018/09/25 18:19:00","新北市五股區四維路185巷23號","121.465845","25.07733","6501400","蘆洲區"
"235050","4979-A6","2018/09/25 18:19:01","新北市中和區南山路313號","121.504896666667","24.9914133333333","6500300","中和區"
"235069","4980-A6","2018/09/25 18:19:08","新北市中和區連勝街21號","121.498645","24.9981166666667","6500300","中和區"
"235070","558-UM","2018/09/25 18:18:57","新北市中和區圓通路122號","121.498781666667","24.9958483333333","6500300","中和區"
"235045","565-BX","2018/09/25 18:19:11","新北市中和區景安路200巷1弄2號","121.503805","24.991455","6500300","中和區"
"235054","640-BX","2018/09/25 18:18:57","新北市中和區民享街86巷8號","121.474006666667","25.0008966666667","6500300","中和區"
"235047","732-UM","2018/09/25 18:19:12","新北市中和區南山路401號","121.506756666667","24.990045","6500300","中和區"
"235046","733-UM","2018/09/25 18:19:05","新北市中和區中正路637巷52弄1號","121.485483333333","24.9933183333333","6500300","中和區"
"235062","800-TS","2018/09/25 18:19:00","新北市中和區景平路999巷2號","121.495388333333","25.006015","6500300","中和區"
"235057","801-TS","2018/09/25 18:19:09","新北市中和區民安街178號","121.476903333333","25.0000666666667","6500300","中和區"
"235041","802-TS","2018/09/25 18:19:03","新北市中和區中正路637巷60弄61號","121.485448333333","24.9930683333333","6500300","中和區"
"235052","805-TS","2018/09/25 18:18:56","新北市中和區興南路一段129號","121.509036666667","24.9878033333333","6500300","中和區"
"235048","896-TW","2018/09/25 18:19:09","新北市中和區中正路395號","121.48946","24.9935066666667","6500300","中和區"
"235053","900-TW","2018/09/25 18:19:05","新北市中和區員山路72-1號","121.481115","24.9935783333333","6500300","中和區"
"235060","911-UM","2018/09/25 18:19:11","新北市中和區員山路291號","121.481076666667","24.9998833333333","6500300","中和區"
"235051","157-BY","2018/09/25 18:19:10","新北市中和區忠孝街103號","121.512076666667","24.9862716666667","6500300","中和區"
"235037","AAC-213","2018/09/25 18:18:57","新北市中和區景德街65號","121.516983333333","24.9913766666667","6500300","中和區"
"226004","205-ST","2018/09/25 18:19:09","新北市平溪區靜安路二段30號","121.712595","25.0201116666667","6502400","平溪區"
"228001","212-TW","2018/09/25 18:19:04","新北市貢寮區真理里新港街26巷55弄2-1號","121.927405","25.0528566666667","6502600","貢寮區"
"228002","663-BX","2018/09/25 18:19:12","新北市貢寮區福連里福興街39-3號","121.994611666667","25.0144666666667","6502600","貢寮區"
"228003","828-UM","2018/09/25 18:19:04","新北市貢寮區真理里美艷山街63號","121.921031666667","25.0720016666667","6502600","貢寮區"
"224006","676-BX","2018/09/25 18:19:04","新北市瑞芳區三爪子坑路64-35號","121.808978333333","25.10576","6501200","瑞芳區"
"224002","639-TC","2018/09/25 18:19:03","新北市瑞芳區三爪子坑路91巷17號","121.811791666667","25.10678","6501200","瑞芳區"
"224008","285-BY","2018/09/25 18:19:07","新北市瑞芳區明燈路二段66號","121.809358333333","25.1075116666667","6501200","瑞芳區"
"224007","275-VK","2018/09/25 18:19:07","新北市瑞芳區大埔路有勝新村1號","121.76497","25.1015266666667","6501200","瑞芳區"
"224009","273-VK","2018/09/25 18:19:11","新北市瑞芳區祈堂路231號","121.856486666667","25.1090783333333","6501200","瑞芳區"
"224005","271-BY","2018/09/25 18:19:13","新北市瑞芳區建基新村8號","121.812183333333","25.1320333333333","6501200","瑞芳區"
"227009","642-TC","2018/09/25 18:19:12","新北市雙溪區牡丹里牡丹73號","121.85173","25.0593583333333","6502500","雙溪區"
"227003","400-TW","2018/09/25 18:19:11","新北市雙溪區共和里中山路2號","121.863785","25.033805","6502500","雙溪區"
"253006","032-BX","2018/09/25 18:18:55","新北市石門區老梅路76號","121.54693","25.2891933333333","6502200","石門區"
"253005","295-VK","2018/09/25 18:19:04","新北市石門區中央路17號","121.56785","25.2924083333333","6502200","石門區"
"222001","KEA-2212","2018/09/25 18:19:09","新北市深坑區北深路二段58號","121.619018333333","25.0043966666667","6501800","深坑區"
"208002","KEA-2872","2018/09/25 18:19:02","新北市金山區清泉里清水路16巷12號","121.63444","25.230005","6502700","金山區"
"208003","665-BX","2018/09/25 18:19:05","新北市金山區民生路148號","121.647261666667","25.22344","6502700","金山區"
"208001","761-BX","2018/09/25 18:19:01","新北市金山區磺港里磺港路171-1號","121.644905","25.224205","6502700","金山區"
"251005","010-UM","2018/09/25 18:18:52","新北市淡水區水源街一段122巷37號","121.447133333333","25.170415","6501000","淡水區"
"251002","012-UM","2018/09/25 18:19:11","新北市淡水區中正東路一段67號","121.452703333333","25.1622783333333","6501000","淡水區"
"251013","KEA-2871","2018/09/25 18:18:56","新北市淡水區行忠路691號","121.471615","25.1994066666667","6501000","淡水區"
"251016","179-VK","2018/09/25 18:19:11","新北市淡水區淡金路三段228巷10號","121.449306666667","25.2049583333333","6501000","淡水區"
"251015","180-VK","2018/09/25 18:18:58","新北市淡水區興福寮88巷1號","121.48541","25.164935","6501000","淡水區"
"251008","181-VK","2018/09/25 18:19:00","新北市淡水區水源街二段234號","121.46076","25.1763483333333","6501000","淡水區"
"251010","413-VK","2018/09/25 18:19:12","新北市淡水區淡海路223號","121.420225","25.1854383333333","6501000","淡水區"
"251012","441-VK","2018/09/25 18:18:58","新北市淡水區北新路二段77-5號","121.480536666667","25.1855366666667","6501000","淡水區"
"251007","442-VK","2018/09/25 18:19:02","新北市淡水區中正東路二段143巷2弄1號","121.460616666667","25.1473366666667","6501000","淡水區"
"251004","443-VK","2018/09/25 18:18:56","新北市淡水區民族路87號","121.462765","25.1339483333333","6501000","淡水區"
"251001","559-UM","2018/09/25 18:19:12","新北市淡水區自強路299號","121.461511666667","25.1314816666667","6501000","淡水區"
"251006","561-UM","2018/09/25 18:19:12","新北市淡水區新民街76巷18號","121.438973333333","25.1768916666667","6501000","淡水區"
"251011","650-BX","2018/09/25 18:19:07","新北市淡水區坪頂路70巷5號","121.46038","25.1632933333333","6501000","淡水區"
"251003","673-BX","2018/09/25 18:19:12","新北市淡水區北新路137號","121.449483333333","25.178805","6501000","淡水區"
"207003","550-UM","2018/09/25 18:19:11","新北市萬里區野柳里港東路6號","121.68644","25.20312","6502800","萬里區"
"207004","225-TW","2018/09/25 18:19:03","新北市萬里區中幅里中福路39-2號","121.677058333333","25.1658433333333","6502800","萬里區"
"252002","178-VK","2018/09/25 18:19:13","新北市三芝區中山路二段35號","121.502871666667","25.2551783333333","6502100","三芝區"
"252003","249-BX","2018/09/25 18:19:04","新北市三芝區錫板里南勢崗5-5號","121.480571666667","25.26303","6502100","三芝區"
"252001","292-VK","2018/09/25 18:19:14","新北市三芝區中興街二段2號","121.498396666667","25.2566866666667","6502100","三芝區"
"237007","153-BY","2018/09/25 18:19:08","新北市三峽區中正路二段470巷2號","121.363648333333","24.9071016666667","6500900","三峽區"
"237009","210-TH","2018/09/25 18:18:55","新北市三峽區大勇路36巷4號","121.366703333333","24.937205","6500900","三峽區"
"237013","252-BX","2018/09/25 18:18:58","新北市三峽區永安街77巷6號","121.375625","24.92929","6500900","三峽區"
"237012","275-BY","2018/09/25 18:18:57","新北市三峽區民生街19巷7弄16號","121.376888333333","24.93561","6500900","三峽區"
"237008","302-VK","2018/09/25 18:19:03","新北市三峽區白雞62-3號","121.388985","24.912295","6500900","三峽區"
"237014","433-BY","2018/09/25 18:18:58","新北市三峽區復興路80巷2號","121.373425","24.9374783333333","6500900","三峽區"
"237006","5529-G3","2018/09/25 18:18:57","新北市三峽區溪東路473巷74號","121.415415","24.9294166666667","6500900","三峽區"
"237011","KEA-2596","2018/09/25 18:18:58","新北市三峽區溪東路179號","121.403555","24.933825","6500900","三峽區"
"237016","649-BX","2018/09/25 18:19:01","新北市三峽區紫微路42-1號","121.42229","24.9200916666667","6500900","三峽區"
"237010","706-TV","2018/09/25 18:18:56","新北市三峽區民權街147號","121.368903333333","24.931625","6500900","三峽區"
"237005","AKY-6261","2018/09/25 18:19:10","新北市三峽區忠孝街30號","121.370901666667","24.9338983333333","6500900","三峽區"
"236070","105-UM","2018/09/25 18:18:59","新北市土城區永豐路236號","121.467341666667","24.9809833333333","6501300","土城區"
"236042","107-UM","2018/09/25 18:18:55","新北市土城區裕民路3巷32號","121.448586666667","24.9865366666667","6501300","土城區"
"236079","166-UM","2018/09/25 18:18:56","新北市土城區中央路三段281巷23弄12號","121.4263","24.9616083333333","6501300","土城區"
"236030","253-BX","2018/09/25 18:18:58","新北市土城區順風路31號","121.440821666667","24.976685","6501300","土城區"
"236026","269-VK","2018/09/25 18:19:06","新北市土城區承天路65號","121.439555","24.9636833333333","6501300","土城區"
"236014","270-VK","2018/09/25 18:19:02","新北市土城區青雲路39巷7號","121.460365","24.9875583333333","6501300","土城區"
"236038","271-VK","2018/09/25 18:18:58","新北市土城區青雲路451巷8弄6號","121.45946","24.97438","6501300","土城區"
"236021","401-BY","2018/09/25 18:19:01","新北市土城區金城路二段48號","121.451346666667","24.9789133333333","6501300","土城區"
"236059","912-UM","2018/09/25 18:19:11","新北市土城區中央路四段307-3號","121.410795","24.9515066666667","6501300","土城區"
"236049","913-UM","2018/09/25 18:18:54","新北市土城區明德路一段369號","121.4553","24.9779966666667","6501300","土城區"
"236063","915-UM","2018/09/25 18:19:13","新北市土城區金城路三段245號","121.471601666667","24.9898233333333","6501300","土城區"
"236055","AAC-216","2018/09/25 18:19:12","新北市土城區中華路二段92號","121.438303333333","24.9747583333333","6501300","土城區"
"242037","AAC-296","2018/09/25 18:18:38","新北市新莊區建福路48巷5號","121.426006666667","25.0274666666667","6500500","新莊區"
"242058","986-R7","2018/09/25 18:18:57","新北市新莊區中山路三段619號","121.412978333333","25.0252016666667","6500500","新莊區"
"242056","751-BX","2018/09/25 18:19:13","新北市新莊區豐年街豐2巷17號","121.447293333333","25.0308266666667","6500500","新莊區"
"242029","705-TV","2018/09/25 18:19:02","新北市新莊區幸福路858號","121.443871666667","25.0489166666667","6500500","新莊區"
"242027","615-BX","2018/09/25 18:18:57","新北市新莊區幸福路741號","121.448715","25.04901","6500500","新莊區"
"242025","613-BX","2018/09/25 18:19:11","新北市新莊區五工二路94巷19號","121.459976666667","25.0674216666667","6500500","新莊區"
"242044","566-BX","2018/09/25 18:18:52","新北市新莊區天泉二街26巷2號","121.414585","25.0255316666667","6500500","新莊區"
"242048","497-BY","2018/09/25 18:19:10","新北市新莊區福營路435號","121.420506666667","25.0260866666667","6500500","新莊區"
"242054","442-UM","2018/09/25 18:18:56","新北市新莊區民安西路410巷12弄4號","121.42782","25.009085","6500500","新莊區"
"242039","415-TV","2018/09/25 18:19:06","新北市新莊區民安東路42號","121.429085","25.02083","6500500","新莊區"
"242009","413-TV","2018/09/25 18:19:10","新北市新莊區昌盛街2巷1弄2號","121.453085","25.049575","6500500","新莊區"
"242046","400-BY","2018/09/25 18:18:54","新北市新莊區福營路371號","121.423608333333","25.0276516666667","6500500","新莊區"
"242061","353-BY","2018/09/25 18:18:59","新北市新莊區新樹路181號","121.436371666667","25.024815","6500500","新莊區"
"242042","133-UY","2018/09/25 18:19:04","新北市新莊區天祥街69號","121.415868333333","25.029215","6500500","新莊區"
"242034","135-UY","2018/09/25 18:19:11","新北市新莊區瓊林路34號","121.448888333333","25.03103","6500500","新莊區"
"242051","172-VK","2018/09/25 18:18:53","新北市新莊區民安西路64號","121.427315","25.0202266666667","6500500","新莊區"
"242007","176-VK","2018/09/25 18:19:10","新北市新莊區自治街35號","121.4541","25.0479933333333","6500500","新莊區"
"242032","347-TH","2018/09/25 18:19:10","新北市新莊區新泰路260號","121.44611","25.0400583333333","6500500","新莊區"
"242005","349-TH","2018/09/25 18:18:52","新北市新莊區新泰路368號","121.444561666667","25.0426666666667","6500500","新莊區"
"242021","350-TH","2018/09/25 18:19:08","新北市新莊區新興街36巷2號","121.450743333333","25.0369383333333","6500500","新莊區"
"242015","351-TH","2018/09/25 18:18:53","新北市新莊區中平路184巷10弄18號","121.445525","25.048295","6500500","新莊區"
"238015","755-BX","2018/09/25 18:18:58","新北市樹林區大安路323巷10弄20號","121.417043333333","24.9909616666667","6500700","樹林區"
"238023","601-UM","2018/09/25 18:19:03","新北市樹林區忠信街13號","121.408043333333","25.0148166666667","6500700","樹林區"
"238019","599-UM","2018/09/25 18:19:03","新北市樹林區水源街32巷72號","121.42501","24.9802216666667","6500700","樹林區"
"238018","571-TV","2018/09/25 18:18:23","新北市板橋區溪崑二街22巷17號","121.427903333333","24.9916616666667","6500700","樹林區"
"238011","5061-A6","2018/09/25 18:19:02","新北市樹林區文化街120巷3號","121.41598","24.9898416666667","6500700","樹林區"
"238021","KEA-2539","2018/09/25 18:19:08","新北市樹林區柑園街二段88-1號","121.386371666667","24.9550883333333","6500700","樹林區"
"238025","303-VK","2018/09/25 18:19:08","新北市樹林區保安街一段219號","121.420466666667","24.996235","6500700","樹林區"
"238017","283-BY","2018/09/25 18:18:59","新北市樹林區中正路713號","121.411413333333","25.0141583333333","6500700","樹林區"
"238014","282-BY","2018/09/25 18:18:59","新北市樹林區大安路47-1號","121.424275","24.9994933333333","6500700","樹林區"
"238020","268-VK","2018/09/25 18:19:00","新北市樹林區俊興街256號","121.418205","25.0163766666667","6500700","樹林區"
"238026","172-UY","2018/09/25 18:19:07","新北市樹林區育德街40-1號","121.39012","24.9693333333333","6500700","樹林區"
"238016","169-UY","2018/09/25 18:19:06","新北市樹林區文化街24號","121.419456666667","24.987625","6500700","樹林區"
"239007","AAC-297","2018/09/25 18:19:12","新北市鶯歌區國慶街35號","121.349543333333","24.9559866666667","6500800","鶯歌區"
"239006","891-R6","2018/09/25 18:19:04","新北市鶯歌區鶯桃路365巷100號","121.330675","24.9620716666667","6500800","鶯歌區"
"239008","527-UM","2018/09/25 18:18:59","新北市鶯歌區國際一路62號","121.3354","24.9779666666667","6500800","鶯歌區"
"239005","526-UM","2018/09/25 18:19:04","新北市鶯歌區鶯桃路668巷73號","121.329851666667","24.971765","6500800","鶯歌區"
"239001","417-VK","2018/09/25 18:19:06","新北市鶯歌區中正三路福德巷27號","121.340068333333","24.94096","6500800","鶯歌區"
"239003","360-BY","2018/09/25 18:19:06","新北市鶯歌區福安街58號","121.335595","24.9651883333333","6500800","鶯歌區"
"239002","359-BY","2018/09/25 18:19:13","新北市鶯歌區中正一路53號","121.352333333333","24.953945","6500800","鶯歌區"
"221008","489-VK","2018/09/25 18:19:03","新北市汐止區汐萬路一段256巷3號","121.653396666667","25.074645","6501100","汐止區"
"221036","130-UY","2018/09/25 18:19:13","新北市汐止區長興街二段1號","121.670751666667","25.08022","6501100","汐止區"
"221015","131-UY","2018/09/25 18:19:08","新北市汐止區鄉長路二段23巷9號","121.667508333333","25.0826333333333","6501100","汐止區"
"221010","269-BY","2018/09/25 18:19:12","新北市汐止區祥雲街22號","121.646751666667","25.090035","6501100","汐止區"
"221012","278-VK","2018/09/25 18:19:04","新北市汐止區保長路35巷15弄3號","121.673153333333","25.0801416666667","6501100","汐止區"
"221023","279-VK","2018/09/25 18:19:16","新北市汐止區中興路195-1號","121.629435","25.0681933333333","6501100","汐止區"
"221032","280-BY","2018/09/25 18:18:57","新北市汐止區力行街2號","121.6171","25.05136","6501100","汐止區"
"221027","281-BY","2018/09/25 18:19:09","新北市汐止區和平街3-1號","121.663466666667","25.070655","6501100","汐止區"
"221029","298-VK","2018/09/25 18:19:13","新北市汐止區樟樹二路330巷76號","121.643038333333","25.0700433333333","6501100","汐止區"
"221021","299-VK","2018/09/25 18:19:05","新北市汐止區大同路二段184巷1號","121.653525","25.0638566666667","6501100","汐止區"
"221031","353-TW","2018/09/25 18:19:02","新北市汐止區大同路一段160號","121.633245","25.0570216666667","6501100","汐止區"
"221035","622-UM","2018/09/25 18:18:54","新北市汐止區大同路二段187巷8弄5號","121.652661666667","25.065595","6501100","汐止區"
"221025","623-UM","2018/09/25 18:19:00","新北市汐止區勤進路12巷39號","121.6591","25.0627183333333","6501100","汐止區"
"221038","646-BX","2018/09/25 18:19:07","新北市汐止區仁愛路333號","121.663993333333","25.06804","6501100","汐止區"
"221002","707-TV","2018/09/25 18:18:56","新北市汐止區福德一路201巷19號","121.63597","25.06487","6501100","汐止區"
"221018","753-BX","2018/09/25 18:19:11","新北市汐止區茄苳路115號","121.667883333333","25.070515","6501100","汐止區"
"220103","295-UM","2018/09/25 18:19:05","新北市板橋區雙十路一段42號","121.477491666667","25.0247683333333","6500100","板橋區"
"242002","281-VK","2018/09/25 18:18:58","新北市新莊區新莊路235號","121.455356666667","25.0346866666667","6500500","新莊區"
"242011","280-VK","2018/09/25 18:19:03","新北市新莊區中榮街32號","121.44987","25.0528283333333","6500500","新莊區"
"220035","560-BX","2018/09/25 18:19:10","新北市板橋區四川路二段130巷24號","121.449536666667","24.9942416666667","6500100","板橋區"
"235061","KEA-2875","2018/09/25 18:18:48","新北市中和區國光街215巷24弄13號","121.4667","25.0001583333333","6500300","中和區"
