"lineid","car","time","location","longitude","latitude","cityid","cityname"
"234046","148-BY","2018/09/25 20:09:03","新北市永和區得和路393號","121.525318333333","24.9992966666667","6500400","永和區"
"234007","207-UY","2018/09/25 20:09:03","新北市永和區保順路37巷14號","121.502923333333","25.01046","6500400","永和區"
"234081","298-R6","2018/09/25 20:09:16","新北市永和區國中路102號","121.524181666667","25.0062916666667","6500400","永和區"
"234038","336-UY","2018/09/25 20:09:04","新北市永和區成功路一段45號","121.5271","25.004115","6500400","永和區"
"234064","337-UY","2018/09/25 20:09:01","新北市永和區永元路95巷3號","121.522286666667","25.001925","6500400","永和區"
"234086","338-UY","2018/09/25 20:09:11","新北市永和區福和路285號","121.51744","25.0074333333333","6500400","永和區"
"234070","552-UM","2018/09/25 20:09:16","新北市永和區永貞路10巷14號","121.520155","25.0073083333333","6500400","永和區"
"234005","693-BX","2018/09/25 20:09:07","新北市永和區福和路1號","121.526638333333","25.009855","6500400","永和區"
"234017","745-BX","2018/09/25 20:09:00","新北市永和區文化路108號","121.513473333333","25.01528","6500400","永和區"
"234030","746-BX","2018/09/25 20:09:18","新北市永和區民權路49巷5弄33號","121.52154","24.9978483333333","6500400","永和區"
"234054","KEA-2590","2018/09/25 20:09:14","新北市永和區博愛街19巷1號","121.517428333333","25.0158583333333","6500400","永和區"
"234013","KEA-2591","2018/09/25 20:09:12","新北市永和區永貞路435號","121.506885","25.00989","6500400","永和區"
"234061","AAD-866","2018/09/25 20:09:05","新北市永和區中正路151巷5弄2號","121.51575","24.9986466666667","6500400","永和區"
"234042","862-TW","2018/09/25 20:08:59","新北市永和區雙和街16巷21號","121.509811666667","25.002745","6500400","永和區"
"234050","863-TW","2018/09/25 20:09:06","新北市永和區保安路256號","121.506071666667","25.01264","6500400","永和區"
"234026","9371-KE","2018/09/25 20:09:03","新北市永和區保生路55-1號","121.504758333333","25.01129","6500400","永和區"
"234011","9373-KE","2018/09/25 20:09:04","新北市永和區仁愛路352巷122弄13號","121.50073","25.0088333333333","6500400","永和區"
"249005","172-UM","2018/09/25 20:09:05","新北市八里區下罟子49-1號","121.383888333333","25.1373133333333","6502300","八里區"
"249001","173-UM","2018/09/25 20:09:12","新北市八里區中華路二段318號","121.403576666667","25.14815","6502300","八里區"
"249004","303-UY","2018/09/25 20:09:12","新北市八里區中山路一段418-6號","121.410873333333","25.1582633333333","6502300","八里區"
"249002","305-UY","2018/09/25 20:09:07","新北市八里區龍米路一段2-1號","121.458246666667","25.11478","6502300","八里區"
"249003","593-UM","2018/09/25 20:09:00","新北市八里區中山路二段540巷26號","121.39726","25.1469916666667","6502300","八里區"
"248014","025-BX","2018/09/25 20:09:07","新北市五股區成泰路三段37號","121.442021666667","25.0884716666667","6501500","五股區"
"248016","026-BX","2018/09/25 20:08:55","新北市五股區成泰路三段577巷80弄50號","121.449695","25.1048466666667","6501500","五股區"
"248008","095-VK","2018/09/25 20:09:08","新北市五股區四維路30巷17號","121.467893333333","25.0715233333333","6501500","五股區"
"248020","225-UY","2018/09/25 20:09:15","新北市五股區凌雲路三段24巷24號","121.435266666667","25.104395","6501500","五股區"
"248012","247-BX","2018/09/25 20:09:08","新北市五股區民義路一段212號","121.430521666667","25.0895266666667","6501500","五股區"
"248010","272-BY","2018/09/25 20:09:09","新北市五股區成泰路一段7巷48弄8號","121.432701666667","25.0678433333333","6501500","五股區"
"248004","677-BX","2018/09/25 20:09:03","新北市五股區成泰路一段173-1號","121.435205","25.0747216666667","6501500","五股區"
"248002","678-BX","2018/09/25 20:09:05","新北市五股區成泰路三段449號","121.450178333333","25.0980033333333","6501500","五股區"
"234023","9380-KE","2018/09/25 20:09:03","新北市永和區中正路662巷25號","121.517695","25.0088216666667","6500400","永和區"
"234077","969-R7","2018/09/25 20:08:57","新北市永和區智光街115號","121.515596666667","24.99616","6500400","永和區"
"234074","AAC-211","2018/09/25 20:09:11","新北市永和區豫溪街169巷2-1號","121.522011666667","25.0104516666667","6500400","永和區"
"234067","AAC-212","2018/09/25 20:09:02","新北市永和區保平路214巷5號","121.509246666667","25.00648","6500400","永和區"
"234003","AAC-295","2018/09/25 20:09:05","新北市永和區中正路609巷3號","121.516126666667","25.0093216666667","6500400","永和區"
"243013","AAD-798","2018/09/25 20:09:05","新北市泰山區明志路三段74巷17號","121.424251666667","25.0417133333333","6501600","泰山區"
"243009","297-R6","2018/09/25 20:09:17","新北市泰山區泰林路二段142巷6號","121.434763333333","25.0600716666667","6501600","泰山區"
"243016","KEA-2801","2018/09/25 20:09:04","新北市泰山區明志路三段405號","121.421196666667","25.0340483333333","6501600","泰山區"
"243015","421-VK","2018/09/25 20:08:58","新北市泰山區明志路一段350號","121.43084","25.0584266666667","6501600","泰山區"
"243011","KEA-2215","2018/09/25 20:09:19","新北市泰山區明志路三段182巷34號","121.423303333333","25.03949","6501600","泰山區"
"243010","KEA-2216","2018/09/25 20:08:59","新北市泰山區明志路二段136巷21弄4號","121.426013333333","25.0518983333333","6501600","泰山區"
"243012","646-TV","2018/09/25 20:09:15","新北市泰山區楓江路39-2號","121.435096666667","25.0623316666667","6501600","泰山區"
"243014","680-BX","2018/09/25 20:09:11","新北市泰山區明志路一段24號","121.433636666667","25.0655233333333","6501600","泰山區"
"222003","436-BY","2018/09/25 20:09:01","新北市深坑區埔新街65號","121.620213333333","25.002345","6501800","深坑區"
"222002","659-BX","2018/09/25 20:09:17","新北市深坑區北深路三段22號","121.609326666667","25.001145","6501800","深坑區"
"231041","002-UM","2018/09/25 20:08:59","新北市新店區中正路468號","121.533996666667","24.9793916666667","6500600","新店區"
"231059","046-UY","2018/09/25 20:09:05","新北市新店區安成街26-1號","121.510205","24.96092","6500600","新店區"
"231040","047-UY","2018/09/25 20:09:12","新北市新店區中正路108號","121.543063333333","24.9705816666667","6500600","新店區"
"231044","106-UY","2018/09/25 20:09:11","新北市新店區寶慶街58巷2號","121.542066666667","24.9868366666667","6500600","新店區"
"231053","108-UY","2018/09/25 20:09:14","新北市新店區新烏路三段寶島巷2弄1號","121.552056666667","24.898715","6500600","新店區"
"231048","187-VK","2018/09/25 20:09:10","新北市新店區寶橋路69-1號","121.545416666667","24.97508","6500600","新店區"
"231054","KEA-2219","2018/09/25 20:09:07","新北市新店區北新路一段189號","121.540276666667","24.9645833333333","6500600","新店區"
"231057","256-BX","2018/09/25 20:08:58","新北市新店區花園一路一段2號","121.55309","24.93242","6500600","新店區"
"231042","268-BY","2018/09/25 20:09:06","新北市新店區中興路二段89號","121.547036666667","24.9714333333333","6500600","新店區"
"231051","278-BY","2018/09/25 20:09:01","新北市新店區中央五街1號","121.530148333333","24.9740916666667","6500600","新店區"
"231050","AAD-862","2018/09/25 20:09:17","新北市新店區北宜路二段277號","121.555015","24.95361","6500600","新店區"
"231043","355-BY","2018/09/25 20:09:05","新北市新店區民族路211號","121.53695","24.9760066666667","6500600","新店區"
"231058","3713-VJ","2018/09/25 20:09:09","新北市新店區安民街121巷12號","121.515423333333","24.9692366666667","6500600","新店區"
"231056","4715-K9","2018/09/25 20:09:02","新北市新店區北新路二段59巷5號","121.542283333333","24.9730283333333","6500600","新店區"
"231067","4772-VM","2018/09/25 20:09:01","新北市新店區溪洲路6巷3號","121.533905","24.961285","6500600","新店區"
"231065","512-UM","2018/09/25 20:09:05","新北市新店區安祥路106巷248號","121.473318333333","24.9593483333333","6500600","新店區"
"231049","513-UM","2018/09/25 20:09:08","新北市新店區北新路二段139巷12弄20號","121.542168333333","24.9760733333333","6500600","新店區"
"231063","616-UM","2018/09/25 20:09:17","新北市新店區黎明路53巷1號","121.502353333333","24.9487766666667","6500600","新店區"
"231045","617-UM","2018/09/25 20:09:05","新北市新店區北宜路一段121-3號","121.540368333333","24.9538566666667","6500600","新店區"
"231061","619-UM","2018/09/25 20:09:15","新北市新店區安民街382號","121.516295","24.976545","6500600","新店區"
"231068","718-UY","2018/09/25 20:07:14","新北市新店區寶高路102巷20號","121.553216666667","24.9727533333333","6500600","新店區"
"231064","719-UM","2018/09/25 20:02:59","新北市新店區安民街39號","121.51588","24.9654683333333","6500600","新店區"
"231062","720-UM","2018/09/25 20:09:11","新北市新店區華城路10巷1-3號","121.528855","24.9578616666667","6500600","新店區"
"231060","897-TW","2018/09/25 20:09:15","新北市新店區安康路三段466-2號","121.483991666667","24.9509233333333","6500600","新店區"
"231055","AKT-0513","2018/09/25 20:09:17","新北市新店區北新路一段297巷25號","121.540605","24.9680116666667","6500600","新店區"
"241011","013-R5","2018/09/25 20:09:15","新北市三重區仁愛街32號","121.496295","25.0718","6500200","三重區"
"241028","022-UY","2018/09/25 20:09:08","新北市三重區仁化街137號","121.494663333333","25.0575366666667","6500200","三重區"
"241008","059-VK","2018/09/25 20:09:05","新北市三重區永福街197巷19號","121.478686666667","25.0743566666667","6500200","三重區"
"241031","061-VK","2018/09/25 20:09:05","新北市三重區過圳街9-1號","121.488731666667","25.0601166666667","6500200","三重區"
"241015","062-VK","2018/09/25 20:09:18","新北市三重區福德北路24號","121.502256666667","25.0648633333333","6500200","三重區"
"241017","063-VK","2018/09/25 20:09:03","新北市三重區自強路一段167號","121.49304","25.0672216666667","6500200","三重區"
"241024","065-VK","2018/09/25 20:08:59","新北市三重區中正北路284號","121.480535","25.068625","6500200","三重區"
"241002","090-VK","2018/09/25 20:09:16","新北市三重區仁義街241巷5號","121.496656666667","25.082595","6500200","三重區"
"241003","091-VK","2018/09/25 19:49:28","新北市三重區五華街103號","121.491646666667","25.0837766666667","6500200","三重區"
"251014","742-BX","2018/09/25 20:09:18","新北市淡水區石頭厝1號","121.45874","25.2355316666667","6501000","淡水區"
"241005","262-UM","2018/09/25 20:09:07","新北市三重區五華街180巷22號","121.488261666667","25.085585","6500200","三重區"
"241016","266-UM","2018/09/25 20:09:07","新北市三重區大同北路65號","121.49503","25.0635816666667","6500200","三重區"
"241009","267-UM","2018/09/25 20:09:07","新北市三重區永福街119號","121.479168333333","25.0770433333333","6500200","三重區"
"241018","268-UM","2018/09/25 20:09:03","新北市三重區自強路一段155-1號","121.493546666667","25.0671366666667","6500200","三重區"
"241013","270-UM","2018/09/25 20:09:05","新北市三重區三和路三段151巷43號","121.493921666667","25.074325","6500200","三重區"
"241025","271-UM","2018/09/25 20:09:03","新北市三重區中正北路428巷15號","121.474528333333","25.070105","6500200","三重區"
"241007","398-BY","2018/09/25 20:09:13","新北市三重區三和路四段111號","121.48607","25.0772783333333","6500200","三重區"
"241035","462-BY","2018/09/25 20:09:15","新北市三重區平安街29號","121.498336666667","25.0643","6500200","三重區"
"241004","475-VK","2018/09/25 20:09:13","新北市三重區自強路四段100號","121.491303333333","25.0797233333333","6500200","三重區"
"241020","478-VK","2018/09/25 20:09:04","新北市三重區後竹圍街2巷1弄15號","121.491505","25.07331","6500200","三重區"
"241030","480-VK","2018/09/25 20:09:08","新北市三重區成功路145巷33號","121.487743333333","25.05318","6500200","三重區"
"241014","543-UM","2018/09/25 20:09:05","新北市三重區長樂街116號","121.501708333333","25.069665","6500200","三重區"
"241023","545-UM","2018/09/25 20:09:01","新北市三重區頂崁街223號","121.477131666667","25.06781","6500200","三重區"
"241001","547-UM","2018/09/25 20:09:07","新北市三重區三和路四段89巷8號","121.4894","25.0758183333333","6500200","三重區"
"241019","KEA-2593","2018/09/25 20:09:16","新北市三重區自強路二段33巷64-3號","121.4909","25.070005","6500200","三重區"
"241006","AAD-863","2018/09/25 20:09:09","新北市三重區力行路二段138-1號","121.482398333333","25.075805","6500200","三重區"
"241026","743-BX","2018/09/25 20:09:08","新北市三重區福德南路53號","121.503018333333","25.061625","6500200","三重區"
"241022","887-TS","2018/09/25 20:09:14","新北市三重區重陽路二段2號","121.486768333333","25.0617483333333","6500200","三重區"
"241012","941-UM","2018/09/25 20:09:07","新北市三重區仁愛街125巷32號","121.497816666667","25.075885","6500200","三重區"
"241029","942-UM","2018/09/25 20:09:06","新北市三重區光明路32巷1弄1號","121.491606666667","25.0585716666667","6500200","三重區"
"241033","AAC-255","2018/09/25 20:09:06","新北市三重區光復路一段68巷16號","121.47128","25.0492483333333","6500200","三重區"
"235066","003-UY","2018/09/25 20:09:06","新北市中和區水源路127巷2弄2號","121.508108333333","25.004065","6500300","中和區"
"235039","097-UM","2018/09/25 20:09:11","新北市中和區大勇街25巷3號","121.517071666667","24.993245","6500300","中和區"
"235065","098-UM","2018/09/25 20:08:58","新北市中和區永和路90巷2弄11號","121.497721666667","25.00561","6500300","中和區"
"235040","150-BY","2018/09/25 20:09:07","新北市中和區保健路61巷5弄6號","121.509533333333","24.9977266666667","6500300","中和區"
"247012","KEA-2869","2018/09/25 20:09:06","新北市蘆洲區民族路193號","121.478545","25.0890166666667","6501400","蘆洲區"
"235069","4980-A6","2018/09/25 20:09:08","新北市中和區景新街96巷6號","121.504643333333","24.998325","6500300","中和區"
"235070","558-UM","2018/09/25 20:09:17","新北市中和區中正路424號","121.491713333333","24.994255","6500300","中和區"
"235054","640-BX","2018/09/25 20:08:57","新北市中和區莒光路149號","121.472616666667","25.0011366666667","6500300","中和區"
"235046","733-UM","2018/09/25 20:09:05","新北市中和區忠孝街31巷19號","121.510295","24.983495","6500300","中和區"
"235048","896-TW","2018/09/25 20:09:09","新北市新店區安興路141號","121.516748333333","24.979545","6500300","中和區"
"235051","157-BY","2018/09/25 20:09:10","新北市中和區景安路220巷6號","121.503301666667","24.9910916666667","6500300","中和區"
"235037","AAC-213","2018/09/25 20:09:17","新北市中和區自強路52號","121.520151666667","24.9948016666667","6500300","中和區"
"235059","AAC-215","2018/09/25 20:09:11","新北市中和區圓通路335巷33弄17號","121.493103333333","24.9889483333333","6500300","中和區"
"220068","013-TV","2018/09/25 20:09:07","新北市板橋區中山路二段284號","121.479481666667","25.018805","6500100","板橋區"
"220069","AAD-861","2018/09/25 20:09:01","新北市板橋區貴興路123號","121.455491666667","25.0022633333333","6500100","板橋區"
"247002","893-R6","2018/09/25 20:09:15","新北市蘆洲區永康街58號","121.459225","25.0860316666667","6501400","蘆洲區"
"247024","500-BY","2018/09/25 20:09:14","新北市蘆洲區光明路116號","121.463756666667","25.0882766666667","6501400","蘆洲區"
"247014","339-TH","2018/09/25 20:09:08","新北市蘆洲區中山二路205號","121.47061","25.0805216666667","6501400","蘆洲區"
"247006","337-TH","2018/09/25 20:09:10","新北市蘆洲區中山二路280號","121.468895","25.07805","6501400","蘆洲區"
"247008","336-TH","2018/09/25 20:09:10","新北市蘆洲區中山一路135巷6弄30號","121.474843333333","25.0808916666667","6501400","蘆洲區"
"247020","057-VK","2018/09/25 20:09:01","新北市蘆洲區民權路106巷5弄2-1號","121.474313333333","25.0890733333333","6501400","蘆洲區"
"247018","007-UY","2018/09/25 20:08:57","新北市蘆洲區民族路314巷23號","121.478021666667","25.09078","6501400","蘆洲區"
"247004","002-UY","2018/09/25 20:09:13","新北市蘆洲區長安街285巷24號","121.457091666667","25.08401","6501400","蘆洲區"
"247022","001-UY","2018/09/25 20:09:13","新北市蘆洲區三民路122號","121.471166666667","25.08739","6501400","蘆洲區"
"226004","205-ST","2018/09/25 20:09:09","新北市平溪區十分里十分街66巷8號","121.77522","25.0422333333333","6502400","平溪區"
"224010","AGQ-8101","2018/09/25 20:08:50","新北市瑞芳區輕便路204號","121.845091666667","25.11032","6501200","瑞芳區"
"227003","400-TW","2018/09/25 20:09:11","新北市雙溪區魚行里新店74-1號","121.871636666667","25.0305983333333","6502500","雙溪區"
"222001","KEA-2212","2018/09/25 20:09:08","新北市深坑區北深路三段212號","121.601136666667","25.0038016666667","6501800","深坑區"
"208002","KEA-2872","2018/09/25 20:09:02","新北市金山區南勢85號","121.624878333333","25.2200233333333","6502700","金山區"
"208003","665-BX","2018/09/25 20:09:02","新北市金山區海興路170號","121.632191666667","25.23961","6502700","金山區"
"251005","010-UM","2018/09/25 20:09:12","新北市淡水區鄧公路32巷8號","121.450881666667","25.1713916666667","6501000","淡水區"
"251013","KEA-2871","2018/09/25 20:09:17","新北市淡水區奎柔山路460號","121.46398","25.2047133333333","6501000","淡水區"
"251016","179-VK","2018/09/25 20:09:05","新北市淡水區番子田18-11號","121.455763333333","25.2302933333333","6501000","淡水區"
"251015","180-VK","2018/09/25 20:09:18","新北市淡水區埤島3-20號","121.44709","25.19124","6501000","淡水區"
"251008","181-VK","2018/09/25 20:09:00","新北市淡水區淡海路72巷30弄11號","121.424823333333","25.182575","6501000","淡水區"
"251010","413-VK","2018/09/25 20:09:12","新北市淡水區崁頂五路303號","121.424241666667","25.19787","6501000","淡水區"
"251012","441-VK","2018/09/25 20:08:58","新北市淡水區淡金路三段337號","121.448901666667","25.2065316666667","6501000","淡水區"
"251007","442-VK","2018/09/25 20:09:02","新北市淡水區水源街二段194號","121.456861666667","25.1758316666667","6501000","淡水區"
"251004","443-VK","2018/09/25 20:09:18","新北市淡水區民族路29巷46號","121.46174","25.1368183333333","6501000","淡水區"
"251001","559-UM","2018/09/25 20:09:12","新北市淡水區新市二路四段265號","121.44576","25.192495","6501000","淡水區"
"251006","561-UM","2018/09/25 20:09:12","新北市淡水區北新路141巷29號","121.448165","25.1795816666667","6501000","淡水區"
"251009","575-R6","2018/09/25 20:09:10","新北市淡水區清水街1-5號","121.445301666667","25.17042","6501000","淡水區"
"251003","673-BX","2018/09/25 20:09:12","新北市淡水區中山北路二段189巷15弄29號","121.443383333333","25.18409","6501000","淡水區"
"207003","550-UM","2018/09/25 20:09:11","新北市萬里區大鵬里萬里加投192號","121.642825","25.2156816666667","6502800","萬里區"
"207004","225-TW","2018/09/25 20:09:03","新北市萬里區北基里孝六街24號","121.683021666667","25.176825","6502800","萬里區"
"252002","178-VK","2018/09/25 20:09:13","新北市三芝區中正路一段68號","121.503851666667","25.25763","6502100","三芝區"
"252001","292-VK","2018/09/25 20:09:14","新北市三芝區公正街9號","121.499771666667","25.25749","6502100","三芝區"
"237008","302-VK","2018/09/25 20:09:03","新北市三峽區中華路75巷29號","121.373171666667","24.9297283333333","6500900","三峽區"
"237014","433-BY","2018/09/25 20:08:58","新北市三峽區添福141號","121.375226666667","24.9010233333333","6500900","三峽區"
"237006","5529-G3","2018/09/25 20:09:16","新北市三峽區中正路二段264號","121.365756666667","24.9125833333333","6500900","三峽區"
"237016","649-BX","2018/09/25 20:09:01","新北市三峽區橫溪路99巷12號","121.399745","24.9362233333333","6500900","三峽區"
"237005","AKY-6261","2018/09/25 20:09:07","新北市三峽區三樹路98巷121號","121.382766666667","24.9384466666667","6500900","三峽區"
"236070","105-UM","2018/09/25 20:09:19","新北市土城區中央路三段185-5號","121.431656666667","24.9649066666667","6501300","土城區"
"236042","107-UM","2018/09/25 20:09:15","新北市土城區學成路22巷2弄2號","121.453155","24.9870933333333","6501300","土城區"
"236079","166-UM","2018/09/25 20:09:16","新北市土城區福安街48號","121.418933333333","24.96467","6501300","土城區"
"236030","253-BX","2018/09/25 20:09:15","新北市土城區中央路一段118巷1弄8號","121.445875","24.9879416666667","6501300","土城區"
"236026","269-VK","2018/09/25 20:09:11","新北市土城區中央路一段289號","121.444425","24.9843233333333","6501300","土城區"
"236014","270-VK","2018/09/25 20:09:02","新北市土城區德興街135號","121.455123333333","24.991735","6501300","土城區"
"236038","271-VK","2018/09/25 20:09:18","新北市土城區延吉街351號","121.464645","24.9839933333333","6501300","土城區"
"236021","401-BY","2018/09/25 20:09:01","新北市土城區金城路三段208號","121.471815","24.989595","6501300","土城區"
"236059","912-UM","2018/09/25 20:09:06","新北市土城區光明街5號","121.441941666667","24.9747166666667","6501300","土城區"
"236049","913-UM","2018/09/25 20:09:14","新北市土城區金城路三段19號","121.465096666667","24.9864066666667","6501300","土城區"
"236055","AAC-216","2018/09/25 20:09:11","新北市土城區中華路一段172號","121.441375","24.982935","6501300","土城區"
"242037","AAC-296","2018/09/25 20:09:10","新北市新莊區建安街9巷7號","121.429208333333","25.0267466666667","6500500","新莊區"
"242058","986-R7","2018/09/25 20:09:13","新北市新莊區八德街59號","121.424761666667","25.0220033333333","6500500","新莊區"
"242056","751-BX","2018/09/25 20:09:12","新北市新莊區新莊路649巷15弄1號","121.445071666667","25.03151","6500500","新莊區"
"242029","705-TV","2018/09/25 20:09:07","新北市新莊區中原路327-2號","121.446235","25.0542783333333","6500500","新莊區"
"242027","615-BX","2018/09/25 20:09:15","新北市新莊區中平路262號","121.44484","25.0497466666667","6500500","新莊區"
"242025","613-BX","2018/09/25 20:09:05","新北市新莊區五工三路80號","121.459026666667","25.065105","6500500","新莊區"
"242044","566-BX","2018/09/25 20:09:12","新北市新莊區中正路929巷7弄9號","121.411461666667","25.020485","6500500","新莊區"
"242048","497-BY","2018/09/25 20:09:10","新北市新莊區四維路152巷22號","121.422121666667","25.02274","6500500","新莊區"
"242054","442-UM","2018/09/25 20:09:10","新北市新莊區西盛街387巷1號","121.42821","25.0130316666667","6500500","新莊區"
"242039","415-TV","2018/09/25 20:09:05","新北市新莊區民安西路126號","121.426701666667","25.018265","6500500","新莊區"
"242009","413-TV","2018/09/25 20:09:18","新北市新莊區昌隆街17號","121.454308333333","25.0509016666667","6500500","新莊區"
"242046","400-BY","2018/09/25 20:09:17","新北市新莊區裕民街103巷5號","121.418736666667","25.0229866666667","6500500","新莊區"
"242023","362-BY","2018/09/25 20:09:01","新北市新莊區化成路540-2號","121.466138333333","25.0533916666667","6500500","新莊區"
"242061","353-BY","2018/09/25 20:08:59","新北市新莊區瓊林路100巷1號","121.44347","25.0264333333333","6500500","新莊區"
"242042","133-UY","2018/09/25 20:09:16","新北市新莊區青山路一段186號","121.400393333333","25.0303683333333","6500500","新莊區"
"242034","135-UY","2018/09/25 20:09:11","新北市新莊區中正路318巷9號","121.446298333333","25.0356016666667","6500500","新莊區"
"242051","172-VK","2018/09/25 20:09:12","新北市新莊區民安西路170號","121.42592","25.01601","6500500","新莊區"
"242013","173-VK","2018/09/25 20:09:17","新北市新莊區中誠街70巷16號","121.450606666667","25.0487","6500500","新莊區"
"242019","175-VK","2018/09/25 20:09:13","新北市新莊區長青街15號","121.458483333333","25.0423716666667","6500500","新莊區"
"242007","176-VK","2018/09/25 20:09:12","新北市新莊區思源路419巷8號","121.459306666667","25.0526516666667","6500500","新莊區"
"242017","346-TH","2018/09/25 20:09:15","新北市新莊區中港路340號","121.452113333333","25.0461116666667","6500500","新莊區"
"242032","347-TH","2018/09/25 20:09:05","新北市新莊區忠孝街29巷30號","121.443633333333","25.0367983333333","6500500","新莊區"
"242005","349-TH","2018/09/25 20:09:12","新北市新莊區頭興街5巷1號","121.463053333333","25.0535266666667","6500500","新莊區"
"242021","350-TH","2018/09/25 20:09:02","新北市新莊區建中街48巷6弄2號","121.448371666667","25.0377333333333","6500500","新莊區"
"242015","351-TH","2018/09/25 20:09:03","新北市新莊區中平路28號","121.444921666667","25.0433166666667","6500500","新莊區"
"238021","KEA-2539","2018/09/25 20:09:14","新北市樹林區八德街1146號","121.39088","24.9684833333333","6500700","樹林區"
"221008","489-VK","2018/09/25 20:09:03","新北市汐止區忠三街9巷5號","121.624678333333","25.07883","6501100","汐止區"
"221036","130-UY","2018/09/25 20:09:13","新北市汐止區新台五路二段9號","121.662303333333","25.0660716666667","6501100","汐止區"
"221015","131-UY","2018/09/25 20:09:08","新北市汐止區建成路36號","121.664123333333","25.07285","6501100","汐止區"
"221010","269-BY","2018/09/25 20:09:13","新北市汐止區八連路一段217號","121.640556666667","25.081875","6501100","汐止區"
"221012","278-VK","2018/09/25 20:09:04","新北市汐止區汐平路一段42號","121.682355","25.0705216666667","6501100","汐止區"
"221023","279-VK","2018/09/25 20:09:03","新北市汐止區明峰街298巷7弄1號","121.624973333333","25.0688283333333","6501100","汐止區"
"221032","280-BY","2018/09/25 20:08:57","新北市汐止區弘道街8巷3弄2號","121.617108333333","25.048085","6501100","汐止區"
"221027","281-BY","2018/09/25 20:09:09","新北市汐止區民生街1-1號","121.660171666667","25.0687266666667","6501100","汐止區"
"221029","298-VK","2018/09/25 20:09:13","新北市汐止區樟樹一路119巷10弄1號","121.641176666667","25.06463","6501100","汐止區"
"221021","299-VK","2018/09/25 20:09:05","新北市汐止區連興街121號","121.653838333333","25.0620766666667","6501100","汐止區"
"221031","353-TW","2018/09/25 20:09:02","新北市汐止區原興路76巷2號","121.63198","25.0663333333333","6501100","汐止區"
"221035","622-UM","2018/09/25 20:09:13","新北市汐止區長江街67巷2弄13號","121.657078333333","25.072525","6501100","汐止區"
"221025","623-UM","2018/09/25 20:09:00","新北市汐止區秀峰路62號","121.65977","25.0646666666667","6501100","汐止區"
"221038","646-BX","2018/09/25 20:09:07","新北市汐止區大同路三段49號","121.666983333333","25.0766483333333","6501100","汐止區"
"221002","707-TV","2018/09/25 20:09:16","新北市汐止區工建路202號","121.636411666667","25.062945","6501100","汐止區"
"221018","753-BX","2018/09/25 20:09:11","新北市汐止區茄福街35巷39號","121.67347","25.0661333333333","6501100","汐止區"
"220080","200-UY","2018/09/25 20:09:05","新北市板橋區大觀路二段187巷9號","121.445371666667","24.9996266666667","6500100","板橋區"
"220101","245-BX","2018/09/25 20:08:59","新北市板橋區雙十路二段47巷37號","121.475038333333","25.0254233333333","6500100","板橋區"
"220083","286-VK","2018/09/25 20:09:15","新北市板橋區僑中二街88巷31-1號","121.444696666667","25.0096083333333","6500100","板橋區"
"220081","287-VK","2018/09/25 20:09:18","新北市板橋區僑中一街80巷12弄2號","121.447935","25.0129583333333","6500100","板橋區"
"220061","293-UM","2018/09/25 20:09:11","新北市板橋區縣民大道二段200巷3號","121.469791666667","25.0171783333333","6500100","板橋區"
"220103","295-UM","2018/09/25 20:09:17","新北市板橋區自由路26巷19號","121.46646","25.0225783333333","6500100","板橋區"
"242002","281-VK","2018/09/25 20:09:17","新北市新莊區中正路71號","121.461106666667","25.0393133333333","6500500","新莊區"
"220092","307-R5","2018/09/25 20:09:00","新北市板橋區文化路一段141號","121.462143333333","25.0156616666667","6500100","板橋區"
"220098","317-R6","2018/09/25 20:09:09","新北市板橋區新海路72巷44號","121.462175","25.022945","6500100","板橋區"
"220064","486-VK","2018/09/25 20:09:05","新北市板橋區長安街331巷28號","121.473921666667","25.01261","6500100","板橋區"
"242011","280-VK","2018/09/25 20:09:12","新北市新莊區中和街204巷7弄6號","121.448398333333","25.0505","6500500","新莊區"
"220088","491-VK","2018/09/25 20:09:07","新北市板橋區民治街71巷60弄1號","121.481571666667","25.0339816666667","6500100","板橋區"
"220093","689-BX","2018/09/25 20:09:14","新北市板橋區長江路二段245號","121.46898","25.0326333333333","6500100","板橋區"
"220102","KEA-2699","2018/09/25 20:09:16","新北市板橋區民治街137號","121.47765","25.03075","6500100","板橋區"
"220055","827-TW","2018/09/25 20:09:18","新北市板橋區仁愛路86巷7號","121.461005","24.99934","6500100","板橋區"
"220067","830-TW","2018/09/25 20:09:11","新北市板橋區中山路一段214號","121.470173333333","25.01389","6500100","板橋區"
"220089","833-TW","2018/09/25 20:08:58","新北市板橋區新海路389號","121.458868333333","25.0263583333333","6500100","板橋區"
"220074","895-R6","2018/09/25 20:09:13","新北市板橋區府中路15號","121.459513333333","25.00966","6500100","板橋區"
"220097","AAC-210","2018/09/25 20:08:48","新北市板橋區光正街23巷7號","121.462178333333","25.016845","6500100","板橋區"
"220070","AAC-253","2018/09/25 20:09:06","新北市板橋區德興街33號","121.453498333333","24.9938816666667","6500100","板橋區"
"235068","KEA-2873","2018/09/25 20:09:14","新北市中和區中山路二段250巷12號","121.497483333333","25.003005","6500300","中和區"
