"lineid","car","time","location","longitude","latitude","cityid","cityname"
"234007","207-UY","2018/09/25 20:39:03","新北市八里區荖阡坑路34號","121.402723333333","25.1284983333333","6500400","永和區"
"234081","298-R6","2018/09/25 20:39:16","新北市永和區永利路69號","121.519505","25.0049833333333","6500400","永和區"
"234064","337-UY","2018/09/25 20:39:01","新北市永和區環河西路二段179號","121.504358333333","25.0129766666667","6500400","永和區"
"234005","693-BX","2018/09/25 20:39:07","新北市永和區福和路1號","121.526521666667","25.0097833333333","6500400","永和區"
"234030","746-BX","2018/09/25 20:39:18","新北市中和區景平路217號","121.510495","24.9927216666667","6500400","永和區"
"234061","AAD-866","2018/09/25 20:39:00","新北市永和區秀朗路一段175號","121.517035","25.0036783333333","6500400","永和區"
"234042","862-TW","2018/09/25 20:38:59","新北市永和區安樂路348號","121.514433333333","25.0064633333333","6500400","永和區"
"234050","863-TW","2018/09/25 20:39:06","新北市永和區新生路90號","121.507283333333","25.014955","6500400","永和區"
"249001","173-UM","2018/09/25 20:39:11","新北市八里區中山路三段335號","121.377351666667","25.1387466666667","6502300","八里區"
"249004","303-UY","2018/09/25 20:39:12","新北市八里區中山路一段71號","121.417993333333","25.15951","6502300","八里區"
"249002","305-UY","2018/09/25 20:39:06","新北市八里區中山路一段1號","121.423201666667","25.1587983333333","6502300","八里區"
"249003","593-UM","2018/09/25 20:39:00","新北市八里區商港路105巷15號","121.389936666667","25.1481633333333","6502300","八里區"
"234023","9380-KE","2018/09/25 20:39:03","新北市永和區竹林路25巷17弄2號","121.517938333333","25.014925","6500400","永和區"
"234074","AAC-211","2018/09/25 20:39:08","新北市永和區竹林路119巷18弄1號","121.521086666667","25.01143","6500400","永和區"
"244018","403-UM","2018/09/25 20:20:21","新北市林口區粉寮路二段88巷100-12號","121.40957","25.090235","6501700","林口區"
"243009","297-R6","2018/09/25 20:39:17","新北市泰山區泰林路二段542巷1弄27號","121.422645","25.0640366666667","6501600","泰山區"
"243011","KEA-2215","2018/09/25 20:38:59","新北市泰山區明志路三段42巷18號","121.424158333333","25.0423433333333","6501600","泰山區"
"243010","KEA-2216","2018/09/25 20:39:19","新北市泰山區明志路二段273巷5弄12號","121.428068333333","25.0477916666667","6501600","泰山區"
"243012","646-TV","2018/09/25 20:39:15","新北市泰山區泰林路二段607巷1-7號","121.42107","25.0639016666667","6501600","泰山區"
"222003","436-BY","2018/09/25 20:39:14","新北市深坑區阿柔洋25-1號","121.613133333333","24.9990716666667","6501800","深坑區"
"222002","659-BX","2018/09/25 20:38:57","新北市深坑區萬福路45號","121.599458333333","25.0068316666667","6501800","深坑區"
"231041","002-UM","2018/09/25 20:39:19","新北市新店區中正路695巷2號","121.533976666667","24.9906116666667","6500600","新店區"
"231059","046-UY","2018/09/25 20:39:05","新北市新店區僑信路122號","121.500528333333","24.9462866666667","6500600","新店區"
"231040","047-UY","2018/09/25 20:39:12","新北市新店區中正路247巷4弄9號","121.53837","24.97322","6500600","新店區"
"231044","106-UY","2018/09/25 20:39:11","新北市新店區民權路90巷36號","121.53698","24.9845316666667","6500600","新店區"
"231053","108-UY","2018/09/25 20:39:11","新北市新店區松林路1號","121.547506666667","24.9124366666667","6500600","新店區"
"231048","187-VK","2018/09/25 20:39:10","新北市新店區寶慶街35巷1弄5號","121.543383333333","24.9865916666667","6500600","新店區"
"231054","KEA-2219","2018/09/25 20:39:07","新北市新店區北新路一段64巷39弄14號","121.542591666667","24.96585","6500600","新店區"
"231057","256-BX","2018/09/25 20:39:18","新北市新店區花園二路一段9-6號","121.556313333333","24.932865","6500600","新店區"
"231042","268-BY","2018/09/25 20:39:06","新北市新店區寶橋路236號","121.55155","24.9788883333333","6500600","新店區"
"231051","278-BY","2018/09/25 20:39:01","新北市新店區中央八街128號","121.525023333333","24.9784216666667","6500600","新店區"
"231050","AAD-862","2018/09/25 20:39:17","新北市新店區建國路4號","121.5398","24.973365","6500600","新店區"
"231043","355-BY","2018/09/25 20:39:11","新北市新店區建國路17號","121.539928333333","24.973645","6500600","新店區"
"231058","3713-VJ","2018/09/25 20:39:09","新北市新店區平等街65號","121.535945","24.97255","6500600","新店區"
"231066","4716-K9","2018/09/25 20:39:05","新北市新店區安興路105-1號","121.514588333333","24.9777816666667","6500600","新店區"
"231056","4715-K9","2018/09/25 20:39:02","新北市新店區中央七街61巷30號","121.529678333333","24.9757266666667","6500600","新店區"
"231067","4772-VM","2018/09/25 20:39:01","新北市新店區安華路28-1號","121.519641666667","24.9609533333333","6500600","新店區"
"231065","512-UM","2018/09/25 20:39:05","新北市新店區安祥路102巷33號","121.485441666667","24.964305","6500600","新店區"
"231049","513-UM","2018/09/25 20:39:08","新北市新店區永業路81巷60號","121.529241666667","24.9480916666667","6500600","新店區"
"231063","616-UM","2018/09/25 20:39:17","新北市新店區玫瑰路4-1號","121.493615","24.9514216666667","6500600","新店區"
"231045","617-UM","2018/09/25 20:39:05","新北市新店區長春路83號","121.551156666667","24.9582416666667","6500600","新店區"
"231061","619-UM","2018/09/25 20:39:15","新北市新店區新和街37號","121.51926","24.9849716666667","6500600","新店區"
"231068","718-UY","2018/09/25 20:39:14","新北市新店區寶元路一段63巷50號","121.542226666667","24.9866216666667","6500600","新店區"
"231064","719-UM","2018/09/25 20:39:10","新北市新店區安和路三段130號","121.516496666667","24.98583","6500600","新店區"
"231062","720-UM","2018/09/25 20:39:11","新北市新店區安泰路60巷55弄39號","121.484465","24.9455883333333","6500600","新店區"
"231060","897-TW","2018/09/25 20:39:15","新北市新店區安康路三段716號","121.473896666667","24.9420916666667","6500600","新店區"
"241011","013-R5","2018/09/25 20:39:15","新北市三重區龍濱路285號","121.501116666667","25.0733433333333","6500200","三重區"
"241028","022-UY","2018/09/25 20:39:08","新北市三重區光興街93號","121.497318333333","25.059915","6500200","三重區"
"241008","059-VK","2018/09/25 20:39:05","新北市三重區下竹圍街91號","121.481093333333","25.0748783333333","6500200","三重區"
"241031","061-VK","2018/09/25 20:39:04","新北市三重區重陽路一段43巷30號","121.488246666667","25.0586266666667","6500200","三重區"
"241015","062-VK","2018/09/25 20:39:17","新北市三重區文化北路105號","121.49786","25.0684683333333","6500200","三重區"
"241017","063-VK","2018/09/25 20:39:03","新北市三重區安慶街245號","121.490685","25.0677166666667","6500200","三重區"
"241024","065-VK","2018/09/25 20:38:59","新北市三重區忠孝路三段75巷7號","121.480228333333","25.0660333333333","6500200","三重區"
"241002","090-VK","2018/09/25 20:39:16","新北市三重區仁義街167巷12號","121.497458333333","25.08189","6500200","三重區"
"251014","742-BX","2018/09/25 20:38:58","新北市淡水區公埔子25號","121.46964","25.231975","6501000","淡水區"
"241005","262-UM","2018/09/25 20:39:07","新北市三重區碧華街349號","121.491978333333","25.0849883333333","6500200","三重區"
"241016","266-UM","2018/09/25 20:39:07","新北市三重區自強路一段220號","121.494235","25.0666033333333","6500200","三重區"
"241009","267-UM","2018/09/25 20:39:07","新北市三重區碧華街57號","121.484751666667","25.0812916666667","6500200","三重區"
"241018","268-UM","2018/09/25 20:39:10","新北市三重區自強路一段215號","121.49129","25.0685","6500200","三重區"
"241032","269-UM","2018/09/25 20:39:05","新北市三重區重陽路一段120巷48號","121.485051666667","25.0601683333333","6500200","三重區"
"241013","270-UM","2018/09/25 20:39:05","新北市三重區三和路三段103號","121.494533333333","25.0725416666667","6500200","三重區"
"241025","271-UM","2018/09/25 20:39:03","新北市三重區頂崁街210巷28弄2號","121.475705","25.0677433333333","6500200","三重區"
"241007","398-BY","2018/09/25 20:39:13","新北市三重區自強路四段20號","121.488565","25.0764416666667","6500200","三重區"
"241035","462-BY","2018/09/25 20:39:09","新北市三重區正義北路291號","121.494873333333","25.0705216666667","6500200","三重區"
"241004","475-VK","2018/09/25 20:39:00","新北市三重區仁愛街403號","121.490968333333","25.0809833333333","6500200","三重區"
"241020","478-VK","2018/09/25 20:39:04","新北市三重區忠孝路一段56號","121.49059","25.0719266666667","6500200","三重區"
"241030","480-VK","2018/09/25 20:39:08","新北市三重區成功路73巷18號","121.489393333333","25.0519416666667","6500200","三重區"
"241014","543-UM","2018/09/25 20:39:05","新北市三重區介壽路11號","121.498958333333","25.0693283333333","6500200","三重區"
"241023","545-UM","2018/09/25 20:39:00","新北市三重區自由街35巷2號","121.478966666667","25.0669066666667","6500200","三重區"
"241001","547-UM","2018/09/25 20:39:07","新北市三重區三和路四段160巷104號","121.485065","25.0744066666667","6500200","三重區"
"241019","KEA-2593","2018/09/25 20:39:16","新北市三重區忠孝路一段10巷33號","121.491115","25.0713366666667","6500200","三重區"
"241006","AAD-863","2018/09/25 20:39:09","新北市三重區車路頭街139巷14號","121.48435","25.0762716666667","6500200","三重區"
"241026","743-BX","2018/09/25 20:39:04","新北市三重區文化南路7號","121.499975","25.0623016666667","6500200","三重區"
"241022","887-TS","2018/09/25 20:39:14","新北市三重區新北大道一段46巷18弄10號","121.48829","25.06194","6500200","三重區"
"241012","941-UM","2018/09/25 20:39:07","新北市三重區秀江街26號","121.502463333333","25.0730116666667","6500200","三重區"
"241029","942-UM","2018/09/25 20:39:04","新北市三重區集美街126巷24號","121.489915","25.0539266666667","6500200","三重區"
"241033","AAC-255","2018/09/25 20:39:16","新北市三重區光復路二段87巷63號","121.475445","25.0580833333333","6500200","三重區"
"235040","150-BY","2018/09/25 20:39:07","新北市新店區薏仁坑路自強巷1號","121.497666666667","24.957635","6500300","中和區"
"247012","KEA-2869","2018/09/25 20:39:06","新北市蘆洲區中興街132號","121.482195","25.0893533333333","6501400","蘆洲區"
"235069","4980-A6","2018/09/25 20:39:08","新北市中和區連城路347巷16弄1號","121.48837","24.9948133333333","6500300","中和區"
"247002","893-R6","2018/09/25 20:39:15","新北市蘆洲區長安街375巷35號","121.455626666667","25.08796","6501400","蘆洲區"
"247016","546-UM","2018/09/25 20:39:11","新北市蘆洲區中山二路288號","121.468773333333","25.0775566666667","6501400","蘆洲區"
"247024","500-BY","2018/09/25 20:39:14","新北市蘆洲區長樂路30號","121.463621666667","25.0854283333333","6501400","蘆洲區"
"247014","339-TH","2018/09/25 20:39:07","新北市蘆洲區中山一路186號","121.473881666667","25.08099","6501400","蘆洲區"
"247006","337-TH","2018/09/25 20:39:10","新北市蘆洲區和平路166-1號","121.466461666667","25.081225","6501400","蘆洲區"
"247008","336-TH","2018/09/25 20:39:10","新北市蘆洲區重陽街42-1號","121.481113333333","25.082545","6501400","蘆洲區"
"247020","057-VK","2018/09/25 20:39:01","新北市蘆洲區民族路424-1號","121.473868333333","25.0919083333333","6501400","蘆洲區"
"247004","002-UY","2018/09/25 20:39:13","新北市蘆洲區長安街301號","121.458035","25.0849433333333","6501400","蘆洲區"
"247022","001-UY","2018/09/25 20:39:13","新北市蘆洲區中正路243巷9號","121.467258333333","25.086255","6501400","蘆洲區"
"222001","KEA-2212","2018/09/25 20:39:08","新北市深坑區北深路三段230號","121.600745","25.0039716666667","6501800","深坑區"
"251002","012-UM","2018/09/25 20:39:11","新北市淡水區中正路38-1號","121.443756666667","25.1692483333333","6501000","淡水區"
"251013","KEA-2871","2018/09/25 20:39:16","新北市淡水區下圭柔山28巷15號","121.45778","25.2039083333333","6501000","淡水區"
"251016","179-VK","2018/09/25 20:39:05","新北市淡水區後洲子8-2號","121.449665","25.224035","6501000","淡水區"
"251015","180-VK","2018/09/25 20:38:58","新北市淡水區淡金路四段542巷17號","121.452715","25.227095","6501000","淡水區"
"251010","413-VK","2018/09/25 20:39:12","新北市淡水區沙崙路181巷15號","121.42399","25.1844133333333","6501000","淡水區"
"251012","441-VK","2018/09/25 20:39:18","新北市淡水區興仁路108號","121.451651666667","25.218175","6501000","淡水區"
"251007","442-VK","2018/09/25 20:39:01","新北市淡水區淡金路一段69號","121.458225","25.173435","6501000","淡水區"
"251001","559-UM","2018/09/25 20:39:12","新北市淡水區淡金路218號","121.460271666667","25.166965","6501000","淡水區"
"251009","575-R6","2018/09/25 20:39:10","新北市淡水區民權路187巷17號","121.460378333333","25.1333533333333","6501000","淡水區"
"251011","650-BX","2018/09/25 20:39:07","新北市淡水區崁頂36-7號","121.438375","25.19331","6501000","淡水區"
"251003","673-BX","2018/09/25 20:39:12","新北市淡水區新民街152巷6弄20號","121.438676666667","25.1785","6501000","淡水區"
"252002","178-VK","2018/09/25 20:39:13","新北市三芝區淡金路二段47-2號","121.503655","25.2605166666667","6502100","三芝區"
"252001","292-VK","2018/09/25 20:39:14","新北市三芝區長安街55號","121.501158333333","25.2565833333333","6502100","三芝區"
"242037","AAC-296","2018/09/25 20:39:10","新北市新莊區建安街26號","121.428763333333","25.0260916666667","6500500","新莊區"
"242058","986-R7","2018/09/25 20:39:13","新北市新莊區四維路186巷1號","121.422036666667","25.02107","6500500","新莊區"
"242056","751-BX","2018/09/25 20:39:12","新北市新莊區瓊泰路105號","121.44328","25.0300466666667","6500500","新莊區"
"242029","705-TV","2018/09/25 20:39:02","新北市新莊區昌隆街3巷1弄2號","121.4542","25.0513216666667","6500500","新莊區"
"242027","615-BX","2018/09/25 20:39:15","新北市新莊區思源路63號","121.459878333333","25.0403983333333","6500500","新莊區"
"242025","613-BX","2018/09/25 20:39:05","新北市新莊區化成路579巷1號","121.46429","25.0660716666667","6500500","新莊區"
"242044","566-BX","2018/09/25 20:39:12","新北市新莊區中正路新生巷85弄1號","121.417115","25.0217733333333","6500500","新莊區"
"242048","497-BY","2018/09/25 20:39:10","新北市新莊區中正路723-8號","121.423116666667","25.0289983333333","6500500","新莊區"
"242054","442-UM","2018/09/25 20:39:16","新北市新莊區西盛街345巷1弄7號","121.42842","25.0145933333333","6500500","新莊區"
"242039","415-TV","2018/09/25 20:39:05","新北市新莊區民安路381號","121.431865","25.0229666666667","6500500","新莊區"
"242009","413-TV","2018/09/25 20:39:09","新北市新莊區幸福路64巷4弄4號","121.45732","25.0499533333333","6500500","新莊區"
"242046","400-BY","2018/09/25 20:39:14","新北市新莊區裕民街49號","121.418868333333","25.0247933333333","6500500","新莊區"
"242023","362-BY","2018/09/25 20:39:01","新北市新莊區化成路528號","121.466235","25.0528033333333","6500500","新莊區"
"242061","353-BY","2018/09/25 20:39:07","新北市新莊區新樹路244巷8號","121.432","25.0183","6500500","新莊區"
"242042","133-UY","2018/09/25 20:39:05","新北市新莊區中正路694巷34號","121.418108333333","25.0288616666667","6500500","新莊區"
"242034","135-UY","2018/09/25 20:39:11","新北市新莊區中正路417號","121.444663333333","25.0344566666667","6500500","新莊區"
"242051","172-VK","2018/09/25 20:39:12","新北市新莊區民安西路148號","121.426175","25.01656","6500500","新莊區"
"242013","173-VK","2018/09/25 20:39:17","新北市新莊區中和街155巷24弄83號","121.446443333333","25.0515766666667","6500500","新莊區"
"242019","175-VK","2018/09/25 20:39:13","新北市新莊區銘德街140號","121.45465","25.042865","6500500","新莊區"
"242007","176-VK","2018/09/25 20:39:10","新北市新莊區福壽街26號","121.458265","25.0482383333333","6500500","新莊區"
"242017","346-TH","2018/09/25 20:39:15","新北市新莊區中港三街116號","121.448003333333","25.046095","6500500","新莊區"
"242032","347-TH","2018/09/25 20:39:09","新北市新莊區三泰路30-4號","121.438096666667","25.0351666666667","6500500","新莊區"
"242005","349-TH","2018/09/25 20:39:12","新北市新莊區福德二街1號","121.46303","25.0568266666667","6500500","新莊區"
"242021","350-TH","2018/09/25 20:39:02","新北市新莊區公園路82號","121.450211666667","25.0396366666667","6500500","新莊區"
"242015","351-TH","2018/09/25 20:39:03","新北市新莊區中平路82巷29號","121.44622","25.0449483333333","6500500","新莊區"
"221008","489-VK","2018/09/25 20:39:15","新北市汐止區康寧街467號","121.631758333333","25.06834","6501100","汐止區"
"221036","130-UY","2018/09/25 20:39:13","新北市汐止區新昌路85號","121.663935","25.0692083333333","6501100","汐止區"
"221015","131-UY","2018/09/25 20:39:07","新北市汐止區建成路26號","121.66448","25.0726183333333","6501100","汐止區"
"221010","269-BY","2018/09/25 20:39:11","新北市汐止區八連路一段270號","121.640403333333","25.0850566666667","6501100","汐止區"
"221023","279-VK","2018/09/25 20:39:15","新北市汐止區民族二街30巷23號","121.633831666667","25.0717133333333","6501100","汐止區"
"221032","280-BY","2018/09/25 20:39:17","新北市汐止區弘道街53巷30弄3號","121.619103333333","25.0500916666667","6501100","汐止區"
"221027","281-BY","2018/09/25 20:39:09","新北市汐止區大同路二段563-1號","121.662838333333","25.0699383333333","6501100","汐止區"
"221029","298-VK","2018/09/25 20:39:13","新北市汐止區新台五路一段79-8號","121.645825","25.0623066666667","6501100","汐止區"
"221021","299-VK","2018/09/25 20:39:05","新北市汐止區水源路一段284號","121.654103333333","25.05827","6501100","汐止區"
"221035","622-UM","2018/09/25 20:39:13","新北市汐止區長江街101-5號","121.658785","25.0731516666667","6501100","汐止區"
"221025","623-UM","2018/09/25 20:39:00","新北市汐止區水源路二段185號","121.657786666667","25.0535033333333","6501100","汐止區"
"221038","646-BX","2018/09/25 20:39:07","新北市汐止區汐萬路一段167號","121.652766666667","25.0709216666667","6501100","汐止區"
"221002","707-TV","2018/09/25 20:38:56","新北市汐止區福德二路138號","121.630771666667","25.0651966666667","6501100","汐止區"
"221018","753-BX","2018/09/25 20:39:11","新北市汐止區茄苳路103號","121.66745","25.0714583333333","6501100","汐止區"
"220083","286-VK","2018/09/25 20:39:08","新北市板橋區僑中二街108巷13號","121.445193333333","25.0072016666667","6500100","板橋區"
"220103","295-UM","2018/09/25 20:39:17","新北市板橋區漢生東路63巷28號","121.466961666667","25.017225","6500100","板橋區"
"242002","281-VK","2018/09/25 20:39:17","新北市新莊區中正路94號","121.455241666667","25.0367233333333","6500500","新莊區"
"242011","280-VK","2018/09/25 20:39:19","新北市新莊區中榮街104巷23號","121.446793333333","25.0537383333333","6500500","新莊區"
"220070","AAC-253","2018/09/25 20:39:06","新北市五股區凌雲路三段24巷7號","121.438435","25.1063433333333","6500100","板橋區"
