"lineid","car","time","location","longitude","latitude","cityid","cityname"
"234005","693-BX","2018/09/25 20:59:06","新北市永和區福和路1號","121.526595","25.0098016666667","6500400","永和區"
"249002","305-UY","2018/09/25 20:56:46","新北市八里區中山路三段409號","121.368691666667","25.1347983333333","6502300","八里區"
"231059","046-UY","2018/09/25 20:59:05","新北市新店區僑信路132巷1號","121.500716666667","24.9457483333333","6500600","新店區"
"231040","047-UY","2018/09/25 20:59:12","新北市新店區中正路205號","121.540236666667","24.972595","6500600","新店區"
"231053","108-UY","2018/09/25 20:59:11","新北市新店區環河路16號","121.537461666667","24.9615266666667","6500600","新店區"
"231048","187-VK","2018/09/25 20:59:10","新北市新店區寶元路一段109號","121.545705","24.9831516666667","6500600","新店區"
"231054","KEA-2219","2018/09/25 20:59:07","新北市新店區大新街18號","121.543013333333","24.968565","6500600","新店區"
"231042","268-BY","2018/09/25 20:59:06","新北市新店區寶高路102巷20號","121.552575","24.974025","6500600","新店區"
"231051","278-BY","2018/09/25 20:59:01","新北市新店區中正路663巷1弄2號","121.53291","24.9900033333333","6500600","新店區"
"231050","AAD-862","2018/09/25 20:58:57","新北市新店區三民路77號","121.536015","24.9714883333333","6500600","新店區"
"231043","355-BY","2018/09/25 20:59:05","新北市新店區中正路358號","121.535595","24.97574","6500600","新店區"
"231058","3713-VJ","2018/09/25 20:55:53","新北市新店區安康路二段362號","121.501718333333","24.9575116666667","6500600","新店區"
"231066","4716-K9","2018/09/25 20:59:05","新北市新店區吉安街10號","121.516828333333","24.9657516666667","6500600","新店區"
"231067","4772-VM","2018/09/25 20:59:01","新北市新店區安德街148巷12弄1號","121.507825","24.9601383333333","6500600","新店區"
"231065","512-UM","2018/09/25 20:59:04","新北市新店區安祥路69巷48號","121.48204","24.9601183333333","6500600","新店區"
"231049","513-UM","2018/09/25 20:59:14","新北市新店區永業路81巷1弄1-1號","121.529431666667","24.9492783333333","6500600","新店區"
"231063","616-UM","2018/09/25 20:59:17","新北市新店區如意街3巷11-1號","121.496268333333","24.9492666666667","6500600","新店區"
"231061","619-UM","2018/09/25 20:59:15","新北市新店區永安街64號","121.51942","24.9868433333333","6500600","新店區"
"231068","718-UY","2018/09/25 20:59:14","新北市新店區寶元路二段64巷1號","121.547275","24.98109","6500600","新店區"
"231064","719-UM","2018/09/25 20:54:23","新北市新店區安和路二段173號","121.518565","24.97457","6500600","新店區"
"231062","720-UM","2018/09/25 20:59:11","新北市新店區裕合街74號","121.490296666667","24.9485216666667","6500600","新店區"
"231060","897-TW","2018/09/25 20:59:15","新北市新店區安康路三段461號","121.482851666667","24.9493866666667","6500600","新店區"
"241011","013-R5","2018/09/25 20:59:15","新北市三重區秀江街119號","121.499715","25.0722033333333","6500200","三重區"
"241028","022-UY","2018/09/25 20:59:08","新北市三重區重新路二段94號","121.497163333333","25.0618866666667","6500200","三重區"
"241008","059-VK","2018/09/25 20:59:05","新北市三重區下竹圍街4號","121.480868333333","25.076315","6500200","三重區"
"241031","061-VK","2018/09/25 20:59:05","新北市三重區重陽路一段113巷2弄2號","121.487516666667","25.059845","6500200","三重區"
"241015","062-VK","2018/09/25 20:59:17","新北市三重區福德北路65號","121.502053333333","25.0655666666667","6500200","三重區"
"241017","063-VK","2018/09/25 20:59:03","新北市三重區大智街49號","121.492805","25.06751","6500200","三重區"
"241024","065-VK","2018/09/25 20:58:59","新北市三重區大勇街82巷15弄30號","121.481233333333","25.07194","6500200","三重區"
"241002","090-VK","2018/09/25 20:59:16","新北市三重區五華街1巷74號","121.496871666667","25.080465","6500200","三重區"
"241003","091-VK","2018/09/25 20:59:08","新北市三重區進安街198號","121.493853333333","25.085975","6500200","三重區"
"251014","742-BX","2018/09/25 20:58:58","新北市淡水區溪口16號","121.455733333333","25.2365566666667","6501000","淡水區"
"241005","262-UM","2018/09/25 20:59:07","新北市三重區五華街169號","121.49013","25.0850833333333","6500200","三重區"
"241016","266-UM","2018/09/25 20:59:07","新北市三重區自強路一段89號","121.496081666667","25.0663583333333","6500200","三重區"
"241009","267-UM","2018/09/25 20:59:07","新北市三重區三和路四段324號","121.483853333333","25.0780266666667","6500200","三重區"
"241018","268-UM","2018/09/25 20:59:03","新北市三重區雙園街99號","121.493808333333","25.06727","6500200","三重區"
"241032","269-UM","2018/09/25 20:59:05","新北市三重區三陽路118號","121.482985","25.058805","6500200","三重區"
"241013","270-UM","2018/09/25 20:59:05","新北市三重區仁賢街12-1號","121.495648333333","25.07487","6500200","三重區"
"241025","271-UM","2018/09/25 20:59:03","新北市三重區貴陽街18-1號","121.484178333333","25.0619133333333","6500200","三重區"
"241007","398-BY","2018/09/25 20:59:13","新北市三重區慈愛街39號","121.485426666667","25.078845","6500200","三重區"
"241004","475-VK","2018/09/25 20:59:00","新北市三重區仁愛街423-1號","121.490371666667","25.0814716666667","6500200","三重區"
"241020","478-VK","2018/09/25 20:59:04","新北市三重區忠孝路二段34號","121.485693333333","25.07101","6500200","三重區"
"241030","480-VK","2018/09/25 20:59:08","新北市三重區環河南路220-8號","121.493391666667","25.0527266666667","6500200","三重區"
"241014","543-UM","2018/09/25 20:59:05","新北市三重區長壽街120巷19弄9號","121.502485","25.0691683333333","6500200","三重區"
"241023","545-UM","2018/09/25 20:59:00","新北市三重區洛陽街45巷15號","121.48236","25.0637616666667","6500200","三重區"
"241001","547-UM","2018/09/25 20:59:06","新北市三重區自強路三段87巷14號","121.488123333333","25.0749633333333","6500200","三重區"
"241019","KEA-2593","2018/09/25 20:59:16","新北市三重區三張街104號","121.48792","25.0698966666667","6500200","三重區"
"241006","AAD-863","2018/09/25 20:59:09","新北市三重區永福街58巷3弄20號","121.480626666667","25.0773833333333","6500200","三重區"
"241026","743-BX","2018/09/25 20:59:13","新北市三重區文化南路31-1號","121.500208333333","25.06166","6500200","三重區"
"241022","887-TS","2018/09/25 20:59:14","新北市三重區中正北路20巷12號","121.487956666667","25.06248","6500200","三重區"
"241012","941-UM","2018/09/25 20:59:07","新北市三重區龍門路274巷45號","121.501226666667","25.0755166666667","6500200","三重區"
"241029","942-UM","2018/09/25 20:59:04","新北市三重區正義南路111號","121.498225","25.0585566666667","6500200","三重區"
"241033","AAC-255","2018/09/25 20:59:16","新北市三重區光復路二段2號","121.472176666667","25.0533516666667","6500200","三重區"
"235040","150-BY","2018/09/25 20:59:07","新北市中和區員山路36巷13號","121.48403","24.991035","6500300","中和區"
"247012","KEA-2869","2018/09/25 20:59:06","新北市蘆洲區民權路6號","121.476925","25.0855233333333","6501400","蘆洲區"
"235069","4980-A6","2018/09/25 20:59:08","新北市中和區連城路469巷44弄12號","121.48276","24.9945783333333","6500300","中和區"
"247002","893-R6","2018/09/25 20:59:15","新北市蘆洲區永樂街38巷8號","121.4581","25.0887883333333","6501400","蘆洲區"
"247016","546-UM","2018/09/25 20:59:11","新北市蘆洲區正和街79號","121.46832","25.0808466666667","6501400","蘆洲區"
"247024","500-BY","2018/09/25 20:59:14","新北市蘆洲區光明路20號","121.461218333333","25.0864016666667","6501400","蘆洲區"
"247014","339-TH","2018/09/25 20:59:07","新北市蘆洲區中山二路36巷35號","121.474073333333","25.0833833333333","6501400","蘆洲區"
"247006","337-TH","2018/09/25 20:59:10","新北市蘆洲區永安南路二段16巷8號","121.46774","25.077215","6501400","蘆洲區"
"247008","336-TH","2018/09/25 20:59:10","新北市蘆洲區民生街125號","121.472786666667","25.07903","6501400","蘆洲區"
"247020","057-VK","2018/09/25 20:59:01","新北市蘆洲區民族路488號","121.470976666667","25.091205","6501400","蘆洲區"
"247010","056-VK","2018/09/25 20:59:09","新北市蘆洲區鷺江街76號","121.47703","25.08382","6501400","蘆洲區"
"247018","007-UY","2018/09/25 20:59:17","新北市蘆洲區民權路87號","121.473138333333","25.0887583333333","6501400","蘆洲區"
"247004","002-UY","2018/09/25 20:59:13","新北市蘆洲區永安南路二段268號","121.45869","25.08075","6501400","蘆洲區"
"247022","001-UY","2018/09/25 20:59:13","新北市蘆洲區三民路230號","121.468695","25.0896316666667","6501400","蘆洲區"
"251005","010-UM","2018/09/25 20:59:12","新北市淡水區學府路51巷2弄16號","121.447963333333","25.1700166666667","6501000","淡水區"
"251002","012-UM","2018/09/25 20:59:11","新北市淡水區英專路69號","121.445676666667","25.17126","6501000","淡水區"
"251013","KEA-2871","2018/09/25 20:59:16","新北市淡水區行忠路506號","121.466378333333","25.1991683333333","6501000","淡水區"
"251016","179-VK","2018/09/25 20:59:05","新北市淡水區牛埔子11-1號","121.450348333333","25.21848","6501000","淡水區"
"251015","180-VK","2018/09/25 20:59:18","新北市淡水區淡金路四段542巷17號","121.452718333333","25.2271","6501000","淡水區"
"251010","413-VK","2018/09/25 20:59:12","新北市淡水區中正路一段118-3號","121.42383","25.17881","6501000","淡水區"
"251012","441-VK","2018/09/25 20:59:03","新北市淡水區淡金路五段108號","121.456461666667","25.2366183333333","6501000","淡水區"
"251007","442-VK","2018/09/25 20:59:01","新北市淡水區仁愛街2巷41號","121.446758333333","25.1718516666667","6501000","淡水區"
"251001","559-UM","2018/09/25 20:59:12","新北市淡水區淡金路二段66-1號","121.450321666667","25.1825166666667","6501000","淡水區"
"251009","575-R6","2018/09/25 20:59:10","新北市淡水區民族路176號","121.46181","25.1338316666667","6501000","淡水區"
"251011","650-BX","2018/09/25 20:59:07","新北市淡水區新民街324號","121.435073333333","25.18401","6501000","淡水區"
"251003","673-BX","2018/09/25 20:59:12","新北市淡水區新春街125巷5號","121.441461666667","25.18238","6501000","淡水區"
"242039","415-TV","2018/09/25 20:59:04","新北市新莊區新樹路453號","121.432655","25.0134533333333","6500500","新莊區"
"242005","349-TH","2018/09/25 20:59:12","新北市八里區中山路三段112號","121.388121666667","25.1467333333333","6500500","新莊區"
"221018","753-BX","2018/09/25 20:59:11","新北市汐止區汐萬路一段256巷3號","121.653395","25.0746816666667","6501100","汐止區"
"220070","AAC-253","2018/09/25 20:59:06","新北市林口區太平里180號","121.368343333333","25.1346616666667","6500100","板橋區"
