"lineid","car","time","location","longitude","latitude","cityid","cityname"
"234005","693-BX","2018/09/25 21:09:07","新北市永和區福和路1號","121.526585","25.0098","6500400","永和區"
"249002","305-UY","2018/09/25 21:09:06","新北市八里區中山路三段333號","121.377358333333","25.1404666666667","6502300","八里區"
"243006","680-BX","2018/09/25 21:09:11","新北市泰山區黎明路25號","121.422038333333","25.0606066666667","6501600","泰山區"
"231059","046-UY","2018/09/25 21:09:13","新北市新店區僑義路1-1號","121.499825","24.9524016666667","6500600","新店區"
"231040","047-UY","2018/09/25 21:09:12","新北市新店區北新路一段100號","121.542126666667","24.969395","6500600","新店區"
"231053","108-UY","2018/09/25 21:09:11","新北市新店區安康路二段320巷15弄18號","121.502158333333","24.95901","6500600","新店區"
"231048","187-VK","2018/09/25 21:09:10","新北市新店區中興路三段156號","121.544556666667","24.98067","6500600","新店區"
"231054","KEA-2219","2018/09/25 21:09:07","新北市新店區大新街7巷38號","121.544371666667","24.967655","6500600","新店區"
"231042","268-BY","2018/09/25 21:09:06","新北市新店區寶興路60巷4號","121.549831666667","24.9718666666667","6500600","新店區"
"231051","278-BY","2018/09/25 21:09:01","新北市新店區中正路700巷82號","121.536058333333","24.9932033333333","6500600","新店區"
"231050","AAD-862","2018/09/25 21:08:57","新北市新店區中華路147號","121.538191666667","24.9704116666667","6500600","新店區"
"231043","355-BY","2018/09/25 21:09:05","新北市新店區薏仁坑路6號","121.500241666667","24.9580783333333","6500600","新店區"
"231066","4716-K9","2018/09/25 21:09:05","新北市新店區安康路二段320巷15弄18號","121.502395","24.9591366666667","6500600","新店區"
"231067","4772-VM","2018/09/25 21:09:01","新北市新店區薏仁坑路6-3號","121.499531666667","24.9588283333333","6500600","新店區"
"231065","512-UM","2018/09/25 21:09:04","新北市新店區安祥路69巷52弄1號","121.48192","24.9598133333333","6500600","新店區"
"231063","616-UM","2018/09/25 21:09:17","新北市新店區玫瑰路61巷2號","121.49595","24.9451783333333","6500600","新店區"
"231061","619-UM","2018/09/25 21:09:15","新北市新店區永平街30號","121.516326666667","24.9838616666667","6500600","新店區"
"231064","719-UM","2018/09/25 21:08:19","新北市新店區薏仁坑路自強巷1號","121.497096666667","24.95795","6500600","新店區"
"231062","720-UM","2018/09/25 21:09:11","新北市新店區雙城路21號","121.49233","24.9500316666667","6500600","新店區"
"231060","897-TW","2018/09/25 21:09:15","新北市新店區安康路二段317-1號","121.499243333333","24.9565266666667","6500600","新店區"
"241011","013-R5","2018/09/25 21:08:55","新北市三重區龍濱路170號","121.501221666667","25.0726633333333","6500200","三重區"
"241028","022-UY","2018/09/25 21:09:08","新北市三重區正義南路53號","121.498225","25.0606516666667","6500200","三重區"
"241008","059-VK","2018/09/25 21:09:05","新北市三重區自強路三段83號","121.487421666667","25.0748416666667","6500200","三重區"
"241031","061-VK","2018/09/25 21:09:04","新北市三重區重新路五段283號","121.479431666667","25.04929","6500200","三重區"
"241015","062-VK","2018/09/25 21:09:17","新北市三重區三和路一段101號","121.502163333333","25.0665016666667","6500200","三重區"
"241017","063-VK","2018/09/25 21:09:03","新北市三重區國隆路31號","121.492306666667","25.0644383333333","6500200","三重區"
"241024","065-VK","2018/09/25 21:08:59","新北市三重區大勇街82巷15弄30號","121.481213333333","25.071935","6500200","三重區"
"241002","090-VK","2018/09/25 21:09:16","新北市三重區五華街19號","121.495011666667","25.0803983333333","6500200","三重區"
"241003","091-VK","2018/09/25 21:09:08","新北市三重區仁義街228巷2號","121.494881666667","25.0847533333333","6500200","三重區"
"251014","742-BX","2018/09/25 21:09:10","新北市淡水區六塊厝2-2號","121.450188333333","25.2408816666667","6501000","淡水區"
"241005","262-UM","2018/09/25 21:09:07","新北市三重區三信路182號","121.488091666667","25.0861083333333","6500200","三重區"
"241016","266-UM","2018/09/25 21:08:47","新北市三重區信義西街118號","121.495703333333","25.064265","6500200","三重區"
"241009","267-UM","2018/09/25 21:09:07","新北市三重區力行路一段189號","121.48342","25.0698266666667","6500200","三重區"
"241018","268-UM","2018/09/25 21:09:03","新北市三重區正義北路332-1號","121.49432","25.0705666666667","6500200","三重區"
"241032","269-UM","2018/09/25 21:09:05","新北市三重區新北大道一段190-1號","121.48254","25.0616","6500200","三重區"
"241013","270-UM","2018/09/25 21:09:04","新北市三重區仁愛街125巷10號","121.496591666667","25.0756966666667","6500200","三重區"
"241025","271-UM","2018/09/25 21:09:03","新北市三重區中正北路208巷10弄4號","121.482363333333","25.06689","6500200","三重區"
"241007","398-BY","2018/09/25 21:09:13","新北市三重區三和路四段145巷81號","121.486368333333","25.0787483333333","6500200","三重區"
"241004","475-VK","2018/09/25 21:09:00","新北市三重區仁愛街423-1號","121.49038","25.0814583333333","6500200","三重區"
"241020","478-VK","2018/09/25 21:09:04","新北市三重區忠孝路二段34號","121.48567","25.0709733333333","6500200","三重區"
"241030","480-VK","2018/09/25 21:09:08","新北市三重區五谷王北街20巷15弄1號","121.475036666667","25.0484366666667","6500200","三重區"
"241014","543-UM","2018/09/25 21:09:05","新北市三重區長安街82-1號","121.50135","25.067705","6500200","三重區"
"241023","545-UM","2018/09/25 21:09:00","新北市三重區洛陽街45巷15號","121.482371666667","25.0637683333333","6500200","三重區"
"241001","547-UM","2018/09/25 21:09:06","新北市三重區福隆路50號","121.492438333333","25.0784033333333","6500200","三重區"
"241019","KEA-2593","2018/09/25 21:09:16","新北市三重區自強路二段74巷21號","121.487965","25.0698733333333","6500200","三重區"
"241006","AAD-863","2018/09/25 21:09:09","新北市三重區中正北路2號","121.489265","25.0632","6500200","三重區"
"241026","743-BX","2018/09/25 21:09:04","新北市三重區文化南路45號","121.500223333333","25.06139","6500200","三重區"
"241022","887-TS","2018/09/25 21:09:14","新北市三重區中正北路64巷24號","121.486056666667","25.0636733333333","6500200","三重區"
"241012","941-UM","2018/09/25 21:09:06","新北市三重區仁信街27號","121.501266666667","25.07553","6500200","三重區"
"241029","942-UM","2018/09/25 21:09:04","新北市三重區正義南路111號","121.498201666667","25.05855","6500200","三重區"
"241033","AAC-255","2018/09/25 21:09:19","新北市三重區重光街107-1號","121.466363333333","25.0647383333333","6500200","三重區"
"235040","150-BY","2018/09/25 21:09:07","新北市中和區員山路36巷13號","121.484305","24.9905783333333","6500300","中和區"
"247012","KEA-2869","2018/09/25 21:09:06","新北市蘆洲區民權路5號","121.476686666667","25.0857233333333","6501400","蘆洲區"
"235010","733-UM","2018/09/25 21:09:05","新北市中和區員山路36巷13號","121.484115","24.99084","6500300","中和區"
"247002","893-R6","2018/09/25 21:09:15","新北市蘆洲區永樂街38巷40號","121.458641666667","25.0900266666667","6501400","蘆洲區"
"247016","546-UM","2018/09/25 21:09:11","新北市蘆洲區中正路185巷98號","121.465161666667","25.083685","6501400","蘆洲區"
"247024","500-BY","2018/09/25 21:09:14","新北市蘆洲區長興路50巷1號","121.463766666667","25.0838033333333","6501400","蘆洲區"
"247014","339-TH","2018/09/25 21:09:07","新北市蘆洲區中央路155號","121.472663333333","25.0846883333333","6501400","蘆洲區"
"247006","337-TH","2018/09/25 21:09:10","新北市蘆洲區和平路91號","121.468106666667","25.078635","6501400","蘆洲區"
"247008","336-TH","2018/09/25 21:09:13","新北市蘆洲區民生街28號","121.474846666667","25.078895","6501400","蘆洲區"
"247020","057-VK","2018/09/25 21:09:05","新北市蘆洲區民族路476號","121.471616666667","25.0915816666667","6501400","蘆洲區"
"247010","056-VK","2018/09/25 21:09:09","新北市蘆洲區鷺江街38號","121.477431666667","25.0830766666667","6501400","蘆洲區"
"247018","007-UY","2018/09/25 21:09:17","新北市蘆洲區民族路408巷6號","121.474795","25.0918066666667","6501400","蘆洲區"
"247004","002-UY","2018/09/25 21:09:13","新北市蘆洲區永安南路二段286號","121.457718333333","25.0812716666667","6501400","蘆洲區"
"247022","001-UY","2018/09/25 21:09:13","新北市蘆洲區三民路251號","121.468293333333","25.0892733333333","6501400","蘆洲區"
"251005","010-UM","2018/09/25 21:09:12","新北市淡水區博愛街47號","121.446658333333","25.16914","6501000","淡水區"
"251002","012-UM","2018/09/25 21:09:11","新北市淡水區水源街一段160號","121.448685","25.1713383333333","6501000","淡水區"
"251013","KEA-2871","2018/09/25 21:09:16","新北市淡水區行忠路328號","121.460451666667","25.1996283333333","6501000","淡水區"
"251016","179-VK","2018/09/25 21:09:10","新北市淡水區前洲子11號","121.441446666667","25.2190766666667","6501000","淡水區"
"251015","180-VK","2018/09/25 21:09:15","新北市淡水區淡金路四段542巷90號","121.45461","25.22535","6501000","淡水區"
"251010","413-VK","2018/09/25 21:09:12","新北市淡水區中正路一段49號","121.424403333333","25.17757","6501000","淡水區"
"251012","441-VK","2018/09/25 21:09:18","新北市淡水區淡金路五段172號","121.45705","25.2400483333333","6501000","淡水區"
"251007","442-VK","2018/09/25 21:09:01","新北市淡水區水源街一段157號","121.447691666667","25.171695","6501000","淡水區"
"251001","559-UM","2018/09/25 21:09:12","新北市淡水區新市一路三段101巷16弄14號","121.446725","25.1838383333333","6501000","淡水區"
"251009","575-R6","2018/09/25 21:09:10","新北市淡水區民族路112巷38號","121.461978333333","25.1344616666667","6501000","淡水區"
"251011","650-BX","2018/09/25 21:09:07","新北市淡水區新民街222巷16弄6號","121.437041666667","25.180095","6501000","淡水區"
"251003","673-BX","2018/09/25 21:09:12","新北市淡水區新春街94號","121.438968333333","25.1824566666667","6501000","淡水區"
"220070","AAC-253","2018/09/25 21:09:06","新北市八里區中華路三段62號","121.394321666667","25.14085","6500100","板橋區"
