"lineid","car","time","location","longitude","latitude","cityid","cityname"
"248005","653-BX","2018/05/15 08:43:53","新北市五股區明德路10號","121.43339","25.0717516666667","6501500","五股區"
"222004","289-BY","2018/05/15 08:52:14","新北市深坑區大崙尾1-1號","121.615511666667","24.97535","6501800","深坑區"
"231007","189-VK","2018/05/15 08:59:00","新北市新店區新潭路三段220號","121.503258333333","24.9048633333333","6500600","新店區"
"231009","192-VK","2018/05/15 08:59:04","新北市新店區廣興路5巷11號","121.54596","24.9125083333333","6500600","新店區"
"235001","611-BX","2018/05/15 08:58:51","新北市中和區莒光路207號","121.470058333333","24.9956583333333","6500300","中和區"
"226002","7418-A5","2018/05/15 08:41:20","新北市平溪區東勢里東勢格12號","121.732658333333","25.0005566666667","6502400","平溪區"
"226006","AGD-0702","2018/05/15 08:59:05","新北市平溪區嶺腳里嶺腳寮85號","121.749371666667","25.03535","6502400","平溪區"
"223001","205-TH","2018/05/15 08:59:03","新北市石碇區北宜路六段小金瓜寮巷1號","121.650091666667","24.94373","6501900","石碇區"
"223008","406-TH","2018/05/15 08:59:02","新北市石碇區光明路28號","121.695233333333","25.0237766666667","6501900","石碇區"
"223001","592-UM","2018/05/15 08:59:02","新北市石碇區北宜路六段十三股巷1號","121.649003333333","24.947815","6501900","石碇區"
"223004","660-BX","2018/05/15 08:58:57","新北市石碇區崩山58號","121.687346666667","24.9663283333333","6501900","石碇區"
"223005","677-TV","2018/05/15 08:59:05","新北市石碇區磨石坑39-3號","121.689031666667","24.9651616666667","6501900","石碇區"
"227006","282-VK","2018/05/15 08:58:55","新北市雙溪區上林里內平林133號","121.820968333333","25.02474","6502500","雙溪區"
"227012","030-BX","2018/05/15 08:55:54","新北市雙溪區泰平里料角坑32號","121.795018333333","24.9756833333333","6502500","雙溪區"
"252004","249-BX","2018/05/15 08:58:50","新北市三芝區興華里田心子31號","121.488846666667","25.2004366666667","6502100","三芝區"
"252007","AAC-283","2018/05/15 08:58:56","新北市三芝區後厝里北勢子25號","121.4748","25.2510183333333","6502100","三芝區"
"237001","159-UY","2018/05/15 08:59:04","新北市三峽區學府路126號","121.37482","24.948955","6500900","三峽區"
"236008","165-UM","2018/05/15 08:59:06","新北市土城區金城路一段150-9號","121.44626","24.9744083333333","6501300","土城區"
"236002","339-SR","2018/05/15 08:59:05","新北市土城區學府路二段251號","121.44526","24.9783233333333","6501300","土城區"
"236006","498-BY","2018/05/15 08:59:07","新北市土城區承天路23號","121.436538333333","24.9656283333333","6501300","土城區"
"220018","282-UM","2018/05/15 08:59:03","新北市板橋區大觀路二段37巷282-17號","121.45182","25.0007466666667","6500100","板橋區"
