"lineid","car","time","location","longitude","latitude","cityid","cityname"
"248005","653-BX","2018/05/15 09:39:00","新北市五股區成泰路一段7巷38號","121.432673333333","25.067055","6501500","五股區"
"222004","289-BY","2018/05/15 09:38:54","新北市深坑區阿柔洋60號","121.60758","24.9965016666667","6501800","深坑區"
"231007","189-VK","2018/05/15 09:39:00","新北市新店區新潭路三段215巷25號","121.508131666667","24.904095","6500600","新店區"
"231009","192-VK","2018/05/15 09:37:44","新北市新店區平廣路一段256號","121.507458333333","24.8880716666667","6500600","新店區"
"223005","677-TV","2018/05/15 09:34:43","新北市石碇區小粗坑(潭邊里)6號","121.675075","24.9841883333333","6501900","石碇區"
"227006","282-VK","2018/05/15 09:34:35","新北市雙溪區長源里柑腳58-1號","121.79391","25.0063716666667","6502500","雙溪區"
"227012","030-BX","2018/05/15 09:38:54","新北市坪林區鷺鶿岫4-2號","121.785501666667","24.9553966666667","6502500","雙溪區"
"252004","249-BX","2018/05/15 09:38:50","新北市三芝區圓山里石曹子坑69-1號","121.522265","25.2150466666667","6502100","三芝區"
"252007","AAC-283","2018/05/15 09:38:56","新北市三芝區茂長里陳厝坑2-2號","121.507833333333","25.2659066666667","6502100","三芝區"
"237001","159-UY","2018/05/15 09:39:04","新北市樹林區中山路三段210-2號","121.38083","24.9668833333333","6500900","三峽區"
"236006","498-BY","2018/05/15 09:39:07","新北市土城區千歲路15號","121.441243333333","24.9694566666667","6501300","土城區"
