"lineid","car","time","location","longitude","latitude","cityid","cityname"
"248005","653-BX","2018/05/15 10:09:00","新北市五股區中興路二段37巷26號","121.460581666667","25.07507","6501500","五股區"
"231007","189-VK","2018/05/15 10:09:00","新北市新店區新潭路三段181號","121.508851666667","24.905475","6500600","新店區"
"231009","192-VK","2018/05/15 10:09:04","新北市新店區平廣路一段35巷7號","121.533598333333","24.90202","6500600","新店區"
"227006","282-VK","2018/05/15 10:08:55","新北市雙溪區外柑里外柑腳74號","121.807313333333","25.0176416666667","6502500","雙溪區"
"227012","030-BX","2018/05/15 10:01:54","新北市雙溪區泰平里烏山路13-1號","121.793511666667","24.9487366666667","6502500","雙溪區"
"252004","249-BX","2018/05/15 10:08:50","新北市三芝區福德里埔尾4號","121.503396666667","25.246995","6502100","三芝區"
"252007","AAC-283","2018/05/15 10:08:56","新北市三芝區新庄里番社后15-1號","121.49829","25.2681116666667","6502100","三芝區"
