"lineid","car","time","location","longitude","latitude","cityid","cityname"
"234036","336-UY","2018/05/15 12:29:26","新北市永和區福和路1號","121.526525","25.0101516666667","6500400","永和區"
"234084","338-UY","2018/05/15 12:29:21","新北市永和區環河東路二段102號","121.524196666667","25.0102616666667","6500400","永和區"
"234068","552-UM","2018/05/15 12:29:40","新北市永和區福和路1號","121.525411666667","25.0095833333333","6500400","永和區"
"234015","745-BX","2018/05/15 12:29:31","新北市永和區福和路1號","121.526326666667","25.0095833333333","6500400","永和區"
"234001","862-TW","2018/05/15 12:29:35","新北市永和區福和路12巷2號","121.524496666667","25.0086533333333","6500400","永和區"
"234048","863-TW","2018/05/15 12:29:42","新北市永和區福和路1號","121.526576666667","25.010045","6500400","永和區"
"234076","969-R7","2018/05/15 12:29:41","新北市永和區自由街16號","121.514628333333","25.0067566666667","6500400","永和區"
"234072","AAC-211","2018/05/15 12:29:26","新北市永和區福和路1號","121.526573333333","25.00996","6500400","永和區"
"234066","AAC-212","2018/05/15 12:29:41","新北市永和區福和路1號","121.526396666667","25.0096733333333","6500400","永和區"
"228004","212-TW","2018/05/15 12:29:08","新北市貢寮區龍崗里嵩陽街33號","121.904053333333","25.01808","6502600","貢寮區"
"228005","828-UM","2018/05/15 12:29:42","新北市貢寮區福連里蓬萊街19號","121.974375","24.989385","6502600","貢寮區"
"207002","749-BX","2018/05/15 12:29:21","新北市萬里區雙興里太和路7-2號","121.658586666667","25.1739616666667","6502800","萬里區"
