"lineid","car","time","location","longitude","latitude","cityid","cityname"
"234044","148-BY","2018/05/15 12:49:40","新北市永和區永元路52巷48號","121.524296666667","25.0008316666667","6500400","永和區"
"234005","207-UY","2018/05/15 12:49:31","新北市永和區文化路164號","121.512165","25.0153933333333","6500400","永和區"
"234078","298-R6","2018/05/15 12:49:38","新北市永和區林森路122號","121.522465","25.0031483333333","6500400","永和區"
"234036","336-UY","2018/05/15 12:49:26","新北市永和區福和路1號","121.525373333333","25.0086","6500400","永和區"
"234062","337-UY","2018/05/15 12:49:40","新北市永和區福和路1號","121.525406666667","25.0097","6500400","永和區"
"234084","338-UY","2018/05/15 12:49:41","新北市永和區中正路49號","121.514576666667","24.996195","6500400","永和區"
"234068","552-UM","2018/05/15 12:49:40","新北市永和區竹林路153號","121.52043","25.0104133333333","6500400","永和區"
"234015","745-BX","2018/05/15 12:49:31","新北市永和區永和路二段393-1號","121.51562","25.01661","6500400","永和區"
"234028","746-BX","2018/05/15 12:49:32","新北市永和區得和路321號","121.5234","24.99959","6500400","永和區"
"234052","KEA-2590","2018/05/15 12:49:28","新北市永和區豫溪街191巷1弄2號","121.523215","25.0104516666667","6500400","永和區"
"234012","KEA-2591","2018/05/15 12:49:38","新北市永和區保福路二段133巷20號","121.509185","25.0136116666667","6500400","永和區"
"234060","AAD-866","2018/05/15 12:49:24","新北市永和區福和路309巷1號","121.516391666667","25.0070166666667","6500400","永和區"
"234001","862-TW","2018/05/15 12:49:35","新北市永和區永貞路308號","121.511805","25.0048583333333","6500400","永和區"
"234048","863-TW","2018/05/15 12:49:42","新北市永和區保安路2號","121.510813333333","25.0173883333333","6500400","永和區"
"234025","9371-KE","2018/05/15 12:49:26","新北市永和區中正路700號","121.51637","25.00993","6500400","永和區"
"234010","9373-KE","2018/05/15 12:49:14","新北市永和區保福路二段158巷1號","121.509145","25.01505","6500400","永和區"
"248017","225-UY","2018/05/15 12:49:24","新北市五股區中興路二段83巷26-6號","121.460053333333","25.0753133333333","6501500","五股區"
"234022","9380-KE","2018/05/15 12:49:27","新北市永和區竹林路119巷53弄12號","121.52235","25.0121033333333","6500400","永和區"
"234076","969-R7","2018/05/15 12:49:23","新北市永和區中正路4號","121.51235","24.9935283333333","6500400","永和區"
"234072","AAC-211","2018/05/15 12:49:26","新北市永和區福和路1號","121.525761666667","25.0093866666667","6500400","永和區"
"234066","AAC-212","2018/05/15 12:49:41","新北市永和區中和路625號","121.51294","25.00484","6500400","永和區"
"234001","AAC-295","2018/05/15 12:49:38","新北市永和區中正路655號","121.514995","25.01017","6500400","永和區"
"231028","046-UY","2018/05/15 12:49:34","新北市新店區安一路一段1-1號","121.519715","24.961115","6500600","新店區"
"231001","047-UY","2018/05/15 12:49:31","新北市新店區安華路28-1號","121.519276666667","24.96084","6500600","新店區"
"231005","106-UY","2018/05/15 12:49:36","新北市新店區安華路28-1號","121.519711666667","24.9609","6500600","新店區"
"231010","107-UY","2018/05/15 12:49:42","新北市新店區安一路一段1-1號","121.51952","24.9613383333333","6500600","新店區"
"231020","108-UY","2018/05/15 12:49:33","新北市新店區安一路一段1-1號","121.519718333333","24.961155","6500600","新店區"
"231012","187-VK","2018/05/15 12:49:22","新北市新店區安一路一段1-1號","121.51956","24.9614433333333","6500600","新店區"
"231023","KEA-2219","2018/05/15 12:49:31","新北市新店區安一路一段1-1號","121.520065","24.9611416666667","6500600","新店區"
"231003","268-BY","2018/05/15 12:49:29","新北市新店區安華路28-1號","121.519336666667","24.9606466666667","6500600","新店區"
"231018","278-BY","2018/05/15 12:49:34","新北市新店區安一路一段1-1號","121.51986","24.961335","6500600","新店區"
"231015","AAD-862","2018/05/15 12:49:29","新北市新店區安華路28-1號","121.519955","24.961045","6500600","新店區"
"231025","4715-K9","2018/05/15 12:49:31","新北市新店區安華路28-1號","121.519176666667","24.9605916666667","6500600","新店區"
"231036","512-UM","2018/05/15 12:49:30","新北市新店區安一路一段1-1號","121.519191666667","24.9612816666667","6500600","新店區"
"231013","513-UM","2018/05/15 12:49:41","新北市新店區安一路一段1-1號","121.519748333333","24.9613666666667","6500600","新店區"
"231035","719-UM","2018/05/15 12:49:10","新北市新店區安一路一段1-1號","121.519706666667","24.9614766666667","6500600","新店區"
"231032","720-UM","2018/05/15 12:49:27","新北市新店區安一路一段1-1號","121.519276666667","24.961215","6500600","新店區"
"231029","897-TW","2018/05/15 12:49:30","新北市新店區安華路28-1號","121.51972","24.9607","6500600","新店區"
"235027","006-UY","2018/05/15 12:49:30","新北市中和區員山路36巷16-3號","121.485025","24.9913216666667","6500300","中和區"
"235002","185-VK","2018/05/15 12:49:29","新北市中和區錦和路216號","121.490193333333","24.99405","6500300","中和區"
"235031","255-BX","2018/05/15 12:49:35","新北市中和區新民街90號","121.481883333333","25.0080916666667","6500300","中和區"
"235025","378-QA","2018/05/15 12:49:29","新北市中和區和城路一段271巷1號","121.485448333333","24.9917383333333","6500300","中和區"
"235001","611-BX","2018/05/15 12:49:37","新北市中和區員山路102號","121.481085","24.99539","6500300","中和區"
"235035","783-BX","2018/05/15 12:49:38","新北市中和區員山路36巷16-3號","121.485023333333","24.9914183333333","6500300","中和區"
"235029","251-BX","2018/05/15 12:49:38","新北市中和區員山路36巷16-3號","121.484943333333","24.9913183333333","6500300","中和區"
"228004","212-TW","2018/05/15 12:49:28","新北市貢寮區吉林里內寮街20-1號","121.889811666667","24.9947316666667","6502600","貢寮區"
"228005","828-UM","2018/05/15 12:49:42","新北市貢寮區福連里福連街34-1號","121.988688333333","25.0111666666667","6502600","貢寮區"
"207002","749-BX","2018/05/15 12:49:21","新北市萬里區雙興里二坪路32號","121.644935","25.168765","6502800","萬里區"
"207001","662-BX","2018/05/15 12:49:39","新北市萬里區萬里里瑪鋉路170號","121.689966666667","25.1797516666667","6502800","萬里區"
"252005","AAC-283","2018/05/15 12:49:42","新北市三芝區埔坪里埔頭坑41號","121.504453333333","25.2644316666667","6502100","三芝區"
"236006","498-BY","2018/05/15 12:49:26","新北市土城區大安路126號","121.433998333333","24.9698066666667","6501300","土城區"
"221032","280-BY","2018/05/15 12:49:41","新北市汐止區汐萬路一段256巷1號","121.65188","25.0748866666667","6501100","汐止區"
