"lineid","car","time","location","longitude","latitude","cityid","cityname"
"234046","148-BY","2018/05/15 19:18:59","新北市永和區秀朗路二段87號","121.523083333333","25.0017116666667","6500400","永和區"
"234007","207-UY","2018/05/15 19:12:14","新北市永和區中山路一段211-1號","121.508645","25.008425","6500400","永和區"
"234081","298-R6","2018/05/15 19:13:19","新北市永和區永貞路39巷6弄2號","121.521661666667","25.0065783333333","6500400","永和區"
"234038","336-UY","2018/05/15 19:17:47","新北市永和區民樂街59巷7號","121.528053333333","24.99831","6500400","永和區"
"234064","337-UY","2018/05/15 19:13:07","新北市永和區秀朗路二段67號","121.522133333333","25.0019666666667","6500400","永和區"
"234086","338-UY","2018/05/15 19:14:10","新北市永和區永利路24號","121.51826","25.0058883333333","6500400","永和區"
"234070","552-UM","2018/05/15 19:07:24","新北市永和區豫溪街95巷8號","121.518156666667","25.0108316666667","6500400","永和區"
"234017","745-BX","2018/05/15 19:14:57","新北市永和區文化路90巷31號","121.513058333333","25.0164666666667","6500400","永和區"
"234030","746-BX","2018/05/15 19:17:30","新北市永和區厚德街101號","121.52335","24.9988883333333","6500400","永和區"
"234054","KEA-2590","2018/05/15 19:12:31","新北市永和區中興街113號","121.518355","25.0122416666667","6500400","永和區"
"234013","KEA-2591","2018/05/15 19:14:26","新北市永和區保福路二段20號","121.510945","25.0114633333333","6500400","永和區"
"234061","AAD-866","2018/05/15 19:11:03","新北市永和區秀朗路一段62號","121.515096666667","25.0064933333333","6500400","永和區"
"234042","862-TW","2018/05/15 19:08:27","新北市永和區永貞路293號","121.510983333333","25.0056133333333","6500400","永和區"
"234050","863-TW","2018/05/15 19:16:06","新北市永和區保福路二段78號","121.510606666667","25.0133866666667","6500400","永和區"
"234026","9371-KE","2018/05/15 19:18:12","新北市永和區安樂路144巷19號","121.514671666667","25.0000866666667","6500400","永和區"
"234011","9373-KE","2018/05/15 19:13:57","新北市永和區中山路一段60巷3號","121.512975","25.0109033333333","6500400","永和區"
"249001","173-UM","2018/05/15 19:13:18","新北市八里區龍米路三段58-1號","121.424376666667","25.1591333333333","6502300","八里區"
"248008","095-VK","2018/05/15 19:17:36","新北市五股區中興路二段37巷26號","121.460368333333","25.074915","6501500","五股區"
"248020","225-UY","2018/05/15 18:59:35","新北市五股區凌雲路三段57號","121.425326666667","25.12502","6501500","五股區"
"248010","272-BY","2018/05/15 19:17:36","新北市五股區自強路90巷72號","121.430693333333","25.0712783333333","6501500","五股區"
"248004","677-BX","2018/05/15 19:15:38","新北市五股區五福路27號","121.433821666667","25.0891216666667","6501500","五股區"
"248002","678-BX","2018/05/15 19:16:44","新北市五股區凌雲路一段158巷14-1號","121.44785","25.1034483333333","6501500","五股區"
"248012","682-TV","2018/05/15 19:18:53","新北市五股區中興路四段48巷16號","121.438718333333","25.0834416666667","6501500","五股區"
"234023","9380-KE","2018/05/15 19:12:16","新北市永和區中興街10巷31號","121.516566666667","25.0110116666667","6500400","永和區"
"234077","969-R7","2018/05/15 19:09:30","新北市永和區民族街35-1號","121.518595","24.9991866666667","6500400","永和區"
"234074","AAC-211","2018/05/15 19:11:33","新北市永和區竹林路211號","121.520581666667","25.008885","6500400","永和區"
"234067","AAC-212","2018/05/15 19:11:23","新北市永和區保平路17號","121.512836666667","25.007505","6500400","永和區"
"234003","AAC-295","2018/05/15 19:14:39","新北市永和區保福路一段47巷15號","121.512183333333","25.0091616666667","6500400","永和區"
"244013","069-UM","2018/05/15 19:15:32","新北市林口區麗園一街9巷1號","121.376625","25.071335","6501700","林口區"
"244007","080-UY","2018/05/15 19:18:55","新北市八里區中華路三段88巷10號","121.392455","25.14097","6501700","林口區"
"244019","403-UM","2018/05/15 19:17:16","新北市林口區麗園二街3巷4-2號","121.378736666667","25.0695733333333","6501700","林口區"
"244023","483-VK","2018/05/15 19:14:03","新北市林口區仁愛路二段313號","121.3714","25.078395","6501700","林口區"
"244021","838-TS","2018/05/15 19:18:20","新北市八里區中山路三段193號","121.38348","25.1408","6501700","林口區"
"243013","AAD-798","2018/05/15 19:18:26","新北市泰山區明志路三段145巷6弄2號","121.425571666667","25.039815","6501600","泰山區"
"243009","297-R6","2018/05/15 19:12:38","新北市泰山區楓樹街15巷3號","121.434945","25.06303","6501600","泰山區"
"243016","380-SR","2018/05/15 19:12:58","新北市泰山區明志路二段341號","121.425558333333","25.0446816666667","6501600","泰山區"
"243015","421-VK","2018/05/15 19:12:57","新北市泰山區明志路一段486號","121.430525","25.0547483333333","6501600","泰山區"
"243011","KEA-2215","2018/05/15 19:18:18","新北市泰山區中央路7巷2號","121.426498333333","25.0432966666667","6501600","泰山區"
"243010","KEA-2216","2018/05/15 19:12:57","新北市泰山區明志路一段487號","121.430706666667","25.0553466666667","6501600","泰山區"
"243012","646-TV","2018/05/15 19:19:08","新北市泰山區仁愛路41號","121.432296666667","25.05529","6501600","泰山區"
"243014","680-BX","2018/05/15 19:14:30","新北市泰山區泰林路二段323號","121.429493333333","25.0634","6501600","泰山區"
"222003","436-BY","2018/05/15 19:18:39","新北市深坑區深南路204號","121.626645","25.01605","6501800","深坑區"
"222002","659-BX","2018/05/15 19:15:59","新北市深坑區紅葉街15號","121.632765","25.0122483333333","6501800","深坑區"
"231041","002-UM","2018/05/15 19:17:33","新北市新店區溪園路247號","121.52545","24.9833116666667","6500600","新店區"
"231059","046-UY","2018/05/15 19:18:34","新北市新店區安和路二段166號","121.519575","24.9737166666667","6500600","新店區"
"231040","047-UY","2018/05/15 19:13:52","新北市新店區三民路80號","121.534705","24.972595","6500600","新店區"
"231044","106-UY","2018/05/15 19:13:36","新北市新店區中興路三段227號","121.543095","24.9833316666667","6500600","新店區"
"231046","107-UY","2018/05/15 19:18:59","新北市新店區華城路36巷1-1號","121.528483333333","24.955315","6500600","新店區"
"231053","108-UY","2018/05/15 19:18:23","新北市新店區櫻花街190號","121.548095","24.9199466666667","6500600","新店區"
"231048","187-VK","2018/05/15 19:16:52","新北市新店區德正街33號","121.544721666667","24.9712666666667","6500600","新店區"
"231054","KEA-2219","2018/05/15 19:14:19","新北市新店區文中路4號","121.537536666667","24.95699","6500600","新店區"
"231042","268-BY","2018/05/15 19:19:03","新北市新店區中興路一段59-1號","121.540053333333","24.9607133333333","6500600","新店區"
"231051","278-BY","2018/05/15 19:18:03","新北市新店區中央路200號","121.530548333333","24.97412","6500600","新店區"
"231050","AAD-862","2018/05/15 19:19:06","新北市新店區竹林路30號","121.552315","24.9513166666667","6500600","新店區"
"231061","355-BY","2018/05/15 19:14:07","新北市新店區安康路一段231號","121.525438333333","24.9630983333333","6500600","新店區"
"231058","3713-VJ","2018/05/15 19:18:44","新北市新店區光明街286巷13號","121.540586666667","24.9641633333333","6500600","新店區"
"231066","4716-K9","2018/05/15 19:18:39","新北市新店區安康路三段355巷10號","121.484846666667","24.9502583333333","6500600","新店區"
"231056","4715-K9","2018/05/15 19:17:58","新北市新店區中央八街127號","121.525016666667","24.97898","6500600","新店區"
"231065","512-UM","2018/05/15 19:12:25","新北市新店區安祥路112號","121.475028333333","24.95669","6500600","新店區"
"231049","513-UM","2018/05/15 19:18:45","新北市新店區北新路三段29號","121.541966666667","24.9800883333333","6500600","新店區"
"231063","616-UM","2018/05/15 19:18:52","新北市新店區達觀路14巷1號","121.504423333333","24.941685","6500600","新店區"
"231045","617-UM","2018/05/15 19:18:43","新北市新店區北宜路一段260號","121.545743333333","24.9527833333333","6500600","新店區"
"231064","719-UM","2018/05/15 19:13:29","新北市新店區安忠路102巷2號","121.51084","24.9564483333333","6500600","新店區"
"231062","720-UM","2018/05/15 19:18:30","新北市新店區安康路一段222號","121.523815","24.9636433333333","6500600","新店區"
"231060","897-TW","2018/05/15 19:16:00","新北市新店區安康路二段139號","121.511745","24.9603783333333","6500600","新店區"
"231043","899-TW","2018/05/15 19:16:52","新北市新店區寶橋路31號","121.544408333333","24.974245","6500600","新店區"
"241009","060-VK","2018/05/15 19:17:22","新北市三重區仁美街116號","121.485531666667","25.0810166666667","6500200","三重區"
"241031","061-VK","2018/05/15 19:13:44","新北市三重區捷運路22巷10號","121.48511","25.05553","6500200","三重區"
"241017","063-VK","2018/05/15 19:16:34","新北市三重區大同北路158號","121.49229","25.06557","6500200","三重區"
"241032","269-UM","2018/05/15 19:18:14","新北市三重區新生街97號","121.483461666667","25.0594266666667","6500200","三重區"
"241007","398-BY","2018/05/15 19:18:04","新北市三重區慈愛街9號","121.485031666667","25.0786566666667","6500200","三重區"
"241035","KEA-2210","2018/05/15 19:17:45","新北市三重區新北大道一段7號","121.489701666667","25.0615066666667","6500200","三重區"
"241026","413-TH","2018/05/15 19:17:54","新北市三重區環河南路220-8號","121.49332","25.0527866666667","6500200","三重區"
"241020","478-VK","2018/05/15 19:18:16","新北市三重區永德街31號","121.488561666667","25.0727733333333","6500200","三重區"
"241006","AAD-863","2018/05/15 19:18:36","新北市三重區車路頭街164號","121.48368","25.0767333333333","6500200","三重區"
"241029","942-UM","2018/05/15 19:13:49","新北市三重區中正南路197號","121.493458333333","25.0546666666667","6500200","三重區"
"235064","005-UY","2018/05/15 19:16:52","新北市中和區中和路26巷12號","121.499345","25.00153","6500300","中和區"
"235063","006-UY","2018/05/15 19:18:59","新北市中和區連城路249巷8弄2-3號","121.493666666667","24.9966383333333","6500300","中和區"
"235047","031-BX","2018/05/15 19:19:02","新北市中和區和平街56號","121.508573333333","24.9907583333333","6500300","中和區"
"235056","096-UM","2018/05/15 19:18:09","新北市中和區中山路二段586-2號","121.482235","25.0051883333333","6500300","中和區"
"235039","097-UM","2018/05/15 19:18:45","新北市中和區景平路64巷12號","121.522308333333","24.9913266666667","6500300","中和區"
"235040","150-BY","2018/05/15 19:18:48","新北市中和區保健路71-3號","121.510498333333","24.9969316666667","6500300","中和區"
"235058","151-BY","2018/05/15 19:18:10","新北市中和區連城路523巷9弄2號","121.481681666667","24.9944616666667","6500300","中和區"
"235055","183-VK","2018/05/15 19:17:31","新北市中和區德光路62號","121.469666666667","25.0039383333333","6500300","中和區"
"235038","185-VK","2018/05/15 19:17:56","新北市中和區大仁街108號","121.520618333333","24.992825","6500300","中和區"
"235049","186-VK","2018/05/15 19:17:49","新北市中和區景新街212號","121.50698","24.9952566666667","6500300","中和區"
"235067","255-BX","2018/05/15 19:18:13","新北市中和區民樂路35號","121.483198333333","25.0013333333333","6500300","中和區"
"235044","293-VK","2018/05/15 19:18:22","新北市中和區中興街263巷2號","121.500341666667","24.9888916666667","6500300","中和區"
"235072","301-VK","2018/05/15 19:18:33","新北市中和區連城路263巷4弄6號","121.491675","24.9955916666667","6500300","中和區"
"235043","352-BY","2018/05/15 19:18:45","新北市中和區景平路279-5號","121.507611666667","24.9929366666667","6500300","中和區"
"235068","377-QA","2018/05/15 19:18:53","新北市中和區連城路139巷65號","121.497061666667","24.9971866666667","6500300","中和區"
"235061","378-QA","2018/05/15 19:17:15","新北市中和區中山路三段61號","121.476713333333","25.0057083333333","6500300","中和區"
"235050","4979-A6","2018/05/15 19:16:39","新北市中和區景安路208巷31號","121.502365","24.9923","6500300","中和區"
"235069","4980-A6","2018/05/15 19:17:52","新北市中和區中山路二段181巷10號","121.500676666667","25.0024433333333","6500300","中和區"
"235042","551-UM","2018/05/15 19:16:51","新北市中和區自強路66號","121.519811666667","24.994235","6500300","中和區"
"235070","558-UM","2018/05/15 19:18:13","新北市中和區中山路二段221號","121.498578333333","25.0025416666667","6500300","中和區"
"235045","565-BX","2018/05/15 19:18:37","新北市中和區景新街423巷35弄3號","121.51408","24.9898433333333","6500300","中和區"
"235054","640-BX","2018/05/15 19:16:13","新北市中和區國光街109巷2弄1號","121.469703333333","25.0004916666667","6500300","中和區"
"235060","647-TV","2018/05/15 19:17:40","新北市中和區民有街47號","121.47595","25.0048","6500300","中和區"
"235046","733-UM","2018/05/15 19:18:39","新北市中和區忠孝街2巷13弄2號","121.510468333333","24.9819116666667","6500300","中和區"
"235071","783-BX","2018/05/15 19:18:59","新北市中和區中正路637巷52弄1號","121.485438333333","24.9939466666667","6500300","中和區"
"235057","801-TS","2018/05/15 19:17:32","新北市中和區員山路373號","121.481175","25.0022183333333","6500300","中和區"
"235041","802-TS","2018/05/15 19:17:49","新北市永和區中和路347號","121.50803","24.9997016666667","6500300","中和區"
"235052","805-TS","2018/05/15 19:19:06","新北市中和區興南路二段149號","121.504971666667","24.983675","6500300","中和區"
"235048","896-TW","2018/05/15 19:14:34","新北市中和區忠孝街37-1號","121.510681666667","24.9833766666667","6500300","中和區"
"235053","900-TW","2018/05/15 19:15:13","新北市中和區華福街57巷16號","121.466873333333","24.99725","6500300","中和區"
"235066","911-UM","2018/05/15 19:19:00","新北市中和區景新街2號","121.50265","24.99963","6500300","中和區"
"235051","157-BY","2018/05/15 19:18:00","新北市中和區興南路一段56巷5號","121.510443333333","24.99121","6500300","中和區"
"235037","AAC-213","2018/05/15 19:18:08","新北市中和區秀朗路三段50巷12弄6號","121.524081666667","24.9952766666667","6500300","中和區"
"235059","AAC-215","2018/05/15 19:15:32","新北市中和區圓通路369巷14弄20號","121.490528333333","24.987825","6500300","中和區"
"220074","015-TV","2018/05/15 19:07:52","新北市板橋區中正路43號","121.456346666667","25.0133633333333","6500100","板橋區"
"220065","072-UY","2018/05/15 19:08:15","新北市板橋區民族路219巷7號","121.46936","25.0079366666667","6500100","板橋區"
"220086","073-UY","2018/05/15 19:09:53","新北市板橋區中正路216巷150弄1號","121.460678333333","25.0195283333333","6500100","板橋區"
"220106","075-UY","2018/05/15 19:16:43","新北市板橋區雙十路三段10巷6號","121.472025","25.03067","6500100","板橋區"
"220069","AAD-861","2018/05/15 19:11:26","新北市板橋區四川路一段160號","121.459723333333","25.0032866666667","6500100","板橋區"
"226004","312-R5","2018/05/15 19:17:10","新北市平溪區靜安路三段386號","121.78092","25.0473133333333","6502400","平溪區"
"235065","251-BX","2018/05/15 19:16:29","新北市中和區中山路二段136巷6弄1號","121.50202","25.00382","6500300","中和區"
"228002","663-BX","2018/05/15 19:18:52","新北市貢寮區龍門里復興街29-3號","121.927553333333","25.0282233333333","6502600","貢寮區"
"228003","828-UM","2018/05/15 19:18:28","新北市貢寮區和美里和美街19-2號","121.91278","25.0826133333333","6502600","貢寮區"
"224006","676-BX","2018/05/15 19:12:21","新北市瑞芳區中山路225號","121.800613333333","25.1067933333333","6501200","瑞芳區"
"224008","285-BY","2018/05/15 19:13:14","新北市瑞芳區一坑路191-1號","121.801993333333","25.10882","6501200","瑞芳區"
"224007","275-VK","2018/05/15 19:07:18","新北市瑞芳區瑞竹路92號","121.76288","25.1036933333333","6501200","瑞芳區"
"224005","271-BY","2018/05/15 19:12:03","新北市瑞芳區員山子路3-1號","121.819156666667","25.1046583333333","6501200","瑞芳區"
"227009","642-TC","2018/05/15 19:18:52","新北市雙溪區新基里新基北街40號","121.868566666667","25.0380783333333","6502500","雙溪區"
"227003","400-TW","2018/05/15 19:18:30","新北市雙溪區平林里梅竹蹊66-1號","121.860171666667","25.035845","6502500","雙溪區"
"253005","032-BX","2018/05/15 19:09:11","新北市石門區阿里荖35-2號","121.606513333333","25.280705","6502200","石門區"
"253006","295-VK","2018/05/15 19:17:58","新北市石門區楓林17-10號","121.536186666667","25.292905","6502200","石門區"
"222001","KEA-2212","2018/05/15 19:16:16","新北市深坑區北深路二段43巷6號","121.619386666667","25.0040016666667","6501800","深坑區"
"208002","KEA-2872","2018/05/15 19:17:29","新北市金山區中正路67號","121.633955","25.2217883333333","6502700","金山區"
"208003","665-BX","2018/05/15 19:07:21","新北市金山區中正路133號","121.632455","25.2214966666667","6502700","金山區"
"208001","761-BX","2018/05/15 19:17:59","新北市金山區慈護街24號","121.639433333333","25.22014","6502700","金山區"
"251009","008-UM","2018/05/15 19:18:00","新北市淡水區中山路18-1號","121.444585","25.1692333333333","6501000","淡水區"
"251001","011-UM","2018/05/15 19:18:00","新北市淡水區自強路201巷43號","121.462128333333","25.1268916666667","6501000","淡水區"
"251013","KEA-2871","2018/05/15 19:18:56","新北市淡水區安子內12號","121.481001666667","25.219395","6501000","淡水區"
"251016","179-VK","2018/05/15 19:17:06","新北市淡水區下圭柔山119-51號","121.45079","25.2084983333333","6501000","淡水區"
"251014","180-VK","2018/05/15 19:18:37","新北市淡水區小中寮19-7號","121.484796666667","25.2296616666667","6501000","淡水區"
"251015","182-VK","2018/05/15 19:17:57","新北市淡水區南勢埔32巷2號","121.484233333333","25.1802316666667","6501000","淡水區"
"251010","413-VK","2018/05/15 19:13:40","新北市淡水區中正路二段12號","121.420703333333","25.18054","6501000","淡水區"
"251007","442-VK","2018/05/15 19:15:36","新北市淡水區民生路145巷36-16號","121.467173333333","25.1389533333333","6501000","淡水區"
"251005","443-VK","2018/05/15 19:18:49","新北市淡水區水源街一段25號","121.443083333333","25.1723083333333","6501000","淡水區"
"251006","561-UM","2018/05/15 19:18:42","新北市淡水區大信街38號","121.442121666667","25.17737","6501000","淡水區"
"251002","672-BX","2018/05/15 19:16:11","新北市淡水區中正路一段8巷1弄11號","121.428365","25.175675","6501000","淡水區"
"251003","766-UM","2018/05/15 19:15:31","新北市淡水區中山路163號","121.441001666667","25.173495","6501000","淡水區"
"207003","291-VK","2018/05/15 19:05:52","新北市萬里區大鵬里萬里加投24-2號","121.649176666667","25.2073966666667","6502800","萬里區"
"207004","225-TW","2018/05/15 19:13:32","新北市萬里區萬里里瑪鋉路30巷2弄5號","121.690418333333","25.1759916666667","6502800","萬里區"
"252002","178-VK","2018/05/15 19:18:23","新北市三芝區淡金路二段18-1號","121.502706666667","25.25954","6502100","三芝區"
"252001","292-VK","2018/05/15 19:18:57","新北市三芝區長勤街9巷11弄3號","121.501856666667","25.2547366666667","6502100","三芝區"
"237004","KEA-2597","2018/05/15 19:17:21","新北市三峽區有木205-1號","121.439038333333","24.8514933333333","6500900","三峽區"
"237007","153-BY","2018/05/15 19:18:56","新北市三峽區二鬮路182號","121.3586","24.9067216666667","6500900","三峽區"
"237009","210-TH","2018/05/15 19:18:10","新北市三峽區民生街186號","121.370858333333","24.9349066666667","6500900","三峽區"
"237013","252-BX","2018/05/15 19:16:04","新北市三峽區大同路5巷11-1號","121.378203333333","24.9287033333333","6500900","三峽區"
"237012","275-BY","2018/05/15 19:17:18","新北市三峽區三樹路222巷236弄23號","121.391451666667","24.9430466666667","6500900","三峽區"
"237008","302-VK","2018/05/15 19:15:55","新北市三峽區光明路106巷2號","121.376498333333","24.9274733333333","6500900","三峽區"
"237014","433-BY","2018/05/15 19:18:51","新北市三峽區中山路277巷12號","121.361668333333","24.9369916666667","6500900","三峽區"
"237006","5529-G3","2018/05/15 19:17:56","新北市三峽區介壽路一段207號","121.378773333333","24.9304433333333","6500900","三峽區"
"237016","649-BX","2018/05/15 19:18:27","新北市三峽區安坑61號","121.471783333333","24.927075","6500900","三峽區"
"237010","706-TV","2018/05/15 19:18:31","新北市三峽區復興路49號","121.373375","24.9369616666667","6500900","三峽區"
"237005","AKY-6261","2018/05/15 19:17:29","新北市三峽區隆恩街250號","121.35711","24.9408166666667","6500900","三峽區"
"236070","105-UM","2018/05/15 19:18:24","新北市土城區學成路78巷2號","121.45113","24.9885116666667","6501300","土城區"
"236079","166-UM","2018/05/15 19:18:53","新北市土城區中央路四段340號","121.41351","24.955285","6501300","土城區"
"236026","269-VK","2018/05/15 19:09:39","新北市土城區中央路二段189巷16號","121.4427","24.9757683333333","6501300","土城區"
"236014","270-VK","2018/05/15 19:15:51","新北市土城區學府路一段23巷23號","121.457721666667","24.9870683333333","6501300","土城區"
"236021","401-BY","2018/05/15 19:11:45","新北市土城區延峰街18號","121.468715","24.9862233333333","6501300","土城區"
"236059","912-UM","2018/05/15 19:12:27","新北市土城區金城路一段30號","121.441491666667","24.969645","6501300","土城區"
"236049","913-UM","2018/05/15 19:18:47","新北市土城區明德路一段365-1號","121.453623333333","24.979065","6501300","土城區"
"236055","AAC-216","2018/05/15 19:09:29","新北市土城區學府路一段217號","121.451428333333","24.9843783333333","6501300","土城區"
"242048","172-VK","2018/05/15 19:18:47","新北市新莊區後港一路3號","121.424116666667","25.0263333333333","6500500","新莊區"
"238015","755-BX","2018/05/15 19:17:20","新北市樹林區備內街1巷39號","121.41224","24.9859916666667","6500700","樹林區"
"238023","601-UM","2018/05/15 19:11:55","新北市樹林區大慶街46號","121.397243333333","25.0140983333333","6500700","樹林區"
"238019","599-UM","2018/05/15 19:17:49","新北市樹林區東榮街28號","121.417603333333","24.9834983333333","6500700","樹林區"
"238018","571-TV","2018/05/15 19:13:37","新北市樹林區中華路213號","121.41963","24.9813","6500700","樹林區"
"238024","5061-A6","2018/05/15 19:13:43","新北市樹林區福德街3號","121.401656666667","24.9757733333333","6500700","樹林區"
"238021","KEA-2217","2018/05/15 19:11:45","新北市樹林區柑園街二段403-1號","121.366601666667","24.9482633333333","6500700","樹林區"
"238022","KEA-2213","2018/05/15 19:18:05","新北市樹林區太順街2號","121.42045","24.9806216666667","6500700","樹林區"
"238025","303-VK","2018/05/15 19:12:37","新北市樹林區福德街50號","121.398568333333","24.9740716666667","6500700","樹林區"
"238017","283-BY","2018/05/15 19:13:35","新北市樹林區光興街157巷2號","121.407805","25.00412","6500700","樹林區"
"238014","282-BY","2018/05/15 19:16:04","新北市樹林區保安二街3號","121.425568333333","24.9938983333333","6500700","樹林區"
"238020","268-VK","2018/05/15 19:13:02","新北市樹林區俊英街123巷1號","121.424436666667","25.01066","6500700","樹林區"
"238026","172-UY","2018/05/15 19:18:06","新北市樹林區佳園路三段71號","121.38764","24.9528116666667","6500700","樹林區"
"238016","169-UY","2018/05/15 19:10:11","新北市樹林區中山路一段306巷52-3號","121.418428333333","24.9862733333333","6500700","樹林區"
"239007","AAC-297","2018/05/15 19:17:14","新北市鶯歌區大湖路85巷1號","121.3421","24.9625966666667","6500800","鶯歌區"
"239006","891-R6","2018/05/15 19:19:01","新北市鶯歌區建國路512巷1號","121.340481666667","24.9510683333333","6500800","鶯歌區"
"239005","526-UM","2018/05/15 19:15:16","新北市鶯歌區中湖街312號","121.34757","24.9777233333333","6500800","鶯歌區"
"239001","417-VK","2018/05/15 19:17:49","新北市鶯歌區鶯桃路64號","121.340656666667","24.9532133333333","6500800","鶯歌區"
"239003","360-BY","2018/05/15 19:18:15","新北市鶯歌區中正二路30號","121.351365","24.9515083333333","6500800","鶯歌區"
"239002","359-BY","2018/05/15 19:19:06","新北市鶯歌區大湖路185巷20號","121.342898333333","24.969865","6500800","鶯歌區"
"239004","193-VK","2018/05/15 19:16:00","新北市鶯歌區中正三路191號","121.335756666667","24.9395083333333","6500800","鶯歌區"
"221008","489-VK","2018/05/15 19:14:16","新北市汐止區康寧街376號","121.629038333333","25.0677283333333","6501100","汐止區"
"221036","130-UY","2018/05/15 19:18:50","新北市汐止區康寧街901號","121.650873333333","25.0753133333333","6501100","汐止區"
"221015","131-UY","2018/05/15 19:15:51","新北市汐止區康寧街901號","121.651715","25.0749883333333","6501100","汐止區"
"221010","269-BY","2018/05/15 19:18:51","新北市汐止區康寧街901號","121.651573333333","25.0750716666667","6501100","汐止區"
"221012","278-VK","2018/05/15 19:18:41","新北市汐止區康寧街901號","121.650935","25.0754383333333","6501100","汐止區"
"221023","279-VK","2018/05/15 19:18:47","新北市汐止區康寧街901號","121.65103","25.0752233333333","6501100","汐止區"
"221027","281-BY","2018/05/15 19:17:53","新北市汐止區康寧街901號","121.651426666667","25.0750233333333","6501100","汐止區"
"221029","298-VK","2018/05/15 19:17:31","新北市汐止區大同路一段515巷165-1號","121.646008333333","25.0658233333333","6501100","汐止區"
"221031","353-TW","2018/05/15 19:18:13","新北市汐止區康寧街901號","121.651656666667","25.074975","6501100","汐止區"
"221025","623-UM","2018/05/15 19:18:20","新北市汐止區康寧街901號","121.651596666667","25.0749933333333","6501100","汐止區"
"221038","646-BX","2018/05/15 19:16:33","新北市汐止區康寧街901號","121.650736666667","25.075505","6501100","汐止區"
"221033","647-BX","2018/05/15 19:18:17","新北市汐止區南勢街1巷1號","121.627041666667","25.037495","6501100","汐止區"
"221002","707-TV","2018/05/15 19:15:57","新北市汐止區大同路一段319號","121.637981666667","25.0591466666667","6501100","汐止區"
"221018","753-BX","2018/05/15 19:18:44","新北市汐止區康寧街901號","121.651551666667","25.074975","6501100","汐止區"
"220079","145-BY","2018/05/15 19:10:37","新北市板橋區民權路260巷19號","121.458675","25.015405","6500100","板橋區"
"220082","610-BX","2018/05/15 19:10:23","新北市板橋區溪崑二街96巷1號","121.426678333333","24.9888666666667","6500100","板橋區"
"220101","245-BX","2018/05/15 19:10:02","新北市板橋區萬板路11號","121.470491666667","25.0207383333333","6500100","板橋區"
"220103","257-TC","2018/05/15 19:11:30","新北市板橋區文化路一段188巷9弄86號","121.468856666667","25.0187683333333","6500100","板橋區"
"220091","267-BY","2018/05/15 19:10:32","新北市板橋區縣民大道247巷80號","121.482178333333","25.0269066666667","6500100","板橋區"
"220056","276-BY","2018/05/15 19:11:58","新北市板橋區信義路74巷1弄15號","121.457676666667","24.992755","6500100","板橋區"
"220072","277-BY","2018/05/15 19:10:50","新北市板橋區金門街260巷10弄2號","121.429355","24.986765","6500100","板橋區"
"220089","280-UM","2018/05/15 19:09:57","新北市板橋區文化路二段389號","121.473341666667","25.0312883333333","6500100","板橋區"
"220071","283-VK","2018/05/15 19:13:22","新北市板橋區重慶路295巷7號","121.464128333333","24.9992766666667","6500100","板橋區"
"220094","285-UM","2018/05/15 19:07:18","新北市板橋區光武街50巷1號","121.466833333333","25.0270233333333","6500100","板橋區"
"220053","285-VK","2018/05/15 19:10:38","新北市板橋區懷仁街10巷1號","121.475165","25.0195833333333","6500100","板橋區"
"220083","286-VK","2018/05/15 19:08:53","新北市板橋區大觀路二段174巷175號","121.441925","25.0036416666667","6500100","板橋區"
"220081","287-VK","2018/05/15 19:11:54","新北市板橋區南雅西路二段156巷4號","121.452136666667","25.0133533333333","6500100","板橋區"
"220090","288-VK","2018/05/15 19:13:54","新北市板橋區裕民街5-1號","121.462468333333","25.0291033333333","6500100","板橋區"
"220061","293-UM","2018/05/15 19:15:00","新北市板橋區三民路二段21巷40號","121.480611666667","25.0181583333333","6500100","板橋區"
"220084","296-UM","2018/05/15 19:11:22","新北市板橋區溪崑二街56巷30號","121.428068333333","24.99136","6500100","板橋區"
"220075","303-R5","2018/05/15 19:11:32","新北市板橋區南雅南路一段4巷12-1號","121.454783333333","25.0052816666667","6500100","板橋區"
"220062","305-R5","2018/05/15 19:10:10","新北市板橋區三民路二段居仁巷1弄48-1號","121.481065","25.01366","6500100","板橋區"
"220092","307-R5","2018/05/15 19:10:42","新北市板橋區文化路二段225巷60弄60號","121.46912","25.029815","6500100","板橋區"
"220098","317-R6","2018/05/15 19:15:02","新北市板橋區四維路98號","121.465766666667","25.0243666666667","6500100","板橋區"
"220064","486-VK","2018/05/15 19:07:29","新北市板橋區板新路70號","121.473111666667","25.0141266666667","6500100","板橋區"
"220088","491-VK","2018/05/15 19:18:11","新北市板橋區雙十路二段159號","121.4743","25.02817","6500100","板橋區"
"220035","560-BX","2018/05/15 19:18:38","新北市板橋區中正路360巷11號","121.454973333333","25.0237183333333","6500100","板橋區"
"220080","568-UM","2018/05/15 19:09:38","新北市板橋區大觀路二段7巷39號","121.448241666667","25.003375","6500100","板橋區"
"220063","609-BX","2018/05/15 19:10:22","新北市板橋區三民路二段202-15號","121.47892","25.01365","6500100","板橋區"
"220055","630-UY","2018/05/15 19:17:49","新北市板橋區民族路61號","121.46479","25.0087483333333","6500100","板橋區"
"220057","686-BX","2018/05/15 19:10:34","新北市板橋區重慶路351-1號","121.464166666667","24.9978266666667","6500100","板橋區"
"220077","687-BX","2018/05/15 19:11:48","新北市板橋區大觀路一段47號","121.448055","25.0076416666667","6500100","板橋區"
"220093","689-BX","2018/05/15 19:08:20","新北市板橋區民生路三段241號","121.464761666667","25.02884","6500100","板橋區"
"220054","741-BX","2018/05/15 19:12:53","新北市板橋區館前東路100-2號","121.462953333333","25.0072183333333","6500100","板橋區"
"220102","KEA-2699","2018/05/15 19:11:39","新北市板橋區田單街49巷1弄19號","121.482611666667","25.0289416666667","6500100","板橋區"
"220067","829-TW","2018/05/15 19:12:57","新北市板橋區三民路二段正隆巷41號","121.477068333333","25.0136416666667","6500100","板橋區"
"220068","830-TW","2018/05/15 19:14:25","新北市板橋區翠華街6巷11號","121.480825","25.0240983333333","6500100","板橋區"
"220096","831-TW","2018/05/15 19:16:41","新北市板橋區大同街8巷41號","121.477888333333","25.0261933333333","6500100","板橋區"
"220073","985-R7","2018/05/15 19:10:09","新北市板橋區新生街92號","121.458248333333","25.0218","6500100","板橋區"
"220097","AAC-210","2018/05/15 19:13:28","新北市板橋區幸福路57號","121.460918333333","25.0199283333333","6500100","板橋區"
"220070","AAC-253","2018/05/15 19:06:38","新北市板橋區信義路9號","121.457108333333","24.9969","6500100","板橋區"
