"lineid","car","time","location","longitude","latitude","cityid","cityname"
"234046","148-BY","2018/05/15 20:19:11","新北市永和區永元路99號","121.522528333333","25.002185","6500400","永和區"
"234007","207-UY","2018/05/15 20:19:14","新北市永和區保順路11號","121.504563333333","25.009475","6500400","永和區"
"234081","298-R6","2018/05/15 20:19:20","新北市永和區國中路104巷2弄1號","121.52442","25.0068083333333","6500400","永和區"
"234038","336-UY","2018/05/15 20:19:06","新北市永和區成功路一段95號","121.527096666667","25.0026783333333","6500400","永和區"
"234064","337-UY","2018/05/15 20:19:07","新北市永和區中正路340號","121.517973333333","24.9999866666667","6500400","永和區"
"234086","338-UY","2018/05/15 20:19:10","新北市永和區永和路二段81號","121.514741666667","25.011245","6500400","永和區"
"234070","552-UM","2018/05/15 20:19:03","新北市永和區福和路263巷17號","121.51809","25.0063283333333","6500400","永和區"
"234017","745-BX","2018/05/15 20:19:17","新北市永和區仁愛路21號","121.514578333333","25.013355","6500400","永和區"
"234030","746-BX","2018/05/15 20:19:10","新北市中和區自強路20號","121.520141666667","24.9954","6500400","永和區"
"234054","KEA-2590","2018/05/15 20:19:11","新北市永和區光復街2巷26弄1號","121.517635","25.0166016666667","6500400","永和區"
"234013","KEA-2591","2018/05/15 20:19:22","新北市永和區保生路62號","121.505321666667","25.00894","6500400","永和區"
"234061","AAD-866","2018/05/15 20:19:15","新北市永和區安樂路100巷5號","121.514221666667","24.99935","6500400","永和區"
"234042","862-TW","2018/05/15 20:19:07","新北市永和區中和路463號","121.50988","25.00163","6500400","永和區"
"234050","863-TW","2018/05/15 20:19:06","新北市永和區環河西路二段127號","121.506068333333","25.01438","6500400","永和區"
"234026","9371-KE","2018/05/15 20:19:07","新北市永和區保生路55-1號","121.50453","25.0108833333333","6500400","永和區"
"234011","9373-KE","2018/05/15 20:19:17","新北市永和區保生路55號","121.504578333333","25.0107883333333","6500400","永和區"
"249005","172-UM","2018/05/15 20:19:04","新北市八里區下罟子1-5號","121.388855","25.1419083333333","6502300","八里區"
"249001","173-UM","2018/05/15 20:19:07","新北市八里區中華路二段538號","121.399073333333","25.14502","6502300","八里區"
"249004","303-UY","2018/05/15 20:19:20","新北市八里區中山路一段129巷13號","121.413836666667","25.1589133333333","6502300","八里區"
"249002","305-UY","2018/05/15 20:18:54","新北市八里區龍米路一段100巷12號","121.453908333333","25.1249533333333","6502300","八里區"
"248014","025-BX","2018/05/15 20:19:03","新北市八里區商港路2-1號","121.397383333333","25.1442333333333","6501500","五股區"
"248016","026-BX","2018/05/15 20:19:14","新北市五股區凌雲路一段158巷44號","121.447106666667","25.103815","6501500","五股區"
"248010","272-BY","2018/05/15 20:19:16","新北市泰山區新五路一段91號","121.440828333333","25.060925","6501500","五股區"
"248002","678-BX","2018/05/15 20:19:08","新北市五股區成泰路三段152號","121.444883333333","25.0912216666667","6501500","五股區"
"248012","682-TV","2018/05/15 20:19:13","新北市五股區六合街107號","121.429746666667","25.09044","6501500","五股區"
"234023","9380-KE","2018/05/15 20:19:16","新北市永和區勵行街44號","121.51669","25.0135983333333","6500400","永和區"
"234077","969-R7","2018/05/15 20:19:21","新北市永和區民享街1巷1號","121.514741666667","24.9958866666667","6500400","永和區"
"234074","AAC-211","2018/05/15 20:19:13","新北市永和區竹林路201巷22弄1號","121.522078333333","25.00939","6500400","永和區"
"234067","AAC-212","2018/05/15 20:19:03","新北市永和區保平路266號","121.508683333333","25.005125","6500400","永和區"
"234003","AAC-295","2018/05/15 20:19:19","新北市永和區自強街19巷1號","121.514698333333","25.0083166666667","6500400","永和區"
"243013","AAD-798","2018/05/15 20:19:12","新北市泰山區新民路40號","121.427173333333","25.044275","6501600","泰山區"
"243009","297-R6","2018/05/15 20:19:18","新北市泰山區泰林路二段121號","121.434125","25.0595016666667","6501600","泰山區"
"243016","380-SR","2018/05/15 20:19:18","新北市泰山區明志路三段335號","121.422216666667","25.0355283333333","6501600","泰山區"
"243015","421-VK","2018/05/15 20:19:17","新北市泰山區仁愛路70號","121.432528333333","25.0550283333333","6501600","泰山區"
"243011","KEA-2215","2018/05/15 20:19:12","新北市泰山區明志路三段427號","121.42089","25.0331516666667","6501600","泰山區"
"243010","KEA-2216","2018/05/15 20:19:21","新北市泰山區明志路二段254巷16弄6號","121.42632","25.0481616666667","6501600","泰山區"
"243012","646-TV","2018/05/15 20:19:08","新北市泰山區楓江路47號","121.435518333333","25.0625916666667","6501600","泰山區"
"243014","680-BX","2018/05/15 20:19:18","新北市泰山區泰林路二段385巷1號","121.427565","25.0642016666667","6501600","泰山區"
"222003","436-BY","2018/05/15 20:19:15","新北市深坑區文化街43號","121.61777","25.0018116666667","6501800","深坑區"
"222002","659-BX","2018/05/15 20:19:17","新北市深坑區萬福路75巷21號","121.59927","25.00972","6501800","深坑區"
"231041","002-UM","2018/05/15 20:19:13","新北市新店區民權路42號","121.540556666667","24.982995","6500600","新店區"
"231059","046-UY","2018/05/15 20:19:22","新北市新店區安成街35-1號","121.509865","24.9610583333333","6500600","新店區"
"231040","047-UY","2018/05/15 20:19:23","新北市新店區三民路14號","121.539573333333","24.9722016666667","6500600","新店區"
"231044","106-UY","2018/05/15 20:19:16","新北市新店區北新路三段154號","121.541525","24.9826166666667","6500600","新店區"
"231053","108-UY","2018/05/15 20:19:03","新北市新店區新烏路二段317號","121.54983","24.91097","6500600","新店區"
"231048","187-VK","2018/05/15 20:19:11","新北市新店區寶橋路132號","121.547413333333","24.9760066666667","6500600","新店區"
"231057","188-VK","2018/05/15 20:19:21","新北市新店區花園五路二段11號","121.554088333333","24.93433","6500600","新店區"
"231054","KEA-2219","2018/05/15 20:19:19","新北市新店區檳榔路109號","121.544498333333","24.9616216666667","6500600","新店區"
"231042","268-BY","2018/05/15 20:19:23","新北市新店區中興路二段186號","121.548173333333","24.9728016666667","6500600","新店區"
"231051","278-BY","2018/05/15 20:19:03","新北市新店區溪園路459號","121.525238333333","24.9774166666667","6500600","新店區"
"231050","AAD-862","2018/05/15 20:19:06","新北市新店區博愛街11巷1號","121.540851666667","24.97309","6500600","新店區"
"231061","355-BY","2018/05/15 20:19:07","新北市新店區安興路33-1號","121.515783333333","24.9704066666667","6500600","新店區"
"231066","4716-K9","2018/05/15 20:19:19","新北市新店區安興路69號","121.516081666667","24.975105","6500600","新店區"
"231056","4715-K9","2018/05/15 20:19:18","新北市新店區中正路328巷19號","121.537428333333","24.975595","6500600","新店區"
"231067","4772-VM","2018/05/15 20:19:15","新北市新店區安康路一段226-2號","121.523408333333","24.9636083333333","6500600","新店區"
"231065","512-UM","2018/05/15 20:19:05","新北市新店區安祥路104-10號","121.479173333333","24.9620666666667","6500600","新店區"
"231049","513-UM","2018/05/15 20:19:05","新北市新店區北新路一段128-3號","121.542168333333","24.9699166666667","6500600","新店區"
"231063","616-UM","2018/05/15 20:19:12","新北市新店區薏仁坑路5號","121.499035","24.95908","6500600","新店區"
"231045","617-UM","2018/05/15 20:19:03","新北市新店區新坡一街85號","121.548955","24.9645016666667","6500600","新店區"
"231068","718-UY","2018/05/15 20:19:21","新北市新店區民權路7號","121.542583333333","24.9828916666667","6500600","新店區"
"231064","719-UM","2018/05/15 20:19:09","新北市新店區安和路二段126號","121.519298333333","24.9715383333333","6500600","新店區"
"231062","720-UM","2018/05/15 20:19:10","新北市新店區安泰路7巷16號","121.485726666667","24.951025","6500600","新店區"
"231060","897-TW","2018/05/15 20:19:20","新北市新店區錦秀路11巷96弄2號","121.480121666667","24.94217","6500600","新店區"
"231043","899-TW","2018/05/15 20:19:12","新北市新店區建國路131號","121.539398333333","24.9780683333333","6500600","新店區"
"231055","AKT-0513","2018/05/15 20:19:01","新北市新店區新明街9號","121.540988333333","24.9681716666667","6500600","新店區"
"241011","013-R5","2018/05/15 20:19:04","新北市三重區龍門路246號","121.500908333333","25.0737683333333","6500200","三重區"
"241028","022-UY","2018/05/15 20:19:01","新北市三重區大同南路162號","121.49666","25.0575016666667","6500200","三重區"
"241008","059-VK","2018/05/15 20:19:16","新北市三重區永福街156號","121.480443333333","25.0744916666667","6500200","三重區"
"241009","060-VK","2018/05/15 20:19:02","新北市三重區三和路四段376號","121.482486666667","25.078675","6500200","三重區"
"241031","061-VK","2018/05/15 20:19:03","新北市三重區三寧街15號","121.489366666667","25.0597033333333","6500200","三重區"
"241015","062-VK","2018/05/15 20:19:15","新北市三重區重新路一段126號","121.500355","25.0628683333333","6500200","三重區"
"241017","063-VK","2018/05/15 20:19:14","新北市三重區自強路一段236號","121.493383333333","25.0671033333333","6500200","三重區"
"241024","065-VK","2018/05/15 20:19:15","新北市三重區忠孝路三段15巷18號","121.480888333333","25.0674583333333","6500200","三重區"
"241002","090-VK","2018/05/15 20:19:15","新北市三重區五華街7巷1號","121.495351666667","25.0800083333333","6500200","三重區"
"241003","091-VK","2018/05/15 20:19:03","新北市三重區富華街53號","121.49098","25.083335","6500200","三重區"
"241005","262-UM","2018/05/15 20:19:24","新北市三重區分子尾街82號","121.489086666667","25.08233","6500200","三重區"
"241013","265-UM","2018/05/15 20:19:13","新北市三重區三和路三段167巷11號","121.49238","25.0741683333333","6500200","三重區"
"241016","266-UM","2018/05/15 20:19:19","新北市三重區大同北路97-2號","121.494443333333","25.0636516666667","6500200","三重區"
"241018","268-UM","2018/05/15 20:19:11","新北市三重區雙園街60號","121.495851666667","25.06763","6500200","三重區"
"241032","269-UM","2018/05/15 20:19:19","新北市三重區捷運路19巷6弄10號","121.484671666667","25.05681","6500200","三重區"
"241025","271-UM","2018/05/15 20:19:04","新北市三重區三民街281號","121.479023333333","25.0682583333333","6500200","三重區"
"241007","398-BY","2018/05/15 20:19:04","新北市三重區溪尾街108巷58號","121.487131666667","25.078075","6500200","三重區"
"241035","KEA-2210","2018/05/15 20:19:05","新北市三重區正義北路33巷5號","121.497928333333","25.063655","6500200","三重區"
"241026","413-TH","2018/05/15 20:19:15","新北市三重區和平街45號","121.50165","25.06251","6500200","三重區"
"241004","475-VK","2018/05/15 20:19:23","新北市三重區慈愛街156號","121.490821666667","25.080725","6500200","三重區"
"241020","478-VK","2018/05/15 20:19:16","新北市三重區忠孝路一段6-3號","121.492238333333","25.071725","6500200","三重區"
"241014","543-UM","2018/05/15 20:19:10","新北市三重區龍門路254號","121.501038333333","25.0738266666667","6500200","三重區"
"241023","545-UM","2018/05/15 20:19:02","新北市三重區忠孝路三段93巷10-1號","121.478751666667","25.0648916666667","6500200","三重區"
"241001","547-UM","2018/05/15 20:19:02","新北市三重區自強路四段31巷17號","121.490145","25.0768083333333","6500200","三重區"
"241019","KEA-2593","2018/05/15 20:19:20","新北市三重區忠孝路一段68號","121.490111666667","25.0718133333333","6500200","三重區"
"241006","AAD-863","2018/05/15 20:19:15","新北市三重區車路頭街135-1號","121.484288333333","25.0761583333333","6500200","三重區"
"241030","743-BX","2018/05/15 20:19:05","新北市三重區環河南路254巷118號","121.487775","25.0522616666667","6500200","三重區"
"241012","941-UM","2018/05/15 20:19:21","新北市三重區河邊北街379-1號","121.501761666667","25.0765","6500200","三重區"
"241029","942-UM","2018/05/15 20:19:09","新北市三重區集美街225號","121.492045","25.05517","6500200","三重區"
"241033","AAC-255","2018/05/15 20:19:02","新北市三重區五谷王北街61-1號","121.475858333333","25.0496233333333","6500200","三重區"
"235039","097-UM","2018/05/15 20:19:04","新北市中和區大勇街32號","121.517275","24.9931083333333","6500300","中和區"
"235068","377-QA","2018/05/15 20:19:14","新北市中和區勝利路35巷1弄34號","121.500265","25.0077616666667","6500300","中和區"
"235061","378-QA","2018/05/15 20:19:15","新北市中和區員山路36巷12號","121.484013333333","24.9908666666667","6500300","中和區"
"235050","4979-A6","2018/05/15 20:19:19","新北市中和區景平路464巷2弄2號","121.5058","24.9939383333333","6500300","中和區"
"235069","4980-A6","2018/05/15 20:19:16","新北市中和區圓通路196號","121.496356666667","24.9944533333333","6500300","中和區"
"235066","911-UM","2018/05/15 20:19:07","新北市中和區光華街31巷24號","121.505601666667","25.0048733333333","6500300","中和區"
"235059","AAC-215","2018/05/15 20:19:12","新北市中和區圓通路437-3號","121.485285","24.9868066666667","6500300","中和區"
"247024","893-R6","2018/05/15 20:19:18","新北市蘆洲區光榮路120巷8弄20號","121.46432","25.0877483333333","6501400","蘆洲區"
"247014","546-UM","2018/05/15 20:19:08","新北市蘆洲區中山二路137巷2號","121.471958333333","25.0813433333333","6501400","蘆洲區"
"247022","500-BY","2018/05/15 20:19:07","新北市蘆洲區中正路192巷2弄2號","121.467643333333","25.08832","6501400","蘆洲區"
"247010","341-TH","2018/05/15 20:19:05","新北市蘆洲區信義路188巷23號","121.480151666667","25.084565","6501400","蘆洲區"
"247012","339-TH","2018/05/15 20:19:20","新北市蘆洲區中興街23號","121.48076","25.0869616666667","6501400","蘆洲區"
"247004","337-TH","2018/05/15 20:19:12","新北市蘆洲區永康街116號","121.45841","25.08542","6501400","蘆洲區"
"247006","336-TH","2018/05/15 20:19:03","新北市蘆洲區九芎街153巷18號","121.465748333333","25.0786033333333","6501400","蘆洲區"
"247018","057-VK","2018/05/15 20:19:11","新北市蘆洲區民族路406號","121.474618333333","25.0916033333333","6501400","蘆洲區"
"247008","056-VK","2018/05/15 20:19:18","新北市蘆洲區集賢路238號","121.48203","25.0857583333333","6501400","蘆洲區"
"247016","007-UY","2018/05/15 20:19:01","新北市蘆洲區光華路132巷39號","121.465803333333","25.0837516666667","6501400","蘆洲區"
"247002","002-UY","2018/05/15 20:19:06","新北市蘆洲區環堤大道108號","121.455563333333","25.0866066666667","6501400","蘆洲區"
"247020","001-UY","2018/05/15 20:19:09","新北市蘆洲區仁愛街57號","121.471825","25.0932183333333","6501400","蘆洲區"
"235065","251-BX","2018/05/15 20:19:10","新北市中和區永和路86號","121.497433333333","25.0052883333333","6500300","中和區"
"222001","KEA-2212","2018/05/15 20:19:16","新北市深坑區北深路三段223號","121.600206666667","25.004","6501800","深坑區"
"251009","008-UM","2018/05/15 20:19:20","新北市淡水區中正東路一段3巷14弄1號","121.450788333333","25.1639883333333","6501000","淡水區"
"251004","009-UM","2018/05/15 20:19:03","新北市淡水區民權路42號","121.460085","25.1372183333333","6501000","淡水區"
"251001","011-UM","2018/05/15 20:19:20","新北市淡水區新市二路四段265號","121.445748333333","25.192445","6501000","淡水區"
"251013","KEA-2871","2018/05/15 20:19:16","新北市淡水區相公山1-2號","121.474338333333","25.206645","6501000","淡水區"
"251016","179-VK","2018/05/15 20:19:06","新北市淡水區淡金路五段20號","121.453411666667","25.2324666666667","6501000","淡水區"
"251014","180-VK","2018/05/15 20:19:16","新北市淡水區石頭厝1號","121.458721666667","25.2355216666667","6501000","淡水區"
"251008","181-VK","2018/05/15 20:19:09","新北市淡水區淡海路180巷22號","121.42156","25.1845433333333","6501000","淡水區"
"251015","182-VK","2018/05/15 20:19:16","新北市淡水區淡金路三段436號","121.450586666667","25.2136566666667","6501000","淡水區"
"251010","413-VK","2018/05/15 20:19:20","新北市淡水區新民街一段134號","121.427633333333","25.18891","6501000","淡水區"
"251012","441-VK","2018/05/15 20:19:10","新北市淡水區淡金路三段426號","121.450508333333","25.2120916666667","6501000","淡水區"
"251007","442-VK","2018/05/15 20:19:16","新北市淡水區淡金路一段69號","121.458205","25.1734466666667","6501000","淡水區"
"251006","561-UM","2018/05/15 20:19:02","新北市淡水區北新路228號","121.45231","25.1803116666667","6501000","淡水區"
"251002","672-BX","2018/05/15 20:19:11","新北市淡水區中正路37號","121.442203333333","25.1694516666667","6501000","淡水區"
"251003","766-UM","2018/05/15 20:19:10","新北市淡水區中山北路一段229號","121.4445","25.17952","6501000","淡水區"
"207004","225-TW","2018/05/15 20:19:12","新北市萬里區北基里仁六街2-1號","121.681526666667","25.175025","6502800","萬里區"
"252002","178-VK","2018/05/15 20:19:23","新北市三芝區中正路一段37號","121.503136666667","25.2583516666667","6502100","三芝區"
"252001","292-VK","2018/05/15 20:19:17","新北市三芝區中山路一段14號","121.50068","25.2580983333333","6502100","三芝區"
"237006","5529-G3","2018/05/15 20:19:16","新北市三峽區中正路二段169號","121.366045","24.9146666666667","6500900","三峽區"
"237016","649-BX","2018/05/15 20:19:07","新北市三峽區介壽路二段138巷1弄62-7號","121.397335","24.93307","6500900","三峽區"
"236070","105-UM","2018/05/15 20:19:22","新北市土城區三民路11號","121.420446666667","24.9632616666667","6501300","土城區"
"236030","253-BX","2018/05/15 20:19:02","新北市土城區學成路128巷11號","121.449495","24.9901633333333","6501300","土城區"
"236026","269-VK","2018/05/15 20:19:19","新北市土城區裕生路100巷5號","121.446258333333","24.9851016666667","6501300","土城區"
"236014","270-VK","2018/05/15 20:19:11","新北市土城區廣明街90巷8號","121.455373333333","24.994435","6501300","土城區"
"236059","912-UM","2018/05/15 20:19:10","新北市土城區中央路三段121號","121.433908333333","24.96561","6501300","土城區"
"242034","AAC-296","2018/05/15 20:19:20","新北市新莊區華興街44號","121.446","25.0361533333333","6500500","新莊區"
"242058","986-R7","2018/05/15 20:19:16","新北市新莊區龍安路280號","121.422281666667","25.01911","6500500","新莊區"
"242054","751-BX","2018/05/15 20:19:19","新北市新莊區西盛街386號","121.427751666667","25.0129533333333","6500500","新莊區"
"242027","615-BX","2018/05/15 20:19:11","新北市新莊區幸福路541號","121.454865","25.04927","6500500","新莊區"
"242025","613-BX","2018/05/15 20:19:19","新北市新莊區五工一路80巷19號","121.46133","25.0668466666667","6500500","新莊區"
"242029","612-BX","2018/05/15 20:19:15","新北市新莊區中華路二段194號","121.453413333333","25.0517816666667","6500500","新莊區"
"242042","566-BX","2018/05/15 20:19:08","新北市新莊區壽山路69號","121.410115","25.032705","6500500","新莊區"
"242046","497-BY","2018/05/15 20:19:08","新北市新莊區中正路新生巷12號","121.416765","25.0239016666667","6500500","新莊區"
"242039","442-UM","2018/05/15 20:19:23","新北市新莊區民安西路90號","121.427005","25.0192483333333","6500500","新莊區"
"242051","441-UM","2018/05/15 20:19:09","新北市新莊區民安西路210號","121.425801666667","25.0148366666667","6500500","新莊區"
"242056","440-UM","2018/05/15 20:19:12","新北市新莊區豐年街28巷21號","121.445561666667","25.0322766666667","6500500","新莊區"
"242007","413-TV","2018/05/15 20:19:13","新北市新莊區福壽街94巷15號","121.459083333333","25.050155","6500500","新莊區"
"242023","362-BY","2018/05/15 20:19:11","新北市新莊區化成路832號","121.464873333333","25.0601233333333","6500500","新莊區"
"242061","353-BY","2018/05/15 20:19:10","新北市新莊區新樹路172號","121.434688333333","25.0217883333333","6500500","新莊區"
"242048","172-VK","2018/05/15 20:19:07","新北市新莊區龍安路254巷7號","121.421161666667","25.01912","6500500","新莊區"
"242011","173-VK","2018/05/15 20:19:15","新北市新莊區中信街39號","121.450316666667","25.050765","6500500","新莊區"
"242017","175-VK","2018/05/15 20:19:17","新北市新莊區中港一街133號","121.448245","25.0450266666667","6500500","新莊區"
"242005","176-VK","2018/05/15 20:19:11","新北市新莊區頭前路60-1號","121.466901666667","25.0526466666667","6500500","新莊區"
"242015","346-TH","2018/05/15 19:53:28","新北市新莊區中平路26巷61號","121.447675","25.0435183333333","6500500","新莊區"
"242021","348-TH","2018/05/15 20:19:22","新北市新莊區和興街49號","121.446666666667","25.0406966666667","6500500","新莊區"
"242044","349-TH","2018/05/15 20:19:15","新北市新莊區中正路新建巷28弄27號","121.41414","25.0216216666667","6500500","新莊區"
"242019","350-TH","2018/05/15 20:19:10","新北市新莊區復興路二段196巷3號","121.459421666667","25.0439783333333","6500500","新莊區"
"221008","489-VK","2018/05/15 20:19:16","新北市汐止區康寧街165號","121.622646666667","25.0666333333333","6501100","汐止區"
"221036","130-UY","2018/05/15 20:19:10","新北市汐止區福安街61巷14號","121.66486","25.0636716666667","6501100","汐止區"
"221015","131-UY","2018/05/15 20:19:12","新北市汐止區建成路142巷19弄1號","121.662213333333","25.0738","6501100","汐止區"
"221010","269-BY","2018/05/15 20:19:11","新北市汐止區八連路二段616號","121.625215","25.109725","6501100","汐止區"
"221012","278-VK","2018/05/15 20:19:01","新北市汐止區保新街267號","121.690711666667","25.0681116666667","6501100","汐止區"
"221023","279-VK","2018/05/15 20:19:07","新北市汐止區湖前街110巷2弄10號","121.631816666667","25.0716583333333","6501100","汐止區"
"221032","280-BY","2018/05/15 20:19:09","新北市汐止區民權街二段30號","121.6194","25.04982","6501100","汐止區"
"221027","281-BY","2018/05/15 20:19:13","新北市汐止區大同路二段370號","121.657746666667","25.0671566666667","6501100","汐止區"
"221029","298-VK","2018/05/15 20:19:11","新北市汐止區樟樹二路101-1號","121.639466666667","25.0631666666667","6501100","汐止區"
"221021","299-VK","2018/05/15 20:19:12","新北市汐止區水源路一段284號","121.654281666667","25.05828","6501100","汐止區"
"221031","353-TW","2018/05/15 20:19:13","新北市汐止區中興路150巷4-1號","121.633026666667","25.064745","6501100","汐止區"
"221035","622-UM","2018/05/15 20:19:04","新北市汐止區長江街101-5號","121.658705","25.0731566666667","6501100","汐止區"
"221025","623-UM","2018/05/15 20:19:20","新北市汐止區水源路二段32號","121.654913333333","25.057335","6501100","汐止區"
"221038","646-BX","2018/05/15 20:19:13","新北市汐止區忠孝東路462巷38弄5號","121.666686666667","25.0738016666667","6501100","汐止區"
"221033","647-BX","2018/05/15 20:19:16","新北市汐止區東勢街201巷2號","121.6337","25.042165","6501100","汐止區"
"221002","707-TV","2018/05/15 20:19:17","新北市汐止區福德三路26號","121.636951666667","25.0693983333333","6501100","汐止區"
"221018","753-BX","2018/05/15 20:19:04","新北市汐止區茄苳路270號","121.671961666667","25.067955","6501100","汐止區"
"242002","KEA-2550","2018/05/15 20:19:07","新北市新莊區中正路32號","121.464978333333","25.0417533333333","6500500","新莊區"
"220101","245-BX","2018/05/15 20:19:02","新北市板橋區萬板路460號","121.479603333333","25.0257233333333","6500100","板橋區"
"220103","257-TC","2018/05/15 20:19:09","新北市板橋區文德路59號","121.461276666667","25.0235983333333","6500100","板橋區"
"220089","280-UM","2018/05/15 20:19:16","新北市板橋區四維路137巷17號","121.46428","25.02485","6500100","板橋區"
"220083","286-VK","2018/05/15 20:19:13","新北市板橋區僑中二街104巷48號","121.444218333333","25.0081816666667","6500100","板橋區"
"220081","287-VK","2018/05/15 20:19:14","新北市板橋區僑中一街102巷5弄5號","121.446501666667","25.0126133333333","6500100","板橋區"
"220061","293-UM","2018/05/15 20:19:19","新北市板橋區文華街20-3號","121.457523333333","25.000495","6500100","板橋區"
"242009","281-VK","2018/05/15 20:19:15","新北市新莊區昌平街11號","121.454986666667","25.051835","6500500","新莊區"
"242037","280-VK","2018/05/15 20:19:19","新北市新莊區建安街76巷3弄2號","121.426241666667","25.02492","6500500","新莊區"
"220035","560-BX","2018/05/15 19:49:38","新北市板橋區中正路362號","121.45433","25.0238183333333","6500100","板橋區"
"220055","630-UY","2018/05/15 20:19:09","新北市板橋區仁愛路62巷15弄12號","121.460546666667","24.99855","6500100","板橋區"
"220102","KEA-2699","2018/05/15 20:19:19","新北市板橋區板新路238號","121.467933333333","25.01638","6500100","板橋區"
"220097","AAC-210","2018/05/15 20:19:07","新北市板橋區光正街9巷7-1號","121.462823333333","25.01677","6500100","板橋區"
