"lineid","car","time","location","longitude","latitude","cityid","cityname"
"234064","337-UY","2018/05/15 20:38:47","新北市永和區環河東路三段65號","121.52947","25.0070116666667","6500400","永和區"
"234030","746-BX","2018/05/15 20:38:50","新北市新店區安興路105號","121.515066666667","24.9781333333333","6500400","永和區"
"234061","AAD-866","2018/05/15 20:38:43","新北市永和區秀朗路一段108巷8號","121.516351666667","25.003715","6500400","永和區"
"234050","863-TW","2018/05/15 20:38:46","新北市永和區環河西路二段113號","121.506231666667","25.0146","6500400","永和區"
"249001","173-UM","2018/05/15 20:38:48","新北市八里區下罟子23號","121.376936666667","25.1386616666667","6502300","八里區"
"249004","303-UY","2018/05/15 20:38:46","新北市八里區中山路一段157巷23號","121.413136666667","25.1581716666667","6502300","八里區"
"249002","305-UY","2018/05/15 20:38:34","新北市八里區龍米路二段236號","121.431236666667","25.1586283333333","6502300","八里區"
"234023","9380-KE","2018/05/15 20:38:36","新北市永和區竹林路25巷34號","121.518141666667","25.0149433333333","6500400","永和區"
"234077","969-R7","2018/05/15 20:38:50","新北市新店區薏仁坑路自強巷1號","121.497396666667","24.9577183333333","6500400","永和區"
"234074","AAC-211","2018/05/15 20:38:53","新北市永和區竹林路119巷22弄3號","121.521555","25.0115766666667","6500400","永和區"
"243016","380-SR","2018/05/15 20:38:46","新北市泰山區明志路二段295號","121.426765","25.0466833333333","6501600","泰山區"
"243011","KEA-2215","2018/05/15 20:38:52","新北市泰山區中山路二段841號","121.425585","25.0354","6501600","泰山區"
"243010","KEA-2216","2018/05/15 20:38:37","新北市泰山區公園路89號","121.424185","25.0552883333333","6501600","泰山區"
"222003","436-BY","2018/05/15 20:38:49","新北市深坑區阿柔洋17-1號","121.6128","24.9992583333333","6501800","深坑區"
"222002","659-BX","2018/05/15 20:38:37","新北市深坑區萬福路45號","121.599518333333","25.006795","6501800","深坑區"
"231041","002-UM","2018/05/15 20:38:53","新北市新店區中正路696號","121.534006666667","24.9905716666667","6500600","新店區"
"231059","046-UY","2018/05/15 20:38:34","新北市新店區僑信路106號","121.500085","24.9471716666667","6500600","新店區"
"231040","047-UY","2018/05/15 20:38:52","新北市新店區中正路264號","121.539118333333","24.9735233333333","6500600","新店區"
"231044","106-UY","2018/05/15 20:38:36","新北市新店區建國路293巷1號","121.536708333333","24.986185","6500600","新店區"
"231053","108-UY","2018/05/15 20:38:43","新北市新店區廣興路7-10號","121.545663333333","24.91166","6500600","新店區"
"231048","187-VK","2018/05/15 20:38:37","新北市新店區寶慶街35巷1弄5號","121.543361666667","24.9866033333333","6500600","新店區"
"231057","188-VK","2018/05/15 20:38:41","新北市新店區花園六路二段1-7號","121.554025","24.9329266666667","6500600","新店區"
"231054","KEA-2219","2018/05/15 20:38:39","新北市新店區北新路一段64巷39弄4號","121.542565","24.9657866666667","6500600","新店區"
"231042","268-BY","2018/05/15 20:38:43","新北市新店區寶橋路230號","121.55153","24.9788283333333","6500600","新店區"
"231051","278-BY","2018/05/15 20:38:43","新北市新店區中央七街85號","121.526763333333","24.9770033333333","6500600","新店區"
"231050","AAD-862","2018/05/15 20:38:47","新北市新店區中正路278號","121.538741666667","24.9737616666667","6500600","新店區"
"231061","355-BY","2018/05/15 20:38:47","新北市新店區新和街36號","121.519295","24.9848833333333","6500600","新店區"
"231066","4716-K9","2018/05/15 20:38:39","新北市新店區安民街365巷1弄8號","121.516415","24.9752033333333","6500600","新店區"
"231056","4715-K9","2018/05/15 20:38:47","新北市新店區中央七街61巷30號","121.529578333333","24.9757066666667","6500600","新店區"
"231067","4772-VM","2018/05/15 20:38:35","新北市新店區安華路28-1號","121.520028333333","24.960705","6500600","新店區"
"231065","512-UM","2018/05/15 20:38:45","新北市新店區安祥路102巷48號","121.484921666667","24.964525","6500600","新店區"
"231049","513-UM","2018/05/15 20:38:45","新北市新店區永業路81巷3弄1號","121.529855","24.949205","6500600","新店區"
"231063","616-UM","2018/05/15 20:38:52","新北市新店區玫瑰路4-1號","121.493588333333","24.951355","6500600","新店區"
"231045","617-UM","2018/05/15 20:38:43","新北市新店區長春路40號","121.550481666667","24.957585","6500600","新店區"
"231068","718-UY","2018/05/15 20:38:41","新北市新店區寶元路一段65號","121.542203333333","24.9858516666667","6500600","新店區"
"231064","719-UM","2018/05/15 20:38:49","新北市新店區安和路三段175號","121.51567","24.9863533333333","6500600","新店區"
"231062","720-UM","2018/05/15 20:38:50","新北市新店區安泰路60巷55弄109號","121.484556666667","24.9462166666667","6500600","新店區"
"231060","897-TW","2018/05/15 20:38:40","新北市新店區安康路三段567-1號","121.475565","24.9436183333333","6500600","新店區"
"231043","899-TW","2018/05/15 20:38:52","新北市新店區建國路30號","121.540485","24.9744516666667","6500600","新店區"
"241011","013-R5","2018/05/15 20:38:44","新北市三重區龍門路191號","121.499566666667","25.07335","6500200","三重區"
"241028","022-UY","2018/05/15 20:38:41","新北市三重區光興街91號","121.497355","25.0598816666667","6500200","三重區"
"241008","059-VK","2018/05/15 20:38:36","新北市三重區下竹圍街91號","121.48111","25.07482","6500200","三重區"
"241009","060-VK","2018/05/15 20:38:42","新北市三重區仁愛街584號","121.48471","25.0811966666667","6500200","三重區"
"241031","061-VK","2018/05/15 20:38:43","新北市三重區重陽路一段43巷30號","121.48827","25.058505","6500200","三重區"
"241015","062-VK","2018/05/15 20:38:35","新北市三重區文化北路89號","121.498128333333","25.0678333333333","6500200","三重區"
"241017","063-VK","2018/05/15 20:38:34","新北市三重區安慶街270號","121.490716666667","25.067525","6500200","三重區"
"241024","065-VK","2018/05/15 20:38:35","新北市三重區三民街313號","121.477988333333","25.0692183333333","6500200","三重區"
"241002","090-VK","2018/05/15 20:38:34","新北市三重區仁義街167巷4號","121.497245","25.0816383333333","6500200","三重區"
"241003","091-VK","2018/05/15 20:38:43","新北市三重區五華街141巷60號","121.493466666667","25.0866516666667","6500200","三重區"
"241005","262-UM","2018/05/15 20:38:44","新北市三重區碧華街391號","121.492936666667","25.085605","6500200","三重區"
"241013","265-UM","2018/05/15 20:36:19","新北市三重區三和路四段83號","121.489331666667","25.0753916666667","6500200","三重區"
"241016","266-UM","2018/05/15 20:38:39","新北市三重區自強路一段143號","121.494611666667","25.0667716666667","6500200","三重區"
"241022","267-UM","2018/05/15 20:38:45","新北市三重區新北大道一段46巷18弄7號","121.488331666667","25.0620116666667","6500200","三重區"
"241018","268-UM","2018/05/15 20:38:51","新北市三重區自強路一段182號","121.495066666667","25.0663716666667","6500200","三重區"
"241032","269-UM","2018/05/15 20:38:39","新北市三重區重陽路一段120巷48號","121.485078333333","25.0601133333333","6500200","三重區"
"241025","271-UM","2018/05/15 20:38:44","新北市三重區頂崁街210巷28弄3號","121.475793333333","25.067615","6500200","三重區"
"241007","398-BY","2018/05/15 20:38:44","新北市三重區三和路四段101巷18號","121.48868","25.0770866666667","6500200","三重區"
"241035","KEA-2210","2018/05/15 20:38:46","新北市三重區正義北路300號","121.49539","25.0698166666667","6500200","三重區"
"241026","413-TH","2018/05/15 20:38:34","新北市三重區文化南路6-1號","121.5002","25.06257","6500200","三重區"
"241004","475-VK","2018/05/15 20:38:43","新北市三重區仁愛街399號","121.49113","25.0809166666667","6500200","三重區"
"241020","478-VK","2018/05/15 20:38:35","新北市三重區明德街1號","121.493125","25.0725116666667","6500200","三重區"
"241014","543-UM","2018/05/15 20:38:49","新北市三重區萬壽街23號","121.49971","25.069355","6500200","三重區"
"241023","545-UM","2018/05/15 20:38:42","新北市三重區自由街18巷21號","121.47887","25.066425","6500200","三重區"
"241001","547-UM","2018/05/15 20:38:42","新北市三重區自強路三段110巷37號","121.485901666667","25.0745483333333","6500200","三重區"
"241019","KEA-2593","2018/05/15 20:38:33","新北市三重區重陽路四段124號","121.492396666667","25.0711266666667","6500200","三重區"
"241006","AAD-863","2018/05/15 20:38:36","新北市三重區車路頭街135-1號","121.484313333333","25.0761483333333","6500200","三重區"
"241030","743-BX","2018/05/15 20:38:45","新北市三重區成功路73巷13號","121.489511666667","25.05202","6500200","三重區"
"241012","941-UM","2018/05/15 20:38:41","新北市三重區秀江街26號","121.502538333333","25.072975","6500200","三重區"
"241029","942-UM","2018/05/15 20:38:49","新北市三重區集美街126巷26號","121.490048333333","25.0539133333333","6500200","三重區"
"241033","AAC-255","2018/05/15 20:38:41","新北市三重區光復路二段87巷57號","121.475266666667","25.0586183333333","6500200","三重區"
"235039","097-UM","2018/05/15 20:38:45","新北市中和區大勇街29巷12-1號","121.515858333333","24.9945416666667","6500300","中和區"
"235069","4980-A6","2018/05/15 20:38:32","新北市中和區中正路649號","121.48527","24.995945","6500300","中和區"
"247024","893-R6","2018/05/15 20:38:38","新北市蘆洲區長樂路41號","121.463158333333","25.0857533333333","6501400","蘆洲區"
"247014","546-UM","2018/05/15 20:38:45","新北市蘆洲區中山一路257號","121.472875","25.080255","6501400","蘆洲區"
"247022","500-BY","2018/05/15 20:38:48","新北市蘆洲區中正路243巷7弄4號","121.467248333333","25.0860266666667","6501400","蘆洲區"
"247010","341-TH","2018/05/15 20:38:45","新北市蘆洲區重陽街70號","121.481786666667","25.0841616666667","6501400","蘆洲區"
"247012","339-TH","2018/05/15 20:38:46","新北市蘆洲區集賢路224巷35號","121.481088333333","25.087715","6501400","蘆洲區"
"247004","337-TH","2018/05/15 20:38:52","新北市蘆洲區長安街295號","121.458185","25.084825","6501400","蘆洲區"
"247006","336-TH","2018/05/15 20:38:43","新北市蘆洲區和平路183號","121.466371666667","25.0812716666667","6501400","蘆洲區"
"247008","056-VK","2018/05/15 20:38:38","新北市蘆洲區重陽街42-1號","121.481123333333","25.0825116666667","6501400","蘆洲區"
"247016","007-UY","2018/05/15 20:38:49","新北市蘆洲區中正路25號","121.471255","25.0821566666667","6501400","蘆洲區"
"247002","002-UY","2018/05/15 20:38:46","新北市蘆洲區長安街375巷6號","121.456951666667","25.0878333333333","6501400","蘆洲區"
"247020","001-UY","2018/05/15 20:38:49","新北市蘆洲區民族路331號","121.47384","25.0917133333333","6501400","蘆洲區"
"222001","KEA-2212","2018/05/15 20:38:48","新北市深坑區北深路三段217號","121.60024","25.003925","6501800","深坑區"
"251009","008-UM","2018/05/15 20:38:40","新北市淡水區民族路112巷70號","121.46175","25.133875","6501000","淡水區"
"251001","011-UM","2018/05/15 20:38:40","新北市淡水區淡金路一段69號","121.45881","25.173105","6501000","淡水區"
"251013","KEA-2871","2018/05/15 20:38:36","新北市淡水區下圭柔山28巷9號","121.457583333333","25.2039783333333","6501000","淡水區"
"251016","179-VK","2018/05/15 20:38:46","新北市淡水區後洲子8-2號","121.449641666667","25.2240233333333","6501000","淡水區"
"251014","180-VK","2018/05/15 20:38:36","新北市淡水區公埔子25-2號","121.46806","25.232865","6501000","淡水區"
"251015","182-VK","2018/05/15 20:38:37","新北市淡水區淡金路四段493號","121.45206","25.2247383333333","6501000","淡水區"
"251010","413-VK","2018/05/15 20:38:40","新北市淡水區沙崙路181巷15號","121.423985","25.1843216666667","6501000","淡水區"
"251012","441-VK","2018/05/15 20:38:50","新北市淡水區興仁路108號","121.451713333333","25.2181433333333","6501000","淡水區"
"251007","442-VK","2018/05/15 20:38:36","新北市淡水區淡金路一段69號","121.458183333333","25.173435","6501000","淡水區"
"251006","561-UM","2018/05/15 20:38:42","新北市淡水區商工路196巷5號","121.45117","25.18682","6501000","淡水區"
"251011","650-BX","2018/05/15 20:38:41","新北市淡水區新市一路一段361號","121.436271666667","25.1861966666667","6501000","淡水區"
"251002","672-BX","2018/05/15 20:38:31","新北市淡水區中正路36號","121.443786666667","25.1692266666667","6501000","淡水區"
"251003","766-UM","2018/05/15 20:38:50","新北市淡水區新民街120巷21號","121.438366666667","25.1780666666667","6501000","淡水區"
"252002","178-VK","2018/05/15 20:38:43","新北市三芝區淡金路二段47-1號","121.50371","25.2604566666667","6502100","三芝區"
"252001","292-VK","2018/05/15 20:38:37","新北市三芝區長安街49號","121.501308333333","25.2563883333333","6502100","三芝區"
"242034","AAC-296","2018/05/15 20:38:36","新北市新莊區中正路387號","121.445926666667","25.034635","6500500","新莊區"
"242058","986-R7","2018/05/15 20:38:36","新北市新莊區四維路166號","121.422545","25.022175","6500500","新莊區"
"242054","751-BX","2018/05/15 20:38:43","新北市新莊區西盛街324巷16號","121.427348333333","25.0147583333333","6500500","新莊區"
"242027","615-BX","2018/05/15 20:38:51","新北市新莊區思源路71號","121.459896666667","25.040735","6500500","新莊區"
"242025","613-BX","2018/05/15 20:38:47","新北市新莊區化成路579巷1號","121.46428","25.0659033333333","6500500","新莊區"
"242029","612-BX","2018/05/15 20:38:35","新北市新莊區中港路367號","121.452003333333","25.04624","6500500","新莊區"
"242042","566-BX","2018/05/15 20:38:48","新北市新莊區中正路694巷3弄24號","121.417885","25.028025","6500500","新莊區"
"242046","497-BY","2018/05/15 20:38:48","新北市新莊區龍安路90號","121.417608333333","25.0207133333333","6500500","新莊區"
"242039","442-UM","2018/05/15 20:38:43","新北市新莊區成功街18號","121.425215","25.0211266666667","6500500","新莊區"
"242051","441-UM","2018/05/15 20:38:49","新北市新莊區民安西路173巷33號","121.427378333333","25.0159366666667","6500500","新莊區"
"242056","440-UM","2018/05/15 20:38:52","新北市新莊區瓊泰路72號","121.443295","25.028945","6500500","新莊區"
"242007","413-TV","2018/05/15 20:38:33","新北市新莊區思源路287巷2弄1號","121.459325","25.0482766666667","6500500","新莊區"
"242023","362-BY","2018/05/15 20:38:51","新北市新莊區化成路414號","121.46596","25.0508616666667","6500500","新莊區"
"242061","353-BY","2018/05/15 20:38:51","新北市新莊區新樹路258巷3號","121.43214","25.01559","6500500","新莊區"
"242048","172-VK","2018/05/15 20:38:47","新北市新莊區中正路591號","121.43302","25.0321266666667","6500500","新莊區"
"242011","173-VK","2018/05/15 20:38:49","新北市新莊區中榮街104巷17號","121.447156666667","25.0536866666667","6500500","新莊區"
"242017","175-VK","2018/05/15 20:38:37","新北市新莊區中港一街161號","121.447116666667","25.0449666666667","6500500","新莊區"
"242021","348-TH","2018/05/15 20:38:41","新北市新莊區中華路一段108號","121.452345","25.04011","6500500","新莊區"
"242044","349-TH","2018/05/15 20:38:35","新北市新莊區龍安路108號","121.418381666667","25.0204883333333","6500500","新莊區"
"242019","350-TH","2018/05/15 20:38:50","新北市新莊區中港路186號","121.454931666667","25.0422033333333","6500500","新莊區"
"221008","489-VK","2018/05/15 20:38:36","新北市汐止區康寧街706-2號","121.63853","25.0730616666667","6501100","汐止區"
"221036","130-UY","2018/05/15 20:38:50","新北市汐止區南昌街16號","121.662918333333","25.068405","6501100","汐止區"
"221015","131-UY","2018/05/15 20:38:52","新北市汐止區建成路37巷1號","121.66372","25.072805","6501100","汐止區"
"221010","269-BY","2018/05/15 20:38:31","新北市汐止區八連路一段207號","121.641261666667","25.080595","6501100","汐止區"
"221023","279-VK","2018/05/15 20:38:47","新北市汐止區康寧街702號","121.63724","25.0718583333333","6501100","汐止區"
"221032","280-BY","2018/05/15 20:38:49","新北市汐止區橫科路221巷19-1號","121.621438333333","25.049535","6501100","汐止區"
"221027","281-BY","2018/05/15 20:38:53","新北市汐止區大同路二段567號","121.662896666667","25.0699033333333","6501100","汐止區"
"221029","298-VK","2018/05/15 20:36:51","新北市汐止區新台五路一段79-7號","121.646103333333","25.0622133333333","6501100","汐止區"
"221021","299-VK","2018/05/15 20:38:52","新北市汐止區水源路一段284號","121.654283333333","25.058305","6501100","汐止區"
"221035","622-UM","2018/05/15 20:38:43","新北市汐止區長江街101-5號","121.658681666667","25.0731316666667","6501100","汐止區"
"221025","623-UM","2018/05/15 20:38:40","新北市汐止區水源路二段234號","121.658518333333","25.0515283333333","6501100","汐止區"
"221038","646-BX","2018/05/15 20:38:53","新北市汐止區新江北路30巷15號","121.652895","25.0689116666667","6501100","汐止區"
"221033","647-BX","2018/05/15 20:38:36","新北市汐止區合順街18巷8弄5號","121.620285","25.0419833333333","6501100","汐止區"
"221002","707-TV","2018/05/15 20:38:36","新北市汐止區福德二路169號","121.63083","25.06514","6501100","汐止區"
"221018","753-BX","2018/05/15 20:38:44","新北市汐止區茄苳路109號","121.667815","25.07136","6501100","汐止區"
"242002","KEA-2550","2018/05/15 20:38:47","新北市新莊區明中街4號","121.458833333333","25.0381883333333","6500500","新莊區"
"220103","257-TC","2018/05/15 20:38:49","新北市板橋區漢生東路83巷24號","121.467435","25.0167116666667","6500100","板橋區"
"220083","286-VK","2018/05/15 20:38:33","新北市板橋區大觀路一段38巷1-5號","121.44263","25.00441","6500100","板橋區"
"242009","281-VK","2018/05/15 20:38:36","新北市新莊區福壽街99巷8弄4號","121.456791666667","25.050675","6500500","新莊區"
"242037","280-VK","2018/05/15 20:38:39","新北市新莊區後港一路94巷3弄2號","121.428051666667","25.02625","6500500","新莊區"
