"lineid","car","time","location","longitude","latitude","cityid","cityname"
"234077","969-R7","2018/05/15 20:59:10","新北市永和區福和路1號","121.526146666667","25.0098683333333","6500400","永和區"
"231059","046-UY","2018/05/15 20:59:15","新北市新店區僑信路132巷1號","121.500728333333","24.945735","6500600","新店區"
"231040","047-UY","2018/05/15 20:59:12","新北市新店區北新路一段351號","121.541968333333","24.9694816666667","6500600","新店區"
"231053","108-UY","2018/05/15 20:59:23","新北市新店區環河路29巷1號","121.536985","24.96141","6500600","新店區"
"231048","187-VK","2018/05/15 20:58:51","新北市新店區寶元路一段109號","121.545655","24.9831033333333","6500600","新店區"
"231054","KEA-2219","2018/05/15 20:59:19","新北市新店區中正路75巷61號","121.543356666667","24.969305","6500600","新店區"
"231042","268-BY","2018/05/15 20:59:03","新北市新店區寶橋路97號","121.54711","24.97618","6500600","新店區"
"231051","278-BY","2018/05/15 20:59:03","新北市新店區中正路663巷7弄15號","121.532891666667","24.990045","6500600","新店區"
"231050","AAD-862","2018/05/15 20:59:06","新北市新店區三民路65號","121.53638","24.9713166666667","6500600","新店區"
"231061","355-BY","2018/05/15 20:59:21","新北市新店區永安街109巷7號","121.521213333333","24.985795","6500600","新店區"
"231066","4716-K9","2018/05/15 20:59:19","新北市新店區安康路二段16巷48號","121.5168","24.9656783333333","6500600","新店區"
"231067","4772-VM","2018/05/15 20:59:15","新北市新店區安德街130巷10號","121.508206666667","24.9608366666667","6500600","新店區"
"231065","512-UM","2018/05/15 20:59:05","新北市新店區安祥路69巷35號","121.481801666667","24.96047","6500600","新店區"
"231063","616-UM","2018/05/15 20:59:12","新北市新店區富貴街10巷2號","121.494235","24.94972","6500600","新店區"
"231045","617-UM","2018/05/15 20:59:23","新北市新店區安康路二段320巷15弄18號","121.502465","24.9591166666667","6500600","新店區"
"231068","718-UY","2018/05/15 20:59:21","新北市新店區寶中路79號","121.547705","24.980725","6500600","新店區"
"231064","719-UM","2018/05/15 20:59:09","新北市新店區安民街251巷10弄2號","121.516731666667","24.9727333333333","6500600","新店區"
"231062","720-UM","2018/05/15 20:59:10","新北市新店區雙城路30號","121.491796666667","24.9503533333333","6500600","新店區"
"231060","897-TW","2018/05/15 20:59:20","新北市新店區安康路三段421-1號","121.483133333333","24.9496966666667","6500600","新店區"
"231043","899-TW","2018/05/15 20:59:12","新北市新店區中正路356號","121.535731666667","24.9756933333333","6500600","新店區"
"241011","013-R5","2018/05/15 20:59:04","新北市三重區介壽路26號","121.499711666667","25.0721366666667","6500200","三重區"
"241028","022-UY","2018/05/15 20:59:21","新北市三重區重新路三段94號","121.492606666667","25.06099","6500200","三重區"
"241008","059-VK","2018/05/15 20:59:16","新北市三重區車路頭街135-1號","121.484301666667","25.0761183333333","6500200","三重區"
"241009","060-VK","2018/05/15 20:59:22","新北市三重區三和路四段157號","121.483566666667","25.07837","6500200","三重區"
"241031","061-VK","2018/05/15 20:59:03","新北市三重區重陽路一段113巷2弄2號","121.487546666667","25.0598783333333","6500200","三重區"
"241015","062-VK","2018/05/15 20:59:15","新北市三重區福德北路61號","121.502161666667","25.0654983333333","6500200","三重區"
"241017","063-VK","2018/05/15 20:59:14","新北市三重區大仁街23號","121.49207","25.064535","6500200","三重區"
"241024","065-VK","2018/05/15 20:59:15","新北市三重區大勇街82巷15弄30號","121.481278333333","25.071995","6500200","三重區"
"241002","090-VK","2018/05/15 20:59:15","新北市三重區五華街1巷4號","121.495756666667","25.0797316666667","6500200","三重區"
"241003","091-VK","2018/05/15 20:59:23","新北市三重區進安街198號","121.493921666667","25.0859383333333","6500200","三重區"
"241005","262-UM","2018/05/15 20:59:04","新北市三重區五華街243號","121.489275","25.086095","6500200","三重區"
"241013","265-UM","2018/05/15 20:59:04","新北市三重區仁賢街4號","121.4956","25.074795","6500200","三重區"
"241016","266-UM","2018/05/15 20:59:19","新北市三重區正義北路99號","121.497025","25.06536","6500200","三重區"
"241022","267-UM","2018/05/15 20:59:05","新北市三重區中正北路20巷12號","121.487978333333","25.06246","6500200","三重區"
"241018","268-UM","2018/05/15 20:59:11","新北市三重區自強路一段155-1號","121.493658333333","25.06721","6500200","三重區"
"241032","269-UM","2018/05/15 20:59:19","新北市三重區三陽路123號","121.48335","25.0588766666667","6500200","三重區"
"241025","271-UM","2018/05/15 20:59:04","新北市三重區貴陽街21號","121.484273333333","25.061895","6500200","三重區"
"241007","398-BY","2018/05/15 20:59:04","新北市三重區慈愛街8號","121.48451","25.078385","6500200","三重區"
"241026","413-TH","2018/05/15 20:59:14","新北市三重區文化南路43號","121.50015","25.0614633333333","6500200","三重區"
"241004","475-VK","2018/05/15 20:59:23","新北市三重區仁愛街420號","121.490378333333","25.0814333333333","6500200","三重區"
"241020","478-VK","2018/05/15 20:59:16","新北市三重區忠孝路一段101號","121.489495","25.0721366666667","6500200","三重區"
"241014","543-UM","2018/05/15 20:59:10","新北市三重區長壽街120巷11號","121.50251","25.0690133333333","6500200","三重區"
"241023","545-UM","2018/05/15 20:59:22","新北市三重區洛陽街45巷15號","121.482406666667","25.063725","6500200","三重區"
"241001","547-UM","2018/05/15 20:59:02","新北市三重區自強路三段87巷21號","121.488246666667","25.0749266666667","6500200","三重區"
"241019","KEA-2593","2018/05/15 20:59:13","新北市三重區自強路二段74巷19號","121.487955","25.069905","6500200","三重區"
"241006","AAD-863","2018/05/15 20:59:15","新北市三重區永福街29號","121.481621666667","25.0782066666667","6500200","三重區"
"241030","743-BX","2018/05/15 20:59:05","新北市三重區中正南路252巷5號","121.493443333333","25.0527116666667","6500200","三重區"
"241012","941-UM","2018/05/15 20:59:21","新北市三重區仁信街27號","121.501278333333","25.07551","6500200","三重區"
"241029","942-UM","2018/05/15 20:59:09","新北市三重區中正南路41巷1號","121.493846666667","25.0598266666667","6500200","三重區"
"241033","AAC-255","2018/05/15 20:59:21","新北市三重區光復路二段1號","121.47234","25.05331","6500200","三重區"
"235069","4980-A6","2018/05/15 20:59:12","新北市中和區中正路637巷17號","121.48489","24.99462","6500300","中和區"
"247024","893-R6","2018/05/15 20:59:18","新北市蘆洲區長興路213號","121.461193333333","25.0863566666667","6501400","蘆洲區"
"247014","546-UM","2018/05/15 20:59:20","新北市蘆洲區中山二路36巷13號","121.474326666667","25.0828216666667","6501400","蘆洲區"
"247022","500-BY","2018/05/15 20:59:07","新北市蘆洲區三民路226號","121.468703333333","25.0896133333333","6501400","蘆洲區"
"247010","341-TH","2018/05/15 20:59:05","新北市蘆洲區鷺江街76號","121.476935","25.0837866666667","6501400","蘆洲區"
"247012","339-TH","2018/05/15 20:59:06","新北市蘆洲區民權路6-1號","121.476731666667","25.0856833333333","6501400","蘆洲區"
"247004","337-TH","2018/05/15 20:59:12","新北市蘆洲區永安南路二段268號","121.45864","25.080755","6501400","蘆洲區"
"247006","336-TH","2018/05/15 20:59:03","新北市蘆洲區永安南路二段18號","121.467738333333","25.0771816666667","6501400","蘆洲區"
"247018","057-VK","2018/05/15 20:59:07","新北市蘆洲區民權路132-2號","121.473333333333","25.088845","6501400","蘆洲區"
"247008","056-VK","2018/05/15 20:59:18","新北市蘆洲區民生街125號","121.472716666667","25.0789116666667","6501400","蘆洲區"
"247016","007-UY","2018/05/15 20:59:21","新北市蘆洲區正和街55號","121.468925","25.08129","6501400","蘆洲區"
"247020","001-UY","2018/05/15 20:59:09","新北市蘆洲區民族路492號","121.470173333333","25.09072","6501400","蘆洲區"
"251009","008-UM","2018/05/15 20:59:20","新北市淡水區民族路112巷70號","121.46175","25.133875","6501000","淡水區"
"251004","009-UM","2018/05/15 20:59:03","新北市淡水區中正東路二段143巷2弄1號","121.460688333333","25.1472616666667","6501000","淡水區"
"251001","011-UM","2018/05/15 20:59:20","新北市淡水區淡金路二段147號","121.449806666667","25.182825","6501000","淡水區"
"251013","KEA-2871","2018/05/15 20:59:16","新北市淡水區行忠路330號","121.460881666667","25.2005216666667","6501000","淡水區"
"251016","179-VK","2018/05/15 20:59:06","新北市淡水區牛埔子11-1號","121.450228333333","25.2184316666667","6501000","淡水區"
"251014","180-VK","2018/05/15 20:59:16","新北市淡水區淡金路五段72號","121.454823333333","25.2336716666667","6501000","淡水區"
"251015","182-VK","2018/05/15 20:59:16","新北市淡水區淡金路四段542巷17號","121.45275","25.22708","6501000","淡水區"
"251010","413-VK","2018/05/15 20:59:20","新北市淡水區淡海路23號","121.423715","25.17906","6501000","淡水區"
"251012","441-VK","2018/05/15 20:59:10","新北市淡水區淡金路五段98號","121.456285","25.2360916666667","6501000","淡水區"
"251007","442-VK","2018/05/15 20:59:16","新北市淡水區水源街一段139號","121.447115","25.1718766666667","6501000","淡水區"
"251005","443-VK","2018/05/15 20:59:09","新北市淡水區學府路51巷2弄16號","121.448063333333","25.1699866666667","6501000","淡水區"
"251011","650-BX","2018/05/15 20:59:21","新北市淡水區新民街226巷1號","121.436296666667","25.1807516666667","6501000","淡水區"
"251002","672-BX","2018/05/15 20:59:11","新北市淡水區水源街一段116號","121.446943333333","25.17192","6501000","淡水區"
"251003","766-UM","2018/05/15 20:59:10","新北市淡水區新春街125巷5號","121.441465","25.1822966666667","6501000","淡水區"
"242027","615-BX","2018/05/15 20:59:11","新北市八里區荖阡坑路28-2號","121.403381666667","25.1277983333333","6500500","新莊區"
"242039","442-UM","2018/05/15 20:59:03","新北市新莊區瓊林路59-38號","121.441168333333","25.0234316666667","6500500","新莊區"
"221029","298-VK","2018/05/15 20:57:31","新北市汐止區汐萬路一段256巷1號","121.651871666667","25.0749333333333","6501100","汐止區"
"242002","KEA-2550","2018/05/15 20:59:07","新北市三重區光復路二段87巷39弄36號","121.475726666667","25.05783","6500500","新莊區"
