"lineid","car","time","location","longitude","latitude","cityid","cityname"
"248005","653-BX","2018/01/27 09:09:16","新北市五股區水碓路16巷33號","121.434051666667","25.0730516666667","6501500","五股區"
"222004","289-BY","2018/01/27 09:09:07","新北市深坑區王軍寮7號","121.615535","24.9843716666667","6501800","深坑區"
"231007","189-VK","2018/01/27 09:06:16","新北市新店區新潭路三段236號","121.501598333333","24.9032516666667","6500600","新店區"
"231008","192-VK","2018/01/27 09:09:24","新北市新店區廣興路60巷15號","121.540673333333","24.91512","6500600","新店區"
"235001","611-BX","2018/01/27 09:09:25","新北市中和區民享街245號","121.472081666667","24.9962116666667","6500300","中和區"
"223002","198-BX","2018/01/27 09:09:14","新北市石碇區靜安路一段102號","121.648063333333","25.0089066666667","6501900","石碇區"
"223001","205-TH","2018/01/27 09:09:26","新北市石碇區中楒子腳3號","121.63806","24.97177","6501900","石碇區"
"223004","660-BX","2018/01/27 09:09:20","新北市石碇區碇坪路二段35號","121.684821666667","24.976695","6501900","石碇區"
"223005","677-TV","2018/01/27 09:02:56","新北市石碇區磨石坑36號","121.691445","24.9677233333333","6501900","石碇區"
"227006","282-VK","2018/01/27 09:09:21","新北市雙溪區長源里赤皮崙5-1號","121.794283333333","25.01567","6502500","雙溪區"
"252004","249-BX","2018/01/27 09:09:25","新北市淡水區大埤頭1-2號","121.492831666667","25.19455","6502100","三芝區"
"252007","AAC-283","2018/01/27 09:09:20","新北市三芝區後厝里北勢子23-2號","121.474321666667","25.2512933333333","6502100","三芝區"
"237001","159-UY","2018/01/27 09:09:12","新北市三峽區大德路113號","121.376346666667","24.944315","6500900","三峽區"
"236011","165-UM","2018/01/27 09:09:28","新北市土城區中山路30號","121.423963333333","24.9635216666667","6501300","土城區"
"236002","339-SR","2018/01/27 09:09:19","新北市土城區明德路二段72-3號","121.4471","24.9835133333333","6501300","土城區"
"236006","498-BY","2018/01/27 09:09:24","新北市土城區承天路9號","121.436191666667","24.9658833333333","6501300","土城區"
"220038","487-VK","2018/01/27 09:09:15","新北市板橋區民生路一段36-1號","121.474653333333","25.0143","6500100","板橋區"
