"lineid","car","time","location","longitude","latitude","cityid","cityname"
"248005","653-BX","2018/01/27 09:59:16","新北市五股區中興路二段182巷50號","121.454435","25.0810216666667","6501500","五股區"
"231007","189-VK","2018/01/27 09:59:15","新北市新店區新潭路三段215巷25號","121.508153333333","24.9040283333333","6500600","新店區"
"231008","192-VK","2018/01/27 09:45:37","新北市新店區平廣路一段247號","121.5088","24.8888666666667","6500600","新店區"
"227006","282-VK","2018/01/27 09:59:21","新北市雙溪區長源里柑腳18號","121.80465","25.0142166666667","6502500","雙溪區"
"252004","249-BX","2018/01/27 09:59:25","新北市三芝區福德里土地公埔46號","121.513246666667","25.229375","6502100","三芝區"
"252007","AAC-283","2018/01/27 09:59:20","新北市三芝區新庄里新庄子111號","121.51923","25.2661983333333","6502100","三芝區"
"237001","159-UY","2018/01/27 09:59:26","新北市三峽區國際二街61號","121.371068333333","24.9424033333333","6500900","三峽區"
"236049","913-UM","2018/01/27 09:36:57","新北市土城區城林路6巷80號","121.438441666667","24.9798183333333","6501300","土城區"
"220038","487-VK","2018/01/27 09:59:15","新北市板橋區民生路三段64號","121.466965","25.0252866666667","6500100","板橋區"
