"lineid","car","time","location","longitude","latitude","cityid","cityname"
"234044","148-BY","2018/01/27 12:59:25","新北市永和區得和路373巷29號","121.525075","25.0003333333333","6500400","永和區"
"234005","207-UY","2018/01/27 12:59:22","新北市永和區中山路一段31號","121.513225","25.0105266666667","6500400","永和區"
"234078","298-R6","2018/01/27 12:59:28","新北市永和區永亨路70號","121.521261666667","25.005945","6500400","永和區"
"234036","336-UY","2018/01/27 12:59:24","新北市永和區成功路二段207號","121.526628333333","24.9959466666667","6500400","永和區"
"234062","337-UY","2018/01/27 12:59:28","新北市永和區秀朗路一段164號","121.518485","25.0032533333333","6500400","永和區"
"234084","338-UY","2018/01/27 12:59:15","新北市永和區永利路18號","121.518023333333","25.00587","6500400","永和區"
"234068","552-UM","2018/01/27 12:59:15","新北市永和區中興街68巷5弄4號","121.518305","25.0115583333333","6500400","永和區"
"234015","745-BX","2018/01/27 12:59:27","新北市永和區永和路二段299號","121.516125","25.0161933333333","6500400","永和區"
"234028","746-BX","2018/01/27 12:59:32","新北市永和區四維街34號","121.525566666667","24.9980466666667","6500400","永和區"
"234052","KEA-2590","2018/01/27 12:59:14","新北市永和區竹林路66巷2號","121.518246666667","25.0134416666667","6500400","永和區"
"234012","KEA-2591","2018/01/27 12:59:28","新北市永和區信義路9-1號","121.514445","25.0119066666667","6500400","永和區"
"234060","AAD-866","2018/01/27 12:59:20","新北市永和區福和路309巷1號","121.516368333333","25.007065","6500400","永和區"
"234040","862-TW","2018/01/27 12:59:26","新北市永和區永貞路267號","121.511808333333","25.0047766666667","6500400","永和區"
"234048","863-TW","2018/01/27 12:59:23","新北市永和區文化路198號","121.510663333333","25.0163383333333","6500400","永和區"
"234025","9371-KE","2018/01/27 12:59:26","新北市永和區永和路一段45號","121.512796666667","25.0063783333333","6500400","永和區"
"234010","9373-KE","2018/01/27 12:59:25","新北市永和區文化路113巷21弄2號","121.513263333333","25.0141133333333","6500400","永和區"
"248017","225-UY","2018/01/27 12:59:24","新北市五股區中興路二段83巷26-6號","121.460185","25.075185","6501500","五股區"
"234022","9380-KE","2018/01/27 12:59:28","新北市永和區竹林路75巷25弄6號","121.520346666667","25.0143233333333","6500400","永和區"
"234076","969-R7","2018/01/27 12:59:31","新北市永和區智光街126號","121.51506","24.9956716666667","6500400","永和區"
"234072","AAC-211","2018/01/27 12:59:20","新北市永和區環河東路二段98號","121.524131666667","25.0103666666667","6500400","永和區"
"234066","AAC-212","2018/01/27 12:59:18","新北市永和區中和路625號","121.512926666667","25.0049583333333","6500400","永和區"
"234001","AAC-295","2018/01/27 12:59:24","新北市永和區永平路35號","121.512958333333","25.0087283333333","6500400","永和區"
"231028","046-UY","2018/01/27 12:59:33","新北市新店區安華路28-1號","121.519561666667","24.9609166666667","6500600","新店區"
"231030","047-UY","2018/01/27 12:59:22","新北市新店區安康路一段359-27號","121.517745","24.96124","6500600","新店區"
"231018","107-UY","2018/01/27 12:58:56","新北市新店區安華路28-1號","121.519436666667","24.961375","6500600","新店區"
"231012","108-UY","2018/01/27 12:59:30","新北市新店區安華路28-1號","121.519343333333","24.9612466666667","6500600","新店區"
"231020","110-UY","2018/01/27 12:59:25","新北市新店區安華路28-1號","121.519466666667","24.96136","6500600","新店區"
"231017","KEA-2219","2018/01/27 12:59:31","新北市新店區安華路28-1號","121.51985","24.9613566666667","6500600","新店區"
"231010","278-BY","2018/01/27 12:59:25","新北市新店區安華路28-1號","121.519096666667","24.96116","6500600","新店區"
"231023","AAD-862","2018/01/27 12:59:27","新北市新店區安華路28-1號","121.519651666667","24.9609483333333","6500600","新店區"
"231024","4716-K9","2018/01/27 12:59:13","新北市新店區安華路28-1號","121.519743333333","24.961095","6500600","新店區"
"231038","4715-K9","2018/01/27 12:59:26","新北市新店區安華路28-1號","121.519288333333","24.96057","6500600","新店區"
"231036","512-UM","2018/01/27 12:59:31","新北市新店區安華路28-1號","121.519261666667","24.9612283333333","6500600","新店區"
"231035","515-UM","2018/01/27 12:59:26","新北市新店區安華路28-1號","121.51953","24.96109","6500600","新店區"
"231003","616-UM","2018/01/27 12:59:22","新北市新店區安華路1-1號","121.519621666667","24.9603683333333","6500600","新店區"
"231001","619-UM","2018/01/27 12:59:35","新北市新店區安華路28-1號","121.519578333333","24.9610116666667","6500600","新店區"
"231034","645-TV","2018/01/27 12:59:27","新北市新店區安華路28-1號","121.519235","24.960585","6500600","新店區"
"231013","719-UM","2018/01/27 12:59:20","新北市新店區安康路一段355-3號","121.519461666667","24.9615416666667","6500600","新店區"
"231033","720-UM","2018/01/27 12:59:19","新北市新店區安華路28-1號","121.519225","24.9611533333333","6500600","新店區"
"231005","897-TW","2018/01/27 12:59:29","新北市新店區安華路28-1號","121.519646666667","24.9607983333333","6500600","新店區"
"231004","899-TW","2018/01/27 12:59:25","新北市新店區安華路28-1號","121.519313333333","24.960865","6500600","新店區"
"231037","AKT-0513","2018/01/27 12:59:16","新北市新店區安華路1-1號","121.519361666667","24.9602933333333","6500600","新店區"
"235028","005-UY","2018/01/27 12:59:23","新北市中和區員山路36巷16-3號","121.485018333333","24.9911483333333","6500300","中和區"
"235029","098-UM","2018/01/27 12:59:33","新北市中和區連城路301號","121.489848333333","24.9961316666667","6500300","中和區"
"235004","150-BY","2018/01/27 12:59:28","新北市中和區員山路36巷16-2號","121.485336666667","24.991725","6500300","中和區"
"235022","151-BY","2018/01/27 12:59:32","新北市中和區中正路395號","121.489195","24.9935016666667","6500300","中和區"
"235002","185-VK","2018/01/27 12:59:15","新北市中和區秀朗路三段10巷14弄23號","121.52454","24.996425","6500300","中和區"
"235031","255-BX","2018/01/27 12:59:13","新北市中和區中山路二段550號","121.484061666667","25.0053566666667","6500300","中和區"
"235006","551-UM","2018/01/27 12:59:16","新北市中和區和城路一段271巷1號","121.4855","24.9917916666667","6500300","中和區"
"235026","800-TS","2018/01/27 12:59:21","新北市中和區中正路589巷15號","121.485736666667","24.9932966666667","6500300","中和區"
"235015","157-BY","2018/01/27 12:59:22","新北市中和區員山路36巷13號","121.484096666667","24.9909883333333","6500300","中和區"
"235001","AAC-213","2018/01/27 12:59:27","新北市中和區錦和路350-1號","121.490405","24.993565","6500300","中和區"
"228005","097-TW","2018/01/27 12:59:33","新北市貢寮區福隆里東興街31-1號","121.95264","25.0207816666667","6502600","貢寮區"
"228004","212-TW","2018/01/27 12:59:19","新北市貢寮區吉林里內寮街57號","121.886551666667","24.98675","6502600","貢寮區"
"253001","6251-TK","2018/01/27 12:59:32","新北市石門區中央路5-1號","121.566445","25.291475","6502200","石門區"
"253004","8270-PC","2018/01/27 12:59:18","新北市石門區中山路64-1號","121.567575","25.2904816666667","6502200","石門區"
"207002","749-BX","2018/01/27 12:59:18","新北市萬里區雙興里大坪路34-6號","121.631496666667","25.16866","6502800","萬里區"
"252005","073-UM","2018/01/27 12:59:24","新北市三芝區埔坪里埔頭坑107號","121.504593333333","25.2617216666667","6502100","三芝區"
"207001","662-BX","2018/01/27 12:59:23","新北市萬里區萬里里獅頭路22-1號","121.692921666667","25.17809","6502800","萬里區"
"236006","498-BY","2018/01/27 12:59:31","新北市土城區亞洲路32巷6號","121.435793333333","24.9744633333333","6501300","土城區"
"236049","913-UM","2018/01/27 12:57:17","新北市土城區城林路6巷80號","121.438696666667","24.9796733333333","6501300","土城區"
"221032","280-BY","2018/01/27 12:59:25","新北市汐止區建成路70號","121.663091666667","25.0730916666667","6501100","汐止區"
