"lineid","car","time","location","longitude","latitude","cityid","cityname"
"234044","148-BY","2018/01/27 13:19:25","新北市永和區得和路326號","121.523198333333","24.9994733333333","6500400","永和區"
"234005","207-UY","2018/01/27 13:19:22","新北市中和區中山路二段63號","121.504188333333","25.0046983333333","6500400","永和區"
"234078","298-R6","2018/01/27 13:19:26","新北市永和區福和路26號","121.523966666667","25.0083433333333","6500400","永和區"
"234036","336-UY","2018/01/27 13:19:24","新北市永和區民樂街59巷2號","121.527486666667","24.998235","6500400","永和區"
"234062","337-UY","2018/01/27 13:19:28","新北市永和區永元路17巷6弄1號","121.521333333333","25.0008116666667","6500400","永和區"
"234084","338-UY","2018/01/27 13:19:28","新北市永和區永利路46號","121.518825","25.00545","6500400","永和區"
"234068","552-UM","2018/01/27 13:19:35","新北市永和區豫溪街74巷3號","121.517293333333","25.0098","6500400","永和區"
"234015","745-BX","2018/01/27 13:19:34","新北市永和區文化路144巷19弄12號","121.512243333333","25.0167566666667","6500400","永和區"
"234028","746-BX","2018/01/27 13:19:32","新北市永和區厚德街83號","121.524291666667","24.9987916666667","6500400","永和區"
"234052","KEA-2590","2018/01/27 13:19:14","新北市永和區中興街50號","121.516663333333","25.0115883333333","6500400","永和區"
"234012","KEA-2591","2018/01/27 13:19:28","新北市永和區信義路23號","121.51387","25.01219","6500400","永和區"
"234060","AAD-866","2018/01/27 13:19:20","新北市永和區秀朗路一段120號","121.517013333333","25.0036483333333","6500400","永和區"
"234040","862-TW","2018/01/27 13:19:26","新北市永和區水源街56號","121.50952","25.0043283333333","6500400","永和區"
"234048","863-TW","2018/01/27 13:19:23","新北市永和區仁愛路104巷6號","121.512035","25.013465","6500400","永和區"
"234025","9371-KE","2018/01/27 13:19:26","新北市永和區大新街19巷4號","121.515043333333","25.008895","6500400","永和區"
"234010","9373-KE","2018/01/27 13:19:25","新北市永和區永和路二段425巷37弄2-1號","121.51424","25.0175066666667","6500400","永和區"
"248017","225-UY","2018/01/27 13:19:24","新北市五股區御史路201號","121.43202","25.0994616666667","6501500","五股區"
"234022","9380-KE","2018/01/27 13:19:28","新北市永和區竹林路109巷7號","121.520251666667","25.0119983333333","6500400","永和區"
"234076","969-R7","2018/01/27 13:19:31","新北市永和區民有街21巷2號","121.516743333333","24.9965333333333","6500400","永和區"
"234072","AAC-211","2018/01/27 13:19:20","新北市永和區竹林路35號","121.517721666667","25.01429","6500400","永和區"
"234066","AAC-212","2018/01/27 13:19:18","新北市永和區保平路44號","121.511375","25.0071766666667","6500400","永和區"
"234001","AAC-295","2018/01/27 13:19:18","新北市永和區保福路一段70號","121.512501666667","25.010025","6500400","永和區"
"244005","248-BX","2018/01/27 13:19:30","新北市林口區南勢里90-3號","121.345771666667","25.0779166666667","6501700","林口區"
"231002","002-UM","2018/01/27 13:19:20","新北市新店區安華路1-1號","121.51992","24.960215","6500600","新店區"
"231027","0291-UT","2018/01/27 13:19:16","新北市新店區秀山路72號","121.531265","24.9608733333333","6500600","新店區"
"231025","0293-UT","2018/01/27 13:19:31","新北市新店區中央五街20號","121.529385","24.9744016666667","6500600","新店區"
"231028","046-UY","2018/01/27 13:19:33","新北市新店區安華路28-1號","121.51969","24.9608633333333","6500600","新店區"
"231030","047-UY","2018/01/27 13:19:22","新北市新店區安康路一段359-27號","121.518606666667","24.9611233333333","6500600","新店區"
"231018","107-UY","2018/01/27 13:19:28","新北市新店區安康路一段35-1號","121.532096666667","24.9605366666667","6500600","新店區"
"231012","108-UY","2018/01/27 13:19:30","新北市新店區安康路一段81號","121.52974","24.961245","6500600","新店區"
"231020","110-UY","2018/01/27 13:19:25","新北市新店區秀山路66號","121.530805","24.9609766666667","6500600","新店區"
"231017","KEA-2219","2018/01/27 13:19:31","新北市新店區安康路一段69號","121.530283333333","24.961075","6500600","新店區"
"231026","256-BX","2018/01/27 13:19:29","新北市新店區安華路28-1號","121.519845","24.9610483333333","6500600","新店區"
"231010","278-BY","2018/01/27 13:19:25","新北市新店區秀山路43號","121.531523333333","24.9607616666667","6500600","新店區"
"231023","AAD-862","2018/01/27 13:19:27","新北市新店區秀山路72號","121.531175","24.9608766666667","6500600","新店區"
"231024","4716-K9","2018/01/27 13:19:14","新北市新店區安康路一段323-3號","121.521435","24.963795","6500600","新店區"
"231038","4715-K9","2018/01/27 13:19:26","新北市新店區安華路1-1號","121.519298333333","24.960535","6500600","新店區"
"231036","512-UM","2018/01/27 13:19:31","新北市新店區車子路10-4號","121.504765","24.9545366666667","6500600","新店區"
"231035","515-UM","2018/01/27 13:19:26","新北市新店區安華路28-1號","121.519468333333","24.9611416666667","6500600","新店區"
"231003","616-UM","2018/01/27 13:19:22","新北市新店區安華路1-1號","121.519575","24.96036","6500600","新店區"
"231006","617-UM","2018/01/27 13:19:26","新北市新店區安華路28-1號","121.519365","24.9610183333333","6500600","新店區"
"231001","619-UM","2018/01/27 13:19:35","新北市新店區安華路28-1號","121.519653333333","24.9606116666667","6500600","新店區"
"231034","645-TV","2018/01/27 13:19:27","新北市新店區安華路28-1號","121.51927","24.96057","6500600","新店區"
"231013","719-UM","2018/01/27 13:19:21","新北市新店區安康路一段215號","121.525943333333","24.9628683333333","6500600","新店區"
"231033","720-UM","2018/01/27 13:19:19","新北市新店區安忠路57巷11弄14號","121.515358333333","24.957935","6500600","新店區"
"231005","897-TW","2018/01/27 13:19:29","新北市新店區安康路一段98號","121.527493333333","24.9622833333333","6500600","新店區"
"231004","899-TW","2018/01/27 13:19:25","新北市新店區安華路30巷1號","121.519861666667","24.959625","6500600","新店區"
"231037","AKT-0513","2018/01/27 13:19:16","新北市新店區安華路1-1號","121.51939","24.9601916666667","6500600","新店區"
"235030","003-UY","2018/01/27 13:19:19","新北市中和區中山路二段64巷14弄2號","121.503411666667","25.0055083333333","6500300","中和區"
"235028","005-UY","2018/01/27 13:19:23","新北市中和區中正路161巷2號","121.498461666667","24.9936633333333","6500300","中和區"
"235020","096-UM","2018/01/27 13:19:34","新北市中和區員山路36巷13號","121.4843","24.9915116666667","6500300","中和區"
"235003","097-UM","2018/01/27 13:19:15","新北市中和區中正路190-1號","121.497943333333","24.9937866666667","6500300","中和區"
"235029","098-UM","2018/01/27 13:19:33","新北市中和區中山路二段64巷22號","121.50299","25.0059483333333","6500300","中和區"
"235004","150-BY","2018/01/27 13:19:28","新北市中和區景安路78號","121.505715","24.9963816666667","6500300","中和區"
"235022","151-BY","2018/01/27 13:19:32","新北市中和區圓通路391-1號","121.490035","24.9892533333333","6500300","中和區"
"235019","183-VK","2018/01/27 13:19:30","新北市中和區中正路637巷60弄61號","121.485408333333","24.9929716666667","6500300","中和區"
"235002","185-VK","2018/01/27 13:19:35","新北市中和區大智街106巷3號","121.52435","24.99246","6500300","中和區"
"235031","255-BX","2018/01/27 13:19:33","新北市中和區新生街268號","121.483751666667","24.99707","6500300","中和區"
"235036","301-VK","2018/01/27 13:19:13","新北市中和區錦和路180號","121.48998","24.995405","6500300","中和區"
"235007","352-BY","2018/01/27 13:19:32","新北市中和區中正路271-1號","121.495776666667","24.9936033333333","6500300","中和區"
"235025","378-QA","2018/01/27 13:19:25","新北市中和區國光街215巷24弄13號","121.466743333333","25.0001666666667","6500300","中和區"
"235014","4979-A6","2018/01/27 13:19:25","新北市中和區興南路一段61號","121.510411666667","24.9896333333333","6500300","中和區"
"235033","4980-A6","2018/01/27 13:19:23","新北市中和區中正路271-5號","121.495831666667","24.993235","6500300","中和區"
"235006","551-UM","2018/01/27 13:19:16","新北市中和區景平路166號","121.517013333333","24.9923333333333","6500300","中和區"
"235009","565-BX","2018/01/27 13:19:25","新北市中和區中興街116號","121.499913333333","24.99312","6500300","中和區"
"235018","640-BX","2018/01/27 13:19:24","新北市中和區國光街87號","121.470465","25.0000716666667","6500300","中和區"
"235011","732-UM","2018/01/27 13:19:27","新北市中和區南山路523-1號","121.507916666667","24.987275","6500300","中和區"
"235026","800-TS","2018/01/27 13:19:21","新北市中和區景平路999巷1號","121.495431666667","25.00595","6500300","中和區"
"235005","802-TS","2018/01/27 13:19:22","新北市中和區中和路262號","121.508406666667","24.9995666666667","6500300","中和區"
"235016","805-TS","2018/01/27 13:19:20","新北市中和區興南路二段2號","121.507935","24.9862516666667","6500300","中和區"
"235017","900-TW","2018/01/27 13:19:23","新北市中和區員山路36巷16-3號","121.484961666667","24.9918116666667","6500300","中和區"
"235027","911-UM","2018/01/27 13:19:19","新北市中和區和城路一段271巷1號","121.485425","24.99188","6500300","中和區"
"235015","157-BY","2018/01/27 13:19:22","新北市中和區忠孝街79號","121.512158333333","24.9852666666667","6500300","中和區"
"235001","AAC-213","2018/01/27 13:19:26","新北市中和區景德街55號","121.51752","24.99135","6500300","中和區"
"235023","AAC-215","2018/01/27 13:19:23","新北市中和區員山路36巷16-3號","121.48511","24.9915416666667","6500300","中和區"
"235021","251-BX","2018/01/27 13:19:26","新北市中和區員山路111號","121.480865","24.9948233333333","6500300","中和區"
"228005","097-TW","2018/01/27 13:19:33","新北市貢寮區美豐里丹裡街51-8號","121.912671666667","25.0571966666667","6502600","貢寮區"
"228004","212-TW","2018/01/27 13:19:19","新北市貢寮區吉林里內寮街21號","121.901571666667","24.9836233333333","6502600","貢寮區"
"253003","6232-TK","2018/01/27 13:19:19","新北市石門區老崩山39-3號","121.565393333333","25.2662166666667","6502200","石門區"
"253001","6251-TK","2018/01/27 13:19:12","新北市石門區楓林7號","121.537696666667","25.2940466666667","6502200","石門區"
"253002","637-UY","2018/01/27 13:19:24","新北市石門區九芎林2號","121.555516666667","25.2741683333333","6502200","石門區"
"253004","8270-PC","2018/01/27 13:19:18","新北市石門區阿里荖4-7號","121.611485","25.27825","6502200","石門區"
"208004","AAC-292","2018/01/27 13:19:35","新北市金山區環金路353號","121.630008333333","25.22338","6502700","金山區"
"207002","749-BX","2018/01/27 13:19:18","新北市萬里區崁腳里崁腳路166號","121.645065","25.155875","6502800","萬里區"
"252005","073-UM","2018/01/27 13:19:24","新北市三芝區福德里土地公埔67-3號","121.519983333333","25.227975","6502100","三芝區"
"207001","662-BX","2018/01/27 13:19:23","新北市萬里區龜吼里美崙路32號","121.686863333333","25.18452","6502800","萬里區"
"236006","498-BY","2018/01/27 13:19:31","新北市土城區亞洲路11巷3弄7號","121.43593","24.9714416666667","6501300","土城區"
"236049","913-UM","2018/01/27 13:06:02","新北市土城區城林路6巷80號","121.43869","24.97962","6501300","土城區"
"221032","280-BY","2018/01/27 13:19:25","新北市汐止區龍安路44號","121.654111666667","25.063625","6501100","汐止區"
