"lineid","car","time","location","longitude","latitude","cityid","cityname"
"234044","148-BY","2018/01/27 13:59:25","新北市永和區成功路一段16巷7號","121.526535","25.005355","6500400","永和區"
"234005","207-UY","2018/01/27 13:59:30","新北市中和區中和路302號","121.50889","24.9998466666667","6500400","永和區"
"234078","298-R6","2018/01/27 13:59:30","新北市永和區國中路10號","121.524391666667","25.0047383333333","6500400","永和區"
"234036","336-UY","2018/01/27 13:59:23","新北市永和區成功路二段152-2號","121.52654","24.9966083333333","6500400","永和區"
"234062","337-UY","2018/01/27 13:59:28","新北市永和區中正路412巷20弄27號","121.519131666667","25.0012666666667","6500400","永和區"
"234084","338-UY","2018/01/27 13:59:35","新北市永和區福和路178號","121.520545","25.0078216666667","6500400","永和區"
"234068","552-UM","2018/01/27 13:59:15","新北市永和區福和路224號","121.519113333333","25.007895","6500400","永和區"
"234015","745-BX","2018/01/27 13:59:27","新北市永和區文化路91號","121.513378333333","25.0151383333333","6500400","永和區"
"234028","746-BX","2018/01/27 13:59:31","新北市永和區厚德街2號","121.525751666667","24.9975766666667","6500400","永和區"
"234052","KEA-2590","2018/01/27 13:59:34","新北市永和區竹林路39巷46號","121.520218333333","25.0152866666667","6500400","永和區"
"234040","838-RS","2018/01/27 13:59:27","新北市永和區環河西路二段247號","121.50003","25.009105","6500400","永和區"
"234012","KEA-2591","2018/01/27 13:59:28","新北市永和區保生路55號","121.504673333333","25.0106433333333","6500400","永和區"
"234060","AAD-866","2018/01/27 13:59:20","新北市永和區中正路151巷14號","121.515603333333","24.998815","6500400","永和區"
"234040","862-TW","2018/01/27 13:59:06","新北市永和區雙和街17巷1號","121.509403333333","25.0016916666667","6500400","永和區"
"234048","863-TW","2018/01/27 13:59:22","新北市永和區保安路153號","121.506725","25.0130566666667","6500400","永和區"
"234025","9371-KE","2018/01/27 13:59:26","新北市永和區中山路一段211號","121.508701666667","25.0084916666667","6500400","永和區"
"234010","9373-KE","2018/01/27 13:59:25","新北市永和區仁愛路352巷112弄11號","121.500935","25.0085116666667","6500400","永和區"
"248017","225-UY","2018/01/27 13:59:24","新北市五股區民義路一段240號","121.426805","25.0917416666667","6501500","五股區"
"234022","9380-KE","2018/01/27 13:59:28","新北市永和區復興街39號","121.51645","25.013215","6500400","永和區"
"234076","969-R7","2018/01/27 13:59:31","新北市永和區民治街40號","121.519266666667","24.997805","6500400","永和區"
"234072","AAC-211","2018/01/27 13:59:20","新北市永和區豫溪街185號","121.522451666667","25.0103933333333","6500400","永和區"
"234066","AAC-212","2018/01/27 13:59:18","新北市永和區永貞路364號","121.510208333333","25.006725","6500400","永和區"
"234001","AAC-295","2018/01/27 13:59:23","新北市永和區福和路318號","121.515771666667","25.0072666666667","6500400","永和區"
"231002","002-UM","2018/01/27 13:59:20","新北市新店區中正路727號","121.533511666667","24.9912716666667","6500600","新店區"
"231027","0291-UT","2018/01/27 13:59:36","新北市新店區光明街138巷13弄1號","121.540455","24.96109","6500600","新店區"
"231025","0293-UT","2018/01/27 13:59:31","新北市新店區中正路275巷40號","121.536576666667","24.9726683333333","6500600","新店區"
"231028","046-UY","2018/01/27 13:59:33","新北市新店區安和路三段157號","121.516473333333","24.9857466666667","6500600","新店區"
"231030","047-UY","2018/01/27 13:59:22","新北市新店區安興路7-1號","121.514976666667","24.9685266666667","6500600","新店區"
"231018","107-UY","2018/01/27 13:59:28","新北市新店區中央路116號","121.531066666667","24.9751083333333","6500600","新店區"
"231012","108-UY","2018/01/27 13:59:30","新北市新店區五峰路62號","121.545851666667","24.9682466666667","6500600","新店區"
"231020","110-UY","2018/01/27 13:59:25","新北市新店區屈尺路199號","121.541875","24.921235","6500600","新店區"
"231017","KEA-2219","2018/01/27 13:59:31","新北市新店區郵政路81號","121.555071666667","24.9516416666667","6500600","新店區"
"231026","256-BX","2018/01/27 13:59:29","新北市新店區安康路一段3-1號","121.534691666667","24.960885","6500600","新店區"
"231023","AAD-862","2018/01/27 13:59:27","新北市新店區文中路40號","121.539696666667","24.956435","6500600","新店區"
"231024","4716-K9","2018/01/27 13:59:33","新北市新店區北新路一段271巷26號","121.540133333333","24.9672216666667","6500600","新店區"
"231038","4715-K9","2018/01/27 13:59:25","新北市新店區溪洲路121號","121.531365","24.9626366666667","6500600","新店區"
"231036","512-UM","2018/01/27 13:59:31","新北市新店區安祥路110巷30弄1號","121.473818333333","24.9565333333333","6500600","新店區"
"231035","515-UM","2018/01/27 13:59:27","新北市新店區安和路一段52巷2-1號","121.517658333333","24.9662566666667","6500600","新店區"
"231003","616-UM","2018/01/27 13:59:22","新北市新店區北宜路一段3號","121.538393333333","24.9584283333333","6500600","新店區"
"231006","617-UM","2018/01/27 13:59:26","新北市新店區北宜路二段207號","121.55314","24.953275","6500600","新店區"
"231029","618-UM","2018/01/27 13:59:31","新北市新店區安康路二段12號","121.516265","24.963785","6500600","新店區"
"231001","619-UM","2018/01/27 13:59:35","新北市新店區三民路49號","121.537053333333","24.97096","6500600","新店區"
"231034","645-TV","2018/01/27 13:59:27","新北市新店區達觀路16號","121.502848333333","24.9404133333333","6500600","新店區"
"231013","719-UM","2018/01/27 13:59:21","新北市新店區明德路66號","121.541491666667","24.9795633333333","6500600","新店區"
"231033","720-UM","2018/01/27 13:59:19","新北市新店區太平路28巷1號","121.533446666667","24.9587083333333","6500600","新店區"
"231005","897-TW","2018/01/27 13:59:29","新北市新店區中興路三段221-1號","121.543465","24.9825866666667","6500600","新店區"
"231004","899-TW","2018/01/27 13:59:25","新北市新店區北新路二段141號","121.542888333333","24.9757633333333","6500600","新店區"
"231037","AKT-0513","2018/01/27 13:59:16","新北市新店區安康路三段207巷28號","121.488385","24.9507516666667","6500600","新店區"
"235030","003-UY","2018/01/27 13:59:19","新北市中和區廣福路84巷3弄2號","121.502828333333","25.0020033333333","6500300","中和區"
"235028","005-UY","2018/01/27 13:59:23","新北市中和區泰和街44巷5號","121.498648333333","25.0002583333333","6500300","中和區"
"235020","096-UM","2018/01/27 13:59:14","新北市板橋區三民路二段204-4號","121.478926666667","25.012455","6500300","中和區"
"235003","097-UM","2018/01/27 13:59:15","新北市中和區景平路64巷13弄21號","121.521808333333","24.9913083333333","6500300","中和區"
"235029","098-UM","2018/01/27 13:59:33","新北市中和區福祥路127號","121.498665","25.007085","6500300","中和區"
"235004","150-BY","2018/01/27 13:59:28","新北市中和區保健路50巷1號","121.51049","24.9968366666667","6500300","中和區"
"235022","151-BY","2018/01/27 13:59:32","新北市中和區連城路382號","121.48071","24.995105","6500300","中和區"
"235019","183-VK","2018/01/27 13:59:30","新北市板橋區民族路310號","121.4707","25.0064616666667","6500300","中和區"
"235002","185-VK","2018/01/27 13:59:35","新北市中和區立人街28號","121.518628333333","24.99412","6500300","中和區"
"235013","186-VK","2018/01/27 13:59:33","新北市中和區景安路167巷9號","121.505915","24.9947416666667","6500300","中和區"
"235031","255-BX","2018/01/27 13:59:33","新北市中和區連城路340巷14弄2號","121.483356666667","24.99725","6500300","中和區"
"235008","293-VK","2018/01/27 13:59:33","新北市中和區中興街202巷57號","121.4984","24.989535","6500300","中和區"
"235036","301-VK","2018/01/27 13:59:33","新北市中和區中山路二段125號","121.502753333333","25.003365","6500300","中和區"
"235007","352-BY","2018/01/27 13:59:32","新北市中和區成功路42號","121.526005","24.992955","6500300","中和區"
"235032","377-QA","2018/01/27 13:59:09","新北市中和區圓通路257巷4號","121.4962","24.9932833333333","6500300","中和區"
"235025","378-QA","2018/01/27 13:59:24","新北市中和區民治街130巷8號","121.474893333333","25.002615","6500300","中和區"
"235014","4979-A6","2018/01/27 13:59:25","新北市中和區南山路284號","121.50792","24.9876483333333","6500300","中和區"
"235033","4980-A6","2018/01/27 13:59:33","新北市中和區圓通路109巷6號","121.49964","24.99636","6500300","中和區"
"235006","551-UM","2018/01/27 13:59:32","新北市中和區秀朗路三段18號","121.526301666667","24.9963966666667","6500300","中和區"
"235034","558-UM","2018/01/27 13:56:59","新北市中和區景新街34巷2弄9號","121.502705","24.9990166666667","6500300","中和區"
"235009","565-BX","2018/01/27 13:59:31","新北市中和區景新街467巷32弄10號","121.514295","24.9880916666667","6500300","中和區"
"235018","640-BX","2018/01/27 13:59:24","新北市中和區民享街29巷1-1號","121.474056666667","25.0045233333333","6500300","中和區"
"235024","647-TV","2018/01/27 13:59:24","新北市中和區中山路三段157號","121.473486666667","25.0061666666667","6500300","中和區"
"235011","732-UM","2018/01/27 13:59:27","新北市中和區興南路二段54巷11弄2號","121.505663333333","24.9855483333333","6500300","中和區"
"235010","733-UM","2018/01/27 13:59:20","新北市中和區興南路一段135巷22弄14號","121.508966666667","24.98661","6500300","中和區"
"235026","800-TS","2018/01/27 13:59:21","新北市中和區中山路二段366巷34號","121.491721666667","25.0049816666667","6500300","中和區"
"235005","802-TS","2018/01/27 13:59:22","新北市中和區中安街34號","121.513098333333","25.0027816666667","6500300","中和區"
"235016","805-TS","2018/01/27 13:59:19","新北市中和區興南路二段261巷1號","121.502631666667","24.98133","6500300","中和區"
"235012","896-TW","2018/01/27 13:59:32","新北市中和區興南路二段49號","121.507291666667","24.9854316666667","6500300","中和區"
"235017","900-TW","2018/01/27 13:59:23","新北市板橋區和平路190巷28號","121.46499","24.994595","6500300","中和區"
"235027","911-UM","2018/01/27 13:59:19","新北市中和區中正路562號","121.486726666667","24.9945433333333","6500300","中和區"
"235015","157-BY","2018/01/27 13:59:22","新北市中和區忠孝街11巷5號","121.509815","24.9831883333333","6500300","中和區"
"235001","AAC-213","2018/01/27 13:59:27","新北市中和區自立路99巷1號","121.521965","24.9949566666667","6500300","中和區"
"235023","AAC-215","2018/01/27 13:59:23","新北市中和區圓通路367巷20弄21號","121.491548333333","24.9884233333333","6500300","中和區"
"220016","013-TV","2018/01/27 13:59:28","新北市板橋區中山路二段439號","121.481326666667","25.0201633333333","6500100","板橋區"
"220013","072-UY","2018/01/27 13:59:28","新北市板橋區漢生東路346號","121.471971666667","25.0074166666667","6500100","板橋區"
"220034","073-UY","2018/01/27 13:59:31","新北市板橋區中正路204號","121.45603","25.0180083333333","6500100","板橋區"
"220105","075-UY","2018/01/27 13:59:22","新北市板橋區文化路二段124巷28-2號","121.471261666667","25.0256283333333","6500100","板橋區"
"220017","AAD-861","2018/01/27 13:59:29","新北市板橋區華興街67號","121.45721","25.0049033333333","6500100","板橋區"
"220051","120-SR","2018/01/27 13:59:28","新北市板橋區縣民大道三段133巷35號","121.477096666667","25.0246866666667","6500100","板橋區"
"247019","500-BY","2018/01/27 13:59:15","新北市蘆洲區民族路426巷40弄11號","121.473485","25.0932716666667","6501400","蘆洲區"
"247007","341-TH","2018/01/27 13:59:26","新北市三重區仁愛街747號","121.481286666667","25.0805066666667","6501400","蘆洲區"
"247009","339-TH","2018/01/27 13:59:30","新北市蘆洲區集賢路224巷27號","121.481676666667","25.0871616666667","6501400","蘆洲區"
"247003","336-TH","2018/01/27 13:59:35","新北市蘆洲區中華街8號","121.46334","25.081705","6501400","蘆洲區"
"247015","057-VK","2018/01/27 13:59:33","新北市蘆洲區光華路43號","121.468796666667","25.08304","6501400","蘆洲區"
"247005","056-VK","2018/01/27 13:59:31","新北市蘆洲區永安南路二段54號","121.465738333333","25.0778116666667","6501400","蘆洲區"
"247013","007-UY","2018/01/27 13:59:27","新北市蘆洲區中正路100號","121.469758333333","25.0843333333333","6501400","蘆洲區"
"247017","001-UY","2018/01/27 13:59:28","新北市蘆洲區民族路327巷142號","121.475438333333","25.0892833333333","6501400","蘆洲區"
"235021","251-BX","2018/01/27 13:59:26","新北市中和區民安街53-5號","121.479521666667","24.9996533333333","6500300","中和區"
"228005","097-TW","2018/01/27 13:53:13","新北市貢寮區美豐里雞母嶺街53-1號","121.888533333333","25.068895","6502600","貢寮區"
"228004","212-TW","2018/01/27 13:59:19","新北市貢寮區龍崗里嵩陽街35-5號","121.906985","25.0175483333333","6502600","貢寮區"
"253003","6232-TK","2018/01/27 13:59:19","新北市石門區尖子鹿8號","121.575198333333","25.2799633333333","6502200","石門區"
"253001","6251-TK","2018/01/27 13:59:32","新北市石門區下員坑50-1號","121.518406666667","25.2723666666667","6502200","石門區"
"253002","637-UY","2018/01/27 13:59:24","新北市石門區九芎林33-1號","121.565415","25.2578766666667","6502200","石門區"
"253004","8270-PC","2018/01/27 13:59:18","新北市石門區草埔尾31-1號","121.603281666667","25.2650083333333","6502200","石門區"
"208004","AAC-292","2018/01/27 13:59:17","新北市金山區山城路90巷17號","121.598935","25.200275","6502700","金山區"
"207002","749-BX","2018/01/27 13:58:18","新北市萬里區溪底里烏塗炭9號","121.637486666667","25.15166","6502800","萬里區"
"252005","073-UM","2018/01/27 13:59:24","新北市三芝區橫山里橫山49-1號","121.533641666667","25.2574733333333","6502100","三芝區"
"207001","662-BX","2018/01/27 13:59:23","新北市萬里區磺潭里清水18號","121.637843333333","25.1977133333333","6502800","萬里區"
"236068","105-UM","2018/01/27 13:59:22","新北市土城區中正路14號","121.44287","24.975085","6501300","土城區"
"236041","107-UM","2018/01/27 13:59:28","新北市土城區光明街1號","121.441995","24.9748666666667","6501300","土城區"
"236075","166-UM","2018/01/27 13:59:31","新北市土城區永寧路26-1號","121.42949","24.961045","6501300","土城區"
"236029","253-BX","2018/01/27 13:59:27","新北市土城區城林路6巷80號","121.438496666667","24.9797433333333","6501300","土城區"
"236024","269-VK","2018/01/27 13:59:19","新北市土城區承天路7號","121.436111666667","24.965975","6501300","土城區"
"236013","270-VK","2018/01/27 13:59:29","新北市土城區城林路6巷80號","121.438378333333","24.979795","6501300","土城區"
"236035","271-VK","2018/01/27 13:59:23","新北市土城區城林路6巷80號","121.438381666667","24.9797783333333","6501300","土城區"
"236017","401-BY","2018/01/27 13:59:25","新北市土城區城林路6巷80號","121.43858","24.97979","6501300","土城區"
"236006","498-BY","2018/01/27 13:59:31","新北市土城區裕民路2號","121.446515","24.9892833333333","6501300","土城區"
"236057","912-UM","2018/01/27 13:59:23","新北市土城區永寧路1號","121.430535","24.9648383333333","6501300","土城區"
"236045","913-UM","2018/01/27 13:59:17","新北市土城區城林路6巷80號","121.438538333333","24.979725","6501300","土城區"
"236061","915-UM","2018/01/27 13:59:27","新北市土城區金城路二段200號","121.454945","24.98184","6501300","土城區"
"236054","AAC-216","2018/01/27 13:59:24","新北市土城區城林路6巷80號","121.438391666667","24.9798466666667","6501300","土城區"
"220027","145-BY","2018/01/27 13:59:20","新北市板橋區民權路202巷9弄62號","121.459006666667","25.0157233333333","6500100","板橋區"
"220028","200-UY","2018/01/27 13:59:32","新北市板橋區大觀路二段力行3巷1-1號","121.44592","24.9955266666667","6500100","板橋區"
"220030","610-BX","2018/01/27 13:59:35","新北市板橋區滿平街90號","121.427745","24.988995","6500100","板橋區"
"220050","245-BX","2018/01/27 13:59:15","新北市板橋區文化路二段182巷5弄1號","121.471666666667","25.0269566666667","6500100","板橋區"
"220045","255-TC","2018/01/27 13:59:22","新北市板橋區莒光路75號","121.471628333333","25.0241316666667","6500100","板橋區"
"220052","257-TC","2018/01/27 13:59:33","新北市板橋區縣民大道二段281號","121.470153333333","25.01784","6500100","板橋區"
"220040","267-BY","2018/01/27 13:59:19","新北市板橋區萬板路165號","121.47404","25.0233966666667","6500100","板橋區"
"220004","276-BY","2018/01/27 13:59:30","新北市板橋區信義路152號","121.458906666667","24.9917083333333","6500100","板橋區"
"220020","277-BY","2018/01/27 13:59:26","新北市板橋區篤行路一段10號","121.43216","24.9954633333333","6500100","板橋區"
"220043","283-UM","2018/01/27 13:59:16","新北市板橋區文化路二段28號","121.46919","25.0249316666667","6500100","板橋區"
"220019","283-VK","2018/01/27 13:59:32","新北市板橋區忠孝路136號","121.463548333333","25.0023616666667","6500100","板橋區"
"220001","285-VK","2018/01/27 13:59:32","新北市板橋區中山路二段89巷66號","121.473651666667","25.0175516666667","6500100","板橋區"
"220031","286-VK","2018/01/27 13:59:35","新北市板橋區僑中二街152-2號","121.443983333333","25.0043566666667","6500100","板橋區"
"220029","287-VK","2018/01/27 13:59:31","新北市板橋區光華街19巷17號","121.453053333333","25.01186","6500100","板橋區"
"220009","293-UM","2018/01/27 13:59:21","新北市板橋區永豐街120巷1號","121.476503333333","25.020665","6500100","板橋區"
"220010","295-UM","2018/01/27 13:59:34","新北市板橋區三民路二段245巷63號","121.480913333333","25.0125933333333","6500100","板橋區"
"220032","296-UM","2018/01/27 13:59:14","新北市板橋區大觀路二段142-1號","121.44269","24.99913","6500100","板橋區"
"220023","303-R5","2018/01/27 13:59:23","新北市板橋區館前西路211號","121.454595","25.0083783333333","6500100","板橋區"
"220041","307-R5","2018/01/27 13:59:27","新北市板橋區文化路一段104巷3號","121.465066666667","25.0180716666667","6500100","板橋區"
"220047","317-R6","2018/01/27 13:59:33","新北市板橋區民有街29號","121.466003333333","25.025335","6500100","板橋區"
"220003","461-BY","2018/01/27 13:59:24","新北市板橋區新站路3號","121.467121666667","25.0112533333333","6500100","板橋區"
"220012","486-VK","2018/01/27 13:59:20","新北市板橋區縣民大道二段102號","121.466823333333","25.0150983333333","6500100","板橋區"
"220038","487-VK","2018/01/27 13:59:19","新北市板橋區文化路二段266號","121.47139","25.0288116666667","6500100","板橋區"
"220037","491-VK","2018/01/27 13:59:23","新北市板橋區文化路二段28號","121.469031666667","25.0247216666667","6500100","板橋區"
"220104","560-BX","2018/01/27 13:59:24","新北市板橋區中正路379巷3弄6號","121.453221666667","25.02135","6500100","板橋區"
"220011","609-BX","2018/01/27 13:59:27","新北市板橋區中山路二段92號","121.475285","25.016395","6500100","板橋區"
"220005","686-BX","2018/01/27 13:59:30","新北市板橋區館前東路51號","121.461243333333","25.0073666666667","6500100","板橋區"
"220025","687-BX","2018/01/27 13:59:28","新北市板橋區龍興街71巷53號","121.441521666667","25.002665","6500100","板橋區"
"220042","689-BX","2018/01/27 13:59:19","新北市板橋區民生路三段11號","121.467846666667","25.02377","6500100","板橋區"
"220002","741-BX","2018/01/27 13:59:18","新北市板橋區後埔街60號","121.460575","25.0054766666667","6500100","板橋區"
"220014","829-TW","2018/01/27 13:59:21","新北市板橋區三民路二段正隆巷12弄4號","121.478023333333","25.012835","6500100","板橋區"
"220022","895-R6","2018/01/27 13:59:34","新北市板橋區南雅南路一段11號","121.45642","25.0070683333333","6500100","板橋區"
"220021","985-R7","2018/01/27 13:59:31","新北市板橋區西門街14號","121.455468333333","25.01146","6500100","板橋區"
"220046","AAC-210","2018/01/27 13:59:22","新北市板橋區陽明街162號","121.463408333333","25.0244016666667","6500100","板橋區"
"220018","AAC-253","2018/01/27 13:59:32","新北市板橋區四川路一段489號","121.457006666667","24.9971966666667","6500100","板橋區"
