"lineid","car","time","location","longitude","latitude","cityid","cityname"
"234084","338-UY","2018/01/27 14:49:35","新北市新莊區五權二路26-3號","121.459373333333","25.0688933333333","6500400","永和區"
"234028","746-BX","2018/01/27 14:49:31","新北市五股區五工一路115號","121.455283333333","25.0721733333333","6500400","永和區"
"234040","838-RS","2018/01/27 14:23:40","新北市永和區保順路27號","121.50378","25.0104383333333","6500400","永和區"
"234025","9371-KE","2018/01/27 14:49:26","新北市永和區雙和街52巷1-1號","121.509126666667","25.0031983333333","6500400","永和區"
"234072","AAC-211","2018/01/27 14:49:20","新北市永和區環河西路一段99號","121.511483333333","25.017935","6500400","永和區"
"231002","002-UM","2018/01/27 14:49:20","新北市新店區民權路61號","121.539325","24.9829416666667","6500600","新店區"
"231027","0291-UT","2018/01/27 14:49:36","新北市新店區環河路190號","121.524666666667","24.9760416666667","6500600","新店區"
"231025","0293-UT","2018/01/27 14:49:31","新北市新店區民族路163號","121.537595","24.9767066666667","6500600","新店區"
"231028","046-UY","2018/01/27 14:49:33","新北市新店區安德街167號","121.50848","24.959205","6500600","新店區"
"231030","047-UY","2018/01/27 14:49:22","新北市新店區安民街367號","121.516555","24.9759433333333","6500600","新店區"
"231018","107-UY","2018/01/27 14:49:28","新北市新店區中央路153號","121.52994","24.97304","6500600","新店區"
"231012","108-UY","2018/01/27 14:49:30","新北市新店區寶橋路77號","121.545976666667","24.975565","6500600","新店區"
"231020","110-UY","2018/01/27 14:49:25","新北市新店區永福路54-2號","121.558191666667","24.92872","6500600","新店區"
"231017","KEA-2219","2018/01/27 14:49:31","新北市新店區北宜路三段140號","121.584723333333","24.9499316666667","6500600","新店區"
"231023","AAD-862","2018/01/27 14:49:27","新北市新店區檳榔路115號","121.544486666667","24.9614116666667","6500600","新店區"
"231024","4716-K9","2018/01/27 14:49:33","新北市新店區力行路14巷14弄1號","121.539183333333","24.9653516666667","6500600","新店區"
"231036","512-UM","2018/01/27 14:49:31","新北市新店區安祥路106巷216號","121.473851666667","24.960235","6500600","新店區"
"231035","515-UM","2018/01/27 14:49:27","新北市新店區安利街26號","121.519231666667","24.9745783333333","6500600","新店區"
"231003","616-UM","2018/01/27 14:49:34","新北市新店區中興路一段294號","121.54614","24.9693016666667","6500600","新店區"
"231006","617-UM","2018/01/27 14:49:26","新北市新店區北宜路一段121-3號","121.540386666667","24.9538416666667","6500600","新店區"
"231029","618-UM","2018/01/27 14:49:31","新北市新店區錦秀路9-1號","121.479578333333","24.94483","6500600","新店區"
"231001","619-UM","2018/01/27 14:49:14","新北市新店區三民路125號","121.534676666667","24.9724233333333","6500600","新店區"
"231034","645-TV","2018/01/27 14:49:26","新北市新店區玫瑰路4-2號","121.493903333333","24.9513066666667","6500600","新店區"
"231039","718-UY","2018/01/27 14:49:18","新北市新店區安康路一段355號","121.519893333333","24.9637733333333","6500600","新店區"
"231013","719-UM","2018/01/27 14:49:21","新北市新店區北新路二段1號","121.542665","24.9711583333333","6500600","新店區"
"231033","720-UM","2018/01/27 14:49:19","新北市新店區安泰路22號","121.485385","24.94842","6500600","新店區"
"231005","897-TW","2018/01/27 14:49:29","新北市新店區復興路2號","121.532395","24.9882566666667","6500600","新店區"
"231004","899-TW","2018/01/27 14:49:25","新北市新店區建國路131號","121.539328333333","24.9781033333333","6500600","新店區"
"235030","003-UY","2018/01/27 14:49:19","新北市中和區南工路6號","121.505423333333","25.0002166666667","6500300","中和區"
"235020","096-UM","2018/01/27 14:49:14","新北市中和區中山路三段100號","121.477028333333","25.005845","6500300","中和區"
"235003","097-UM","2018/01/27 14:49:22","新北市中和區安樂路243巷2號","121.513906666667","24.9996833333333","6500300","中和區"
"235029","098-UM","2018/01/27 14:49:32","新北市中和區福祥路55號","121.499348333333","25.0043366666667","6500300","中和區"
"235004","150-BY","2018/01/27 14:49:28","新北市中和區宜安路54號","121.511863333333","24.9967366666667","6500300","中和區"
"235022","151-BY","2018/01/27 14:49:32","新北市中和區員山路150巷2弄61號","121.48169","24.9974","6500300","中和區"
"235019","183-VK","2018/01/27 14:49:30","新北市中和區民德路23號","121.468828333333","25.0027383333333","6500300","中和區"
"235002","185-VK","2018/01/27 14:49:35","新北市中和區自立路17號","121.522316666667","24.99611","6500300","中和區"
"235013","186-VK","2018/01/27 14:49:33","新北市中和區中正路58號","121.501605","24.9937633333333","6500300","中和區"
"235031","255-BX","2018/01/27 14:49:33","新北市中和區員山路148巷42號","121.482498333333","24.9970516666667","6500300","中和區"
"235008","293-VK","2018/01/27 14:49:26","新北市中和區南山路231號","121.503495","24.9934216666667","6500300","中和區"
"235036","301-VK","2018/01/27 14:49:33","新北市中和區連城路227號","121.494096666667","24.997475","6500300","中和區"
"235007","352-BY","2018/01/27 14:49:32","新北市中和區安和路9號","121.511608333333","24.9935933333333","6500300","中和區"
"235032","377-QA","2018/01/27 14:49:30","新北市中和區福美路301巷17號","121.497655","25.0041633333333","6500300","中和區"
"235025","378-QA","2018/01/27 14:49:25","新北市中和區員山路174巷8號","121.482023333333","24.999775","6500300","中和區"
"235014","4979-A6","2018/01/27 14:49:24","新北市中和區景平路241巷82弄22號","121.506963333333","24.992225","6500300","中和區"
"235034","558-UM","2018/01/27 14:46:59","新北市中和區景平路668號","121.497073333333","25.0008783333333","6500300","中和區"
"235018","640-BX","2018/01/27 14:49:31","新北市中和區莒光路159號","121.472666666667","25.0007583333333","6500300","中和區"
"235024","647-TV","2018/01/27 14:49:24","新北市中和區中山路二段523巷1號","121.481685","25.0045166666667","6500300","中和區"
"235011","732-UM","2018/01/27 14:49:27","新北市中和區和平街158號","121.506098333333","24.991895","6500300","中和區"
"235010","733-UM","2018/01/27 14:49:20","新北市中和區仁愛街100號","121.511518333333","24.9871316666667","6500300","中和區"
"235026","800-TS","2018/01/27 14:49:21","新北市中和區永和路191巷14號","121.491221666667","25.0067233333333","6500300","中和區"
"235016","805-TS","2018/01/27 14:49:19","新北市中和區華新街32號","121.507755","24.9845466666667","6500300","中和區"
"235012","896-TW","2018/01/27 14:49:32","新北市中和區忠孝街99-3號","121.511996666667","24.9861183333333","6500300","中和區"
"235017","900-TW","2018/01/27 14:49:23","新北市中和區國光街215巷10弄12號","121.466885","25.0004633333333","6500300","中和區"
"235015","157-BY","2018/01/27 14:49:26","新北市中和區中興街119號","121.499928333333","24.991925","6500300","中和區"
"235001","AAC-213","2018/01/27 14:49:26","新北市中和區秀朗路三段171號","121.52451","24.9915833333333","6500300","中和區"
"235023","AAC-215","2018/01/27 14:49:33","新北市中和區圓通路305巷5弄50號","121.494948333333","24.9900266666667","6500300","中和區"
"220016","013-TV","2018/01/27 14:49:28","新北市板橋區光復街172巷2弄1號","121.48526","25.0194316666667","6500100","板橋區"
"220013","072-UY","2018/01/27 14:49:28","新北市板橋區民族路276巷1弄2號","121.469845","25.0065816666667","6500100","板橋區"
"220034","073-UY","2018/01/27 14:49:31","新北市板橋區中正路170號","121.456445","25.0170366666667","6500100","板橋區"
"220105","075-UY","2018/01/27 14:49:22","新北市板橋區民治街57巷32-1號","121.480256666667","25.034185","6500100","板橋區"
"220017","AAD-861","2018/01/27 14:49:29","新北市板橋區南雅南路二段11-27號","121.453846666667","25.0016833333333","6500100","板橋區"
"220051","120-SR","2018/01/27 14:49:28","新北市板橋區松柏街57-4號","121.475665","25.0303283333333","6500100","板橋區"
"247007","341-TH","2018/01/27 14:49:26","新北市蘆洲區中山一路129號","121.475736666667","25.0813483333333","6501400","蘆洲區"
"247015","057-VK","2018/01/27 14:49:33","新北市蘆洲區和平路205號","121.465915","25.0816033333333","6501400","蘆洲區"
"247001","053-VK","2018/01/27 14:49:19","新北市蘆洲區永康街2巷10號","121.459296666667","25.0862333333333","6501400","蘆洲區"
"247013","007-UY","2018/01/27 14:49:21","新北市蘆洲區成功路185號","121.471858333333","25.08299","6501400","蘆洲區"
"247023","002-UY","2018/01/27 14:49:15","新北市五股區四維路185巷1號","121.468173333333","25.07609","6501400","蘆洲區"
"235021","251-BX","2018/01/27 14:49:26","新北市中和區員山路130號","121.481191666667","24.9962866666667","6500300","中和區"
"228005","097-TW","2018/01/27 14:49:33","新北市貢寮區美豐里文秀坑1-3號","121.905765","25.0547833333333","6502600","貢寮區"
"228004","212-TW","2018/01/27 14:49:19","新北市貢寮區福隆里裕隆街3-1號","121.946213333333","25.0159183333333","6502600","貢寮區"
"253003","6232-TK","2018/01/27 14:49:19","新北市石門區尖子鹿101號","121.580853333333","25.2929033333333","6502200","石門區"
"253001","6251-TK","2018/01/27 14:49:32","新北市石門區崁子腳47-7號","121.53392","25.284075","6502200","石門區"
"253002","637-UY","2018/01/27 14:49:24","新北市石門區大溪墘3-2號","121.551726666667","25.2799816666667","6502200","石門區"
"253004","8270-PC","2018/01/27 14:49:18","新北市石門區內阿里磅31-2號","121.585568333333","25.2397416666667","6502200","石門區"
"208004","AAC-292","2018/01/27 14:49:14","新北市金山區兩湖里倒照湖37號","121.591318333333","25.23644","6502700","金山區"
"207002","749-BX","2018/01/27 14:49:18","新北市萬里區崁腳里崁腳路73號","121.647586666667","25.1595833333333","6502800","萬里區"
"207001","662-BX","2018/01/27 14:49:35","新北市萬里區雙興里二坪路1-3號","121.650065","25.1771316666667","6502800","萬里區"
"236068","105-UM","2018/01/27 14:49:22","新北市土城區明德路二段99巷2弄4號","121.45026","24.9810633333333","6501300","土城區"
"236041","107-UM","2018/01/27 14:49:28","新北市土城區裕民路137-1號","121.451583333333","24.98647","6501300","土城區"
"236075","166-UM","2018/01/27 14:49:11","新北市土城區中央路四段125巷9弄10號","121.416893333333","24.95746","6501300","土城區"
"236029","253-BX","2018/01/27 14:49:27","新北市土城區忠義路36巷19號","121.439803333333","24.9695383333333","6501300","土城區"
"236024","269-VK","2018/01/27 14:49:19","新北市土城區光明街30號","121.44209","24.973785","6501300","土城區"
"236013","270-VK","2018/01/27 14:49:29","新北市土城區金城路二段356號","121.461786666667","24.985175","6501300","土城區"
"236035","271-VK","2018/01/27 14:49:23","新北市土城區明德路一段221巷5號","121.463711666667","24.978085","6501300","土城區"
"236017","401-BY","2018/01/27 14:49:25","新北市土城區延吉街253巷17號","121.46799","24.98417","6501300","土城區"
"236057","912-UM","2018/01/27 14:49:22","新北市土城區中央路三段93號","121.437605","24.9676916666667","6501300","土城區"
"236045","913-UM","2018/01/27 14:49:17","新北市土城區青雲路35號","121.460005","24.9885366666667","6501300","土城區"
"236061","915-UM","2018/01/27 14:49:27","新北市土城區延壽路13巷5號","121.470806666667","24.9903183333333","6501300","土城區"
"236054","AAC-216","2018/01/27 14:49:24","新北市土城區學士路2號","121.454103333333","24.9833816666667","6501300","土城區"
"220027","145-BY","2018/01/27 14:49:20","新北市板橋區建國街87號","121.459525","25.01737","6500100","板橋區"
"220028","200-UY","2018/01/27 14:49:33","新北市板橋區大觀路二段163巷3號","121.445748333333","25.00038","6500100","板橋區"
"220030","610-BX","2018/01/27 14:49:26","新北市板橋區存德街3號","121.429896666667","24.9920066666667","6500100","板橋區"
"220050","245-BX","2018/01/27 14:49:35","新北市板橋區莒光路237-9號","121.474248333333","25.0218683333333","6500100","板橋區"
"220045","255-TC","2018/01/27 14:49:22","新北市板橋區文化路二段2號","121.468933333333","25.0238066666667","6500100","板橋區"
"220052","257-TC","2018/01/27 14:49:33","新北市板橋區陽明街29巷10號","121.464826666667","25.0219966666667","6500100","板橋區"
"220040","267-BY","2018/01/27 14:49:30","新北市板橋區懷德街127巷5號","121.47903","25.03093","6500100","板橋區"
"220020","277-BY","2018/01/27 14:49:26","新北市板橋區金門街149號","121.43269","24.99058","6500100","板橋區"
"220043","283-UM","2018/01/27 14:49:30","新北市板橋區溪頭街4-1號","121.457615","25.0289783333333","6500100","板橋區"
"220019","283-VK","2018/01/27 14:49:32","新北市板橋區五權街30巷12弄23號","121.463845","24.9942716666667","6500100","板橋區"
"220001","285-VK","2018/01/27 14:49:32","新北市板橋區民享街6號","121.475708333333","25.0148266666667","6500100","板橋區"
"220031","286-VK","2018/01/27 14:49:22","新北市板橋區僑中二街10巷39-1號","121.44534","25.01114","6500100","板橋區"
"220029","287-VK","2018/01/27 14:49:31","新北市板橋區大觀路一段28巷101號","121.450008333333","25.0119483333333","6500100","板橋區"
"220009","293-UM","2018/01/27 14:49:32","新北市板橋區縣民大道二段200巷38號","121.470453333333","25.017535","6500100","板橋區"
"220010","295-UM","2018/01/27 14:49:32","新北市板橋區光復街33巷40號","121.482675","25.018885","6500100","板橋區"
"220032","296-UM","2018/01/27 14:49:35","新北市板橋區溪崑二街103巷9號","121.427095","24.9887966666667","6500100","板橋區"
"220023","303-R5","2018/01/27 14:49:23","新北市板橋區大勇街3號","121.455738333333","25.017695","6500100","板橋區"
"220039","305-R5","2018/01/27 14:49:36","新北市板橋區龍泉街54巷7弄5號","121.456603333333","25.02646","6500100","板橋區"
"220041","307-R5","2018/01/27 14:49:26","新北市板橋區四維路231號","121.463698333333","25.027445","6500100","板橋區"
"220047","317-R6","2018/01/27 14:49:33","新北市板橋區新海路385巷12號","121.458463333333","25.0257483333333","6500100","板橋區"
"220003","461-BY","2018/01/27 14:49:23","新北市板橋區仁愛路76巷2號","121.46051","24.9993833333333","6500100","板橋區"
"220012","486-VK","2018/01/27 14:49:20","新北市板橋區公園街36-1號","121.462371666667","25.00835","6500100","板橋區"
"220038","487-VK","2018/01/27 14:49:19","新北市板橋區英士路153號","121.459548333333","25.0239433333333","6500100","板橋區"
"220037","491-VK","2018/01/27 14:49:27","新北市板橋區仁化街89號","121.47629","25.0320233333333","6500100","板橋區"
"220104","560-BX","2018/01/27 14:49:04","新北市板橋區新生街87巷20號","121.457185","25.022065","6500100","板橋區"
"220011","609-BX","2018/01/27 14:49:33","新北市板橋區萬安街53巷32號","121.482988333333","25.0236683333333","6500100","板橋區"
"220005","686-BX","2018/01/27 14:49:27","新北市板橋區和平路安樂巷31號","121.461771666667","24.99339","6500100","板橋區"
"220025","687-BX","2018/01/27 14:49:32","新北市板橋區僑中一街88號","121.44719","25.0116683333333","6500100","板橋區"
"220042","689-BX","2018/01/27 14:49:19","新北市板橋區新海路393號","121.458738333333","25.0263816666667","6500100","板橋區"
"220002","741-BX","2018/01/27 14:49:18","新北市板橋區國泰街75巷28弄84-3號","121.46718","25.004165","6500100","板橋區"
"220014","829-TW","2018/01/27 14:49:21","新北市板橋區長安街138巷1弄27號","121.473625","25.00993","6500100","板橋區"
"220022","895-R6","2018/01/27 14:49:35","新北市板橋區文化路一段46巷27號","121.460628333333","25.011265","6500100","板橋區"
"220021","985-R7","2018/01/27 14:49:27","新北市板橋區南雅西路二段164號","121.45173","25.0136616666667","6500100","板橋區"
"220046","AAC-210","2018/01/27 14:49:22","新北市板橋區文化路一段285巷20號","121.463831666667","25.0194466666667","6500100","板橋區"
"220018","AAC-253","2018/01/27 14:49:32","新北市板橋區館前東路63-9號","121.46393","25.0079366666667","6500100","板橋區"
