"lineid","car","time","location","longitude","latitude","cityid","cityname"
"234026","9371-KE","2018/01/27 15:19:36","新北市永和區福和路1號","121.525708333333","25.00943","6500400","永和區"
"234072","AAC-211","2018/01/27 15:19:20","新北市八里區中山路三段409號","121.36845","25.1349666666667","6500400","永和區"
"231002","002-UM","2018/01/27 15:19:20","新北市新店區中正路700巷1號","121.534013333333","24.9912783333333","6500600","新店區"
"231025","0293-UT","2018/01/27 15:19:31","新北市新店區二十張路46巷37弄45號","121.535486666667","24.9812666666667","6500600","新店區"
"231028","046-UY","2018/01/27 15:19:33","新北市新店區僑信路114巷42號","121.499165","24.9462516666667","6500600","新店區"
"231030","047-UY","2018/01/27 15:19:22","新北市新店區安和路三段37號","121.517851666667","24.98187","6500600","新店區"
"231018","107-UY","2018/01/27 15:19:28","新北市新店區中央七街12號","121.530223333333","24.97492","6500600","新店區"
"231012","108-UY","2018/01/27 15:19:30","新北市新店區復興路23號","121.539226666667","24.986645","6500600","新店區"
"231020","110-UY","2018/01/27 15:19:25","新北市新店區湖興路128-7號","121.560703333333","24.9304733333333","6500600","新店區"
"231017","KEA-2219","2018/01/27 15:05:51","新北市新店區明山路5號","121.563238333333","24.9553966666667","6500600","新店區"
"231026","256-BX","2018/01/27 15:19:27","新北市新店區中正路263-1號","121.538603333333","24.9736833333333","6500600","新店區"
"231023","AAD-862","2018/01/27 15:19:26","新北市新店區北新路一段64巷39弄16號","121.542578333333","24.9658666666667","6500600","新店區"
"231024","4716-K9","2018/01/27 15:19:33","新北市新店區新明街10號","121.541006666667","24.96825","6500600","新店區"
"231036","512-UM","2018/01/27 15:19:31","新北市新店區安祥路104巷6弄22號","121.48217","24.9622766666667","6500600","新店區"
"231035","515-UM","2018/01/27 15:19:27","新北市新店區永平街23巷7號","121.516745","24.983005","6500600","新店區"
"231003","616-UM","2018/01/27 15:19:22","新北市新店區寶高路120巷1-1號","121.554621666667","24.97597","6500600","新店區"
"231029","618-UM","2018/01/27 15:19:31","新北市新店區安康路三段738號","121.473835","24.942045","6500600","新店區"
"231001","619-UM","2018/01/27 15:19:34","新北市新店區北新路一段201號","121.540426666667","24.964915","6500600","新店區"
"231034","645-TV","2018/01/27 15:19:27","新北市新店區如意街4巷1號","121.495525","24.9492533333333","6500600","新店區"
"231039","718-UY","2018/01/27 15:19:18","新北市新店區寶元路一段61號","121.542151666667","24.986005","6500600","新店區"
"231033","720-UM","2018/01/27 15:19:19","新北市新店區和成街12巷20號","121.488893333333","24.9476233333333","6500600","新店區"
"231005","897-TW","2018/01/27 15:19:29","新北市新店區民族路15號","121.541471666667","24.97876","6500600","新店區"
"231004","899-TW","2018/01/27 15:19:25","新北市新店區建國路33巷2號","121.540276666667","24.974255","6500600","新店區"
"231037","AKT-0513","2018/01/27 15:19:17","新北市新店區安民街365巷1弄8號","121.516193333333","24.9750583333333","6500600","新店區"
"235030","003-UY","2018/01/27 15:19:19","新北市中和區保平路318號","121.507205","25.0043016666667","6500300","中和區"
"235004","150-BY","2018/01/27 15:19:28","新北市中和區景安路77號","121.50658","24.9974183333333","6500300","中和區"
"235031","255-BX","2018/01/27 15:19:33","新北市五股區天乙路101-6號","121.445545","25.1070433333333","6500300","中和區"
"235014","4979-A6","2018/01/27 15:19:24","新北市中和區景安路177巷10號","121.505798333333","24.9939933333333","6500300","中和區"
"235033","4980-A6","2018/01/27 15:19:23","新北市中和區圓通路172號","121.497341666667","24.99466","6500300","中和區"
"235034","558-UM","2018/01/27 15:19:19","新北市中和區中正路360號","121.493493333333","24.9942283333333","6500300","中和區"
"235026","800-TS","2018/01/27 15:19:21","新北市中和區建八路149號","121.490668333333","24.9986566666667","6500300","中和區"
"235012","896-TW","2018/01/27 15:19:32","新北市中和區興南路一段5號","121.511413333333","24.9911633333333","6500300","中和區"
"235023","AAC-215","2018/01/27 15:19:23","新北市中和區圓通路367巷7號","121.492513333333","24.9882033333333","6500300","中和區"
"220051","120-SR","2018/01/27 15:19:28","新北市板橋區縣民大道三段91號","121.47579","25.0219783333333","6500100","板橋區"
"253003","6232-TK","2018/01/27 15:19:19","新北市石門區小坑9號","121.594401666667","25.28836","6502200","石門區"
"253001","6251-TK","2018/01/27 15:19:31","新北市石門區尖子鹿101-2號","121.58324","25.2944383333333","6502200","石門區"
"253002","637-UY","2018/01/27 15:19:24","新北市石門區楓林42號","121.540245","25.2807733333333","6502200","石門區"
"253004","8270-PC","2018/01/27 15:19:31","新北市石門區小坑29-1號","121.598068333333","25.2712333333333","6502200","石門區"
"208004","AAC-292","2018/01/27 15:19:35","新北市金山區三界壇路93-1號","121.624521666667","25.2287416666667","6502700","金山區"
"207002","749-BX","2018/01/27 15:19:18","新北市萬里區崁腳里內中福路2-1號","121.668886666667","25.165345","6502800","萬里區"
"207001","662-BX","2018/01/27 15:19:23","新北市萬里區大鵬里萬里加投9號","121.65212","25.2080833333333","6502800","萬里區"
"236068","105-UM","2018/01/27 15:19:22","新北市土城區裕民路185巷36弄10號","121.454335","24.98457","6501300","土城區"
"236041","107-UM","2018/01/27 15:19:28","新北市土城區裕民路233巷1號","121.455028333333","24.9835816666667","6501300","土城區"
"236075","166-UM","2018/01/27 15:19:31","新北市土城區溪頭路64號","121.411798333333","24.9548533333333","6501300","土城區"
"236029","253-BX","2018/01/27 15:19:07","新北市土城區中央路一段250巷2-7號","121.443701666667","24.98491","6501300","土城區"
"236024","269-VK","2018/01/27 15:19:19","新北市土城區學府路二段259號","121.445038333333","24.977475","6501300","土城區"
"236013","270-VK","2018/01/27 15:19:29","新北市土城區學府路一段21-1號","121.45856","24.9883683333333","6501300","土城區"
"236035","271-VK","2018/01/27 15:19:23","新北市土城區國際路139巷52號","121.468388333333","24.97749","6501300","土城區"
"236017","401-BY","2018/01/27 15:19:25","新北市土城區明峰街83號","121.468883333333","24.9874383333333","6501300","土城區"
"236057","912-UM","2018/01/27 15:19:22","新北市土城區中央路三段38號","121.438451666667","24.9686033333333","6501300","土城區"
"236045","913-UM","2018/01/27 15:19:17","新北市土城區明德路一段61號","121.465425","24.9844933333333","6501300","土城區"
"236061","915-UM","2018/01/27 15:19:26","新北市土城區延平街65號","121.467803333333","24.9927016666667","6501300","土城區"
"236054","AAC-216","2018/01/27 15:19:33","新北市土城區學府路一段65號","121.45717","24.988325","6501300","土城區"
"220050","245-BX","2018/01/27 15:19:35","新北市板橋區雙十路二段47巷8弄20號","121.47402","25.02605","6500100","板橋區"
"220045","255-TC","2018/01/27 15:19:22","新北市板橋區民生路二段234巷77號","121.470336666667","25.0226583333333","6500100","板橋區"
"220052","257-TC","2018/01/27 15:19:33","新北市板橋區漢生西路75號","121.462911666667","25.0188683333333","6500100","板橋區"
"220001","285-VK","2018/01/27 15:19:32","新北市板橋區縣民大道二段68-1號","121.463253333333","25.0129433333333","6500100","板橋區"
"220031","286-VK","2018/01/27 15:19:35","新北市板橋區僑中二街104巷9號","121.445543333333","25.007915","6500100","板橋區"
"220047","317-R6","2018/01/27 15:19:33","新北市板橋區新海路137號","121.46018","25.0236416666667","6500100","板橋區"
"220038","487-VK","2018/01/27 15:19:39","新北市板橋區互助街79號","121.460061666667","25.0259666666667","6500100","板橋區"
"220011","609-BX","2018/01/27 15:19:28","新北市板橋區中山路二段62號","121.474006666667","25.0157616666667","6500100","板橋區"
"220042","689-BX","2018/01/27 15:19:38","新北市板橋區長江路二段264號","121.469425","25.0328033333333","6500100","板橋區"
"220046","AAC-210","2018/01/27 15:19:21","新北市板橋區文化路一段101巷11號","121.46076","25.0145933333333","6500100","板橋區"
"220018","AAC-253","2018/01/27 15:19:32","新北市板橋區四川路二段253號","121.450461666667","24.9933516666667","6500100","板橋區"
