"lineid","car","time","location","longitude","latitude","cityid","cityname"
"249005","172-UM","2018/01/27 17:19:35","新北市八里區荖阡坑路46號","121.410455","25.12399","6502300","八里區"
"249001","173-UM","2018/01/27 17:19:31","新北市八里區中華路二段165巷3號","121.407658333333","25.1509","6502300","八里區"
"249004","303-UY","2018/01/27 17:19:22","新北市八里區中山路一段45號","121.419091666667","25.159495","6502300","八里區"
"249002","305-UY","2018/01/27 17:19:20","新北市八里區龍米路二段117巷33號","121.445728333333","25.1430166666667","6502300","八里區"
"249003","593-UM","2018/01/27 17:19:34","新北市八里區中山路二段453號","121.396436666667","25.1456083333333","6502300","八里區"
"244013","069-UM","2018/01/27 17:19:31","新北市林口區粉寮69號","121.405021666667","25.0908233333333","6501700","林口區"
"244007","080-UY","2018/01/27 17:19:26","新北市林口區湖子17號","121.385903333333","25.090835","6501700","林口區"
"244019","402-UM","2018/01/27 17:19:25","新北市林口區公園路223巷15號","121.373291666667","25.0748533333333","6501700","林口區"
"244023","483-VK","2018/01/27 17:19:21","新北市林口區仁愛路一段635號","121.389311666667","25.0766183333333","6501700","林口區"
"244011","656-BX","2018/01/27 17:19:01","新北市林口區粉寮69號","121.404878333333","25.09082","6501700","林口區"
"244021","657-BX","2018/01/27 17:19:26","新北市林口區東林里4鄰64號","121.404646666667","25.0904016666667","6501700","林口區"
"244025","837-TS","2018/01/27 17:19:29","新北市林口區文化二路一段565號","121.375161666667","25.0772133333333","6501700","林口區"
"231046","278-BY","2018/01/27 17:19:35","新北市新店區直潭路92號","121.530878333333","24.9376466666667","6500600","新店區"
"241011","013-R5","2018/01/27 17:19:17","新北市三重區龍濱路287號","121.500921666667","25.0737383333333","6500200","三重區"
"241028","022-UY","2018/01/27 17:19:30","新北市三重區仁化街67號","121.493991666667","25.0587833333333","6500200","三重區"
"241008","059-VK","2018/01/27 17:19:39","新北市三重區永福街72巷37-3號","121.480428333333","25.076255","6500200","三重區"
"241009","060-VK","2018/01/27 17:19:29","新北市三重區仁愛街642號","121.483","25.0805383333333","6500200","三重區"
"241015","062-VK","2018/01/27 17:19:22","新北市三重區長元街82-1號","121.501848333333","25.0663016666667","6500200","三重區"
"241017","063-VK","2018/01/27 17:19:23","新北市三重區大同北路91號","121.494791666667","25.0636316666667","6500200","三重區"
"241024","065-VK","2018/01/27 17:19:26","新北市三重區大勇街82巷15弄5號","121.479963333333","25.07182","6500200","三重區"
"241002","090-VK","2018/01/27 17:19:34","新北市三重區自強路五段26號","121.49273","25.0806916666667","6500200","三重區"
"241025","156-TC","2018/01/27 17:19:20","新北市三重區中正北路255號","121.47532","25.0707666666667","6500200","三重區"
"241005","262-UM","2018/01/27 17:19:39","新北市三重區自強路四段60號","121.490155","25.0782983333333","6500200","三重區"
"241026","265-UM","2018/01/27 17:19:30","新北市三重區福裕街11號","121.499718333333","25.0616733333333","6500200","三重區"
"241016","266-UM","2018/01/27 17:19:26","新北市三重區大同北路97-3號","121.494335","25.0635566666667","6500200","三重區"
"241018","268-UM","2018/01/27 17:19:24","新北市三重區正義北路332-1號","121.49446","25.0704133333333","6500200","三重區"
"241032","269-UM","2018/01/27 17:19:20","新北市三重區新北大道一段133巷12號","121.482388333333","25.0608716666667","6500200","三重區"
"241013","270-UM","2018/01/27 17:19:19","新北市三重區三和路三段107巷29號","121.495351666667","25.0731816666667","6500200","三重區"
"241007","398-BY","2018/01/27 17:19:29","新北市三重區三和路四段155巷12號","121.484","25.0786066666667","6500200","三重區"
"241003","KEA-2210","2018/01/27 17:19:35","新北市三重區進安街198號","121.494011666667","25.086045","6500200","三重區"
"241020","413-TH","2018/01/27 17:19:27","新北市三重區忠孝路一段179號","121.487378333333","25.0719433333333","6500200","三重區"
"241004","475-VK","2018/01/27 17:19:21","新北市三重區五華街110巷2號","121.491993333333","25.0827983333333","6500200","三重區"
"241019","478-VK","2018/01/27 17:19:34","新北市三重區忠孝路二段53號","121.485301666667","25.0707633333333","6500200","三重區"
"241030","480-VK","2018/01/27 17:19:22","新北市三重區成功路73巷23-1號","121.489803333333","25.0523966666667","6500200","三重區"
"241014","543-UM","2018/01/27 17:19:22","新北市三重區長榮路6號","121.500105","25.0685916666667","6500200","三重區"
"241023","545-UM","2018/01/27 17:19:20","新北市三重區三民街193號","121.482126666667","25.065635","6500200","三重區"
"241022","887-TS","2018/01/27 17:19:37","新北市三重區中正北路64巷24號","121.486108333333","25.0637216666667","6500200","三重區"
"241012","941-UM","2018/01/27 17:19:28","新北市三重區河邊北街256巷14號","121.501393333333","25.0760716666667","6500200","三重區"
"241029","942-UM","2018/01/27 17:19:26","新北市三重區重新路四段2號","121.489256666667","25.0583966666667","6500200","三重區"
"241033","AAC-255","2018/01/27 17:19:33","新北市三重區中興北街136巷29號","121.46786","25.0559733333333","6500200","三重區"
"247022","893-R6","2018/01/27 17:19:24","新北市蘆洲區三民路128巷34號","121.471035","25.0883783333333","6501400","蘆洲區"
"247012","546-UM","2018/01/27 17:19:26","新北市蘆洲區信義路319巷4號","121.478081666667","25.0863416666667","6501400","蘆洲區"
"247020","500-BY","2018/01/27 17:19:28","新北市蘆洲區民族路426巷14號","121.473551666667","25.0922183333333","6501400","蘆洲區"
"247008","341-TH","2018/01/27 17:19:22","新北市蘆洲區信義路30巷141號","121.475373333333","25.0764716666667","6501400","蘆洲區"
"247010","339-TH","2018/01/27 17:19:21","新北市蘆洲區中山一路120巷7弄34-2號","121.477085","25.0823633333333","6501400","蘆洲區"
"247004","336-TH","2018/01/27 17:19:30","新北市蘆洲區中原路52號","121.459123333333","25.08235","6501400","蘆洲區"
"247016","057-VK","2018/01/27 17:19:24","新北市蘆洲區和平路120-1號","121.467786666667","25.080105","6501400","蘆洲區"
"247006","056-VK","2018/01/27 17:19:27","新北市蘆洲區永安南路二段160號","121.461718333333","25.0791166666667","6501400","蘆洲區"
"247002","053-VK","2018/01/27 17:19:18","新北市蘆洲區永樂街38巷33弄12號","121.457563333333","25.0896366666667","6501400","蘆洲區"
"247014","007-UY","2018/01/27 17:19:25","新北市蘆洲區得勝街118號","121.47113","25.082845","6501400","蘆洲區"
"247024","002-UY","2018/01/27 17:19:35","新北市蘆洲區光榮路2號","121.460345","25.0862833333333","6501400","蘆洲區"
"247018","001-UY","2018/01/27 17:19:35","新北市蘆洲區民權路68巷1號","121.475113333333","25.0873783333333","6501400","蘆洲區"
"228003","097-TW","2018/01/27 17:19:22","新北市貢寮區福隆里興隆街15號","121.943888333333","25.0166133333333","6502600","貢寮區"
"228001","212-TW","2018/01/27 17:19:28","新北市貢寮區仁理村尖山腳街18-3號","121.925485","25.04833","6502600","貢寮區"
"228002","663-BX","2018/01/27 17:19:31","新北市貢寮區雙玉里下雙溪街24號","121.922168333333","25.0098783333333","6502600","貢寮區"
"224006","676-BX","2018/01/27 17:19:39","新北市瑞芳區大寮路39號","121.782206666667","25.0984933333333","6501200","瑞芳區"
"224009","285-BY","2018/01/27 17:19:35","新北市瑞芳區汽車路145號","121.838616666667","25.1099","6501200","瑞芳區"
"224008","275-VK","2018/01/27 17:19:20","新北市瑞芳區侯硐路158號","121.827915","25.0853483333333","6501200","瑞芳區"
"224005","271-BY","2018/01/27 17:19:34","新北市瑞芳區鼻頭路247號","121.912376666667","25.1237616666667","6501200","瑞芳區"
"227010","642-TC","2018/01/27 17:19:21","新北市雙溪區三貂里十三層5-3號","121.852898333333","25.07742","6502500","雙溪區"
"227002","400-TW","2018/01/27 17:19:39","新北市雙溪區上林里內平林75-1號","121.829396666667","25.028295","6502500","雙溪區"
"251009","008-UM","2018/01/27 17:19:22","新北市淡水區三民街20號","121.438993333333","25.1717616666667","6501000","淡水區"
"251004","009-UM","2018/01/27 17:19:34","新北市淡水區中正東路二段88巷15號","121.459108333333","25.1505133333333","6501000","淡水區"
"251013","179-VK","2018/01/27 17:19:32","新北市淡水區破瓦厝子3-6號","121.471611666667","25.1975066666667","6501000","淡水區"
"251014","180-VK","2018/01/27 17:19:24","新北市淡水區番子田120號","121.464341666667","25.22823","6501000","淡水區"
"251008","181-VK","2018/01/27 17:19:31","新北市淡水區大同路293號","121.467505","25.1422516666667","6501000","淡水區"
"251015","182-VK","2018/01/27 17:19:28","新北市淡水區三空泉21號","121.468995","25.16589","6501000","淡水區"
"251010","413-VK","2018/01/27 17:19:36","新北市淡水區新市一路一段6號","121.429058333333","25.1874533333333","6501000","淡水區"
"251012","441-VK","2018/01/27 17:19:33","新北市淡水區中山北路一段158號","121.444201666667","25.1779183333333","6501000","淡水區"
"251016","442-VK","2018/01/27 17:19:23","新北市淡水區社厝坑3-3號","121.474845","25.1873983333333","6501000","淡水區"
"251005","443-VK","2018/01/27 17:19:34","新北市淡水區鄧公路19-1號","121.45027","25.1699283333333","6501000","淡水區"
"251001","559-UM","2018/01/27 17:19:32","新北市淡水區自強路201巷35號","121.462301666667","25.12671","6501000","淡水區"
"251006","561-UM","2018/01/27 17:19:24","新北市淡水區中山路190號","121.441518333333","25.1745266666667","6501000","淡水區"
"251007","577-R6","2018/01/27 17:19:25","新北市淡水區民生路47-4號","121.46209","25.1379883333333","6501000","淡水區"
"251011","650-BX","2018/01/27 17:19:27","新北市淡水區坪頂路147號","121.4671","25.161765","6501000","淡水區"
"251002","672-BX","2018/01/27 17:19:33","新北市淡水區中正路二段31號","121.419296666667","25.1816033333333","6501000","淡水區"
"251003","673-BX","2018/01/27 17:19:30","新北市淡水區中山路157號","121.440751666667","25.1728416666667","6501000","淡水區"
"207003","550-UM","2018/01/27 17:19:30","新北市萬里區萬里里瑪鋉路340號","121.687986666667","25.1826316666667","6502800","萬里區"
"252002","178-VK","2018/01/27 17:19:33","新北市三芝區忠孝街1-14號","121.505523333333","25.2539316666667","6502100","三芝區"
"252001","292-VK","2018/01/27 17:19:27","新北市三芝區長安街119號","121.498015","25.2596416666667","6502100","三芝區"
"242031","AAC-296","2018/01/27 17:19:35","新北市新莊區新泰路488號","121.442471666667","25.0457816666667","6500500","新莊區"
"242029","986-R7","2018/01/27 17:19:18","新北市新莊區新泰路488號","121.442403333333","25.0458433333333","6500500","新莊區"
"242061","705-TV","2018/01/27 17:19:28","新北市新莊區中正路473-1號","121.442071666667","25.0330266666667","6500500","新莊區"
"242025","615-BX","2018/01/27 17:19:23","新北市新莊區中港一街161號","121.447291666667","25.0449333333333","6500500","新莊區"
"242023","613-BX","2018/01/27 17:19:37","新北市新莊區中港一街143號","121.447953333333","25.0449716666667","6500500","新莊區"
"242027","612-BX","2018/01/27 17:19:37","新北市新莊區中和街16號","121.448366666667","25.0433083333333","6500500","新莊區"
"242039","566-BX","2018/01/27 17:19:35","新北市新莊區民安路426-8號","121.432816666667","25.0228133333333","6500500","新莊區"
"242044","442-UM","2018/01/27 17:19:25","新北市新莊區富國路101-1號","121.421321666667","25.02556","6500500","新莊區"
"242053","440-UM","2018/01/27 17:19:27","新北市新莊區環河路462號","121.440141666667","25.0198183333333","6500500","新莊區"
"242034","415-TV","2018/01/27 17:19:32","新北市新莊區瓊林路46-4號","121.447313333333","25.0293416666667","6500500","新莊區"
"242004","413-TV","2018/01/27 17:19:24","新北市新莊區中環路二段392-1號","121.442413333333","25.0453533333333","6500500","新莊區"
"242041","400-BY","2018/01/27 17:19:37","新北市新莊區中正路481號","121.44131","25.033765","6500500","新莊區"
"242058","353-BY","2018/01/27 17:19:27","新北市新莊區中正路400號","121.441958333333","25.0343266666667","6500500","新莊區"
"242007","132-UY","2018/01/27 17:19:28","新北市新莊區中環路二段392-1號","121.44237","25.0453716666667","6500500","新莊區"
"242036","133-UY","2018/01/27 17:19:30","新北市新莊區民安路429巷1號","121.433888333333","25.02312","6500500","新莊區"
"242046","172-VK","2018/01/27 17:19:22","新北市新莊區中正路475號","121.441463333333","25.03379","6500500","新莊區"
"242015","175-VK","2018/01/27 17:19:34","新北市新莊區新泰路314號","121.44521","25.041425","6500500","新莊區"
"242002","176-VK","2018/01/27 17:19:33","新北市新莊區新泰路324號","121.444968333333","25.041805","6500500","新莊區"
"242013","346-TH","2018/01/27 17:19:26","新北市新莊區中和街59巷24號","121.446451666667","25.0466966666667","6500500","新莊區"
"242051","347-TH","2018/01/27 17:19:34","新北市新莊區瓊林南路59-7號","121.43542","25.01628","6500500","新莊區"
"242019","348-TH","2018/01/27 17:19:26","新北市新莊區中港路304號","121.452675","25.0448916666667","6500500","新莊區"
"242056","349-TH","2018/01/27 17:19:39","新北市新莊區新泰路357巷3弄41號","121.442003333333","25.0403","6500500","新莊區"
"242017","350-TH","2018/01/27 17:19:34","新北市新莊區中港路304號","121.452713333333","25.0450383333333","6500500","新莊區"
"242011","351-TH","2018/01/27 17:19:30","新北市新莊區中環路二段392-1號","121.442391666667","25.045585","6500500","新莊區"
"238015","755-BX","2018/01/27 17:19:25","新北市樹林區大安路267號","121.418988333333","24.993695","6500700","樹林區"
"238023","601-UM","2018/01/27 17:19:30","新北市樹林區保安街一段306號","121.41889","24.9974166666667","6500700","樹林區"
"238019","599-UM","2018/01/27 17:19:24","新北市樹林區八德街100號","121.420871666667","24.9801616666667","6500700","樹林區"
"238018","571-TV","2018/01/27 17:19:36","新北市樹林區樹中街32巷16號","121.42025","24.98546","6500700","樹林區"
"238024","5061-A6","2018/01/27 17:19:30","新北市樹林區樹新路79巷11號","121.427133333333","24.9956033333333","6500700","樹林區"
"238021","KEA-2217","2018/01/27 17:19:29","新北市樹林區西圳街一段165巷20弄12號","121.39519","24.9608866666667","6500700","樹林區"
"238022","KEA-2213","2018/01/27 17:19:35","新北市樹林區信義街61號","121.424483333333","24.9829983333333","6500700","樹林區"
"238025","303-VK","2018/01/27 17:19:16","新北市樹林區中山路一段296號","121.420313333333","24.986385","6500700","樹林區"
"238017","283-BY","2018/01/27 17:19:30","新北市樹林區保安街一段260號","121.419821666667","24.9968466666667","6500700","樹林區"
"238014","282-BY","2018/01/27 17:19:35","新北市樹林區長壽街70巷38號","121.4219","24.994925","6500700","樹林區"
"238020","268-VK","2018/01/27 17:19:29","新北市樹林區潭興街22號","121.425161666667","24.99891","6500700","樹林區"
"238026","172-UY","2018/01/27 17:19:17","新北市樹林區味王街42號","121.404586666667","24.9737916666667","6500700","樹林區"
"238016","169-UY","2018/01/27 17:19:22","新北市樹林區八德街1號","121.417476666667","24.984935","6500700","樹林區"
"239007","AAC-297","2018/01/27 17:19:27","新北市鶯歌區行政路6號","121.351046666667","24.9553516666667","6500800","鶯歌區"
"239006","891-R6","2018/01/27 17:19:36","新北市鶯歌區福昌街29巷2號","121.33266","24.9610083333333","6500800","鶯歌區"
"239008","527-UM","2018/01/27 17:19:20","新北市鶯歌區西湖街279巷17號","121.340838333333","24.96779","6500800","鶯歌區"
"239005","526-UM","2018/01/27 17:19:22","桃園市八德區福德二街26號","121.329456666667","24.9670983333333","6500800","鶯歌區"
"239001","417-VK","2018/01/27 17:19:31","新北市鶯歌區尖山路234號","121.34296","24.946685","6500800","鶯歌區"
"239003","360-BY","2018/01/27 17:19:22","新北市鶯歌區德昌二街70巷27弄2號","121.331625","24.9576116666667","6500800","鶯歌區"
"239002","359-BY","2018/01/27 17:19:26","新北市鶯歌區建國路196號","121.349425","24.9536016666667","6500800","鶯歌區"
"239004","193-VK","2018/01/27 17:19:27","新北市鶯歌區文化路324巷1-37號","121.352255","24.945835","6500800","鶯歌區"
"242048","281-VK","2018/01/27 17:19:26","新北市新莊區龍安路249巷1號","121.419001666667","25.0207533333333","6500500","新莊區"
"242021","280-VK","2018/01/27 17:19:30","新北市新莊區中港路306號","121.452626666667","25.04498","6500500","新莊區"
